{"last_updated":1741597767,"ttl":60,"version":"2.2","data":{"bikes":[{"bike_id":"e3565dcf-4d34-49d7-919b-1234920ea466","system_id":"levelo_inurba_marseille","lat":43.33746,"lon":5.3745,"is_reserved":false,"is_disabled":false,"rental_uris":{"android":"levelo://app?vid=e3565dcf-4d34-49d7-919b-1234920ea466","ios":"levelo://app?vid=e3565dcf-4d34-49d7-919b-1234920ea466"},"vehicle_type_id":"4","last_reported":1741597767,"current_range_meters":27600,"station_id":"","pricing_plan_id":"cebpf4jnsgd1na2vs0mg"},{"bike_id":"ee1d2ad1-36ca-49dd-a328-f2a9a9994ecb","system_id":"levelo_inurba_marseille","lat":43.310869,"lon":5.38131,"is_reserved":false,"is_disabled":true,"rental_uris":{"android":"levelo://app?vid=ee1d2ad1-36ca-49dd-a328-f2a9a9994ecb","ios":"levelo://app?vid=ee1d2ad1-36ca-49dd-a328-f2a9a9994ecb"},"vehicle_type_id":"4","last_reported":1741597767,"current_range_meters":0,"station_id":"","pricing_plan_id":"cebpf4jnsgd1na2vs0mg"},{"bike_id":"37f782a7-fe31-425d-96cc-e1070688c0ad","system_id":"levelo_inurba_marseille","lat":43.30263,"lon":5.40083,"is_reserved":false,"is_disabled":true,"rental_uris":{"android":"levelo://app?vid=37f782a7-fe31-425d-96cc-e1070688c0ad","ios":"levelo://app?vid=37f782a7-fe31-425d-96cc-e1070688c0ad"},"vehicle_type_id":"4","last_reported":1741597767,"current_range_meters":0,"station_id":"ce4bgvh2rcd13ifvqcs0","pricing_plan_id":"cebpf4jnsgd1na2vs0mg"},{"bike_id":"5e0a3716-1bf2-4ce7-a519-11a9c9d966b0","system_id":"levelo_inurba_marseille","lat":43.28624,"lon":5.35112,"is_reserved":false,"is_disabled":true,"rental_uris":{"android":"levelo://app?vid=5e0a3716-1bf2-4ce7-a519-11a9c9d966b0","ios":"levelo://app?vid=5e0a3716-1bf2-4ce7-a519-11a9c9d966b0"},"vehicle_type_id":"4","last_reported":1741597767,"current_range_meters":0,"station_id":"ce4bhch2rcd13ifvqeug","pricing_plan_id":"cebpf4jnsgd1na2vs0mg"},{"bike_id":"a93b1e1d-f8e1-4019-9d9e-511d21b05502","system_id":"levelo_inurba_marseille","lat":43.27937,"lon":5.41037,"is_reserved":false,"is_disabled":true,"rental_uris":{"android":"levelo://app?vid=a93b1e1d-f8e1-4019-9d9e-511d21b05502","ios":"levelo://app?vid=a93b1e1d-f8e1-4019-9d9e-511d21b05502"},"vehicle_type_id":"4","last_reported":1741597767,"current_range_meters":0,"station_id":"ce4bhnp2rcd13ifvqh0g","pricing_plan_id":"cebpf4jnsgd1na2vs0mg"},{"bike_id":"6f1ee804-48f9-4191-9acf-83810d002301","system_id":"levelo_inurba_marseille","lat":43.2791,"lon":5.41046,"is_reserved":false,"is_disabled":true,"rental_uris":{"android":"levelo://app?vid=6f1ee804-48f9-4191-9acf-83810d002301","ios":"levelo://app?vid=6f1ee804-48f9-4191-9acf-83810d002301"},"vehicle_type_id":"4","last_reported":1741597767,"current_range_meters":0,"station_id":"ce4bhnp2rcd13ifvqh0g","pricing_plan_id":"cebpf4jnsgd1na2vs0mg"},{"bike_id":"3be8f1e8-e44d-40a4-9754-ce3f4628762b","system_id":"levelo_inurba_marseille","lat":43.24167,"lon":5.397,"is_reserved":false,"is_disabled":true,"rental_uris":{"android":"levelo://app?vid=3be8f1e8-e44d-40a4-9754-ce3f4628762b","ios":"levelo://app?vid=3be8f1e8-e44d-40a4-9754-ce3f4628762b"},"vehicle_type_id":"4","last_reported":1741597767,"current_range_meters":400,"station_id":"ce4bhn12rcd13ifvqgpg","pricing_plan_id":"cebpf4jnsgd1na2vs0mg"},{"bike_id":"433ba162-a065-4bde-a594-ee22be397314","system_id":"levelo_inurba_marseille","lat":43.27329,"lon":5.39056,"is_reserved":false,"is_disabled":true,"rental_uris":{"android":"levelo://app?vid=433ba162-a065-4bde-a594-ee22be397314","ios":"levelo://app?vid=433ba162-a065-4bde-a594-ee22be397314"},"vehicle_type_id":"4","last_reported":1741597767,"current_range_meters":800,"station_id":"ce4bhgp2rcd13ifvqfe0","pricing_plan_id":"cebpf4jnsgd1na2vs0mg"},{"bike_id":"0b41a417-5dab-43ec-a71a-abe58a530228","system_id":"levelo_inurba_marseille","lat":43.25942,"lon":5.409,"is_reserved":false,"is_disabled":true,"rental_uris":{"android":"levelo://app?vid=0b41a417-5dab-43ec-a71a-abe58a530228","ios":"levelo://app?vid=0b41a417-5dab-43ec-a71a-abe58a530228"},"vehicle_type_id":"4","last_reported":1741597767,"current_range_meters":800,"station_id":"ce4bhm92rcd13ifvqglg","pricing_plan_id":"cebpf4jnsgd1na2vs0mg"},{"bike_id":"661f98d3-de40-41b0-818d-49a15f743932","system_id":"levelo_inurba_marseille","lat":43.2815,"lon":5.42638,"is_reserved":false,"is_disabled":true,"rental_uris":{"android":"levelo://app?vid=661f98d3-de40-41b0-818d-49a15f743932","ios":"levelo://app?vid=661f98d3-de40-41b0-818d-49a15f743932"},"vehicle_type_id":"4","last_reported":1741597767,"current_range_meters":800,"station_id":"ce4bhnh2rcd13ifvqgug","pricing_plan_id":"cebpf4jnsgd1na2vs0mg"},{"bike_id":"49f588ee-0bdb-45dd-9bc3-a475604e8d55","system_id":"levelo_inurba_marseille","lat":43.27941,"lon":5.41044,"is_reserved":false,"is_disabled":true,"rental_uris":{"android":"levelo://app?vid=49f588ee-0bdb-45dd-9bc3-a475604e8d55","ios":"levelo://app?vid=49f588ee-0bdb-45dd-9bc3-a475604e8d55"},"vehicle_type_id":"4","last_reported":1741597767,"current_range_meters":800,"station_id":"ce4bhnp2rcd13ifvqh0g","pricing_plan_id":"cebpf4jnsgd1na2vs0mg"},{"bike_id":"a599ce58-c711-48a5-b3c6-877fb35dc76c","system_id":"levelo_inurba_marseille","lat":43.303,"lon":5.37705,"is_reserved":false,"is_disabled":true,"rental_uris":{"android":"levelo://app?vid=a599ce58-c711-48a5-b3c6-877fb35dc76c","ios":"levelo://app?vid=a599ce58-c711-48a5-b3c6-877fb35dc76c"},"vehicle_type_id":"4","last_reported":1741597767,"current_range_meters":1200,"station_id":"ce4bguh2rcd13ifvqcj0","pricing_plan_id":"cebpf4jnsgd1na2vs0mg"},{"bike_id":"1d4bb7b9-3ae6-4d31-8bdd-ee00b3232adf","system_id":"levelo_inurba_marseille","lat":43.2575,"lon":5.41124,"is_reserved":false,"is_disabled":true,"rental_uris":{"android":"levelo://app?vid=1d4bb7b9-3ae6-4d31-8bdd-ee00b3232adf","ios":"levelo://app?vid=1d4bb7b9-3ae6-4d31-8bdd-ee00b3232adf"},"vehicle_type_id":"4","last_reported":1741597767,"current_range_meters":1200,"station_id":"ce4bhkp2rcd13ifvqgd0","pricing_plan_id":"cebpf4jnsgd1na2vs0mg"},{"bike_id":"82a4681a-266c-4648-9901-73c6d6240e94","system_id":"levelo_inurba_marseille","lat":43.25118,"lon":5.40319,"is_reserved":false,"is_disabled":true,"rental_uris":{"android":"levelo://app?vid=82a4681a-266c-4648-9901-73c6d6240e94","ios":"levelo://app?vid=82a4681a-266c-4648-9901-73c6d6240e94"},"vehicle_type_id":"4","last_reported":1741597767,"current_range_meters":1200,"station_id":"ce4bhlh2rcd13ifvqgig","pricing_plan_id":"cebpf4jnsgd1na2vs0mg"},{"bike_id":"b4d96cf7-2e2e-4ea7-8bcd-c15283b1203f","system_id":"levelo_inurba_marseille","lat":43.27496,"lon":5.42467,"is_reserved":false,"is_disabled":true,"rental_uris":{"android":"levelo://app?vid=b4d96cf7-2e2e-4ea7-8bcd-c15283b1203f","ios":"levelo://app?vid=b4d96cf7-2e2e-4ea7-8bcd-c15283b1203f"},"vehicle_type_id":"4","last_reported":1741597767,"current_range_meters":1200,"station_id":"ce4bhn92rcd13ifvqgrg","pricing_plan_id":"cebpf4jnsgd1na2vs0mg"},{"bike_id":"d399c68f-4683-4187-95d7-e32ffde3c66c","system_id":"levelo_inurba_marseille","lat":43.25079,"lon":5.39514,"is_reserved":false,"is_disabled":true,"rental_uris":{"android":"levelo://app?vid=d399c68f-4683-4187-95d7-e32ffde3c66c","ios":"levelo://app?vid=d399c68f-4683-4187-95d7-e32ffde3c66c"},"vehicle_type_id":"4","last_reported":1741597767,"current_range_meters":1600,"station_id":"ce4bhm12rcd13ifvqgkg","pricing_plan_id":"cebpf4jnsgd1na2vs0mg"},{"bike_id":"5d9163e0-29c8-4a47-9040-7b5e36323c8c","system_id":"levelo_inurba_marseille","lat":43.28608,"lon":5.37068,"is_reserved":false,"is_disabled":true,"rental_uris":{"android":"levelo://app?vid=5d9163e0-29c8-4a47-9040-7b5e36323c8c","ios":"levelo://app?vid=5d9163e0-29c8-4a47-9040-7b5e36323c8c"},"vehicle_type_id":"4","last_reported":1741597767,"current_range_meters":1600,"station_id":"ce4bht12rcd13ifvqi60","pricing_plan_id":"cebpf4jnsgd1na2vs0mg"},{"bike_id":"f1517875-5c6e-434c-a999-acbcb4689719","system_id":"levelo_inurba_marseille","lat":43.28616,"lon":5.35109,"is_reserved":false,"is_disabled":true,"rental_uris":{"android":"levelo://app?vid=f1517875-5c6e-434c-a999-acbcb4689719","ios":"levelo://app?vid=f1517875-5c6e-434c-a999-acbcb4689719"},"vehicle_type_id":"4","last_reported":1741597767,"current_range_meters":2000,"station_id":"ce4bhch2rcd13ifvqeug","pricing_plan_id":"cebpf4jnsgd1na2vs0mg"},{"bike_id":"57835ad0-ae77-4c64-a836-21b673a5c8fe","system_id":"levelo_inurba_marseille","lat":43.25722,"lon":5.41105,"is_reserved":false,"is_disabled":true,"rental_uris":{"android":"levelo://app?vid=57835ad0-ae77-4c64-a836-21b673a5c8fe","ios":"levelo://app?vid=57835ad0-ae77-4c64-a836-21b673a5c8fe"},"vehicle_type_id":"4","last_reported":1741597767,"current_range_meters":2000,"station_id":"ce4bhkp2rcd13ifvqgd0","pricing_plan_id":"cebpf4jnsgd1na2vs0mg"},{"bike_id":"c787a0ef-03a5-4d36-b53c-60238e9036da","system_id":"levelo_inurba_marseille","lat":43.23185,"lon":5.39989,"is_reserved":false,"is_disabled":true,"rental_uris":{"android":"levelo://app?vid=c787a0ef-03a5-4d36-b53c-60238e9036da","ios":"levelo://app?vid=c787a0ef-03a5-4d36-b53c-60238e9036da"},"vehicle_type_id":"4","last_reported":1741597767,"current_range_meters":2000,"station_id":"ce4bhn12rcd13ifvqgqg","pricing_plan_id":"cebpf4jnsgd1na2vs0mg"},{"bike_id":"7fe62005-9e77-4809-ad25-e5ce70b6746d","system_id":"levelo_inurba_marseille","lat":43.25123,"lon":5.40318,"is_reserved":false,"is_disabled":false,"rental_uris":{"android":"levelo://app?vid=7fe62005-9e77-4809-ad25-e5ce70b6746d","ios":"levelo://app?vid=7fe62005-9e77-4809-ad25-e5ce70b6746d"},"vehicle_type_id":"4","last_reported":1741597767,"current_range_meters":2800,"station_id":"ce4bhlh2rcd13ifvqgig","pricing_plan_id":"cebpf4jnsgd1na2vs0mg"},{"bike_id":"c1eeac08-f34f-42a6-91aa-491ff0feb9d5","system_id":"levelo_inurba_marseille","lat":43.29369,"lon":5.37849,"is_reserved":false,"is_disabled":false,"rental_uris":{"android":"levelo://app?vid=c1eeac08-f34f-42a6-91aa-491ff0feb9d5","ios":"levelo://app?vid=c1eeac08-f34f-42a6-91aa-491ff0feb9d5"},"vehicle_type_id":"4","last_reported":1741597767,"current_range_meters":3200,"station_id":"ce4bgjh2rcd13ifvqbf0","pricing_plan_id":"cebpf4jnsgd1na2vs0mg"},{"bike_id":"a2c012b6-4b80-4ee1-9ae4-3740d1d3ed06","system_id":"levelo_inurba_marseille","lat":43.24653,"lon":5.38895,"is_reserved":false,"is_disabled":false,"rental_uris":{"android":"levelo://app?vid=a2c012b6-4b80-4ee1-9ae4-3740d1d3ed06","ios":"levelo://app?vid=a2c012b6-4b80-4ee1-9ae4-3740d1d3ed06"},"vehicle_type_id":"4","last_reported":1741597767,"current_range_meters":3200,"station_id":"ce4bhg12rcd13ifvqf60","pricing_plan_id":"cebpf4jnsgd1na2vs0mg"},{"bike_id":"2e3c60b3-f5fc-40b6-b347-86b0b4f3ee6e","system_id":"levelo_inurba_marseille","lat":43.23202,"lon":5.4002,"is_reserved":false,"is_disabled":false,"rental_uris":{"android":"levelo://app?vid=2e3c60b3-f5fc-40b6-b347-86b0b4f3ee6e","ios":"levelo://app?vid=2e3c60b3-f5fc-40b6-b347-86b0b4f3ee6e"},"vehicle_type_id":"4","last_reported":1741597767,"current_range_meters":3200,"station_id":"ce4bhn12rcd13ifvqgqg","pricing_plan_id":"cebpf4jnsgd1na2vs0mg"},{"bike_id":"1d12d484-14d1-45a6-b7bb-e83591734ac1","system_id":"levelo_inurba_marseille","lat":43.27935,"lon":5.41046,"is_reserved":false,"is_disabled":false,"rental_uris":{"android":"levelo://app?vid=1d12d484-14d1-45a6-b7bb-e83591734ac1","ios":"levelo://app?vid=1d12d484-14d1-45a6-b7bb-e83591734ac1"},"vehicle_type_id":"4","last_reported":1741597767,"current_range_meters":3200,"station_id":"ce4bhnp2rcd13ifvqh0g","pricing_plan_id":"cebpf4jnsgd1na2vs0mg"},{"bike_id":"803f2b82-4bc0-4ae7-b369-d8002e96387a","system_id":"levelo_inurba_marseille","lat":43.32466,"lon":5.36596,"is_reserved":false,"is_disabled":false,"rental_uris":{"android":"levelo://app?vid=803f2b82-4bc0-4ae7-b369-d8002e96387a","ios":"levelo://app?vid=803f2b82-4bc0-4ae7-b369-d8002e96387a"},"vehicle_type_id":"4","last_reported":1741597767,"current_range_meters":3600,"station_id":"ce4bhs12rcd13ifvqhvg","pricing_plan_id":"cebpf4jnsgd1na2vs0mg"},{"bike_id":"c0d6ea29-9fc0-4a71-ba70-9c457d6ee2ba","system_id":"levelo_inurba_marseille","lat":43.30954,"lon":5.39034,"is_reserved":false,"is_disabled":false,"rental_uris":{"android":"levelo://app?vid=c0d6ea29-9fc0-4a71-ba70-9c457d6ee2ba","ios":"levelo://app?vid=c0d6ea29-9fc0-4a71-ba70-9c457d6ee2ba"},"vehicle_type_id":"4","last_reported":1741597767,"current_range_meters":4000,"station_id":"ce4bgup2rcd13ifvqco0","pricing_plan_id":"cebpf4jnsgd1na2vs0mg"},{"bike_id":"d2e0d35c-446e-4af5-b4bc-3be089ec6678","system_id":"levelo_inurba_marseille","lat":43.28664,"lon":5.38665,"is_reserved":false,"is_disabled":false,"rental_uris":{"android":"levelo://app?vid=d2e0d35c-446e-4af5-b4bc-3be089ec6678","ios":"levelo://app?vid=d2e0d35c-446e-4af5-b4bc-3be089ec6678"},"vehicle_type_id":"4","last_reported":1741597767,"current_range_meters":4400,"station_id":"ce4bh492rcd13ifvqdug","pricing_plan_id":"cebpf4jnsgd1na2vs0mg"},{"bike_id":"25d97b0c-f5f1-4983-a59f-dcbc69e2ddfc","system_id":"levelo_inurba_marseille","lat":43.23157,"lon":5.43709,"is_reserved":false,"is_disabled":false,"rental_uris":{"android":"levelo://app?vid=25d97b0c-f5f1-4983-a59f-dcbc69e2ddfc","ios":"levelo://app?vid=25d97b0c-f5f1-4983-a59f-dcbc69e2ddfc"},"vehicle_type_id":"4","last_reported":1741597767,"current_range_meters":4400,"station_id":"ce4bhmp2rcd13ifvqgog","pricing_plan_id":"cebpf4jnsgd1na2vs0mg"},{"bike_id":"93964709-a405-4e8c-9198-15f348c3868a","system_id":"levelo_inurba_marseille","lat":43.25927,"lon":5.40902,"is_reserved":false,"is_disabled":false,"rental_uris":{"android":"levelo://app?vid=93964709-a405-4e8c-9198-15f348c3868a","ios":"levelo://app?vid=93964709-a405-4e8c-9198-15f348c3868a"},"vehicle_type_id":"4","last_reported":1741597767,"current_range_meters":4800,"station_id":"ce4bhm92rcd13ifvqglg","pricing_plan_id":"cebpf4jnsgd1na2vs0mg"},{"bike_id":"f4693df5-a14c-4083-8d32-d05000f58a85","system_id":"levelo_inurba_marseille","lat":43.2407,"lon":5.37763,"is_reserved":false,"is_disabled":false,"rental_uris":{"android":"levelo://app?vid=f4693df5-a14c-4083-8d32-d05000f58a85","ios":"levelo://app?vid=f4693df5-a14c-4083-8d32-d05000f58a85"},"vehicle_type_id":"4","last_reported":1741597767,"current_range_meters":4800,"station_id":"ce4bhnp2rcd13ifvqgvg","pricing_plan_id":"cebpf4jnsgd1na2vs0mg"},{"bike_id":"11cc2fb3-9ee9-49f5-a67d-0cf910cd61d2","system_id":"levelo_inurba_marseille","lat":43.30259,"lon":5.40079,"is_reserved":false,"is_disabled":false,"rental_uris":{"android":"levelo://app?vid=11cc2fb3-9ee9-49f5-a67d-0cf910cd61d2","ios":"levelo://app?vid=11cc2fb3-9ee9-49f5-a67d-0cf910cd61d2"},"vehicle_type_id":"4","last_reported":1741597767,"current_range_meters":5600,"station_id":"ce4bgvh2rcd13ifvqcs0","pricing_plan_id":"cebpf4jnsgd1na2vs0mg"},{"bike_id":"8810679a-e7c9-4297-97b3-dd7d0bfc4864","system_id":"levelo_inurba_marseille","lat":43.25036,"lon":5.38933,"is_reserved":false,"is_disabled":false,"rental_uris":{"android":"levelo://app?vid=8810679a-e7c9-4297-97b3-dd7d0bfc4864","ios":"levelo://app?vid=8810679a-e7c9-4297-97b3-dd7d0bfc4864"},"vehicle_type_id":"4","last_reported":1741597767,"current_range_meters":5600,"station_id":"ce4bhgp2rcd13ifvqfd0","pricing_plan_id":"cebpf4jnsgd1na2vs0mg"},{"bike_id":"e5e118b0-32a8-4ef3-b6d1-b7487133ba19","system_id":"levelo_inurba_marseille","lat":43.28156,"lon":5.42681,"is_reserved":false,"is_disabled":false,"rental_uris":{"android":"levelo://app?vid=e5e118b0-32a8-4ef3-b6d1-b7487133ba19","ios":"levelo://app?vid=e5e118b0-32a8-4ef3-b6d1-b7487133ba19"},"vehicle_type_id":"4","last_reported":1741597767,"current_range_meters":5600,"station_id":"ce4bhnh2rcd13ifvqgug","pricing_plan_id":"cebpf4jnsgd1na2vs0mg"},{"bike_id":"8a743ff6-18c0-4bd1-b614-5bba8d296592","system_id":"levelo_inurba_marseille","lat":43.27946,"lon":5.41049,"is_reserved":false,"is_disabled":false,"rental_uris":{"android":"levelo://app?vid=8a743ff6-18c0-4bd1-b614-5bba8d296592","ios":"levelo://app?vid=8a743ff6-18c0-4bd1-b614-5bba8d296592"},"vehicle_type_id":"4","last_reported":1741597767,"current_range_meters":5600,"station_id":"ce4bhnp2rcd13ifvqh0g","pricing_plan_id":"cebpf4jnsgd1na2vs0mg"},{"bike_id":"0fb818e1-b0b3-4883-8925-5246737d8a77","system_id":"levelo_inurba_marseille","lat":43.33602,"lon":5.41032,"is_reserved":false,"is_disabled":false,"rental_uris":{"android":"levelo://app?vid=0fb818e1-b0b3-4883-8925-5246737d8a77","ios":"levelo://app?vid=0fb818e1-b0b3-4883-8925-5246737d8a77"},"vehicle_type_id":"4","last_reported":1741597767,"current_range_meters":5600,"station_id":"ce4bhqh2rcd13ifvqhmg","pricing_plan_id":"cebpf4jnsgd1na2vs0mg"},{"bike_id":"80f5b241-9944-4452-b2a9-19e7fe1aa047","system_id":"levelo_inurba_marseille","lat":43.31332,"lon":5.36739,"is_reserved":false,"is_disabled":false,"rental_uris":{"android":"levelo://app?vid=80f5b241-9944-4452-b2a9-19e7fe1aa047","ios":"levelo://app?vid=80f5b241-9944-4452-b2a9-19e7fe1aa047"},"vehicle_type_id":"4","last_reported":1741597767,"current_range_meters":6000,"station_id":"ce4bgr92rcd13ifvqc6g","pricing_plan_id":"cebpf4jnsgd1na2vs0mg"},{"bike_id":"7390ebbf-3d0c-487b-a5cc-ed1df7c7f0dc","system_id":"levelo_inurba_marseille","lat":43.241623,"lon":5.397183,"is_reserved":false,"is_disabled":false,"rental_uris":{"android":"levelo://app?vid=7390ebbf-3d0c-487b-a5cc-ed1df7c7f0dc","ios":"levelo://app?vid=7390ebbf-3d0c-487b-a5cc-ed1df7c7f0dc"},"vehicle_type_id":"4","last_reported":1741597767,"current_range_meters":6000,"station_id":"ce4bhn12rcd13ifvqgpg","pricing_plan_id":"cebpf4jnsgd1na2vs0mg"},{"bike_id":"fe270f6f-3058-4d0d-bb0f-717033fe11c4","system_id":"levelo_inurba_marseille","lat":43.27496,"lon":5.42453,"is_reserved":false,"is_disabled":false,"rental_uris":{"android":"levelo://app?vid=fe270f6f-3058-4d0d-bb0f-717033fe11c4","ios":"levelo://app?vid=fe270f6f-3058-4d0d-bb0f-717033fe11c4"},"vehicle_type_id":"4","last_reported":1741597767,"current_range_meters":6000,"station_id":"ce4bhn92rcd13ifvqgrg","pricing_plan_id":"cebpf4jnsgd1na2vs0mg"},{"bike_id":"4c65dcad-8873-4182-9456-cfc1ff9f2251","system_id":"levelo_inurba_marseille","lat":43.28157,"lon":5.42645,"is_reserved":false,"is_disabled":false,"rental_uris":{"android":"levelo://app?vid=4c65dcad-8873-4182-9456-cfc1ff9f2251","ios":"levelo://app?vid=4c65dcad-8873-4182-9456-cfc1ff9f2251"},"vehicle_type_id":"4","last_reported":1741597767,"current_range_meters":6000,"station_id":"ce4bhnh2rcd13ifvqgug","pricing_plan_id":"cebpf4jnsgd1na2vs0mg"},{"bike_id":"19bbe8da-d7df-496e-a677-cbaab925cf5e","system_id":"levelo_inurba_marseille","lat":43.24879,"lon":5.42529,"is_reserved":false,"is_disabled":false,"rental_uris":{"android":"levelo://app?vid=19bbe8da-d7df-496e-a677-cbaab925cf5e","ios":"levelo://app?vid=19bbe8da-d7df-496e-a677-cbaab925cf5e"},"vehicle_type_id":"4","last_reported":1741597767,"current_range_meters":6400,"station_id":"","pricing_plan_id":"cebpf4jnsgd1na2vs0mg"},{"bike_id":"a522e2ef-641e-45f6-85f5-5952ec941a6a","system_id":"levelo_inurba_marseille","lat":43.25721,"lon":5.4111,"is_reserved":false,"is_disabled":false,"rental_uris":{"android":"levelo://app?vid=a522e2ef-641e-45f6-85f5-5952ec941a6a","ios":"levelo://app?vid=a522e2ef-641e-45f6-85f5-5952ec941a6a"},"vehicle_type_id":"4","last_reported":1741597767,"current_range_meters":6400,"station_id":"ce4bhkp2rcd13ifvqgd0","pricing_plan_id":"cebpf4jnsgd1na2vs0mg"},{"bike_id":"ce090f12-c0e8-4601-8e24-88472425a3e5","system_id":"levelo_inurba_marseille","lat":43.25112,"lon":5.40318,"is_reserved":false,"is_disabled":false,"rental_uris":{"android":"levelo://app?vid=ce090f12-c0e8-4601-8e24-88472425a3e5","ios":"levelo://app?vid=ce090f12-c0e8-4601-8e24-88472425a3e5"},"vehicle_type_id":"4","last_reported":1741597767,"current_range_meters":6400,"station_id":"ce4bhlh2rcd13ifvqgig","pricing_plan_id":"cebpf4jnsgd1na2vs0mg"},{"bike_id":"045eaadf-27e3-4933-a165-91600a1deffb","system_id":"levelo_inurba_marseille","lat":43.25935,"lon":5.40906,"is_reserved":false,"is_disabled":false,"rental_uris":{"android":"levelo://app?vid=045eaadf-27e3-4933-a165-91600a1deffb","ios":"levelo://app?vid=045eaadf-27e3-4933-a165-91600a1deffb"},"vehicle_type_id":"4","last_reported":1741597767,"current_range_meters":6400,"station_id":"ce4bhm92rcd13ifvqglg","pricing_plan_id":"cebpf4jnsgd1na2vs0mg"},{"bike_id":"f03d2eed-0be8-4590-957c-bb803d52c8bb","system_id":"levelo_inurba_marseille","lat":43.31232,"lon":5.36829,"is_reserved":false,"is_disabled":false,"rental_uris":{"android":"levelo://app?vid=f03d2eed-0be8-4590-957c-bb803d52c8bb","ios":"levelo://app?vid=f03d2eed-0be8-4590-957c-bb803d52c8bb"},"vehicle_type_id":"4","last_reported":1741597767,"current_range_meters":6800,"station_id":"ce4bgl92rcd13ifvqbq0","pricing_plan_id":"cebpf4jnsgd1na2vs0mg"},{"bike_id":"282100e0-e0fc-46c7-bbde-bf102c89d654","system_id":"levelo_inurba_marseille","lat":43.2667,"lon":5.38268,"is_reserved":false,"is_disabled":false,"rental_uris":{"android":"levelo://app?vid=282100e0-e0fc-46c7-bbde-bf102c89d654","ios":"levelo://app?vid=282100e0-e0fc-46c7-bbde-bf102c89d654"},"vehicle_type_id":"4","last_reported":1741597767,"current_range_meters":6800,"station_id":"ce4bhg92rcd13ifvqf90","pricing_plan_id":"cebpf4jnsgd1na2vs0mg"},{"bike_id":"14704438-ead4-4a94-95b6-837271a082f6","system_id":"levelo_inurba_marseille","lat":43.24696,"lon":5.38151,"is_reserved":false,"is_disabled":false,"rental_uris":{"android":"levelo://app?vid=14704438-ead4-4a94-95b6-837271a082f6","ios":"levelo://app?vid=14704438-ead4-4a94-95b6-837271a082f6"},"vehicle_type_id":"4","last_reported":1741597767,"current_range_meters":6800,"station_id":"ce4bhih2rcd13ifvqfr0","pricing_plan_id":"cebpf4jnsgd1na2vs0mg"},{"bike_id":"ac2efbb8-87f5-4e67-91b6-6982ed970754","system_id":"levelo_inurba_marseille","lat":43.25113,"lon":5.40321,"is_reserved":false,"is_disabled":false,"rental_uris":{"android":"levelo://app?vid=ac2efbb8-87f5-4e67-91b6-6982ed970754","ios":"levelo://app?vid=ac2efbb8-87f5-4e67-91b6-6982ed970754"},"vehicle_type_id":"4","last_reported":1741597767,"current_range_meters":6800,"station_id":"ce4bhlh2rcd13ifvqgig","pricing_plan_id":"cebpf4jnsgd1na2vs0mg"},{"bike_id":"29b82548-d416-4900-9874-14422b78b248","system_id":"levelo_inurba_marseille","lat":43.3361,"lon":5.41035,"is_reserved":false,"is_disabled":false,"rental_uris":{"android":"levelo://app?vid=29b82548-d416-4900-9874-14422b78b248","ios":"levelo://app?vid=29b82548-d416-4900-9874-14422b78b248"},"vehicle_type_id":"4","last_reported":1741597767,"current_range_meters":6800,"station_id":"ce4bhqh2rcd13ifvqhmg","pricing_plan_id":"cebpf4jnsgd1na2vs0mg"},{"bike_id":"4eb6fcb4-c945-47c5-8c44-42ad796e711b","system_id":"levelo_inurba_marseille","lat":43.31345,"lon":5.36724,"is_reserved":false,"is_disabled":false,"rental_uris":{"android":"levelo://app?vid=4eb6fcb4-c945-47c5-8c44-42ad796e711b","ios":"levelo://app?vid=4eb6fcb4-c945-47c5-8c44-42ad796e711b"},"vehicle_type_id":"4","last_reported":1741597767,"current_range_meters":7200,"station_id":"ce4bgr92rcd13ifvqc6g","pricing_plan_id":"cebpf4jnsgd1na2vs0mg"},{"bike_id":"5d3de634-4f2e-4dc3-92c9-c713336471ee","system_id":"levelo_inurba_marseille","lat":43.24071,"lon":5.37758,"is_reserved":false,"is_disabled":false,"rental_uris":{"android":"levelo://app?vid=5d3de634-4f2e-4dc3-92c9-c713336471ee","ios":"levelo://app?vid=5d3de634-4f2e-4dc3-92c9-c713336471ee"},"vehicle_type_id":"4","last_reported":1741597767,"current_range_meters":7200,"station_id":"ce4bhnp2rcd13ifvqgvg","pricing_plan_id":"cebpf4jnsgd1na2vs0mg"},{"bike_id":"55fc6b10-f388-48db-a281-045fb494a3fc","system_id":"levelo_inurba_marseille","lat":43.24073,"lon":5.37755,"is_reserved":false,"is_disabled":false,"rental_uris":{"android":"levelo://app?vid=55fc6b10-f388-48db-a281-045fb494a3fc","ios":"levelo://app?vid=55fc6b10-f388-48db-a281-045fb494a3fc"},"vehicle_type_id":"4","last_reported":1741597767,"current_range_meters":7200,"station_id":"ce4bhnp2rcd13ifvqgvg","pricing_plan_id":"cebpf4jnsgd1na2vs0mg"},{"bike_id":"4711a0d3-184b-4ba2-86aa-fea8964a4a5c","system_id":"levelo_inurba_marseille","lat":43.31075,"lon":5.42438,"is_reserved":false,"is_disabled":false,"rental_uris":{"android":"levelo://app?vid=4711a0d3-184b-4ba2-86aa-fea8964a4a5c","ios":"levelo://app?vid=4711a0d3-184b-4ba2-86aa-fea8964a4a5c"},"vehicle_type_id":"4","last_reported":1741597767,"current_range_meters":7200,"station_id":"ce4bhp92rcd13ifvqhag","pricing_plan_id":"cebpf4jnsgd1na2vs0mg"},{"bike_id":"88548925-a557-406b-bf32-1c0f45d19503","system_id":"levelo_inurba_marseille","lat":43.2985,"lon":5.36278,"is_reserved":false,"is_disabled":false,"rental_uris":{"android":"levelo://app?vid=88548925-a557-406b-bf32-1c0f45d19503","ios":"levelo://app?vid=88548925-a557-406b-bf32-1c0f45d19503"},"vehicle_type_id":"4","last_reported":1741597767,"current_range_meters":8000,"station_id":"ce4bgpp2rcd13ifvqc3g","pricing_plan_id":"cebpf4jnsgd1na2vs0mg"},{"bike_id":"96b74608-ff1b-4dd1-88d1-373fdaf06100","system_id":"levelo_inurba_marseille","lat":43.31379,"lon":5.36727,"is_reserved":false,"is_disabled":false,"rental_uris":{"android":"levelo://app?vid=96b74608-ff1b-4dd1-88d1-373fdaf06100","ios":"levelo://app?vid=96b74608-ff1b-4dd1-88d1-373fdaf06100"},"vehicle_type_id":"4","last_reported":1741597767,"current_range_meters":8000,"station_id":"ce4bgr92rcd13ifvqc6g","pricing_plan_id":"cebpf4jnsgd1na2vs0mg"},{"bike_id":"f6e4d98d-4689-4f56-95af-73db69009e69","system_id":"levelo_inurba_marseille","lat":43.31339,"lon":5.36749,"is_reserved":false,"is_disabled":false,"rental_uris":{"android":"levelo://app?vid=f6e4d98d-4689-4f56-95af-73db69009e69","ios":"levelo://app?vid=f6e4d98d-4689-4f56-95af-73db69009e69"},"vehicle_type_id":"4","last_reported":1741597767,"current_range_meters":8000,"station_id":"ce4bgr92rcd13ifvqc6g","pricing_plan_id":"cebpf4jnsgd1na2vs0mg"},{"bike_id":"d2e04520-400a-4957-8b2e-e1acbfa42656","system_id":"levelo_inurba_marseille","lat":43.28704,"lon":5.37389,"is_reserved":false,"is_disabled":false,"rental_uris":{"android":"levelo://app?vid=d2e04520-400a-4957-8b2e-e1acbfa42656","ios":"levelo://app?vid=d2e04520-400a-4957-8b2e-e1acbfa42656"},"vehicle_type_id":"4","last_reported":1741597767,"current_range_meters":8000,"station_id":"ce4bh3p2rcd13ifvqdq0","pricing_plan_id":"cebpf4jnsgd1na2vs0mg"},{"bike_id":"f5d27d01-effc-4a0c-b4ac-2b42b750aca5","system_id":"levelo_inurba_marseille","lat":43.245543,"lon":5.395237,"is_reserved":false,"is_disabled":false,"rental_uris":{"android":"levelo://app?vid=f5d27d01-effc-4a0c-b4ac-2b42b750aca5","ios":"levelo://app?vid=f5d27d01-effc-4a0c-b4ac-2b42b750aca5"},"vehicle_type_id":"4","last_reported":1741597767,"current_range_meters":8000,"station_id":"ce4bhlp2rcd13ifvqgjg","pricing_plan_id":"cebpf4jnsgd1na2vs0mg"},{"bike_id":"bcbde528-50b6-449e-aaa3-b5864ca610ce","system_id":"levelo_inurba_marseille","lat":43.27493,"lon":5.42475,"is_reserved":false,"is_disabled":false,"rental_uris":{"android":"levelo://app?vid=bcbde528-50b6-449e-aaa3-b5864ca610ce","ios":"levelo://app?vid=bcbde528-50b6-449e-aaa3-b5864ca610ce"},"vehicle_type_id":"4","last_reported":1741597767,"current_range_meters":8000,"station_id":"ce4bhn92rcd13ifvqgrg","pricing_plan_id":"cebpf4jnsgd1na2vs0mg"},{"bike_id":"25305dbe-974d-481a-8296-0926ee678627","system_id":"levelo_inurba_marseille","lat":43.24085,"lon":5.37761,"is_reserved":false,"is_disabled":false,"rental_uris":{"android":"levelo://app?vid=25305dbe-974d-481a-8296-0926ee678627","ios":"levelo://app?vid=25305dbe-974d-481a-8296-0926ee678627"},"vehicle_type_id":"4","last_reported":1741597767,"current_range_meters":8000,"station_id":"ce4bhnp2rcd13ifvqgvg","pricing_plan_id":"cebpf4jnsgd1na2vs0mg"},{"bike_id":"6d30fa00-fa73-4a2d-aac6-368b08cd61f0","system_id":"levelo_inurba_marseille","lat":43.31202,"lon":5.3796,"is_reserved":false,"is_disabled":false,"rental_uris":{"android":"levelo://app?vid=6d30fa00-fa73-4a2d-aac6-368b08cd61f0","ios":"levelo://app?vid=6d30fa00-fa73-4a2d-aac6-368b08cd61f0"},"vehicle_type_id":"4","last_reported":1741597767,"current_range_meters":8400,"station_id":"","pricing_plan_id":"cebpf4jnsgd1na2vs0mg"},{"bike_id":"afc96b87-be61-45f3-9f29-04e0040363b9","system_id":"levelo_inurba_marseille","lat":43.29285,"lon":5.3685,"is_reserved":false,"is_disabled":false,"rental_uris":{"android":"levelo://app?vid=afc96b87-be61-45f3-9f29-04e0040363b9","ios":"levelo://app?vid=afc96b87-be61-45f3-9f29-04e0040363b9"},"vehicle_type_id":"4","last_reported":1741597767,"current_range_meters":8400,"station_id":"ce4bhbp2rcd13ifvqesg","pricing_plan_id":"cebpf4jnsgd1na2vs0mg"},{"bike_id":"a64cb479-0cc7-4584-92c4-25a2b8534a3f","system_id":"levelo_inurba_marseille","lat":43.26948,"lon":5.38638,"is_reserved":false,"is_disabled":false,"rental_uris":{"android":"levelo://app?vid=a64cb479-0cc7-4584-92c4-25a2b8534a3f","ios":"levelo://app?vid=a64cb479-0cc7-4584-92c4-25a2b8534a3f"},"vehicle_type_id":"4","last_reported":1741597767,"current_range_meters":8400,"station_id":"ce4bhh92rcd13ifvqfh0","pricing_plan_id":"cebpf4jnsgd1na2vs0mg"},{"bike_id":"67fc845a-4e54-4c1c-8b59-aae9c41867a4","system_id":"levelo_inurba_marseille","lat":43.2707,"lon":5.42279,"is_reserved":false,"is_disabled":false,"rental_uris":{"android":"levelo://app?vid=67fc845a-4e54-4c1c-8b59-aae9c41867a4","ios":"levelo://app?vid=67fc845a-4e54-4c1c-8b59-aae9c41867a4"},"vehicle_type_id":"4","last_reported":1741597767,"current_range_meters":8400,"station_id":"ce4bhk92rcd13ifvqgb0","pricing_plan_id":"cebpf4jnsgd1na2vs0mg"},{"bike_id":"9b823a3e-402f-4b01-86ec-bff5db2889c0","system_id":"levelo_inurba_marseille","lat":43.24044,"lon":5.37725,"is_reserved":false,"is_disabled":false,"rental_uris":{"android":"levelo://app?vid=9b823a3e-402f-4b01-86ec-bff5db2889c0","ios":"levelo://app?vid=9b823a3e-402f-4b01-86ec-bff5db2889c0"},"vehicle_type_id":"4","last_reported":1741597767,"current_range_meters":8400,"station_id":"ce4bhnp2rcd13ifvqgvg","pricing_plan_id":"cebpf4jnsgd1na2vs0mg"},{"bike_id":"ebb2d58b-982f-41cd-b65c-668035c69ec1","system_id":"levelo_inurba_marseille","lat":43.30484,"lon":5.37155,"is_reserved":false,"is_disabled":false,"rental_uris":{"android":"levelo://app?vid=ebb2d58b-982f-41cd-b65c-668035c69ec1","ios":"levelo://app?vid=ebb2d58b-982f-41cd-b65c-668035c69ec1"},"vehicle_type_id":"4","last_reported":1741597767,"current_range_meters":8800,"station_id":"","pricing_plan_id":"cebpf4jnsgd1na2vs0mg"},{"bike_id":"c7790178-d3d2-480d-ba8d-c28bafdfcf7a","system_id":"levelo_inurba_marseille","lat":43.31338,"lon":5.36703,"is_reserved":false,"is_disabled":false,"rental_uris":{"android":"levelo://app?vid=c7790178-d3d2-480d-ba8d-c28bafdfcf7a","ios":"levelo://app?vid=c7790178-d3d2-480d-ba8d-c28bafdfcf7a"},"vehicle_type_id":"4","last_reported":1741597767,"current_range_meters":8800,"station_id":"ce4bgr92rcd13ifvqc6g","pricing_plan_id":"cebpf4jnsgd1na2vs0mg"},{"bike_id":"61e3d6f5-37ba-4e2c-9113-b8b0618947b9","system_id":"levelo_inurba_marseille","lat":43.30185,"lon":5.3663,"is_reserved":false,"is_disabled":false,"rental_uris":{"android":"levelo://app?vid=61e3d6f5-37ba-4e2c-9113-b8b0618947b9","ios":"levelo://app?vid=61e3d6f5-37ba-4e2c-9113-b8b0618947b9"},"vehicle_type_id":"4","last_reported":1741597767,"current_range_meters":8800,"station_id":"ce4bgrh2rcd13ifvqc8g","pricing_plan_id":"cebpf4jnsgd1na2vs0mg"},{"bike_id":"aad3e1c6-0507-458e-a41b-d64c659dbc8f","system_id":"levelo_inurba_marseille","lat":43.28351,"lon":5.38097,"is_reserved":false,"is_disabled":false,"rental_uris":{"android":"levelo://app?vid=aad3e1c6-0507-458e-a41b-d64c659dbc8f","ios":"levelo://app?vid=aad3e1c6-0507-458e-a41b-d64c659dbc8f"},"vehicle_type_id":"4","last_reported":1741597767,"current_range_meters":8800,"station_id":"ce4bh412rcd13ifvqdr0","pricing_plan_id":"cebpf4jnsgd1na2vs0mg"},{"bike_id":"61193e8a-8e60-4220-8577-846bbeba5e58","system_id":"levelo_inurba_marseille","lat":43.31345,"lon":5.38345,"is_reserved":false,"is_disabled":false,"rental_uris":{"android":"levelo://app?vid=61193e8a-8e60-4220-8577-846bbeba5e58","ios":"levelo://app?vid=61193e8a-8e60-4220-8577-846bbeba5e58"},"vehicle_type_id":"4","last_reported":1741597767,"current_range_meters":9200,"station_id":"","pricing_plan_id":"cebpf4jnsgd1na2vs0mg"},{"bike_id":"08b7fb52-5e45-4fc7-b899-a1b224f588e5","system_id":"levelo_inurba_marseille","lat":43.31485,"lon":5.37309,"is_reserved":false,"is_disabled":false,"rental_uris":{"android":"levelo://app?vid=08b7fb52-5e45-4fc7-b899-a1b224f588e5","ios":"levelo://app?vid=08b7fb52-5e45-4fc7-b899-a1b224f588e5"},"vehicle_type_id":"4","last_reported":1741597767,"current_range_meters":9200,"station_id":"ce4bgt12rcd13ifvqcd0","pricing_plan_id":"cebpf4jnsgd1na2vs0mg"},{"bike_id":"a0e07c3d-5cfc-4325-95bf-6acd676640e8","system_id":"levelo_inurba_marseille","lat":43.28724,"lon":5.37936,"is_reserved":false,"is_disabled":false,"rental_uris":{"android":"levelo://app?vid=a0e07c3d-5cfc-4325-95bf-6acd676640e8","ios":"levelo://app?vid=a0e07c3d-5cfc-4325-95bf-6acd676640e8"},"vehicle_type_id":"4","last_reported":1741597767,"current_range_meters":9200,"station_id":"ce4bh9p2rcd13ifvqec0","pricing_plan_id":"cebpf4jnsgd1na2vs0mg"},{"bike_id":"c528ac76-1f15-4207-8438-1a21104a978d","system_id":"levelo_inurba_marseille","lat":43.25017,"lon":5.3894,"is_reserved":false,"is_disabled":false,"rental_uris":{"android":"levelo://app?vid=c528ac76-1f15-4207-8438-1a21104a978d","ios":"levelo://app?vid=c528ac76-1f15-4207-8438-1a21104a978d"},"vehicle_type_id":"4","last_reported":1741597767,"current_range_meters":9200,"station_id":"ce4bhgp2rcd13ifvqfd0","pricing_plan_id":"cebpf4jnsgd1na2vs0mg"},{"bike_id":"60f4da96-da64-488c-98f7-c9a61709620a","system_id":"levelo_inurba_marseille","lat":43.25571,"lon":5.38283,"is_reserved":false,"is_disabled":false,"rental_uris":{"android":"levelo://app?vid=60f4da96-da64-488c-98f7-c9a61709620a","ios":"levelo://app?vid=60f4da96-da64-488c-98f7-c9a61709620a"},"vehicle_type_id":"4","last_reported":1741597767,"current_range_meters":9200,"station_id":"ce4bhih2rcd13ifvqfs0","pricing_plan_id":"cebpf4jnsgd1na2vs0mg"},{"bike_id":"6332f21c-b735-409b-8f12-ffcec3dc9b39","system_id":"levelo_inurba_marseille","lat":43.23184,"lon":5.40009,"is_reserved":false,"is_disabled":false,"rental_uris":{"android":"levelo://app?vid=6332f21c-b735-409b-8f12-ffcec3dc9b39","ios":"levelo://app?vid=6332f21c-b735-409b-8f12-ffcec3dc9b39"},"vehicle_type_id":"4","last_reported":1741597767,"current_range_meters":9200,"station_id":"ce4bhn12rcd13ifvqgqg","pricing_plan_id":"cebpf4jnsgd1na2vs0mg"},{"bike_id":"85ada2ed-88bb-4067-a78c-81d0d71bf163","system_id":"levelo_inurba_marseille","lat":43.28157,"lon":5.42644,"is_reserved":false,"is_disabled":false,"rental_uris":{"android":"levelo://app?vid=85ada2ed-88bb-4067-a78c-81d0d71bf163","ios":"levelo://app?vid=85ada2ed-88bb-4067-a78c-81d0d71bf163"},"vehicle_type_id":"4","last_reported":1741597767,"current_range_meters":9200,"station_id":"ce4bhnh2rcd13ifvqgug","pricing_plan_id":"cebpf4jnsgd1na2vs0mg"},{"bike_id":"11f35fc8-bf5a-42db-8ee3-67d16f82ad59","system_id":"levelo_inurba_marseille","lat":43.24077,"lon":5.37734,"is_reserved":false,"is_disabled":false,"rental_uris":{"android":"levelo://app?vid=11f35fc8-bf5a-42db-8ee3-67d16f82ad59","ios":"levelo://app?vid=11f35fc8-bf5a-42db-8ee3-67d16f82ad59"},"vehicle_type_id":"4","last_reported":1741597767,"current_range_meters":9200,"station_id":"ce4bhnp2rcd13ifvqgvg","pricing_plan_id":"cebpf4jnsgd1na2vs0mg"},{"bike_id":"7f08542c-3622-4bee-8852-d0974c0ec085","system_id":"levelo_inurba_marseille","lat":43.24142,"lon":5.36349,"is_reserved":false,"is_disabled":false,"rental_uris":{"android":"levelo://app?vid=7f08542c-3622-4bee-8852-d0974c0ec085","ios":"levelo://app?vid=7f08542c-3622-4bee-8852-d0974c0ec085"},"vehicle_type_id":"4","last_reported":1741597767,"current_range_meters":9200,"station_id":"cpo36qri1sfpv3e86is0","pricing_plan_id":"cebpf4jnsgd1na2vs0mg"},{"bike_id":"1f72adc6-3d1a-4fad-a905-cb9dcd596e26","system_id":"levelo_inurba_marseille","lat":43.23841,"lon":5.43584,"is_reserved":false,"is_disabled":false,"rental_uris":{"android":"levelo://app?vid=1f72adc6-3d1a-4fad-a905-cb9dcd596e26","ios":"levelo://app?vid=1f72adc6-3d1a-4fad-a905-cb9dcd596e26"},"vehicle_type_id":"4","last_reported":1741597767,"current_range_meters":9600,"station_id":"","pricing_plan_id":"cebpf4jnsgd1na2vs0mg"},{"bike_id":"92ba0c90-66bb-40dc-b6e2-b9e697677dee","system_id":"levelo_inurba_marseille","lat":43.26954,"lon":5.38639,"is_reserved":false,"is_disabled":false,"rental_uris":{"android":"levelo://app?vid=92ba0c90-66bb-40dc-b6e2-b9e697677dee","ios":"levelo://app?vid=92ba0c90-66bb-40dc-b6e2-b9e697677dee"},"vehicle_type_id":"4","last_reported":1741597767,"current_range_meters":9600,"station_id":"ce4bhh92rcd13ifvqfh0","pricing_plan_id":"cebpf4jnsgd1na2vs0mg"},{"bike_id":"239162f1-6901-4b7a-b4a8-fb7b0f41bdca","system_id":"levelo_inurba_marseille","lat":43.255743,"lon":5.38242,"is_reserved":false,"is_disabled":false,"rental_uris":{"android":"levelo://app?vid=239162f1-6901-4b7a-b4a8-fb7b0f41bdca","ios":"levelo://app?vid=239162f1-6901-4b7a-b4a8-fb7b0f41bdca"},"vehicle_type_id":"4","last_reported":1741597767,"current_range_meters":9600,"station_id":"ce4bhih2rcd13ifvqfs0","pricing_plan_id":"cebpf4jnsgd1na2vs0mg"},{"bike_id":"435bfe2a-0139-4e21-ab4f-977998275987","system_id":"levelo_inurba_marseille","lat":43.25928,"lon":5.40895,"is_reserved":false,"is_disabled":false,"rental_uris":{"android":"levelo://app?vid=435bfe2a-0139-4e21-ab4f-977998275987","ios":"levelo://app?vid=435bfe2a-0139-4e21-ab4f-977998275987"},"vehicle_type_id":"4","last_reported":1741597767,"current_range_meters":9600,"station_id":"ce4bhm92rcd13ifvqglg","pricing_plan_id":"cebpf4jnsgd1na2vs0mg"},{"bike_id":"bb06a9b7-db6a-4e36-aa90-ecce79fcf121","system_id":"levelo_inurba_marseille","lat":43.23152,"lon":5.43717,"is_reserved":false,"is_disabled":false,"rental_uris":{"android":"levelo://app?vid=bb06a9b7-db6a-4e36-aa90-ecce79fcf121","ios":"levelo://app?vid=bb06a9b7-db6a-4e36-aa90-ecce79fcf121"},"vehicle_type_id":"4","last_reported":1741597767,"current_range_meters":9600,"station_id":"ce4bhmp2rcd13ifvqgog","pricing_plan_id":"cebpf4jnsgd1na2vs0mg"},{"bike_id":"7133cbe0-1cd7-441d-9937-b211e1345a89","system_id":"levelo_inurba_marseille","lat":43.24079,"lon":5.37756,"is_reserved":false,"is_disabled":false,"rental_uris":{"android":"levelo://app?vid=7133cbe0-1cd7-441d-9937-b211e1345a89","ios":"levelo://app?vid=7133cbe0-1cd7-441d-9937-b211e1345a89"},"vehicle_type_id":"4","last_reported":1741597767,"current_range_meters":9600,"station_id":"ce4bhnp2rcd13ifvqgvg","pricing_plan_id":"cebpf4jnsgd1na2vs0mg"},{"bike_id":"e133b3f7-515b-4193-bc2a-7f9526decdec","system_id":"levelo_inurba_marseille","lat":43.31355,"lon":5.36725,"is_reserved":false,"is_disabled":false,"rental_uris":{"android":"levelo://app?vid=e133b3f7-515b-4193-bc2a-7f9526decdec","ios":"levelo://app?vid=e133b3f7-515b-4193-bc2a-7f9526decdec"},"vehicle_type_id":"4","last_reported":1741597767,"current_range_meters":10000,"station_id":"ce4bgr92rcd13ifvqc6g","pricing_plan_id":"cebpf4jnsgd1na2vs0mg"},{"bike_id":"dc7d365d-8fb8-43a5-a36d-599342368973","system_id":"levelo_inurba_marseille","lat":43.26562,"lon":5.39032,"is_reserved":false,"is_disabled":false,"rental_uris":{"android":"levelo://app?vid=dc7d365d-8fb8-43a5-a36d-599342368973","ios":"levelo://app?vid=dc7d365d-8fb8-43a5-a36d-599342368973"},"vehicle_type_id":"4","last_reported":1741597767,"current_range_meters":10000,"station_id":"ce4bhh92rcd13ifvqfh0","pricing_plan_id":"cebpf4jnsgd1na2vs0mg"},{"bike_id":"ef6303de-f84a-4b1f-9060-2a8d28e015bb","system_id":"levelo_inurba_marseille","lat":43.24093,"lon":5.37768,"is_reserved":false,"is_disabled":false,"rental_uris":{"android":"levelo://app?vid=ef6303de-f84a-4b1f-9060-2a8d28e015bb","ios":"levelo://app?vid=ef6303de-f84a-4b1f-9060-2a8d28e015bb"},"vehicle_type_id":"4","last_reported":1741597767,"current_range_meters":10000,"station_id":"ce4bhnp2rcd13ifvqgvg","pricing_plan_id":"cebpf4jnsgd1na2vs0mg"},{"bike_id":"199cb7b2-857a-4db4-b08b-30cc2dc0c4f3","system_id":"levelo_inurba_marseille","lat":43.31708,"lon":5.43698,"is_reserved":false,"is_disabled":false,"rental_uris":{"android":"levelo://app?vid=199cb7b2-857a-4db4-b08b-30cc2dc0c4f3","ios":"levelo://app?vid=199cb7b2-857a-4db4-b08b-30cc2dc0c4f3"},"vehicle_type_id":"4","last_reported":1741597767,"current_range_meters":10000,"station_id":"ce4bhp92rcd13ifvqhcg","pricing_plan_id":"cebpf4jnsgd1na2vs0mg"},{"bike_id":"3ed0c8ba-c7f7-40d8-9403-a3f96d6af6b9","system_id":"levelo_inurba_marseille","lat":43.32362,"lon":5.36776,"is_reserved":false,"is_disabled":false,"rental_uris":{"android":"levelo://app?vid=3ed0c8ba-c7f7-40d8-9403-a3f96d6af6b9","ios":"levelo://app?vid=3ed0c8ba-c7f7-40d8-9403-a3f96d6af6b9"},"vehicle_type_id":"4","last_reported":1741597767,"current_range_meters":10000,"station_id":"ce4bhsh2rcd13ifvqi2g","pricing_plan_id":"cebpf4jnsgd1na2vs0mg"},{"bike_id":"d535249e-e9a9-4829-9d60-ecbe18fe20cf","system_id":"levelo_inurba_marseille","lat":43.30299,"lon":5.369,"is_reserved":false,"is_disabled":false,"rental_uris":{"android":"levelo://app?vid=d535249e-e9a9-4829-9d60-ecbe18fe20cf","ios":"levelo://app?vid=d535249e-e9a9-4829-9d60-ecbe18fe20cf"},"vehicle_type_id":"4","last_reported":1741597767,"current_range_meters":10800,"station_id":"ce4bgqh2rcd13ifvqc5g","pricing_plan_id":"cebpf4jnsgd1na2vs0mg"},{"bike_id":"17e71706-a905-44b0-b56a-9b68d9a70c1b","system_id":"levelo_inurba_marseille","lat":43.25922,"lon":5.4091,"is_reserved":false,"is_disabled":false,"rental_uris":{"android":"levelo://app?vid=17e71706-a905-44b0-b56a-9b68d9a70c1b","ios":"levelo://app?vid=17e71706-a905-44b0-b56a-9b68d9a70c1b"},"vehicle_type_id":"4","last_reported":1741597767,"current_range_meters":10800,"station_id":"ce4bhm92rcd13ifvqglg","pricing_plan_id":"cebpf4jnsgd1na2vs0mg"},{"bike_id":"4e79b7cb-9f3d-47d2-871b-3431be874845","system_id":"levelo_inurba_marseille","lat":43.33028,"lon":5.39044,"is_reserved":false,"is_disabled":false,"rental_uris":{"android":"levelo://app?vid=4e79b7cb-9f3d-47d2-871b-3431be874845","ios":"levelo://app?vid=4e79b7cb-9f3d-47d2-871b-3431be874845"},"vehicle_type_id":"4","last_reported":1741597767,"current_range_meters":10800,"station_id":"ce4bhr92rcd13ifvqhrg","pricing_plan_id":"cebpf4jnsgd1na2vs0mg"},{"bike_id":"98de571b-b137-41e1-a957-f1f43c068d6a","system_id":"levelo_inurba_marseille","lat":43.3247,"lon":5.3659,"is_reserved":false,"is_disabled":false,"rental_uris":{"android":"levelo://app?vid=98de571b-b137-41e1-a957-f1f43c068d6a","ios":"levelo://app?vid=98de571b-b137-41e1-a957-f1f43c068d6a"},"vehicle_type_id":"4","last_reported":1741597767,"current_range_meters":10800,"station_id":"ce4bhs12rcd13ifvqhvg","pricing_plan_id":"cebpf4jnsgd1na2vs0mg"},{"bike_id":"a249eb15-8351-4e17-b802-b3b06f8f2d64","system_id":"levelo_inurba_marseille","lat":43.3249,"lon":5.36563,"is_reserved":false,"is_disabled":false,"rental_uris":{"android":"levelo://app?vid=a249eb15-8351-4e17-b802-b3b06f8f2d64","ios":"levelo://app?vid=a249eb15-8351-4e17-b802-b3b06f8f2d64"},"vehicle_type_id":"4","last_reported":1741597767,"current_range_meters":10800,"station_id":"ce4bhs12rcd13ifvqhvg","pricing_plan_id":"cebpf4jnsgd1na2vs0mg"},{"bike_id":"534939f3-eb05-4d25-998c-2b253ef466b0","system_id":"levelo_inurba_marseille","lat":43.30466,"lon":5.37899,"is_reserved":false,"is_disabled":false,"rental_uris":{"android":"levelo://app?vid=534939f3-eb05-4d25-998c-2b253ef466b0","ios":"levelo://app?vid=534939f3-eb05-4d25-998c-2b253ef466b0"},"vehicle_type_id":"4","last_reported":1741597767,"current_range_meters":11200,"station_id":"ce4bgup2rcd13ifvqcn0","pricing_plan_id":"cebpf4jnsgd1na2vs0mg"},{"bike_id":"266a1e1e-8c89-4f33-b3f4-faf8638c8ecd","system_id":"levelo_inurba_marseille","lat":43.29299,"lon":5.36843,"is_reserved":false,"is_disabled":false,"rental_uris":{"android":"levelo://app?vid=266a1e1e-8c89-4f33-b3f4-faf8638c8ecd","ios":"levelo://app?vid=266a1e1e-8c89-4f33-b3f4-faf8638c8ecd"},"vehicle_type_id":"4","last_reported":1741597767,"current_range_meters":11200,"station_id":"ce4bhbp2rcd13ifvqesg","pricing_plan_id":"cebpf4jnsgd1na2vs0mg"},{"bike_id":"91c77180-2637-4692-beb6-3c013b5b46d0","system_id":"levelo_inurba_marseille","lat":43.24176,"lon":5.39725,"is_reserved":false,"is_disabled":false,"rental_uris":{"android":"levelo://app?vid=91c77180-2637-4692-beb6-3c013b5b46d0","ios":"levelo://app?vid=91c77180-2637-4692-beb6-3c013b5b46d0"},"vehicle_type_id":"4","last_reported":1741597767,"current_range_meters":11200,"station_id":"ce4bhn12rcd13ifvqgpg","pricing_plan_id":"cebpf4jnsgd1na2vs0mg"},{"bike_id":"4ec5d479-c92c-4224-8409-3cb864eeca2a","system_id":"levelo_inurba_marseille","lat":43.28164,"lon":5.40463,"is_reserved":false,"is_disabled":false,"rental_uris":{"android":"levelo://app?vid=4ec5d479-c92c-4224-8409-3cb864eeca2a","ios":"levelo://app?vid=4ec5d479-c92c-4224-8409-3cb864eeca2a"},"vehicle_type_id":"4","last_reported":1741597767,"current_range_meters":11600,"station_id":"","pricing_plan_id":"cebpf4jnsgd1na2vs0mg"},{"bike_id":"8db12307-83c5-4ab1-8e4e-b5f471f883f6","system_id":"levelo_inurba_marseille","lat":43.25106,"lon":5.39517,"is_reserved":false,"is_disabled":false,"rental_uris":{"android":"levelo://app?vid=8db12307-83c5-4ab1-8e4e-b5f471f883f6","ios":"levelo://app?vid=8db12307-83c5-4ab1-8e4e-b5f471f883f6"},"vehicle_type_id":"4","last_reported":1741597767,"current_range_meters":11600,"station_id":"ce4bhm12rcd13ifvqgkg","pricing_plan_id":"cebpf4jnsgd1na2vs0mg"},{"bike_id":"dfa08677-d5e8-48b0-9ad6-ea8173c6f7d2","system_id":"levelo_inurba_marseille","lat":43.24075,"lon":5.37744,"is_reserved":false,"is_disabled":false,"rental_uris":{"android":"levelo://app?vid=dfa08677-d5e8-48b0-9ad6-ea8173c6f7d2","ios":"levelo://app?vid=dfa08677-d5e8-48b0-9ad6-ea8173c6f7d2"},"vehicle_type_id":"4","last_reported":1741597767,"current_range_meters":11600,"station_id":"ce4bhnp2rcd13ifvqgvg","pricing_plan_id":"cebpf4jnsgd1na2vs0mg"},{"bike_id":"9accf568-b81b-4f5a-b823-6a23bfcb8604","system_id":"levelo_inurba_marseille","lat":43.24023,"lon":5.37765,"is_reserved":false,"is_disabled":false,"rental_uris":{"android":"levelo://app?vid=9accf568-b81b-4f5a-b823-6a23bfcb8604","ios":"levelo://app?vid=9accf568-b81b-4f5a-b823-6a23bfcb8604"},"vehicle_type_id":"4","last_reported":1741597767,"current_range_meters":11600,"station_id":"ce4bhnp2rcd13ifvqgvg","pricing_plan_id":"cebpf4jnsgd1na2vs0mg"},{"bike_id":"4cfbdb17-1931-457c-a7e0-e66504671741","system_id":"levelo_inurba_marseille","lat":43.24053,"lon":5.37713,"is_reserved":false,"is_disabled":false,"rental_uris":{"android":"levelo://app?vid=4cfbdb17-1931-457c-a7e0-e66504671741","ios":"levelo://app?vid=4cfbdb17-1931-457c-a7e0-e66504671741"},"vehicle_type_id":"4","last_reported":1741597767,"current_range_meters":11600,"station_id":"ce4bhnp2rcd13ifvqgvg","pricing_plan_id":"cebpf4jnsgd1na2vs0mg"},{"bike_id":"a5c5ade0-6f33-45a7-beaf-3545d30425b1","system_id":"levelo_inurba_marseille","lat":43.240696,"lon":5.377623,"is_reserved":false,"is_disabled":false,"rental_uris":{"android":"levelo://app?vid=a5c5ade0-6f33-45a7-beaf-3545d30425b1","ios":"levelo://app?vid=a5c5ade0-6f33-45a7-beaf-3545d30425b1"},"vehicle_type_id":"4","last_reported":1741597767,"current_range_meters":11600,"station_id":"ce4bhnp2rcd13ifvqgvg","pricing_plan_id":"cebpf4jnsgd1na2vs0mg"},{"bike_id":"ae4913d3-c7b3-4e3b-8b0e-9eedefc8bcf1","system_id":"levelo_inurba_marseille","lat":43.31334,"lon":5.38839,"is_reserved":false,"is_disabled":false,"rental_uris":{"android":"levelo://app?vid=ae4913d3-c7b3-4e3b-8b0e-9eedefc8bcf1","ios":"levelo://app?vid=ae4913d3-c7b3-4e3b-8b0e-9eedefc8bcf1"},"vehicle_type_id":"4","last_reported":1741597767,"current_range_meters":12000,"station_id":"","pricing_plan_id":"cebpf4jnsgd1na2vs0mg"},{"bike_id":"a732177a-7624-48f2-8df9-f3903ee5cb09","system_id":"levelo_inurba_marseille","lat":43.29736,"lon":5.377,"is_reserved":false,"is_disabled":false,"rental_uris":{"android":"levelo://app?vid=a732177a-7624-48f2-8df9-f3903ee5cb09","ios":"levelo://app?vid=a732177a-7624-48f2-8df9-f3903ee5cb09"},"vehicle_type_id":"4","last_reported":1741597767,"current_range_meters":12000,"station_id":"ce4bgkh2rcd13ifvqbl0","pricing_plan_id":"cebpf4jnsgd1na2vs0mg"},{"bike_id":"51764fd4-f7e8-4dab-bb95-270ccffd0c37","system_id":"levelo_inurba_marseille","lat":43.31349,"lon":5.36729,"is_reserved":false,"is_disabled":false,"rental_uris":{"android":"levelo://app?vid=51764fd4-f7e8-4dab-bb95-270ccffd0c37","ios":"levelo://app?vid=51764fd4-f7e8-4dab-bb95-270ccffd0c37"},"vehicle_type_id":"4","last_reported":1741597767,"current_range_meters":12000,"station_id":"ce4bgr92rcd13ifvqc6g","pricing_plan_id":"cebpf4jnsgd1na2vs0mg"},{"bike_id":"432f1874-7b6f-4f78-ab8b-1e0f03359b53","system_id":"levelo_inurba_marseille","lat":43.29278,"lon":5.36848,"is_reserved":false,"is_disabled":false,"rental_uris":{"android":"levelo://app?vid=432f1874-7b6f-4f78-ab8b-1e0f03359b53","ios":"levelo://app?vid=432f1874-7b6f-4f78-ab8b-1e0f03359b53"},"vehicle_type_id":"4","last_reported":1741597767,"current_range_meters":12000,"station_id":"ce4bhbp2rcd13ifvqesg","pricing_plan_id":"cebpf4jnsgd1na2vs0mg"},{"bike_id":"906c6e5a-4ec6-4885-afda-48adb50c51d3","system_id":"levelo_inurba_marseille","lat":43.24399,"lon":5.37057,"is_reserved":false,"is_disabled":false,"rental_uris":{"android":"levelo://app?vid=906c6e5a-4ec6-4885-afda-48adb50c51d3","ios":"levelo://app?vid=906c6e5a-4ec6-4885-afda-48adb50c51d3"},"vehicle_type_id":"4","last_reported":1741597767,"current_range_meters":12000,"station_id":"ce4bhhh2rcd13ifvqfk0","pricing_plan_id":"cebpf4jnsgd1na2vs0mg"},{"bike_id":"e1464fd1-88dd-4217-9b48-8798f8d7a4bc","system_id":"levelo_inurba_marseille","lat":43.2439,"lon":5.370581,"is_reserved":false,"is_disabled":false,"rental_uris":{"android":"levelo://app?vid=e1464fd1-88dd-4217-9b48-8798f8d7a4bc","ios":"levelo://app?vid=e1464fd1-88dd-4217-9b48-8798f8d7a4bc"},"vehicle_type_id":"4","last_reported":1741597767,"current_range_meters":12000,"station_id":"ce4bhhh2rcd13ifvqfk0","pricing_plan_id":"cebpf4jnsgd1na2vs0mg"},{"bike_id":"8579e54f-565e-4025-a73c-88723bee831d","system_id":"levelo_inurba_marseille","lat":43.23185,"lon":5.39995,"is_reserved":false,"is_disabled":false,"rental_uris":{"android":"levelo://app?vid=8579e54f-565e-4025-a73c-88723bee831d","ios":"levelo://app?vid=8579e54f-565e-4025-a73c-88723bee831d"},"vehicle_type_id":"4","last_reported":1741597767,"current_range_meters":12000,"station_id":"ce4bhn12rcd13ifvqgqg","pricing_plan_id":"cebpf4jnsgd1na2vs0mg"},{"bike_id":"c1c80c13-20cb-44f5-aa30-5c8aedb294e8","system_id":"levelo_inurba_marseille","lat":43.32108,"lon":5.36765,"is_reserved":false,"is_disabled":false,"rental_uris":{"android":"levelo://app?vid=c1c80c13-20cb-44f5-aa30-5c8aedb294e8","ios":"levelo://app?vid=c1c80c13-20cb-44f5-aa30-5c8aedb294e8"},"vehicle_type_id":"4","last_reported":1741597767,"current_range_meters":12000,"station_id":"ce4bhrh2rcd13ifvqhug","pricing_plan_id":"cebpf4jnsgd1na2vs0mg"},{"bike_id":"1689e47c-b3be-41f1-825a-50008dbe5a30","system_id":"levelo_inurba_marseille","lat":43.26581,"lon":5.37304,"is_reserved":false,"is_disabled":false,"rental_uris":{"android":"levelo://app?vid=1689e47c-b3be-41f1-825a-50008dbe5a30","ios":"levelo://app?vid=1689e47c-b3be-41f1-825a-50008dbe5a30"},"vehicle_type_id":"4","last_reported":1741597767,"current_range_meters":12400,"station_id":"ce4bhg12rcd13ifvqf70","pricing_plan_id":"cebpf4jnsgd1na2vs0mg"},{"bike_id":"5168a913-5224-4ddf-8293-e2c5484c5bf7","system_id":"levelo_inurba_marseille","lat":43.2559,"lon":5.38238,"is_reserved":false,"is_disabled":false,"rental_uris":{"android":"levelo://app?vid=5168a913-5224-4ddf-8293-e2c5484c5bf7","ios":"levelo://app?vid=5168a913-5224-4ddf-8293-e2c5484c5bf7"},"vehicle_type_id":"4","last_reported":1741597767,"current_range_meters":12400,"station_id":"ce4bhih2rcd13ifvqfs0","pricing_plan_id":"cebpf4jnsgd1na2vs0mg"},{"bike_id":"f69b7152-3937-413e-a7e7-a1fcd79986be","system_id":"levelo_inurba_marseille","lat":43.32092,"lon":5.36781,"is_reserved":false,"is_disabled":false,"rental_uris":{"android":"levelo://app?vid=f69b7152-3937-413e-a7e7-a1fcd79986be","ios":"levelo://app?vid=f69b7152-3937-413e-a7e7-a1fcd79986be"},"vehicle_type_id":"4","last_reported":1741597767,"current_range_meters":12400,"station_id":"ce4bhrh2rcd13ifvqhug","pricing_plan_id":"cebpf4jnsgd1na2vs0mg"},{"bike_id":"22c7c0df-2c7b-4f24-b11d-161b2b67a83f","system_id":"levelo_inurba_marseille","lat":43.25004,"lon":5.38927,"is_reserved":false,"is_disabled":false,"rental_uris":{"android":"levelo://app?vid=22c7c0df-2c7b-4f24-b11d-161b2b67a83f","ios":"levelo://app?vid=22c7c0df-2c7b-4f24-b11d-161b2b67a83f"},"vehicle_type_id":"4","last_reported":1741597767,"current_range_meters":12800,"station_id":"ce4bhgp2rcd13ifvqfd0","pricing_plan_id":"cebpf4jnsgd1na2vs0mg"},{"bike_id":"6c7acd0e-d950-476c-9eb3-046468b88ffd","system_id":"levelo_inurba_marseille","lat":43.24661,"lon":5.38182,"is_reserved":false,"is_disabled":false,"rental_uris":{"android":"levelo://app?vid=6c7acd0e-d950-476c-9eb3-046468b88ffd","ios":"levelo://app?vid=6c7acd0e-d950-476c-9eb3-046468b88ffd"},"vehicle_type_id":"4","last_reported":1741597767,"current_range_meters":12800,"station_id":"ce4bhih2rcd13ifvqfr0","pricing_plan_id":"cebpf4jnsgd1na2vs0mg"},{"bike_id":"77a4f926-21bd-441f-b6cb-8e1951ee5fc8","system_id":"levelo_inurba_marseille","lat":43.32538,"lon":5.41433,"is_reserved":false,"is_disabled":false,"rental_uris":{"android":"levelo://app?vid=77a4f926-21bd-441f-b6cb-8e1951ee5fc8","ios":"levelo://app?vid=77a4f926-21bd-441f-b6cb-8e1951ee5fc8"},"vehicle_type_id":"4","last_reported":1741597767,"current_range_meters":12800,"station_id":"ce4bhq12rcd13ifvqhhg","pricing_plan_id":"cebpf4jnsgd1na2vs0mg"},{"bike_id":"1114a7ff-0bc0-48f2-ab1b-9f072eedfc7e","system_id":"levelo_inurba_marseille","lat":43.24803,"lon":5.37454,"is_reserved":false,"is_disabled":false,"rental_uris":{"android":"levelo://app?vid=1114a7ff-0bc0-48f2-ab1b-9f072eedfc7e","ios":"levelo://app?vid=1114a7ff-0bc0-48f2-ab1b-9f072eedfc7e"},"vehicle_type_id":"4","last_reported":1741597767,"current_range_meters":13600,"station_id":"ce4bhgh2rcd13ifvqfb0","pricing_plan_id":"cebpf4jnsgd1na2vs0mg"},{"bike_id":"863fe8dd-e693-4f8e-84ce-2fd09c5d38bc","system_id":"levelo_inurba_marseille","lat":43.25016,"lon":5.38929,"is_reserved":false,"is_disabled":false,"rental_uris":{"android":"levelo://app?vid=863fe8dd-e693-4f8e-84ce-2fd09c5d38bc","ios":"levelo://app?vid=863fe8dd-e693-4f8e-84ce-2fd09c5d38bc"},"vehicle_type_id":"4","last_reported":1741597767,"current_range_meters":13600,"station_id":"ce4bhgp2rcd13ifvqfd0","pricing_plan_id":"cebpf4jnsgd1na2vs0mg"},{"bike_id":"caeb1ed2-b70b-481f-b341-ccaa84ec7ae8","system_id":"levelo_inurba_marseille","lat":43.24673,"lon":5.38166,"is_reserved":false,"is_disabled":false,"rental_uris":{"android":"levelo://app?vid=caeb1ed2-b70b-481f-b341-ccaa84ec7ae8","ios":"levelo://app?vid=caeb1ed2-b70b-481f-b341-ccaa84ec7ae8"},"vehicle_type_id":"4","last_reported":1741597767,"current_range_meters":13600,"station_id":"ce4bhih2rcd13ifvqfr0","pricing_plan_id":"cebpf4jnsgd1na2vs0mg"},{"bike_id":"22e6b03a-4ede-440e-a1aa-6617e4288f96","system_id":"levelo_inurba_marseille","lat":43.25934,"lon":5.40883,"is_reserved":false,"is_disabled":false,"rental_uris":{"android":"levelo://app?vid=22e6b03a-4ede-440e-a1aa-6617e4288f96","ios":"levelo://app?vid=22e6b03a-4ede-440e-a1aa-6617e4288f96"},"vehicle_type_id":"4","last_reported":1741597767,"current_range_meters":13600,"station_id":"ce4bhm92rcd13ifvqglg","pricing_plan_id":"cebpf4jnsgd1na2vs0mg"},{"bike_id":"fdaae881-8580-424e-8f1a-ad42c6fc5fc7","system_id":"levelo_inurba_marseille","lat":43.25961,"lon":5.40877,"is_reserved":false,"is_disabled":false,"rental_uris":{"android":"levelo://app?vid=fdaae881-8580-424e-8f1a-ad42c6fc5fc7","ios":"levelo://app?vid=fdaae881-8580-424e-8f1a-ad42c6fc5fc7"},"vehicle_type_id":"4","last_reported":1741597767,"current_range_meters":13600,"station_id":"ce4bhm92rcd13ifvqglg","pricing_plan_id":"cebpf4jnsgd1na2vs0mg"},{"bike_id":"787941c7-68e4-4a9e-b1f1-d3bf469258e1","system_id":"levelo_inurba_marseille","lat":43.24179,"lon":5.39726,"is_reserved":false,"is_disabled":false,"rental_uris":{"android":"levelo://app?vid=787941c7-68e4-4a9e-b1f1-d3bf469258e1","ios":"levelo://app?vid=787941c7-68e4-4a9e-b1f1-d3bf469258e1"},"vehicle_type_id":"4","last_reported":1741597767,"current_range_meters":13600,"station_id":"ce4bhn12rcd13ifvqgpg","pricing_plan_id":"cebpf4jnsgd1na2vs0mg"},{"bike_id":"18418241-eaac-432c-865b-6e4bbdf64bce","system_id":"levelo_inurba_marseille","lat":43.33034,"lon":5.39027,"is_reserved":false,"is_disabled":false,"rental_uris":{"android":"levelo://app?vid=18418241-eaac-432c-865b-6e4bbdf64bce","ios":"levelo://app?vid=18418241-eaac-432c-865b-6e4bbdf64bce"},"vehicle_type_id":"4","last_reported":1741597767,"current_range_meters":13600,"station_id":"ce4bhr92rcd13ifvqhrg","pricing_plan_id":"cebpf4jnsgd1na2vs0mg"},{"bike_id":"80771939-f406-42f7-81c5-33180fd8a338","system_id":"levelo_inurba_marseille","lat":43.23203,"lon":5.35559,"is_reserved":false,"is_disabled":false,"rental_uris":{"android":"levelo://app?vid=80771939-f406-42f7-81c5-33180fd8a338","ios":"levelo://app?vid=80771939-f406-42f7-81c5-33180fd8a338"},"vehicle_type_id":"4","last_reported":1741597767,"current_range_meters":13600,"station_id":"ce4bhu92rcd13ifvqi70","pricing_plan_id":"cebpf4jnsgd1na2vs0mg"},{"bike_id":"eb7ff66f-973f-4e29-b917-4c9bae0124eb","system_id":"levelo_inurba_marseille","lat":43.30459,"lon":5.37906,"is_reserved":false,"is_disabled":false,"rental_uris":{"android":"levelo://app?vid=eb7ff66f-973f-4e29-b917-4c9bae0124eb","ios":"levelo://app?vid=eb7ff66f-973f-4e29-b917-4c9bae0124eb"},"vehicle_type_id":"4","last_reported":1741597767,"current_range_meters":14000,"station_id":"ce4bgup2rcd13ifvqcn0","pricing_plan_id":"cebpf4jnsgd1na2vs0mg"},{"bike_id":"b4310545-cb21-4cc7-8747-3fe7acdce2e1","system_id":"levelo_inurba_marseille","lat":43.28461,"lon":5.35884,"is_reserved":false,"is_disabled":false,"rental_uris":{"android":"levelo://app?vid=b4310545-cb21-4cc7-8747-3fe7acdce2e1","ios":"levelo://app?vid=b4310545-cb21-4cc7-8747-3fe7acdce2e1"},"vehicle_type_id":"4","last_reported":1741597767,"current_range_meters":14000,"station_id":"ce4bhah2rcd13ifvqei0","pricing_plan_id":"cebpf4jnsgd1na2vs0mg"},{"bike_id":"8dc2c2dc-de0f-4fd2-b739-faf253fff5e5","system_id":"levelo_inurba_marseille","lat":43.23163,"lon":5.43708,"is_reserved":false,"is_disabled":false,"rental_uris":{"android":"levelo://app?vid=8dc2c2dc-de0f-4fd2-b739-faf253fff5e5","ios":"levelo://app?vid=8dc2c2dc-de0f-4fd2-b739-faf253fff5e5"},"vehicle_type_id":"4","last_reported":1741597767,"current_range_meters":14000,"station_id":"ce4bhmp2rcd13ifvqgog","pricing_plan_id":"cebpf4jnsgd1na2vs0mg"},{"bike_id":"51772d6c-c0b3-48d9-81cb-ae5466e6f822","system_id":"levelo_inurba_marseille","lat":43.23157,"lon":5.43724,"is_reserved":false,"is_disabled":false,"rental_uris":{"android":"levelo://app?vid=51772d6c-c0b3-48d9-81cb-ae5466e6f822","ios":"levelo://app?vid=51772d6c-c0b3-48d9-81cb-ae5466e6f822"},"vehicle_type_id":"4","last_reported":1741597767,"current_range_meters":14000,"station_id":"ce4bhmp2rcd13ifvqgog","pricing_plan_id":"cebpf4jnsgd1na2vs0mg"},{"bike_id":"be41e619-397e-4189-8cf6-78245de87946","system_id":"levelo_inurba_marseille","lat":43.2593,"lon":5.4091,"is_reserved":false,"is_disabled":false,"rental_uris":{"android":"levelo://app?vid=be41e619-397e-4189-8cf6-78245de87946","ios":"levelo://app?vid=be41e619-397e-4189-8cf6-78245de87946"},"vehicle_type_id":"4","last_reported":1741597767,"current_range_meters":14400,"station_id":"ce4bhm92rcd13ifvqglg","pricing_plan_id":"cebpf4jnsgd1na2vs0mg"},{"bike_id":"b5f24760-138f-4676-b5a5-e1d99857a913","system_id":"levelo_inurba_marseille","lat":43.29261,"lon":5.37638,"is_reserved":false,"is_disabled":false,"rental_uris":{"android":"levelo://app?vid=b5f24760-138f-4676-b5a5-e1d99857a913","ios":"levelo://app?vid=b5f24760-138f-4676-b5a5-e1d99857a913"},"vehicle_type_id":"4","last_reported":1741597767,"current_range_meters":14800,"station_id":"ce4bgi12rcd13ifvqb80","pricing_plan_id":"cebpf4jnsgd1na2vs0mg"},{"bike_id":"6c925a33-922a-4f5d-a19e-2ae09dadacc9","system_id":"levelo_inurba_marseille","lat":43.31364,"lon":5.38481,"is_reserved":false,"is_disabled":false,"rental_uris":{"android":"levelo://app?vid=6c925a33-922a-4f5d-a19e-2ae09dadacc9","ios":"levelo://app?vid=6c925a33-922a-4f5d-a19e-2ae09dadacc9"},"vehicle_type_id":"4","last_reported":1741597767,"current_range_meters":14800,"station_id":"ce4bgt92rcd13ifvqcf0","pricing_plan_id":"cebpf4jnsgd1na2vs0mg"},{"bike_id":"760f15a1-df25-41d5-9491-6813a0cd8c6f","system_id":"levelo_inurba_marseille","lat":43.30478,"lon":5.37909,"is_reserved":false,"is_disabled":false,"rental_uris":{"android":"levelo://app?vid=760f15a1-df25-41d5-9491-6813a0cd8c6f","ios":"levelo://app?vid=760f15a1-df25-41d5-9491-6813a0cd8c6f"},"vehicle_type_id":"4","last_reported":1741597767,"current_range_meters":14800,"station_id":"ce4bgup2rcd13ifvqcn0","pricing_plan_id":"cebpf4jnsgd1na2vs0mg"},{"bike_id":"46b9d706-b4b2-45af-8d14-bbab90d191b1","system_id":"levelo_inurba_marseille","lat":43.27375,"lon":5.36261,"is_reserved":false,"is_disabled":false,"rental_uris":{"android":"levelo://app?vid=46b9d706-b4b2-45af-8d14-bbab90d191b1","ios":"levelo://app?vid=46b9d706-b4b2-45af-8d14-bbab90d191b1"},"vehicle_type_id":"4","last_reported":1741597767,"current_range_meters":14800,"station_id":"ce4bhbh2rcd13ifvqeo0","pricing_plan_id":"cebpf4jnsgd1na2vs0mg"},{"bike_id":"d958a0dc-fbb2-45af-9cc2-2280637fe440","system_id":"levelo_inurba_marseille","lat":43.26204,"lon":5.37927,"is_reserved":false,"is_disabled":false,"rental_uris":{"android":"levelo://app?vid=d958a0dc-fbb2-45af-9cc2-2280637fe440","ios":"levelo://app?vid=d958a0dc-fbb2-45af-9cc2-2280637fe440"},"vehicle_type_id":"4","last_reported":1741597767,"current_range_meters":14800,"station_id":"ce4bhjp2rcd13ifvqg90","pricing_plan_id":"cebpf4jnsgd1na2vs0mg"},{"bike_id":"2338626f-0565-48b6-9fa4-dab8eb33618f","system_id":"levelo_inurba_marseille","lat":43.25721,"lon":5.41115,"is_reserved":false,"is_disabled":false,"rental_uris":{"android":"levelo://app?vid=2338626f-0565-48b6-9fa4-dab8eb33618f","ios":"levelo://app?vid=2338626f-0565-48b6-9fa4-dab8eb33618f"},"vehicle_type_id":"4","last_reported":1741597767,"current_range_meters":14800,"station_id":"ce4bhkp2rcd13ifvqgd0","pricing_plan_id":"cebpf4jnsgd1na2vs0mg"},{"bike_id":"d62d41ac-6566-49eb-a16c-2c8700827e11","system_id":"levelo_inurba_marseille","lat":43.23155,"lon":5.43714,"is_reserved":false,"is_disabled":false,"rental_uris":{"android":"levelo://app?vid=d62d41ac-6566-49eb-a16c-2c8700827e11","ios":"levelo://app?vid=d62d41ac-6566-49eb-a16c-2c8700827e11"},"vehicle_type_id":"4","last_reported":1741597767,"current_range_meters":14800,"station_id":"ce4bhmp2rcd13ifvqgog","pricing_plan_id":"cebpf4jnsgd1na2vs0mg"},{"bike_id":"acc1658b-7ea3-44a5-a65b-40f1faa0438d","system_id":"levelo_inurba_marseille","lat":43.32543,"lon":5.41452,"is_reserved":false,"is_disabled":false,"rental_uris":{"android":"levelo://app?vid=acc1658b-7ea3-44a5-a65b-40f1faa0438d","ios":"levelo://app?vid=acc1658b-7ea3-44a5-a65b-40f1faa0438d"},"vehicle_type_id":"4","last_reported":1741597767,"current_range_meters":14800,"station_id":"ce4bhq12rcd13ifvqhhg","pricing_plan_id":"cebpf4jnsgd1na2vs0mg"},{"bike_id":"9ec52ed9-9c0e-4e61-a378-5327e3711632","system_id":"levelo_inurba_marseille","lat":43.247309,"lon":5.411564,"is_reserved":false,"is_disabled":false,"rental_uris":{"android":"levelo://app?vid=9ec52ed9-9c0e-4e61-a378-5327e3711632","ios":"levelo://app?vid=9ec52ed9-9c0e-4e61-a378-5327e3711632"},"vehicle_type_id":"4","last_reported":1741597767,"current_range_meters":15200,"station_id":"","pricing_plan_id":"cebpf4jnsgd1na2vs0mg"},{"bike_id":"1e61f1c2-f1b8-4841-8ffd-ffd9ba5d4378","system_id":"levelo_inurba_marseille","lat":43.30538,"lon":5.36519,"is_reserved":false,"is_disabled":false,"rental_uris":{"android":"levelo://app?vid=1e61f1c2-f1b8-4841-8ffd-ffd9ba5d4378","ios":"levelo://app?vid=1e61f1c2-f1b8-4841-8ffd-ffd9ba5d4378"},"vehicle_type_id":"4","last_reported":1741597767,"current_range_meters":15200,"station_id":"ce4bgs12rcd13ifvqcag","pricing_plan_id":"cebpf4jnsgd1na2vs0mg"},{"bike_id":"67e96ce9-54b2-44cb-a5b1-546730071f20","system_id":"levelo_inurba_marseille","lat":43.28462,"lon":5.35882,"is_reserved":false,"is_disabled":false,"rental_uris":{"android":"levelo://app?vid=67e96ce9-54b2-44cb-a5b1-546730071f20","ios":"levelo://app?vid=67e96ce9-54b2-44cb-a5b1-546730071f20"},"vehicle_type_id":"4","last_reported":1741597767,"current_range_meters":15200,"station_id":"ce4bhah2rcd13ifvqei0","pricing_plan_id":"cebpf4jnsgd1na2vs0mg"},{"bike_id":"ccbf617d-c92c-4154-ad70-fcdbe832004f","system_id":"levelo_inurba_marseille","lat":43.28138,"lon":5.42647,"is_reserved":false,"is_disabled":false,"rental_uris":{"android":"levelo://app?vid=ccbf617d-c92c-4154-ad70-fcdbe832004f","ios":"levelo://app?vid=ccbf617d-c92c-4154-ad70-fcdbe832004f"},"vehicle_type_id":"4","last_reported":1741597767,"current_range_meters":15200,"station_id":"ce4bhnh2rcd13ifvqgug","pricing_plan_id":"cebpf4jnsgd1na2vs0mg"},{"bike_id":"1cdc2351-0cc0-4beb-80de-0204d93898f1","system_id":"levelo_inurba_marseille","lat":43.30141,"lon":5.3741,"is_reserved":false,"is_disabled":false,"rental_uris":{"android":"levelo://app?vid=1cdc2351-0cc0-4beb-80de-0204d93898f1","ios":"levelo://app?vid=1cdc2351-0cc0-4beb-80de-0204d93898f1"},"vehicle_type_id":"4","last_reported":1741597767,"current_range_meters":16000,"station_id":"ce4bgs92rcd13ifvqcc0","pricing_plan_id":"cebpf4jnsgd1na2vs0mg"},{"bike_id":"a44b4ad2-e639-4c9a-8fb7-52bbbdc7ff12","system_id":"levelo_inurba_marseille","lat":43.25016,"lon":5.38933,"is_reserved":false,"is_disabled":false,"rental_uris":{"android":"levelo://app?vid=a44b4ad2-e639-4c9a-8fb7-52bbbdc7ff12","ios":"levelo://app?vid=a44b4ad2-e639-4c9a-8fb7-52bbbdc7ff12"},"vehicle_type_id":"4","last_reported":1741597767,"current_range_meters":16000,"station_id":"ce4bhgp2rcd13ifvqfd0","pricing_plan_id":"cebpf4jnsgd1na2vs0mg"},{"bike_id":"0ac8662d-2bde-43be-b897-df3527b6fda2","system_id":"levelo_inurba_marseille","lat":43.26958,"lon":5.38642,"is_reserved":false,"is_disabled":false,"rental_uris":{"android":"levelo://app?vid=0ac8662d-2bde-43be-b897-df3527b6fda2","ios":"levelo://app?vid=0ac8662d-2bde-43be-b897-df3527b6fda2"},"vehicle_type_id":"4","last_reported":1741597767,"current_range_meters":16000,"station_id":"ce4bhh92rcd13ifvqfh0","pricing_plan_id":"cebpf4jnsgd1na2vs0mg"},{"bike_id":"72ecfd75-4877-4c4b-a7f9-6597d1b3a6f1","system_id":"levelo_inurba_marseille","lat":43.27565,"lon":5.43123,"is_reserved":false,"is_disabled":false,"rental_uris":{"android":"levelo://app?vid=72ecfd75-4877-4c4b-a7f9-6597d1b3a6f1","ios":"levelo://app?vid=72ecfd75-4877-4c4b-a7f9-6597d1b3a6f1"},"vehicle_type_id":"4","last_reported":1741597767,"current_range_meters":16000,"station_id":"ce4bhn92rcd13ifvqgrg","pricing_plan_id":"cebpf4jnsgd1na2vs0mg"},{"bike_id":"f381c9bd-14fa-41ab-b589-3ecebd6dfe48","system_id":"levelo_inurba_marseille","lat":43.32368,"lon":5.36768,"is_reserved":false,"is_disabled":false,"rental_uris":{"android":"levelo://app?vid=f381c9bd-14fa-41ab-b589-3ecebd6dfe48","ios":"levelo://app?vid=f381c9bd-14fa-41ab-b589-3ecebd6dfe48"},"vehicle_type_id":"4","last_reported":1741597767,"current_range_meters":16000,"station_id":"ce4bhsh2rcd13ifvqi2g","pricing_plan_id":"cebpf4jnsgd1na2vs0mg"},{"bike_id":"08b68eba-53e3-4dc9-b600-bf554c1ed500","system_id":"levelo_inurba_marseille","lat":43.29288,"lon":5.37617,"is_reserved":false,"is_disabled":false,"rental_uris":{"android":"levelo://app?vid=08b68eba-53e3-4dc9-b600-bf554c1ed500","ios":"levelo://app?vid=08b68eba-53e3-4dc9-b600-bf554c1ed500"},"vehicle_type_id":"4","last_reported":1741597767,"current_range_meters":16400,"station_id":"ce4bgi12rcd13ifvqb80","pricing_plan_id":"cebpf4jnsgd1na2vs0mg"},{"bike_id":"71689dd3-eb96-4d37-a920-02f80091c727","system_id":"levelo_inurba_marseille","lat":43.30145,"lon":5.38079,"is_reserved":false,"is_disabled":false,"rental_uris":{"android":"levelo://app?vid=71689dd3-eb96-4d37-a920-02f80091c727","ios":"levelo://app?vid=71689dd3-eb96-4d37-a920-02f80091c727"},"vehicle_type_id":"4","last_reported":1741597767,"current_range_meters":16400,"station_id":"ce4bgjp2rcd13ifvqbh0","pricing_plan_id":"cebpf4jnsgd1na2vs0mg"},{"bike_id":"03bfa581-ea11-4013-949d-dca4c73e10e0","system_id":"levelo_inurba_marseille","lat":43.30894,"lon":5.37199,"is_reserved":false,"is_disabled":false,"rental_uris":{"android":"levelo://app?vid=03bfa581-ea11-4013-949d-dca4c73e10e0","ios":"levelo://app?vid=03bfa581-ea11-4013-949d-dca4c73e10e0"},"vehicle_type_id":"4","last_reported":1741597767,"current_range_meters":16400,"station_id":"ce4bguh2rcd13ifvqckg","pricing_plan_id":"cebpf4jnsgd1na2vs0mg"},{"bike_id":"e3139aee-4d41-424e-bc2d-c59a3cbc3d4b","system_id":"levelo_inurba_marseille","lat":43.30966,"lon":5.39041,"is_reserved":false,"is_disabled":false,"rental_uris":{"android":"levelo://app?vid=e3139aee-4d41-424e-bc2d-c59a3cbc3d4b","ios":"levelo://app?vid=e3139aee-4d41-424e-bc2d-c59a3cbc3d4b"},"vehicle_type_id":"4","last_reported":1741597767,"current_range_meters":16400,"station_id":"ce4bgup2rcd13ifvqco0","pricing_plan_id":"cebpf4jnsgd1na2vs0mg"},{"bike_id":"3ef72a2e-da53-4e9e-b870-1da6ae5c4b2a","system_id":"levelo_inurba_marseille","lat":43.29095,"lon":5.38126,"is_reserved":false,"is_disabled":false,"rental_uris":{"android":"levelo://app?vid=3ef72a2e-da53-4e9e-b870-1da6ae5c4b2a","ios":"levelo://app?vid=3ef72a2e-da53-4e9e-b870-1da6ae5c4b2a"},"vehicle_type_id":"4","last_reported":1741597767,"current_range_meters":16400,"station_id":"ce4bh512rcd13ifvqe2g","pricing_plan_id":"cebpf4jnsgd1na2vs0mg"},{"bike_id":"5045428d-769b-4385-911e-e04bd40875eb","system_id":"levelo_inurba_marseille","lat":43.28472,"lon":5.35892,"is_reserved":false,"is_disabled":false,"rental_uris":{"android":"levelo://app?vid=5045428d-769b-4385-911e-e04bd40875eb","ios":"levelo://app?vid=5045428d-769b-4385-911e-e04bd40875eb"},"vehicle_type_id":"4","last_reported":1741597767,"current_range_meters":16400,"station_id":"ce4bhah2rcd13ifvqei0","pricing_plan_id":"cebpf4jnsgd1na2vs0mg"},{"bike_id":"9cf3b7c8-d02b-49e3-b044-219ac0cc2eb0","system_id":"levelo_inurba_marseille","lat":43.27202,"lon":5.39177,"is_reserved":false,"is_disabled":false,"rental_uris":{"android":"levelo://app?vid=9cf3b7c8-d02b-49e3-b044-219ac0cc2eb0","ios":"levelo://app?vid=9cf3b7c8-d02b-49e3-b044-219ac0cc2eb0"},"vehicle_type_id":"4","last_reported":1741597767,"current_range_meters":16400,"station_id":"ce4bhhp2rcd13ifvqfm0","pricing_plan_id":"cebpf4jnsgd1na2vs0mg"},{"bike_id":"14a64e50-67e4-4ccc-8dd3-b69f798262a6","system_id":"levelo_inurba_marseille","lat":43.25113,"lon":5.40322,"is_reserved":false,"is_disabled":false,"rental_uris":{"android":"levelo://app?vid=14a64e50-67e4-4ccc-8dd3-b69f798262a6","ios":"levelo://app?vid=14a64e50-67e4-4ccc-8dd3-b69f798262a6"},"vehicle_type_id":"4","last_reported":1741597767,"current_range_meters":16400,"station_id":"ce4bhlh2rcd13ifvqgig","pricing_plan_id":"cebpf4jnsgd1na2vs0mg"},{"bike_id":"ec158045-a82c-4f94-a9fe-4ee57996b1b4","system_id":"levelo_inurba_marseille","lat":43.25105,"lon":5.40308,"is_reserved":false,"is_disabled":false,"rental_uris":{"android":"levelo://app?vid=ec158045-a82c-4f94-a9fe-4ee57996b1b4","ios":"levelo://app?vid=ec158045-a82c-4f94-a9fe-4ee57996b1b4"},"vehicle_type_id":"4","last_reported":1741597767,"current_range_meters":16400,"station_id":"ce4bhlh2rcd13ifvqgig","pricing_plan_id":"cebpf4jnsgd1na2vs0mg"},{"bike_id":"1617cee3-cdfd-4818-b8d5-0b6b5b838d97","system_id":"levelo_inurba_marseille","lat":43.24068,"lon":5.3774,"is_reserved":false,"is_disabled":false,"rental_uris":{"android":"levelo://app?vid=1617cee3-cdfd-4818-b8d5-0b6b5b838d97","ios":"levelo://app?vid=1617cee3-cdfd-4818-b8d5-0b6b5b838d97"},"vehicle_type_id":"4","last_reported":1741597767,"current_range_meters":16400,"station_id":"ce4bhnp2rcd13ifvqgvg","pricing_plan_id":"cebpf4jnsgd1na2vs0mg"},{"bike_id":"caed4545-182d-42df-8230-6bdcdcfdf765","system_id":"levelo_inurba_marseille","lat":43.3123,"lon":5.3679,"is_reserved":false,"is_disabled":false,"rental_uris":{"android":"levelo://app?vid=caed4545-182d-42df-8230-6bdcdcfdf765","ios":"levelo://app?vid=caed4545-182d-42df-8230-6bdcdcfdf765"},"vehicle_type_id":"4","last_reported":1741597767,"current_range_meters":16800,"station_id":"","pricing_plan_id":"cebpf4jnsgd1na2vs0mg"},{"bike_id":"0f520d00-ebca-4721-9b5a-856107a487e4","system_id":"levelo_inurba_marseille","lat":43.31222,"lon":5.36845,"is_reserved":false,"is_disabled":false,"rental_uris":{"android":"levelo://app?vid=0f520d00-ebca-4721-9b5a-856107a487e4","ios":"levelo://app?vid=0f520d00-ebca-4721-9b5a-856107a487e4"},"vehicle_type_id":"4","last_reported":1741597767,"current_range_meters":16800,"station_id":"ce4bgl92rcd13ifvqbq0","pricing_plan_id":"cebpf4jnsgd1na2vs0mg"},{"bike_id":"b93821cd-930f-4ebf-a2a8-7a8492ec623a","system_id":"levelo_inurba_marseille","lat":43.240784,"lon":5.377529,"is_reserved":false,"is_disabled":false,"rental_uris":{"android":"levelo://app?vid=b93821cd-930f-4ebf-a2a8-7a8492ec623a","ios":"levelo://app?vid=b93821cd-930f-4ebf-a2a8-7a8492ec623a"},"vehicle_type_id":"4","last_reported":1741597767,"current_range_meters":16800,"station_id":"ce4bhh92rcd13ifvqfh0","pricing_plan_id":"cebpf4jnsgd1na2vs0mg"},{"bike_id":"24ea9c03-0afd-4100-ad62-62865e3edce9","system_id":"levelo_inurba_marseille","lat":43.23168,"lon":5.43719,"is_reserved":false,"is_disabled":false,"rental_uris":{"android":"levelo://app?vid=24ea9c03-0afd-4100-ad62-62865e3edce9","ios":"levelo://app?vid=24ea9c03-0afd-4100-ad62-62865e3edce9"},"vehicle_type_id":"4","last_reported":1741597767,"current_range_meters":16800,"station_id":"ce4bhmp2rcd13ifvqgog","pricing_plan_id":"cebpf4jnsgd1na2vs0mg"},{"bike_id":"844894c7-065d-427a-9941-8626b05204ed","system_id":"levelo_inurba_marseille","lat":43.32537,"lon":5.414325,"is_reserved":false,"is_disabled":false,"rental_uris":{"android":"levelo://app?vid=844894c7-065d-427a-9941-8626b05204ed","ios":"levelo://app?vid=844894c7-065d-427a-9941-8626b05204ed"},"vehicle_type_id":"4","last_reported":1741597767,"current_range_meters":16800,"station_id":"ce4bhq12rcd13ifvqhhg","pricing_plan_id":"cebpf4jnsgd1na2vs0mg"},{"bike_id":"bf49a0fd-bfe2-4bbb-8d6a-0540c7d91d25","system_id":"levelo_inurba_marseille","lat":43.32357,"lon":5.36787,"is_reserved":false,"is_disabled":false,"rental_uris":{"android":"levelo://app?vid=bf49a0fd-bfe2-4bbb-8d6a-0540c7d91d25","ios":"levelo://app?vid=bf49a0fd-bfe2-4bbb-8d6a-0540c7d91d25"},"vehicle_type_id":"4","last_reported":1741597767,"current_range_meters":16800,"station_id":"ce4bhsh2rcd13ifvqi2g","pricing_plan_id":"cebpf4jnsgd1na2vs0mg"},{"bike_id":"259dde30-071d-4e72-9e93-2afe0e28cbba","system_id":"levelo_inurba_marseille","lat":43.30647,"lon":5.37362,"is_reserved":false,"is_disabled":false,"rental_uris":{"android":"levelo://app?vid=259dde30-071d-4e72-9e93-2afe0e28cbba","ios":"levelo://app?vid=259dde30-071d-4e72-9e93-2afe0e28cbba"},"vehicle_type_id":"4","last_reported":1741597767,"current_range_meters":17200,"station_id":"","pricing_plan_id":"cebpf4jnsgd1na2vs0mg"},{"bike_id":"e4f61b86-04a4-4652-a877-15de8ddf1997","system_id":"levelo_inurba_marseille","lat":43.31242,"lon":5.36846,"is_reserved":false,"is_disabled":false,"rental_uris":{"android":"levelo://app?vid=e4f61b86-04a4-4652-a877-15de8ddf1997","ios":"levelo://app?vid=e4f61b86-04a4-4652-a877-15de8ddf1997"},"vehicle_type_id":"4","last_reported":1741597767,"current_range_meters":17200,"station_id":"ce4bgl92rcd13ifvqbq0","pricing_plan_id":"cebpf4jnsgd1na2vs0mg"},{"bike_id":"3e19dab8-46fe-40ac-bdf3-26b4f9e3cbe2","system_id":"levelo_inurba_marseille","lat":43.30545,"lon":5.36709,"is_reserved":false,"is_disabled":false,"rental_uris":{"android":"levelo://app?vid=3e19dab8-46fe-40ac-bdf3-26b4f9e3cbe2","ios":"levelo://app?vid=3e19dab8-46fe-40ac-bdf3-26b4f9e3cbe2"},"vehicle_type_id":"4","last_reported":1741597767,"current_range_meters":17200,"station_id":"ce4bgrp2rcd13ifvqc9g","pricing_plan_id":"cebpf4jnsgd1na2vs0mg"},{"bike_id":"466d04b3-862f-4406-b84e-2ba83611e3e4","system_id":"levelo_inurba_marseille","lat":43.27426,"lon":5.39424,"is_reserved":false,"is_disabled":false,"rental_uris":{"android":"levelo://app?vid=466d04b3-862f-4406-b84e-2ba83611e3e4","ios":"levelo://app?vid=466d04b3-862f-4406-b84e-2ba83611e3e4"},"vehicle_type_id":"4","last_reported":1741597767,"current_range_meters":17200,"station_id":"ce4bhdp2rcd13ifvqf20","pricing_plan_id":"cebpf4jnsgd1na2vs0mg"},{"bike_id":"ca57d901-cb2c-48c2-91cf-ac2cee86a3a4","system_id":"levelo_inurba_marseille","lat":43.23164,"lon":5.43711,"is_reserved":false,"is_disabled":false,"rental_uris":{"android":"levelo://app?vid=ca57d901-cb2c-48c2-91cf-ac2cee86a3a4","ios":"levelo://app?vid=ca57d901-cb2c-48c2-91cf-ac2cee86a3a4"},"vehicle_type_id":"4","last_reported":1741597767,"current_range_meters":17200,"station_id":"ce4bhmp2rcd13ifvqgog","pricing_plan_id":"cebpf4jnsgd1na2vs0mg"},{"bike_id":"1a26001d-d49a-47a3-a711-f7ff22c1c811","system_id":"levelo_inurba_marseille","lat":43.28918,"lon":5.37145,"is_reserved":false,"is_disabled":false,"rental_uris":{"android":"levelo://app?vid=1a26001d-d49a-47a3-a711-f7ff22c1c811","ios":"levelo://app?vid=1a26001d-d49a-47a3-a711-f7ff22c1c811"},"vehicle_type_id":"4","last_reported":1741597767,"current_range_meters":17600,"station_id":"","pricing_plan_id":"cebpf4jnsgd1na2vs0mg"},{"bike_id":"d0852a77-0c39-4073-b89d-15b85c3aa5e5","system_id":"levelo_inurba_marseille","lat":43.30141,"lon":5.37423,"is_reserved":false,"is_disabled":false,"rental_uris":{"android":"levelo://app?vid=d0852a77-0c39-4073-b89d-15b85c3aa5e5","ios":"levelo://app?vid=d0852a77-0c39-4073-b89d-15b85c3aa5e5"},"vehicle_type_id":"4","last_reported":1741597767,"current_range_meters":17600,"station_id":"ce4bgs92rcd13ifvqcc0","pricing_plan_id":"cebpf4jnsgd1na2vs0mg"},{"bike_id":"dcd0c5eb-36c9-4542-9b13-ded8eea11997","system_id":"levelo_inurba_marseille","lat":43.30136,"lon":5.37432,"is_reserved":false,"is_disabled":false,"rental_uris":{"android":"levelo://app?vid=dcd0c5eb-36c9-4542-9b13-ded8eea11997","ios":"levelo://app?vid=dcd0c5eb-36c9-4542-9b13-ded8eea11997"},"vehicle_type_id":"4","last_reported":1741597767,"current_range_meters":17600,"station_id":"ce4bgs92rcd13ifvqcc0","pricing_plan_id":"cebpf4jnsgd1na2vs0mg"},{"bike_id":"13422b31-3d82-46fb-a112-4ed6bb411087","system_id":"levelo_inurba_marseille","lat":43.30465,"lon":5.37907,"is_reserved":false,"is_disabled":false,"rental_uris":{"android":"levelo://app?vid=13422b31-3d82-46fb-a112-4ed6bb411087","ios":"levelo://app?vid=13422b31-3d82-46fb-a112-4ed6bb411087"},"vehicle_type_id":"4","last_reported":1741597767,"current_range_meters":17600,"station_id":"ce4bgup2rcd13ifvqcn0","pricing_plan_id":"cebpf4jnsgd1na2vs0mg"},{"bike_id":"81764853-a07a-4c0f-95d9-5831d2ec6d8e","system_id":"levelo_inurba_marseille","lat":43.28997,"lon":5.37828,"is_reserved":false,"is_disabled":false,"rental_uris":{"android":"levelo://app?vid=81764853-a07a-4c0f-95d9-5831d2ec6d8e","ios":"levelo://app?vid=81764853-a07a-4c0f-95d9-5831d2ec6d8e"},"vehicle_type_id":"4","last_reported":1741597767,"current_range_meters":17600,"station_id":"ce4bh9p2rcd13ifvqed0","pricing_plan_id":"cebpf4jnsgd1na2vs0mg"},{"bike_id":"920d43d5-ec51-4900-bce5-37e17e2beaa8","system_id":"levelo_inurba_marseille","lat":43.2923,"lon":5.36071,"is_reserved":false,"is_disabled":false,"rental_uris":{"android":"levelo://app?vid=920d43d5-ec51-4900-bce5-37e17e2beaa8","ios":"levelo://app?vid=920d43d5-ec51-4900-bce5-37e17e2beaa8"},"vehicle_type_id":"4","last_reported":1741597767,"current_range_meters":17600,"station_id":"ce4bhbh2rcd13ifvqeqg","pricing_plan_id":"cebpf4jnsgd1na2vs0mg"},{"bike_id":"a3d8580a-1e25-4809-bd9d-11c60058ede4","system_id":"levelo_inurba_marseille","lat":43.25943,"lon":5.40899,"is_reserved":false,"is_disabled":false,"rental_uris":{"android":"levelo://app?vid=a3d8580a-1e25-4809-bd9d-11c60058ede4","ios":"levelo://app?vid=a3d8580a-1e25-4809-bd9d-11c60058ede4"},"vehicle_type_id":"4","last_reported":1741597767,"current_range_meters":17600,"station_id":"ce4bhm92rcd13ifvqglg","pricing_plan_id":"cebpf4jnsgd1na2vs0mg"},{"bike_id":"13f474fd-3bd4-47a1-b986-034ecd634694","system_id":"levelo_inurba_marseille","lat":43.23165,"lon":5.43711,"is_reserved":false,"is_disabled":false,"rental_uris":{"android":"levelo://app?vid=13f474fd-3bd4-47a1-b986-034ecd634694","ios":"levelo://app?vid=13f474fd-3bd4-47a1-b986-034ecd634694"},"vehicle_type_id":"4","last_reported":1741597767,"current_range_meters":17600,"station_id":"ce4bhmp2rcd13ifvqgog","pricing_plan_id":"cebpf4jnsgd1na2vs0mg"},{"bike_id":"c6864d4c-d2cf-48bb-9548-2ea24d54a3b2","system_id":"levelo_inurba_marseille","lat":43.33616,"lon":5.41033,"is_reserved":false,"is_disabled":false,"rental_uris":{"android":"levelo://app?vid=c6864d4c-d2cf-48bb-9548-2ea24d54a3b2","ios":"levelo://app?vid=c6864d4c-d2cf-48bb-9548-2ea24d54a3b2"},"vehicle_type_id":"4","last_reported":1741597767,"current_range_meters":17600,"station_id":"ce4bhqh2rcd13ifvqhmg","pricing_plan_id":"cebpf4jnsgd1na2vs0mg"},{"bike_id":"d38403ce-9be5-46ec-96ba-e9dc0ec4d771","system_id":"levelo_inurba_marseille","lat":43.29161,"lon":5.37172,"is_reserved":false,"is_disabled":false,"rental_uris":{"android":"levelo://app?vid=d38403ce-9be5-46ec-96ba-e9dc0ec4d771","ios":"levelo://app?vid=d38403ce-9be5-46ec-96ba-e9dc0ec4d771"},"vehicle_type_id":"4","last_reported":1741597767,"current_range_meters":18000,"station_id":"","pricing_plan_id":"cebpf4jnsgd1na2vs0mg"},{"bike_id":"bca79813-56da-440b-8c2e-d3fd38afc981","system_id":"levelo_inurba_marseille","lat":43.29285,"lon":5.37421,"is_reserved":false,"is_disabled":false,"rental_uris":{"android":"levelo://app?vid=bca79813-56da-440b-8c2e-d3fd38afc981","ios":"levelo://app?vid=bca79813-56da-440b-8c2e-d3fd38afc981"},"vehicle_type_id":"4","last_reported":1741597767,"current_range_meters":18000,"station_id":"ce4bgi12rcd13ifvqb70","pricing_plan_id":"cebpf4jnsgd1na2vs0mg"},{"bike_id":"ac8e6b48-e483-4aef-bede-c5576834d55a","system_id":"levelo_inurba_marseille","lat":43.29835,"lon":5.36264,"is_reserved":false,"is_disabled":false,"rental_uris":{"android":"levelo://app?vid=ac8e6b48-e483-4aef-bede-c5576834d55a","ios":"levelo://app?vid=ac8e6b48-e483-4aef-bede-c5576834d55a"},"vehicle_type_id":"4","last_reported":1741597767,"current_range_meters":18000,"station_id":"ce4bgpp2rcd13ifvqc3g","pricing_plan_id":"cebpf4jnsgd1na2vs0mg"},{"bike_id":"5a123b3c-d5fd-46b8-9b7e-f6e607a56645","system_id":"levelo_inurba_marseille","lat":43.30896,"lon":5.3722,"is_reserved":false,"is_disabled":false,"rental_uris":{"android":"levelo://app?vid=5a123b3c-d5fd-46b8-9b7e-f6e607a56645","ios":"levelo://app?vid=5a123b3c-d5fd-46b8-9b7e-f6e607a56645"},"vehicle_type_id":"4","last_reported":1741597767,"current_range_meters":18000,"station_id":"ce4bguh2rcd13ifvqckg","pricing_plan_id":"cebpf4jnsgd1na2vs0mg"},{"bike_id":"9ffdae6d-97cc-450a-a652-d5a815fe27d0","system_id":"levelo_inurba_marseille","lat":43.29107,"lon":5.38175,"is_reserved":false,"is_disabled":false,"rental_uris":{"android":"levelo://app?vid=9ffdae6d-97cc-450a-a652-d5a815fe27d0","ios":"levelo://app?vid=9ffdae6d-97cc-450a-a652-d5a815fe27d0"},"vehicle_type_id":"4","last_reported":1741597767,"current_range_meters":18000,"station_id":"ce4bh512rcd13ifvqe2g","pricing_plan_id":"cebpf4jnsgd1na2vs0mg"},{"bike_id":"0c14668e-1ca2-4ee5-baa4-844fb9282869","system_id":"levelo_inurba_marseille","lat":43.29093,"lon":5.3815,"is_reserved":false,"is_disabled":false,"rental_uris":{"android":"levelo://app?vid=0c14668e-1ca2-4ee5-baa4-844fb9282869","ios":"levelo://app?vid=0c14668e-1ca2-4ee5-baa4-844fb9282869"},"vehicle_type_id":"4","last_reported":1741597767,"current_range_meters":18000,"station_id":"ce4bh512rcd13ifvqe2g","pricing_plan_id":"cebpf4jnsgd1na2vs0mg"},{"bike_id":"456ff9d7-ab33-474e-b206-054c5123101c","system_id":"levelo_inurba_marseille","lat":43.29109,"lon":5.38135,"is_reserved":false,"is_disabled":false,"rental_uris":{"android":"levelo://app?vid=456ff9d7-ab33-474e-b206-054c5123101c","ios":"levelo://app?vid=456ff9d7-ab33-474e-b206-054c5123101c"},"vehicle_type_id":"4","last_reported":1741597767,"current_range_meters":18000,"station_id":"ce4bh512rcd13ifvqe2g","pricing_plan_id":"cebpf4jnsgd1na2vs0mg"},{"bike_id":"3e37f03c-e5a4-4e97-951f-7786bb1c3928","system_id":"levelo_inurba_marseille","lat":43.23153,"lon":5.43721,"is_reserved":false,"is_disabled":false,"rental_uris":{"android":"levelo://app?vid=3e37f03c-e5a4-4e97-951f-7786bb1c3928","ios":"levelo://app?vid=3e37f03c-e5a4-4e97-951f-7786bb1c3928"},"vehicle_type_id":"4","last_reported":1741597767,"current_range_meters":18000,"station_id":"ce4bhmp2rcd13ifvqgog","pricing_plan_id":"cebpf4jnsgd1na2vs0mg"},{"bike_id":"e59567f6-dc79-4e89-b886-508089119a97","system_id":"levelo_inurba_marseille","lat":43.2418,"lon":5.39732,"is_reserved":false,"is_disabled":false,"rental_uris":{"android":"levelo://app?vid=e59567f6-dc79-4e89-b886-508089119a97","ios":"levelo://app?vid=e59567f6-dc79-4e89-b886-508089119a97"},"vehicle_type_id":"4","last_reported":1741597767,"current_range_meters":18000,"station_id":"ce4bhn12rcd13ifvqgpg","pricing_plan_id":"cebpf4jnsgd1na2vs0mg"},{"bike_id":"e64d800d-10c2-4cd6-9201-c8d34bd9c9cf","system_id":"levelo_inurba_marseille","lat":43.24067,"lon":5.37759,"is_reserved":false,"is_disabled":false,"rental_uris":{"android":"levelo://app?vid=e64d800d-10c2-4cd6-9201-c8d34bd9c9cf","ios":"levelo://app?vid=e64d800d-10c2-4cd6-9201-c8d34bd9c9cf"},"vehicle_type_id":"4","last_reported":1741597767,"current_range_meters":18000,"station_id":"ce4bhnp2rcd13ifvqgvg","pricing_plan_id":"cebpf4jnsgd1na2vs0mg"},{"bike_id":"38422f7f-d7a3-4739-a792-7a6a18f85c3d","system_id":"levelo_inurba_marseille","lat":43.325195,"lon":5.41456,"is_reserved":false,"is_disabled":false,"rental_uris":{"android":"levelo://app?vid=38422f7f-d7a3-4739-a792-7a6a18f85c3d","ios":"levelo://app?vid=38422f7f-d7a3-4739-a792-7a6a18f85c3d"},"vehicle_type_id":"4","last_reported":1741597767,"current_range_meters":18000,"station_id":"ce4bhpp2rcd13ifvqhgg","pricing_plan_id":"cebpf4jnsgd1na2vs0mg"},{"bike_id":"2cdec81d-2593-4153-a426-2f527f1b29e2","system_id":"levelo_inurba_marseille","lat":43.23595,"lon":5.391,"is_reserved":false,"is_disabled":false,"rental_uris":{"android":"levelo://app?vid=2cdec81d-2593-4153-a426-2f527f1b29e2","ios":"levelo://app?vid=2cdec81d-2593-4153-a426-2f527f1b29e2"},"vehicle_type_id":"4","last_reported":1741597767,"current_range_meters":18800,"station_id":"","pricing_plan_id":"cebpf4jnsgd1na2vs0mg"},{"bike_id":"8ff3983c-32e4-4cef-b292-8d3f53050c89","system_id":"levelo_inurba_marseille","lat":43.30919,"lon":5.36835,"is_reserved":false,"is_disabled":false,"rental_uris":{"android":"levelo://app?vid=8ff3983c-32e4-4cef-b292-8d3f53050c89","ios":"levelo://app?vid=8ff3983c-32e4-4cef-b292-8d3f53050c89"},"vehicle_type_id":"4","last_reported":1741597767,"current_range_meters":18800,"station_id":"ce4bgn92rcd13ifvqbvg","pricing_plan_id":"cebpf4jnsgd1na2vs0mg"},{"bike_id":"62249f8a-6a1b-47cf-8927-f6eb6bc18953","system_id":"levelo_inurba_marseille","lat":43.30171,"lon":5.36609,"is_reserved":false,"is_disabled":false,"rental_uris":{"android":"levelo://app?vid=62249f8a-6a1b-47cf-8927-f6eb6bc18953","ios":"levelo://app?vid=62249f8a-6a1b-47cf-8927-f6eb6bc18953"},"vehicle_type_id":"4","last_reported":1741597767,"current_range_meters":18800,"station_id":"ce4bgrh2rcd13ifvqc8g","pricing_plan_id":"cebpf4jnsgd1na2vs0mg"},{"bike_id":"f6dc7e9d-be33-4c3d-b28e-234510ea7980","system_id":"levelo_inurba_marseille","lat":43.29103,"lon":5.38108,"is_reserved":false,"is_disabled":false,"rental_uris":{"android":"levelo://app?vid=f6dc7e9d-be33-4c3d-b28e-234510ea7980","ios":"levelo://app?vid=f6dc7e9d-be33-4c3d-b28e-234510ea7980"},"vehicle_type_id":"4","last_reported":1741597767,"current_range_meters":18800,"station_id":"ce4bh512rcd13ifvqe2g","pricing_plan_id":"cebpf4jnsgd1na2vs0mg"},{"bike_id":"493d0bcc-39cb-4cfd-948e-8bb2c4e137bf","system_id":"levelo_inurba_marseille","lat":43.28637,"lon":5.35087,"is_reserved":false,"is_disabled":false,"rental_uris":{"android":"levelo://app?vid=493d0bcc-39cb-4cfd-948e-8bb2c4e137bf","ios":"levelo://app?vid=493d0bcc-39cb-4cfd-948e-8bb2c4e137bf"},"vehicle_type_id":"4","last_reported":1741597767,"current_range_meters":18800,"station_id":"ce4bhch2rcd13ifvqeug","pricing_plan_id":"cebpf4jnsgd1na2vs0mg"},{"bike_id":"68bcf1b4-26f6-44e4-abca-d12a32c052b2","system_id":"levelo_inurba_marseille","lat":43.26695,"lon":5.382693,"is_reserved":false,"is_disabled":false,"rental_uris":{"android":"levelo://app?vid=68bcf1b4-26f6-44e4-abca-d12a32c052b2","ios":"levelo://app?vid=68bcf1b4-26f6-44e4-abca-d12a32c052b2"},"vehicle_type_id":"4","last_reported":1741597767,"current_range_meters":18800,"station_id":"ce4bhg92rcd13ifvqf90","pricing_plan_id":"cebpf4jnsgd1na2vs0mg"},{"bike_id":"df661ef6-2ccd-416a-95d1-2f0c080557f5","system_id":"levelo_inurba_marseille","lat":43.25912,"lon":5.40906,"is_reserved":false,"is_disabled":false,"rental_uris":{"android":"levelo://app?vid=df661ef6-2ccd-416a-95d1-2f0c080557f5","ios":"levelo://app?vid=df661ef6-2ccd-416a-95d1-2f0c080557f5"},"vehicle_type_id":"4","last_reported":1741597767,"current_range_meters":18800,"station_id":"ce4bhm92rcd13ifvqglg","pricing_plan_id":"cebpf4jnsgd1na2vs0mg"},{"bike_id":"2c300ed3-ce8f-4136-bb9c-f443a0876d97","system_id":"levelo_inurba_marseille","lat":43.27504,"lon":5.4247,"is_reserved":false,"is_disabled":false,"rental_uris":{"android":"levelo://app?vid=2c300ed3-ce8f-4136-bb9c-f443a0876d97","ios":"levelo://app?vid=2c300ed3-ce8f-4136-bb9c-f443a0876d97"},"vehicle_type_id":"4","last_reported":1741597767,"current_range_meters":18800,"station_id":"ce4bhn92rcd13ifvqgrg","pricing_plan_id":"cebpf4jnsgd1na2vs0mg"},{"bike_id":"1535a482-e61c-46ce-9102-b7be2babfecc","system_id":"levelo_inurba_marseille","lat":43.33728,"lon":5.39183,"is_reserved":false,"is_disabled":false,"rental_uris":{"android":"levelo://app?vid=1535a482-e61c-46ce-9102-b7be2babfecc","ios":"levelo://app?vid=1535a482-e61c-46ce-9102-b7be2babfecc"},"vehicle_type_id":"4","last_reported":1741597767,"current_range_meters":18800,"station_id":"ce4bhr92rcd13ifvqhsg","pricing_plan_id":"cebpf4jnsgd1na2vs0mg"},{"bike_id":"f0b5f6b7-161e-4c72-8f30-8d8e8d5c374f","system_id":"levelo_inurba_marseille","lat":43.24599,"lon":5.40498,"is_reserved":false,"is_disabled":false,"rental_uris":{"android":"levelo://app?vid=f0b5f6b7-161e-4c72-8f30-8d8e8d5c374f","ios":"levelo://app?vid=f0b5f6b7-161e-4c72-8f30-8d8e8d5c374f"},"vehicle_type_id":"4","last_reported":1741597767,"current_range_meters":19200,"station_id":"","pricing_plan_id":"cebpf4jnsgd1na2vs0mg"},{"bike_id":"09ef8a4f-4e7f-49c5-8eba-8c9943cc01ae","system_id":"levelo_inurba_marseille","lat":43.30435,"lon":5.39755,"is_reserved":false,"is_disabled":false,"rental_uris":{"android":"levelo://app?vid=09ef8a4f-4e7f-49c5-8eba-8c9943cc01ae","ios":"levelo://app?vid=09ef8a4f-4e7f-49c5-8eba-8c9943cc01ae"},"vehicle_type_id":"4","last_reported":1741597767,"current_range_meters":19200,"station_id":"ce4bh092rcd13ifvqd20","pricing_plan_id":"cebpf4jnsgd1na2vs0mg"},{"bike_id":"565febc3-3424-4d4c-95ca-5705a262f891","system_id":"levelo_inurba_marseille","lat":43.28173,"lon":5.42673,"is_reserved":false,"is_disabled":false,"rental_uris":{"android":"levelo://app?vid=565febc3-3424-4d4c-95ca-5705a262f891","ios":"levelo://app?vid=565febc3-3424-4d4c-95ca-5705a262f891"},"vehicle_type_id":"4","last_reported":1741597767,"current_range_meters":19200,"station_id":"ce4bhnh2rcd13ifvqgug","pricing_plan_id":"cebpf4jnsgd1na2vs0mg"},{"bike_id":"303473d0-c71d-4532-867e-1af4d571971a","system_id":"levelo_inurba_marseille","lat":43.31102,"lon":5.42444,"is_reserved":false,"is_disabled":false,"rental_uris":{"android":"levelo://app?vid=303473d0-c71d-4532-867e-1af4d571971a","ios":"levelo://app?vid=303473d0-c71d-4532-867e-1af4d571971a"},"vehicle_type_id":"4","last_reported":1741597767,"current_range_meters":19200,"station_id":"ce4bhp92rcd13ifvqhag","pricing_plan_id":"cebpf4jnsgd1na2vs0mg"},{"bike_id":"5540180e-55d0-4c4d-8e95-598bebdc1ae2","system_id":"levelo_inurba_marseille","lat":43.32482,"lon":5.36599,"is_reserved":false,"is_disabled":false,"rental_uris":{"android":"levelo://app?vid=5540180e-55d0-4c4d-8e95-598bebdc1ae2","ios":"levelo://app?vid=5540180e-55d0-4c4d-8e95-598bebdc1ae2"},"vehicle_type_id":"4","last_reported":1741597767,"current_range_meters":19200,"station_id":"ce4bhs12rcd13ifvqhvg","pricing_plan_id":"cebpf4jnsgd1na2vs0mg"},{"bike_id":"1bbe83b2-d9fb-4900-8025-eb6fd82a7a48","system_id":"levelo_inurba_marseille","lat":43.31226,"lon":5.36855,"is_reserved":false,"is_disabled":false,"rental_uris":{"android":"levelo://app?vid=1bbe83b2-d9fb-4900-8025-eb6fd82a7a48","ios":"levelo://app?vid=1bbe83b2-d9fb-4900-8025-eb6fd82a7a48"},"vehicle_type_id":"4","last_reported":1741597767,"current_range_meters":19600,"station_id":"ce4bgl92rcd13ifvqbq0","pricing_plan_id":"cebpf4jnsgd1na2vs0mg"},{"bike_id":"78549cf8-b0cc-41c9-ae90-189226d24ef8","system_id":"levelo_inurba_marseille","lat":43.29841,"lon":5.36257,"is_reserved":false,"is_disabled":false,"rental_uris":{"android":"levelo://app?vid=78549cf8-b0cc-41c9-ae90-189226d24ef8","ios":"levelo://app?vid=78549cf8-b0cc-41c9-ae90-189226d24ef8"},"vehicle_type_id":"4","last_reported":1741597767,"current_range_meters":19600,"station_id":"ce4bgpp2rcd13ifvqc3g","pricing_plan_id":"cebpf4jnsgd1na2vs0mg"},{"bike_id":"404c75c1-b6ef-4728-9d23-4692de57273e","system_id":"levelo_inurba_marseille","lat":43.30554,"lon":5.36701,"is_reserved":false,"is_disabled":false,"rental_uris":{"android":"levelo://app?vid=404c75c1-b6ef-4728-9d23-4692de57273e","ios":"levelo://app?vid=404c75c1-b6ef-4728-9d23-4692de57273e"},"vehicle_type_id":"4","last_reported":1741597767,"current_range_meters":19600,"station_id":"ce4bgrp2rcd13ifvqc9g","pricing_plan_id":"cebpf4jnsgd1na2vs0mg"},{"bike_id":"f3e51ab4-f5c6-4a14-8457-bdb1f971c472","system_id":"levelo_inurba_marseille","lat":43.29037,"lon":5.37574,"is_reserved":false,"is_disabled":false,"rental_uris":{"android":"levelo://app?vid=f3e51ab4-f5c6-4a14-8457-bdb1f971c472","ios":"levelo://app?vid=f3e51ab4-f5c6-4a14-8457-bdb1f971c472"},"vehicle_type_id":"4","last_reported":1741597767,"current_range_meters":19600,"station_id":"ce4bh692rcd13ifvqe90","pricing_plan_id":"cebpf4jnsgd1na2vs0mg"},{"bike_id":"bb63f5c7-f519-4d28-97f8-05e5dd552c58","system_id":"levelo_inurba_marseille","lat":43.28465,"lon":5.3589,"is_reserved":false,"is_disabled":false,"rental_uris":{"android":"levelo://app?vid=bb63f5c7-f519-4d28-97f8-05e5dd552c58","ios":"levelo://app?vid=bb63f5c7-f519-4d28-97f8-05e5dd552c58"},"vehicle_type_id":"4","last_reported":1741597767,"current_range_meters":19600,"station_id":"ce4bhah2rcd13ifvqei0","pricing_plan_id":"cebpf4jnsgd1na2vs0mg"},{"bike_id":"aed9432b-5cc1-436c-8ca8-7c4e64a53a2c","system_id":"levelo_inurba_marseille","lat":43.26578,"lon":5.3901,"is_reserved":false,"is_disabled":false,"rental_uris":{"android":"levelo://app?vid=aed9432b-5cc1-436c-8ca8-7c4e64a53a2c","ios":"levelo://app?vid=aed9432b-5cc1-436c-8ca8-7c4e64a53a2c"},"vehicle_type_id":"4","last_reported":1741597767,"current_range_meters":19600,"station_id":"ce4bhe12rcd13ifvqf30","pricing_plan_id":"cebpf4jnsgd1na2vs0mg"},{"bike_id":"210fdac4-a708-426e-b618-80e060bd1617","system_id":"levelo_inurba_marseille","lat":43.25112,"lon":5.40327,"is_reserved":false,"is_disabled":false,"rental_uris":{"android":"levelo://app?vid=210fdac4-a708-426e-b618-80e060bd1617","ios":"levelo://app?vid=210fdac4-a708-426e-b618-80e060bd1617"},"vehicle_type_id":"4","last_reported":1741597767,"current_range_meters":19600,"station_id":"ce4bhlh2rcd13ifvqgig","pricing_plan_id":"cebpf4jnsgd1na2vs0mg"},{"bike_id":"3dfe102b-1814-4e6b-bfe1-a12093ba540d","system_id":"levelo_inurba_marseille","lat":43.2319,"lon":5.39993,"is_reserved":false,"is_disabled":false,"rental_uris":{"android":"levelo://app?vid=3dfe102b-1814-4e6b-bfe1-a12093ba540d","ios":"levelo://app?vid=3dfe102b-1814-4e6b-bfe1-a12093ba540d"},"vehicle_type_id":"4","last_reported":1741597767,"current_range_meters":19600,"station_id":"ce4bhn12rcd13ifvqgqg","pricing_plan_id":"cebpf4jnsgd1na2vs0mg"},{"bike_id":"fdaa1059-b581-419b-ac4d-269c36f9ab41","system_id":"levelo_inurba_marseille","lat":43.32106,"lon":5.367608,"is_reserved":false,"is_disabled":false,"rental_uris":{"android":"levelo://app?vid=fdaa1059-b581-419b-ac4d-269c36f9ab41","ios":"levelo://app?vid=fdaa1059-b581-419b-ac4d-269c36f9ab41"},"vehicle_type_id":"4","last_reported":1741597767,"current_range_meters":19600,"station_id":"ce4bhrh2rcd13ifvqhug","pricing_plan_id":"cebpf4jnsgd1na2vs0mg"},{"bike_id":"92933905-e72f-44ee-9e57-41919f30dcff","system_id":"levelo_inurba_marseille","lat":43.31704,"lon":5.40457,"is_reserved":false,"is_disabled":false,"rental_uris":{"android":"levelo://app?vid=92933905-e72f-44ee-9e57-41919f30dcff","ios":"levelo://app?vid=92933905-e72f-44ee-9e57-41919f30dcff"},"vehicle_type_id":"4","last_reported":1741597767,"current_range_meters":20000,"station_id":"ce4bh012rcd13ifvqd00","pricing_plan_id":"cebpf4jnsgd1na2vs0mg"},{"bike_id":"8c55d158-95a1-46f2-8012-30943fbb6cda","system_id":"levelo_inurba_marseille","lat":43.2897,"lon":5.3784,"is_reserved":false,"is_disabled":false,"rental_uris":{"android":"levelo://app?vid=8c55d158-95a1-46f2-8012-30943fbb6cda","ios":"levelo://app?vid=8c55d158-95a1-46f2-8012-30943fbb6cda"},"vehicle_type_id":"4","last_reported":1741597767,"current_range_meters":20000,"station_id":"ce4bh9p2rcd13ifvqed0","pricing_plan_id":"cebpf4jnsgd1na2vs0mg"},{"bike_id":"4418d755-9e03-4e82-8128-87a6a5fbf1a3","system_id":"levelo_inurba_marseille","lat":43.26215,"lon":5.37443,"is_reserved":false,"is_disabled":false,"rental_uris":{"android":"levelo://app?vid=4418d755-9e03-4e82-8128-87a6a5fbf1a3","ios":"levelo://app?vid=4418d755-9e03-4e82-8128-87a6a5fbf1a3"},"vehicle_type_id":"4","last_reported":1741597767,"current_range_meters":20000,"station_id":"ce4bhgp2rcd13ifvqfc0","pricing_plan_id":"cebpf4jnsgd1na2vs0mg"},{"bike_id":"8ca5c5ca-72b0-4225-86bd-6f0884d69aee","system_id":"levelo_inurba_marseille","lat":43.26935,"lon":5.38924,"is_reserved":false,"is_disabled":false,"rental_uris":{"android":"levelo://app?vid=8ca5c5ca-72b0-4225-86bd-6f0884d69aee","ios":"levelo://app?vid=8ca5c5ca-72b0-4225-86bd-6f0884d69aee"},"vehicle_type_id":"4","last_reported":1741597767,"current_range_meters":20000,"station_id":"ce4bhhh2rcd13ifvqfl0","pricing_plan_id":"cebpf4jnsgd1na2vs0mg"},{"bike_id":"33cb5104-e4d3-4956-880b-001178ccb2fc","system_id":"levelo_inurba_marseille","lat":43.3255,"lon":5.41475,"is_reserved":false,"is_disabled":false,"rental_uris":{"android":"levelo://app?vid=33cb5104-e4d3-4956-880b-001178ccb2fc","ios":"levelo://app?vid=33cb5104-e4d3-4956-880b-001178ccb2fc"},"vehicle_type_id":"4","last_reported":1741597767,"current_range_meters":20000,"station_id":"ce4bhq12rcd13ifvqhhg","pricing_plan_id":"cebpf4jnsgd1na2vs0mg"},{"bike_id":"17b872eb-086c-460e-bcad-782a4a781cf9","system_id":"levelo_inurba_marseille","lat":43.25164,"lon":5.42516,"is_reserved":false,"is_disabled":false,"rental_uris":{"android":"levelo://app?vid=17b872eb-086c-460e-bcad-782a4a781cf9","ios":"levelo://app?vid=17b872eb-086c-460e-bcad-782a4a781cf9"},"vehicle_type_id":"4","last_reported":1741597767,"current_range_meters":20400,"station_id":"","pricing_plan_id":"cebpf4jnsgd1na2vs0mg"},{"bike_id":"ea3d32f8-bdc5-44f9-8c6b-b76e240dbb69","system_id":"levelo_inurba_marseille","lat":43.29565,"lon":5.37532,"is_reserved":false,"is_disabled":false,"rental_uris":{"android":"levelo://app?vid=ea3d32f8-bdc5-44f9-8c6b-b76e240dbb69","ios":"levelo://app?vid=ea3d32f8-bdc5-44f9-8c6b-b76e240dbb69"},"vehicle_type_id":"4","last_reported":1741597767,"current_range_meters":20400,"station_id":"ce4bgh92rcd13ifvqb50","pricing_plan_id":"cebpf4jnsgd1na2vs0mg"},{"bike_id":"aa7ef81b-b6eb-4b86-b23e-5267b418199d","system_id":"levelo_inurba_marseille","lat":43.316965,"lon":5.377687,"is_reserved":false,"is_disabled":false,"rental_uris":{"android":"levelo://app?vid=aa7ef81b-b6eb-4b86-b23e-5267b418199d","ios":"levelo://app?vid=aa7ef81b-b6eb-4b86-b23e-5267b418199d"},"vehicle_type_id":"4","last_reported":1741597767,"current_range_meters":20400,"station_id":"ce4bgth2rcd13ifvqch0","pricing_plan_id":"cebpf4jnsgd1na2vs0mg"},{"bike_id":"8456e4e4-510e-47e9-a311-8f710a225766","system_id":"levelo_inurba_marseille","lat":43.30106,"lon":5.39076,"is_reserved":false,"is_disabled":false,"rental_uris":{"android":"levelo://app?vid=8456e4e4-510e-47e9-a311-8f710a225766","ios":"levelo://app?vid=8456e4e4-510e-47e9-a311-8f710a225766"},