{"last_updated":1774031584,"ttl":60,"version":"2.2","data":{"bikes":[{"bike_id":"cc2b2e8b-fb1d-4616-8447-851c70af165a","system_id":"levelo_inurba_marseille","lat":43.29457,"lon":5.39749,"is_reserved":false,"is_disabled":true,"rental_uris":{"android":"levelo://app?vid=cc2b2e8b-fb1d-4616-8447-851c70af165a","ios":"levelo://app?vid=cc2b2e8b-fb1d-4616-8447-851c70af165a"},"vehicle_type_id":"4","last_reported":1774031585,"current_range_meters":2800,"station_id":"ce4bh3h2rcd13ifvqdo0","pricing_plan_id":"cebpf4jnsgd1na2vs0mg"},{"bike_id":"cf21a704-d1d6-45ac-b508-b7d48f023c9f","system_id":"levelo_inurba_marseille","lat":43.32114,"lon":5.36792,"is_reserved":false,"is_disabled":false,"rental_uris":{"android":"levelo://app?vid=cf21a704-d1d6-45ac-b508-b7d48f023c9f","ios":"levelo://app?vid=cf21a704-d1d6-45ac-b508-b7d48f023c9f"},"vehicle_type_id":"4","last_reported":1774031585,"current_range_meters":2800,"station_id":"ce4bhrh2rcd13ifvqhug","pricing_plan_id":"cebpf4jnsgd1na2vs0mg"},{"bike_id":"47f75bf7-3ae4-4250-b479-80b517258dd6","system_id":"levelo_inurba_marseille","lat":43.28284,"lon":5.35079,"is_reserved":false,"is_disabled":false,"rental_uris":{"android":"levelo://app?vid=47f75bf7-3ae4-4250-b479-80b517258dd6","ios":"levelo://app?vid=47f75bf7-3ae4-4250-b479-80b517258dd6"},"vehicle_type_id":"4","last_reported":1774031585,"current_range_meters":2800,"station_id":"ce4bhbp2rcd13ifvqerg","pricing_plan_id":"cebpf4jnsgd1na2vs0mg"},{"bike_id":"6c30a8e8-493d-4aa3-865a-969a0032e427","system_id":"levelo_inurba_marseille","lat":43.290137,"lon":5.381427,"is_reserved":false,"is_disabled":false,"rental_uris":{"android":"levelo://app?vid=6c30a8e8-493d-4aa3-865a-969a0032e427","ios":"levelo://app?vid=6c30a8e8-493d-4aa3-865a-969a0032e427"},"vehicle_type_id":"4","last_reported":1774031585,"current_range_meters":2800,"station_id":"ce4bh4p2rcd13ifvqe1g","pricing_plan_id":"cebpf4jnsgd1na2vs0mg"},{"bike_id":"8e28d82d-18ea-4b7e-8684-0a7217cfde0e","system_id":"levelo_inurba_marseille","lat":43.295301,"lon":5.385615,"is_reserved":false,"is_disabled":false,"rental_uris":{"android":"levelo://app?vid=8e28d82d-18ea-4b7e-8684-0a7217cfde0e","ios":"levelo://app?vid=8e28d82d-18ea-4b7e-8684-0a7217cfde0e"},"vehicle_type_id":"4","last_reported":1774031585,"current_range_meters":2800,"station_id":"ce4bgih2rcd13ifvqba0","pricing_plan_id":"cebpf4jnsgd1na2vs0mg"},{"bike_id":"71bb0af2-b7f4-4f28-8c38-df27cce5ce10","system_id":"levelo_inurba_marseille","lat":43.29527,"lon":5.38533,"is_reserved":false,"is_disabled":false,"rental_uris":{"android":"levelo://app?vid=71bb0af2-b7f4-4f28-8c38-df27cce5ce10","ios":"levelo://app?vid=71bb0af2-b7f4-4f28-8c38-df27cce5ce10"},"vehicle_type_id":"4","last_reported":1774031585,"current_range_meters":2800,"station_id":"ce4bgih2rcd13ifvqba0","pricing_plan_id":"cebpf4jnsgd1na2vs0mg"},{"bike_id":"dd10efc5-28b9-436a-be78-8011941e89fc","system_id":"levelo_inurba_marseille","lat":43.28479,"lon":5.48399,"is_reserved":false,"is_disabled":false,"rental_uris":{"android":"levelo://app?vid=dd10efc5-28b9-436a-be78-8011941e89fc","ios":"levelo://app?vid=dd10efc5-28b9-436a-be78-8011941e89fc"},"vehicle_type_id":"4","last_reported":1774031585,"current_range_meters":2800,"station_id":"st_d3svhcjqgbts73a3dn0g","pricing_plan_id":"cebpf4jnsgd1na2vs0mg"},{"bike_id":"020d0344-ead6-49a2-a5fc-50a9a434d748","system_id":"levelo_inurba_marseille","lat":43.23776,"lon":5.36626,"is_reserved":false,"is_disabled":false,"rental_uris":{"android":"levelo://app?vid=020d0344-ead6-49a2-a5fc-50a9a434d748","ios":"levelo://app?vid=020d0344-ead6-49a2-a5fc-50a9a434d748"},"vehicle_type_id":"4","last_reported":1774031585,"current_range_meters":2800,"station_id":"st_d3nk18o9ro0c73en2l3g","pricing_plan_id":"cebpf4jnsgd1na2vs0mg"},{"bike_id":"299e519b-3b2c-4aa3-9af1-362f343fe8f8","system_id":"levelo_inurba_marseille","lat":43.23786,"lon":5.36624,"is_reserved":false,"is_disabled":false,"rental_uris":{"android":"levelo://app?vid=299e519b-3b2c-4aa3-9af1-362f343fe8f8","ios":"levelo://app?vid=299e519b-3b2c-4aa3-9af1-362f343fe8f8"},"vehicle_type_id":"4","last_reported":1774031585,"current_range_meters":2800,"station_id":"st_d3nk18o9ro0c73en2l3g","pricing_plan_id":"cebpf4jnsgd1na2vs0mg"},{"bike_id":"ed335414-7832-4882-bfdf-c7482a7acbc1","system_id":"levelo_inurba_marseille","lat":43.31493,"lon":5.37312,"is_reserved":false,"is_disabled":false,"rental_uris":{"android":"levelo://app?vid=ed335414-7832-4882-bfdf-c7482a7acbc1","ios":"levelo://app?vid=ed335414-7832-4882-bfdf-c7482a7acbc1"},"vehicle_type_id":"4","last_reported":1774031585,"current_range_meters":2800,"station_id":"ce4bgt12rcd13ifvqcd0","pricing_plan_id":"cebpf4jnsgd1na2vs0mg"},{"bike_id":"53827d09-fec7-473e-9fca-53211e531455","system_id":"levelo_inurba_marseille","lat":43.27383,"lon":5.36263,"is_reserved":false,"is_disabled":false,"rental_uris":{"android":"levelo://app?vid=53827d09-fec7-473e-9fca-53211e531455","ios":"levelo://app?vid=53827d09-fec7-473e-9fca-53211e531455"},"vehicle_type_id":"4","last_reported":1774031585,"current_range_meters":2800,"station_id":"ce4bhbh2rcd13ifvqeo0","pricing_plan_id":"cebpf4jnsgd1na2vs0mg"},{"bike_id":"368c9922-f0a4-48aa-a8e4-ec9798de1f1b","system_id":"levelo_inurba_marseille","lat":43.28661,"lon":5.38666,"is_reserved":false,"is_disabled":true,"rental_uris":{"android":"levelo://app?vid=368c9922-f0a4-48aa-a8e4-ec9798de1f1b","ios":"levelo://app?vid=368c9922-f0a4-48aa-a8e4-ec9798de1f1b"},"vehicle_type_id":"4","last_reported":1774031585,"current_range_meters":2800,"station_id":"ce4bh492rcd13ifvqdug","pricing_plan_id":"cebpf4jnsgd1na2vs0mg"},{"bike_id":"f289fe44-43f8-4e8c-8603-6a94a61fff9d","system_id":"levelo_inurba_marseille","lat":43.29884,"lon":5.39724,"is_reserved":false,"is_disabled":false,"rental_uris":{"android":"levelo://app?vid=f289fe44-43f8-4e8c-8603-6a94a61fff9d","ios":"levelo://app?vid=f289fe44-43f8-4e8c-8603-6a94a61fff9d"},"vehicle_type_id":"4","last_reported":1774031585,"current_range_meters":2800,"station_id":"ce4bh0h2rcd13ifvqd50","pricing_plan_id":"cebpf4jnsgd1na2vs0mg"},{"bike_id":"4c6a4d6a-2427-4c2c-bc2d-a0973ca4e7b9","system_id":"levelo_inurba_marseille","lat":43.2798,"lon":5.41666,"is_reserved":false,"is_disabled":false,"rental_uris":{"android":"levelo://app?vid=4c6a4d6a-2427-4c2c-bc2d-a0973ca4e7b9","ios":"levelo://app?vid=4c6a4d6a-2427-4c2c-bc2d-a0973ca4e7b9"},"vehicle_type_id":"4","last_reported":1774031585,"current_range_meters":2800,"station_id":"ce4bho12rcd13ifvqh1g","pricing_plan_id":"cebpf4jnsgd1na2vs0mg"},{"bike_id":"692930df-6ce1-42eb-baeb-4f1bf2f648b0","system_id":"levelo_inurba_marseille","lat":43.28039,"lon":5.36953,"is_reserved":false,"is_disabled":false,"rental_uris":{"android":"levelo://app?vid=692930df-6ce1-42eb-baeb-4f1bf2f648b0","ios":"levelo://app?vid=692930df-6ce1-42eb-baeb-4f1bf2f648b0"},"vehicle_type_id":"4","last_reported":1774031585,"current_range_meters":2800,"station_id":"ce4bha12rcd13ifvqef0","pricing_plan_id":"cebpf4jnsgd1na2vs0mg"},{"bike_id":"b91e326e-08b1-449d-8f2d-1ed49ca6a70b","system_id":"levelo_inurba_marseille","lat":43.28151,"lon":5.42641,"is_reserved":false,"is_disabled":false,"rental_uris":{"android":"levelo://app?vid=b91e326e-08b1-449d-8f2d-1ed49ca6a70b","ios":"levelo://app?vid=b91e326e-08b1-449d-8f2d-1ed49ca6a70b"},"vehicle_type_id":"4","last_reported":1774031585,"current_range_meters":2800,"station_id":"ce4bhnh2rcd13ifvqgug","pricing_plan_id":"cebpf4jnsgd1na2vs0mg"},{"bike_id":"fe36f4f6-a9eb-4996-baab-0771d623c29e","system_id":"levelo_inurba_marseille","lat":43.29873,"lon":5.38901,"is_reserved":false,"is_disabled":false,"rental_uris":{"android":"levelo://app?vid=fe36f4f6-a9eb-4996-baab-0771d623c29e","ios":"levelo://app?vid=fe36f4f6-a9eb-4996-baab-0771d623c29e"},"vehicle_type_id":"4","last_reported":1774031585,"current_range_meters":2800,"station_id":"ce4bh392rcd13ifvqdl0","pricing_plan_id":"cebpf4jnsgd1na2vs0mg"},{"bike_id":"24e02049-7d35-48ad-9eee-757709960f87","system_id":"levelo_inurba_marseille","lat":43.26038,"lon":5.37567,"is_reserved":false,"is_disabled":false,"rental_uris":{"android":"levelo://app?vid=24e02049-7d35-48ad-9eee-757709960f87","ios":"levelo://app?vid=24e02049-7d35-48ad-9eee-757709960f87"},"vehicle_type_id":"4","last_reported":1774031585,"current_range_meters":3200,"station_id":"ce4bhgh2rcd13ifvqfa0","pricing_plan_id":"cebpf4jnsgd1na2vs0mg"},{"bike_id":"8a854e0a-3b9f-471d-80f2-bfadb0595e6b","system_id":"levelo_inurba_marseille","lat":43.3134,"lon":5.37651,"is_reserved":false,"is_disabled":false,"rental_uris":{"android":"levelo://app?vid=8a854e0a-3b9f-471d-80f2-bfadb0595e6b","ios":"levelo://app?vid=8a854e0a-3b9f-471d-80f2-bfadb0595e6b"},"vehicle_type_id":"4","last_reported":1774031585,"current_range_meters":3200,"station_id":"","pricing_plan_id":"cebpf4jnsgd1na2vs0mg"},{"bike_id":"11d1b124-3b4e-48aa-bd6f-642c5b433a33","system_id":"levelo_inurba_marseille","lat":43.29037,"lon":5.38645,"is_reserved":false,"is_disabled":false,"rental_uris":{"android":"levelo://app?vid=11d1b124-3b4e-48aa-bd6f-642c5b433a33","ios":"levelo://app?vid=11d1b124-3b4e-48aa-bd6f-642c5b433a33"},"vehicle_type_id":"4","last_reported":1774031585,"current_range_meters":3200,"station_id":"ce4bh4p2rcd13ifvqe0g","pricing_plan_id":"cebpf4jnsgd1na2vs0mg"},{"bike_id":"00456695-d732-4f33-93c8-e39b4d4bf96b","system_id":"levelo_inurba_marseille","lat":43.2979,"lon":5.38097,"is_reserved":false,"is_disabled":true,"rental_uris":{"android":"levelo://app?vid=00456695-d732-4f33-93c8-e39b4d4bf96b","ios":"levelo://app?vid=00456695-d732-4f33-93c8-e39b4d4bf96b"},"vehicle_type_id":"4","last_reported":1774031585,"current_range_meters":3200,"station_id":"ce4bgip2rcd13ifvqbb0","pricing_plan_id":"cebpf4jnsgd1na2vs0mg"},{"bike_id":"f94cd451-8533-468b-9c34-3923ff65b84e","system_id":"levelo_inurba_marseille","lat":43.27056,"lon":5.40271,"is_reserved":false,"is_disabled":false,"rental_uris":{"android":"levelo://app?vid=f94cd451-8533-468b-9c34-3923ff65b84e","ios":"levelo://app?vid=f94cd451-8533-468b-9c34-3923ff65b84e"},"vehicle_type_id":"4","last_reported":1774031585,"current_range_meters":3200,"station_id":"ce4bhk92rcd13ifvqgc0","pricing_plan_id":"cebpf4jnsgd1na2vs0mg"},{"bike_id":"148d0b05-52a1-40f8-9f2c-9aa67f8bd170","system_id":"levelo_inurba_marseille","lat":43.28624,"lon":5.37084,"is_reserved":false,"is_disabled":false,"rental_uris":{"android":"levelo://app?vid=148d0b05-52a1-40f8-9f2c-9aa67f8bd170","ios":"levelo://app?vid=148d0b05-52a1-40f8-9f2c-9aa67f8bd170"},"vehicle_type_id":"4","last_reported":1774031585,"current_range_meters":3200,"station_id":"ce4bht12rcd13ifvqi60","pricing_plan_id":"cebpf4jnsgd1na2vs0mg"},{"bike_id":"d3df38ca-0e3e-4798-bbed-3e4d6763a2eb","system_id":"levelo_inurba_marseille","lat":43.31493,"lon":5.37318,"is_reserved":false,"is_disabled":false,"rental_uris":{"android":"levelo://app?vid=d3df38ca-0e3e-4798-bbed-3e4d6763a2eb","ios":"levelo://app?vid=d3df38ca-0e3e-4798-bbed-3e4d6763a2eb"},"vehicle_type_id":"4","last_reported":1774031585,"current_range_meters":3200,"station_id":"ce4bgt12rcd13ifvqcd0","pricing_plan_id":"cebpf4jnsgd1na2vs0mg"},{"bike_id":"3ed4bc13-b22d-44b4-aa6f-19f196c483da","system_id":"levelo_inurba_marseille","lat":43.24174,"lon":5.36405,"is_reserved":false,"is_disabled":false,"rental_uris":{"android":"levelo://app?vid=3ed4bc13-b22d-44b4-aa6f-19f196c483da","ios":"levelo://app?vid=3ed4bc13-b22d-44b4-aa6f-19f196c483da"},"vehicle_type_id":"4","last_reported":1774031585,"current_range_meters":3200,"station_id":"cpo36qri1sfpv3e86is0","pricing_plan_id":"cebpf4jnsgd1na2vs0mg"},{"bike_id":"1b0b417b-fdfd-4869-b76b-bbba3ee1d78f","system_id":"levelo_inurba_marseille","lat":43.29179,"lon":5.37173,"is_reserved":false,"is_disabled":false,"rental_uris":{"android":"levelo://app?vid=1b0b417b-fdfd-4869-b76b-bbba3ee1d78f","ios":"levelo://app?vid=1b0b417b-fdfd-4869-b76b-bbba3ee1d78f"},"vehicle_type_id":"4","last_reported":1774031585,"current_range_meters":3200,"station_id":"ce4bha92rcd13ifvqeh0","pricing_plan_id":"cebpf4jnsgd1na2vs0mg"},{"bike_id":"a35c806b-9f61-4270-ad16-3e2cf5c5efd2","system_id":"levelo_inurba_marseille","lat":43.2606,"lon":5.39329,"is_reserved":false,"is_disabled":false,"rental_uris":{"android":"levelo://app?vid=a35c806b-9f61-4270-ad16-3e2cf5c5efd2","ios":"levelo://app?vid=a35c806b-9f61-4270-ad16-3e2cf5c5efd2"},"vehicle_type_id":"4","last_reported":1774031585,"current_range_meters":3200,"station_id":"","pricing_plan_id":"cebpf4jnsgd1na2vs0mg"},{"bike_id":"638e7b64-9b6b-4711-b32b-50ebc88afca6","system_id":"levelo_inurba_marseille","lat":43.29985,"lon":5.38488,"is_reserved":false,"is_disabled":false,"rental_uris":{"android":"levelo://app?vid=638e7b64-9b6b-4711-b32b-50ebc88afca6","ios":"levelo://app?vid=638e7b64-9b6b-4711-b32b-50ebc88afca6"},"vehicle_type_id":"4","last_reported":1774031585,"current_range_meters":3200,"station_id":"ce4bgj92rcd13ifvqbd0","pricing_plan_id":"cebpf4jnsgd1na2vs0mg"},{"bike_id":"39421cf9-7a72-4fc3-a879-2901ca5d5846","system_id":"levelo_inurba_marseille","lat":43.23809,"lon":5.36652,"is_reserved":false,"is_disabled":false,"rental_uris":{"android":"levelo://app?vid=39421cf9-7a72-4fc3-a879-2901ca5d5846","ios":"levelo://app?vid=39421cf9-7a72-4fc3-a879-2901ca5d5846"},"vehicle_type_id":"4","last_reported":1774031585,"current_range_meters":3200,"station_id":"st_d3nk18o9ro0c73en2l3g","pricing_plan_id":"cebpf4jnsgd1na2vs0mg"},{"bike_id":"3e36e888-53b5-45f0-a913-2d88e8740cda","system_id":"levelo_inurba_marseille","lat":43.29483,"lon":5.39034,"is_reserved":false,"is_disabled":false,"rental_uris":{"android":"levelo://app?vid=3e36e888-53b5-45f0-a913-2d88e8740cda","ios":"levelo://app?vid=3e36e888-53b5-45f0-a913-2d88e8740cda"},"vehicle_type_id":"4","last_reported":1774031585,"current_range_meters":3200,"station_id":"ce4bh3p2rcd13ifvqdp0","pricing_plan_id":"cebpf4jnsgd1na2vs0mg"},{"bike_id":"7ebaec73-6b34-48ff-bca7-eb500baa596a","system_id":"levelo_inurba_marseille","lat":43.24674,"lon":5.38158,"is_reserved":false,"is_disabled":false,"rental_uris":{"android":"levelo://app?vid=7ebaec73-6b34-48ff-bca7-eb500baa596a","ios":"levelo://app?vid=7ebaec73-6b34-48ff-bca7-eb500baa596a"},"vehicle_type_id":"4","last_reported":1774031585,"current_range_meters":3200,"station_id":"ce4bhih2rcd13ifvqfr0","pricing_plan_id":"cebpf4jnsgd1na2vs0mg"},{"bike_id":"66be2595-d8a5-40d3-b0b9-334f8fbba844","system_id":"levelo_inurba_marseille","lat":43.2464,"lon":5.43159,"is_reserved":false,"is_disabled":false,"rental_uris":{"android":"levelo://app?vid=66be2595-d8a5-40d3-b0b9-334f8fbba844","ios":"levelo://app?vid=66be2595-d8a5-40d3-b0b9-334f8fbba844"},"vehicle_type_id":"4","last_reported":1774031585,"current_range_meters":3600,"station_id":"","pricing_plan_id":"cebpf4jnsgd1na2vs0mg"},{"bike_id":"27cfd7f2-48c6-4fe4-9d82-e5b76120df75","system_id":"levelo_inurba_marseille","lat":43.29869,"lon":5.44076,"is_reserved":false,"is_disabled":false,"rental_uris":{"android":"levelo://app?vid=27cfd7f2-48c6-4fe4-9d82-e5b76120df75","ios":"levelo://app?vid=27cfd7f2-48c6-4fe4-9d82-e5b76120df75"},"vehicle_type_id":"4","last_reported":1774031585,"current_range_meters":3600,"station_id":"st_d3jp68qikq2c7381ktn0","pricing_plan_id":"cebpf4jnsgd1na2vs0mg"},{"bike_id":"3f9fb310-6fac-4137-b487-279ff0e33710","system_id":"levelo_inurba_marseille","lat":43.2603,"lon":5.37551,"is_reserved":false,"is_disabled":false,"rental_uris":{"android":"levelo://app?vid=3f9fb310-6fac-4137-b487-279ff0e33710","ios":"levelo://app?vid=3f9fb310-6fac-4137-b487-279ff0e33710"},"vehicle_type_id":"4","last_reported":1774031585,"current_range_meters":3600,"station_id":"ce4bhgh2rcd13ifvqfa0","pricing_plan_id":"cebpf4jnsgd1na2vs0mg"},{"bike_id":"fceb005b-3c2d-4951-8503-d488430e93cd","system_id":"levelo_inurba_marseille","lat":43.24554,"lon":5.39566,"is_reserved":false,"is_disabled":false,"rental_uris":{"android":"levelo://app?vid=fceb005b-3c2d-4951-8503-d488430e93cd","ios":"levelo://app?vid=fceb005b-3c2d-4951-8503-d488430e93cd"},"vehicle_type_id":"4","last_reported":1774031585,"current_range_meters":3600,"station_id":"ce4bhlp2rcd13ifvqgjg","pricing_plan_id":"cebpf4jnsgd1na2vs0mg"},{"bike_id":"0481d3d1-e2f6-4553-9fd8-1f159dbc103e","system_id":"levelo_inurba_marseille","lat":43.27571,"lon":5.38414,"is_reserved":false,"is_disabled":false,"rental_uris":{"android":"levelo://app?vid=0481d3d1-e2f6-4553-9fd8-1f159dbc103e","ios":"levelo://app?vid=0481d3d1-e2f6-4553-9fd8-1f159dbc103e"},"vehicle_type_id":"4","last_reported":1774031585,"current_range_meters":3600,"station_id":"ce4bhh92rcd13ifvqfi0","pricing_plan_id":"cebpf4jnsgd1na2vs0mg"},{"bike_id":"9fbfdc7a-8398-40b5-b97f-ba1104c7c96f","system_id":"levelo_inurba_marseille","lat":43.232,"lon":5.35558,"is_reserved":false,"is_disabled":false,"rental_uris":{"android":"levelo://app?vid=9fbfdc7a-8398-40b5-b97f-ba1104c7c96f","ios":"levelo://app?vid=9fbfdc7a-8398-40b5-b97f-ba1104c7c96f"},"vehicle_type_id":"4","last_reported":1774031585,"current_range_meters":3600,"station_id":"ce4bhu92rcd13ifvqi70","pricing_plan_id":"cebpf4jnsgd1na2vs0mg"},{"bike_id":"62ff937e-689f-4def-8b0f-f0f7271c7beb","system_id":"levelo_inurba_marseille","lat":43.33554,"lon":5.37489,"is_reserved":false,"is_disabled":false,"rental_uris":{"android":"levelo://app?vid=62ff937e-689f-4def-8b0f-f0f7271c7beb","ios":"levelo://app?vid=62ff937e-689f-4def-8b0f-f0f7271c7beb"},"vehicle_type_id":"4","last_reported":1774031585,"current_range_meters":3600,"station_id":"st_d46tts09ee8s73dlu43g","pricing_plan_id":"cebpf4jnsgd1na2vs0mg"},{"bike_id":"77388b5d-b8e3-4124-ba7a-f747a0f6a102","system_id":"levelo_inurba_marseille","lat":43.30101,"lon":5.39075,"is_reserved":false,"is_disabled":false,"rental_uris":{"android":"levelo://app?vid=77388b5d-b8e3-4124-ba7a-f747a0f6a102","ios":"levelo://app?vid=77388b5d-b8e3-4124-ba7a-f747a0f6a102"},"vehicle_type_id":"4","last_reported":1774031585,"current_range_meters":3600,"station_id":"ce4bh192rcd13ifvqdb0","pricing_plan_id":"cebpf4jnsgd1na2vs0mg"},{"bike_id":"df068df1-539b-4e29-82a2-6350eabee29e","system_id":"levelo_inurba_marseille","lat":43.29823,"lon":5.38065,"is_reserved":false,"is_disabled":false,"rental_uris":{"android":"levelo://app?vid=df068df1-539b-4e29-82a2-6350eabee29e","ios":"levelo://app?vid=df068df1-539b-4e29-82a2-6350eabee29e"},"vehicle_type_id":"4","last_reported":1774031585,"current_range_meters":3600,"station_id":"ce4bgip2rcd13ifvqbb0","pricing_plan_id":"cebpf4jnsgd1na2vs0mg"},{"bike_id":"56d9d3e2-394d-41dc-89b2-6ea99ef8fbae","system_id":"levelo_inurba_marseille","lat":43.29103,"lon":5.38162,"is_reserved":false,"is_disabled":false,"rental_uris":{"android":"levelo://app?vid=56d9d3e2-394d-41dc-89b2-6ea99ef8fbae","ios":"levelo://app?vid=56d9d3e2-394d-41dc-89b2-6ea99ef8fbae"},"vehicle_type_id":"4","last_reported":1774031585,"current_range_meters":3600,"station_id":"ce4bh512rcd13ifvqe2g","pricing_plan_id":"cebpf4jnsgd1na2vs0mg"},{"bike_id":"2c439794-1b92-4006-a134-72d7e3d1c820","system_id":"levelo_inurba_marseille","lat":43.30436,"lon":5.39754,"is_reserved":false,"is_disabled":false,"rental_uris":{"android":"levelo://app?vid=2c439794-1b92-4006-a134-72d7e3d1c820","ios":"levelo://app?vid=2c439794-1b92-4006-a134-72d7e3d1c820"},"vehicle_type_id":"4","last_reported":1774031585,"current_range_meters":3600,"station_id":"ce4bh092rcd13ifvqd20","pricing_plan_id":"cebpf4jnsgd1na2vs0mg"},{"bike_id":"e193d30c-bc14-428c-aa8b-69aacbc22c20","system_id":"levelo_inurba_marseille","lat":43.32127,"lon":5.36807,"is_reserved":false,"is_disabled":false,"rental_uris":{"android":"levelo://app?vid=e193d30c-bc14-428c-aa8b-69aacbc22c20","ios":"levelo://app?vid=e193d30c-bc14-428c-aa8b-69aacbc22c20"},"vehicle_type_id":"4","last_reported":1774031585,"current_range_meters":3600,"station_id":"","pricing_plan_id":"cebpf4jnsgd1na2vs0mg"},{"bike_id":"06ce4f90-d2c1-4cdf-8e92-af4e6c83cb49","system_id":"levelo_inurba_marseille","lat":43.2901,"lon":5.35631,"is_reserved":false,"is_disabled":true,"rental_uris":{"android":"levelo://app?vid=06ce4f90-d2c1-4cdf-8e92-af4e6c83cb49","ios":"levelo://app?vid=06ce4f90-d2c1-4cdf-8e92-af4e6c83cb49"},"vehicle_type_id":"4","last_reported":1774031585,"current_range_meters":3600,"station_id":"ce4bhb92rcd13ifvqen0","pricing_plan_id":"cebpf4jnsgd1na2vs0mg"},{"bike_id":"038ae9dd-e405-4fd3-a471-d89a32f3c4ea","system_id":"levelo_inurba_marseille","lat":43.2868,"lon":5.38663,"is_reserved":false,"is_disabled":false,"rental_uris":{"android":"levelo://app?vid=038ae9dd-e405-4fd3-a471-d89a32f3c4ea","ios":"levelo://app?vid=038ae9dd-e405-4fd3-a471-d89a32f3c4ea"},"vehicle_type_id":"4","last_reported":1774031585,"current_range_meters":3600,"station_id":"ce4bh492rcd13ifvqdug","pricing_plan_id":"cebpf4jnsgd1na2vs0mg"},{"bike_id":"6d685847-ceb0-4f79-99f2-cc8153818f13","system_id":"levelo_inurba_marseille","lat":43.27382,"lon":5.36244,"is_reserved":false,"is_disabled":true,"rental_uris":{"android":"levelo://app?vid=6d685847-ceb0-4f79-99f2-cc8153818f13","ios":"levelo://app?vid=6d685847-ceb0-4f79-99f2-cc8153818f13"},"vehicle_type_id":"4","last_reported":1774031585,"current_range_meters":3600,"station_id":"ce4bhbh2rcd13ifvqeo0","pricing_plan_id":"cebpf4jnsgd1na2vs0mg"},{"bike_id":"848f2fa1-6daf-48b9-a81e-3c8c7aca1d0e","system_id":"levelo_inurba_marseille","lat":43.30248,"lon":5.40039,"is_reserved":false,"is_disabled":false,"rental_uris":{"android":"levelo://app?vid=848f2fa1-6daf-48b9-a81e-3c8c7aca1d0e","ios":"levelo://app?vid=848f2fa1-6daf-48b9-a81e-3c8c7aca1d0e"},"vehicle_type_id":"4","last_reported":1774031585,"current_range_meters":3600,"station_id":"ce4bgvh2rcd13ifvqcs0","pricing_plan_id":"cebpf4jnsgd1na2vs0mg"},{"bike_id":"524740f1-d9f1-4626-92c7-d1259f140250","system_id":"levelo_inurba_marseille","lat":43.28862,"lon":5.35861,"is_reserved":false,"is_disabled":false,"rental_uris":{"android":"levelo://app?vid=524740f1-d9f1-4626-92c7-d1259f140250","ios":"levelo://app?vid=524740f1-d9f1-4626-92c7-d1259f140250"},"vehicle_type_id":"4","last_reported":1774031585,"current_range_meters":3600,"station_id":"ce4bhb12rcd13ifvqem0","pricing_plan_id":"cebpf4jnsgd1na2vs0mg"},{"bike_id":"0ed38292-ab19-4024-944a-2b648c0fb4df","system_id":"levelo_inurba_marseille","lat":43.29262,"lon":5.38451,"is_reserved":false,"is_disabled":false,"rental_uris":{"android":"levelo://app?vid=0ed38292-ab19-4024-944a-2b648c0fb4df","ios":"levelo://app?vid=0ed38292-ab19-4024-944a-2b648c0fb4df"},"vehicle_type_id":"4","last_reported":1774031585,"current_range_meters":3600,"station_id":"ce4bh692rcd13ifvqea0","pricing_plan_id":"cebpf4jnsgd1na2vs0mg"},{"bike_id":"47a8436c-9b2f-44b6-92e2-20a5fab160f3","system_id":"levelo_inurba_marseille","lat":43.24803,"lon":5.37453,"is_reserved":false,"is_disabled":true,"rental_uris":{"android":"levelo://app?vid=47a8436c-9b2f-44b6-92e2-20a5fab160f3","ios":"levelo://app?vid=47a8436c-9b2f-44b6-92e2-20a5fab160f3"},"vehicle_type_id":"4","last_reported":1774031585,"current_range_meters":3600,"station_id":"ce4bhgh2rcd13ifvqfb0","pricing_plan_id":"cebpf4jnsgd1na2vs0mg"},{"bike_id":"b2909f49-c343-48e0-a8a1-691bd1b29971","system_id":"levelo_inurba_marseille","lat":43.29541,"lon":5.38565,"is_reserved":false,"is_disabled":false,"rental_uris":{"android":"levelo://app?vid=b2909f49-c343-48e0-a8a1-691bd1b29971","ios":"levelo://app?vid=b2909f49-c343-48e0-a8a1-691bd1b29971"},"vehicle_type_id":"4","last_reported":1774031585,"current_range_meters":3600,"station_id":"ce4bgih2rcd13ifvqba0","pricing_plan_id":"cebpf4jnsgd1na2vs0mg"},{"bike_id":"bebae7b0-c2c6-4b1d-8855-8b06d4443a00","system_id":"levelo_inurba_marseille","lat":43.28482,"lon":5.48398,"is_reserved":false,"is_disabled":false,"rental_uris":{"android":"levelo://app?vid=bebae7b0-c2c6-4b1d-8855-8b06d4443a00","ios":"levelo://app?vid=bebae7b0-c2c6-4b1d-8855-8b06d4443a00"},"vehicle_type_id":"4","last_reported":1774031585,"current_range_meters":3600,"station_id":"st_d3svhcjqgbts73a3dn0g","pricing_plan_id":"cebpf4jnsgd1na2vs0mg"},{"bike_id":"c49672f7-fafb-464c-b6db-ccb2063c4509","system_id":"levelo_inurba_marseille","lat":43.22931,"lon":5.35401,"is_reserved":false,"is_disabled":false,"rental_uris":{"android":"levelo://app?vid=c49672f7-fafb-464c-b6db-ccb2063c4509","ios":"levelo://app?vid=c49672f7-fafb-464c-b6db-ccb2063c4509"},"vehicle_type_id":"4","last_reported":1774031585,"current_range_meters":3600,"station_id":"cpo3532slgdg3j2ikp40","pricing_plan_id":"cebpf4jnsgd1na2vs0mg"},{"bike_id":"ec327ac2-9680-48a1-8584-22f43bc41c50","system_id":"levelo_inurba_marseille","lat":43.29274,"lon":5.37628,"is_reserved":false,"is_disabled":true,"rental_uris":{"android":"levelo://app?vid=ec327ac2-9680-48a1-8584-22f43bc41c50","ios":"levelo://app?vid=ec327ac2-9680-48a1-8584-22f43bc41c50"},"vehicle_type_id":"4","last_reported":1774031585,"current_range_meters":3600,"station_id":"ce4bgi12rcd13ifvqb80","pricing_plan_id":"cebpf4jnsgd1na2vs0mg"},{"bike_id":"bc3cc9ba-9d54-4458-a338-4ca5aaa15e84","system_id":"levelo_inurba_marseille","lat":43.29803,"lon":5.38089,"is_reserved":false,"is_disabled":false,"rental_uris":{"android":"levelo://app?vid=bc3cc9ba-9d54-4458-a338-4ca5aaa15e84","ios":"levelo://app?vid=bc3cc9ba-9d54-4458-a338-4ca5aaa15e84"},"vehicle_type_id":"4","last_reported":1774031585,"current_range_meters":4000,"station_id":"ce4bgip2rcd13ifvqbb0","pricing_plan_id":"cebpf4jnsgd1na2vs0mg"},{"bike_id":"77e54e57-cfac-45b8-943b-c2667cbdd172","system_id":"levelo_inurba_marseille","lat":43.30554,"lon":5.36551,"is_reserved":false,"is_disabled":false,"rental_uris":{"android":"levelo://app?vid=77e54e57-cfac-45b8-943b-c2667cbdd172","ios":"levelo://app?vid=77e54e57-cfac-45b8-943b-c2667cbdd172"},"vehicle_type_id":"4","last_reported":1774031585,"current_range_meters":4000,"station_id":"ce4bgs12rcd13ifvqcag","pricing_plan_id":"cebpf4jnsgd1na2vs0mg"},{"bike_id":"52f6a6b9-7af9-4956-b458-baf5061e66bf","system_id":"levelo_inurba_marseille","lat":43.23336,"lon":5.4447,"is_reserved":false,"is_disabled":false,"rental_uris":{"android":"levelo://app?vid=52f6a6b9-7af9-4956-b458-baf5061e66bf","ios":"levelo://app?vid=52f6a6b9-7af9-4956-b458-baf5061e66bf"},"vehicle_type_id":"4","last_reported":1774031585,"current_range_meters":4000,"station_id":"","pricing_plan_id":"cebpf4jnsgd1na2vs0mg"},{"bike_id":"347a0133-45d3-4213-ae48-606f4453bbf3","system_id":"levelo_inurba_marseille","lat":43.2305,"lon":5.35489,"is_reserved":false,"is_disabled":false,"rental_uris":{"android":"levelo://app?vid=347a0133-45d3-4213-ae48-606f4453bbf3","ios":"levelo://app?vid=347a0133-45d3-4213-ae48-606f4453bbf3"},"vehicle_type_id":"4","last_reported":1774031585,"current_range_meters":4000,"station_id":"cpo3342slgdg3j2ifvpg","pricing_plan_id":"cebpf4jnsgd1na2vs0mg"},{"bike_id":"738812a4-3cad-4fb9-9d3b-4d4af288201a","system_id":"levelo_inurba_marseille","lat":43.292578,"lon":5.384397,"is_reserved":false,"is_disabled":false,"rental_uris":{"android":"levelo://app?vid=738812a4-3cad-4fb9-9d3b-4d4af288201a","ios":"levelo://app?vid=738812a4-3cad-4fb9-9d3b-4d4af288201a"},"vehicle_type_id":"4","last_reported":1774031585,"current_range_meters":4000,"station_id":"ce4bh692rcd13ifvqea0","pricing_plan_id":"cebpf4jnsgd1na2vs0mg"},{"bike_id":"e5e18d51-d281-4feb-b73c-20d80ef4d3b8","system_id":"levelo_inurba_marseille","lat":43.28157,"lon":5.42647,"is_reserved":false,"is_disabled":false,"rental_uris":{"android":"levelo://app?vid=e5e18d51-d281-4feb-b73c-20d80ef4d3b8","ios":"levelo://app?vid=e5e18d51-d281-4feb-b73c-20d80ef4d3b8"},"vehicle_type_id":"4","last_reported":1774031585,"current_range_meters":4000,"station_id":"ce4bhnh2rcd13ifvqgug","pricing_plan_id":"cebpf4jnsgd1na2vs0mg"},{"bike_id":"6d388312-bd82-4ce6-bfb6-ed24cde19bf9","system_id":"levelo_inurba_marseille","lat":43.30653,"lon":5.40069,"is_reserved":false,"is_disabled":false,"rental_uris":{"android":"levelo://app?vid=6d388312-bd82-4ce6-bfb6-ed24cde19bf9","ios":"levelo://app?vid=6d388312-bd82-4ce6-bfb6-ed24cde19bf9"},"vehicle_type_id":"4","last_reported":1774031585,"current_range_meters":4000,"station_id":"ce4bh112rcd13ifvqda0","pricing_plan_id":"cebpf4jnsgd1na2vs0mg"},{"bike_id":"f7699ccd-e68f-46d7-9039-bd7ec0c6c7f1","system_id":"levelo_inurba_marseille","lat":43.2874,"lon":5.37955,"is_reserved":false,"is_disabled":false,"rental_uris":{"android":"levelo://app?vid=f7699ccd-e68f-46d7-9039-bd7ec0c6c7f1","ios":"levelo://app?vid=f7699ccd-e68f-46d7-9039-bd7ec0c6c7f1"},"vehicle_type_id":"4","last_reported":1774031585,"current_range_meters":4000,"station_id":"ce4bh9p2rcd13ifvqec0","pricing_plan_id":"cebpf4jnsgd1na2vs0mg"},{"bike_id":"c2f01f22-14c1-45c1-a8d8-f0d4bb6c09f2","system_id":"levelo_inurba_marseille","lat":43.28472,"lon":5.38419,"is_reserved":false,"is_disabled":true,"rental_uris":{"android":"levelo://app?vid=c2f01f22-14c1-45c1-a8d8-f0d4bb6c09f2","ios":"levelo://app?vid=c2f01f22-14c1-45c1-a8d8-f0d4bb6c09f2"},"vehicle_type_id":"4","last_reported":1774031585,"current_range_meters":4000,"station_id":"ce4bh512rcd13ifvqe3g","pricing_plan_id":"cebpf4jnsgd1na2vs0mg"},{"bike_id":"5534db59-4a49-4fb8-a8f9-5065a329df5d","system_id":"levelo_inurba_marseille","lat":43.29923,"lon":5.38135,"is_reserved":false,"is_disabled":false,"rental_uris":{"android":"levelo://app?vid=5534db59-4a49-4fb8-a8f9-5065a329df5d","ios":"levelo://app?vid=5534db59-4a49-4fb8-a8f9-5065a329df5d"},"vehicle_type_id":"4","last_reported":1774031585,"current_range_meters":4000,"station_id":"ce4bgj12rcd13ifvqbc0","pricing_plan_id":"cebpf4jnsgd1na2vs0mg"},{"bike_id":"1c87837d-9cb0-4556-9862-d968cffbd7a5","system_id":"levelo_inurba_marseille","lat":43.28688,"lon":5.36372,"is_reserved":false,"is_disabled":false,"rental_uris":{"android":"levelo://app?vid=1c87837d-9cb0-4556-9862-d968cffbd7a5","ios":"levelo://app?vid=1c87837d-9cb0-4556-9862-d968cffbd7a5"},"vehicle_type_id":"4","last_reported":1774031585,"current_range_meters":4000,"station_id":"ce4bhah2rcd13ifvqej0","pricing_plan_id":"cebpf4jnsgd1na2vs0mg"},{"bike_id":"6e50a54a-c657-4ef5-9339-4c225154dc0d","system_id":"levelo_inurba_marseille","lat":43.2796,"lon":5.42231,"is_reserved":false,"is_disabled":false,"rental_uris":{"android":"levelo://app?vid=6e50a54a-c657-4ef5-9339-4c225154dc0d","ios":"levelo://app?vid=6e50a54a-c657-4ef5-9339-4c225154dc0d"},"vehicle_type_id":"4","last_reported":1774031585,"current_range_meters":4000,"station_id":"","pricing_plan_id":"cebpf4jnsgd1na2vs0mg"},{"bike_id":"14e04f51-6012-47f2-a15a-594508b26271","system_id":"levelo_inurba_marseille","lat":43.2748,"lon":5.43667,"is_reserved":false,"is_disabled":false,"rental_uris":{"android":"levelo://app?vid=14e04f51-6012-47f2-a15a-594508b26271","ios":"levelo://app?vid=14e04f51-6012-47f2-a15a-594508b26271"},"vehicle_type_id":"4","last_reported":1774031585,"current_range_meters":4000,"station_id":"ce4bhk92rcd13ifvqgb0","pricing_plan_id":"cebpf4jnsgd1na2vs0mg"},{"bike_id":"df59e1d7-2830-46d8-acca-a20ac300bcfc","system_id":"levelo_inurba_marseille","lat":43.291706,"lon":5.384863,"is_reserved":false,"is_disabled":false,"rental_uris":{"android":"levelo://app?vid=df59e1d7-2830-46d8-acca-a20ac300bcfc","ios":"levelo://app?vid=df59e1d7-2830-46d8-acca-a20ac300bcfc"},"vehicle_type_id":"4","last_reported":1774031585,"current_range_meters":4000,"station_id":"","pricing_plan_id":"cebpf4jnsgd1na2vs0mg"},{"bike_id":"744826ba-753a-4ecc-8e5c-e31c07526efd","system_id":"levelo_inurba_marseille","lat":43.27969,"lon":5.41681,"is_reserved":false,"is_disabled":false,"rental_uris":{"android":"levelo://app?vid=744826ba-753a-4ecc-8e5c-e31c07526efd","ios":"levelo://app?vid=744826ba-753a-4ecc-8e5c-e31c07526efd"},"vehicle_type_id":"4","last_reported":1774031585,"current_range_meters":4000,"station_id":"ce4bho12rcd13ifvqh1g","pricing_plan_id":"cebpf4jnsgd1na2vs0mg"},{"bike_id":"a41de53c-a6b7-4218-a883-add34022c124","system_id":"levelo_inurba_marseille","lat":43.248111,"lon":5.374625,"is_reserved":false,"is_disabled":false,"rental_uris":{"android":"levelo://app?vid=a41de53c-a6b7-4218-a883-add34022c124","ios":"levelo://app?vid=a41de53c-a6b7-4218-a883-add34022c124"},"vehicle_type_id":"4","last_reported":1774031585,"current_range_meters":4000,"station_id":"ce4bhgh2rcd13ifvqfb0","pricing_plan_id":"cebpf4jnsgd1na2vs0mg"},{"bike_id":"d871faa8-61e1-478f-aa35-0cad360c26f1","system_id":"levelo_inurba_marseille","lat":43.30592,"lon":5.39355,"is_reserved":false,"is_disabled":false,"rental_uris":{"android":"levelo://app?vid=d871faa8-61e1-478f-aa35-0cad360c26f1","ios":"levelo://app?vid=d871faa8-61e1-478f-aa35-0cad360c26f1"},"vehicle_type_id":"4","last_reported":1774031585,"current_range_meters":4000,"station_id":"ce4bh0p2rcd13ifvqd80","pricing_plan_id":"cebpf4jnsgd1na2vs0mg"},{"bike_id":"eb1add3e-0fa8-4a8d-8324-ba62c1fc132c","system_id":"levelo_inurba_marseille","lat":43.2909,"lon":5.38172,"is_reserved":false,"is_disabled":false,"rental_uris":{"android":"levelo://app?vid=eb1add3e-0fa8-4a8d-8324-ba62c1fc132c","ios":"levelo://app?vid=eb1add3e-0fa8-4a8d-8324-ba62c1fc132c"},"vehicle_type_id":"4","last_reported":1774031585,"current_range_meters":4000,"station_id":"ce4bh512rcd13ifvqe2g","pricing_plan_id":"cebpf4jnsgd1na2vs0mg"},{"bike_id":"21afb19c-42c0-43f3-8492-a7d7208bc4fa","system_id":"levelo_inurba_marseille","lat":43.28615,"lon":5.37086,"is_reserved":false,"is_disabled":false,"rental_uris":{"android":"levelo://app?vid=21afb19c-42c0-43f3-8492-a7d7208bc4fa","ios":"levelo://app?vid=21afb19c-42c0-43f3-8492-a7d7208bc4fa"},"vehicle_type_id":"4","last_reported":1774031585,"current_range_meters":4000,"station_id":"ce4bht12rcd13ifvqi60","pricing_plan_id":"cebpf4jnsgd1na2vs0mg"},{"bike_id":"c8a4c356-e89a-4d8a-8b76-4f29f790e015","system_id":"levelo_inurba_marseille","lat":43.29055,"lon":5.35907,"is_reserved":false,"is_disabled":false,"rental_uris":{"android":"levelo://app?vid=c8a4c356-e89a-4d8a-8b76-4f29f790e015","ios":"levelo://app?vid=c8a4c356-e89a-4d8a-8b76-4f29f790e015"},"vehicle_type_id":"4","last_reported":1774031585,"current_range_meters":4000,"station_id":"ce4bha92rcd13ifvqeg0","pricing_plan_id":"cebpf4jnsgd1na2vs0mg"},{"bike_id":"8b0d7353-1895-4374-af16-5e060d18aa1e","system_id":"levelo_inurba_marseille","lat":43.27977,"lon":5.38745,"is_reserved":false,"is_disabled":false,"rental_uris":{"android":"levelo://app?vid=8b0d7353-1895-4374-af16-5e060d18aa1e","ios":"levelo://app?vid=8b0d7353-1895-4374-af16-5e060d18aa1e"},"vehicle_type_id":"4","last_reported":1774031585,"current_range_meters":4000,"station_id":"ce4bhg12rcd13ifvqf80","pricing_plan_id":"cebpf4jnsgd1na2vs0mg"},{"bike_id":"b3c6ee7e-839e-47ca-8bd1-12618e78dd87","system_id":"levelo_inurba_marseille","lat":43.23965,"lon":5.36618,"is_reserved":false,"is_disabled":false,"rental_uris":{"android":"levelo://app?vid=b3c6ee7e-839e-47ca-8bd1-12618e78dd87","ios":"levelo://app?vid=b3c6ee7e-839e-47ca-8bd1-12618e78dd87"},"vehicle_type_id":"4","last_reported":1774031585,"current_range_meters":4000,"station_id":"ce4bhi12rcd13ifvqfp0","pricing_plan_id":"cebpf4jnsgd1na2vs0mg"},{"bike_id":"e5cb40a5-eeac-4f2e-bc85-bf1b047d3530","system_id":"levelo_inurba_marseille","lat":43.256,"lon":5.38238,"is_reserved":false,"is_disabled":false,"rental_uris":{"android":"levelo://app?vid=e5cb40a5-eeac-4f2e-bc85-bf1b047d3530","ios":"levelo://app?vid=e5cb40a5-eeac-4f2e-bc85-bf1b047d3530"},"vehicle_type_id":"4","last_reported":1774031585,"current_range_meters":4000,"station_id":"ce4bhih2rcd13ifvqfs0","pricing_plan_id":"cebpf4jnsgd1na2vs0mg"},{"bike_id":"e6e5ab1e-6fcf-478e-b780-cc55fb6697c6","system_id":"levelo_inurba_marseille","lat":43.29577,"lon":5.37526,"is_reserved":false,"is_disabled":false,"rental_uris":{"android":"levelo://app?vid=e6e5ab1e-6fcf-478e-b780-cc55fb6697c6","ios":"levelo://app?vid=e6e5ab1e-6fcf-478e-b780-cc55fb6697c6"},"vehicle_type_id":"4","last_reported":1774031585,"current_range_meters":4000,"station_id":"ce4bgh92rcd13ifvqb50","pricing_plan_id":"cebpf4jnsgd1na2vs0mg"},{"bike_id":"addd9e53-bfde-4c2f-8c89-4a891b6a7add","system_id":"levelo_inurba_marseille","lat":43.31342,"lon":5.3792,"is_reserved":false,"is_disabled":false,"rental_uris":{"android":"levelo://app?vid=addd9e53-bfde-4c2f-8c89-4a891b6a7add","ios":"levelo://app?vid=addd9e53-bfde-4c2f-8c89-4a891b6a7add"},"vehicle_type_id":"4","last_reported":1774031585,"current_range_meters":4400,"station_id":"","pricing_plan_id":"cebpf4jnsgd1na2vs0mg"},{"bike_id":"d9442bbf-fbeb-4892-a3e2-03d9057b05b9","system_id":"levelo_inurba_marseille","lat":43.24805,"lon":5.37451,"is_reserved":false,"is_disabled":false,"rental_uris":{"android":"levelo://app?vid=d9442bbf-fbeb-4892-a3e2-03d9057b05b9","ios":"levelo://app?vid=d9442bbf-fbeb-4892-a3e2-03d9057b05b9"},"vehicle_type_id":"4","last_reported":1774031585,"current_range_meters":4400,"station_id":"ce4bhgh2rcd13ifvqfb0","pricing_plan_id":"cebpf4jnsgd1na2vs0mg"},{"bike_id":"c296f38f-b214-4042-b709-4cf7251664e7","system_id":"levelo_inurba_marseille","lat":43.30208,"lon":5.39461,"is_reserved":false,"is_disabled":false,"rental_uris":{"android":"levelo://app?vid=c296f38f-b214-4042-b709-4cf7251664e7","ios":"levelo://app?vid=c296f38f-b214-4042-b709-4cf7251664e7"},"vehicle_type_id":"4","last_reported":1774031585,"current_range_meters":4400,"station_id":"ce4bh0p2rcd13ifvqd70","pricing_plan_id":"cebpf4jnsgd1na2vs0mg"},{"bike_id":"3ff905df-9cfc-4198-a321-86ecfaa87b21","system_id":"levelo_inurba_marseille","lat":43.29531,"lon":5.39037,"is_reserved":false,"is_disabled":false,"rental_uris":{"android":"levelo://app?vid=3ff905df-9cfc-4198-a321-86ecfaa87b21","ios":"levelo://app?vid=3ff905df-9cfc-4198-a321-86ecfaa87b21"},"vehicle_type_id":"4","last_reported":1774031585,"current_range_meters":4400,"station_id":"ce4bh3p2rcd13ifvqdp0","pricing_plan_id":"cebpf4jnsgd1na2vs0mg"},{"bike_id":"d725c900-b9f2-4885-bb5e-2c21a6be4955","system_id":"levelo_inurba_marseille","lat":43.29259,"lon":5.3845,"is_reserved":false,"is_disabled":false,"rental_uris":{"android":"levelo://app?vid=d725c900-b9f2-4885-bb5e-2c21a6be4955","ios":"levelo://app?vid=d725c900-b9f2-4885-bb5e-2c21a6be4955"},"vehicle_type_id":"4","last_reported":1774031585,"current_range_meters":4400,"station_id":"ce4bh692rcd13ifvqea0","pricing_plan_id":"cebpf4jnsgd1na2vs0mg"},{"bike_id":"869db6dc-1212-4a96-98fc-6f7832aeb862","system_id":"levelo_inurba_marseille","lat":43.3095,"lon":5.39044,"is_reserved":false,"is_disabled":false,"rental_uris":{"android":"levelo://app?vid=869db6dc-1212-4a96-98fc-6f7832aeb862","ios":"levelo://app?vid=869db6dc-1212-4a96-98fc-6f7832aeb862"},"vehicle_type_id":"4","last_reported":1774031585,"current_range_meters":4400,"station_id":"ce4bgup2rcd13ifvqco0","pricing_plan_id":"cebpf4jnsgd1na2vs0mg"},{"bike_id":"177f5e47-4c2d-4099-87e5-42b99a676f0b","system_id":"levelo_inurba_marseille","lat":43.28477,"lon":5.38418,"is_reserved":false,"is_disabled":false,"rental_uris":{"android":"levelo://app?vid=177f5e47-4c2d-4099-87e5-42b99a676f0b","ios":"levelo://app?vid=177f5e47-4c2d-4099-87e5-42b99a676f0b"},"vehicle_type_id":"4","last_reported":1774031585,"current_range_meters":4400,"station_id":"ce4bh512rcd13ifvqe3g","pricing_plan_id":"cebpf4jnsgd1na2vs0mg"},{"bike_id":"14bede7e-03fe-49ce-81bc-924daca983b5","system_id":"levelo_inurba_marseille","lat":43.276172,"lon":5.361134,"is_reserved":false,"is_disabled":false,"rental_uris":{"android":"levelo://app?vid=14bede7e-03fe-49ce-81bc-924daca983b5","ios":"levelo://app?vid=14bede7e-03fe-49ce-81bc-924daca983b5"},"vehicle_type_id":"4","last_reported":1774031585,"current_range_meters":4400,"station_id":"ce4bgj92rcd13ifvqbe0","pricing_plan_id":"cebpf4jnsgd1na2vs0mg"},{"bike_id":"5e7b9a09-3ac1-4f98-9aa4-2019151fbf1a","system_id":"levelo_inurba_marseille","lat":43.32019,"lon":5.38182,"is_reserved":false,"is_disabled":false,"rental_uris":{"android":"levelo://app?vid=5e7b9a09-3ac1-4f98-9aa4-2019151fbf1a","ios":"levelo://app?vid=5e7b9a09-3ac1-4f98-9aa4-2019151fbf1a"},"vehicle_type_id":"4","last_reported":1774031585,"current_range_meters":4400,"station_id":"ce4bhr12rcd13ifvqhpg","pricing_plan_id":"cebpf4jnsgd1na2vs0mg"},{"bike_id":"d4776486-3084-421f-968a-3d6e49dfba03","system_id":"levelo_inurba_marseille","lat":43.28534,"lon":5.44097,"is_reserved":false,"is_disabled":false,"rental_uris":{"android":"levelo://app?vid=d4776486-3084-421f-968a-3d6e49dfba03","ios":"levelo://app?vid=d4776486-3084-421f-968a-3d6e49dfba03"},"vehicle_type_id":"4","last_reported":1774031585,"current_range_meters":4800,"station_id":"st_d3j3df2ikq2c7380ej80","pricing_plan_id":"cebpf4jnsgd1na2vs0mg"},{"bike_id":"b343f5f8-c1bb-4ce3-a7a6-a6599510fd8f","system_id":"levelo_inurba_marseille","lat":43.28423,"lon":5.3499,"is_reserved":false,"is_disabled":false,"rental_uris":{"android":"levelo://app?vid=b343f5f8-c1bb-4ce3-a7a6-a6599510fd8f","ios":"levelo://app?vid=b343f5f8-c1bb-4ce3-a7a6-a6599510fd8f"},"vehicle_type_id":"4","last_reported":1774031585,"current_range_meters":4800,"station_id":"ce4bhbh2rcd13ifvqepg","pricing_plan_id":"cebpf4jnsgd1na2vs0mg"},{"bike_id":"f991a108-3a0d-4e7c-803c-c4e508734fa0","system_id":"levelo_inurba_marseille","lat":43.29535,"lon":5.38494,"is_reserved":false,"is_disabled":false,"rental_uris":{"android":"levelo://app?vid=f991a108-3a0d-4e7c-803c-c4e508734fa0","ios":"levelo://app?vid=f991a108-3a0d-4e7c-803c-c4e508734fa0"},"vehicle_type_id":"4","last_reported":1774031585,"current_range_meters":4800,"station_id":"ce4bgih2rcd13ifvqba0","pricing_plan_id":"cebpf4jnsgd1na2vs0mg"},{"bike_id":"c933f5ef-dbd0-4c08-9835-5dfebe9ab4bd","system_id":"levelo_inurba_marseille","lat":43.31362,"lon":5.38504,"is_reserved":false,"is_disabled":false,"rental_uris":{"android":"levelo://app?vid=c933f5ef-dbd0-4c08-9835-5dfebe9ab4bd","ios":"levelo://app?vid=c933f5ef-dbd0-4c08-9835-5dfebe9ab4bd"},"vehicle_type_id":"4","last_reported":1774031585,"current_range_meters":4800,"station_id":"ce4bgt92rcd13ifvqcf0","pricing_plan_id":"cebpf4jnsgd1na2vs0mg"},{"bike_id":"6b596f47-5f2b-41a1-ba8e-cc3c7bac807e","system_id":"levelo_inurba_marseille","lat":43.22951,"lon":5.35373,"is_reserved":false,"is_disabled":false,"rental_uris":{"android":"levelo://app?vid=6b596f47-5f2b-41a1-ba8e-cc3c7bac807e","ios":"levelo://app?vid=6b596f47-5f2b-41a1-ba8e-cc3c7bac807e"},"vehicle_type_id":"4","last_reported":1774031585,"current_range_meters":4800,"station_id":"cpo3532slgdg3j2ikp40","pricing_plan_id":"cebpf4jnsgd1na2vs0mg"},{"bike_id":"f7f9f07f-4a08-4162-961d-be225ba2a4ea","system_id":"levelo_inurba_marseille","lat":43.24817,"lon":5.37468,"is_reserved":false,"is_disabled":false,"rental_uris":{"android":"levelo://app?vid=f7f9f07f-4a08-4162-961d-be225ba2a4ea","ios":"levelo://app?vid=f7f9f07f-4a08-4162-961d-be225ba2a4ea"},"vehicle_type_id":"4","last_reported":1774031585,"current_range_meters":4800,"station_id":"","pricing_plan_id":"cebpf4jnsgd1na2vs0mg"},{"bike_id":"10ced8a1-0004-454c-a343-b116c3880ed6","system_id":"levelo_inurba_marseille","lat":43.32094,"lon":5.36742,"is_reserved":false,"is_disabled":false,"rental_uris":{"android":"levelo://app?vid=10ced8a1-0004-454c-a343-b116c3880ed6","ios":"levelo://app?vid=10ced8a1-0004-454c-a343-b116c3880ed6"},"vehicle_type_id":"4","last_reported":1774031585,"current_range_meters":4800,"station_id":"ce4bhrh2rcd13ifvqhug","pricing_plan_id":"cebpf4jnsgd1na2vs0mg"},{"bike_id":"3a58d5b8-8cd2-4b9a-92bd-3a3e13b85260","system_id":"levelo_inurba_marseille","lat":43.29286,"lon":5.3685,"is_reserved":false,"is_disabled":false,"rental_uris":{"android":"levelo://app?vid=3a58d5b8-8cd2-4b9a-92bd-3a3e13b85260","ios":"levelo://app?vid=3a58d5b8-8cd2-4b9a-92bd-3a3e13b85260"},"vehicle_type_id":"4","last_reported":1774031585,"current_range_meters":4800,"station_id":"ce4bhbp2rcd13ifvqesg","pricing_plan_id":"cebpf4jnsgd1na2vs0mg"},{"bike_id":"cdd61104-1ee8-41b9-b937-ee4d5845a5be","system_id":"levelo_inurba_marseille","lat":43.28732,"lon":5.37949,"is_reserved":false,"is_disabled":false,"rental_uris":{"android":"levelo://app?vid=cdd61104-1ee8-41b9-b937-ee4d5845a5be","ios":"levelo://app?vid=cdd61104-1ee8-41b9-b937-ee4d5845a5be"},"vehicle_type_id":"4","last_reported":1774031585,"current_range_meters":4800,"station_id":"ce4bh9p2rcd13ifvqec0","pricing_plan_id":"cebpf4jnsgd1na2vs0mg"},{"bike_id":"938f5b2b-699a-47ff-8381-c70adbd93b65","system_id":"levelo_inurba_marseille","lat":43.29754,"lon":5.37103,"is_reserved":false,"is_disabled":true,"rental_uris":{"android":"levelo://app?vid=938f5b2b-699a-47ff-8381-c70adbd93b65","ios":"levelo://app?vid=938f5b2b-699a-47ff-8381-c70adbd93b65"},"vehicle_type_id":"4","last_reported":1774031585,"current_range_meters":4800,"station_id":"ce4bgop2rcd13ifvqc1g","pricing_plan_id":"cebpf4jnsgd1na2vs0mg"},{"bike_id":"d16b4f5e-9b9d-4635-b7ab-14fa4ff08f4b","system_id":"levelo_inurba_marseille","lat":43.24641,"lon":5.43166,"is_reserved":false,"is_disabled":false,"rental_uris":{"android":"levelo://app?vid=d16b4f5e-9b9d-4635-b7ab-14fa4ff08f4b","ios":"levelo://app?vid=d16b4f5e-9b9d-4635-b7ab-14fa4ff08f4b"},"vehicle_type_id":"4","last_reported":1774031585,"current_range_meters":4800,"station_id":"","pricing_plan_id":"cebpf4jnsgd1na2vs0mg"},{"bike_id":"ede65faa-7b9d-414a-ab0d-ff19b5f92d1e","system_id":"levelo_inurba_marseille","lat":43.29535,"lon":5.38556,"is_reserved":false,"is_disabled":false,"rental_uris":{"android":"levelo://app?vid=ede65faa-7b9d-414a-ab0d-ff19b5f92d1e","ios":"levelo://app?vid=ede65faa-7b9d-414a-ab0d-ff19b5f92d1e"},"vehicle_type_id":"4","last_reported":1774031585,"current_range_meters":4800,"station_id":"ce4bgih2rcd13ifvqba0","pricing_plan_id":"cebpf4jnsgd1na2vs0mg"},{"bike_id":"6528eebf-5319-49e7-ac0e-054aadd64ddf","system_id":"levelo_inurba_marseille","lat":43.27325,"lon":5.39081,"is_reserved":false,"is_disabled":true,"rental_uris":{"android":"levelo://app?vid=6528eebf-5319-49e7-ac0e-054aadd64ddf","ios":"levelo://app?vid=6528eebf-5319-49e7-ac0e-054aadd64ddf"},"vehicle_type_id":"4","last_reported":1774031585,"current_range_meters":4800,"station_id":"ce4bhgp2rcd13ifvqfe0","pricing_plan_id":"cebpf4jnsgd1na2vs0mg"},{"bike_id":"3bcd3f37-7909-4e8a-be03-a9562a2c0e45","system_id":"levelo_inurba_marseille","lat":43.28479,"lon":5.48406,"is_reserved":false,"is_disabled":false,"rental_uris":{"android":"levelo://app?vid=3bcd3f37-7909-4e8a-be03-a9562a2c0e45","ios":"levelo://app?vid=3bcd3f37-7909-4e8a-be03-a9562a2c0e45"},"vehicle_type_id":"4","last_reported":1774031585,"current_range_meters":5600,"station_id":"","pricing_plan_id":"cebpf4jnsgd1na2vs0mg"},{"bike_id":"c403789f-54d1-498d-8a6f-0afb1901503e","system_id":"levelo_inurba_marseille","lat":43.2955,"lon":5.38577,"is_reserved":false,"is_disabled":false,"rental_uris":{"android":"levelo://app?vid=c403789f-54d1-498d-8a6f-0afb1901503e","ios":"levelo://app?vid=c403789f-54d1-498d-8a6f-0afb1901503e"},"vehicle_type_id":"4","last_reported":1774031585,"current_range_meters":5600,"station_id":"ce4bgih2rcd13ifvqba0","pricing_plan_id":"cebpf4jnsgd1na2vs0mg"},{"bike_id":"2a2e8d17-4c3d-45af-9e0b-c17a2340a2e3","system_id":"levelo_inurba_marseille","lat":43.2901,"lon":5.38132,"is_reserved":false,"is_disabled":false,"rental_uris":{"android":"levelo://app?vid=2a2e8d17-4c3d-45af-9e0b-c17a2340a2e3","ios":"levelo://app?vid=2a2e8d17-4c3d-45af-9e0b-c17a2340a2e3"},"vehicle_type_id":"4","last_reported":1774031585,"current_range_meters":5600,"station_id":"ce4bh4p2rcd13ifvqe1g","pricing_plan_id":"cebpf4jnsgd1na2vs0mg"},{"bike_id":"e08d225b-8f4a-4ce0-895d-d9f7f842408c","system_id":"levelo_inurba_marseille","lat":43.24174,"lon":5.36426,"is_reserved":false,"is_disabled":false,"rental_uris":{"android":"levelo://app?vid=e08d225b-8f4a-4ce0-895d-d9f7f842408c","ios":"levelo://app?vid=e08d225b-8f4a-4ce0-895d-d9f7f842408c"},"vehicle_type_id":"4","last_reported":1774031585,"current_range_meters":5600,"station_id":"cpo36qri1sfpv3e86is0","pricing_plan_id":"cebpf4jnsgd1na2vs0mg"},{"bike_id":"1fcf94c3-157b-46ca-bc7c-a15b79be338c","system_id":"levelo_inurba_marseille","lat":43.2953,"lon":5.38541,"is_reserved":false,"is_disabled":false,"rental_uris":{"android":"levelo://app?vid=1fcf94c3-157b-46ca-bc7c-a15b79be338c","ios":"levelo://app?vid=1fcf94c3-157b-46ca-bc7c-a15b79be338c"},"vehicle_type_id":"4","last_reported":1774031585,"current_range_meters":5600,"station_id":"ce4bgih2rcd13ifvqba0","pricing_plan_id":"cebpf4jnsgd1na2vs0mg"},{"bike_id":"e4ec442a-6d24-4bd8-af41-00e67b95d722","system_id":"levelo_inurba_marseille","lat":43.28083,"lon":5.39664,"is_reserved":false,"is_disabled":false,"rental_uris":{"android":"levelo://app?vid=e4ec442a-6d24-4bd8-af41-00e67b95d722","ios":"levelo://app?vid=e4ec442a-6d24-4bd8-af41-00e67b95d722"},"vehicle_type_id":"4","last_reported":1774031585,"current_range_meters":5600,"station_id":"ce4bho12rcd13ifvqh2g","pricing_plan_id":"cebpf4jnsgd1na2vs0mg"},{"bike_id":"be9b4f06-9d1a-41ee-b10b-9de4e628d9db","system_id":"levelo_inurba_marseille","lat":43.25576,"lon":5.38252,"is_reserved":false,"is_disabled":false,"rental_uris":{"android":"levelo://app?vid=be9b4f06-9d1a-41ee-b10b-9de4e628d9db","ios":"levelo://app?vid=be9b4f06-9d1a-41ee-b10b-9de4e628d9db"},"vehicle_type_id":"4","last_reported":1774031585,"current_range_meters":6000,"station_id":"ce4bhih2rcd13ifvqfs0","pricing_plan_id":"cebpf4jnsgd1na2vs0mg"},{"bike_id":"3f5fcb09-6836-4c80-a3da-a9cf23ac0396","system_id":"levelo_inurba_marseille","lat":43.2927,"lon":5.37638,"is_reserved":false,"is_disabled":false,"rental_uris":{"android":"levelo://app?vid=3f5fcb09-6836-4c80-a3da-a9cf23ac0396","ios":"levelo://app?vid=3f5fcb09-6836-4c80-a3da-a9cf23ac0396"},"vehicle_type_id":"4","last_reported":1774031585,"current_range_meters":6000,"station_id":"ce4bgi12rcd13ifvqb80","pricing_plan_id":"cebpf4jnsgd1na2vs0mg"},{"bike_id":"d323e75e-c619-45c2-89b3-facda6fdedf8","system_id":"levelo_inurba_marseille","lat":43.24685,"lon":5.3815,"is_reserved":false,"is_disabled":false,"rental_uris":{"android":"levelo://app?vid=d323e75e-c619-45c2-89b3-facda6fdedf8","ios":"levelo://app?vid=d323e75e-c619-45c2-89b3-facda6fdedf8"},"vehicle_type_id":"4","last_reported":1774031585,"current_range_meters":6000,"station_id":"ce4bhih2rcd13ifvqfr0","pricing_plan_id":"cebpf4jnsgd1na2vs0mg"},{"bike_id":"64632ede-f49d-4588-ae3f-130b14a444d6","system_id":"levelo_inurba_marseille","lat":43.2959,"lon":5.37523,"is_reserved":false,"is_disabled":false,"rental_uris":{"android":"levelo://app?vid=64632ede-f49d-4588-ae3f-130b14a444d6","ios":"levelo://app?vid=64632ede-f49d-4588-ae3f-130b14a444d6"},"vehicle_type_id":"4","last_reported":1774031585,"current_range_meters":6000,"station_id":"ce4bgh92rcd13ifvqb50","pricing_plan_id":"cebpf4jnsgd1na2vs0mg"},{"bike_id":"f35291ea-a517-45e6-bccf-54011aa5a0ff","system_id":"levelo_inurba_marseille","lat":43.28038,"lon":5.36968,"is_reserved":false,"is_disabled":false,"rental_uris":{"android":"levelo://app?vid=f35291ea-a517-45e6-bccf-54011aa5a0ff","ios":"levelo://app?vid=f35291ea-a517-45e6-bccf-54011aa5a0ff"},"vehicle_type_id":"4","last_reported":1774031585,"current_range_meters":6000,"station_id":"ce4bha12rcd13ifvqef0","pricing_plan_id":"cebpf4jnsgd1na2vs0mg"},{"bike_id":"e7d52348-570a-4440-8818-e57d451e3dc2","system_id":"levelo_inurba_marseille","lat":43.292612,"lon":5.384293,"is_reserved":false,"is_disabled":false,"rental_uris":{"android":"levelo://app?vid=e7d52348-570a-4440-8818-e57d451e3dc2","ios":"levelo://app?vid=e7d52348-570a-4440-8818-e57d451e3dc2"},"vehicle_type_id":"4","last_reported":1774031585,"current_range_meters":6000,"station_id":"ce4bh692rcd13ifvqea0","pricing_plan_id":"cebpf4jnsgd1na2vs0mg"},{"bike_id":"07075d62-0497-4653-8625-63f6ed502b62","system_id":"levelo_inurba_marseille","lat":43.30912,"lon":5.36844,"is_reserved":false,"is_disabled":false,"rental_uris":{"android":"levelo://app?vid=07075d62-0497-4653-8625-63f6ed502b62","ios":"levelo://app?vid=07075d62-0497-4653-8625-63f6ed502b62"},"vehicle_type_id":"4","last_reported":1774031585,"current_range_meters":6000,"station_id":"ce4bgn92rcd13ifvqbvg","pricing_plan_id":"cebpf4jnsgd1na2vs0mg"},{"bike_id":"7b6da842-bce9-4fdf-9568-3ff8f5575600","system_id":"levelo_inurba_marseille","lat":43.29626,"lon":5.37721,"is_reserved":false,"is_disabled":false,"rental_uris":{"android":"levelo://app?vid=7b6da842-bce9-4fdf-9568-3ff8f5575600","ios":"levelo://app?vid=7b6da842-bce9-4fdf-9568-3ff8f5575600"},"vehicle_type_id":"4","last_reported":1774031585,"current_range_meters":6000,"station_id":"ce4bgi92rcd13ifvqb90","pricing_plan_id":"cebpf4jnsgd1na2vs0mg"},{"bike_id":"a8676dec-714d-4196-8ee5-c630f314ac31","system_id":"levelo_inurba_marseille","lat":43.29269,"lon":5.38435,"is_reserved":false,"is_disabled":false,"rental_uris":{"android":"levelo://app?vid=a8676dec-714d-4196-8ee5-c630f314ac31","ios":"levelo://app?vid=a8676dec-714d-4196-8ee5-c630f314ac31"},"vehicle_type_id":"4","last_reported":1774031585,"current_range_meters":6000,"station_id":"ce4bh692rcd13ifvqea0","pricing_plan_id":"cebpf4jnsgd1na2vs0mg"},{"bike_id":"74ebb480-171b-43e5-b0fc-ba46b71dee8d","system_id":"levelo_inurba_marseille","lat":43.25335,"lon":5.42178,"is_reserved":false,"is_disabled":true,"rental_uris":{"android":"levelo://app?vid=74ebb480-171b-43e5-b0fc-ba46b71dee8d","ios":"levelo://app?vid=74ebb480-171b-43e5-b0fc-ba46b71dee8d"},"vehicle_type_id":"4","last_reported":1774031585,"current_range_meters":6000,"station_id":"st_d2m65c5bi1j21697t3ng","pricing_plan_id":"cebpf4jnsgd1na2vs0mg"},{"bike_id":"c48440d7-f4d5-4be3-a842-7dc1a317748e","system_id":"levelo_inurba_marseille","lat":43.3396,"lon":5.35714,"is_reserved":false,"is_disabled":false,"rental_uris":{"android":"levelo://app?vid=c48440d7-f4d5-4be3-a842-7dc1a317748e","ios":"levelo://app?vid=c48440d7-f4d5-4be3-a842-7dc1a317748e"},"vehicle_type_id":"4","last_reported":1774031585,"current_range_meters":6000,"station_id":"","pricing_plan_id":"cebpf4jnsgd1na2vs0mg"},{"bike_id":"12118d88-8157-4d76-ad00-12ce3bc20921","system_id":"levelo_inurba_marseille","lat":43.30855,"lon":5.3711,"is_reserved":false,"is_disabled":false,"rental_uris":{"android":"levelo://app?vid=12118d88-8157-4d76-ad00-12ce3bc20921","ios":"levelo://app?vid=12118d88-8157-4d76-ad00-12ce3bc20921"},"vehicle_type_id":"4","last_reported":1774031585,"current_range_meters":6400,"station_id":"","pricing_plan_id":"cebpf4jnsgd1na2vs0mg"},{"bike_id":"c0af0d2d-ef19-456a-8a0f-587d767ce3c1","system_id":"levelo_inurba_marseille","lat":43.28942,"lon":5.36602,"is_reserved":false,"is_disabled":false,"rental_uris":{"android":"levelo://app?vid=c0af0d2d-ef19-456a-8a0f-587d767ce3c1","ios":"levelo://app?vid=c0af0d2d-ef19-456a-8a0f-587d767ce3c1"},"vehicle_type_id":"4","last_reported":1774031585,"current_range_meters":6400,"station_id":"ce4bhap2rcd13ifvqek0","pricing_plan_id":"cebpf4jnsgd1na2vs0mg"},{"bike_id":"ac4ca0f2-f5c2-4c9c-81db-9f7b20e89d0c","system_id":"levelo_inurba_marseille","lat":43.28537,"lon":5.44114,"is_reserved":false,"is_disabled":true,"rental_uris":{"android":"levelo://app?vid=ac4ca0f2-f5c2-4c9c-81db-9f7b20e89d0c","ios":"levelo://app?vid=ac4ca0f2-f5c2-4c9c-81db-9f7b20e89d0c"},"vehicle_type_id":"4","last_reported":1774031585,"current_range_meters":6400,"station_id":"st_d3j3df2ikq2c7380ej80","pricing_plan_id":"cebpf4jnsgd1na2vs0mg"},{"bike_id":"512752c4-21ad-4bc8-a158-8ed22ed4fa1f","system_id":"levelo_inurba_marseille","lat":43.28001,"lon":5.40022,"is_reserved":false,"is_disabled":false,"rental_uris":{"android":"levelo://app?vid=512752c4-21ad-4bc8-a158-8ed22ed4fa1f","ios":"levelo://app?vid=512752c4-21ad-4bc8-a158-8ed22ed4fa1f"},"vehicle_type_id":"4","last_reported":1774031585,"current_range_meters":6400,"station_id":"ce4bho92rcd13ifvqh4g","pricing_plan_id":"cebpf4jnsgd1na2vs0mg"},{"bike_id":"c6b20400-3641-48f3-b609-b110a5527d07","system_id":"levelo_inurba_marseille","lat":43.22576,"lon":5.41655,"is_reserved":false,"is_disabled":false,"rental_uris":{"android":"levelo://app?vid=c6b20400-3641-48f3-b609-b110a5527d07","ios":"levelo://app?vid=c6b20400-3641-48f3-b609-b110a5527d07"},"vehicle_type_id":"4","last_reported":1774031585,"current_range_meters":6400,"station_id":"st_d2o4gvlbi1j2169b742g","pricing_plan_id":"cebpf4jnsgd1na2vs0mg"},{"bike_id":"903fac39-6530-4adb-a670-2e120e407c6f","system_id":"levelo_inurba_marseille","lat":43.28363,"lon":5.38118,"is_reserved":false,"is_disabled":false,"rental_uris":{"android":"levelo://app?vid=903fac39-6530-4adb-a670-2e120e407c6f","ios":"levelo://app?vid=903fac39-6530-4adb-a670-2e120e407c6f"},"vehicle_type_id":"4","last_reported":1774031585,"current_range_meters":6400,"station_id":"ce4bh412rcd13ifvqdr0","pricing_plan_id":"cebpf4jnsgd1na2vs0mg"},{"bike_id":"0264288d-82fa-4432-8751-6c08c0e54bb7","system_id":"levelo_inurba_marseille","lat":43.30285,"lon":5.42482,"is_reserved":false,"is_disabled":false,"rental_uris":{"android":"levelo://app?vid=0264288d-82fa-4432-8751-6c08c0e54bb7","ios":"levelo://app?vid=0264288d-82fa-4432-8751-6c08c0e54bb7"},"vehicle_type_id":"4","last_reported":1774031585,"current_range_meters":6400,"station_id":"","pricing_plan_id":"cebpf4jnsgd1na2vs0mg"},{"bike_id":"41bdd5d1-d8c7-402f-93e0-a350c6756495","system_id":"levelo_inurba_marseille","lat":43.29698,"lon":5.37304,"is_reserved":false,"is_disabled":false,"rental_uris":{"android":"levelo://app?vid=41bdd5d1-d8c7-402f-93e0-a350c6756495","ios":"levelo://app?vid=41bdd5d1-d8c7-402f-93e0-a350c6756495"},"vehicle_type_id":"4","last_reported":1774031585,"current_range_meters":6400,"station_id":"ce4bgk12rcd13ifvqbj0","pricing_plan_id":"cebpf4jnsgd1na2vs0mg"},{"bike_id":"53ffd145-e808-4874-b669-0ac8a6361161","system_id":"levelo_inurba_marseille","lat":43.24824,"lon":5.37453,"is_reserved":false,"is_disabled":false,"rental_uris":{"android":"levelo://app?vid=53ffd145-e808-4874-b669-0ac8a6361161","ios":"levelo://app?vid=53ffd145-e808-4874-b669-0ac8a6361161"},"vehicle_type_id":"4","last_reported":1774031585,"current_range_meters":6400,"station_id":"ce4bhgh2rcd13ifvqfb0","pricing_plan_id":"cebpf4jnsgd1na2vs0mg"},{"bike_id":"10855fd1-3f2f-4dd8-802d-2a2cdb87f390","system_id":"levelo_inurba_marseille","lat":43.27431,"lon":5.39432,"is_reserved":false,"is_disabled":false,"rental_uris":{"android":"levelo://app?vid=10855fd1-3f2f-4dd8-802d-2a2cdb87f390","ios":"levelo://app?vid=10855fd1-3f2f-4dd8-802d-2a2cdb87f390"},"vehicle_type_id":"4","last_reported":1774031585,"current_range_meters":6400,"station_id":"ce4bhdp2rcd13ifvqf20","pricing_plan_id":"cebpf4jnsgd1na2vs0mg"},{"bike_id":"1af7d1b7-945b-40d6-bf8c-c3e0388024a6","system_id":"levelo_inurba_marseille","lat":43.30506,"lon":5.36511,"is_reserved":false,"is_disabled":false,"rental_uris":{"android":"levelo://app?vid=1af7d1b7-945b-40d6-bf8c-c3e0388024a6","ios":"levelo://app?vid=1af7d1b7-945b-40d6-bf8c-c3e0388024a6"},"vehicle_type_id":"4","last_reported":1774031585,"current_range_meters":6400,"station_id":"","pricing_plan_id":"cebpf4jnsgd1na2vs0mg"},{"bike_id":"9dad9987-81a7-498d-a472-17f830931420","system_id":"levelo_inurba_marseille","lat":43.2321,"lon":5.35547,"is_reserved":false,"is_disabled":false,"rental_uris":{"android":"levelo://app?vid=9dad9987-81a7-498d-a472-17f830931420","ios":"levelo://app?vid=9dad9987-81a7-498d-a472-17f830931420"},"vehicle_type_id":"4","last_reported":1774031585,"current_range_meters":6400,"station_id":"ce4bhu92rcd13ifvqi70","pricing_plan_id":"cebpf4jnsgd1na2vs0mg"},{"bike_id":"d13addaf-437f-4d75-bdbd-86bea7b03565","system_id":"levelo_inurba_marseille","lat":43.24652,"lon":5.38907,"is_reserved":false,"is_disabled":false,"rental_uris":{"android":"levelo://app?vid=d13addaf-437f-4d75-bdbd-86bea7b03565","ios":"levelo://app?vid=d13addaf-437f-4d75-bdbd-86bea7b03565"},"vehicle_type_id":"4","last_reported":1774031585,"current_range_meters":6400,"station_id":"ce4bhg12rcd13ifvqf60","pricing_plan_id":"cebpf4jnsgd1na2vs0mg"},{"bike_id":"29ceb06a-4df8-4e2a-9dd9-b070e185b37f","system_id":"levelo_inurba_marseille","lat":43.28476,"lon":5.48407,"is_reserved":false,"is_disabled":false,"rental_uris":{"android":"levelo://app?vid=29ceb06a-4df8-4e2a-9dd9-b070e185b37f","ios":"levelo://app?vid=29ceb06a-4df8-4e2a-9dd9-b070e185b37f"},"vehicle_type_id":"4","last_reported":1774031585,"current_range_meters":6400,"station_id":"st_d3svhcjqgbts73a3dn0g","pricing_plan_id":"cebpf4jnsgd1na2vs0mg"},{"bike_id":"119d24bc-e3dd-4e47-a0b9-64bbbcc5b1ee","system_id":"levelo_inurba_marseille","lat":43.21751,"lon":5.34612,"is_reserved":false,"is_disabled":true,"rental_uris":{"android":"levelo://app?vid=119d24bc-e3dd-4e47-a0b9-64bbbcc5b1ee","ios":"levelo://app?vid=119d24bc-e3dd-4e47-a0b9-64bbbcc5b1ee"},"vehicle_type_id":"4","last_reported":1774031585,"current_range_meters":6400,"station_id":"st_cvj6r9ubvosntc0bgbag","pricing_plan_id":"cebpf4jnsgd1na2vs0mg"},{"bike_id":"29705345-7a8e-4bdd-8b65-5ba8856c877f","system_id":"levelo_inurba_marseille","lat":43.30303,"lon":5.44969,"is_reserved":false,"is_disabled":false,"rental_uris":{"android":"levelo://app?vid=29705345-7a8e-4bdd-8b65-5ba8856c877f","ios":"levelo://app?vid=29705345-7a8e-4bdd-8b65-5ba8856c877f"},"vehicle_type_id":"4","last_reported":1774031585,"current_range_meters":6400,"station_id":"","pricing_plan_id":"cebpf4jnsgd1na2vs0mg"},{"bike_id":"3c76fb79-92b3-4803-a35d-7a9a81d21794","system_id":"levelo_inurba_marseille","lat":43.22932,"lon":5.35377,"is_reserved":false,"is_disabled":false,"rental_uris":{"android":"levelo://app?vid=3c76fb79-92b3-4803-a35d-7a9a81d21794","ios":"levelo://app?vid=3c76fb79-92b3-4803-a35d-7a9a81d21794"},"vehicle_type_id":"4","last_reported":1774031585,"current_range_meters":6400,"station_id":"cpo3532slgdg3j2ikp40","pricing_plan_id":"cebpf4jnsgd1na2vs0mg"},{"bike_id":"23c209c6-7d3c-4387-b04a-03a2b9a72d01","system_id":"levelo_inurba_marseille","lat":43.28366,"lon":5.43277,"is_reserved":false,"is_disabled":false,"rental_uris":{"android":"levelo://app?vid=23c209c6-7d3c-4387-b04a-03a2b9a72d01","ios":"levelo://app?vid=23c209c6-7d3c-4387-b04a-03a2b9a72d01"},"vehicle_type_id":"4","last_reported":1774031585,"current_range_meters":6400,"station_id":"","pricing_plan_id":"cebpf4jnsgd1na2vs0mg"},{"bike_id":"8f593568-268b-4617-a685-3b33ea045e92","system_id":"levelo_inurba_marseille","lat":43.29537,"lon":5.3905,"is_reserved":false,"is_disabled":false,"rental_uris":{"android":"levelo://app?vid=8f593568-268b-4617-a685-3b33ea045e92","ios":"levelo://app?vid=8f593568-268b-4617-a685-3b33ea045e92"},"vehicle_type_id":"4","last_reported":1774031585,"current_range_meters":6400,"station_id":"ce4bh3p2rcd13ifvqdp0","pricing_plan_id":"cebpf4jnsgd1na2vs0mg"},{"bike_id":"f4b3cc2f-18d6-471d-88d0-71219fb494c4","system_id":"levelo_inurba_marseille","lat":43.28479,"lon":5.38421,"is_reserved":false,"is_disabled":false,"rental_uris":{"android":"levelo://app?vid=f4b3cc2f-18d6-471d-88d0-71219fb494c4","ios":"levelo://app?vid=f4b3cc2f-18d6-471d-88d0-71219fb494c4"},"vehicle_type_id":"4","last_reported":1774031585,"current_range_meters":6800,"station_id":"ce4bh512rcd13ifvqe3g","pricing_plan_id":"cebpf4jnsgd1na2vs0mg"},{"bike_id":"a775511c-9985-4a58-8c4c-775aad7f3e36","system_id":"levelo_inurba_marseille","lat":43.29901,"lon":5.43675,"is_reserved":false,"is_disabled":false,"rental_uris":{"android":"levelo://app?vid=a775511c-9985-4a58-8c4c-775aad7f3e36","ios":"levelo://app?vid=a775511c-9985-4a58-8c4c-775aad7f3e36"},"vehicle_type_id":"4","last_reported":1774031585,"current_range_meters":6800,"station_id":"ce4bhpp2rcd13ifvqhfg","pricing_plan_id":"cebpf4jnsgd1na2vs0mg"},{"bike_id":"5c37a49c-ab60-4c11-8a61-6592ff444186","system_id":"levelo_inurba_marseille","lat":43.27908,"lon":5.39175,"is_reserved":false,"is_disabled":false,"rental_uris":{"android":"levelo://app?vid=5c37a49c-ab60-4c11-8a61-6592ff444186","ios":"levelo://app?vid=5c37a49c-ab60-4c11-8a61-6592ff444186"},"vehicle_type_id":"4","last_reported":1774031585,"current_range_meters":6800,"station_id":"","pricing_plan_id":"cebpf4jnsgd1na2vs0mg"},{"bike_id":"103120f3-ca53-4095-8cf3-d1332bf72db6","system_id":"levelo_inurba_marseille","lat":43.29198,"lon":5.35819,"is_reserved":false,"is_disabled":false,"rental_uris":{"android":"levelo://app?vid=103120f3-ca53-4095-8cf3-d1332bf72db6","ios":"levelo://app?vid=103120f3-ca53-4095-8cf3-d1332bf72db6"},"vehicle_type_id":"4","last_reported":1774031585,"current_range_meters":6800,"station_id":"ce4bhb12rcd13ifvqel0","pricing_plan_id":"cebpf4jnsgd1na2vs0mg"},{"bike_id":"3e5c7bdb-60ee-4795-a793-9681791a8e87","system_id":"levelo_inurba_marseille","lat":43.29772,"lon":5.42817,"is_reserved":false,"is_disabled":false,"rental_uris":{"android":"levelo://app?vid=3e5c7bdb-60ee-4795-a793-9681791a8e87","ios":"levelo://app?vid=3e5c7bdb-60ee-4795-a793-9681791a8e87"},"vehicle_type_id":"4","last_reported":1774031585,"current_range_meters":6800,"station_id":"st_d3md5207bmas73dh9klg","pricing_plan_id":"cebpf4jnsgd1na2vs0mg"},{"bike_id":"dd74091b-705a-4531-bc39-afff2195d9a1","system_id":"levelo_inurba_marseille","lat":43.2481,"lon":5.37444,"is_reserved":false,"is_disabled":false,"rental_uris":{"android":"levelo://app?vid=dd74091b-705a-4531-bc39-afff2195d9a1","ios":"levelo://app?vid=dd74091b-705a-4531-bc39-afff2195d9a1"},"vehicle_type_id":"4","last_reported":1774031585,"current_range_meters":6800,"station_id":"ce4bhgh2rcd13ifvqfb0","pricing_plan_id":"cebpf4jnsgd1na2vs0mg"},{"bike_id":"36e90825-0a4c-4783-80db-abf887e1012e","system_id":"levelo_inurba_marseille","lat":43.24819,"lon":5.37455,"is_reserved":false,"is_disabled":false,"rental_uris":{"android":"levelo://app?vid=36e90825-0a4c-4783-80db-abf887e1012e","ios":"levelo://app?vid=36e90825-0a4c-4783-80db-abf887e1012e"},"vehicle_type_id":"4","last_reported":1774031585,"current_range_meters":6800,"station_id":"ce4bhgh2rcd13ifvqfb0","pricing_plan_id":"cebpf4jnsgd1na2vs0mg"},{"bike_id":"d7b8532d-836d-45fe-8bae-769af3c7756d","system_id":"levelo_inurba_marseille","lat":43.21757,"lon":5.34611,"is_reserved":false,"is_disabled":false,"rental_uris":{"android":"levelo://app?vid=d7b8532d-836d-45fe-8bae-769af3c7756d","ios":"levelo://app?vid=d7b8532d-836d-45fe-8bae-769af3c7756d"},"vehicle_type_id":"4","last_reported":1774031585,"current_range_meters":6800,"station_id":"st_cvj6r9ubvosntc0bgbag","pricing_plan_id":"cebpf4jnsgd1na2vs0mg"},{"bike_id":"a5047ded-8781-414d-9d00-396ee688cfa7","system_id":"levelo_inurba_marseille","lat":43.29543,"lon":5.38546,"is_reserved":false,"is_disabled":false,"rental_uris":{"android":"levelo://app?vid=a5047ded-8781-414d-9d00-396ee688cfa7","ios":"levelo://app?vid=a5047ded-8781-414d-9d00-396ee688cfa7"},"vehicle_type_id":"4","last_reported":1774031585,"current_range_meters":6800,"station_id":"ce4bgih2rcd13ifvqba0","pricing_plan_id":"cebpf4jnsgd1na2vs0mg"},{"bike_id":"b2d1bae8-f5e3-4c8b-a699-e569fc671ef0","system_id":"levelo_inurba_marseille","lat":43.28946,"lon":5.3664,"is_reserved":false,"is_disabled":false,"rental_uris":{"android":"levelo://app?vid=b2d1bae8-f5e3-4c8b-a699-e569fc671ef0","ios":"levelo://app?vid=b2d1bae8-f5e3-4c8b-a699-e569fc671ef0"},"vehicle_type_id":"4","last_reported":1774031585,"current_range_meters":6800,"station_id":"ce4bhap2rcd13ifvqek0","pricing_plan_id":"cebpf4jnsgd1na2vs0mg"},{"bike_id":"31caa62d-cb2c-42fd-aa8e-1e9ca230fd55","system_id":"levelo_inurba_marseille","lat":43.28062,"lon":5.36967,"is_reserved":false,"is_disabled":false,"rental_uris":{"android":"levelo://app?vid=31caa62d-cb2c-42fd-aa8e-1e9ca230fd55","ios":"levelo://app?vid=31caa62d-cb2c-42fd-aa8e-1e9ca230fd55"},"vehicle_type_id":"4","last_reported":1774031585,"current_range_meters":6800,"station_id":"ce4bha12rcd13ifvqef0","pricing_plan_id":"cebpf4jnsgd1na2vs0mg"},{"bike_id":"f88beddb-d7c4-4148-9f8c-56ddec396a56","system_id":"levelo_inurba_marseille","lat":43.24827,"lon":5.37453,"is_reserved":false,"is_disabled":false,"rental_uris":{"android":"levelo://app?vid=f88beddb-d7c4-4148-9f8c-56ddec396a56","ios":"levelo://app?vid=f88beddb-d7c4-4148-9f8c-56ddec396a56"},"vehicle_type_id":"4","last_reported":1774031585,"current_range_meters":6800,"station_id":"ce4bhgh2rcd13ifvqfb0","pricing_plan_id":"cebpf4jnsgd1na2vs0mg"},{"bike_id":"51cee39c-bcfa-4eae-8467-838065c31f61","system_id":"levelo_inurba_marseille","lat":43.29541,"lon":5.3856,"is_reserved":false,"is_disabled":false,"rental_uris":{"android":"levelo://app?vid=51cee39c-bcfa-4eae-8467-838065c31f61","ios":"levelo://app?vid=51cee39c-bcfa-4eae-8467-838065c31f61"},"vehicle_type_id":"4","last_reported":1774031585,"current_range_meters":6800,"station_id":"ce4bgih2rcd13ifvqba0","pricing_plan_id":"cebpf4jnsgd1na2vs0mg"},{"bike_id":"13e9630a-3d96-4453-b605-ebd5f464c17b","system_id":"levelo_inurba_marseille","lat":43.30471,"lon":5.37908,"is_reserved":false,"is_disabled":false,"rental_uris":{"android":"levelo://app?vid=13e9630a-3d96-4453-b605-ebd5f464c17b","ios":"levelo://app?vid=13e9630a-3d96-4453-b605-ebd5f464c17b"},"vehicle_type_id":"4","last_reported":1774031585,"current_range_meters":6800,"station_id":"ce4bgup2rcd13ifvqcn0","pricing_plan_id":"cebpf4jnsgd1na2vs0mg"},{"bike_id":"af8d61f3-a28d-4dc1-af71-a1e8eb8433c3","system_id":"levelo_inurba_marseille","lat":43.28739,"lon":5.37945,"is_reserved":false,"is_disabled":false,"rental_uris":{"android":"levelo://app?vid=af8d61f3-a28d-4dc1-af71-a1e8eb8433c3","ios":"levelo://app?vid=af8d61f3-a28d-4dc1-af71-a1e8eb8433c3"},"vehicle_type_id":"4","last_reported":1774031585,"current_range_meters":6800,"station_id":"ce4bh9p2rcd13ifvqec0","pricing_plan_id":"cebpf4jnsgd1na2vs0mg"},{"bike_id":"caa5f484-8819-4a2f-a3d5-06df96948578","system_id":"levelo_inurba_marseille","lat":43.29991,"lon":5.38486,"is_reserved":false,"is_disabled":false,"rental_uris":{"android":"levelo://app?vid=caa5f484-8819-4a2f-a3d5-06df96948578","ios":"levelo://app?vid=caa5f484-8819-4a2f-a3d5-06df96948578"},"vehicle_type_id":"4","last_reported":1774031585,"current_range_meters":6800,"station_id":"ce4bgj92rcd13ifvqbd0","pricing_plan_id":"cebpf4jnsgd1na2vs0mg"},{"bike_id":"c142af26-b83c-4aa3-ab8b-699576493d34","system_id":"levelo_inurba_marseille","lat":43.2122,"lon":5.35106,"is_reserved":false,"is_disabled":true,"rental_uris":{"android":"levelo://app?vid=c142af26-b83c-4aa3-ab8b-699576493d34","ios":"levelo://app?vid=c142af26-b83c-4aa3-ab8b-699576493d34"},"vehicle_type_id":"4","last_reported":1774031585,"current_range_meters":6800,"station_id":"st_cvj6sg6p6f1abm77japg","pricing_plan_id":"cebpf4jnsgd1na2vs0mg"},{"bike_id":"e5eba928-e3a4-441b-9540-937747ee47b9","system_id":"levelo_inurba_marseille","lat":43.22581,"lon":5.4166,"is_reserved":false,"is_disabled":false,"rental_uris":{"android":"levelo://app?vid=e5eba928-e3a4-441b-9540-937747ee47b9","ios":"levelo://app?vid=e5eba928-e3a4-441b-9540-937747ee47b9"},"vehicle_type_id":"4","last_reported":1774031585,"current_range_meters":6800,"station_id":"st_d2o4gvlbi1j2169b742g","pricing_plan_id":"cebpf4jnsgd1na2vs0mg"},{"bike_id":"f26fe386-5e30-47f4-8b53-2aa02f6e5007","system_id":"levelo_inurba_marseille","lat":43.29897,"lon":5.37474,"is_reserved":false,"is_disabled":false,"rental_uris":{"android":"levelo://app?vid=f26fe386-5e30-47f4-8b53-2aa02f6e5007","ios":"levelo://app?vid=f26fe386-5e30-47f4-8b53-2aa02f6e5007"},"vehicle_type_id":"4","last_reported":1774031585,"current_range_meters":6800,"station_id":"ce4bgjh2rcd13ifvqbg0","pricing_plan_id":"cebpf4jnsgd1na2vs0mg"},{"bike_id":"dd3e42f6-e903-48e4-b650-e63023b9fe3f","system_id":"levelo_inurba_marseille","lat":43.28677,"lon":5.38655,"is_reserved":false,"is_disabled":false,"rental_uris":{"android":"levelo://app?vid=dd3e42f6-e903-48e4-b650-e63023b9fe3f","ios":"levelo://app?vid=dd3e42f6-e903-48e4-b650-e63023b9fe3f"},"vehicle_type_id":"4","last_reported":1774031585,"current_range_meters":6800,"station_id":"ce4bh492rcd13ifvqdug","pricing_plan_id":"cebpf4jnsgd1na2vs0mg"},{"bike_id":"a1ce7f88-8f8c-48ff-bc8b-8021c61764ea","system_id":"levelo_inurba_marseille","lat":43.33542,"lon":5.37467,"is_reserved":false,"is_disabled":false,"rental_uris":{"android":"levelo://app?vid=a1ce7f88-8f8c-48ff-bc8b-8021c61764ea","ios":"levelo://app?vid=a1ce7f88-8f8c-48ff-bc8b-8021c61764ea"},"vehicle_type_id":"4","last_reported":1774031585,"current_range_meters":6800,"station_id":"st_d46tts09ee8s73dlu43g","pricing_plan_id":"cebpf4jnsgd1na2vs0mg"},{"bike_id":"1094d025-1189-4f47-ac68-9bc20124938e","system_id":"levelo_inurba_marseille","lat":43.250591,"lon":5.395497,"is_reserved":false,"is_disabled":false,"rental_uris":{"android":"levelo://app?vid=1094d025-1189-4f47-ac68-9bc20124938e","ios":"levelo://app?vid=1094d025-1189-4f47-ac68-9bc20124938e"},"vehicle_type_id":"4","last_reported":1774031585,"current_range_meters":6800,"station_id":"ce4bhm12rcd13ifvqgkg","pricing_plan_id":"cebpf4jnsgd1na2vs0mg"},{"bike_id":"2f25180c-d604-427d-a094-e0c4d1040987","system_id":"levelo_inurba_marseille","lat":43.29263,"lon":5.38435,"is_reserved":false,"is_disabled":false,"rental_uris":{"android":"levelo://app?vid=2f25180c-d604-427d-a094-e0c4d1040987","ios":"levelo://app?vid=2f25180c-d604-427d-a094-e0c4d1040987"},"vehicle_type_id":"4","last_reported":1774031585,"current_range_meters":6800,"station_id":"ce4bh692rcd13ifvqea0","pricing_plan_id":"cebpf4jnsgd1na2vs0mg"},{"bike_id":"6f727bf4-4ec3-451f-a127-c33d75ea4a8c","system_id":"levelo_inurba_marseille","lat":43.28408,"lon":5.37546,"is_reserved":false,"is_disabled":false,"rental_uris":{"android":"levelo://app?vid=6f727bf4-4ec3-451f-a127-c33d75ea4a8c","ios":"levelo://app?vid=6f727bf4-4ec3-451f-a127-c33d75ea4a8c"},"vehicle_type_id":"4","last_reported":1774031585,"current_range_meters":7200,"station_id":"ce4bh412rcd13ifvqds0","pricing_plan_id":"cebpf4jnsgd1na2vs0mg"},{"bike_id":"f328e3b6-a38c-49fe-80e0-c552630893a5","system_id":"levelo_inurba_marseille","lat":43.22926,"lon":5.35384,"is_reserved":false,"is_disabled":false,"rental_uris":{"android":"levelo://app?vid=f328e3b6-a38c-49fe-80e0-c552630893a5","ios":"levelo://app?vid=f328e3b6-a38c-49fe-80e0-c552630893a5"},"vehicle_type_id":"4","last_reported":1774031585,"current_range_meters":7200,"station_id":"cpo3532slgdg3j2ikp40","pricing_plan_id":"cebpf4jnsgd1na2vs0mg"},{"bike_id":"53f48266-4564-420b-96ab-d243233055dc","system_id":"levelo_inurba_marseille","lat":43.28484,"lon":5.48401,"is_reserved":false,"is_disabled":false,"rental_uris":{"android":"levelo://app?vid=53f48266-4564-420b-96ab-d243233055dc","ios":"levelo://app?vid=53f48266-4564-420b-96ab-d243233055dc"},"vehicle_type_id":"4","last_reported":1774031585,"current_range_meters":7200,"station_id":"","pricing_plan_id":"cebpf4jnsgd1na2vs0mg"},{"bike_id":"ffcba4f6-ad63-4fb9-9bc9-afcd499fad99","system_id":"levelo_inurba_marseille","lat":43.29005,"lon":5.35605,"is_reserved":false,"is_disabled":false,"rental_uris":{"android":"levelo://app?vid=ffcba4f6-ad63-4fb9-9bc9-afcd499fad99","ios":"levelo://app?vid=ffcba4f6-ad63-4fb9-9bc9-afcd499fad99"},"vehicle_type_id":"4","last_reported":1774031585,"current_range_meters":7200,"station_id":"ce4bhb92rcd13ifvqen0","pricing_plan_id":"cebpf4jnsgd1na2vs0mg"},{"bike_id":"1aad3245-ee3b-4b6a-861d-2985c1b35e19","system_id":"levelo_inurba_marseille","lat":43.29563,"lon":5.38545,"is_reserved":false,"is_disabled":false,"rental_uris":{"android":"levelo://app?vid=1aad3245-ee3b-4b6a-861d-2985c1b35e19","ios":"levelo://app?vid=1aad3245-ee3b-4b6a-861d-2985c1b35e19"},"vehicle_type_id":"4","last_reported":1774031585,"current_range_meters":7200,"station_id":"ce4bgih2rcd13ifvqba0","pricing_plan_id":"cebpf4jnsgd1na2vs0mg"},{"bike_id":"c55f3fc5-5edf-4ef9-9d84-f8899b074dbb","system_id":"levelo_inurba_marseille","lat":43.28893,"lon":5.42504,"is_reserved":false,"is_disabled":false,"rental_uris":{"android":"levelo://app?vid=c55f3fc5-5edf-4ef9-9d84-f8899b074dbb","ios":"levelo://app?vid=c55f3fc5-5edf-4ef9-9d84-f8899b074dbb"},"vehicle_type_id":"4","last_reported":1774031585,"current_range_meters":7200,"station_id":"","pricing_plan_id":"cebpf4jnsgd1na2vs0mg"},{"bike_id":"cba966e9-0233-400d-aa62-3c1dbd128d8a","system_id":"levelo_inurba_marseille","lat":43.29042,"lon":5.3864,"is_reserved":false,"is_disabled":false,"rental_uris":{"android":"levelo://app?vid=cba966e9-0233-400d-aa62-3c1dbd128d8a","ios":"levelo://app?vid=cba966e9-0233-400d-aa62-3c1dbd128d8a"},"vehicle_type_id":"4","last_reported":1774031585,"current_range_meters":7200,"station_id":"ce4bh4p2rcd13ifvqe0g","pricing_plan_id":"cebpf4jnsgd1na2vs0mg"},{"bike_id":"8f681e17-0402-4518-8c3e-f805b0529aa2","system_id":"levelo_inurba_marseille","lat":43.29284,"lon":5.36852,"is_reserved":false,"is_disabled":false,"rental_uris":{"android":"levelo://app?vid=8f681e17-0402-4518-8c3e-f805b0529aa2","ios":"levelo://app?vid=8f681e17-0402-4518-8c3e-f805b0529aa2"},"vehicle_type_id":"4","last_reported":1774031585,"current_range_meters":7200,"station_id":"ce4bhbp2rcd13ifvqesg","pricing_plan_id":"cebpf4jnsgd1na2vs0mg"},{"bike_id":"18d0ef5d-db57-4931-8aae-464fa9d565c9","system_id":"levelo_inurba_marseille","lat":43.30328,"lon":5.40446,"is_reserved":false,"is_disabled":false,"rental_uris":{"android":"levelo://app?vid=18d0ef5d-db57-4931-8aae-464fa9d565c9","ios":"levelo://app?vid=18d0ef5d-db57-4931-8aae-464fa9d565c9"},"vehicle_type_id":"4","last_reported":1774031585,"current_range_meters":7200,"station_id":"ce4bh012rcd13ifvqd10","pricing_plan_id":"cebpf4jnsgd1na2vs0mg"},{"bike_id":"a760ca91-32fe-4a73-a28e-4b766fc942d2","system_id":"levelo_inurba_marseille","lat":43.24813,"lon":5.37491,"is_reserved":false,"is_disabled":false,"rental_uris":{"android":"levelo://app?vid=a760ca91-32fe-4a73-a28e-4b766fc942d2","ios":"levelo://app?vid=a760ca91-32fe-4a73-a28e-4b766fc942d2"},"vehicle_type_id":"4","last_reported":1774031585,"current_range_meters":7200,"station_id":"ce4bhgh2rcd13ifvqfb0","pricing_plan_id":"cebpf4jnsgd1na2vs0mg"},{"bike_id":"89ad46cf-ad84-4e5e-be57-87ac2cebe69c","system_id":"levelo_inurba_marseille","lat":43.28486,"lon":5.48381,"is_reserved":false,"is_disabled":false,"rental_uris":{"android":"levelo://app?vid=89ad46cf-ad84-4e5e-be57-87ac2cebe69c","ios":"levelo://app?vid=89ad46cf-ad84-4e5e-be57-87ac2cebe69c"},"vehicle_type_id":"4","last_reported":1774031585,"current_range_meters":7200,"station_id":"st_d3svhcjqgbts73a3dn0g","pricing_plan_id":"cebpf4jnsgd1na2vs0mg"},{"bike_id":"78a83095-2fd7-44f5-86ea-75314b34d3ca","system_id":"levelo_inurba_marseille","lat":43.28444,"lon":5.3921,"is_reserved":false,"is_disabled":false,"rental_uris":{"android":"levelo://app?vid=78a83095-2fd7-44f5-86ea-75314b34d3ca","ios":"levelo://app?vid=78a83095-2fd7-44f5-86ea-75314b34d3ca"},"vehicle_type_id":"4","last_reported":1774031585,"current_range_meters":7200,"station_id":"ce4bhoh2rcd13ifvqh5g","pricing_plan_id":"cebpf4jnsgd1na2vs0mg"},{"bike_id":"035a1fec-9730-48c8-a3aa-81a5b63a5851","system_id":"levelo_inurba_marseille","lat":43.28038,"lon":5.36949,"is_reserved":false,"is_disabled":false,"rental_uris":{"android":"levelo://app?vid=035a1fec-9730-48c8-a3aa-81a5b63a5851","ios":"levelo://app?vid=035a1fec-9730-48c8-a3aa-81a5b63a5851"},"vehicle_type_id":"4","last_reported":1774031585,"current_range_meters":7200,"station_id":"ce4bha12rcd13ifvqef0","pricing_plan_id":"cebpf4jnsgd1na2vs0mg"},{"bike_id":"c2e405fa-b9da-4633-aedf-12ed0b765a12","system_id":"levelo_inurba_marseille","lat":43.2953,"lon":5.39052,"is_reserved":false,"is_disabled":false,"rental_uris":{"android":"levelo://app?vid=c2e405fa-b9da-4633-aedf-12ed0b765a12","ios":"levelo://app?vid=c2e405fa-b9da-4633-aedf-12ed0b765a12"},"vehicle_type_id":"4","last_reported":1774031585,"current_range_meters":7200,"station_id":"ce4bh3p2rcd13ifvqdp0","pricing_plan_id":"cebpf4jnsgd1na2vs0mg"},{"bike_id":"5df306d9-ff78-44c1-8bc6-90359bc251f8","system_id":"levelo_inurba_marseille","lat":43.29558,"lon":5.3855,"is_reserved":false,"is_disabled":false,"rental_uris":{"android":"levelo://app?vid=5df306d9-ff78-44c1-8bc6-90359bc251f8","ios":"levelo://app?vid=5df306d9-ff78-44c1-8bc6-90359bc251f8"},"vehicle_type_id":"4","last_reported":1774031585,"current_range_meters":7200,"station_id":"ce4bgih2rcd13ifvqba0","pricing_plan_id":"cebpf4jnsgd1na2vs0mg"},{"bike_id":"7cbe7010-c1d7-47cf-9f80-d9fbe6072fe3","system_id":"levelo_inurba_marseille","lat":43.29539,"lon":5.38555,"is_reserved":false,"is_disabled":false,"rental_uris":{"android":"levelo://app?vid=7cbe7010-c1d7-47cf-9f80-d9fbe6072fe3","ios":"levelo://app?vid=7cbe7010-c1d7-47cf-9f80-d9fbe6072fe3"},"vehicle_type_id":"4","last_reported":1774031585,"current_range_meters":7200,"station_id":"ce4bgih2rcd13ifvqba0","pricing_plan_id":"cebpf4jnsgd1na2vs0mg"},{"bike_id":"d63351fb-ebd3-419e-adaf-5e649951d482","system_id":"levelo_inurba_marseille","lat":43.29198,"lon":5.39344,"is_reserved":false,"is_disabled":false,"rental_uris":{"android":"levelo://app?vid=d63351fb-ebd3-419e-adaf-5e649951d482","ios":"levelo://app?vid=d63351fb-ebd3-419e-adaf-5e649951d482"},"vehicle_type_id":"4","last_reported":1774031585,"current_range_meters":7200,"station_id":"ce4bh192rcd13ifvqdd0","pricing_plan_id":"cebpf4jnsgd1na2vs0mg"},{"bike_id":"9ec1942c-b173-4801-9f27-3e6493805e2b","system_id":"levelo_inurba_marseille","lat":43.24646,"lon":5.38862,"is_reserved":false,"is_disabled":false,"rental_uris":{"android":"levelo://app?vid=9ec1942c-b173-4801-9f27-3e6493805e2b","ios":"levelo://app?vid=9ec1942c-b173-4801-9f27-3e6493805e2b"},"vehicle_type_id":"4","last_reported":1774031585,"current_range_meters":8000,"station_id":"ce4bhg12rcd13ifvqf60","pricing_plan_id":"cebpf4jnsgd1na2vs0mg"},{"bike_id":"96904aa0-8b1e-49ec-9fca-3e4d9909f046","system_id":"levelo_inurba_marseille","lat":43.27045,"lon":5.40018,"is_reserved":false,"is_disabled":false,"rental_uris":{"android":"levelo://app?vid=96904aa0-8b1e-49ec-9fca-3e4d9909f046","ios":"levelo://app?vid=96904aa0-8b1e-49ec-9fca-3e4d9909f046"},"vehicle_type_id":"4","last_reported":1774031585,"current_range_meters":8000,"station_id":"","pricing_plan_id":"cebpf4jnsgd1na2vs0mg"},{"bike_id":"0f699794-8202-4161-a052-1d39a341c5fa","system_id":"levelo_inurba_marseille","lat":43.31171,"lon":5.38702,"is_reserved":false,"is_disabled":true,"rental_uris":{"android":"levelo://app?vid=0f699794-8202-4161-a052-1d39a341c5fa","ios":"levelo://app?vid=0f699794-8202-4161-a052-1d39a341c5fa"},"vehicle_type_id":"4","last_reported":1774031585,"current_range_meters":8000,"station_id":"ce4bgv12rcd13ifvqcp0","pricing_plan_id":"cebpf4jnsgd1na2vs0mg"},{"bike_id":"060a17fc-c9dc-4a7f-9c4a-c3774a52d50f","system_id":"levelo_inurba_marseille","lat":43.29519,"lon":5.37505,"is_reserved":false,"is_disabled":false,"rental_uris":{"android":"levelo://app?vid=060a17fc-c9dc-4a7f-9c4a-c3774a52d50f","ios":"levelo://app?vid=060a17fc-c9dc-4a7f-9c4a-c3774a52d50f"},"vehicle_type_id":"4","last_reported":1774031585,"current_range_meters":8000,"station_id":"ce4bgkp2rcd13ifvqbmg","pricing_plan_id":"cebpf4jnsgd1na2vs0mg"},{"bike_id":"4b1c4f66-cbb6-4f68-a18e-b39d87334cfe","system_id":"levelo_inurba_marseille","lat":43.30139,"lon":5.39867,"is_reserved":false,"is_disabled":false,"rental_uris":{"android":"levelo://app?vid=4b1c4f66-cbb6-4f68-a18e-b39d87334cfe","ios":"levelo://app?vid=4b1c4f66-cbb6-4f68-a18e-b39d87334cfe"},"vehicle_type_id":"4","last_reported":1774031585,"current_range_meters":8000,"station_id":"ce4bh0h2rcd13ifvqd40","pricing_plan_id":"cebpf4jnsgd1na2vs0mg"},{"bike_id":"0a9fc5e9-a69a-4cde-b25e-2a35e9072ba1","system_id":"levelo_inurba_marseille","lat":43.29507,"lon":5.37521,"is_reserved":false,"is_disabled":false,"rental_uris":{"android":"levelo://app?vid=0a9fc5e9-a69a-4cde-b25e-2a35e9072ba1","ios":"levelo://app?vid=0a9fc5e9-a69a-4cde-b25e-2a35e9072ba1"},"vehicle_type_id":"4","last_reported":1774031585,"current_range_meters":8000,"station_id":"ce4bgkp2rcd13ifvqbmg","pricing_plan_id":"cebpf4jnsgd1na2vs0mg"},{"bike_id":"79ac0fe3-1f7a-4bd2-97bd-484a82f87e71","system_id":"levelo_inurba_marseille","lat":43.276695,"lon":5.388682,"is_reserved":false,"is_disabled":false,"rental_uris":{"android":"levelo://app?vid=79ac0fe3-1f7a-4bd2-97bd-484a82f87e71","ios":"levelo://app?vid=79ac0fe3-1f7a-4bd2-97bd-484a82f87e71"},"vehicle_type_id":"4","last_reported":1774031585,"current_range_meters":8000,"station_id":"ce4bhi12rcd13ifvqfo0","pricing_plan_id":"cebpf4jnsgd1na2vs0mg"},{"bike_id":"8397fabc-2aa8-471a-befe-90c3f55f2ce9","system_id":"levelo_inurba_marseille","lat":43.29179,"lon":5.37172,"is_reserved":false,"is_disabled":false,"rental_uris":{"android":"levelo://app?vid=8397fabc-2aa8-471a-befe-90c3f55f2ce9","ios":"levelo://app?vid=8397fabc-2aa8-471a-befe-90c3f55f2ce9"},"vehicle_type_id":"4","last_reported":1774031585,"current_range_meters":8000,"station_id":"ce4bha92rcd13ifvqeh0","pricing_plan_id":"cebpf4jnsgd1na2vs0mg"},{"bike_id":"57189caf-3d75-4667-a6ae-d939678c9866","system_id":"levelo_inurba_marseille","lat":43.29898,"lon":5.39734,"is_reserved":false,"is_disabled":false,"rental_uris":{"android":"levelo://app?vid=57189caf-3d75-4667-a6ae-d939678c9866","ios":"levelo://app?vid=57189caf-3d75-4667-a6ae-d939678c9866"},"vehicle_type_id":"4","last_reported":1774031585,"current_range_meters":8000,"station_id":"ce4bh0h2rcd13ifvqd50","pricing_plan_id":"cebpf4jnsgd1na2vs0mg"},{"bike_id":"6d336a2b-b060-4c36-8cdd-b11504a22635","system_id":"levelo_inurba_marseille","lat":43.26038,"lon":5.37574,"is_reserved":false,"is_disabled":false,"rental_uris":{"android":"levelo://app?vid=6d336a2b-b060-4c36-8cdd-b11504a22635","ios":"levelo://app?vid=6d336a2b-b060-4c36-8cdd-b11504a22635"},"vehicle_type_id":"4","last_reported":1774031585,"current_range_meters":8000,"station_id":"ce4bhgh2rcd13ifvqfa0","pricing_plan_id":"cebpf4jnsgd1na2vs0mg"},{"bike_id":"920c644e-a5ef-4253-a82e-47ff8bbac57e","system_id":"levelo_inurba_marseille","lat":43.2874,"lon":5.37959,"is_reserved":false,"is_disabled":false,"rental_uris":{"android":"levelo://app?vid=920c644e-a5ef-4253-a82e-47ff8bbac57e","ios":"levelo://app?vid=920c644e-a5ef-4253-a82e-47ff8bbac57e"},"vehicle_type_id":"4","last_reported":1774031585,"current_range_meters":8000,"station_id":"ce4bh9p2rcd13ifvqec0","pricing_plan_id":"cebpf4jnsgd1na2vs0mg"},{"bike_id":"edcea4c6-e472-4c36-a3d2-19433e4a8f46","system_id":"levelo_inurba_marseille","lat":43.31277,"lon":5.40175,"is_reserved":false,"is_disabled":false,"rental_uris":{"android":"levelo://app?vid=edcea4c6-e472-4c36-a3d2-19433e4a8f46","ios":"levelo://app?vid=edcea4c6-e472-4c36-a3d2-19433e4a8f46"},"vehicle_type_id":"4","last_reported":1774031585,"current_range_meters":8000,"station_id":"ce4bh092rcd13ifvqd30","pricing_plan_id":"cebpf4jnsgd1na2vs0mg"},{"bike_id":"7fa64d84-cd92-4f02-a79d-c348b129b15f","system_id":"levelo_inurba_marseille","lat":43.24169,"lon":5.36414,"is_reserved":false,"is_disabled":false,"rental_uris":{"android":"levelo://app?vid=7fa64d84-cd92-4f02-a79d-c348b129b15f","ios":"levelo://app?vid=7fa64d84-cd92-4f02-a79d-c348b129b15f"},"vehicle_type_id":"4","last_reported":1774031585,"current_range_meters":8000,"station_id":"cpo36qri1sfpv3e86is0","pricing_plan_id":"cebpf4jnsgd1na2vs0mg"},{"bike_id":"6d4bd257-781f-429c-84c0-12f4b393c651","system_id":"levelo_inurba_marseille","lat":43.2768,"lon":5.3889,"is_reserved":false,"is_disabled":false,"rental_uris":{"android":"levelo://app?vid=6d4bd257-781f-429c-84c0-12f4b393c651","ios":"levelo://app?vid=6d4bd257-781f-429c-84c0-12f4b393c651"},"vehicle_type_id":"4","last_reported":1774031585,"current_range_meters":8000,"station_id":"ce4bhi12rcd13ifvqfo0","pricing_plan_id":"cebpf4jnsgd1na2vs0mg"},{"bike_id":"960c32f4-037f-4275-a1f4-877cd5ca2bcd","system_id":"levelo_inurba_marseille","lat":43.30544,"lon":5.38422,"is_reserved":false,"is_disabled":false,"rental_uris":{"android":"levelo://app?vid=960c32f4-037f-4275-a1f4-877cd5ca2bcd","ios":"levelo://app?vid=960c32f4-037f-4275-a1f4-877cd5ca2bcd"},"vehicle_type_id":"4","last_reported":1774031585,"current_range_meters":8000,"station_id":"ce4bgg92rcd13ifvqb30","pricing_plan_id":"cebpf4jnsgd1na2vs0mg"},{"bike_id":"83675f3e-fe90-4bf0-8b69-f095eac9e73c","system_id":"levelo_inurba_marseille","lat":43.27071,"lon":5.42285,"is_reserved":false,"is_disabled":false,"rental_uris":{"android":"levelo://app?vid=83675f3e-fe90-4bf0-8b69-f095eac9e73c","ios":"levelo://app?vid=83675f3e-fe90-4bf0-8b69-f095eac9e73c"},"vehicle_type_id":"4","last_reported":1774031585,"current_range_meters":8000,"station_id":"ce4bhk92rcd13ifvqgb0","pricing_plan_id":"cebpf4jnsgd1na2vs0mg"},{"bike_id":"ab8c0f9b-ef97-4ee0-a161-321e4c0864a3","system_id":"levelo_inurba_marseille","lat":43.2417,"lon":5.36401,"is_reserved":false,"is_disabled":false,"rental_uris":{"android":"levelo://app?vid=ab8c0f9b-ef97-4ee0-a161-321e4c0864a3","ios":"levelo://app?vid=ab8c0f9b-ef97-4ee0-a161-321e4c0864a3"},"vehicle_type_id":"4","last_reported":1774031585,"current_range_meters":8000,"station_id":"cpo36qri1sfpv3e86is0","pricing_plan_id":"cebpf4jnsgd1na2vs0mg"},{"bike_id":"912e5f30-2e0b-48a9-85db-a984611241c9","system_id":"levelo_inurba_marseille","lat":43.29839,"lon":5.44098,"is_reserved":false,"is_disabled":false,"rental_uris":{"android":"levelo://app?vid=912e5f30-2e0b-48a9-85db-a984611241c9","ios":"levelo://app?vid=912e5f30-2e0b-48a9-85db-a984611241c9"},"vehicle_type_id":"4","last_reported":1774031585,"current_range_meters":8400,"station_id":"","pricing_plan_id":"cebpf4jnsgd1na2vs0mg"},{"bike_id":"79a307da-4207-49e9-90cc-5095e96d4e6c","system_id":"levelo_inurba_marseille","lat":43.30928,"lon":5.40145,"is_reserved":false,"is_disabled":false,"rental_uris":{"android":"levelo://app?vid=79a307da-4207-49e9-90cc-5095e96d4e6c","ios":"levelo://app?vid=79a307da-4207-49e9-90cc-5095e96d4e6c"},"vehicle_type_id":"4","last_reported":1774031585,"current_range_meters":8400,"station_id":"ce4bgvp2rcd13ifvqct0","pricing_plan_id":"cebpf4jnsgd1na2vs0mg"},{"bike_id":"e2420c11-4646-4145-aa2e-baedb91a43dc","system_id":"levelo_inurba_marseille","lat":43.32378,"lon":5.36767,"is_reserved":false,"is_disabled":false,"rental_uris":{"android":"levelo://app?vid=e2420c11-4646-4145-aa2e-baedb91a43dc","ios":"levelo://app?vid=e2420c11-4646-4145-aa2e-baedb91a43dc"},"vehicle_type_id":"4","last_reported":1774031585,"current_range_meters":8400,"station_id":"ce4bhsh2rcd13ifvqi2g","pricing_plan_id":"cebpf4jnsgd1na2vs0mg"},{"bike_id":"9d0750fb-ab76-4f7b-b679-23de85128f94","system_id":"levelo_inurba_marseille","lat":43.2455,"lon":5.39535,"is_reserved":false,"is_disabled":false,"rental_uris":{"android":"levelo://app?vid=9d0750fb-ab76-4f7b-b679-23de85128f94","ios":"levelo://app?vid=9d0750fb-ab76-4f7b-b679-23de85128f94"},"vehicle_type_id":"4","last_reported":1774031585,"current_range_meters":8400,"station_id":"ce4bhlp2rcd13ifvqgjg","pricing_plan_id":"cebpf4jnsgd1na2vs0mg"},{"bike_id":"f12ce399-1654-48f8-a320-211fcab6582c","system_id":"levelo_inurba_marseille","lat":43.23771,"lon":5.36649,"is_reserved":false,"is_disabled":false,"rental_uris":{"android":"levelo://app?vid=f12ce399-1654-48f8-a320-211fcab6582c","ios":"levelo://app?vid=f12ce399-1654-48f8-a320-211fcab6582c"},"vehicle_type_id":"4","last_reported":1774031585,"current_range_meters":8400,"station_id":"st_d3nk18o9ro0c73en2l3g","pricing_plan_id":"cebpf4jnsgd1na2vs0mg"},{"bike_id":"fc7fcd33-7a04-485d-9efe-8e52ccf6b49a","system_id":"levelo_inurba_marseille","lat":43.297771,"lon":5.371024,"is_reserved":false,"is_disabled":false,"rental_uris":{"android":"levelo://app?vid=fc7fcd33-7a04-485d-9efe-8e52ccf6b49a","ios":"levelo://app?vid=fc7fcd33-7a04-485d-9efe-8e52ccf6b49a"},"vehicle_type_id":"4","last_reported":1774031585,"current_range_meters":8400,"station_id":"ce4bgop2rcd13ifvqc1g","pricing_plan_id":"cebpf4jnsgd1na2vs0mg"},{"bike_id":"d00ce6b1-d263-4644-9ac8-801c3d34ac19","system_id":"levelo_inurba_marseille","lat":43.22566,"lon":5.41626,"is_reserved":false,"is_disabled":false,"rental_uris":{"android":"levelo://app?vid=d00ce6b1-d263-4644-9ac8-801c3d34ac19","ios":"levelo://app?vid=d00ce6b1-d263-4644-9ac8-801c3d34ac19"},"vehicle_type_id":"4","last_reported":1774031585,"current_range_meters":8400,"station_id":"st_d2o4gvlbi1j2169b742g","pricing_plan_id":"cebpf4jnsgd1na2vs0mg"},{"bike_id":"8648ff3d-a49d-4491-be6c-bab3f9812603","system_id":"levelo_inurba_marseille","lat":43.28305,"lon":5.43853,"is_reserved":false,"is_disabled":false,"rental_uris":{"android":"levelo://app?vid=8648ff3d-a49d-4491-be6c-bab3f9812603","ios":"levelo://app?vid=8648ff3d-a49d-4491-be6c-bab3f9812603"},"vehicle_type_id":"4","last_reported":1774031585,"current_range_meters":8400,"station_id":"","pricing_plan_id":"cebpf4jnsgd1na2vs0mg"},{"bike_id":"eea5b844-b303-4614-bdb0-ae897dd307b5","system_id":"levelo_inurba_marseille","lat":43.24828,"lon":5.37458,"is_reserved":false,"is_disabled":false,"rental_uris":{"android":"levelo://app?vid=eea5b844-b303-4614-bdb0-ae897dd307b5","ios":"levelo://app?vid=eea5b844-b303-4614-bdb0-ae897dd307b5"},"vehicle_type_id":"4","last_reported":1774031585,"current_range_meters":8400,"station_id":"ce4bhgh2rcd13ifvqfb0","pricing_plan_id":"cebpf4jnsgd1na2vs0mg"},{"bike_id":"f423ad6a-ff2f-42b0-a321-a9688a91861e","system_id":"levelo_inurba_marseille","lat":43.29262,"lon":5.38442,"is_reserved":false,"is_disabled":false,"rental_uris":{"android":"levelo://app?vid=f423ad6a-ff2f-42b0-a321-a9688a91861e","ios":"levelo://app?vid=f423ad6a-ff2f-42b0-a321-a9688a91861e"},"vehicle_type_id":"4","last_reported":1774031585,"current_range_meters":8400,"station_id":"ce4bh692rcd13ifvqea0","pricing_plan_id":"cebpf4jnsgd1na2vs0mg"},{"bike_id":"b3b3bb0b-fb2d-4490-a557-6f80b344e03f","system_id":"levelo_inurba_marseille","lat":43.28949,"lon":5.39628,"is_reserved":false,"is_disabled":true,"rental_uris":{"android":"levelo://app?vid=b3b3bb0b-fb2d-4490-a557-6f80b344e03f","ios":"levelo://app?vid=b3b3bb0b-fb2d-4490-a557-6f80b344e03f"},"vehicle_type_id":"4","last_reported":1774031585,"current_range_meters":8400,"station_id":"ce4bh3h2rcd13ifvqdn0","pricing_plan_id":"cebpf4jnsgd1na2vs0mg"},{"bike_id":"a8c8307b-e1e9-4950-a785-578e1a82f805","system_id":"levelo_inurba_marseille","lat":43.31268,"lon":5.37864,"is_reserved":false,"is_disabled":false,"rental_uris":{"android":"levelo://app?vid=a8c8307b-e1e9-4950-a785-578e1a82f805","ios":"levelo://app?vid=a8c8307b-e1e9-4950-a785-578e1a82f805"},"vehicle_type_id":"4","last_reported":1774031585,"current_range_meters":8400,"station_id":"","pricing_plan_id":"cebpf4jnsgd1na2vs0mg"},{"bike_id":"962e3e51-db50-4f61-a079-9b1c6a103eb5","system_id":"levelo_inurba_marseille","lat":43.30963,"lon":5.36814,"is_reserved":false,"is_disabled":false,"rental_uris":{"android":"levelo://app?vid=962e3e51-db50-4f61-a079-9b1c6a103eb5","ios":"levelo://app?vid=962e3e51-db50-4f61-a079-9b1c6a103eb5"},"vehicle_type_id":"4","last_reported":1774031585,"current_range_meters":8400,"station_id":"","pricing_plan_id":"cebpf4jnsgd1na2vs0mg"},{"bike_id":"897ef734-c604-4d25-93df-fd216bcee1ba","system_id":"levelo_inurba_marseille","lat":43.26809,"lon":5.40277,"is_reserved":false,"is_disabled":false,"rental_uris":{"android":"levelo://app?vid=897ef734-c604-4d25-93df-fd216bcee1ba","ios":"levelo://app?vid=897ef734-c604-4d25-93df-fd216bcee1ba"},"vehicle_type_id":"4","last_reported":1774031585,"current_range_meters":8400,"station_id":"ce501612rcd8frsf0b60","pricing_plan_id":"cebpf4jnsgd1na2vs0mg"},{"bike_id":"619b8d4c-fc96-4a20-8efc-e52a01e0f227","system_id":"levelo_inurba_marseille","lat":43.2841,"lon":5.37501,"is_reserved":false,"is_disabled":false,"rental_uris":{"android":"levelo://app?vid=619b8d4c-fc96-4a20-8efc-e52a01e0f227","ios":"levelo://app?vid=619b8d4c-fc96-4a20-8efc-e52a01e0f227"},"vehicle_type_id":"4","last_reported":1774031585,"current_range_meters":8400,"station_id":"ce4bh412rcd13ifvqds0","pricing_plan_id":"cebpf4jnsgd1na2vs0mg"},{"bike_id":"ce1b20dc-b49c-432b-bcf3-5a822030065d","system_id":"levelo_inurba_marseille","lat":43.28945,"lon":5.36642,"is_reserved":false,"is_disabled":false,"rental_uris":{"android":"levelo://app?vid=ce1b20dc-b49c-432b-bcf3-5a822030065d","ios":"levelo://app?vid=ce1b20dc-b49c-432b-bcf3-5a822030065d"},"vehicle_type_id":"4","last_reported":1774031585,"current_range_meters":8400,"station_id":"ce4bhap2rcd13ifvqek0","pricing_plan_id":"cebpf4jnsgd1na2vs0mg"},{"bike_id":"2d9e4754-9b17-40b5-bbeb-5b1c9c5bbe64","system_id":"levelo_inurba_marseille","lat":43.30141,"lon":5.38792,"is_reserved":false,"is_disabled":true,"rental_uris":{"android":"levelo://app?vid=2d9e4754-9b17-40b5-bbeb-5b1c9c5bbe64","ios":"levelo://app?vid=2d9e4754-9b17-40b5-bbeb-5b1c9c5bbe64"},"vehicle_type_id":"4","last_reported":1774031585,"current_range_meters":8400,"station_id":"ce4bghh2rcd13ifvqb60","pricing_plan_id":"cebpf4jnsgd1na2vs0mg"},{"bike_id":"9bedb971-6887-4d43-88c8-1762430f453d","system_id":"levelo_inurba_marseille","lat":43.24681,"lon":5.38163,"is_reserved":false,"is_disabled":true,"rental_uris":{"android":"levelo://app?vid=9bedb971-6887-4d43-88c8-1762430f453d","ios":"levelo://app?vid=9bedb971-6887-4d43-88c8-1762430f453d"},"vehicle_type_id":"4","last_reported":1774031585,"current_range_meters":8400,"station_id":"ce4bhih2rcd13ifvqfr0","pricing_plan_id":"cebpf4jnsgd1na2vs0mg"},{"bike_id":"38d0ee06-9f96-45df-b5cb-d251435f862c","system_id":"levelo_inurba_marseille","lat":43.265445,"lon":5.372912,"is_reserved":false,"is_disabled":false,"rental_uris":{"android":"levelo://app?vid=38d0ee06-9f96-45df-b5cb-d251435f862c","ios":"levelo://app?vid=38d0ee06-9f96-45df-b5cb-d251435f862c"},"vehicle_type_id":"4","last_reported":1774031585,"current_range_meters":8400,"station_id":"ce4bhg12rcd13ifvqf70","pricing_plan_id":"cebpf4jnsgd1na2vs0mg"},{"bike_id":"485d18ea-0249-4635-98bb-8652152de738","system_id":"levelo_inurba_marseille","lat":43.23793,"lon":5.36648,"is_reserved":false,"is_disabled":false,"rental_uris":{"android":"levelo://app?vid=485d18ea-0249-4635-98bb-8652152de738","ios":"levelo://app?vid=485d18ea-0249-4635-98bb-8652152de738"},"vehicle_type_id":"4","last_reported":1774031585,"current_range_meters":8400,"station_id":"st_d3nk18o9ro0c73en2l3g","pricing_plan_id":"cebpf4jnsgd1na2vs0mg"},{"bike_id":"c7ca3395-61a6-424a-8b4e-14bb7ddfa33a","system_id":"levelo_inurba_marseille","lat":43.30164,"lon":5.38807,"is_reserved":false,"is_disabled":true,"rental_uris":{"android":"levelo://app?vid=c7ca3395-61a6-424a-8b4e-14bb7ddfa33a","ios":"levelo://app?vid=c7ca3395-61a6-424a-8b4e-14bb7ddfa33a"},"vehicle_type_id":"4","last_reported":1774031585,"current_range_meters":8400,"station_id":"ce4bghh2rcd13ifvqb60","pricing_plan_id":"cebpf4jnsgd1na2vs0mg"},{"bike_id":"fa225d4c-b481-4eae-a4d6-4234063591e0","system_id":"levelo_inurba_marseille","lat":43.21212,"lon":5.35082,"is_reserved":false,"is_disabled":false,"rental_uris":{"android":"levelo://app?vid=fa225d4c-b481-4eae-a4d6-4234063591e0","ios":"levelo://app?vid=fa225d4c-b481-4eae-a4d6-4234063591e0"},"vehicle_type_id":"4","last_reported":1774031585,"current_range_meters":8400,"station_id":"st_cvj6sg6p6f1abm77japg","pricing_plan_id":"cebpf4jnsgd1na2vs0mg"},{"bike_id":"fb38c320-7bfa-4883-9f25-8e474740573e","system_id":"levelo_inurba_marseille","lat":43.30589,"lon":5.39361,"is_reserved":false,"is_disabled":false,"rental_uris":{"android":"levelo://app?vid=fb38c320-7bfa-4883-9f25-8e474740573e","ios":"levelo://app?vid=fb38c320-7bfa-4883-9f25-8e474740573e"},"vehicle_type_id":"4","last_reported":1774031585,"current_range_meters":8400,"station_id":"ce4bh0p2rcd13ifvqd80","pricing_plan_id":"cebpf4jnsgd1na2vs0mg"},{"bike_id":"0c744d67-74b3-4bed-8fa1-274d8c3afbea","system_id":"levelo_inurba_marseille","lat":43.23796,"lon":5.36641,"is_reserved":false,"is_disabled":false,"rental_uris":{"android":"levelo://app?vid=0c744d67-74b3-4bed-8fa1-274d8c3afbea","ios":"levelo://app?vid=0c744d67-74b3-4bed-8fa1-274d8c3afbea"},"vehicle_type_id":"4","last_reported":1774031585,"current_range_meters":8400,"station_id":"st_d3nk18o9ro0c73en2l3g","pricing_plan_id":"cebpf4jnsgd1na2vs0mg"},{"bike_id":"969cf7ac-e440-4c6d-9902-b2b98788c092","system_id":"levelo_inurba_marseille","lat":43.29537,"lon":5.38559,"is_reserved":false,"is_disabled":false,"rental_uris":{"android":"levelo://app?vid=969cf7ac-e440-4c6d-9902-b2b98788c092","ios":"levelo://app?vid=969cf7ac-e440-4c6d-9902-b2b98788c092"},"vehicle_type_id":"4","last_reported":1774031585,"current_range_meters":8400,"station_id":"ce4bgih2rcd13ifvqba0","pricing_plan_id":"cebpf4jnsgd1na2vs0mg"},{"bike_id":"7f69ea73-8aff-462b-a819-a0809de4b8a2","system_id":"levelo_inurba_marseille","lat":43.30543,"lon":5.36544,"is_reserved":false,"is_disabled":false,"rental_uris":{"android":"levelo://app?vid=7f69ea73-8aff-462b-a819-a0809de4b8a2","ios":"levelo://app?vid=7f69ea73-8aff-462b-a819-a0809de4b8a2"},"vehicle_type_id":"4","last_reported":1774031585,"current_range_meters":8800,"station_id":"ce4bgs12rcd13ifvqcag","pricing_plan_id":"cebpf4jnsgd1na2vs0mg"},{"bike_id":"2c913924-00e9-480e-a3c4-47dbeedc7cbd","system_id":"levelo_inurba_marseille","lat":43.2926,"lon":5.38454,"is_reserved":false,"is_disabled":false,"rental_uris":{"android":"levelo://app?vid=2c913924-00e9-480e-a3c4-47dbeedc7cbd","ios":"levelo://app?vid=2c913924-00e9-480e-a3c4-47dbeedc7cbd"},"vehicle_type_id":"4","last_reported":1774031585,"current_range_meters":8800,"station_id":"ce4bh692rcd13ifvqea0","pricing_plan_id":"cebpf4jnsgd1na2vs0mg"},