{"last_updated":1762762612,"ttl":60,"version":"2.2","data":{"bikes":[{"bike_id":"51c66028-413a-400d-a516-9414c9ea8fad","system_id":"levelo_inurba_marseille","lat":43.303332,"lon":5.40429,"is_reserved":false,"is_disabled":true,"rental_uris":{"android":"levelo://app?vid=51c66028-413a-400d-a516-9414c9ea8fad","ios":"levelo://app?vid=51c66028-413a-400d-a516-9414c9ea8fad"},"vehicle_type_id":"4","last_reported":1762762613,"current_range_meters":2800,"station_id":"ce4bh012rcd13ifvqd10","pricing_plan_id":"cebpf4jnsgd1na2vs0mg"},{"bike_id":"c3d92383-a21a-4257-84a1-4edbe4f24ff9","system_id":"levelo_inurba_marseille","lat":43.26494,"lon":5.40953,"is_reserved":false,"is_disabled":false,"rental_uris":{"android":"levelo://app?vid=c3d92383-a21a-4257-84a1-4edbe4f24ff9","ios":"levelo://app?vid=c3d92383-a21a-4257-84a1-4edbe4f24ff9"},"vehicle_type_id":"4","last_reported":1762762613,"current_range_meters":2800,"station_id":"","pricing_plan_id":"cebpf4jnsgd1na2vs0mg"},{"bike_id":"10171d69-98cc-4e26-be6a-126e272aaa1e","system_id":"levelo_inurba_marseille","lat":43.3008,"lon":5.3908,"is_reserved":false,"is_disabled":false,"rental_uris":{"android":"levelo://app?vid=10171d69-98cc-4e26-be6a-126e272aaa1e","ios":"levelo://app?vid=10171d69-98cc-4e26-be6a-126e272aaa1e"},"vehicle_type_id":"4","last_reported":1762762613,"current_range_meters":2800,"station_id":"ce4bh192rcd13ifvqdb0","pricing_plan_id":"cebpf4jnsgd1na2vs0mg"},{"bike_id":"9f611ac1-6f6a-4437-9025-ea87f35606a4","system_id":"levelo_inurba_marseille","lat":43.28536,"lon":5.37803,"is_reserved":false,"is_disabled":false,"rental_uris":{"android":"levelo://app?vid=9f611ac1-6f6a-4437-9025-ea87f35606a4","ios":"levelo://app?vid=9f611ac1-6f6a-4437-9025-ea87f35606a4"},"vehicle_type_id":"4","last_reported":1762762613,"current_range_meters":3200,"station_id":"","pricing_plan_id":"cebpf4jnsgd1na2vs0mg"},{"bike_id":"04f6e0bb-dbec-4a8f-ad51-3913dfd8663d","system_id":"levelo_inurba_marseille","lat":43.29818,"lon":5.38781,"is_reserved":false,"is_disabled":false,"rental_uris":{"android":"levelo://app?vid=04f6e0bb-dbec-4a8f-ad51-3913dfd8663d","ios":"levelo://app?vid=04f6e0bb-dbec-4a8f-ad51-3913dfd8663d"},"vehicle_type_id":"4","last_reported":1762762613,"current_range_meters":3200,"station_id":"","pricing_plan_id":"cebpf4jnsgd1na2vs0mg"},{"bike_id":"5794bf14-58c8-4b0e-96f2-accbf36c9ffc","system_id":"levelo_inurba_marseille","lat":43.27814,"lon":5.40719,"is_reserved":false,"is_disabled":false,"rental_uris":{"android":"levelo://app?vid=5794bf14-58c8-4b0e-96f2-accbf36c9ffc","ios":"levelo://app?vid=5794bf14-58c8-4b0e-96f2-accbf36c9ffc"},"vehicle_type_id":"4","last_reported":1762762613,"current_range_meters":3200,"station_id":"ce4bhnh2rcd13ifvqgtg","pricing_plan_id":"cebpf4jnsgd1na2vs0mg"},{"bike_id":"f6a9555e-a2c8-427e-8a3e-5a883338c243","system_id":"levelo_inurba_marseille","lat":43.28859,"lon":5.42513,"is_reserved":false,"is_disabled":false,"rental_uris":{"android":"levelo://app?vid=f6a9555e-a2c8-427e-8a3e-5a883338c243","ios":"levelo://app?vid=f6a9555e-a2c8-427e-8a3e-5a883338c243"},"vehicle_type_id":"4","last_reported":1762762613,"current_range_meters":3200,"station_id":"st_d3b462108ojc7389ooeg","pricing_plan_id":"cebpf4jnsgd1na2vs0mg"},{"bike_id":"382f597e-181c-4839-b1de-04339df9aa55","system_id":"levelo_inurba_marseille","lat":43.268062,"lon":5.402527,"is_reserved":false,"is_disabled":true,"rental_uris":{"android":"levelo://app?vid=382f597e-181c-4839-b1de-04339df9aa55","ios":"levelo://app?vid=382f597e-181c-4839-b1de-04339df9aa55"},"vehicle_type_id":"4","last_reported":1762762613,"current_range_meters":3600,"station_id":"ce501612rcd8frsf0b60","pricing_plan_id":"cebpf4jnsgd1na2vs0mg"},{"bike_id":"9dda5635-a624-436d-9b12-22fb00320230","system_id":"levelo_inurba_marseille","lat":43.29322,"lon":5.37155,"is_reserved":false,"is_disabled":false,"rental_uris":{"android":"levelo://app?vid=9dda5635-a624-436d-9b12-22fb00320230","ios":"levelo://app?vid=9dda5635-a624-436d-9b12-22fb00320230"},"vehicle_type_id":"4","last_reported":1762762613,"current_range_meters":3600,"station_id":"","pricing_plan_id":"cebpf4jnsgd1na2vs0mg"},{"bike_id":"7aa5398d-fb58-419e-b604-8c3055eaf324","system_id":"levelo_inurba_marseille","lat":43.272127,"lon":5.391848,"is_reserved":false,"is_disabled":false,"rental_uris":{"android":"levelo://app?vid=7aa5398d-fb58-419e-b604-8c3055eaf324","ios":"levelo://app?vid=7aa5398d-fb58-419e-b604-8c3055eaf324"},"vehicle_type_id":"4","last_reported":1762762613,"current_range_meters":3600,"station_id":"","pricing_plan_id":"cebpf4jnsgd1na2vs0mg"},{"bike_id":"df1d4be3-20d8-48d4-ad39-f9d7e56e86ae","system_id":"levelo_inurba_marseille","lat":43.24173,"lon":5.39731,"is_reserved":false,"is_disabled":false,"rental_uris":{"android":"levelo://app?vid=df1d4be3-20d8-48d4-ad39-f9d7e56e86ae","ios":"levelo://app?vid=df1d4be3-20d8-48d4-ad39-f9d7e56e86ae"},"vehicle_type_id":"4","last_reported":1762762613,"current_range_meters":3600,"station_id":"ce4bhn12rcd13ifvqgpg","pricing_plan_id":"cebpf4jnsgd1na2vs0mg"},{"bike_id":"ee1257fd-c289-41c6-a671-59dbd7e08722","system_id":"levelo_inurba_marseille","lat":43.31278,"lon":5.40163,"is_reserved":false,"is_disabled":false,"rental_uris":{"android":"levelo://app?vid=ee1257fd-c289-41c6-a671-59dbd7e08722","ios":"levelo://app?vid=ee1257fd-c289-41c6-a671-59dbd7e08722"},"vehicle_type_id":"4","last_reported":1762762613,"current_range_meters":4000,"station_id":"ce4bh092rcd13ifvqd30","pricing_plan_id":"cebpf4jnsgd1na2vs0mg"},{"bike_id":"21e712a5-2ab0-4bee-961d-a1023862329d","system_id":"levelo_inurba_marseille","lat":43.27668,"lon":5.38878,"is_reserved":false,"is_disabled":false,"rental_uris":{"android":"levelo://app?vid=21e712a5-2ab0-4bee-961d-a1023862329d","ios":"levelo://app?vid=21e712a5-2ab0-4bee-961d-a1023862329d"},"vehicle_type_id":"4","last_reported":1762762613,"current_range_meters":4000,"station_id":"ce4bhi12rcd13ifvqfo0","pricing_plan_id":"cebpf4jnsgd1na2vs0mg"},{"bike_id":"8040d437-b793-4c7c-83dd-8a60b4a68d3a","system_id":"levelo_inurba_marseille","lat":43.259323,"lon":5.409168,"is_reserved":false,"is_disabled":true,"rental_uris":{"android":"levelo://app?vid=8040d437-b793-4c7c-83dd-8a60b4a68d3a","ios":"levelo://app?vid=8040d437-b793-4c7c-83dd-8a60b4a68d3a"},"vehicle_type_id":"4","last_reported":1762762613,"current_range_meters":4000,"station_id":"ce4bhm92rcd13ifvqglg","pricing_plan_id":"cebpf4jnsgd1na2vs0mg"},{"bike_id":"e0cf47d1-54d4-491f-9bd9-e073ab658973","system_id":"levelo_inurba_marseille","lat":43.26212,"lon":5.37443,"is_reserved":false,"is_disabled":false,"rental_uris":{"android":"levelo://app?vid=e0cf47d1-54d4-491f-9bd9-e073ab658973","ios":"levelo://app?vid=e0cf47d1-54d4-491f-9bd9-e073ab658973"},"vehicle_type_id":"4","last_reported":1762762613,"current_range_meters":4000,"station_id":"ce4bhgp2rcd13ifvqfc0","pricing_plan_id":"cebpf4jnsgd1na2vs0mg"},{"bike_id":"3b294fa9-3f9f-4381-a2a8-e3592d375a68","system_id":"levelo_inurba_marseille","lat":43.266996,"lon":5.396944,"is_reserved":false,"is_disabled":false,"rental_uris":{"android":"levelo://app?vid=3b294fa9-3f9f-4381-a2a8-e3592d375a68","ios":"levelo://app?vid=3b294fa9-3f9f-4381-a2a8-e3592d375a68"},"vehicle_type_id":"4","last_reported":1762762613,"current_range_meters":4000,"station_id":"","pricing_plan_id":"cebpf4jnsgd1na2vs0mg"},{"bike_id":"910cc3ae-7ba4-48e5-a244-931e2df10a06","system_id":"levelo_inurba_marseille","lat":43.271021,"lon":5.39278,"is_reserved":false,"is_disabled":false,"rental_uris":{"android":"levelo://app?vid=910cc3ae-7ba4-48e5-a244-931e2df10a06","ios":"levelo://app?vid=910cc3ae-7ba4-48e5-a244-931e2df10a06"},"vehicle_type_id":"4","last_reported":1762762613,"current_range_meters":4000,"station_id":"","pricing_plan_id":"cebpf4jnsgd1na2vs0mg"},{"bike_id":"78b4c311-b3d0-4884-b0da-6082785efb0e","system_id":"levelo_inurba_marseille","lat":43.28475,"lon":5.48516,"is_reserved":false,"is_disabled":false,"rental_uris":{"android":"levelo://app?vid=78b4c311-b3d0-4884-b0da-6082785efb0e","ios":"levelo://app?vid=78b4c311-b3d0-4884-b0da-6082785efb0e"},"vehicle_type_id":"4","last_reported":1762762613,"current_range_meters":4400,"station_id":"st_d3svhcjqgbts73a3dn0g","pricing_plan_id":"cebpf4jnsgd1na2vs0mg"},{"bike_id":"321d43c2-a97c-419e-a110-a172b4ee23e9","system_id":"levelo_inurba_marseille","lat":43.26151,"lon":5.41775,"is_reserved":false,"is_disabled":false,"rental_uris":{"android":"levelo://app?vid=321d43c2-a97c-419e-a110-a172b4ee23e9","ios":"levelo://app?vid=321d43c2-a97c-419e-a110-a172b4ee23e9"},"vehicle_type_id":"4","last_reported":1762762613,"current_range_meters":4400,"station_id":"","pricing_plan_id":"cebpf4jnsgd1na2vs0mg"},{"bike_id":"063d8ea3-eac1-4d86-84b9-a0393ac5022f","system_id":"levelo_inurba_marseille","lat":43.28303,"lon":5.39015,"is_reserved":false,"is_disabled":true,"rental_uris":{"android":"levelo://app?vid=063d8ea3-eac1-4d86-84b9-a0393ac5022f","ios":"levelo://app?vid=063d8ea3-eac1-4d86-84b9-a0393ac5022f"},"vehicle_type_id":"4","last_reported":1762762613,"current_range_meters":4400,"station_id":"","pricing_plan_id":"cebpf4jnsgd1na2vs0mg"},{"bike_id":"c844113e-14a6-4a8e-888e-1422d895e633","system_id":"levelo_inurba_marseille","lat":43.259407,"lon":5.40901,"is_reserved":false,"is_disabled":false,"rental_uris":{"android":"levelo://app?vid=c844113e-14a6-4a8e-888e-1422d895e633","ios":"levelo://app?vid=c844113e-14a6-4a8e-888e-1422d895e633"},"vehicle_type_id":"4","last_reported":1762762613,"current_range_meters":4400,"station_id":"ce4bhm92rcd13ifvqglg","pricing_plan_id":"cebpf4jnsgd1na2vs0mg"},{"bike_id":"04cf57bc-d1c0-4aff-bcb5-d0ae97c6c70c","system_id":"levelo_inurba_marseille","lat":43.30422,"lon":5.39755,"is_reserved":false,"is_disabled":false,"rental_uris":{"android":"levelo://app?vid=04cf57bc-d1c0-4aff-bcb5-d0ae97c6c70c","ios":"levelo://app?vid=04cf57bc-d1c0-4aff-bcb5-d0ae97c6c70c"},"vehicle_type_id":"4","last_reported":1762762613,"current_range_meters":4400,"station_id":"ce4bh092rcd13ifvqd20","pricing_plan_id":"cebpf4jnsgd1na2vs0mg"},{"bike_id":"9659fce1-e2ae-4ebf-b939-38b27ae0e4e2","system_id":"levelo_inurba_marseille","lat":43.27385,"lon":5.36262,"is_reserved":false,"is_disabled":true,"rental_uris":{"android":"levelo://app?vid=9659fce1-e2ae-4ebf-b939-38b27ae0e4e2","ios":"levelo://app?vid=9659fce1-e2ae-4ebf-b939-38b27ae0e4e2"},"vehicle_type_id":"4","last_reported":1762762613,"current_range_meters":4800,"station_id":"ce4bhbh2rcd13ifvqeo0","pricing_plan_id":"cebpf4jnsgd1na2vs0mg"},{"bike_id":"6c6f65b3-0314-4d51-ad33-575d2b20e8f4","system_id":"levelo_inurba_marseille","lat":43.217408,"lon":5.346074,"is_reserved":false,"is_disabled":false,"rental_uris":{"android":"levelo://app?vid=6c6f65b3-0314-4d51-ad33-575d2b20e8f4","ios":"levelo://app?vid=6c6f65b3-0314-4d51-ad33-575d2b20e8f4"},"vehicle_type_id":"4","last_reported":1762762613,"current_range_meters":4800,"station_id":"st_cvj6r9ubvosntc0bgbag","pricing_plan_id":"cebpf4jnsgd1na2vs0mg"},{"bike_id":"7d080881-fca9-4d5a-ad93-fd6266d216ee","system_id":"levelo_inurba_marseille","lat":43.32545,"lon":5.41424,"is_reserved":false,"is_disabled":false,"rental_uris":{"android":"levelo://app?vid=7d080881-fca9-4d5a-ad93-fd6266d216ee","ios":"levelo://app?vid=7d080881-fca9-4d5a-ad93-fd6266d216ee"},"vehicle_type_id":"4","last_reported":1762762613,"current_range_meters":4800,"station_id":"ce4bhq12rcd13ifvqhhg","pricing_plan_id":"cebpf4jnsgd1na2vs0mg"},{"bike_id":"d037aee7-5bda-4713-ab2d-1623d9623914","system_id":"levelo_inurba_marseille","lat":43.293142,"lon":5.371775,"is_reserved":false,"is_disabled":false,"rental_uris":{"android":"levelo://app?vid=d037aee7-5bda-4713-ab2d-1623d9623914","ios":"levelo://app?vid=d037aee7-5bda-4713-ab2d-1623d9623914"},"vehicle_type_id":"4","last_reported":1762762613,"current_range_meters":4800,"station_id":"ce4bgh92rcd13ifvqb40","pricing_plan_id":"cebpf4jnsgd1na2vs0mg"},{"bike_id":"76fac608-1184-49da-941d-7da5b297ff5f","system_id":"levelo_inurba_marseille","lat":43.22533,"lon":5.348348,"is_reserved":false,"is_disabled":false,"rental_uris":{"android":"levelo://app?vid=76fac608-1184-49da-941d-7da5b297ff5f","ios":"levelo://app?vid=76fac608-1184-49da-941d-7da5b297ff5f"},"vehicle_type_id":"4","last_reported":1762762613,"current_range_meters":4800,"station_id":"","pricing_plan_id":"cebpf4jnsgd1na2vs0mg"},{"bike_id":"dce6c1e6-7f1a-4c82-96b4-8ba2a1930222","system_id":"levelo_inurba_marseille","lat":43.283274,"lon":5.399791,"is_reserved":false,"is_disabled":false,"rental_uris":{"android":"levelo://app?vid=dce6c1e6-7f1a-4c82-96b4-8ba2a1930222","ios":"levelo://app?vid=dce6c1e6-7f1a-4c82-96b4-8ba2a1930222"},"vehicle_type_id":"4","last_reported":1762762613,"current_range_meters":5600,"station_id":"","pricing_plan_id":"cebpf4jnsgd1na2vs0mg"},{"bike_id":"b36c7388-867a-4a7a-abfa-18d78b13beb6","system_id":"levelo_inurba_marseille","lat":43.23148,"lon":5.43713,"is_reserved":false,"is_disabled":false,"rental_uris":{"android":"levelo://app?vid=b36c7388-867a-4a7a-abfa-18d78b13beb6","ios":"levelo://app?vid=b36c7388-867a-4a7a-abfa-18d78b13beb6"},"vehicle_type_id":"4","last_reported":1762762613,"current_range_meters":5600,"station_id":"ce4bhmp2rcd13ifvqgog","pricing_plan_id":"cebpf4jnsgd1na2vs0mg"},{"bike_id":"20ddd368-cdf1-47d0-9932-7077a9a54c71","system_id":"levelo_inurba_marseille","lat":43.29576,"lon":5.36734,"is_reserved":false,"is_disabled":false,"rental_uris":{"android":"levelo://app?vid=20ddd368-cdf1-47d0-9932-7077a9a54c71","ios":"levelo://app?vid=20ddd368-cdf1-47d0-9932-7077a9a54c71"},"vehicle_type_id":"4","last_reported":1762762613,"current_range_meters":5600,"station_id":"ce4bgph2rcd13ifvqc2g","pricing_plan_id":"cebpf4jnsgd1na2vs0mg"},{"bike_id":"a98eb5f7-2b78-4fcd-8cc1-f9604b535f51","system_id":"levelo_inurba_marseille","lat":43.30203,"lon":5.39465,"is_reserved":false,"is_disabled":true,"rental_uris":{"android":"levelo://app?vid=a98eb5f7-2b78-4fcd-8cc1-f9604b535f51","ios":"levelo://app?vid=a98eb5f7-2b78-4fcd-8cc1-f9604b535f51"},"vehicle_type_id":"4","last_reported":1762762613,"current_range_meters":5600,"station_id":"ce4bh0p2rcd13ifvqd70","pricing_plan_id":"cebpf4jnsgd1na2vs0mg"},{"bike_id":"7783b54b-1a66-4445-804a-455d9b8fd9c6","system_id":"levelo_inurba_marseille","lat":43.26566,"lon":5.39001,"is_reserved":false,"is_disabled":false,"rental_uris":{"android":"levelo://app?vid=7783b54b-1a66-4445-804a-455d9b8fd9c6","ios":"levelo://app?vid=7783b54b-1a66-4445-804a-455d9b8fd9c6"},"vehicle_type_id":"4","last_reported":1762762613,"current_range_meters":5600,"station_id":"ce4bhe12rcd13ifvqf30","pricing_plan_id":"cebpf4jnsgd1na2vs0mg"},{"bike_id":"870a9ad1-db35-4ab0-bc9a-84476efc6571","system_id":"levelo_inurba_marseille","lat":43.327907,"lon":5.426615,"is_reserved":false,"is_disabled":false,"rental_uris":{"android":"levelo://app?vid=870a9ad1-db35-4ab0-bc9a-84476efc6571","ios":"levelo://app?vid=870a9ad1-db35-4ab0-bc9a-84476efc6571"},"vehicle_type_id":"4","last_reported":1762762613,"current_range_meters":5600,"station_id":"","pricing_plan_id":"cebpf4jnsgd1na2vs0mg"},{"bike_id":"4c30aba5-486a-4384-9a39-e21e45c4cf2a","system_id":"levelo_inurba_marseille","lat":43.2408,"lon":5.37745,"is_reserved":false,"is_disabled":false,"rental_uris":{"android":"levelo://app?vid=4c30aba5-486a-4384-9a39-e21e45c4cf2a","ios":"levelo://app?vid=4c30aba5-486a-4384-9a39-e21e45c4cf2a"},"vehicle_type_id":"4","last_reported":1762762613,"current_range_meters":6000,"station_id":"ce4bhnp2rcd13ifvqgvg","pricing_plan_id":"cebpf4jnsgd1na2vs0mg"},{"bike_id":"146a4ecf-ada9-4490-9f10-b2aa05b00c46","system_id":"levelo_inurba_marseille","lat":43.28727,"lon":5.37922,"is_reserved":false,"is_disabled":false,"rental_uris":{"android":"levelo://app?vid=146a4ecf-ada9-4490-9f10-b2aa05b00c46","ios":"levelo://app?vid=146a4ecf-ada9-4490-9f10-b2aa05b00c46"},"vehicle_type_id":"4","last_reported":1762762613,"current_range_meters":6000,"station_id":"ce4bh9p2rcd13ifvqec0","pricing_plan_id":"cebpf4jnsgd1na2vs0mg"},{"bike_id":"1c189e2a-7a0e-4c97-b2bb-89da3071334b","system_id":"levelo_inurba_marseille","lat":43.326578,"lon":5.409975,"is_reserved":false,"is_disabled":false,"rental_uris":{"android":"levelo://app?vid=1c189e2a-7a0e-4c97-b2bb-89da3071334b","ios":"levelo://app?vid=1c189e2a-7a0e-4c97-b2bb-89da3071334b"},"vehicle_type_id":"4","last_reported":1762762613,"current_range_meters":6000,"station_id":"ce4bhpp2rcd13ifvqhgg","pricing_plan_id":"cebpf4jnsgd1na2vs0mg"},{"bike_id":"21617623-aaed-4c9b-8499-58fd20dbe1f9","system_id":"levelo_inurba_marseille","lat":43.23153,"lon":5.43726,"is_reserved":false,"is_disabled":false,"rental_uris":{"android":"levelo://app?vid=21617623-aaed-4c9b-8499-58fd20dbe1f9","ios":"levelo://app?vid=21617623-aaed-4c9b-8499-58fd20dbe1f9"},"vehicle_type_id":"4","last_reported":1762762613,"current_range_meters":6000,"station_id":"ce4bhmp2rcd13ifvqgog","pricing_plan_id":"cebpf4jnsgd1na2vs0mg"},{"bike_id":"7590bc0c-2de2-4370-b5d1-cc885bf37520","system_id":"levelo_inurba_marseille","lat":43.29032,"lon":5.38131,"is_reserved":false,"is_disabled":false,"rental_uris":{"android":"levelo://app?vid=7590bc0c-2de2-4370-b5d1-cc885bf37520","ios":"levelo://app?vid=7590bc0c-2de2-4370-b5d1-cc885bf37520"},"vehicle_type_id":"4","last_reported":1762762613,"current_range_meters":6000,"station_id":"ce4bh4p2rcd13ifvqe1g","pricing_plan_id":"cebpf4jnsgd1na2vs0mg"},{"bike_id":"5401f6fa-11ec-4e3b-bb28-69d7f6711348","system_id":"levelo_inurba_marseille","lat":43.241093,"lon":5.377172,"is_reserved":false,"is_disabled":false,"rental_uris":{"android":"levelo://app?vid=5401f6fa-11ec-4e3b-bb28-69d7f6711348","ios":"levelo://app?vid=5401f6fa-11ec-4e3b-bb28-69d7f6711348"},"vehicle_type_id":"4","last_reported":1762762613,"current_range_meters":6000,"station_id":"","pricing_plan_id":"cebpf4jnsgd1na2vs0mg"},{"bike_id":"b05048b6-3636-4628-97b9-678771374061","system_id":"levelo_inurba_marseille","lat":43.30451,"lon":5.36744,"is_reserved":false,"is_disabled":true,"rental_uris":{"android":"levelo://app?vid=b05048b6-3636-4628-97b9-678771374061","ios":"levelo://app?vid=b05048b6-3636-4628-97b9-678771374061"},"vehicle_type_id":"4","last_reported":1762762613,"current_range_meters":6000,"station_id":"","pricing_plan_id":"cebpf4jnsgd1na2vs0mg"},{"bike_id":"d58162db-574a-44f0-b573-b59c9312a09d","system_id":"levelo_inurba_marseille","lat":43.28291,"lon":5.35087,"is_reserved":false,"is_disabled":true,"rental_uris":{"android":"levelo://app?vid=d58162db-574a-44f0-b573-b59c9312a09d","ios":"levelo://app?vid=d58162db-574a-44f0-b573-b59c9312a09d"},"vehicle_type_id":"4","last_reported":1762762613,"current_range_meters":6000,"station_id":"ce4bhbp2rcd13ifvqerg","pricing_plan_id":"cebpf4jnsgd1na2vs0mg"},{"bike_id":"8c27c03b-fa4d-4f53-a78b-9c07f2f1f500","system_id":"levelo_inurba_marseille","lat":43.293,"lon":5.42489,"is_reserved":false,"is_disabled":false,"rental_uris":{"android":"levelo://app?vid=8c27c03b-fa4d-4f53-a78b-9c07f2f1f500","ios":"levelo://app?vid=8c27c03b-fa4d-4f53-a78b-9c07f2f1f500"},"vehicle_type_id":"4","last_reported":1762762613,"current_range_meters":6400,"station_id":"","pricing_plan_id":"cebpf4jnsgd1na2vs0mg"},{"bike_id":"825a1957-d327-49da-97b3-2485c79c40e7","system_id":"levelo_inurba_marseille","lat":43.21744,"lon":5.34614,"is_reserved":false,"is_disabled":true,"rental_uris":{"android":"levelo://app?vid=825a1957-d327-49da-97b3-2485c79c40e7","ios":"levelo://app?vid=825a1957-d327-49da-97b3-2485c79c40e7"},"vehicle_type_id":"4","last_reported":1762762613,"current_range_meters":6400,"station_id":"st_cvj6r9ubvosntc0bgbag","pricing_plan_id":"cebpf4jnsgd1na2vs0mg"},{"bike_id":"7ed0a479-9eda-4f8a-8640-6477e709fa23","system_id":"levelo_inurba_marseille","lat":43.29034,"lon":5.39975,"is_reserved":false,"is_disabled":false,"rental_uris":{"android":"levelo://app?vid=7ed0a479-9eda-4f8a-8640-6477e709fa23","ios":"levelo://app?vid=7ed0a479-9eda-4f8a-8640-6477e709fa23"},"vehicle_type_id":"4","last_reported":1762762613,"current_range_meters":6400,"station_id":"ce4bh392rcd13ifvqdm0","pricing_plan_id":"cebpf4jnsgd1na2vs0mg"},{"bike_id":"88c8a3dc-b068-40ee-9a8f-06eda99e1eed","system_id":"levelo_inurba_marseille","lat":43.28666,"lon":5.38665,"is_reserved":false,"is_disabled":false,"rental_uris":{"android":"levelo://app?vid=88c8a3dc-b068-40ee-9a8f-06eda99e1eed","ios":"levelo://app?vid=88c8a3dc-b068-40ee-9a8f-06eda99e1eed"},"vehicle_type_id":"4","last_reported":1762762613,"current_range_meters":6400,"station_id":"ce4bh492rcd13ifvqdug","pricing_plan_id":"cebpf4jnsgd1na2vs0mg"},{"bike_id":"9a5c69a5-ee60-48e6-abbe-d474d0c07e77","system_id":"levelo_inurba_marseille","lat":43.31343,"lon":5.36713,"is_reserved":false,"is_disabled":false,"rental_uris":{"android":"levelo://app?vid=9a5c69a5-ee60-48e6-abbe-d474d0c07e77","ios":"levelo://app?vid=9a5c69a5-ee60-48e6-abbe-d474d0c07e77"},"vehicle_type_id":"4","last_reported":1762762613,"current_range_meters":6400,"station_id":"ce4bgr92rcd13ifvqc6g","pricing_plan_id":"cebpf4jnsgd1na2vs0mg"},{"bike_id":"03c1040d-0cd6-4d1f-add6-4023bd5b5777","system_id":"levelo_inurba_marseille","lat":43.25936,"lon":5.40904,"is_reserved":false,"is_disabled":false,"rental_uris":{"android":"levelo://app?vid=03c1040d-0cd6-4d1f-add6-4023bd5b5777","ios":"levelo://app?vid=03c1040d-0cd6-4d1f-add6-4023bd5b5777"},"vehicle_type_id":"4","last_reported":1762762613,"current_range_meters":6400,"station_id":"ce4bhm92rcd13ifvqglg","pricing_plan_id":"cebpf4jnsgd1na2vs0mg"},{"bike_id":"b13721df-9255-4c46-bdc4-eb5336572277","system_id":"levelo_inurba_marseille","lat":43.24076,"lon":5.37753,"is_reserved":false,"is_disabled":false,"rental_uris":{"android":"levelo://app?vid=b13721df-9255-4c46-bdc4-eb5336572277","ios":"levelo://app?vid=b13721df-9255-4c46-bdc4-eb5336572277"},"vehicle_type_id":"4","last_reported":1762762613,"current_range_meters":6800,"station_id":"ce4bhnp2rcd13ifvqgvg","pricing_plan_id":"cebpf4jnsgd1na2vs0mg"},{"bike_id":"3b186814-452d-4004-bc77-a46aa06525eb","system_id":"levelo_inurba_marseille","lat":43.28974,"lon":5.37847,"is_reserved":false,"is_disabled":false,"rental_uris":{"android":"levelo://app?vid=3b186814-452d-4004-bc77-a46aa06525eb","ios":"levelo://app?vid=3b186814-452d-4004-bc77-a46aa06525eb"},"vehicle_type_id":"4","last_reported":1762762613,"current_range_meters":6800,"station_id":"ce4bh9p2rcd13ifvqed0","pricing_plan_id":"cebpf4jnsgd1na2vs0mg"},{"bike_id":"15db09df-59b0-446a-87c5-e354a3319258","system_id":"levelo_inurba_marseille","lat":43.28478,"lon":5.48396,"is_reserved":false,"is_disabled":false,"rental_uris":{"android":"levelo://app?vid=15db09df-59b0-446a-87c5-e354a3319258","ios":"levelo://app?vid=15db09df-59b0-446a-87c5-e354a3319258"},"vehicle_type_id":"4","last_reported":1762762613,"current_range_meters":6800,"station_id":"","pricing_plan_id":"cebpf4jnsgd1na2vs0mg"},{"bike_id":"9edb7f00-0487-4736-8f1f-efebfd4a1868","system_id":"levelo_inurba_marseille","lat":43.26782,"lon":5.39417,"is_reserved":false,"is_disabled":false,"rental_uris":{"android":"levelo://app?vid=9edb7f00-0487-4736-8f1f-efebfd4a1868","ios":"levelo://app?vid=9edb7f00-0487-4736-8f1f-efebfd4a1868"},"vehicle_type_id":"4","last_reported":1762762613,"current_range_meters":6800,"station_id":"ce4bhh12rcd13ifvqfg0","pricing_plan_id":"cebpf4jnsgd1na2vs0mg"},{"bike_id":"6e516340-9641-4325-9cd8-46780776c1ed","system_id":"levelo_inurba_marseille","lat":43.30538,"lon":5.36702,"is_reserved":false,"is_disabled":false,"rental_uris":{"android":"levelo://app?vid=6e516340-9641-4325-9cd8-46780776c1ed","ios":"levelo://app?vid=6e516340-9641-4325-9cd8-46780776c1ed"},"vehicle_type_id":"4","last_reported":1762762613,"current_range_meters":6800,"station_id":"ce4bgrp2rcd13ifvqc9g","pricing_plan_id":"cebpf4jnsgd1na2vs0mg"},{"bike_id":"c1a8951c-0b8b-4e04-9556-ddc347871e56","system_id":"levelo_inurba_marseille","lat":43.33603,"lon":5.35449,"is_reserved":false,"is_disabled":false,"rental_uris":{"android":"levelo://app?vid=c1a8951c-0b8b-4e04-9556-ddc347871e56","ios":"levelo://app?vid=c1a8951c-0b8b-4e04-9556-ddc347871e56"},"vehicle_type_id":"4","last_reported":1762762613,"current_range_meters":6800,"station_id":"","pricing_plan_id":"cebpf4jnsgd1na2vs0mg"},{"bike_id":"682120cb-f435-4ac8-97cc-a7e9a1aac5e8","system_id":"levelo_inurba_marseille","lat":43.27069,"lon":5.42274,"is_reserved":false,"is_disabled":false,"rental_uris":{"android":"levelo://app?vid=682120cb-f435-4ac8-97cc-a7e9a1aac5e8","ios":"levelo://app?vid=682120cb-f435-4ac8-97cc-a7e9a1aac5e8"},"vehicle_type_id":"4","last_reported":1762762613,"current_range_meters":6800,"station_id":"ce4bhk92rcd13ifvqgb0","pricing_plan_id":"cebpf4jnsgd1na2vs0mg"},{"bike_id":"589f64f5-0018-4ede-bdbd-aaca0184420d","system_id":"levelo_inurba_marseille","lat":43.29036,"lon":5.3997,"is_reserved":false,"is_disabled":false,"rental_uris":{"android":"levelo://app?vid=589f64f5-0018-4ede-bdbd-aaca0184420d","ios":"levelo://app?vid=589f64f5-0018-4ede-bdbd-aaca0184420d"},"vehicle_type_id":"4","last_reported":1762762613,"current_range_meters":6800,"station_id":"ce4bh392rcd13ifvqdm0","pricing_plan_id":"cebpf4jnsgd1na2vs0mg"},{"bike_id":"eebc9f8a-254a-4286-9970-d203c936264d","system_id":"levelo_inurba_marseille","lat":43.31659,"lon":5.374745,"is_reserved":false,"is_disabled":false,"rental_uris":{"android":"levelo://app?vid=eebc9f8a-254a-4286-9970-d203c936264d","ios":"levelo://app?vid=eebc9f8a-254a-4286-9970-d203c936264d"},"vehicle_type_id":"4","last_reported":1762762613,"current_range_meters":6800,"station_id":"","pricing_plan_id":"cebpf4jnsgd1na2vs0mg"},{"bike_id":"4c9f9c32-8f71-4790-be92-8b23c1dac120","system_id":"levelo_inurba_marseille","lat":43.34142,"lon":5.40906,"is_reserved":false,"is_disabled":false,"rental_uris":{"android":"levelo://app?vid=4c9f9c32-8f71-4790-be92-8b23c1dac120","ios":"levelo://app?vid=4c9f9c32-8f71-4790-be92-8b23c1dac120"},"vehicle_type_id":"4","last_reported":1762762613,"current_range_meters":7200,"station_id":"ce4bhqh2rcd13ifvqhlg","pricing_plan_id":"cebpf4jnsgd1na2vs0mg"},{"bike_id":"a468abfc-41a1-4cf8-84ac-466c31dd44ec","system_id":"levelo_inurba_marseille","lat":43.26828,"lon":5.39026,"is_reserved":false,"is_disabled":false,"rental_uris":{"android":"levelo://app?vid=a468abfc-41a1-4cf8-84ac-466c31dd44ec","ios":"levelo://app?vid=a468abfc-41a1-4cf8-84ac-466c31dd44ec"},"vehicle_type_id":"4","last_reported":1762762613,"current_range_meters":7200,"station_id":"","pricing_plan_id":"cebpf4jnsgd1na2vs0mg"},{"bike_id":"f47ec199-1317-4e40-a550-9c8108dad808","system_id":"levelo_inurba_marseille","lat":43.27964,"lon":5.436189,"is_reserved":false,"is_disabled":false,"rental_uris":{"android":"levelo://app?vid=f47ec199-1317-4e40-a550-9c8108dad808","ios":"levelo://app?vid=f47ec199-1317-4e40-a550-9c8108dad808"},"vehicle_type_id":"4","last_reported":1762762613,"current_range_meters":7200,"station_id":"","pricing_plan_id":"cebpf4jnsgd1na2vs0mg"},{"bike_id":"21dcb4e2-bef4-415f-aa59-cd0b9e2cb07b","system_id":"levelo_inurba_marseille","lat":43.22822,"lon":5.43479,"is_reserved":false,"is_disabled":false,"rental_uris":{"android":"levelo://app?vid=21dcb4e2-bef4-415f-aa59-cd0b9e2cb07b","ios":"levelo://app?vid=21dcb4e2-bef4-415f-aa59-cd0b9e2cb07b"},"vehicle_type_id":"4","last_reported":1762762613,"current_range_meters":7200,"station_id":"","pricing_plan_id":"cebpf4jnsgd1na2vs0mg"},{"bike_id":"ad7b058b-ef21-49d1-b21b-e3e1b7db10f0","system_id":"levelo_inurba_marseille","lat":43.30948,"lon":5.39036,"is_reserved":false,"is_disabled":false,"rental_uris":{"android":"levelo://app?vid=ad7b058b-ef21-49d1-b21b-e3e1b7db10f0","ios":"levelo://app?vid=ad7b058b-ef21-49d1-b21b-e3e1b7db10f0"},"vehicle_type_id":"4","last_reported":1762762613,"current_range_meters":7200,"station_id":"ce4bgup2rcd13ifvqco0","pricing_plan_id":"cebpf4jnsgd1na2vs0mg"},{"bike_id":"a295ba32-0f8c-4040-97e9-6718d320f978","system_id":"levelo_inurba_marseille","lat":43.225311,"lon":5.348363,"is_reserved":false,"is_disabled":false,"rental_uris":{"android":"levelo://app?vid=a295ba32-0f8c-4040-97e9-6718d320f978","ios":"levelo://app?vid=a295ba32-0f8c-4040-97e9-6718d320f978"},"vehicle_type_id":"4","last_reported":1762762613,"current_range_meters":8000,"station_id":"","pricing_plan_id":"cebpf4jnsgd1na2vs0mg"},{"bike_id":"0dd9cc4b-3dda-4c20-9be2-ee1447c13276","system_id":"levelo_inurba_marseille","lat":43.29043,"lon":5.39955,"is_reserved":false,"is_disabled":false,"rental_uris":{"android":"levelo://app?vid=0dd9cc4b-3dda-4c20-9be2-ee1447c13276","ios":"levelo://app?vid=0dd9cc4b-3dda-4c20-9be2-ee1447c13276"},"vehicle_type_id":"4","last_reported":1762762613,"current_range_meters":8000,"station_id":"ce4bh392rcd13ifvqdm0","pricing_plan_id":"cebpf4jnsgd1na2vs0mg"},{"bike_id":"f67f33ef-23fe-4ff5-8a43-7b241a0de7da","system_id":"levelo_inurba_marseille","lat":43.32105,"lon":5.367767,"is_reserved":false,"is_disabled":false,"rental_uris":{"android":"levelo://app?vid=f67f33ef-23fe-4ff5-8a43-7b241a0de7da","ios":"levelo://app?vid=f67f33ef-23fe-4ff5-8a43-7b241a0de7da"},"vehicle_type_id":"4","last_reported":1762762613,"current_range_meters":8400,"station_id":"ce4bhrh2rcd13ifvqhug","pricing_plan_id":"cebpf4jnsgd1na2vs0mg"},{"bike_id":"06b572d6-d95a-4f1a-9a9a-b316897ad6d5","system_id":"levelo_inurba_marseille","lat":43.29545,"lon":5.3752,"is_reserved":false,"is_disabled":false,"rental_uris":{"android":"levelo://app?vid=06b572d6-d95a-4f1a-9a9a-b316897ad6d5","ios":"levelo://app?vid=06b572d6-d95a-4f1a-9a9a-b316897ad6d5"},"vehicle_type_id":"4","last_reported":1762762613,"current_range_meters":8400,"station_id":"ce4bgkp2rcd13ifvqbmg","pricing_plan_id":"cebpf4jnsgd1na2vs0mg"},{"bike_id":"bcb7664a-39c2-46f8-930f-41cebd3d0b86","system_id":"levelo_inurba_marseille","lat":43.211894,"lon":5.350779,"is_reserved":false,"is_disabled":true,"rental_uris":{"android":"levelo://app?vid=bcb7664a-39c2-46f8-930f-41cebd3d0b86","ios":"levelo://app?vid=bcb7664a-39c2-46f8-930f-41cebd3d0b86"},"vehicle_type_id":"4","last_reported":1762762613,"current_range_meters":8400,"station_id":"st_cvj6sg6p6f1abm77japg","pricing_plan_id":"cebpf4jnsgd1na2vs0mg"},{"bike_id":"3484fbb6-5a04-4833-82a0-2f1cba3f9be5","system_id":"levelo_inurba_marseille","lat":43.2119,"lon":5.350741,"is_reserved":false,"is_disabled":false,"rental_uris":{"android":"levelo://app?vid=3484fbb6-5a04-4833-82a0-2f1cba3f9be5","ios":"levelo://app?vid=3484fbb6-5a04-4833-82a0-2f1cba3f9be5"},"vehicle_type_id":"4","last_reported":1762762613,"current_range_meters":8400,"station_id":"","pricing_plan_id":"cebpf4jnsgd1na2vs0mg"},{"bike_id":"c969472a-8843-4600-8eba-f2fbce30ada8","system_id":"levelo_inurba_marseille","lat":43.30748,"lon":5.38137,"is_reserved":false,"is_disabled":false,"rental_uris":{"android":"levelo://app?vid=c969472a-8843-4600-8eba-f2fbce30ada8","ios":"levelo://app?vid=c969472a-8843-4600-8eba-f2fbce30ada8"},"vehicle_type_id":"4","last_reported":1762762613,"current_range_meters":8800,"station_id":"","pricing_plan_id":"cebpf4jnsgd1na2vs0mg"},{"bike_id":"0048371b-78b8-4e41-b20f-3db69368ec80","system_id":"levelo_inurba_marseille","lat":43.2841,"lon":5.37515,"is_reserved":false,"is_disabled":true,"rental_uris":{"android":"levelo://app?vid=0048371b-78b8-4e41-b20f-3db69368ec80","ios":"levelo://app?vid=0048371b-78b8-4e41-b20f-3db69368ec80"},"vehicle_type_id":"4","last_reported":1762762613,"current_range_meters":8800,"station_id":"ce4bh412rcd13ifvqds0","pricing_plan_id":"cebpf4jnsgd1na2vs0mg"},{"bike_id":"248bdb96-ceb0-426d-90ea-8556d86ec443","system_id":"levelo_inurba_marseille","lat":43.29034,"lon":5.39964,"is_reserved":false,"is_disabled":false,"rental_uris":{"android":"levelo://app?vid=248bdb96-ceb0-426d-90ea-8556d86ec443","ios":"levelo://app?vid=248bdb96-ceb0-426d-90ea-8556d86ec443"},"vehicle_type_id":"4","last_reported":1762762613,"current_range_meters":8800,"station_id":"ce4bh392rcd13ifvqdm0","pricing_plan_id":"cebpf4jnsgd1na2vs0mg"},{"bike_id":"5997c6b0-b0f4-4848-a8f1-63ca201df211","system_id":"levelo_inurba_marseille","lat":43.33909,"lon":5.41572,"is_reserved":false,"is_disabled":false,"rental_uris":{"android":"levelo://app?vid=5997c6b0-b0f4-4848-a8f1-63ca201df211","ios":"levelo://app?vid=5997c6b0-b0f4-4848-a8f1-63ca201df211"},"vehicle_type_id":"4","last_reported":1762762613,"current_range_meters":8800,"station_id":"","pricing_plan_id":"cebpf4jnsgd1na2vs0mg"},{"bike_id":"40f142b2-ccbc-4713-9733-1b0229095ed3","system_id":"levelo_inurba_marseille","lat":43.28673,"lon":5.38675,"is_reserved":false,"is_disabled":false,"rental_uris":{"android":"levelo://app?vid=40f142b2-ccbc-4713-9733-1b0229095ed3","ios":"levelo://app?vid=40f142b2-ccbc-4713-9733-1b0229095ed3"},"vehicle_type_id":"4","last_reported":1762762613,"current_range_meters":9200,"station_id":"ce4bh492rcd13ifvqdug","pricing_plan_id":"cebpf4jnsgd1na2vs0mg"},{"bike_id":"fe7040e7-7b02-47df-b820-df880da80cdc","system_id":"levelo_inurba_marseille","lat":43.29598,"lon":5.38073,"is_reserved":false,"is_disabled":false,"rental_uris":{"android":"levelo://app?vid=fe7040e7-7b02-47df-b820-df880da80cdc","ios":"levelo://app?vid=fe7040e7-7b02-47df-b820-df880da80cdc"},"vehicle_type_id":"4","last_reported":1762762613,"current_range_meters":9200,"station_id":"ce4bgl12rcd13ifvqbo0","pricing_plan_id":"cebpf4jnsgd1na2vs0mg"},{"bike_id":"648aaaf4-e314-490e-b943-835167e1eca6","system_id":"levelo_inurba_marseille","lat":43.33022,"lon":5.39041,"is_reserved":false,"is_disabled":false,"rental_uris":{"android":"levelo://app?vid=648aaaf4-e314-490e-b943-835167e1eca6","ios":"levelo://app?vid=648aaaf4-e314-490e-b943-835167e1eca6"},"vehicle_type_id":"4","last_reported":1762762613,"current_range_meters":9200,"station_id":"ce4bhr92rcd13ifvqhrg","pricing_plan_id":"cebpf4jnsgd1na2vs0mg"},{"bike_id":"d6907741-003a-4b7f-9dbb-039941ccc88e","system_id":"levelo_inurba_marseille","lat":43.31813,"lon":5.4097,"is_reserved":false,"is_disabled":false,"rental_uris":{"android":"levelo://app?vid=d6907741-003a-4b7f-9dbb-039941ccc88e","ios":"levelo://app?vid=d6907741-003a-4b7f-9dbb-039941ccc88e"},"vehicle_type_id":"4","last_reported":1762762613,"current_range_meters":9200,"station_id":"","pricing_plan_id":"cebpf4jnsgd1na2vs0mg"},{"bike_id":"fe9f9ebb-ae46-4840-81b4-1928debe42bf","system_id":"levelo_inurba_marseille","lat":43.28488,"lon":5.38433,"is_reserved":false,"is_disabled":false,"rental_uris":{"android":"levelo://app?vid=fe9f9ebb-ae46-4840-81b4-1928debe42bf","ios":"levelo://app?vid=fe9f9ebb-ae46-4840-81b4-1928debe42bf"},"vehicle_type_id":"4","last_reported":1762762613,"current_range_meters":9200,"station_id":"ce4bh512rcd13ifvqe3g","pricing_plan_id":"cebpf4jnsgd1na2vs0mg"},{"bike_id":"3116a2b8-338c-4776-889c-faaadc06770e","system_id":"levelo_inurba_marseille","lat":43.24081,"lon":5.37762,"is_reserved":false,"is_disabled":false,"rental_uris":{"android":"levelo://app?vid=3116a2b8-338c-4776-889c-faaadc06770e","ios":"levelo://app?vid=3116a2b8-338c-4776-889c-faaadc06770e"},"vehicle_type_id":"4","last_reported":1762762613,"current_range_meters":9200,"station_id":"ce4bhnp2rcd13ifvqgvg","pricing_plan_id":"cebpf4jnsgd1na2vs0mg"},{"bike_id":"d32acf6f-21aa-4fbf-bed6-33d296ca0f9f","system_id":"levelo_inurba_marseille","lat":43.21746,"lon":5.346005,"is_reserved":false,"is_disabled":false,"rental_uris":{"android":"levelo://app?vid=d32acf6f-21aa-4fbf-bed6-33d296ca0f9f","ios":"levelo://app?vid=d32acf6f-21aa-4fbf-bed6-33d296ca0f9f"},"vehicle_type_id":"4","last_reported":1762762613,"current_range_meters":9600,"station_id":"st_cvj6r9ubvosntc0bgbag","pricing_plan_id":"cebpf4jnsgd1na2vs0mg"},{"bike_id":"e5483597-d10d-4437-ba0c-12982f3a50a6","system_id":"levelo_inurba_marseille","lat":43.26575,"lon":5.39005,"is_reserved":false,"is_disabled":false,"rental_uris":{"android":"levelo://app?vid=e5483597-d10d-4437-ba0c-12982f3a50a6","ios":"levelo://app?vid=e5483597-d10d-4437-ba0c-12982f3a50a6"},"vehicle_type_id":"4","last_reported":1762762613,"current_range_meters":9600,"station_id":"ce4bhe12rcd13ifvqf30","pricing_plan_id":"cebpf4jnsgd1na2vs0mg"},{"bike_id":"f0f552c9-dd5b-44e5-8d71-e97f687d54ee","system_id":"levelo_inurba_marseille","lat":43.284243,"lon":5.349789,"is_reserved":false,"is_disabled":true,"rental_uris":{"android":"levelo://app?vid=f0f552c9-dd5b-44e5-8d71-e97f687d54ee","ios":"levelo://app?vid=f0f552c9-dd5b-44e5-8d71-e97f687d54ee"},"vehicle_type_id":"4","last_reported":1762762613,"current_range_meters":9600,"station_id":"ce4bhbh2rcd13ifvqepg","pricing_plan_id":"cebpf4jnsgd1na2vs0mg"},{"bike_id":"4eac3eb9-9ac1-4ff6-ad57-ed359befeed2","system_id":"levelo_inurba_marseille","lat":43.2287,"lon":5.4024,"is_reserved":false,"is_disabled":false,"rental_uris":{"android":"levelo://app?vid=4eac3eb9-9ac1-4ff6-ad57-ed359befeed2","ios":"levelo://app?vid=4eac3eb9-9ac1-4ff6-ad57-ed359befeed2"},"vehicle_type_id":"4","last_reported":1762762613,"current_range_meters":9600,"station_id":"","pricing_plan_id":"cebpf4jnsgd1na2vs0mg"},{"bike_id":"a9d08e4c-0813-4aef-85b1-1d50cf456f69","system_id":"levelo_inurba_marseille","lat":43.217462,"lon":5.346084,"is_reserved":false,"is_disabled":false,"rental_uris":{"android":"levelo://app?vid=a9d08e4c-0813-4aef-85b1-1d50cf456f69","ios":"levelo://app?vid=a9d08e4c-0813-4aef-85b1-1d50cf456f69"},"vehicle_type_id":"4","last_reported":1762762613,"current_range_meters":10000,"station_id":"st_cvj6r9ubvosntc0bgbag","pricing_plan_id":"cebpf4jnsgd1na2vs0mg"},{"bike_id":"88d25b5f-faa5-4985-ac98-8396cf09fdaf","system_id":"levelo_inurba_marseille","lat":43.212052,"lon":5.350608,"is_reserved":false,"is_disabled":false,"rental_uris":{"android":"levelo://app?vid=88d25b5f-faa5-4985-ac98-8396cf09fdaf","ios":"levelo://app?vid=88d25b5f-faa5-4985-ac98-8396cf09fdaf"},"vehicle_type_id":"4","last_reported":1762762613,"current_range_meters":10000,"station_id":"st_cvj6sg6p6f1abm77japg","pricing_plan_id":"cebpf4jnsgd1na2vs0mg"},{"bike_id":"50da1aee-7d19-41f6-8a84-c20fda02cba2","system_id":"levelo_inurba_marseille","lat":43.27323,"lon":5.39061,"is_reserved":false,"is_disabled":false,"rental_uris":{"android":"levelo://app?vid=50da1aee-7d19-41f6-8a84-c20fda02cba2","ios":"levelo://app?vid=50da1aee-7d19-41f6-8a84-c20fda02cba2"},"vehicle_type_id":"4","last_reported":1762762613,"current_range_meters":10000,"station_id":"ce4bhgp2rcd13ifvqfe0","pricing_plan_id":"cebpf4jnsgd1na2vs0mg"},{"bike_id":"d2b5623a-898e-496c-9eba-3602fcb053f5","system_id":"levelo_inurba_marseille","lat":43.25822,"lon":5.39437,"is_reserved":false,"is_disabled":false,"rental_uris":{"android":"levelo://app?vid=d2b5623a-898e-496c-9eba-3602fcb053f5","ios":"levelo://app?vid=d2b5623a-898e-496c-9eba-3602fcb053f5"},"vehicle_type_id":"4","last_reported":1762762613,"current_range_meters":10000,"station_id":"ce4bhip2rcd13ifvqft0","pricing_plan_id":"cebpf4jnsgd1na2vs0mg"},{"bike_id":"e7be6ebb-83e5-48e9-ae2a-f5b6b8450019","system_id":"levelo_inurba_marseille","lat":43.29594,"lon":5.381226,"is_reserved":false,"is_disabled":false,"rental_uris":{"android":"levelo://app?vid=e7be6ebb-83e5-48e9-ae2a-f5b6b8450019","ios":"levelo://app?vid=e7be6ebb-83e5-48e9-ae2a-f5b6b8450019"},"vehicle_type_id":"4","last_reported":1762762613,"current_range_meters":10000,"station_id":"ce4bgl12rcd13ifvqbo0","pricing_plan_id":"cebpf4jnsgd1na2vs0mg"},{"bike_id":"291b0db9-07b8-4342-83ff-aaccb509d872","system_id":"levelo_inurba_marseille","lat":43.29031,"lon":5.40089,"is_reserved":false,"is_disabled":false,"rental_uris":{"android":"levelo://app?vid=291b0db9-07b8-4342-83ff-aaccb509d872","ios":"levelo://app?vid=291b0db9-07b8-4342-83ff-aaccb509d872"},"vehicle_type_id":"4","last_reported":1762762613,"current_range_meters":10000,"station_id":"","pricing_plan_id":"cebpf4jnsgd1na2vs0mg"},{"bike_id":"ee931cc9-cd7f-4dbb-9e6c-ad6d4dac686b","system_id":"levelo_inurba_marseille","lat":43.32111,"lon":5.36757,"is_reserved":false,"is_disabled":false,"rental_uris":{"android":"levelo://app?vid=ee931cc9-cd7f-4dbb-9e6c-ad6d4dac686b","ios":"levelo://app?vid=ee931cc9-cd7f-4dbb-9e6c-ad6d4dac686b"},"vehicle_type_id":"4","last_reported":1762762613,"current_range_meters":10000,"station_id":"ce4bhrh2rcd13ifvqhug","pricing_plan_id":"cebpf4jnsgd1na2vs0mg"},{"bike_id":"296b35f4-bf34-48bd-a614-0084f905815f","system_id":"levelo_inurba_marseille","lat":43.29942,"lon":5.36354,"is_reserved":false,"is_disabled":false,"rental_uris":{"android":"levelo://app?vid=296b35f4-bf34-48bd-a614-0084f905815f","ios":"levelo://app?vid=296b35f4-bf34-48bd-a614-0084f905815f"},"vehicle_type_id":"4","last_reported":1762762613,"current_range_meters":10000,"station_id":"","pricing_plan_id":"cebpf4jnsgd1na2vs0mg"},{"bike_id":"d8a2355e-a776-4b85-8a3e-22368796688d","system_id":"levelo_inurba_marseille","lat":43.30824,"lon":5.36853,"is_reserved":false,"is_disabled":false,"rental_uris":{"android":"levelo://app?vid=d8a2355e-a776-4b85-8a3e-22368796688d","ios":"levelo://app?vid=d8a2355e-a776-4b85-8a3e-22368796688d"},"vehicle_type_id":"4","last_reported":1762762613,"current_range_meters":10000,"station_id":"","pricing_plan_id":"cebpf4jnsgd1na2vs0mg"},{"bike_id":"d9d91017-19e5-4474-b0f8-c613656a4a3a","system_id":"levelo_inurba_marseille","lat":43.28402,"lon":5.37523,"is_reserved":false,"is_disabled":true,"rental_uris":{"android":"levelo://app?vid=d9d91017-19e5-4474-b0f8-c613656a4a3a","ios":"levelo://app?vid=d9d91017-19e5-4474-b0f8-c613656a4a3a"},"vehicle_type_id":"4","last_reported":1762762613,"current_range_meters":10800,"station_id":"ce4bh412rcd13ifvqds0","pricing_plan_id":"cebpf4jnsgd1na2vs0mg"},{"bike_id":"b6ba799f-93a0-474d-970a-cd786094f7da","system_id":"levelo_inurba_marseille","lat":43.28487,"lon":5.38439,"is_reserved":false,"is_disabled":true,"rental_uris":{"android":"levelo://app?vid=b6ba799f-93a0-474d-970a-cd786094f7da","ios":"levelo://app?vid=b6ba799f-93a0-474d-970a-cd786094f7da"},"vehicle_type_id":"4","last_reported":1762762613,"current_range_meters":10800,"station_id":"ce4bh512rcd13ifvqe3g","pricing_plan_id":"cebpf4jnsgd1na2vs0mg"},{"bike_id":"683b85db-4db7-402b-99fc-ef7871001ccc","system_id":"levelo_inurba_marseille","lat":43.26563,"lon":5.39003,"is_reserved":false,"is_disabled":false,"rental_uris":{"android":"levelo://app?vid=683b85db-4db7-402b-99fc-ef7871001ccc","ios":"levelo://app?vid=683b85db-4db7-402b-99fc-ef7871001ccc"},"vehicle_type_id":"4","last_reported":1762762613,"current_range_meters":10800,"station_id":"ce4bhe12rcd13ifvqf30","pricing_plan_id":"cebpf4jnsgd1na2vs0mg"},{"bike_id":"5ab6819e-916d-4fd6-a452-a0da0e035935","system_id":"levelo_inurba_marseille","lat":43.30614,"lon":5.39372,"is_reserved":false,"is_disabled":false,"rental_uris":{"android":"levelo://app?vid=5ab6819e-916d-4fd6-a452-a0da0e035935","ios":"levelo://app?vid=5ab6819e-916d-4fd6-a452-a0da0e035935"},"vehicle_type_id":"4","last_reported":1762762613,"current_range_meters":10800,"station_id":"ce4bh0p2rcd13ifvqd80","pricing_plan_id":"cebpf4jnsgd1na2vs0mg"},{"bike_id":"1c68d6e6-cce0-44cb-a781-43a39a3ee70a","system_id":"levelo_inurba_marseille","lat":43.30298,"lon":5.39208,"is_reserved":false,"is_disabled":true,"rental_uris":{"android":"levelo://app?vid=1c68d6e6-cce0-44cb-a781-43a39a3ee70a","ios":"levelo://app?vid=1c68d6e6-cce0-44cb-a781-43a39a3ee70a"},"vehicle_type_id":"4","last_reported":1762762613,"current_range_meters":10800,"station_id":"ce4bgkh2rcd13ifvqbk0","pricing_plan_id":"cebpf4jnsgd1na2vs0mg"},{"bike_id":"970709d9-5b24-44bb-beb3-4dbbfc3d4098","system_id":"levelo_inurba_marseille","lat":43.287188,"lon":5.399744,"is_reserved":false,"is_disabled":true,"rental_uris":{"android":"levelo://app?vid=970709d9-5b24-44bb-beb3-4dbbfc3d4098","ios":"levelo://app?vid=970709d9-5b24-44bb-beb3-4dbbfc3d4098"},"vehicle_type_id":"4","last_reported":1762762613,"current_range_meters":10800,"station_id":"ce4bho92rcd13ifvqh3g","pricing_plan_id":"cebpf4jnsgd1na2vs0mg"},{"bike_id":"a883b8f5-f4b3-468d-bd94-803e6672cff2","system_id":"levelo_inurba_marseille","lat":43.31234,"lon":5.36868,"is_reserved":false,"is_disabled":false,"rental_uris":{"android":"levelo://app?vid=a883b8f5-f4b3-468d-bd94-803e6672cff2","ios":"levelo://app?vid=a883b8f5-f4b3-468d-bd94-803e6672cff2"},"vehicle_type_id":"4","last_reported":1762762613,"current_range_meters":10800,"station_id":"ce4bgl92rcd13ifvqbq0","pricing_plan_id":"cebpf4jnsgd1na2vs0mg"},{"bike_id":"1b608766-d12f-43b3-8b68-b0135e72a218","system_id":"levelo_inurba_marseille","lat":43.302475,"lon":5.400701,"is_reserved":false,"is_disabled":true,"rental_uris":{"android":"levelo://app?vid=1b608766-d12f-43b3-8b68-b0135e72a218","ios":"levelo://app?vid=1b608766-d12f-43b3-8b68-b0135e72a218"},"vehicle_type_id":"4","last_reported":1762762613,"current_range_meters":10800,"station_id":"ce4bgvh2rcd13ifvqcs0","pricing_plan_id":"cebpf4jnsgd1na2vs0mg"},{"bike_id":"bd7a8cc7-0ed2-4d39-b560-9cdd894a0d6a","system_id":"levelo_inurba_marseille","lat":43.28932,"lon":5.38409,"is_reserved":false,"is_disabled":false,"rental_uris":{"android":"levelo://app?vid=bd7a8cc7-0ed2-4d39-b560-9cdd894a0d6a","ios":"levelo://app?vid=bd7a8cc7-0ed2-4d39-b560-9cdd894a0d6a"},"vehicle_type_id":"4","last_reported":1762762613,"current_range_meters":11200,"station_id":"","pricing_plan_id":"cebpf4jnsgd1na2vs0mg"},{"bike_id":"14da154f-4fbe-465b-bdc6-515f5b05654b","system_id":"levelo_inurba_marseille","lat":43.301515,"lon":5.380846,"is_reserved":false,"is_disabled":false,"rental_uris":{"android":"levelo://app?vid=14da154f-4fbe-465b-bdc6-515f5b05654b","ios":"levelo://app?vid=14da154f-4fbe-465b-bdc6-515f5b05654b"},"vehicle_type_id":"4","last_reported":1762762613,"current_range_meters":11200,"station_id":"ce4bgjp2rcd13ifvqbh0","pricing_plan_id":"cebpf4jnsgd1na2vs0mg"},{"bike_id":"44331fa7-9d08-4286-b964-9dc5ad26bac9","system_id":"levelo_inurba_marseille","lat":43.26231,"lon":5.40451,"is_reserved":false,"is_disabled":false,"rental_uris":{"android":"levelo://app?vid=44331fa7-9d08-4286-b964-9dc5ad26bac9","ios":"levelo://app?vid=44331fa7-9d08-4286-b964-9dc5ad26bac9"},"vehicle_type_id":"4","last_reported":1762762613,"current_range_meters":11200,"station_id":"ce4bhmh2rcd13ifvqgmg","pricing_plan_id":"cebpf4jnsgd1na2vs0mg"},{"bike_id":"bc613477-4cc8-4f28-9bb9-110d07e992e0","system_id":"levelo_inurba_marseille","lat":43.2418,"lon":5.39732,"is_reserved":false,"is_disabled":false,"rental_uris":{"android":"levelo://app?vid=bc613477-4cc8-4f28-9bb9-110d07e992e0","ios":"levelo://app?vid=bc613477-4cc8-4f28-9bb9-110d07e992e0"},"vehicle_type_id":"4","last_reported":1762762613,"current_range_meters":11200,"station_id":"ce4bhn12rcd13ifvqgpg","pricing_plan_id":"cebpf4jnsgd1na2vs0mg"},{"bike_id":"747628a0-abbb-4017-9b13-b0ee432b38ab","system_id":"levelo_inurba_marseille","lat":43.28406,"lon":5.37522,"is_reserved":false,"is_disabled":false,"rental_uris":{"android":"levelo://app?vid=747628a0-abbb-4017-9b13-b0ee432b38ab","ios":"levelo://app?vid=747628a0-abbb-4017-9b13-b0ee432b38ab"},"vehicle_type_id":"4","last_reported":1762762613,"current_range_meters":11200,"station_id":"ce4bh412rcd13ifvqds0","pricing_plan_id":"cebpf4jnsgd1na2vs0mg"},{"bike_id":"91568419-a2b4-4333-9957-80fb783cb47d","system_id":"levelo_inurba_marseille","lat":43.32479,"lon":5.36559,"is_reserved":false,"is_disabled":false,"rental_uris":{"android":"levelo://app?vid=91568419-a2b4-4333-9957-80fb783cb47d","ios":"levelo://app?vid=91568419-a2b4-4333-9957-80fb783cb47d"},"vehicle_type_id":"4","last_reported":1762762613,"current_range_meters":11200,"station_id":"ce4bhs12rcd13ifvqhvg","pricing_plan_id":"cebpf4jnsgd1na2vs0mg"},{"bike_id":"f08621f1-92b2-4985-8a3a-96dd283a7c2b","system_id":"levelo_inurba_marseille","lat":43.31354,"lon":5.37932,"is_reserved":false,"is_disabled":false,"rental_uris":{"android":"levelo://app?vid=f08621f1-92b2-4985-8a3a-96dd283a7c2b","ios":"levelo://app?vid=f08621f1-92b2-4985-8a3a-96dd283a7c2b"},"vehicle_type_id":"4","last_reported":1762762613,"current_range_meters":11200,"station_id":"","pricing_plan_id":"cebpf4jnsgd1na2vs0mg"},{"bike_id":"d2bbad14-e2c4-47de-9291-8c5442afff32","system_id":"levelo_inurba_marseille","lat":43.2981,"lon":5.38098,"is_reserved":false,"is_disabled":false,"rental_uris":{"android":"levelo://app?vid=d2bbad14-e2c4-47de-9291-8c5442afff32","ios":"levelo://app?vid=d2bbad14-e2c4-47de-9291-8c5442afff32"},"vehicle_type_id":"4","last_reported":1762762613,"current_range_meters":11200,"station_id":"ce4bgip2rcd13ifvqbb0","pricing_plan_id":"cebpf4jnsgd1na2vs0mg"},{"bike_id":"016b49a9-b961-4839-bd19-826a055619f1","system_id":"levelo_inurba_marseille","lat":43.30173,"lon":5.38073,"is_reserved":false,"is_disabled":false,"rental_uris":{"android":"levelo://app?vid=016b49a9-b961-4839-bd19-826a055619f1","ios":"levelo://app?vid=016b49a9-b961-4839-bd19-826a055619f1"},"vehicle_type_id":"4","last_reported":1762762613,"current_range_meters":11600,"station_id":"ce4bgjp2rcd13ifvqbh0","pricing_plan_id":"cebpf4jnsgd1na2vs0mg"},{"bike_id":"a274914b-c5b0-46b2-9fe3-8151f6638f0f","system_id":"levelo_inurba_marseille","lat":43.25937,"lon":5.40892,"is_reserved":false,"is_disabled":false,"rental_uris":{"android":"levelo://app?vid=a274914b-c5b0-46b2-9fe3-8151f6638f0f","ios":"levelo://app?vid=a274914b-c5b0-46b2-9fe3-8151f6638f0f"},"vehicle_type_id":"4","last_reported":1762762613,"current_range_meters":11600,"station_id":"ce4bhm92rcd13ifvqglg","pricing_plan_id":"cebpf4jnsgd1na2vs0mg"},{"bike_id":"3f229283-4156-40f5-8b33-733d496807b4","system_id":"levelo_inurba_marseille","lat":43.29282,"lon":5.37286,"is_reserved":false,"is_disabled":false,"rental_uris":{"android":"levelo://app?vid=3f229283-4156-40f5-8b33-733d496807b4","ios":"levelo://app?vid=3f229283-4156-40f5-8b33-733d496807b4"},"vehicle_type_id":"4","last_reported":1762762613,"current_range_meters":11600,"station_id":"","pricing_plan_id":"cebpf4jnsgd1na2vs0mg"},{"bike_id":"5e993823-f098-46e4-9fff-9d335fe5d913","system_id":"levelo_inurba_marseille","lat":43.23784,"lon":5.36632,"is_reserved":false,"is_disabled":false,"rental_uris":{"android":"levelo://app?vid=5e993823-f098-46e4-9fff-9d335fe5d913","ios":"levelo://app?vid=5e993823-f098-46e4-9fff-9d335fe5d913"},"vehicle_type_id":"4","last_reported":1762762613,"current_range_meters":11600,"station_id":"st_d3nk18o9ro0c73en2l3g","pricing_plan_id":"cebpf4jnsgd1na2vs0mg"},{"bike_id":"b4cb9bc3-2674-422b-8c74-5594292dd02e","system_id":"levelo_inurba_marseille","lat":43.2753,"lon":5.37509,"is_reserved":false,"is_disabled":false,"rental_uris":{"android":"levelo://app?vid=b4cb9bc3-2674-422b-8c74-5594292dd02e","ios":"levelo://app?vid=b4cb9bc3-2674-422b-8c74-5594292dd02e"},"vehicle_type_id":"4","last_reported":1762762613,"current_range_meters":11600,"station_id":"","pricing_plan_id":"cebpf4jnsgd1na2vs0mg"},{"bike_id":"1af83294-d2a2-48f5-b0a9-7d1c4e7ae923","system_id":"levelo_inurba_marseille","lat":43.31115,"lon":5.37766,"is_reserved":false,"is_disabled":false,"rental_uris":{"android":"levelo://app?vid=1af83294-d2a2-48f5-b0a9-7d1c4e7ae923","ios":"levelo://app?vid=1af83294-d2a2-48f5-b0a9-7d1c4e7ae923"},"vehicle_type_id":"4","last_reported":1762762613,"current_range_meters":12000,"station_id":"ce4bgt92rcd13ifvqcg0","pricing_plan_id":"cebpf4jnsgd1na2vs0mg"},{"bike_id":"f6b2fed1-0ca2-423d-8dec-4ae2abcb7d8f","system_id":"levelo_inurba_marseille","lat":43.30717,"lon":5.42459,"is_reserved":false,"is_disabled":false,"rental_uris":{"android":"levelo://app?vid=f6b2fed1-0ca2-423d-8dec-4ae2abcb7d8f","ios":"levelo://app?vid=f6b2fed1-0ca2-423d-8dec-4ae2abcb7d8f"},"vehicle_type_id":"4","last_reported":1762762613,"current_range_meters":12000,"station_id":"st_cvj6ca6bvosntc0bfgr0","pricing_plan_id":"cebpf4jnsgd1na2vs0mg"},{"bike_id":"3167f537-95a1-4ccb-b69c-11ce691cd38e","system_id":"levelo_inurba_marseille","lat":43.29645,"lon":5.37141,"is_reserved":false,"is_disabled":true,"rental_uris":{"android":"levelo://app?vid=3167f537-95a1-4ccb-b69c-11ce691cd38e","ios":"levelo://app?vid=3167f537-95a1-4ccb-b69c-11ce691cd38e"},"vehicle_type_id":"4","last_reported":1762762613,"current_range_meters":12000,"station_id":"ce4bgnh2rcd13ifvqc0g","pricing_plan_id":"cebpf4jnsgd1na2vs0mg"},{"bike_id":"8142a16a-13a8-4636-80c8-f6fe96871316","system_id":"levelo_inurba_marseille","lat":43.243967,"lon":5.370725,"is_reserved":false,"is_disabled":false,"rental_uris":{"android":"levelo://app?vid=8142a16a-13a8-4636-80c8-f6fe96871316","ios":"levelo://app?vid=8142a16a-13a8-4636-80c8-f6fe96871316"},"vehicle_type_id":"4","last_reported":1762762613,"current_range_meters":12000,"station_id":"ce4bhhh2rcd13ifvqfk0","pricing_plan_id":"cebpf4jnsgd1na2vs0mg"},{"bike_id":"dcfad8f4-2cd6-4912-99b0-ab83fb113477","system_id":"levelo_inurba_marseille","lat":43.26563,"lon":5.38985,"is_reserved":false,"is_disabled":false,"rental_uris":{"android":"levelo://app?vid=dcfad8f4-2cd6-4912-99b0-ab83fb113477","ios":"levelo://app?vid=dcfad8f4-2cd6-4912-99b0-ab83fb113477"},"vehicle_type_id":"4","last_reported":1762762613,"current_range_meters":12000,"station_id":"ce4bhe12rcd13ifvqf30","pricing_plan_id":"cebpf4jnsgd1na2vs0mg"},{"bike_id":"de595e82-1ce7-4933-988d-d9447739a3f9","system_id":"levelo_inurba_marseille","lat":43.31484,"lon":5.3731,"is_reserved":false,"is_disabled":false,"rental_uris":{"android":"levelo://app?vid=de595e82-1ce7-4933-988d-d9447739a3f9","ios":"levelo://app?vid=de595e82-1ce7-4933-988d-d9447739a3f9"},"vehicle_type_id":"4","last_reported":1762762613,"current_range_meters":12000,"station_id":"ce4bgt12rcd13ifvqcd0","pricing_plan_id":"cebpf4jnsgd1na2vs0mg"},{"bike_id":"77dd386a-c491-4903-b512-c2486567c465","system_id":"levelo_inurba_marseille","lat":43.28954,"lon":5.366298,"is_reserved":false,"is_disabled":false,"rental_uris":{"android":"levelo://app?vid=77dd386a-c491-4903-b512-c2486567c465","ios":"levelo://app?vid=77dd386a-c491-4903-b512-c2486567c465"},"vehicle_type_id":"4","last_reported":1762762613,"current_range_meters":12000,"station_id":"ce4bhap2rcd13ifvqek0","pricing_plan_id":"cebpf4jnsgd1na2vs0mg"},{"bike_id":"f9b0a7da-0067-40d4-8905-156f84ad8d6e","system_id":"levelo_inurba_marseille","lat":43.28723,"lon":5.37947,"is_reserved":false,"is_disabled":false,"rental_uris":{"android":"levelo://app?vid=f9b0a7da-0067-40d4-8905-156f84ad8d6e","ios":"levelo://app?vid=f9b0a7da-0067-40d4-8905-156f84ad8d6e"},"vehicle_type_id":"4","last_reported":1762762613,"current_range_meters":12400,"station_id":"ce4bh9p2rcd13ifvqec0","pricing_plan_id":"cebpf4jnsgd1na2vs0mg"},{"bike_id":"ab4ac132-5519-4aac-ac12-8b8c2929bb7e","system_id":"levelo_inurba_marseille","lat":43.32302,"lon":5.38493,"is_reserved":false,"is_disabled":false,"rental_uris":{"android":"levelo://app?vid=ab4ac132-5519-4aac-ac12-8b8c2929bb7e","ios":"levelo://app?vid=ab4ac132-5519-4aac-ac12-8b8c2929bb7e"},"vehicle_type_id":"4","last_reported":1762762613,"current_range_meters":12400,"station_id":"st_d45171o9ee8s73djdqug","pricing_plan_id":"cebpf4jnsgd1na2vs0mg"},{"bike_id":"6ac4027e-e104-4653-aff1-b787c24c7ca1","system_id":"levelo_inurba_marseille","lat":43.28153,"lon":5.42659,"is_reserved":false,"is_disabled":false,"rental_uris":{"android":"levelo://app?vid=6ac4027e-e104-4653-aff1-b787c24c7ca1","ios":"levelo://app?vid=6ac4027e-e104-4653-aff1-b787c24c7ca1"},"vehicle_type_id":"4","last_reported":1762762613,"current_range_meters":12400,"station_id":"ce4bhnh2rcd13ifvqgug","pricing_plan_id":"cebpf4jnsgd1na2vs0mg"},{"bike_id":"2b646297-8654-4539-9404-edb5238f787c","system_id":"levelo_inurba_marseille","lat":43.24072,"lon":5.37756,"is_reserved":false,"is_disabled":false,"rental_uris":{"android":"levelo://app?vid=2b646297-8654-4539-9404-edb5238f787c","ios":"levelo://app?vid=2b646297-8654-4539-9404-edb5238f787c"},"vehicle_type_id":"4","last_reported":1762762613,"current_range_meters":12400,"station_id":"ce4bhnp2rcd13ifvqgvg","pricing_plan_id":"cebpf4jnsgd1na2vs0mg"},{"bike_id":"add179cc-c88d-4128-8d15-3632eecc76a6","system_id":"levelo_inurba_marseille","lat":43.30464,"lon":5.3791,"is_reserved":false,"is_disabled":false,"rental_uris":{"android":"levelo://app?vid=add179cc-c88d-4128-8d15-3632eecc76a6","ios":"levelo://app?vid=add179cc-c88d-4128-8d15-3632eecc76a6"},"vehicle_type_id":"4","last_reported":1762762613,"current_range_meters":12400,"station_id":"ce4bgup2rcd13ifvqcn0","pricing_plan_id":"cebpf4jnsgd1na2vs0mg"},{"bike_id":"cf41bac8-b3bf-4d78-b58b-1504370da1f3","system_id":"levelo_inurba_marseille","lat":43.21762,"lon":5.34608,"is_reserved":false,"is_disabled":true,"rental_uris":{"android":"levelo://app?vid=cf41bac8-b3bf-4d78-b58b-1504370da1f3","ios":"levelo://app?vid=cf41bac8-b3bf-4d78-b58b-1504370da1f3"},"vehicle_type_id":"4","last_reported":1762762613,"current_range_meters":12400,"station_id":"st_cvj6r9ubvosntc0bgbag","pricing_plan_id":"cebpf4jnsgd1na2vs0mg"},{"bike_id":"39ff6a52-7c15-4e36-9056-950efe8be9ca","system_id":"levelo_inurba_marseille","lat":43.284701,"lon":5.484327,"is_reserved":false,"is_disabled":false,"rental_uris":{"android":"levelo://app?vid=39ff6a52-7c15-4e36-9056-950efe8be9ca","ios":"levelo://app?vid=39ff6a52-7c15-4e36-9056-950efe8be9ca"},"vehicle_type_id":"4","last_reported":1762762613,"current_range_meters":12400,"station_id":"st_d3svhcjqgbts73a3dn0g","pricing_plan_id":"cebpf4jnsgd1na2vs0mg"},{"bike_id":"80f81225-6e74-4216-89ba-d95028aacd0b","system_id":"levelo_inurba_marseille","lat":43.274987,"lon":5.424454,"is_reserved":false,"is_disabled":false,"rental_uris":{"android":"levelo://app?vid=80f81225-6e74-4216-89ba-d95028aacd0b","ios":"levelo://app?vid=80f81225-6e74-4216-89ba-d95028aacd0b"},"vehicle_type_id":"4","last_reported":1762762613,"current_range_meters":12400,"station_id":"ce4bhn92rcd13ifvqgrg","pricing_plan_id":"cebpf4jnsgd1na2vs0mg"},{"bike_id":"0d7725d3-ebe7-4d1a-947f-cf09a30a68ce","system_id":"levelo_inurba_marseille","lat":43.28912,"lon":5.39237,"is_reserved":false,"is_disabled":false,"rental_uris":{"android":"levelo://app?vid=0d7725d3-ebe7-4d1a-947f-cf09a30a68ce","ios":"levelo://app?vid=0d7725d3-ebe7-4d1a-947f-cf09a30a68ce"},"vehicle_type_id":"4","last_reported":1762762613,"current_range_meters":12400,"station_id":"","pricing_plan_id":"cebpf4jnsgd1na2vs0mg"},{"bike_id":"c34db9cf-050a-4c4b-ac45-1ad5e312cdd4","system_id":"levelo_inurba_marseille","lat":43.26564,"lon":5.40323,"is_reserved":false,"is_disabled":false,"rental_uris":{"android":"levelo://app?vid=c34db9cf-050a-4c4b-ac45-1ad5e312cdd4","ios":"levelo://app?vid=c34db9cf-050a-4c4b-ac45-1ad5e312cdd4"},"vehicle_type_id":"4","last_reported":1762762613,"current_range_meters":12800,"station_id":"ce4bhmp2rcd13ifvqgng","pricing_plan_id":"cebpf4jnsgd1na2vs0mg"},{"bike_id":"4b6302f6-180a-4e53-bdab-cb49670abd5a","system_id":"levelo_inurba_marseille","lat":43.292731,"lon":5.368421,"is_reserved":false,"is_disabled":false,"rental_uris":{"android":"levelo://app?vid=4b6302f6-180a-4e53-bdab-cb49670abd5a","ios":"levelo://app?vid=4b6302f6-180a-4e53-bdab-cb49670abd5a"},"vehicle_type_id":"4","last_reported":1762762613,"current_range_meters":12800,"station_id":"ce4bhbp2rcd13ifvqesg","pricing_plan_id":"cebpf4jnsgd1na2vs0mg"},{"bike_id":"653891f9-8f11-4751-90c9-8f95796caa54","system_id":"levelo_inurba_marseille","lat":43.30469,"lon":5.37902,"is_reserved":false,"is_disabled":false,"rental_uris":{"android":"levelo://app?vid=653891f9-8f11-4751-90c9-8f95796caa54","ios":"levelo://app?vid=653891f9-8f11-4751-90c9-8f95796caa54"},"vehicle_type_id":"4","last_reported":1762762613,"current_range_meters":12800,"station_id":"ce4bgup2rcd13ifvqcn0","pricing_plan_id":"cebpf4jnsgd1na2vs0mg"},{"bike_id":"062032e1-fdcc-4a2c-85d8-7ca14269cc2e","system_id":"levelo_inurba_marseille","lat":43.3107,"lon":5.42408,"is_reserved":false,"is_disabled":false,"rental_uris":{"android":"levelo://app?vid=062032e1-fdcc-4a2c-85d8-7ca14269cc2e","ios":"levelo://app?vid=062032e1-fdcc-4a2c-85d8-7ca14269cc2e"},"vehicle_type_id":"4","last_reported":1762762613,"current_range_meters":12800,"station_id":"ce4bhp92rcd13ifvqhag","pricing_plan_id":"cebpf4jnsgd1na2vs0mg"},{"bike_id":"4ec3f419-cbd7-4847-b143-249c507d1684","system_id":"levelo_inurba_marseille","lat":43.231591,"lon":5.437586,"is_reserved":false,"is_disabled":false,"rental_uris":{"android":"levelo://app?vid=4ec3f419-cbd7-4847-b143-249c507d1684","ios":"levelo://app?vid=4ec3f419-cbd7-4847-b143-249c507d1684"},"vehicle_type_id":"4","last_reported":1762762613,"current_range_meters":12800,"station_id":"ce4bhmp2rcd13ifvqgog","pricing_plan_id":"cebpf4jnsgd1na2vs0mg"},{"bike_id":"07618fb4-fdf4-452a-a76e-4b0defae3541","system_id":"levelo_inurba_marseille","lat":43.22536,"lon":5.34836,"is_reserved":false,"is_disabled":false,"rental_uris":{"android":"levelo://app?vid=07618fb4-fdf4-452a-a76e-4b0defae3541","ios":"levelo://app?vid=07618fb4-fdf4-452a-a76e-4b0defae3541"},"vehicle_type_id":"4","last_reported":1762762613,"current_range_meters":12800,"station_id":"","pricing_plan_id":"cebpf4jnsgd1na2vs0mg"},{"bike_id":"e9a6e28c-dd1a-4f55-8f45-cb7f4b7664a8","system_id":"levelo_inurba_marseille","lat":43.27213,"lon":5.39182,"is_reserved":false,"is_disabled":false,"rental_uris":{"android":"levelo://app?vid=e9a6e28c-dd1a-4f55-8f45-cb7f4b7664a8","ios":"levelo://app?vid=e9a6e28c-dd1a-4f55-8f45-cb7f4b7664a8"},"vehicle_type_id":"4","last_reported":1762762613,"current_range_meters":12800,"station_id":"ce4bhhp2rcd13ifvqfm0","pricing_plan_id":"cebpf4jnsgd1na2vs0mg"},{"bike_id":"96807a8e-1b45-4a36-b7ed-92091f4bcaf6","system_id":"levelo_inurba_marseille","lat":43.309306,"lon":5.401424,"is_reserved":false,"is_disabled":false,"rental_uris":{"android":"levelo://app?vid=96807a8e-1b45-4a36-b7ed-92091f4bcaf6","ios":"levelo://app?vid=96807a8e-1b45-4a36-b7ed-92091f4bcaf6"},"vehicle_type_id":"4","last_reported":1762762613,"current_range_meters":13600,"station_id":"","pricing_plan_id":"cebpf4jnsgd1na2vs0mg"},{"bike_id":"af2207e0-267f-4a98-b66b-4e88dc2e6c5d","system_id":"levelo_inurba_marseille","lat":43.24394,"lon":5.37071,"is_reserved":false,"is_disabled":false,"rental_uris":{"android":"levelo://app?vid=af2207e0-267f-4a98-b66b-4e88dc2e6c5d","ios":"levelo://app?vid=af2207e0-267f-4a98-b66b-4e88dc2e6c5d"},"vehicle_type_id":"4","last_reported":1762762613,"current_range_meters":13600,"station_id":"ce4bhhh2rcd13ifvqfk0","pricing_plan_id":"cebpf4jnsgd1na2vs0mg"},{"bike_id":"5c465e20-a30a-4568-a313-2b05c2f8694b","system_id":"levelo_inurba_marseille","lat":43.29558,"lon":5.42296,"is_reserved":false,"is_disabled":false,"rental_uris":{"android":"levelo://app?vid=5c465e20-a30a-4568-a313-2b05c2f8694b","ios":"levelo://app?vid=5c465e20-a30a-4568-a313-2b05c2f8694b"},"vehicle_type_id":"4","last_reported":1762762613,"current_range_meters":13600,"station_id":"ce4bhph2rcd13ifvqhdg","pricing_plan_id":"cebpf4jnsgd1na2vs0mg"},{"bike_id":"4a299e7b-fa77-4d39-93fa-a705e8d40c9f","system_id":"levelo_inurba_marseille","lat":43.3133,"lon":5.37923,"is_reserved":false,"is_disabled":true,"rental_uris":{"android":"levelo://app?vid=4a299e7b-fa77-4d39-93fa-a705e8d40c9f","ios":"levelo://app?vid=4a299e7b-fa77-4d39-93fa-a705e8d40c9f"},"vehicle_type_id":"4","last_reported":1762762613,"current_range_meters":13600,"station_id":"","pricing_plan_id":"cebpf4jnsgd1na2vs0mg"},{"bike_id":"f73b4e39-69b3-4086-8d13-60b0da429e4b","system_id":"levelo_inurba_marseille","lat":43.26569,"lon":5.39008,"is_reserved":false,"is_disabled":false,"rental_uris":{"android":"levelo://app?vid=f73b4e39-69b3-4086-8d13-60b0da429e4b","ios":"levelo://app?vid=f73b4e39-69b3-4086-8d13-60b0da429e4b"},"vehicle_type_id":"4","last_reported":1762762613,"current_range_meters":13600,"station_id":"ce4bhe12rcd13ifvqf30","pricing_plan_id":"cebpf4jnsgd1na2vs0mg"},{"bike_id":"8de1d747-65b6-4278-8c7a-fbdad8fb649c","system_id":"levelo_inurba_marseille","lat":43.29281,"lon":5.36851,"is_reserved":false,"is_disabled":false,"rental_uris":{"android":"levelo://app?vid=8de1d747-65b6-4278-8c7a-fbdad8fb649c","ios":"levelo://app?vid=8de1d747-65b6-4278-8c7a-fbdad8fb649c"},"vehicle_type_id":"4","last_reported":1762762613,"current_range_meters":13600,"station_id":"ce4bhbp2rcd13ifvqesg","pricing_plan_id":"cebpf4jnsgd1na2vs0mg"},{"bike_id":"8c74355e-2129-4b08-b3c0-bbdb86166cb9","system_id":"levelo_inurba_marseille","lat":43.29617,"lon":5.38107,"is_reserved":false,"is_disabled":false,"rental_uris":{"android":"levelo://app?vid=8c74355e-2129-4b08-b3c0-bbdb86166cb9","ios":"levelo://app?vid=8c74355e-2129-4b08-b3c0-bbdb86166cb9"},"vehicle_type_id":"4","last_reported":1762762613,"current_range_meters":13600,"station_id":"ce4bgl12rcd13ifvqbo0","pricing_plan_id":"cebpf4jnsgd1na2vs0mg"},{"bike_id":"e17839a3-96d6-489d-881e-36b6da5aeb29","system_id":"levelo_inurba_marseille","lat":43.28611,"lon":5.37065,"is_reserved":false,"is_disabled":false,"rental_uris":{"android":"levelo://app?vid=e17839a3-96d6-489d-881e-36b6da5aeb29","ios":"levelo://app?vid=e17839a3-96d6-489d-881e-36b6da5aeb29"},"vehicle_type_id":"4","last_reported":1762762613,"current_range_meters":13600,"station_id":"ce4bht12rcd13ifvqi60","pricing_plan_id":"cebpf4jnsgd1na2vs0mg"},{"bike_id":"195a6c0a-5b4b-40e4-9a17-4c1f63ac7bb3","system_id":"levelo_inurba_marseille","lat":43.24073,"lon":5.3776,"is_reserved":false,"is_disabled":false,"rental_uris":{"android":"levelo://app?vid=195a6c0a-5b4b-40e4-9a17-4c1f63ac7bb3","ios":"levelo://app?vid=195a6c0a-5b4b-40e4-9a17-4c1f63ac7bb3"},"vehicle_type_id":"4","last_reported":1762762613,"current_range_meters":14000,"station_id":"ce4bhnp2rcd13ifvqgvg","pricing_plan_id":"cebpf4jnsgd1na2vs0mg"},{"bike_id":"ac8a8750-1d87-4cf8-9c77-e78b99da5512","system_id":"levelo_inurba_marseille","lat":43.23605,"lon":5.361713,"is_reserved":false,"is_disabled":false,"rental_uris":{"android":"levelo://app?vid=ac8a8750-1d87-4cf8-9c77-e78b99da5512","ios":"levelo://app?vid=ac8a8750-1d87-4cf8-9c77-e78b99da5512"},"vehicle_type_id":"4","last_reported":1762762613,"current_range_meters":14000,"station_id":"","pricing_plan_id":"cebpf4jnsgd1na2vs0mg"},{"bike_id":"d2ecddb9-92e9-4c03-b1a0-3cef9addb969","system_id":"levelo_inurba_marseille","lat":43.30418,"lon":5.41288,"is_reserved":false,"is_disabled":false,"rental_uris":{"android":"levelo://app?vid=d2ecddb9-92e9-4c03-b1a0-3cef9addb969","ios":"levelo://app?vid=d2ecddb9-92e9-4c03-b1a0-3cef9addb969"},"vehicle_type_id":"4","last_reported":1762762613,"current_range_meters":14000,"station_id":"ce4bhop2rcd13ifvqh8g","pricing_plan_id":"cebpf4jnsgd1na2vs0mg"},{"bike_id":"c7568724-956a-49cc-b4f2-849e77448f7b","system_id":"levelo_inurba_marseille","lat":43.23154,"lon":5.43704,"is_reserved":false,"is_disabled":false,"rental_uris":{"android":"levelo://app?vid=c7568724-956a-49cc-b4f2-849e77448f7b","ios":"levelo://app?vid=c7568724-956a-49cc-b4f2-849e77448f7b"},"vehicle_type_id":"4","last_reported":1762762613,"current_range_meters":14000,"station_id":"ce4bhmp2rcd13ifvqgog","pricing_plan_id":"cebpf4jnsgd1na2vs0mg"},{"bike_id":"896a0fc4-e98e-425f-b646-7db4d5ace172","system_id":"levelo_inurba_marseille","lat":43.3199,"lon":5.38155,"is_reserved":false,"is_disabled":false,"rental_uris":{"android":"levelo://app?vid=896a0fc4-e98e-425f-b646-7db4d5ace172","ios":"levelo://app?vid=896a0fc4-e98e-425f-b646-7db4d5ace172"},"vehicle_type_id":"4","last_reported":1762762613,"current_range_meters":14000,"station_id":"ce4bhr12rcd13ifvqhpg","pricing_plan_id":"cebpf4jnsgd1na2vs0mg"},{"bike_id":"3fe8dc5d-c387-4f1a-9c4c-484bc8924e3c","system_id":"levelo_inurba_marseille","lat":43.262204,"lon":5.404516,"is_reserved":false,"is_disabled":true,"rental_uris":{"android":"levelo://app?vid=3fe8dc5d-c387-4f1a-9c4c-484bc8924e3c","ios":"levelo://app?vid=3fe8dc5d-c387-4f1a-9c4c-484bc8924e3c"},"vehicle_type_id":"4","last_reported":1762762613,"current_range_meters":14000,"station_id":"ce4bhmh2rcd13ifvqgmg","pricing_plan_id":"cebpf4jnsgd1na2vs0mg"},{"bike_id":"8d9431f8-80ba-48bc-914d-87851dd2de94","system_id":"levelo_inurba_marseille","lat":43.25934,"lon":5.40907,"is_reserved":false,"is_disabled":false,"rental_uris":{"android":"levelo://app?vid=8d9431f8-80ba-48bc-914d-87851dd2de94","ios":"levelo://app?vid=8d9431f8-80ba-48bc-914d-87851dd2de94"},"vehicle_type_id":"4","last_reported":1762762613,"current_range_meters":14000,"station_id":"ce4bhm92rcd13ifvqglg","pricing_plan_id":"cebpf4jnsgd1na2vs0mg"},{"bike_id":"24de70df-9b80-4721-8771-f61cb7be1ef9","system_id":"levelo_inurba_marseille","lat":43.3192,"lon":5.38126,"is_reserved":false,"is_disabled":false,"rental_uris":{"android":"levelo://app?vid=24de70df-9b80-4721-8771-f61cb7be1ef9","ios":"levelo://app?vid=24de70df-9b80-4721-8771-f61cb7be1ef9"},"vehicle_type_id":"4","last_reported":1762762613,"current_range_meters":14000,"station_id":"","pricing_plan_id":"cebpf4jnsgd1na2vs0mg"},{"bike_id":"d331b58f-0754-4181-93f7-d4d5e2f8b496","system_id":"levelo_inurba_marseille","lat":43.225347,"lon":5.348291,"is_reserved":false,"is_disabled":false,"rental_uris":{"android":"levelo://app?vid=d331b58f-0754-4181-93f7-d4d5e2f8b496","ios":"levelo://app?vid=d331b58f-0754-4181-93f7-d4d5e2f8b496"},"vehicle_type_id":"4","last_reported":1762762613,"current_range_meters":14000,"station_id":"","pricing_plan_id":"cebpf4jnsgd1na2vs0mg"},{"bike_id":"ee676784-715b-4226-9bd3-48c659f578c3","system_id":"levelo_inurba_marseille","lat":43.27504,"lon":5.42434,"is_reserved":false,"is_disabled":false,"rental_uris":{"android":"levelo://app?vid=ee676784-715b-4226-9bd3-48c659f578c3","ios":"levelo://app?vid=ee676784-715b-4226-9bd3-48c659f578c3"},"vehicle_type_id":"4","last_reported":1762762613,"current_range_meters":14000,"station_id":"ce4bhn92rcd13ifvqgrg","pricing_plan_id":"cebpf4jnsgd1na2vs0mg"},{"bike_id":"93b49ebf-d9fa-49cd-9da3-22e867a810f3","system_id":"levelo_inurba_marseille","lat":43.29748,"lon":5.41106,"is_reserved":false,"is_disabled":false,"rental_uris":{"android":"levelo://app?vid=93b49ebf-d9fa-49cd-9da3-22e867a810f3","ios":"levelo://app?vid=93b49ebf-d9fa-49cd-9da3-22e867a810f3"},"vehicle_type_id":"4","last_reported":1762762613,"current_range_meters":14000,"station_id":"","pricing_plan_id":"cebpf4jnsgd1na2vs0mg"},{"bike_id":"432febe0-90b3-4e0d-a9d9-0c8db269116e","system_id":"levelo_inurba_marseille","lat":43.2827,"lon":5.35061,"is_reserved":false,"is_disabled":false,"rental_uris":{"android":"levelo://app?vid=432febe0-90b3-4e0d-a9d9-0c8db269116e","ios":"levelo://app?vid=432febe0-90b3-4e0d-a9d9-0c8db269116e"},"vehicle_type_id":"4","last_reported":1762762613,"current_range_meters":14000,"station_id":"ce4bhbp2rcd13ifvqerg","pricing_plan_id":"cebpf4jnsgd1na2vs0mg"},{"bike_id":"2d003246-289e-4235-87e3-d86a55465f5e","system_id":"levelo_inurba_marseille","lat":43.29892,"lon":5.37537,"is_reserved":false,"is_disabled":false,"rental_uris":{"android":"levelo://app?vid=2d003246-289e-4235-87e3-d86a55465f5e","ios":"levelo://app?vid=2d003246-289e-4235-87e3-d86a55465f5e"},"vehicle_type_id":"4","last_reported":1762762613,"current_range_meters":14400,"station_id":"","pricing_plan_id":"cebpf4jnsgd1na2vs0mg"},{"bike_id":"29957527-d4ee-49a7-b561-7e1ae2c0cee5","system_id":"levelo_inurba_marseille","lat":43.29776,"lon":5.42793,"is_reserved":false,"is_disabled":false,"rental_uris":{"android":"levelo://app?vid=29957527-d4ee-49a7-b561-7e1ae2c0cee5","ios":"levelo://app?vid=29957527-d4ee-49a7-b561-7e1ae2c0cee5"},"vehicle_type_id":"4","last_reported":1762762613,"current_range_meters":14400,"station_id":"st_d3md5207bmas73dh9klg","pricing_plan_id":"cebpf4jnsgd1na2vs0mg"},{"bike_id":"0f4f6d58-47b7-4e12-865b-8802e8d41703","system_id":"levelo_inurba_marseille","lat":43.2315,"lon":5.43717,"is_reserved":false,"is_disabled":false,"rental_uris":{"android":"levelo://app?vid=0f4f6d58-47b7-4e12-865b-8802e8d41703","ios":"levelo://app?vid=0f4f6d58-47b7-4e12-865b-8802e8d41703"},"vehicle_type_id":"4","last_reported":1762762613,"current_range_meters":14400,"station_id":"ce4bhmp2rcd13ifvqgog","pricing_plan_id":"cebpf4jnsgd1na2vs0mg"},{"bike_id":"8052234b-ce02-4491-8711-1209426ec613","system_id":"levelo_inurba_marseille","lat":43.321014,"lon":5.367685,"is_reserved":false,"is_disabled":false,"rental_uris":{"android":"levelo://app?vid=8052234b-ce02-4491-8711-1209426ec613","ios":"levelo://app?vid=8052234b-ce02-4491-8711-1209426ec613"},"vehicle_type_id":"4","last_reported":1762762613,"current_range_meters":14400,"station_id":"ce4bhrh2rcd13ifvqhug","pricing_plan_id":"cebpf4jnsgd1na2vs0mg"},{"bike_id":"65491ff6-8333-4dea-aeb6-453eb353f386","system_id":"levelo_inurba_marseille","lat":43.30915,"lon":5.36853,"is_reserved":false,"is_disabled":false,"rental_uris":{"android":"levelo://app?vid=65491ff6-8333-4dea-aeb6-453eb353f386","ios":"levelo://app?vid=65491ff6-8333-4dea-aeb6-453eb353f386"},"vehicle_type_id":"4","last_reported":1762762613,"current_range_meters":14400,"station_id":"ce4bgn92rcd13ifvqbvg","pricing_plan_id":"cebpf4jnsgd1na2vs0mg"},{"bike_id":"e9a563c0-b3df-4fba-9af7-e70d0fbd1e36","system_id":"levelo_inurba_marseille","lat":43.29536,"lon":5.37504,"is_reserved":false,"is_disabled":false,"rental_uris":{"android":"levelo://app?vid=e9a563c0-b3df-4fba-9af7-e70d0fbd1e36","ios":"levelo://app?vid=e9a563c0-b3df-4fba-9af7-e70d0fbd1e36"},"vehicle_type_id":"4","last_reported":1762762613,"current_range_meters":14400,"station_id":"ce4bgkp2rcd13ifvqbmg","pricing_plan_id":"cebpf4jnsgd1na2vs0mg"},{"bike_id":"93994e11-676f-42dc-bc39-34b0f64692a3","system_id":"levelo_inurba_marseille","lat":43.28938,"lon":5.36627,"is_reserved":false,"is_disabled":true,"rental_uris":{"android":"levelo://app?vid=93994e11-676f-42dc-bc39-34b0f64692a3","ios":"levelo://app?vid=93994e11-676f-42dc-bc39-34b0f64692a3"},"vehicle_type_id":"4","last_reported":1762762613,"current_range_meters":14800,"station_id":"ce4bhap2rcd13ifvqek0","pricing_plan_id":"cebpf4jnsgd1na2vs0mg"},{"bike_id":"a17e4c74-5774-4556-8e8d-3f21edde9d59","system_id":"levelo_inurba_marseille","lat":43.30582,"lon":5.38977,"is_reserved":false,"is_disabled":true,"rental_uris":{"android":"levelo://app?vid=a17e4c74-5774-4556-8e8d-3f21edde9d59","ios":"levelo://app?vid=a17e4c74-5774-4556-8e8d-3f21edde9d59"},"vehicle_type_id":"4","last_reported":1762762613,"current_range_meters":14800,"station_id":"","pricing_plan_id":"cebpf4jnsgd1na2vs0mg"},{"bike_id":"58afb123-caf0-4f8c-8a2d-b3a6669c0bc6","system_id":"levelo_inurba_marseille","lat":43.248008,"lon":5.374569,"is_reserved":false,"is_disabled":true,"rental_uris":{"android":"levelo://app?vid=58afb123-caf0-4f8c-8a2d-b3a6669c0bc6","ios":"levelo://app?vid=58afb123-caf0-4f8c-8a2d-b3a6669c0bc6"},"vehicle_type_id":"4","last_reported":1762762613,"current_range_meters":14800,"station_id":"","pricing_plan_id":"cebpf4jnsgd1na2vs0mg"},{"bike_id":"46748178-17b8-4dc8-80b3-39159ff743e0","system_id":"levelo_inurba_marseille","lat":43.30059,"lon":5.38358,"is_reserved":false,"is_disabled":false,"rental_uris":{"android":"levelo://app?vid=46748178-17b8-4dc8-80b3-39159ff743e0","ios":"levelo://app?vid=46748178-17b8-4dc8-80b3-39159ff743e0"},"vehicle_type_id":"4","last_reported":1762762613,"current_range_meters":14800,"station_id":"","pricing_plan_id":"cebpf4jnsgd1na2vs0mg"},{"bike_id":"4114116c-196d-4c78-afb8-35d7b30b4a38","system_id":"levelo_inurba_marseille","lat":43.23193,"lon":5.35549,"is_reserved":false,"is_disabled":false,"rental_uris":{"android":"levelo://app?vid=4114116c-196d-4c78-afb8-35d7b30b4a38","ios":"levelo://app?vid=4114116c-196d-4c78-afb8-35d7b30b4a38"},"vehicle_type_id":"4","last_reported":1762762613,"current_range_meters":14800,"station_id":"ce4bhu92rcd13ifvqi70","pricing_plan_id":"cebpf4jnsgd1na2vs0mg"},{"bike_id":"8f6871b9-6f93-42d9-8706-464088c709e2","system_id":"levelo_inurba_marseille","lat":43.3047,"lon":5.37922,"is_reserved":false,"is_disabled":false,"rental_uris":{"android":"levelo://app?vid=8f6871b9-6f93-42d9-8706-464088c709e2","ios":"levelo://app?vid=8f6871b9-6f93-42d9-8706-464088c709e2"},"vehicle_type_id":"4","last_reported":1762762613,"current_range_meters":14800,"station_id":"ce4bgup2rcd13ifvqcn0","pricing_plan_id":"cebpf4jnsgd1na2vs0mg"},{"bike_id":"3801f78c-6f24-4c0c-b231-07d479d348fc","system_id":"levelo_inurba_marseille","lat":43.24068,"lon":5.37794,"is_reserved":false,"is_disabled":false,"rental_uris":{"android":"levelo://app?vid=3801f78c-6f24-4c0c-b231-07d479d348fc","ios":"levelo://app?vid=3801f78c-6f24-4c0c-b231-07d479d348fc"},"vehicle_type_id":"4","last_reported":1762762613,"current_range_meters":14800,"station_id":"ce4bhnp2rcd13ifvqgvg","pricing_plan_id":"cebpf4jnsgd1na2vs0mg"},{"bike_id":"2d1720da-6b08-4dfb-afe0-bc035820efc9","system_id":"levelo_inurba_marseille","lat":43.246429,"lon":5.388893,"is_reserved":false,"is_disabled":false,"rental_uris":{"android":"levelo://app?vid=2d1720da-6b08-4dfb-afe0-bc035820efc9","ios":"levelo://app?vid=2d1720da-6b08-4dfb-afe0-bc035820efc9"},"vehicle_type_id":"4","last_reported":1762762613,"current_range_meters":15200,"station_id":"","pricing_plan_id":"cebpf4jnsgd1na2vs0mg"},{"bike_id":"1c6c8640-b108-4277-8d69-9014077e683f","system_id":"levelo_inurba_marseille","lat":43.33768,"lon":5.37483,"is_reserved":false,"is_disabled":false,"rental_uris":{"android":"levelo://app?vid=1c6c8640-b108-4277-8d69-9014077e683f","ios":"levelo://app?vid=1c6c8640-b108-4277-8d69-9014077e683f"},"vehicle_type_id":"4","last_reported":1762762613,"current_range_meters":15200,"station_id":"","pricing_plan_id":"cebpf4jnsgd1na2vs0mg"},{"bike_id":"3ae4a2e8-d4c0-42b4-a176-909ddc88d127","system_id":"levelo_inurba_marseille","lat":43.30423,"lon":5.38864,"is_reserved":false,"is_disabled":false,"rental_uris":{"android":"levelo://app?vid=3ae4a2e8-d4c0-42b4-a176-909ddc88d127","ios":"levelo://app?vid=3ae4a2e8-d4c0-42b4-a176-909ddc88d127"},"vehicle_type_id":"4","last_reported":1762762613,"current_range_meters":15200,"station_id":"","pricing_plan_id":"cebpf4jnsgd1na2vs0mg"},{"bike_id":"f7f8c5ec-3459-4e53-b264-869ca4568d1a","system_id":"levelo_inurba_marseille","lat":43.30913,"lon":5.36852,"is_reserved":false,"is_disabled":false,"rental_uris":{"android":"levelo://app?vid=f7f8c5ec-3459-4e53-b264-869ca4568d1a","ios":"levelo://app?vid=f7f8c5ec-3459-4e53-b264-869ca4568d1a"},"vehicle_type_id":"4","last_reported":1762762613,"current_range_meters":15200,"station_id":"ce4bgn92rcd13ifvqbvg","pricing_plan_id":"cebpf4jnsgd1na2vs0mg"},{"bike_id":"fb0e6bea-d078-4452-905b-07db49a4858c","system_id":"levelo_inurba_marseille","lat":43.28483,"lon":5.48393,"is_reserved":false,"is_disabled":false,"rental_uris":{"android":"levelo://app?vid=fb0e6bea-d078-4452-905b-07db49a4858c","ios":"levelo://app?vid=fb0e6bea-d078-4452-905b-07db49a4858c"},"vehicle_type_id":"4","last_reported":1762762613,"current_range_meters":15200,"station_id":"","pricing_plan_id":"cebpf4jnsgd1na2vs0mg"},{"bike_id":"4eed1c2e-af96-411a-b4bf-28a95eef7ae5","system_id":"levelo_inurba_marseille","lat":43.281799,"lon":5.42556,"is_reserved":false,"is_disabled":false,"rental_uris":{"android":"levelo://app?vid=4eed1c2e-af96-411a-b4bf-28a95eef7ae5","ios":"levelo://app?vid=4eed1c2e-af96-411a-b4bf-28a95eef7ae5"},"vehicle_type_id":"4","last_reported":1762762613,"current_range_meters":15200,"station_id":"","pricing_plan_id":"cebpf4jnsgd1na2vs0mg"},{"bike_id":"56631e14-373b-459b-8910-83c6807d45a0","system_id":"levelo_inurba_marseille","lat":43.24648,"lon":5.38894,"is_reserved":false,"is_disabled":false,"rental_uris":{"android":"levelo://app?vid=56631e14-373b-459b-8910-83c6807d45a0","ios":"levelo://app?vid=56631e14-373b-459b-8910-83c6807d45a0"},"vehicle_type_id":"4","last_reported":1762762613,"current_range_meters":16000,"station_id":"ce4bhg12rcd13ifvqf60","pricing_plan_id":"cebpf4jnsgd1na2vs0mg"},{"bike_id":"e3ca31e7-8c60-464d-95fd-3aad12a4aaf3","system_id":"levelo_inurba_marseille","lat":43.30962,"lon":5.38294,"is_reserved":false,"is_disabled":false,"rental_uris":{"android":"levelo://app?vid=e3ca31e7-8c60-464d-95fd-3aad12a4aaf3","ios":"levelo://app?vid=e3ca31e7-8c60-464d-95fd-3aad12a4aaf3"},"vehicle_type_id":"4","last_reported":1762762613,"current_range_meters":16000,"station_id":"","pricing_plan_id":"cebpf4jnsgd1na2vs0mg"},{"bike_id":"99891c1d-9d50-4787-b2eb-1c68be846d92","system_id":"levelo_inurba_marseille","lat":43.32109,"lon":5.36757,"is_reserved":false,"is_disabled":false,"rental_uris":{"android":"levelo://app?vid=99891c1d-9d50-4787-b2eb-1c68be846d92","ios":"levelo://app?vid=99891c1d-9d50-4787-b2eb-1c68be846d92"},"vehicle_type_id":"4","last_reported":1762762613,"current_range_meters":16000,"station_id":"ce4bhrh2rcd13ifvqhug","pricing_plan_id":"cebpf4jnsgd1na2vs0mg"},{"bike_id":"fd2cb453-4347-4928-aaba-ec89a3ea4b92","system_id":"levelo_inurba_marseille","lat":43.26575,"lon":5.40307,"is_reserved":false,"is_disabled":false,"rental_uris":{"android":"levelo://app?vid=fd2cb453-4347-4928-aaba-ec89a3ea4b92","ios":"levelo://app?vid=fd2cb453-4347-4928-aaba-ec89a3ea4b92"},"vehicle_type_id":"4","last_reported":1762762613,"current_range_meters":16000,"station_id":"ce4bhmp2rcd13ifvqgng","pricing_plan_id":"cebpf4jnsgd1na2vs0mg"},{"bike_id":"3a04f9c7-e08e-4429-8b60-3f57df5d4f6c","system_id":"levelo_inurba_marseille","lat":43.33157,"lon":5.37685,"is_reserved":false,"is_disabled":false,"rental_uris":{"android":"levelo://app?vid=3a04f9c7-e08e-4429-8b60-3f57df5d4f6c","ios":"levelo://app?vid=3a04f9c7-e08e-4429-8b60-3f57df5d4f6c"},"vehicle_type_id":"4","last_reported":1762762613,"current_range_meters":16000,"station_id":"st_d46cu089ee8s73dldbu0","pricing_plan_id":"cebpf4jnsgd1na2vs0mg"},{"bike_id":"9177e427-7c49-42a3-9798-4dbeb7ff74fd","system_id":"levelo_inurba_marseille","lat":43.30374,"lon":5.42485,"is_reserved":false,"is_disabled":false,"rental_uris":{"android":"levelo://app?vid=9177e427-7c49-42a3-9798-4dbeb7ff74fd","ios":"levelo://app?vid=9177e427-7c49-42a3-9798-4dbeb7ff74fd"},"vehicle_type_id":"4","last_reported":1762762613,"current_range_meters":16000,"station_id":"ce4bhoh2rcd13ifvqh6g","pricing_plan_id":"cebpf4jnsgd1na2vs0mg"},{"bike_id":"20437669-6171-4020-82e5-6ad79882fa3f","system_id":"levelo_inurba_marseille","lat":43.27177,"lon":5.40998,"is_reserved":false,"is_disabled":false,"rental_uris":{"android":"levelo://app?vid=20437669-6171-4020-82e5-6ad79882fa3f","ios":"levelo://app?vid=20437669-6171-4020-82e5-6ad79882fa3f"},"vehicle_type_id":"4","last_reported":1762762613,"current_range_meters":16000,"station_id":"ce4bhl12rcd13ifvqgf0","pricing_plan_id":"cebpf4jnsgd1na2vs0mg"},{"bike_id":"e7adffef-917b-479d-bf23-7e28532875f0","system_id":"levelo_inurba_marseille","lat":43.28733,"lon":5.37942,"is_reserved":false,"is_disabled":false,"rental_uris":{"android":"levelo://app?vid=e7adffef-917b-479d-bf23-7e28532875f0","ios":"levelo://app?vid=e7adffef-917b-479d-bf23-7e28532875f0"},"vehicle_type_id":"4","last_reported":1762762613,"current_range_meters":16400,"station_id":"ce4bh9p2rcd13ifvqec0","pricing_plan_id":"cebpf4jnsgd1na2vs0mg"},{"bike_id":"3d955cce-9343-4f13-97c2-009586b2f3db","system_id":"levelo_inurba_marseille","lat":43.29269,"lon":5.37637,"is_reserved":false,"is_disabled":false,"rental_uris":{"android":"levelo://app?vid=3d955cce-9343-4f13-97c2-009586b2f3db","ios":"levelo://app?vid=3d955cce-9343-4f13-97c2-009586b2f3db"},"vehicle_type_id":"4","last_reported":1762762613,"current_range_meters":16400,"station_id":"ce4bgi12rcd13ifvqb80","pricing_plan_id":"cebpf4jnsgd1na2vs0mg"},{"bike_id":"3757c277-a222-4608-baf0-fb11f83a36ad","system_id":"levelo_inurba_marseille","lat":43.24073,"lon":5.37758,"is_reserved":false,"is_disabled":false,"rental_uris":{"android":"levelo://app?vid=3757c277-a222-4608-baf0-fb11f83a36ad","ios":"levelo://app?vid=3757c277-a222-4608-baf0-fb11f83a36ad"},"vehicle_type_id":"4","last_reported":1762762613,"current_range_meters":16400,"station_id":"ce4bhnp2rcd13ifvqgvg","pricing_plan_id":"cebpf4jnsgd1na2vs0mg"},{"bike_id":"968a0123-9c52-42d7-bc28-9e49597d1766","system_id":"levelo_inurba_marseille","lat":43.31493,"lon":5.37276,"is_reserved":false,"is_disabled":false,"rental_uris":{"android":"levelo://app?vid=968a0123-9c52-42d7-bc28-9e49597d1766","ios":"levelo://app?vid=968a0123-9c52-42d7-bc28-9e49597d1766"},"vehicle_type_id":"4","last_reported":1762762613,"current_range_meters":16400,"station_id":"ce4bgt12rcd13ifvqcd0","pricing_plan_id":"cebpf4jnsgd1na2vs0mg"},{"bike_id":"1086c95b-b74f-4e99-9e15-ae33be8101e5","system_id":"levelo_inurba_marseille","lat":43.30153,"lon":5.3764,"is_reserved":false,"is_disabled":false,"rental_uris":{"android":"levelo://app?vid=1086c95b-b74f-4e99-9e15-ae33be8101e5","ios":"levelo://app?vid=1086c95b-b74f-4e99-9e15-ae33be8101e5"},"vehicle_type_id":"4","last_reported":1762762613,"current_range_meters":16400,"station_id":"","pricing_plan_id":"cebpf4jnsgd1na2vs0mg"},{"bike_id":"7bd7d77f-e78f-4d6c-b9fb-2643cf4401e9","system_id":"levelo_inurba_marseille","lat":43.28938,"lon":5.3664,"is_reserved":false,"is_disabled":false,"rental_uris":{"android":"levelo://app?vid=7bd7d77f-e78f-4d6c-b9fb-2643cf4401e9","ios":"levelo://app?vid=7bd7d77f-e78f-4d6c-b9fb-2643cf4401e9"},"vehicle_type_id":"4","last_reported":1762762613,"current_range_meters":16400,"station_id":"ce4bhap2rcd13ifvqek0","pricing_plan_id":"cebpf4jnsgd1na2vs0mg"},{"bike_id":"19f0e0dd-08d5-4abf-8628-757c41cdaa59","system_id":"levelo_inurba_marseille","lat":43.273761,"lon":5.362552,"is_reserved":false,"is_disabled":false,"rental_uris":{"android":"levelo://app?vid=19f0e0dd-08d5-4abf-8628-757c41cdaa59","ios":"levelo://app?vid=19f0e0dd-08d5-4abf-8628-757c41cdaa59"},"vehicle_type_id":"4","last_reported":1762762613,"current_range_meters":16400,"station_id":"","pricing_plan_id":"cebpf4jnsgd1na2vs0mg"},{"bike_id":"7f26c32c-a9cd-4a34-bbaf-5284812d70de","system_id":"levelo_inurba_marseille","lat":43.33622,"lon":5.41032,"is_reserved":false,"is_disabled":false,"rental_uris":{"android":"levelo://app?vid=7f26c32c-a9cd-4a34-bbaf-5284812d70de","ios":"levelo://app?vid=7f26c32c-a9cd-4a34-bbaf-5284812d70de"},"vehicle_type_id":"4","last_reported":1762762613,"current_range_meters":16400,"station_id":"ce4bhqh2rcd13ifvqhmg","pricing_plan_id":"cebpf4jnsgd1na2vs0mg"},{"bike_id":"4ef56f27-b618-4191-843e-9c861890082c","system_id":"levelo_inurba_marseille","lat":43.28568,"lon":5.39263,"is_reserved":false,"is_disabled":true,"rental_uris":{"android":"levelo://app?vid=4ef56f27-b618-4191-843e-9c861890082c","ios":"levelo://app?vid=4ef56f27-b618-4191-843e-9c861890082c"},"vehicle_type_id":"4","last_reported":1762762613,"current_range_meters":16400,"station_id":"","pricing_plan_id":"cebpf4jnsgd1na2vs0mg"},{"bike_id":"9be94b56-15ef-463f-ba7e-e63df6171cb1","system_id":"levelo_inurba_marseille","lat":43.217397,"lon":5.346094,"is_reserved":false,"is_disabled":true,"rental_uris":{"android":"levelo://app?vid=9be94b56-15ef-463f-ba7e-e63df6171cb1","ios":"levelo://app?vid=9be94b56-15ef-463f-ba7e-e63df6171cb1"},"vehicle_type_id":"4","last_reported":1762762613,"current_range_meters":16400,"station_id":"st_cvj6r9ubvosntc0bgbag","pricing_plan_id":"cebpf4jnsgd1na2vs0mg"},{"bike_id":"15847f99-06d9-467f-a7fe-6d0c79f00f01","system_id":"levelo_inurba_marseille","lat":43.25844,"lon":5.39409,"is_reserved":false,"is_disabled":false,"rental_uris":{"android":"levelo://app?vid=15847f99-06d9-467f-a7fe-6d0c79f00f01","ios":"levelo://app?vid=15847f99-06d9-467f-a7fe-6d0c79f00f01"},"vehicle_type_id":"4","last_reported":1762762613,"current_range_meters":16400,"station_id":"ce4bhip2rcd13ifvqft0","pricing_plan_id":"cebpf4jnsgd1na2vs0mg"},{"bike_id":"6075b342-0a95-4aa1-ad46-9b8be5f6fe1f","system_id":"levelo_inurba_marseille","lat":43.26562,"lon":5.39014,"is_reserved":false,"is_disabled":false,"rental_uris":{"android":"levelo://app?vid=6075b342-0a95-4aa1-ad46-9b8be5f6fe1f","ios":"levelo://app?vid=6075b342-0a95-4aa1-ad46-9b8be5f6fe1f"},"vehicle_type_id":"4","last_reported":1762762613,"current_range_meters":16800,"station_id":"ce4bhe12rcd13ifvqf30","pricing_plan_id":"cebpf4jnsgd1na2vs0mg"},{"bike_id":"33084756-8ef7-48df-8626-0860cb1babef","system_id":"levelo_inurba_marseille","lat":43.26555,"lon":5.37291,"is_reserved":false,"is_disabled":false,"rental_uris":{"android":"levelo://app?vid=33084756-8ef7-48df-8626-0860cb1babef","ios":"levelo://app?vid=33084756-8ef7-48df-8626-0860cb1babef"},"vehicle_type_id":"4","last_reported":1762762613,"current_range_meters":16800,"station_id":"ce4bhg12rcd13ifvqf70","pricing_plan_id":"cebpf4jnsgd1na2vs0mg"},{"bike_id":"b7589c36-c725-4ae0-a367-12f6a2c5f1ef","system_id":"levelo_inurba_marseille","lat":43.29846,"lon":5.44044,"is_reserved":false,"is_disabled":false,"rental_uris":{"android":"levelo://app?vid=b7589c36-c725-4ae0-a367-12f6a2c5f1ef","ios":"levelo://app?vid=b7589c36-c725-4ae0-a367-12f6a2c5f1ef"},"vehicle_type_id":"4","last_reported":1762762613,"current_range_meters":16800,"station_id":"st_d3jp68qikq2c7381ktn0","pricing_plan_id":"cebpf4jnsgd1na2vs0mg"},{"bike_id":"20e6dcea-85f5-478b-8f38-165aacb9d4f6","system_id":"levelo_inurba_marseille","lat":43.28974,"lon":5.37833,"is_reserved":false,"is_disabled":false,"rental_uris":{"android":"levelo://app?vid=20e6dcea-85f5-478b-8f38-165aacb9d4f6","ios":"levelo://app?vid=20e6dcea-85f5-478b-8f38-165aacb9d4f6"},"vehicle_type_id":"4","last_reported":1762762613,"current_range_meters":16800,"station_id":"ce4bh9p2rcd13ifvqed0","pricing_plan_id":"cebpf4jnsgd1na2vs0mg"},{"bike_id":"48093bb5-9fc9-4fc9-ab36-2e1bab5c1a76","system_id":"levelo_inurba_marseille","lat":43.30601,"lon":5.37247,"is_reserved":false,"is_disabled":false,"rental_uris":{"android":"levelo://app?vid=48093bb5-9fc9-4fc9-ab36-2e1bab5c1a76","ios":"levelo://app?vid=48093bb5-9fc9-4fc9-ab36-2e1bab5c1a76"},"vehicle_type_id":"4","last_reported":1762762613,"current_range_meters":16800,"station_id":"ce4bgqh2rcd13ifvqc4g","pricing_plan_id":"cebpf4jnsgd1na2vs0mg"},{"bike_id":"d4a22ac1-cdb6-4997-8b80-d65c3e82b580","system_id":"levelo_inurba_marseille","lat":43.27681,"lon":5.38873,"is_reserved":false,"is_disabled":false,"rental_uris":{"android":"levelo://app?vid=d4a22ac1-cdb6-4997-8b80-d65c3e82b580","ios":"levelo://app?vid=d4a22ac1-cdb6-4997-8b80-d65c3e82b580"},"vehicle_type_id":"4","last_reported":1762762613,"current_range_meters":16800,"station_id":"ce4bhi12rcd13ifvqfo0","pricing_plan_id":"cebpf4jnsgd1na2vs0mg"},{"bike_id":"9ce4ffa1-cf83-43e5-93dd-b6dca783d3f2","system_id":"levelo_inurba_marseille","lat":43.297965,"lon":5.380922,"is_reserved":false,"is_disabled":false,"rental_uris":{"android":"levelo://app?vid=9ce4ffa1-cf83-43e5-93dd-b6dca783d3f2","ios":"levelo://app?vid=9ce4ffa1-cf83-43e5-93dd-b6dca783d3f2"},"vehicle_type_id":"4","last_reported":1762762613,"current_range_meters":16800,"station_id":"ce4bgip2rcd13ifvqbb0","pricing_plan_id":"cebpf4jnsgd1na2vs0mg"},{"bike_id":"f6bfac55-7d87-4a7e-a75d-581dc3d9be0f","system_id":"levelo_inurba_marseille","lat":43.29677,"lon":5.37293,"is_reserved":false,"is_disabled":false,"rental_uris":{"android":"levelo://app?vid=f6bfac55-7d87-4a7e-a75d-581dc3d9be0f","ios":"levelo://app?vid=f6bfac55-7d87-4a7e-a75d-581dc3d9be0f"},"vehicle_type_id":"4","last_reported":1762762613,"current_range_meters":16800,"station_id":"ce4bgk12rcd13ifvqbj0","pricing_plan_id":"cebpf4jnsgd1na2vs0mg"},{"bike_id":"50bd906f-f66c-4773-8e69-65d41802e55d","system_id":"levelo_inurba_marseille","lat":43.22533,"lon":5.34834,"is_reserved":false,"is_disabled":false,"rental_uris":{"android":"levelo://app?vid=50bd906f-f66c-4773-8e69-65d41802e55d","ios":"levelo://app?vid=50bd906f-f66c-4773-8e69-65d41802e55d"},"vehicle_type_id":"4","last_reported":1762762613,"current_range_meters":17200,"station_id":"","pricing_plan_id":"cebpf4jnsgd1na2vs0mg"},{"bike_id":"4b68d13f-f5d9-4b23-871f-a9d0ced8871b","system_id":"levelo_inurba_marseille","lat":43.31268,"lon":5.37832,"is_reserved":false,"is_disabled":false,"rental_uris":{"android":"levelo://app?vid=4b68d13f-f5d9-4b23-871f-a9d0ced8871b","ios":"levelo://app?vid=4b68d13f-f5d9-4b23-871f-a9d0ced8871b"},"vehicle_type_id":"4","last_reported":1762762613,"current_range_meters":17200,"station_id":"","pricing_plan_id":"cebpf4jnsgd1na2vs0mg"},{"bike_id":"f2d70dfe-1b2f-4a9c-8dd2-b24af1a83c08","system_id":"levelo_inurba_marseille","lat":43.29011,"lon":5.356234,"is_reserved":false,"is_disabled":false,"rental_uris":{"android":"levelo://app?vid=f2d70dfe-1b2f-4a9c-8dd2-b24af1a83c08","ios":"levelo://app?vid=f2d70dfe-1b2f-4a9c-8dd2-b24af1a83c08"},"vehicle_type_id":"4","last_reported":1762762613,"current_range_meters":17200,"station_id":"ce4bhb92rcd13ifvqen0","pricing_plan_id":"cebpf4jnsgd1na2vs0mg"},{"bike_id":"1016aac3-b163-4bd4-b914-896c361c935b","system_id":"levelo_inurba_marseille","lat":43.32121,"lon":5.38847,"is_reserved":false,"is_disabled":false,"rental_uris":{"android":"levelo://app?vid=1016aac3-b163-4bd4-b914-896c361c935b","ios":"levelo://app?vid=1016aac3-b163-4bd4-b914-896c361c935b"},"vehicle_type_id":"4","last_reported":1762762613,"current_range_meters":17200,"station_id":"","pricing_plan_id":"cebpf4jnsgd1na2vs0mg"},{"bike_id":"99d9d76d-d94f-48e3-abc3-f50dd41e3269","system_id":"levelo_inurba_marseille","lat":43.31182,"lon":5.38322,"is_reserved":false,"is_disabled":false,"rental_uris":{"android":"levelo://app?vid=99d9d76d-d94f-48e3-abc3-f50dd41e3269","ios":"levelo://app?vid=99d9d76d-d94f-48e3-abc3-f50dd41e3269"},"vehicle_type_id":"4","last_reported":1762762613,"current_range_meters":17200,"station_id":"","pricing_plan_id":"cebpf4jnsgd1na2vs0mg"},{"bike_id":"0001f610-ee0b-4dfa-a101-19ef82b4afb7","system_id":"levelo_inurba_marseille","lat":43.29825,"lon":5.44051,"is_reserved":false,"is_disabled":false,"rental_uris":{"android":"levelo://app?vid=0001f610-ee0b-4dfa-a101-19ef82b4afb7","ios":"levelo://app?vid=0001f610-ee0b-4dfa-a101-19ef82b4afb7"},"vehicle_type_id":"4","last_reported":1762762613,"current_range_meters":17200,"station_id":"st_d3jp68qikq2c7381ktn0","pricing_plan_id":"cebpf4jnsgd1na2vs0mg"},{"bike_id":"180a70a9-8924-4885-9ca3-10c578c02589","system_id":"levelo_inurba_marseille","lat":43.22537,"lon":5.348321,"is_reserved":false,"is_disabled":false,"rental_uris":{"android":"levelo://app?vid=180a70a9-8924-4885-9ca3-10c578c02589","ios":"levelo://app?vid=180a70a9-8924-4885-9ca3-10c578c02589"},"vehicle_type_id":"4","last_reported":1762762613,"current_range_meters":17200,"station_id":"","pricing_plan_id":"cebpf4jnsgd1na2vs0mg"},{"bike_id":"00e20780-721a-4cbf-908e-71547edda3b7","system_id":"levelo_inurba_marseille","lat":43.305947,"lon":5.393638,"is_reserved":false,"is_disabled":false,"rental_uris":{"android":"levelo://app?vid=00e20780-721a-4cbf-908e-71547edda3b7","ios":"levelo://app?vid=00e20780-721a-4cbf-908e-71547edda3b7"},"vehicle_type_id":"4","last_reported":1762762613,"current_range_meters":17200,"station_id":"ce4bh0p2rcd13ifvqd80","pricing_plan_id":"cebpf4jnsgd1na2vs0mg"},{"bike_id":"b0f65dd5-7080-42f8-bb3b-b5fdbbaffdce","system_id":"levelo_inurba_marseille","lat":43.23154,"lon":5.4372,"is_reserved":false,"is_disabled":false,"rental_uris":{"android":"levelo://app?vid=b0f65dd5-7080-42f8-bb3b-b5fdbbaffdce","ios":"levelo://app?vid=b0f65dd5-7080-42f8-bb3b-b5fdbbaffdce"},"vehicle_type_id":"4","last_reported":1762762613,"current_range_meters":17200,"station_id":"ce4bhmp2rcd13ifvqgog","pricing_plan_id":"cebpf4jnsgd1na2vs0mg"},{"bike_id":"04128310-696d-4eb7-91c4-5b11e2c4b59f","system_id":"levelo_inurba_marseille","lat":43.29008,"lon":5.35615,"is_reserved":false,"is_disabled":false,"rental_uris":{"android":"levelo://app?vid=04128310-696d-4eb7-91c4-5b11e2c4b59f","ios":"levelo://app?vid=04128310-696d-4eb7-91c4-5b11e2c4b59f"},"vehicle_type_id":"4","last_reported":1762762613,"current_range_meters":17600,"station_id":"ce4bhb92rcd13ifvqen0","pricing_plan_id":"cebpf4jnsgd1na2vs0mg"},{"bike_id":"43f24b88-6355-4c1a-8405-f0d97384bd73","system_id":"levelo_inurba_marseille","lat":43.28039,"lon":5.3694,"is_reserved":false,"is_disabled":false,"rental_uris":{"android":"levelo://app?vid=43f24b88-6355-4c1a-8405-f0d97384bd73","ios":"levelo://app?vid=43f24b88-6355-4c1a-8405-f0d97384bd73"},"vehicle_type_id":"4","last_reported":1762762613,"current_range_meters":17600,"station_id":"ce4bha12rcd13ifvqef0","pricing_plan_id":"cebpf4jnsgd1na2vs0mg"},{"bike_id":"eb981f96-c1a6-4158-ab39-357b040342db","system_id":"levelo_inurba_marseille","lat":43.2749,"lon":5.42459,"is_reserved":false,"is_disabled":false,"rental_uris":{"android":"levelo://app?vid=eb981f96-c1a6-4158-ab39-357b040342db","ios":"levelo://app?vid=eb981f96-c1a6-4158-ab39-357b040342db"},"vehicle_type_id":"4","last_reported":1762762613,"current_range_meters":17600,"station_id":"ce4bhn92rcd13ifvqgrg","pricing_plan_id":"cebpf4jnsgd1na2vs0mg"},{"bike_id":"66b0d514-dae2-4dc7-bd19-b20bae729fa6","system_id":"levelo_inurba_marseille","lat":43.2466,"lon":5.38895,"is_reserved":false,"is_disabled":false,"rental_uris":{"android":"levelo://app?vid=66b0d514-dae2-4dc7-bd19-b20bae729fa6","ios":"levelo://app?vid=66b0d514-dae2-4dc7-bd19-b20bae729fa6"},"vehicle_type_id":"4","last_reported":1762762613,"current_range_meters":17600,"station_id":"ce4bhg12rcd13ifvqf60","pricing_plan_id":"cebpf4jnsgd1na2vs0mg"},{"bike_id":"e8f26262-51ba-41e4-baa8-fee3433c6fb3","system_id":"levelo_inurba_marseille","lat":43.225311,"lon":5.348257,"is_reserved":false,"is_disabled":false,"rental_uris":{"android":"levelo://app?vid=e8f26262-51ba-41e4-baa8-fee3433c6fb3","ios":"levelo://app?vid=e8f26262-51ba-41e4-baa8-fee3433c6fb3"},"vehicle_type_id":"4","last_reported":1762762613,"current_range_meters":17600,"station_id":"","pricing_plan_id":"cebpf4jnsgd1na2vs0mg"},{"bike_id":"f46ad7eb-f85b-4432-be90-167e726c28e3","system_id":"levelo_inurba_marseille","lat":43.23154,"lon":5.43723,"is_reserved":false,"is_disabled":false,"rental_uris":{"android":"levelo://app?vid=f46ad7eb-f85b-4432-be90-167e726c28e3","ios":"levelo://app?vid=f46ad7eb-f85b-4432-be90-167e726c28e3"},"vehicle_type_id":"4","last_reported":1762762613,"current_range_meters":17600,"station_id":"ce4bhmp2rcd13ifvqgog","pricing_plan_id":"cebpf4jnsgd1na2vs0mg"},{"bike_id":"04a5b265-e030-4b70-aa70-fcfd6ffff723","system_id":"levelo_inurba_marseille","lat":43.28953,"lon":5.36395,"is_reserved":false,"is_disabled":false,"rental_uris":{"android":"levelo://app?vid=04a5b265-e030-4b70-aa70-fcfd6ffff723","ios":"levelo://app?vid=04a5b265-e030-4b70-aa70-fcfd6ffff723"},"vehicle_type_id":"4","last_reported":1762762613,"current_range_meters":17600,"station_id":"ce4bhc92rcd13ifvqetg","pricing_plan_id":"cebpf4jnsgd1na2vs0mg"},{"bike_id":"280508f1-fa52-4f77-9c0d-f66e623cfd0b","system_id":"levelo_inurba_marseille","lat":43.30951,"lon":5.39049,"is_reserved":false,"is_disabled":false,"rental_uris":{"android":"levelo://app?vid=280508f1-fa52-4f77-9c0d-f66e623cfd0b","ios":"levelo://app?vid=280508f1-fa52-4f77-9c0d-f66e623cfd0b"},"vehicle_type_id":"4","last_reported":1762762613,"current_range_meters":17600,"station_id":"ce4bgup2rcd13ifvqco0","pricing_plan_id":"cebpf4jnsgd1na2vs0mg"},{"bike_id":"ab19f0a2-f314-467c-95e7-11cc27111141","system_id":"levelo_inurba_marseille","lat":43.25585,"lon":5.38229,"is_reserved":false,"is_disabled":false,"rental_uris":{"android":"levelo://app?vid=ab19f0a2-f314-467c-95e7-11cc27111141","ios":"levelo://app?vid=ab19f0a2-f314-467c-95e7-11cc27111141"},"vehicle_type_id":"4","last_reported":1762762613,"current_range_meters":17600,"station_id":"ce4bhih2rcd13ifvqfs0","pricing_plan_id":"cebpf4jnsgd1na2vs0mg"},{"bike_id":"54ccd3a5-6766-4434-a048-0f23ab548aa4","system_id":"levelo_inurba_marseille","lat":43.30091,"lon":5.39067,"is_reserved":false,"is_disabled":false,"rental_uris":{"android":"levelo://app?vid=54ccd3a5-6766-4434-a048-0f23ab548aa4","ios":"levelo://app?vid=54ccd3a5-6766-4434-a048-0f23ab548aa4"},"vehicle_type_id":"4","last_reported":1762762613,"current_range_meters":18000,"station_id":"ce4bh192rcd13ifvqdb0","pricing_plan_id":"cebpf4jnsgd1na2vs0mg"},{"bike_id":"74e9d62d-4422-4604-a2c4-65698b9d7fc3","system_id":"levelo_inurba_marseille","lat":43.29312,"lon":5.37178,"is_reserved":false,"is_disabled":false,"rental_uris":{"android":"levelo://app?vid=74e9d62d-4422-4604-a2c4-65698b9d7fc3","ios":"levelo://app?vid=74e9d62d-4422-4604-a2c4-65698b9d7fc3"},"vehicle_type_id":"4","last_reported":1762762613,"current_range_meters":18000,"station_id":"ce4bgh92rcd13ifvqb40","pricing_plan_id":"cebpf4jnsgd1na2vs0mg"},{"bike_id":"394fe008-6aee-4895-9fdf-b6a85ec32574","system_id":"levelo_inurba_marseille","lat":43.30814,"lon":5.38142,"is_reserved":false,"is_disabled":false,"rental_uris":{"android":"levelo://app?vid=394fe008-6aee-4895-9fdf-b6a85ec32574","ios":"levelo://app?vid=394fe008-6aee-4895-9fdf-b6a85ec32574"},"vehicle_type_id":"4","last_reported":1762762613,"current_range_meters":18000,"station_id":"ce4bgt12rcd13ifvqce0","pricing_plan_id":"cebpf4jnsgd1na2vs0mg"},{"bike_id":"42bbdb4f-c9b7-4299-b4a6-0178a6a32bf3","system_id":"levelo_inurba_marseille","lat":43.31813,"lon":5.374262,"is_reserved":false,"is_disabled":false,"rental_uris":{"android":"levelo://app?vid=42bbdb4f-c9b7-4299-b4a6-0178a6a32bf3","ios":"levelo://app?vid=42bbdb4f-c9b7-4299-b4a6-0178a6a32bf3"},"vehicle_type_id":"4","last_reported":1762762613,"current_range_meters":18000,"station_id":"","pricing_plan_id":"cebpf4jnsgd1na2vs0mg"},