{"last_updated":1740703648,"ttl":60,"version":"2.2","data":{"bikes":[{"bike_id":"c0f4655a-9119-4abf-9f3e-fa0bacae89cb","system_id":"levelo_inurba_marseille","lat":43.28153,"lon":5.42418,"is_reserved":false,"is_disabled":true,"rental_uris":{"android":"levelo://app?vid=c0f4655a-9119-4abf-9f3e-fa0bacae89cb","ios":"levelo://app?vid=c0f4655a-9119-4abf-9f3e-fa0bacae89cb"},"vehicle_type_id":"4","last_reported":1740703648,"current_range_meters":2800,"station_id":"","pricing_plan_id":"cebpf4jnsgd1na2vs0mg"},{"bike_id":"f98a804c-537c-41bb-9782-3da5bcf6e43a","system_id":"levelo_inurba_marseille","lat":43.27955,"lon":5.41047,"is_reserved":false,"is_disabled":false,"rental_uris":{"android":"levelo://app?vid=f98a804c-537c-41bb-9782-3da5bcf6e43a","ios":"levelo://app?vid=f98a804c-537c-41bb-9782-3da5bcf6e43a"},"vehicle_type_id":"4","last_reported":1740703648,"current_range_meters":3200,"station_id":"ce4bhnp2rcd13ifvqh0g","pricing_plan_id":"cebpf4jnsgd1na2vs0mg"},{"bike_id":"ae23d63f-1813-4ce3-9f00-de91edb6a690","system_id":"levelo_inurba_marseille","lat":43.29213,"lon":5.36067,"is_reserved":false,"is_disabled":false,"rental_uris":{"android":"levelo://app?vid=ae23d63f-1813-4ce3-9f00-de91edb6a690","ios":"levelo://app?vid=ae23d63f-1813-4ce3-9f00-de91edb6a690"},"vehicle_type_id":"4","last_reported":1740703648,"current_range_meters":4000,"station_id":"ce4bhbh2rcd13ifvqeqg","pricing_plan_id":"cebpf4jnsgd1na2vs0mg"},{"bike_id":"0cb11e86-cfab-45a8-8b58-db0ea4d88767","system_id":"levelo_inurba_marseille","lat":43.23187,"lon":5.40006,"is_reserved":false,"is_disabled":false,"rental_uris":{"android":"levelo://app?vid=0cb11e86-cfab-45a8-8b58-db0ea4d88767","ios":"levelo://app?vid=0cb11e86-cfab-45a8-8b58-db0ea4d88767"},"vehicle_type_id":"4","last_reported":1740703648,"current_range_meters":4000,"station_id":"ce4bhn12rcd13ifvqgqg","pricing_plan_id":"cebpf4jnsgd1na2vs0mg"},{"bike_id":"df3becdc-efe5-428b-ad3b-9a5b04af2ecf","system_id":"levelo_inurba_marseille","lat":43.28013,"lon":5.3693,"is_reserved":false,"is_disabled":false,"rental_uris":{"android":"levelo://app?vid=df3becdc-efe5-428b-ad3b-9a5b04af2ecf","ios":"levelo://app?vid=df3becdc-efe5-428b-ad3b-9a5b04af2ecf"},"vehicle_type_id":"4","last_reported":1740703648,"current_range_meters":4000,"station_id":"ce4bha12rcd13ifvqef0","pricing_plan_id":"cebpf4jnsgd1na2vs0mg"},{"bike_id":"72bb654d-c920-45b8-9a6a-d2fa34f83e45","system_id":"levelo_inurba_marseille","lat":43.29885,"lon":5.39767,"is_reserved":false,"is_disabled":false,"rental_uris":{"android":"levelo://app?vid=72bb654d-c920-45b8-9a6a-d2fa34f83e45","ios":"levelo://app?vid=72bb654d-c920-45b8-9a6a-d2fa34f83e45"},"vehicle_type_id":"4","last_reported":1740703648,"current_range_meters":4400,"station_id":"ce4bh0h2rcd13ifvqd50","pricing_plan_id":"cebpf4jnsgd1na2vs0mg"},{"bike_id":"7ff4872f-411d-4ae5-b61d-139efb7bc87f","system_id":"levelo_inurba_marseille","lat":43.31342,"lon":5.39691,"is_reserved":false,"is_disabled":false,"rental_uris":{"android":"levelo://app?vid=7ff4872f-411d-4ae5-b61d-139efb7bc87f","ios":"levelo://app?vid=7ff4872f-411d-4ae5-b61d-139efb7bc87f"},"vehicle_type_id":"4","last_reported":1740703648,"current_range_meters":4400,"station_id":"ce4bgvp2rcd13ifvqcu0","pricing_plan_id":"cebpf4jnsgd1na2vs0mg"},{"bike_id":"27d8afbe-40d9-4464-a964-dcde203d2cc3","system_id":"levelo_inurba_marseille","lat":43.28415,"lon":5.37504,"is_reserved":false,"is_disabled":false,"rental_uris":{"android":"levelo://app?vid=27d8afbe-40d9-4464-a964-dcde203d2cc3","ios":"levelo://app?vid=27d8afbe-40d9-4464-a964-dcde203d2cc3"},"vehicle_type_id":"4","last_reported":1740703648,"current_range_meters":4800,"station_id":"ce4bh412rcd13ifvqds0","pricing_plan_id":"cebpf4jnsgd1na2vs0mg"},{"bike_id":"7560142c-45ea-4aa6-bd5b-a0c4eb95844b","system_id":"levelo_inurba_marseille","lat":43.27048,"lon":5.40271,"is_reserved":false,"is_disabled":true,"rental_uris":{"android":"levelo://app?vid=7560142c-45ea-4aa6-bd5b-a0c4eb95844b","ios":"levelo://app?vid=7560142c-45ea-4aa6-bd5b-a0c4eb95844b"},"vehicle_type_id":"4","last_reported":1740703648,"current_range_meters":5600,"station_id":"ce4bhk92rcd13ifvqgc0","pricing_plan_id":"cebpf4jnsgd1na2vs0mg"},{"bike_id":"efcdfe96-8261-42a6-9b17-32376c0bcb93","system_id":"levelo_inurba_marseille","lat":43.23185,"lon":5.39982,"is_reserved":false,"is_disabled":false,"rental_uris":{"android":"levelo://app?vid=efcdfe96-8261-42a6-9b17-32376c0bcb93","ios":"levelo://app?vid=efcdfe96-8261-42a6-9b17-32376c0bcb93"},"vehicle_type_id":"4","last_reported":1740703648,"current_range_meters":5600,"station_id":"ce4bhn12rcd13ifvqgqg","pricing_plan_id":"cebpf4jnsgd1na2vs0mg"},{"bike_id":"349c5580-a9fe-4317-a068-111838c4f071","system_id":"levelo_inurba_marseille","lat":43.25868,"lon":5.39911,"is_reserved":false,"is_disabled":false,"rental_uris":{"android":"levelo://app?vid=349c5580-a9fe-4317-a068-111838c4f071","ios":"levelo://app?vid=349c5580-a9fe-4317-a068-111838c4f071"},"vehicle_type_id":"4","last_reported":1740703648,"current_range_meters":5600,"station_id":"ce4bhl92rcd13ifvqghg","pricing_plan_id":"cebpf4jnsgd1na2vs0mg"},{"bike_id":"6c9f518e-bfe0-4cde-9178-00be7a58360c","system_id":"levelo_inurba_marseille","lat":43.28689,"lon":5.37398,"is_reserved":false,"is_disabled":false,"rental_uris":{"android":"levelo://app?vid=6c9f518e-bfe0-4cde-9178-00be7a58360c","ios":"levelo://app?vid=6c9f518e-bfe0-4cde-9178-00be7a58360c"},"vehicle_type_id":"4","last_reported":1740703648,"current_range_meters":6000,"station_id":"ce4bh3p2rcd13ifvqdq0","pricing_plan_id":"cebpf4jnsgd1na2vs0mg"},{"bike_id":"afcf5e09-bba1-4ca8-9792-93f1af82f789","system_id":"levelo_inurba_marseille","lat":43.26211,"lon":5.37446,"is_reserved":false,"is_disabled":false,"rental_uris":{"android":"levelo://app?vid=afcf5e09-bba1-4ca8-9792-93f1af82f789","ios":"levelo://app?vid=afcf5e09-bba1-4ca8-9792-93f1af82f789"},"vehicle_type_id":"4","last_reported":1740703648,"current_range_meters":6000,"station_id":"ce4bhgp2rcd13ifvqfc0","pricing_plan_id":"cebpf4jnsgd1na2vs0mg"},{"bike_id":"9a84ba8d-6006-4d8f-b6f9-44b7d71c42c6","system_id":"levelo_inurba_marseille","lat":43.28704,"lon":5.37445,"is_reserved":false,"is_disabled":true,"rental_uris":{"android":"levelo://app?vid=9a84ba8d-6006-4d8f-b6f9-44b7d71c42c6","ios":"levelo://app?vid=9a84ba8d-6006-4d8f-b6f9-44b7d71c42c6"},"vehicle_type_id":"4","last_reported":1740703648,"current_range_meters":6400,"station_id":"ce4bh3p2rcd13ifvqdq0","pricing_plan_id":"cebpf4jnsgd1na2vs0mg"},{"bike_id":"3aed6401-30fa-417b-b1f4-fed91c185d13","system_id":"levelo_inurba_marseille","lat":43.2794,"lon":5.41019,"is_reserved":false,"is_disabled":false,"rental_uris":{"android":"levelo://app?vid=3aed6401-30fa-417b-b1f4-fed91c185d13","ios":"levelo://app?vid=3aed6401-30fa-417b-b1f4-fed91c185d13"},"vehicle_type_id":"4","last_reported":1740703648,"current_range_meters":6000,"station_id":"ce4bhnp2rcd13ifvqh0g","pricing_plan_id":"cebpf4jnsgd1na2vs0mg"},{"bike_id":"f10f9796-7541-497b-b6e6-805f6c2689ac","system_id":"levelo_inurba_marseille","lat":43.24667,"lon":5.3816,"is_reserved":false,"is_disabled":false,"rental_uris":{"android":"levelo://app?vid=f10f9796-7541-497b-b6e6-805f6c2689ac","ios":"levelo://app?vid=f10f9796-7541-497b-b6e6-805f6c2689ac"},"vehicle_type_id":"4","last_reported":1740703648,"current_range_meters":6400,"station_id":"ce4bhih2rcd13ifvqfr0","pricing_plan_id":"cebpf4jnsgd1na2vs0mg"},{"bike_id":"6df9390a-5e58-4956-be28-22b5b6734565","system_id":"levelo_inurba_marseille","lat":43.25081,"lon":5.3951,"is_reserved":false,"is_disabled":false,"rental_uris":{"android":"levelo://app?vid=6df9390a-5e58-4956-be28-22b5b6734565","ios":"levelo://app?vid=6df9390a-5e58-4956-be28-22b5b6734565"},"vehicle_type_id":"4","last_reported":1740703648,"current_range_meters":6400,"station_id":"ce4bhm12rcd13ifvqgkg","pricing_plan_id":"cebpf4jnsgd1na2vs0mg"},{"bike_id":"c1dbecc1-be02-4f39-a1c7-b7d9d3390b63","system_id":"levelo_inurba_marseille","lat":43.30807,"lon":5.38136,"is_reserved":false,"is_disabled":false,"rental_uris":{"android":"levelo://app?vid=c1dbecc1-be02-4f39-a1c7-b7d9d3390b63","ios":"levelo://app?vid=c1dbecc1-be02-4f39-a1c7-b7d9d3390b63"},"vehicle_type_id":"4","last_reported":1740703648,"current_range_meters":6800,"station_id":"ce4bgt12rcd13ifvqce0","pricing_plan_id":"cebpf4jnsgd1na2vs0mg"},{"bike_id":"648c73d2-76f4-4b5a-ad73-ad931e5b2531","system_id":"levelo_inurba_marseille","lat":43.23966,"lon":5.3663,"is_reserved":false,"is_disabled":false,"rental_uris":{"android":"levelo://app?vid=648c73d2-76f4-4b5a-ad73-ad931e5b2531","ios":"levelo://app?vid=648c73d2-76f4-4b5a-ad73-ad931e5b2531"},"vehicle_type_id":"4","last_reported":1740703648,"current_range_meters":6800,"station_id":"ce4bhi12rcd13ifvqfp0","pricing_plan_id":"cebpf4jnsgd1na2vs0mg"},{"bike_id":"e3adc843-e96a-459a-aa22-fea1af7ce873","system_id":"levelo_inurba_marseille","lat":43.27946,"lon":5.41051,"is_reserved":false,"is_disabled":false,"rental_uris":{"android":"levelo://app?vid=e3adc843-e96a-459a-aa22-fea1af7ce873","ios":"levelo://app?vid=e3adc843-e96a-459a-aa22-fea1af7ce873"},"vehicle_type_id":"4","last_reported":1740703648,"current_range_meters":6800,"station_id":"ce4bhnp2rcd13ifvqh0g","pricing_plan_id":"cebpf4jnsgd1na2vs0mg"},{"bike_id":"3a4c6c0b-a3ea-4e0d-8e18-11a05a543de9","system_id":"levelo_inurba_marseille","lat":43.27892,"lon":5.37997,"is_reserved":false,"is_disabled":false,"rental_uris":{"android":"levelo://app?vid=3a4c6c0b-a3ea-4e0d-8e18-11a05a543de9","ios":"levelo://app?vid=3a4c6c0b-a3ea-4e0d-8e18-11a05a543de9"},"vehicle_type_id":"4","last_reported":1740703648,"current_range_meters":6800,"station_id":"ce4bhf92rcd13ifvqf50","pricing_plan_id":"cebpf4jnsgd1na2vs0mg"},{"bike_id":"55d98fc5-066e-4e9e-aaf7-5977c81a7397","system_id":"levelo_inurba_marseille","lat":43.27941,"lon":5.41027,"is_reserved":false,"is_disabled":false,"rental_uris":{"android":"levelo://app?vid=55d98fc5-066e-4e9e-aaf7-5977c81a7397","ios":"levelo://app?vid=55d98fc5-066e-4e9e-aaf7-5977c81a7397"},"vehicle_type_id":"4","last_reported":1740703648,"current_range_meters":6800,"station_id":"ce4bhnp2rcd13ifvqh0g","pricing_plan_id":"cebpf4jnsgd1na2vs0mg"},{"bike_id":"156d43f7-93cf-4af6-9cfe-5571ff46365a","system_id":"levelo_inurba_marseille","lat":43.30779,"lon":5.42818,"is_reserved":false,"is_disabled":false,"rental_uris":{"android":"levelo://app?vid=156d43f7-93cf-4af6-9cfe-5571ff46365a","ios":"levelo://app?vid=156d43f7-93cf-4af6-9cfe-5571ff46365a"},"vehicle_type_id":"4","last_reported":1740703648,"current_range_meters":7200,"station_id":"","pricing_plan_id":"cebpf4jnsgd1na2vs0mg"},{"bike_id":"6fdd59a0-9c6b-4ad2-9ef9-ddd09cdf5532","system_id":"levelo_inurba_marseille","lat":43.30596,"lon":5.39349,"is_reserved":false,"is_disabled":false,"rental_uris":{"android":"levelo://app?vid=6fdd59a0-9c6b-4ad2-9ef9-ddd09cdf5532","ios":"levelo://app?vid=6fdd59a0-9c6b-4ad2-9ef9-ddd09cdf5532"},"vehicle_type_id":"4","last_reported":1740703648,"current_range_meters":7200,"station_id":"ce4bh0p2rcd13ifvqd80","pricing_plan_id":"cebpf4jnsgd1na2vs0mg"},{"bike_id":"cca9eb23-5c2c-40fe-9866-9db09bf838b1","system_id":"levelo_inurba_marseille","lat":43.29224,"lon":5.36056,"is_reserved":false,"is_disabled":false,"rental_uris":{"android":"levelo://app?vid=cca9eb23-5c2c-40fe-9866-9db09bf838b1","ios":"levelo://app?vid=cca9eb23-5c2c-40fe-9866-9db09bf838b1"},"vehicle_type_id":"4","last_reported":1740703648,"current_range_meters":7200,"station_id":"ce4bhbh2rcd13ifvqeqg","pricing_plan_id":"cebpf4jnsgd1na2vs0mg"},{"bike_id":"39369c67-b6b1-4351-9f37-e16f04ac94c9","system_id":"levelo_inurba_marseille","lat":43.2319,"lon":5.35552,"is_reserved":false,"is_disabled":false,"rental_uris":{"android":"levelo://app?vid=39369c67-b6b1-4351-9f37-e16f04ac94c9","ios":"levelo://app?vid=39369c67-b6b1-4351-9f37-e16f04ac94c9"},"vehicle_type_id":"4","last_reported":1740703648,"current_range_meters":8000,"station_id":"ce4bhu92rcd13ifvqi70","pricing_plan_id":"cebpf4jnsgd1na2vs0mg"},{"bike_id":"d791a742-4738-47cb-9fe6-27aeeea41532","system_id":"levelo_inurba_marseille","lat":43.30634,"lon":5.40094,"is_reserved":false,"is_disabled":false,"rental_uris":{"android":"levelo://app?vid=d791a742-4738-47cb-9fe6-27aeeea41532","ios":"levelo://app?vid=d791a742-4738-47cb-9fe6-27aeeea41532"},"vehicle_type_id":"4","last_reported":1740703648,"current_range_meters":7200,"station_id":"ce4bh112rcd13ifvqda0","pricing_plan_id":"cebpf4jnsgd1na2vs0mg"},{"bike_id":"8b12f042-66ff-4f72-8110-b87f1cf65c0b","system_id":"levelo_inurba_marseille","lat":43.33404,"lon":5.40028,"is_reserved":false,"is_disabled":false,"rental_uris":{"android":"levelo://app?vid=8b12f042-66ff-4f72-8110-b87f1cf65c0b","ios":"levelo://app?vid=8b12f042-66ff-4f72-8110-b87f1cf65c0b"},"vehicle_type_id":"4","last_reported":1740703648,"current_range_meters":7200,"station_id":"","pricing_plan_id":"cebpf4jnsgd1na2vs0mg"},{"bike_id":"ea8cb564-d405-42e3-911c-0afdd772ee76","system_id":"levelo_inurba_marseille","lat":43.32766,"lon":5.39205,"is_reserved":false,"is_disabled":false,"rental_uris":{"android":"levelo://app?vid=ea8cb564-d405-42e3-911c-0afdd772ee76","ios":"levelo://app?vid=ea8cb564-d405-42e3-911c-0afdd772ee76"},"vehicle_type_id":"4","last_reported":1740703648,"current_range_meters":7200,"station_id":"","pricing_plan_id":"cebpf4jnsgd1na2vs0mg"},{"bike_id":"d9fbfe98-de68-48fc-a6ac-6e6eaeb5062a","system_id":"levelo_inurba_marseille","lat":43.24816,"lon":5.3746,"is_reserved":false,"is_disabled":false,"rental_uris":{"android":"levelo://app?vid=d9fbfe98-de68-48fc-a6ac-6e6eaeb5062a","ios":"levelo://app?vid=d9fbfe98-de68-48fc-a6ac-6e6eaeb5062a"},"vehicle_type_id":"4","last_reported":1740703648,"current_range_meters":7200,"station_id":"ce4bhgh2rcd13ifvqfb0","pricing_plan_id":"cebpf4jnsgd1na2vs0mg"},{"bike_id":"9647918c-d815-4482-8c45-927333bd2450","system_id":"levelo_inurba_marseille","lat":43.27791,"lon":5.4069,"is_reserved":false,"is_disabled":false,"rental_uris":{"android":"levelo://app?vid=9647918c-d815-4482-8c45-927333bd2450","ios":"levelo://app?vid=9647918c-d815-4482-8c45-927333bd2450"},"vehicle_type_id":"4","last_reported":1740703648,"current_range_meters":7200,"station_id":"ce4bhnh2rcd13ifvqgtg","pricing_plan_id":"cebpf4jnsgd1na2vs0mg"},{"bike_id":"09225b4b-9858-4dab-98f1-6374452ceeb0","system_id":"levelo_inurba_marseille","lat":43.29709,"lon":5.3661,"is_reserved":false,"is_disabled":false,"rental_uris":{"android":"levelo://app?vid=09225b4b-9858-4dab-98f1-6374452ceeb0","ios":"levelo://app?vid=09225b4b-9858-4dab-98f1-6374452ceeb0"},"vehicle_type_id":"4","last_reported":1740703648,"current_range_meters":7200,"station_id":"ce4bgn12rcd13ifvqbt0","pricing_plan_id":"cebpf4jnsgd1na2vs0mg"},{"bike_id":"745c5d38-332d-426b-8e7b-acb525d1c540","system_id":"levelo_inurba_marseille","lat":43.25088,"lon":5.39526,"is_reserved":false,"is_disabled":false,"rental_uris":{"android":"levelo://app?vid=745c5d38-332d-426b-8e7b-acb525d1c540","ios":"levelo://app?vid=745c5d38-332d-426b-8e7b-acb525d1c540"},"vehicle_type_id":"4","last_reported":1740703648,"current_range_meters":8000,"station_id":"ce4bhm12rcd13ifvqgkg","pricing_plan_id":"cebpf4jnsgd1na2vs0mg"},{"bike_id":"8c9a3ee7-664d-49c8-a3ea-02dab608b060","system_id":"levelo_inurba_marseille","lat":43.31795,"lon":5.37766,"is_reserved":false,"is_disabled":false,"rental_uris":{"android":"levelo://app?vid=8c9a3ee7-664d-49c8-a3ea-02dab608b060","ios":"levelo://app?vid=8c9a3ee7-664d-49c8-a3ea-02dab608b060"},"vehicle_type_id":"4","last_reported":1740703648,"current_range_meters":8000,"station_id":"","pricing_plan_id":"cebpf4jnsgd1na2vs0mg"},{"bike_id":"6ddd3b57-a8ac-48bb-9cf7-9a1f25693e2a","system_id":"levelo_inurba_marseille","lat":43.30314,"lon":5.40437,"is_reserved":false,"is_disabled":false,"rental_uris":{"android":"levelo://app?vid=6ddd3b57-a8ac-48bb-9cf7-9a1f25693e2a","ios":"levelo://app?vid=6ddd3b57-a8ac-48bb-9cf7-9a1f25693e2a"},"vehicle_type_id":"4","last_reported":1740703648,"current_range_meters":8000,"station_id":"ce4bh012rcd13ifvqd10","pricing_plan_id":"cebpf4jnsgd1na2vs0mg"},{"bike_id":"039ef6be-b708-42df-a6eb-d41656f1ce53","system_id":"levelo_inurba_marseille","lat":43.2511,"lon":5.40337,"is_reserved":false,"is_disabled":false,"rental_uris":{"android":"levelo://app?vid=039ef6be-b708-42df-a6eb-d41656f1ce53","ios":"levelo://app?vid=039ef6be-b708-42df-a6eb-d41656f1ce53"},"vehicle_type_id":"4","last_reported":1740703648,"current_range_meters":8400,"station_id":"ce4bhlh2rcd13ifvqgig","pricing_plan_id":"cebpf4jnsgd1na2vs0mg"},{"bike_id":"834de115-fc42-4d89-8dc7-9daa2fe9d37a","system_id":"levelo_inurba_marseille","lat":43.28106,"lon":5.37838,"is_reserved":false,"is_disabled":false,"rental_uris":{"android":"levelo://app?vid=834de115-fc42-4d89-8dc7-9daa2fe9d37a","ios":"levelo://app?vid=834de115-fc42-4d89-8dc7-9daa2fe9d37a"},"vehicle_type_id":"4","last_reported":1740703648,"current_range_meters":8000,"station_id":"ce4bha12rcd13ifvqee0","pricing_plan_id":"cebpf4jnsgd1na2vs0mg"},{"bike_id":"cdadd5b7-aa38-42ba-81f9-20f1c304fdfc","system_id":"levelo_inurba_marseille","lat":43.28452,"lon":5.35881,"is_reserved":false,"is_disabled":false,"rental_uris":{"android":"levelo://app?vid=cdadd5b7-aa38-42ba-81f9-20f1c304fdfc","ios":"levelo://app?vid=cdadd5b7-aa38-42ba-81f9-20f1c304fdfc"},"vehicle_type_id":"4","last_reported":1740703648,"current_range_meters":8000,"station_id":"ce4bhah2rcd13ifvqei0","pricing_plan_id":"cebpf4jnsgd1na2vs0mg"},{"bike_id":"272efc7d-3f8b-435c-a06e-c8bd069b8f82","system_id":"levelo_inurba_marseille","lat":43.27615,"lon":5.36098,"is_reserved":false,"is_disabled":false,"rental_uris":{"android":"levelo://app?vid=272efc7d-3f8b-435c-a06e-c8bd069b8f82","ios":"levelo://app?vid=272efc7d-3f8b-435c-a06e-c8bd069b8f82"},"vehicle_type_id":"4","last_reported":1740703648,"current_range_meters":8000,"station_id":"ce4bgj92rcd13ifvqbe0","pricing_plan_id":"cebpf4jnsgd1na2vs0mg"},{"bike_id":"91f909e9-358e-43ed-a45f-822af931a978","system_id":"levelo_inurba_marseille","lat":43.23211,"lon":5.40364,"is_reserved":false,"is_disabled":false,"rental_uris":{"android":"levelo://app?vid=91f909e9-358e-43ed-a45f-822af931a978","ios":"levelo://app?vid=91f909e9-358e-43ed-a45f-822af931a978"},"vehicle_type_id":"4","last_reported":1740703648,"current_range_meters":8000,"station_id":"","pricing_plan_id":"cebpf4jnsgd1na2vs0mg"},{"bike_id":"21dee236-81fd-4d4e-8f79-66ef06e4d991","system_id":"levelo_inurba_marseille","lat":43.305943,"lon":5.393443,"is_reserved":false,"is_disabled":false,"rental_uris":{"android":"levelo://app?vid=21dee236-81fd-4d4e-8f79-66ef06e4d991","ios":"levelo://app?vid=21dee236-81fd-4d4e-8f79-66ef06e4d991"},"vehicle_type_id":"4","last_reported":1740703648,"current_range_meters":8400,"station_id":"ce4bh0p2rcd13ifvqd80","pricing_plan_id":"cebpf4jnsgd1na2vs0mg"},{"bike_id":"8c666fd4-f386-4ea5-9d00-f90a3a7f8d51","system_id":"levelo_inurba_marseille","lat":43.28444,"lon":5.35893,"is_reserved":false,"is_disabled":false,"rental_uris":{"android":"levelo://app?vid=8c666fd4-f386-4ea5-9d00-f90a3a7f8d51","ios":"levelo://app?vid=8c666fd4-f386-4ea5-9d00-f90a3a7f8d51"},"vehicle_type_id":"4","last_reported":1740703648,"current_range_meters":8400,"station_id":"ce4bhah2rcd13ifvqei0","pricing_plan_id":"cebpf4jnsgd1na2vs0mg"},{"bike_id":"0cc9dc55-eb06-47c6-9257-948d4299a2e0","system_id":"levelo_inurba_marseille","lat":43.25,"lon":5.38922,"is_reserved":false,"is_disabled":false,"rental_uris":{"android":"levelo://app?vid=0cc9dc55-eb06-47c6-9257-948d4299a2e0","ios":"levelo://app?vid=0cc9dc55-eb06-47c6-9257-948d4299a2e0"},"vehicle_type_id":"4","last_reported":1740703648,"current_range_meters":8400,"station_id":"ce4bhgp2rcd13ifvqfd0","pricing_plan_id":"cebpf4jnsgd1na2vs0mg"},{"bike_id":"ea3487ed-d7b8-4023-bb22-d2dd44155fb1","system_id":"levelo_inurba_marseille","lat":43.28351,"lon":5.3811,"is_reserved":false,"is_disabled":false,"rental_uris":{"android":"levelo://app?vid=ea3487ed-d7b8-4023-bb22-d2dd44155fb1","ios":"levelo://app?vid=ea3487ed-d7b8-4023-bb22-d2dd44155fb1"},"vehicle_type_id":"4","last_reported":1740703648,"current_range_meters":8400,"station_id":"ce4bh412rcd13ifvqdr0","pricing_plan_id":"cebpf4jnsgd1na2vs0mg"},{"bike_id":"ab41809d-0839-4146-9c11-f9e1d5038ec6","system_id":"levelo_inurba_marseille","lat":43.25593,"lon":5.38234,"is_reserved":false,"is_disabled":false,"rental_uris":{"android":"levelo://app?vid=ab41809d-0839-4146-9c11-f9e1d5038ec6","ios":"levelo://app?vid=ab41809d-0839-4146-9c11-f9e1d5038ec6"},"vehicle_type_id":"4","last_reported":1740703648,"current_range_meters":8400,"station_id":"ce4bhih2rcd13ifvqfs0","pricing_plan_id":"cebpf4jnsgd1na2vs0mg"},{"bike_id":"38c79992-9d7b-4253-801d-21731130e0e1","system_id":"levelo_inurba_marseille","lat":43.28077,"lon":5.39649,"is_reserved":false,"is_disabled":false,"rental_uris":{"android":"levelo://app?vid=38c79992-9d7b-4253-801d-21731130e0e1","ios":"levelo://app?vid=38c79992-9d7b-4253-801d-21731130e0e1"},"vehicle_type_id":"4","last_reported":1740703648,"current_range_meters":8400,"station_id":"ce4bho12rcd13ifvqh2g","pricing_plan_id":"cebpf4jnsgd1na2vs0mg"},{"bike_id":"c6b23046-3dbb-4c24-b439-362e9ad2c23a","system_id":"levelo_inurba_marseille","lat":43.24983,"lon":5.3892,"is_reserved":false,"is_disabled":false,"rental_uris":{"android":"levelo://app?vid=c6b23046-3dbb-4c24-b439-362e9ad2c23a","ios":"levelo://app?vid=c6b23046-3dbb-4c24-b439-362e9ad2c23a"},"vehicle_type_id":"4","last_reported":1740703648,"current_range_meters":8800,"station_id":"ce4bhgp2rcd13ifvqfd0","pricing_plan_id":"cebpf4jnsgd1na2vs0mg"},{"bike_id":"8c48f52a-a87f-4b10-9bad-48a387153477","system_id":"levelo_inurba_marseille","lat":43.323602,"lon":5.388816,"is_reserved":false,"is_disabled":false,"rental_uris":{"android":"levelo://app?vid=8c48f52a-a87f-4b10-9bad-48a387153477","ios":"levelo://app?vid=8c48f52a-a87f-4b10-9bad-48a387153477"},"vehicle_type_id":"4","last_reported":1740703648,"current_range_meters":8400,"station_id":"ce4bhqp2rcd13ifvqhog","pricing_plan_id":"cebpf4jnsgd1na2vs0mg"},{"bike_id":"a402dcb0-63b6-4569-b9e8-ad825500c3f8","system_id":"levelo_inurba_marseille","lat":43.29003,"lon":5.35918,"is_reserved":false,"is_disabled":false,"rental_uris":{"android":"levelo://app?vid=a402dcb0-63b6-4569-b9e8-ad825500c3f8","ios":"levelo://app?vid=a402dcb0-63b6-4569-b9e8-ad825500c3f8"},"vehicle_type_id":"4","last_reported":1740703648,"current_range_meters":8400,"station_id":"","pricing_plan_id":"cebpf4jnsgd1na2vs0mg"},{"bike_id":"c997b30a-bd84-4943-809c-ccf6d5b32c4f","system_id":"levelo_inurba_marseille","lat":43.27604,"lon":5.36112,"is_reserved":false,"is_disabled":false,"rental_uris":{"android":"levelo://app?vid=c997b30a-bd84-4943-809c-ccf6d5b32c4f","ios":"levelo://app?vid=c997b30a-bd84-4943-809c-ccf6d5b32c4f"},"vehicle_type_id":"4","last_reported":1740703648,"current_range_meters":8400,"station_id":"ce4bgj92rcd13ifvqbe0","pricing_plan_id":"cebpf4jnsgd1na2vs0mg"},{"bike_id":"3f0907b3-da2b-41a5-8662-a0489e1a0f25","system_id":"levelo_inurba_marseille","lat":43.32084,"lon":5.36798,"is_reserved":false,"is_disabled":false,"rental_uris":{"android":"levelo://app?vid=3f0907b3-da2b-41a5-8662-a0489e1a0f25","ios":"levelo://app?vid=3f0907b3-da2b-41a5-8662-a0489e1a0f25"},"vehicle_type_id":"4","last_reported":1740703648,"current_range_meters":8400,"station_id":"ce4bhrh2rcd13ifvqhug","pricing_plan_id":"cebpf4jnsgd1na2vs0mg"},{"bike_id":"8d759611-ebae-4f1e-9324-47e399cf8324","system_id":"levelo_inurba_marseille","lat":43.28706,"lon":5.37398,"is_reserved":false,"is_disabled":false,"rental_uris":{"android":"levelo://app?vid=8d759611-ebae-4f1e-9324-47e399cf8324","ios":"levelo://app?vid=8d759611-ebae-4f1e-9324-47e399cf8324"},"vehicle_type_id":"4","last_reported":1740703648,"current_range_meters":8400,"station_id":"ce4bh3p2rcd13ifvqdq0","pricing_plan_id":"cebpf4jnsgd1na2vs0mg"},{"bike_id":"4ce26a99-af03-483d-b48c-23c47fea208e","system_id":"levelo_inurba_marseille","lat":43.28823,"lon":5.3587,"is_reserved":false,"is_disabled":false,"rental_uris":{"android":"levelo://app?vid=4ce26a99-af03-483d-b48c-23c47fea208e","ios":"levelo://app?vid=4ce26a99-af03-483d-b48c-23c47fea208e"},"vehicle_type_id":"4","last_reported":1740703648,"current_range_meters":8800,"station_id":"ce4bhb12rcd13ifvqem0","pricing_plan_id":"cebpf4jnsgd1na2vs0mg"},{"bike_id":"74d4a88d-ad3a-4128-a926-23a749e3d79b","system_id":"levelo_inurba_marseille","lat":43.23191,"lon":5.35557,"is_reserved":false,"is_disabled":false,"rental_uris":{"android":"levelo://app?vid=74d4a88d-ad3a-4128-a926-23a749e3d79b","ios":"levelo://app?vid=74d4a88d-ad3a-4128-a926-23a749e3d79b"},"vehicle_type_id":"4","last_reported":1740703648,"current_range_meters":8800,"station_id":"ce4bhu92rcd13ifvqi70","pricing_plan_id":"cebpf4jnsgd1na2vs0mg"},{"bike_id":"5e0e22b0-e973-48d0-8bed-a771273f721a","system_id":"levelo_inurba_marseille","lat":43.27383,"lon":5.36263,"is_reserved":false,"is_disabled":false,"rental_uris":{"android":"levelo://app?vid=5e0e22b0-e973-48d0-8bed-a771273f721a","ios":"levelo://app?vid=5e0e22b0-e973-48d0-8bed-a771273f721a"},"vehicle_type_id":"4","last_reported":1740703648,"current_range_meters":8800,"station_id":"ce4bhbh2rcd13ifvqeo0","pricing_plan_id":"cebpf4jnsgd1na2vs0mg"},{"bike_id":"03ecd382-3850-4874-86ef-0467a1a8c988","system_id":"levelo_inurba_marseille","lat":43.24174,"lon":5.3974,"is_reserved":false,"is_disabled":true,"rental_uris":{"android":"levelo://app?vid=03ecd382-3850-4874-86ef-0467a1a8c988","ios":"levelo://app?vid=03ecd382-3850-4874-86ef-0467a1a8c988"},"vehicle_type_id":"4","last_reported":1740703648,"current_range_meters":8800,"station_id":"ce4bhn12rcd13ifvqgpg","pricing_plan_id":"cebpf4jnsgd1na2vs0mg"},{"bike_id":"e4127e72-139a-478c-bc8d-43f39e537533","system_id":"levelo_inurba_marseille","lat":43.29671,"lon":5.36656,"is_reserved":false,"is_disabled":false,"rental_uris":{"android":"levelo://app?vid=e4127e72-139a-478c-bc8d-43f39e537533","ios":"levelo://app?vid=e4127e72-139a-478c-bc8d-43f39e537533"},"vehicle_type_id":"4","last_reported":1740703648,"current_range_meters":8800,"station_id":"","pricing_plan_id":"cebpf4jnsgd1na2vs0mg"},{"bike_id":"fb1fbfbc-642f-49ef-93d2-bb1277bc6eb4","system_id":"levelo_inurba_marseille","lat":43.28449,"lon":5.35881,"is_reserved":false,"is_disabled":false,"rental_uris":{"android":"levelo://app?vid=fb1fbfbc-642f-49ef-93d2-bb1277bc6eb4","ios":"levelo://app?vid=fb1fbfbc-642f-49ef-93d2-bb1277bc6eb4"},"vehicle_type_id":"4","last_reported":1740703648,"current_range_meters":8800,"station_id":"ce4bhah2rcd13ifvqei0","pricing_plan_id":"cebpf4jnsgd1na2vs0mg"},{"bike_id":"54d46a8b-8314-471a-98f9-6d86686fc605","system_id":"levelo_inurba_marseille","lat":43.25827,"lon":5.39442,"is_reserved":false,"is_disabled":false,"rental_uris":{"android":"levelo://app?vid=54d46a8b-8314-471a-98f9-6d86686fc605","ios":"levelo://app?vid=54d46a8b-8314-471a-98f9-6d86686fc605"},"vehicle_type_id":"4","last_reported":1740703648,"current_range_meters":8800,"station_id":"ce4bhip2rcd13ifvqft0","pricing_plan_id":"cebpf4jnsgd1na2vs0mg"},{"bike_id":"ea1ae099-0cdb-45d1-bb30-a324d3bc542a","system_id":"levelo_inurba_marseille","lat":43.32373,"lon":5.36774,"is_reserved":false,"is_disabled":false,"rental_uris":{"android":"levelo://app?vid=ea1ae099-0cdb-45d1-bb30-a324d3bc542a","ios":"levelo://app?vid=ea1ae099-0cdb-45d1-bb30-a324d3bc542a"},"vehicle_type_id":"4","last_reported":1740703648,"current_range_meters":9200,"station_id":"ce4bhsh2rcd13ifvqi2g","pricing_plan_id":"cebpf4jnsgd1na2vs0mg"},{"bike_id":"f253ad35-7fb0-4c23-aeac-ca19d1eef71b","system_id":"levelo_inurba_marseille","lat":43.31379,"lon":5.38496,"is_reserved":false,"is_disabled":false,"rental_uris":{"android":"levelo://app?vid=f253ad35-7fb0-4c23-aeac-ca19d1eef71b","ios":"levelo://app?vid=f253ad35-7fb0-4c23-aeac-ca19d1eef71b"},"vehicle_type_id":"4","last_reported":1740703648,"current_range_meters":9200,"station_id":"ce4bgt92rcd13ifvqcf0","pricing_plan_id":"cebpf4jnsgd1na2vs0mg"},{"bike_id":"7ac5c377-3606-46ab-9a17-d74a6e101980","system_id":"levelo_inurba_marseille","lat":43.29852,"lon":5.38839,"is_reserved":false,"is_disabled":false,"rental_uris":{"android":"levelo://app?vid=7ac5c377-3606-46ab-9a17-d74a6e101980","ios":"levelo://app?vid=7ac5c377-3606-46ab-9a17-d74a6e101980"},"vehicle_type_id":"4","last_reported":1740703648,"current_range_meters":9200,"station_id":"ce4bh392rcd13ifvqdl0","pricing_plan_id":"cebpf4jnsgd1na2vs0mg"},{"bike_id":"c9450bb1-7080-428b-bbf9-1bb463818f4d","system_id":"levelo_inurba_marseille","lat":43.27618,"lon":5.36098,"is_reserved":false,"is_disabled":true,"rental_uris":{"android":"levelo://app?vid=c9450bb1-7080-428b-bbf9-1bb463818f4d","ios":"levelo://app?vid=c9450bb1-7080-428b-bbf9-1bb463818f4d"},"vehicle_type_id":"4","last_reported":1740703648,"current_range_meters":9200,"station_id":"ce4bgj92rcd13ifvqbe0","pricing_plan_id":"cebpf4jnsgd1na2vs0mg"},{"bike_id":"0684c9b8-68d1-4121-82b2-00c0eebe64db","system_id":"levelo_inurba_marseille","lat":43.27933,"lon":5.41049,"is_reserved":false,"is_disabled":false,"rental_uris":{"android":"levelo://app?vid=0684c9b8-68d1-4121-82b2-00c0eebe64db","ios":"levelo://app?vid=0684c9b8-68d1-4121-82b2-00c0eebe64db"},"vehicle_type_id":"4","last_reported":1740703648,"current_range_meters":9200,"station_id":"ce4bhnp2rcd13ifvqh0g","pricing_plan_id":"cebpf4jnsgd1na2vs0mg"},{"bike_id":"59bcd662-2616-41e6-a139-50625c1fd8a5","system_id":"levelo_inurba_marseille","lat":43.29277,"lon":5.40118,"is_reserved":false,"is_disabled":false,"rental_uris":{"android":"levelo://app?vid=59bcd662-2616-41e6-a139-50625c1fd8a5","ios":"levelo://app?vid=59bcd662-2616-41e6-a139-50625c1fd8a5"},"vehicle_type_id":"4","last_reported":1740703648,"current_range_meters":10800,"station_id":"ce4bh312rcd13ifvqdk0","pricing_plan_id":"cebpf4jnsgd1na2vs0mg"},{"bike_id":"e1aad595-260c-42b5-8d2a-68a190ab60a4","system_id":"levelo_inurba_marseille","lat":43.3033,"lon":5.4043,"is_reserved":false,"is_disabled":false,"rental_uris":{"android":"levelo://app?vid=e1aad595-260c-42b5-8d2a-68a190ab60a4","ios":"levelo://app?vid=e1aad595-260c-42b5-8d2a-68a190ab60a4"},"vehicle_type_id":"4","last_reported":1740703648,"current_range_meters":9600,"station_id":"ce4bh012rcd13ifvqd10","pricing_plan_id":"cebpf4jnsgd1na2vs0mg"},{"bike_id":"5cdf1157-258e-4dbe-9eac-97f9742be378","system_id":"levelo_inurba_marseille","lat":43.27369,"lon":5.36254,"is_reserved":false,"is_disabled":false,"rental_uris":{"android":"levelo://app?vid=5cdf1157-258e-4dbe-9eac-97f9742be378","ios":"levelo://app?vid=5cdf1157-258e-4dbe-9eac-97f9742be378"},"vehicle_type_id":"4","last_reported":1740703648,"current_range_meters":9600,"station_id":"ce4bhbh2rcd13ifvqeo0","pricing_plan_id":"cebpf4jnsgd1na2vs0mg"},{"bike_id":"2f218cd9-6dc2-4509-acc5-b6e8dd4cef8b","system_id":"levelo_inurba_marseille","lat":43.284604,"lon":5.358837,"is_reserved":false,"is_disabled":false,"rental_uris":{"android":"levelo://app?vid=2f218cd9-6dc2-4509-acc5-b6e8dd4cef8b","ios":"levelo://app?vid=2f218cd9-6dc2-4509-acc5-b6e8dd4cef8b"},"vehicle_type_id":"4","last_reported":1740703648,"current_range_meters":9600,"station_id":"ce4bhah2rcd13ifvqei0","pricing_plan_id":"cebpf4jnsgd1na2vs0mg"},{"bike_id":"17209f80-451e-4586-b620-381cc150687e","system_id":"levelo_inurba_marseille","lat":43.29876,"lon":5.38897,"is_reserved":false,"is_disabled":false,"rental_uris":{"android":"levelo://app?vid=17209f80-451e-4586-b620-381cc150687e","ios":"levelo://app?vid=17209f80-451e-4586-b620-381cc150687e"},"vehicle_type_id":"4","last_reported":1740703648,"current_range_meters":9600,"station_id":"ce4bh392rcd13ifvqdl0","pricing_plan_id":"cebpf4jnsgd1na2vs0mg"},{"bike_id":"f50f8e56-e84e-4057-a133-581df77cfc01","system_id":"levelo_inurba_marseille","lat":43.30429,"lon":5.38878,"is_reserved":false,"is_disabled":false,"rental_uris":{"android":"levelo://app?vid=f50f8e56-e84e-4057-a133-581df77cfc01","ios":"levelo://app?vid=f50f8e56-e84e-4057-a133-581df77cfc01"},"vehicle_type_id":"4","last_reported":1740703648,"current_range_meters":9600,"station_id":"ce4bgk12rcd13ifvqbi0","pricing_plan_id":"cebpf4jnsgd1na2vs0mg"},{"bike_id":"d8994050-39f7-4aaa-af77-5e87c12121df","system_id":"levelo_inurba_marseille","lat":43.290045,"lon":5.356195,"is_reserved":false,"is_disabled":false,"rental_uris":{"android":"levelo://app?vid=d8994050-39f7-4aaa-af77-5e87c12121df","ios":"levelo://app?vid=d8994050-39f7-4aaa-af77-5e87c12121df"},"vehicle_type_id":"4","last_reported":1740703648,"current_range_meters":9600,"station_id":"ce4bhb92rcd13ifvqen0","pricing_plan_id":"cebpf4jnsgd1na2vs0mg"},{"bike_id":"83100333-e221-4abb-8bc0-3b6dd416a491","system_id":"levelo_inurba_marseille","lat":43.25078,"lon":5.39499,"is_reserved":false,"is_disabled":false,"rental_uris":{"android":"levelo://app?vid=83100333-e221-4abb-8bc0-3b6dd416a491","ios":"levelo://app?vid=83100333-e221-4abb-8bc0-3b6dd416a491"},"vehicle_type_id":"4","last_reported":1740703648,"current_range_meters":9600,"station_id":"ce4bhm12rcd13ifvqgkg","pricing_plan_id":"cebpf4jnsgd1na2vs0mg"},{"bike_id":"9c16f73b-d883-4318-9d54-d8eb1fe44c91","system_id":"levelo_inurba_marseille","lat":43.27814,"lon":5.40727,"is_reserved":false,"is_disabled":false,"rental_uris":{"android":"levelo://app?vid=9c16f73b-d883-4318-9d54-d8eb1fe44c91","ios":"levelo://app?vid=9c16f73b-d883-4318-9d54-d8eb1fe44c91"},"vehicle_type_id":"4","last_reported":1740703648,"current_range_meters":9600,"station_id":"ce4bhnh2rcd13ifvqgtg","pricing_plan_id":"cebpf4jnsgd1na2vs0mg"},{"bike_id":"eae9f6fe-b943-4452-9f29-bf696f5c4ed4","system_id":"levelo_inurba_marseille","lat":43.31055,"lon":5.3836,"is_reserved":false,"is_disabled":false,"rental_uris":{"android":"levelo://app?vid=eae9f6fe-b943-4452-9f29-bf696f5c4ed4","ios":"levelo://app?vid=eae9f6fe-b943-4452-9f29-bf696f5c4ed4"},"vehicle_type_id":"4","last_reported":1740703648,"current_range_meters":10000,"station_id":"ce4bgv92rcd13ifvqcr0","pricing_plan_id":"cebpf4jnsgd1na2vs0mg"},{"bike_id":"e0036d1f-51ac-4c4a-ba4e-96d412b945c0","system_id":"levelo_inurba_marseille","lat":43.280312,"lon":5.369372,"is_reserved":false,"is_disabled":false,"rental_uris":{"android":"levelo://app?vid=e0036d1f-51ac-4c4a-ba4e-96d412b945c0","ios":"levelo://app?vid=e0036d1f-51ac-4c4a-ba4e-96d412b945c0"},"vehicle_type_id":"4","last_reported":1740703648,"current_range_meters":9600,"station_id":"ce4bha12rcd13ifvqef0","pricing_plan_id":"cebpf4jnsgd1na2vs0mg"},{"bike_id":"42b3a08a-26d9-4763-bcc4-8ee9e75a45c4","system_id":"levelo_inurba_marseille","lat":43.28935,"lon":5.36625,"is_reserved":false,"is_disabled":false,"rental_uris":{"android":"levelo://app?vid=42b3a08a-26d9-4763-bcc4-8ee9e75a45c4","ios":"levelo://app?vid=42b3a08a-26d9-4763-bcc4-8ee9e75a45c4"},"vehicle_type_id":"4","last_reported":1740703648,"current_range_meters":9600,"station_id":"ce4bhap2rcd13ifvqek0","pricing_plan_id":"cebpf4jnsgd1na2vs0mg"},{"bike_id":"eea25fa1-2db0-4cb4-901f-2535ea4c664c","system_id":"levelo_inurba_marseille","lat":43.30332,"lon":5.40441,"is_reserved":false,"is_disabled":false,"rental_uris":{"android":"levelo://app?vid=eea25fa1-2db0-4cb4-901f-2535ea4c664c","ios":"levelo://app?vid=eea25fa1-2db0-4cb4-901f-2535ea4c664c"},"vehicle_type_id":"4","last_reported":1740703648,"current_range_meters":10000,"station_id":"ce4bh012rcd13ifvqd10","pricing_plan_id":"cebpf4jnsgd1na2vs0mg"},{"bike_id":"3d40c7de-ae33-4f47-a9ec-ad6761202c40","system_id":"levelo_inurba_marseille","lat":43.28419,"lon":5.37527,"is_reserved":false,"is_disabled":false,"rental_uris":{"android":"levelo://app?vid=3d40c7de-ae33-4f47-a9ec-ad6761202c40","ios":"levelo://app?vid=3d40c7de-ae33-4f47-a9ec-ad6761202c40"},"vehicle_type_id":"4","last_reported":1740703648,"current_range_meters":10000,"station_id":"ce4bh412rcd13ifvqds0","pricing_plan_id":"cebpf4jnsgd1na2vs0mg"},{"bike_id":"09a1e742-3b90-459c-b1c5-6b5cd8006c89","system_id":"levelo_inurba_marseille","lat":43.255775,"lon":5.382315,"is_reserved":false,"is_disabled":false,"rental_uris":{"android":"levelo://app?vid=09a1e742-3b90-459c-b1c5-6b5cd8006c89","ios":"levelo://app?vid=09a1e742-3b90-459c-b1c5-6b5cd8006c89"},"vehicle_type_id":"4","last_reported":1740703648,"current_range_meters":10000,"station_id":"ce4bhih2rcd13ifvqfs0","pricing_plan_id":"cebpf4jnsgd1na2vs0mg"},{"bike_id":"7de8066b-1c87-4190-8fd2-555f7014d460","system_id":"levelo_inurba_marseille","lat":43.28853,"lon":5.35846,"is_reserved":false,"is_disabled":false,"rental_uris":{"android":"levelo://app?vid=7de8066b-1c87-4190-8fd2-555f7014d460","ios":"levelo://app?vid=7de8066b-1c87-4190-8fd2-555f7014d460"},"vehicle_type_id":"4","last_reported":1740703648,"current_range_meters":10800,"station_id":"ce4bhb12rcd13ifvqem0","pricing_plan_id":"cebpf4jnsgd1na2vs0mg"},{"bike_id":"d0c84cab-a99f-47e9-990c-dce3f4de9db9","system_id":"levelo_inurba_marseille","lat":43.31124,"lon":5.37769,"is_reserved":false,"is_disabled":false,"rental_uris":{"android":"levelo://app?vid=d0c84cab-a99f-47e9-990c-dce3f4de9db9","ios":"levelo://app?vid=d0c84cab-a99f-47e9-990c-dce3f4de9db9"},"vehicle_type_id":"4","last_reported":1740703648,"current_range_meters":10000,"station_id":"ce4bgt92rcd13ifvqcg0","pricing_plan_id":"cebpf4jnsgd1na2vs0mg"},{"bike_id":"e1839438-5cc9-49f1-938d-6270b07fb94a","system_id":"levelo_inurba_marseille","lat":43.28452,"lon":5.35877,"is_reserved":false,"is_disabled":false,"rental_uris":{"android":"levelo://app?vid=e1839438-5cc9-49f1-938d-6270b07fb94a","ios":"levelo://app?vid=e1839438-5cc9-49f1-938d-6270b07fb94a"},"vehicle_type_id":"4","last_reported":1740703648,"current_range_meters":10000,"station_id":"ce4bhah2rcd13ifvqei0","pricing_plan_id":"cebpf4jnsgd1na2vs0mg"},{"bike_id":"9ad5b63c-3414-4ea4-baac-7d4b6cddc47a","system_id":"levelo_inurba_marseille","lat":43.29052,"lon":5.37141,"is_reserved":false,"is_disabled":false,"rental_uris":{"android":"levelo://app?vid=9ad5b63c-3414-4ea4-baac-7d4b6cddc47a","ios":"levelo://app?vid=9ad5b63c-3414-4ea4-baac-7d4b6cddc47a"},"vehicle_type_id":"4","last_reported":1740703648,"current_range_meters":10800,"station_id":"ce4bh5p2rcd13ifvqe4g","pricing_plan_id":"cebpf4jnsgd1na2vs0mg"},{"bike_id":"2d713e86-84c1-414d-8586-0104afd3a051","system_id":"levelo_inurba_marseille","lat":43.26496,"lon":5.39552,"is_reserved":false,"is_disabled":true,"rental_uris":{"android":"levelo://app?vid=2d713e86-84c1-414d-8586-0104afd3a051","ios":"levelo://app?vid=2d713e86-84c1-414d-8586-0104afd3a051"},"vehicle_type_id":"4","last_reported":1740703648,"current_range_meters":10000,"station_id":"ce4bhi12rcd13ifvqfq0","pricing_plan_id":"cebpf4jnsgd1na2vs0mg"},{"bike_id":"c6579477-6690-44a6-b7de-b88123a0b241","system_id":"levelo_inurba_marseille","lat":43.28693,"lon":5.36125,"is_reserved":false,"is_disabled":false,"rental_uris":{"android":"levelo://app?vid=c6579477-6690-44a6-b7de-b88123a0b241","ios":"levelo://app?vid=c6579477-6690-44a6-b7de-b88123a0b241"},"vehicle_type_id":"4","last_reported":1740703648,"current_range_meters":10000,"station_id":"cki0cbj6b192h4jlfktg","pricing_plan_id":"cebpf4jnsgd1na2vs0mg"},{"bike_id":"907b990b-0a8a-4924-acec-37622f347ce1","system_id":"levelo_inurba_marseille","lat":43.286157,"lon":5.35108,"is_reserved":false,"is_disabled":false,"rental_uris":{"android":"levelo://app?vid=907b990b-0a8a-4924-acec-37622f347ce1","ios":"levelo://app?vid=907b990b-0a8a-4924-acec-37622f347ce1"},"vehicle_type_id":"4","last_reported":1740703648,"current_range_meters":10000,"station_id":"ce4bhch2rcd13ifvqeug","pricing_plan_id":"cebpf4jnsgd1na2vs0mg"},{"bike_id":"ab3ae644-bc74-4779-9d00-afaab1721981","system_id":"levelo_inurba_marseille","lat":43.26188,"lon":5.37925,"is_reserved":false,"is_disabled":false,"rental_uris":{"android":"levelo://app?vid=ab3ae644-bc74-4779-9d00-afaab1721981","ios":"levelo://app?vid=ab3ae644-bc74-4779-9d00-afaab1721981"},"vehicle_type_id":"4","last_reported":1740703648,"current_range_meters":10000,"station_id":"ce4bhjp2rcd13ifvqg90","pricing_plan_id":"cebpf4jnsgd1na2vs0mg"},{"bike_id":"026e178e-412a-49e0-9772-e5f6d0abaab4","system_id":"levelo_inurba_marseille","lat":43.30859,"lon":5.37099,"is_reserved":false,"is_disabled":false,"rental_uris":{"android":"levelo://app?vid=026e178e-412a-49e0-9772-e5f6d0abaab4","ios":"levelo://app?vid=026e178e-412a-49e0-9772-e5f6d0abaab4"},"vehicle_type_id":"4","last_reported":1740703648,"current_range_meters":10800,"station_id":"","pricing_plan_id":"cebpf4jnsgd1na2vs0mg"},{"bike_id":"f4a973f4-48ad-42d5-8cb7-e6702d5b40e9","system_id":"levelo_inurba_marseille","lat":43.31747,"lon":5.39028,"is_reserved":false,"is_disabled":false,"rental_uris":{"android":"levelo://app?vid=f4a973f4-48ad-42d5-8cb7-e6702d5b40e9","ios":"levelo://app?vid=f4a973f4-48ad-42d5-8cb7-e6702d5b40e9"},"vehicle_type_id":"4","last_reported":1740703648,"current_range_meters":10800,"station_id":"ce4bhqp2rcd13ifvqhng","pricing_plan_id":"cebpf4jnsgd1na2vs0mg"},{"bike_id":"30a99d9d-9669-40cb-9767-ea8842f50645","system_id":"levelo_inurba_marseille","lat":43.29721,"lon":5.36618,"is_reserved":false,"is_disabled":false,"rental_uris":{"android":"levelo://app?vid=30a99d9d-9669-40cb-9767-ea8842f50645","ios":"levelo://app?vid=30a99d9d-9669-40cb-9767-ea8842f50645"},"vehicle_type_id":"4","last_reported":1740703648,"current_range_meters":10800,"station_id":"ce4bgn12rcd13ifvqbt0","pricing_plan_id":"cebpf4jnsgd1na2vs0mg"},{"bike_id":"d5993554-0cf9-4011-b623-59aa562e81b3","system_id":"levelo_inurba_marseille","lat":43.28112,"lon":5.37829,"is_reserved":false,"is_disabled":false,"rental_uris":{"android":"levelo://app?vid=d5993554-0cf9-4011-b623-59aa562e81b3","ios":"levelo://app?vid=d5993554-0cf9-4011-b623-59aa562e81b3"},"vehicle_type_id":"4","last_reported":1740703648,"current_range_meters":10800,"station_id":"ce4bha12rcd13ifvqee0","pricing_plan_id":"cebpf4jnsgd1na2vs0mg"},{"bike_id":"443370dd-f8b8-457a-b6f8-389b804ff6fc","system_id":"levelo_inurba_marseille","lat":43.32379,"lon":5.38903,"is_reserved":false,"is_disabled":false,"rental_uris":{"android":"levelo://app?vid=443370dd-f8b8-457a-b6f8-389b804ff6fc","ios":"levelo://app?vid=443370dd-f8b8-457a-b6f8-389b804ff6fc"},"vehicle_type_id":"4","last_reported":1740703648,"current_range_meters":10800,"station_id":"ce4bhqp2rcd13ifvqhog","pricing_plan_id":"cebpf4jnsgd1na2vs0mg"},{"bike_id":"6413670b-3591-4dd6-8654-2e6512f93b7b","system_id":"levelo_inurba_marseille","lat":43.27945,"lon":5.4104,"is_reserved":false,"is_disabled":false,"rental_uris":{"android":"levelo://app?vid=6413670b-3591-4dd6-8654-2e6512f93b7b","ios":"levelo://app?vid=6413670b-3591-4dd6-8654-2e6512f93b7b"},"vehicle_type_id":"4","last_reported":1740703648,"current_range_meters":10800,"station_id":"ce4bhnp2rcd13ifvqh0g","pricing_plan_id":"cebpf4jnsgd1na2vs0mg"},{"bike_id":"e89404bc-b67d-4aa0-b5b9-0d5adc52fc30","system_id":"levelo_inurba_marseille","lat":43.28614,"lon":5.35092,"is_reserved":false,"is_disabled":false,"rental_uris":{"android":"levelo://app?vid=e89404bc-b67d-4aa0-b5b9-0d5adc52fc30","ios":"levelo://app?vid=e89404bc-b67d-4aa0-b5b9-0d5adc52fc30"},"vehicle_type_id":"4","last_reported":1740703648,"current_range_meters":10800,"station_id":"ce4bhch2rcd13ifvqeug","pricing_plan_id":"cebpf4jnsgd1na2vs0mg"},{"bike_id":"a88e9d61-7e15-4bbe-ab9c-aba0a66dcc50","system_id":"levelo_inurba_marseille","lat":43.24805,"lon":5.37463,"is_reserved":false,"is_disabled":false,"rental_uris":{"android":"levelo://app?vid=a88e9d61-7e15-4bbe-ab9c-aba0a66dcc50","ios":"levelo://app?vid=a88e9d61-7e15-4bbe-ab9c-aba0a66dcc50"},"vehicle_type_id":"4","last_reported":1740703648,"current_range_meters":10800,"station_id":"ce4bhgh2rcd13ifvqfb0","pricing_plan_id":"cebpf4jnsgd1na2vs0mg"},{"bike_id":"a7a49217-b3d4-4933-8273-9dda3c403bf1","system_id":"levelo_inurba_marseille","lat":43.31657,"lon":5.39608,"is_reserved":false,"is_disabled":false,"rental_uris":{"android":"levelo://app?vid=a7a49217-b3d4-4933-8273-9dda3c403bf1","ios":"levelo://app?vid=a7a49217-b3d4-4933-8273-9dda3c403bf1"},"vehicle_type_id":"4","last_reported":1740703648,"current_range_meters":10800,"station_id":"","pricing_plan_id":"cebpf4jnsgd1na2vs0mg"},{"bike_id":"4e2e11f8-e9a3-4f3a-9372-23488c564b9c","system_id":"levelo_inurba_marseille","lat":43.28458,"lon":5.35888,"is_reserved":false,"is_disabled":false,"rental_uris":{"android":"levelo://app?vid=4e2e11f8-e9a3-4f3a-9372-23488c564b9c","ios":"levelo://app?vid=4e2e11f8-e9a3-4f3a-9372-23488c564b9c"},"vehicle_type_id":"4","last_reported":1740703648,"current_range_meters":11600,"station_id":"ce4bhah2rcd13ifvqei0","pricing_plan_id":"cebpf4jnsgd1na2vs0mg"},{"bike_id":"3b6dd1b5-e623-4810-88e8-770e0e1da2ae","system_id":"levelo_inurba_marseille","lat":43.289318,"lon":5.36392,"is_reserved":false,"is_disabled":false,"rental_uris":{"android":"levelo://app?vid=3b6dd1b5-e623-4810-88e8-770e0e1da2ae","ios":"levelo://app?vid=3b6dd1b5-e623-4810-88e8-770e0e1da2ae"},"vehicle_type_id":"4","last_reported":1740703648,"current_range_meters":11200,"station_id":"ce4bhc92rcd13ifvqetg","pricing_plan_id":"cebpf4jnsgd1na2vs0mg"},{"bike_id":"409a385b-f084-4a05-a438-87b0c694f773","system_id":"levelo_inurba_marseille","lat":43.31339,"lon":5.39738,"is_reserved":false,"is_disabled":false,"rental_uris":{"android":"levelo://app?vid=409a385b-f084-4a05-a438-87b0c694f773","ios":"levelo://app?vid=409a385b-f084-4a05-a438-87b0c694f773"},"vehicle_type_id":"4","last_reported":1740703648,"current_range_meters":11200,"station_id":"ce4bgvp2rcd13ifvqcu0","pricing_plan_id":"cebpf4jnsgd1na2vs0mg"},{"bike_id":"f84d7596-4c47-4c18-a4f9-ba218eafea6d","system_id":"levelo_inurba_marseille","lat":43.28408,"lon":5.37526,"is_reserved":false,"is_disabled":false,"rental_uris":{"android":"levelo://app?vid=f84d7596-4c47-4c18-a4f9-ba218eafea6d","ios":"levelo://app?vid=f84d7596-4c47-4c18-a4f9-ba218eafea6d"},"vehicle_type_id":"4","last_reported":1740703648,"current_range_meters":11200,"station_id":"ce4bh412rcd13ifvqds0","pricing_plan_id":"cebpf4jnsgd1na2vs0mg"},{"bike_id":"06f46088-86dd-4f85-a76e-b4e1ebe0acc7","system_id":"levelo_inurba_marseille","lat":43.28611,"lon":5.35098,"is_reserved":false,"is_disabled":false,"rental_uris":{"android":"levelo://app?vid=06f46088-86dd-4f85-a76e-b4e1ebe0acc7","ios":"levelo://app?vid=06f46088-86dd-4f85-a76e-b4e1ebe0acc7"},"vehicle_type_id":"4","last_reported":1740703648,"current_range_meters":11600,"station_id":"ce4bhch2rcd13ifvqeug","pricing_plan_id":"cebpf4jnsgd1na2vs0mg"},{"bike_id":"f5f48efb-c302-4717-a06e-d5b51623d051","system_id":"levelo_inurba_marseille","lat":43.29258,"lon":5.37618,"is_reserved":false,"is_disabled":false,"rental_uris":{"android":"levelo://app?vid=f5f48efb-c302-4717-a06e-d5b51623d051","ios":"levelo://app?vid=f5f48efb-c302-4717-a06e-d5b51623d051"},"vehicle_type_id":"4","last_reported":1740703648,"current_range_meters":11200,"station_id":"ce4bgi12rcd13ifvqb80","pricing_plan_id":"cebpf4jnsgd1na2vs0mg"},{"bike_id":"3de9aeda-1f9a-4bbc-8b90-e02a49e56ca9","system_id":"levelo_inurba_marseille","lat":43.23192,"lon":5.35562,"is_reserved":false,"is_disabled":false,"rental_uris":{"android":"levelo://app?vid=3de9aeda-1f9a-4bbc-8b90-e02a49e56ca9","ios":"levelo://app?vid=3de9aeda-1f9a-4bbc-8b90-e02a49e56ca9"},"vehicle_type_id":"4","last_reported":1740703648,"current_range_meters":11200,"station_id":"ce4bhu92rcd13ifvqi70","pricing_plan_id":"cebpf4jnsgd1na2vs0mg"},{"bike_id":"45bcdd61-a600-4686-95d9-f2003a49bdbc","system_id":"levelo_inurba_marseille","lat":43.29936,"lon":5.36545,"is_reserved":false,"is_disabled":false,"rental_uris":{"android":"levelo://app?vid=45bcdd61-a600-4686-95d9-f2003a49bdbc","ios":"levelo://app?vid=45bcdd61-a600-4686-95d9-f2003a49bdbc"},"vehicle_type_id":"4","last_reported":1740703648,"current_range_meters":11200,"station_id":"ce4bgm92rcd13ifvqbr0","pricing_plan_id":"cebpf4jnsgd1na2vs0mg"},{"bike_id":"1393e48a-5096-48c2-8ef4-ef737b7b43ae","system_id":"levelo_inurba_marseille","lat":43.25092,"lon":5.39532,"is_reserved":false,"is_disabled":false,"rental_uris":{"android":"levelo://app?vid=1393e48a-5096-48c2-8ef4-ef737b7b43ae","ios":"levelo://app?vid=1393e48a-5096-48c2-8ef4-ef737b7b43ae"},"vehicle_type_id":"4","last_reported":1740703648,"current_range_meters":11600,"station_id":"ce4bhm12rcd13ifvqgkg","pricing_plan_id":"cebpf4jnsgd1na2vs0mg"},{"bike_id":"7470ebdf-96fe-4da7-b039-5ca23f630bc0","system_id":"levelo_inurba_marseille","lat":43.317558,"lon":5.390172,"is_reserved":false,"is_disabled":false,"rental_uris":{"android":"levelo://app?vid=7470ebdf-96fe-4da7-b039-5ca23f630bc0","ios":"levelo://app?vid=7470ebdf-96fe-4da7-b039-5ca23f630bc0"},"vehicle_type_id":"4","last_reported":1740703648,"current_range_meters":11600,"station_id":"ce4bhqp2rcd13ifvqhng","pricing_plan_id":"cebpf4jnsgd1na2vs0mg"},{"bike_id":"6f28d17e-fa28-4cd3-91a2-81abc0f7ea2a","system_id":"levelo_inurba_marseille","lat":43.28454,"lon":5.35891,"is_reserved":false,"is_disabled":false,"rental_uris":{"android":"levelo://app?vid=6f28d17e-fa28-4cd3-91a2-81abc0f7ea2a","ios":"levelo://app?vid=6f28d17e-fa28-4cd3-91a2-81abc0f7ea2a"},"vehicle_type_id":"4","last_reported":1740703648,"current_range_meters":11600,"station_id":"ce4bhah2rcd13ifvqei0","pricing_plan_id":"cebpf4jnsgd1na2vs0mg"},{"bike_id":"6bf62df5-9f2c-4676-be2e-3425368f3119","system_id":"levelo_inurba_marseille","lat":43.293234,"lon":5.382539,"is_reserved":false,"is_disabled":false,"rental_uris":{"android":"levelo://app?vid=6bf62df5-9f2c-4676-be2e-3425368f3119","ios":"levelo://app?vid=6bf62df5-9f2c-4676-be2e-3425368f3119"},"vehicle_type_id":"4","last_reported":1740703648,"current_range_meters":12000,"station_id":"","pricing_plan_id":"cebpf4jnsgd1na2vs0mg"},{"bike_id":"6fde5522-ed5d-4656-8fae-ea5333057e7b","system_id":"levelo_inurba_marseille","lat":43.31277,"lon":5.40169,"is_reserved":false,"is_disabled":false,"rental_uris":{"android":"levelo://app?vid=6fde5522-ed5d-4656-8fae-ea5333057e7b","ios":"levelo://app?vid=6fde5522-ed5d-4656-8fae-ea5333057e7b"},"vehicle_type_id":"4","last_reported":1740703648,"current_range_meters":12000,"station_id":"ce4bh092rcd13ifvqd30","pricing_plan_id":"cebpf4jnsgd1na2vs0mg"},{"bike_id":"430b8c8b-9ffb-4b03-929c-7b5604171a6d","system_id":"levelo_inurba_marseille","lat":43.27827,"lon":5.40723,"is_reserved":false,"is_disabled":false,"rental_uris":{"android":"levelo://app?vid=430b8c8b-9ffb-4b03-929c-7b5604171a6d","ios":"levelo://app?vid=430b8c8b-9ffb-4b03-929c-7b5604171a6d"},"vehicle_type_id":"4","last_reported":1740703648,"current_range_meters":12000,"station_id":"ce4bhnh2rcd13ifvqgtg","pricing_plan_id":"cebpf4jnsgd1na2vs0mg"},{"bike_id":"646237b3-6009-4be9-8f00-e87434ea9fa4","system_id":"levelo_inurba_marseille","lat":43.24065,"lon":5.37743,"is_reserved":false,"is_disabled":false,"rental_uris":{"android":"levelo://app?vid=646237b3-6009-4be9-8f00-e87434ea9fa4","ios":"levelo://app?vid=646237b3-6009-4be9-8f00-e87434ea9fa4"},"vehicle_type_id":"4","last_reported":1740703648,"current_range_meters":12000,"station_id":"ce4bhnp2rcd13ifvqgvg","pricing_plan_id":"cebpf4jnsgd1na2vs0mg"},{"bike_id":"3d06ad03-608d-41a3-9db1-86aaa1692ce2","system_id":"levelo_inurba_marseille","lat":43.29722,"lon":5.3661,"is_reserved":false,"is_disabled":false,"rental_uris":{"android":"levelo://app?vid=3d06ad03-608d-41a3-9db1-86aaa1692ce2","ios":"levelo://app?vid=3d06ad03-608d-41a3-9db1-86aaa1692ce2"},"vehicle_type_id":"4","last_reported":1740703648,"current_range_meters":12000,"station_id":"ce4bgn12rcd13ifvqbt0","pricing_plan_id":"cebpf4jnsgd1na2vs0mg"},{"bike_id":"f11aaa14-7703-4e3e-aa6f-63e38e4da3f4","system_id":"levelo_inurba_marseille","lat":43.30313,"lon":5.36896,"is_reserved":false,"is_disabled":false,"rental_uris":{"android":"levelo://app?vid=f11aaa14-7703-4e3e-aa6f-63e38e4da3f4","ios":"levelo://app?vid=f11aaa14-7703-4e3e-aa6f-63e38e4da3f4"},"vehicle_type_id":"4","last_reported":1740703648,"current_range_meters":12000,"station_id":"ce4bgqh2rcd13ifvqc5g","pricing_plan_id":"cebpf4jnsgd1na2vs0mg"},{"bike_id":"1a49a19d-ff27-4e53-a6f4-7da18a3fcd68","system_id":"levelo_inurba_marseille","lat":43.28473,"lon":5.38421,"is_reserved":false,"is_disabled":false,"rental_uris":{"android":"levelo://app?vid=1a49a19d-ff27-4e53-a6f4-7da18a3fcd68","ios":"levelo://app?vid=1a49a19d-ff27-4e53-a6f4-7da18a3fcd68"},"vehicle_type_id":"4","last_reported":1740703648,"current_range_meters":12400,"station_id":"ce4bh512rcd13ifvqe3g","pricing_plan_id":"cebpf4jnsgd1na2vs0mg"},{"bike_id":"07a70f40-d064-434b-83aa-228acdf7dd53","system_id":"levelo_inurba_marseille","lat":43.2318,"lon":5.40004,"is_reserved":false,"is_disabled":false,"rental_uris":{"android":"levelo://app?vid=07a70f40-d064-434b-83aa-228acdf7dd53","ios":"levelo://app?vid=07a70f40-d064-434b-83aa-228acdf7dd53"},"vehicle_type_id":"4","last_reported":1740703648,"current_range_meters":12400,"station_id":"ce4bhn12rcd13ifvqgqg","pricing_plan_id":"cebpf4jnsgd1na2vs0mg"},{"bike_id":"4faa25b2-6d20-4258-a63e-5adea7aec14e","system_id":"levelo_inurba_marseille","lat":43.284548,"lon":5.359049,"is_reserved":false,"is_disabled":true,"rental_uris":{"android":"levelo://app?vid=4faa25b2-6d20-4258-a63e-5adea7aec14e","ios":"levelo://app?vid=4faa25b2-6d20-4258-a63e-5adea7aec14e"},"vehicle_type_id":"4","last_reported":1740703648,"current_range_meters":12400,"station_id":"ce4bhah2rcd13ifvqei0","pricing_plan_id":"cebpf4jnsgd1na2vs0mg"},{"bike_id":"d4918d6a-5525-4be8-b0c4-7af64b54343d","system_id":"levelo_inurba_marseille","lat":43.24164,"lon":5.3641,"is_reserved":false,"is_disabled":false,"rental_uris":{"android":"levelo://app?vid=d4918d6a-5525-4be8-b0c4-7af64b54343d","ios":"levelo://app?vid=d4918d6a-5525-4be8-b0c4-7af64b54343d"},"vehicle_type_id":"4","last_reported":1740703648,"current_range_meters":12400,"station_id":"cpo36qri1sfpv3e86is0","pricing_plan_id":"cebpf4jnsgd1na2vs0mg"},{"bike_id":"10b6c0d0-a3ef-460e-ad30-22fe050ad6b8","system_id":"levelo_inurba_marseille","lat":43.28861,"lon":5.35857,"is_reserved":false,"is_disabled":false,"rental_uris":{"android":"levelo://app?vid=10b6c0d0-a3ef-460e-ad30-22fe050ad6b8","ios":"levelo://app?vid=10b6c0d0-a3ef-460e-ad30-22fe050ad6b8"},"vehicle_type_id":"4","last_reported":1740703648,"current_range_meters":12400,"station_id":"ce4bhb12rcd13ifvqem0","pricing_plan_id":"cebpf4jnsgd1na2vs0mg"},{"bike_id":"f540f286-fecb-4f6a-9c19-c13822b5df23","system_id":"levelo_inurba_marseille","lat":43.28607,"lon":5.35099,"is_reserved":false,"is_disabled":false,"rental_uris":{"android":"levelo://app?vid=f540f286-fecb-4f6a-9c19-c13822b5df23","ios":"levelo://app?vid=f540f286-fecb-4f6a-9c19-c13822b5df23"},"vehicle_type_id":"4","last_reported":1740703648,"current_range_meters":12400,"station_id":"ce4bhch2rcd13ifvqeug","pricing_plan_id":"cebpf4jnsgd1na2vs0mg"},{"bike_id":"149f1135-346c-41b3-b1dc-319c0851d633","system_id":"levelo_inurba_marseille","lat":43.28725,"lon":5.36096,"is_reserved":false,"is_disabled":false,"rental_uris":{"android":"levelo://app?vid=149f1135-346c-41b3-b1dc-319c0851d633","ios":"levelo://app?vid=149f1135-346c-41b3-b1dc-319c0851d633"},"vehicle_type_id":"4","last_reported":1740703648,"current_range_meters":12400,"station_id":"cki0cbj6b192h4jlfktg","pricing_plan_id":"cebpf4jnsgd1na2vs0mg"},{"bike_id":"20d08730-d04f-482a-9ed2-1d3e29b92784","system_id":"levelo_inurba_marseille","lat":43.32352,"lon":5.38882,"is_reserved":false,"is_disabled":false,"rental_uris":{"android":"levelo://app?vid=20d08730-d04f-482a-9ed2-1d3e29b92784","ios":"levelo://app?vid=20d08730-d04f-482a-9ed2-1d3e29b92784"},"vehicle_type_id":"4","last_reported":1740703648,"current_range_meters":12400,"station_id":"ce4bhqp2rcd13ifvqhog","pricing_plan_id":"cebpf4jnsgd1na2vs0mg"},{"bike_id":"464da985-0d18-414e-a22b-ee83e6a7dbce","system_id":"levelo_inurba_marseille","lat":43.30888,"lon":5.39635,"is_reserved":false,"is_disabled":false,"rental_uris":{"android":"levelo://app?vid=464da985-0d18-414e-a22b-ee83e6a7dbce","ios":"levelo://app?vid=464da985-0d18-414e-a22b-ee83e6a7dbce"},"vehicle_type_id":"4","last_reported":1740703648,"current_range_meters":12400,"station_id":"ce4bh012rcd13ifvqcv0","pricing_plan_id":"cebpf4jnsgd1na2vs0mg"},{"bike_id":"ef77bf7f-5b88-41c9-8d3b-c8c9c0447dd9","system_id":"levelo_inurba_marseille","lat":43.28093,"lon":5.35031,"is_reserved":false,"is_disabled":false,"rental_uris":{"android":"levelo://app?vid=ef77bf7f-5b88-41c9-8d3b-c8c9c0447dd9","ios":"levelo://app?vid=ef77bf7f-5b88-41c9-8d3b-c8c9c0447dd9"},"vehicle_type_id":"4","last_reported":1740703648,"current_range_meters":12400,"station_id":"","pricing_plan_id":"cebpf4jnsgd1na2vs0mg"},{"bike_id":"e66402c8-5bb0-4c22-aca7-d219f414d36d","system_id":"levelo_inurba_marseille","lat":43.31098,"lon":5.37785,"is_reserved":false,"is_disabled":false,"rental_uris":{"android":"levelo://app?vid=e66402c8-5bb0-4c22-aca7-d219f414d36d","ios":"levelo://app?vid=e66402c8-5bb0-4c22-aca7-d219f414d36d"},"vehicle_type_id":"4","last_reported":1740703648,"current_range_meters":12400,"station_id":"ce4bgt92rcd13ifvqcg0","pricing_plan_id":"cebpf4jnsgd1na2vs0mg"},{"bike_id":"5b28cd77-a409-482f-8702-f764eef9151e","system_id":"levelo_inurba_marseille","lat":43.25943,"lon":5.40912,"is_reserved":false,"is_disabled":true,"rental_uris":{"android":"levelo://app?vid=5b28cd77-a409-482f-8702-f764eef9151e","ios":"levelo://app?vid=5b28cd77-a409-482f-8702-f764eef9151e"},"vehicle_type_id":"4","last_reported":1740703648,"current_range_meters":12800,"station_id":"ce4bhm92rcd13ifvqglg","pricing_plan_id":"cebpf4jnsgd1na2vs0mg"},{"bike_id":"11c3bb28-0881-4ad9-8c9c-f86e73594432","system_id":"levelo_inurba_marseille","lat":43.28462,"lon":5.35886,"is_reserved":false,"is_disabled":false,"rental_uris":{"android":"levelo://app?vid=11c3bb28-0881-4ad9-8c9c-f86e73594432","ios":"levelo://app?vid=11c3bb28-0881-4ad9-8c9c-f86e73594432"},"vehicle_type_id":"4","last_reported":1740703648,"current_range_meters":12400,"station_id":"ce4bhah2rcd13ifvqei0","pricing_plan_id":"cebpf4jnsgd1na2vs0mg"},{"bike_id":"663684f6-3c46-4279-9dfa-3a7d94aee9f0","system_id":"levelo_inurba_marseille","lat":43.28711,"lon":5.37925,"is_reserved":false,"is_disabled":false,"rental_uris":{"android":"levelo://app?vid=663684f6-3c46-4279-9dfa-3a7d94aee9f0","ios":"levelo://app?vid=663684f6-3c46-4279-9dfa-3a7d94aee9f0"},"vehicle_type_id":"4","last_reported":1740703648,"current_range_meters":12400,"station_id":"ce4bh9p2rcd13ifvqec0","pricing_plan_id":"cebpf4jnsgd1na2vs0mg"},{"bike_id":"0771be02-e3e2-47da-b3c9-86df7888c832","system_id":"levelo_inurba_marseille","lat":43.29215,"lon":5.36064,"is_reserved":false,"is_disabled":false,"rental_uris":{"android":"levelo://app?vid=0771be02-e3e2-47da-b3c9-86df7888c832","ios":"levelo://app?vid=0771be02-e3e2-47da-b3c9-86df7888c832"},"vehicle_type_id":"4","last_reported":1740703648,"current_range_meters":12800,"station_id":"ce4bhbh2rcd13ifvqeqg","pricing_plan_id":"cebpf4jnsgd1na2vs0mg"},{"bike_id":"21d163b0-76d6-433d-af00-7c1303f28c95","system_id":"levelo_inurba_marseille","lat":43.283988,"lon":5.375478,"is_reserved":false,"is_disabled":false,"rental_uris":{"android":"levelo://app?vid=21d163b0-76d6-433d-af00-7c1303f28c95","ios":"levelo://app?vid=21d163b0-76d6-433d-af00-7c1303f28c95"},"vehicle_type_id":"4","last_reported":1740703648,"current_range_meters":12800,"station_id":"ce4bh412rcd13ifvqds0","pricing_plan_id":"cebpf4jnsgd1na2vs0mg"},{"bike_id":"199d096e-ca37-47f9-963f-1f0656cac9e4","system_id":"levelo_inurba_marseille","lat":43.25824,"lon":5.39432,"is_reserved":false,"is_disabled":false,"rental_uris":{"android":"levelo://app?vid=199d096e-ca37-47f9-963f-1f0656cac9e4","ios":"levelo://app?vid=199d096e-ca37-47f9-963f-1f0656cac9e4"},"vehicle_type_id":"4","last_reported":1740703648,"current_range_meters":13600,"station_id":"ce4bhip2rcd13ifvqft0","pricing_plan_id":"cebpf4jnsgd1na2vs0mg"},{"bike_id":"87f4694a-7002-40c0-9a0e-2123fd36309b","system_id":"levelo_inurba_marseille","lat":43.290093,"lon":5.35604,"is_reserved":false,"is_disabled":false,"rental_uris":{"android":"levelo://app?vid=87f4694a-7002-40c0-9a0e-2123fd36309b","ios":"levelo://app?vid=87f4694a-7002-40c0-9a0e-2123fd36309b"},"vehicle_type_id":"4","last_reported":1740703648,"current_range_meters":12800,"station_id":"ce4bhb92rcd13ifvqen0","pricing_plan_id":"cebpf4jnsgd1na2vs0mg"},{"bike_id":"a4c22857-6480-465b-b474-1cc963b1061a","system_id":"levelo_inurba_marseille","lat":43.26057,"lon":5.39401,"is_reserved":false,"is_disabled":false,"rental_uris":{"android":"levelo://app?vid=a4c22857-6480-465b-b474-1cc963b1061a","ios":"levelo://app?vid=a4c22857-6480-465b-b474-1cc963b1061a"},"vehicle_type_id":"4","last_reported":1740703648,"current_range_meters":12800,"station_id":"ce4bhh92rcd13ifvqfj0","pricing_plan_id":"cebpf4jnsgd1na2vs0mg"},{"bike_id":"6f08793c-0e13-4755-8250-eb14e46e9c0b","system_id":"levelo_inurba_marseille","lat":43.231859,"lon":5.399787,"is_reserved":false,"is_disabled":false,"rental_uris":{"android":"levelo://app?vid=6f08793c-0e13-4755-8250-eb14e46e9c0b","ios":"levelo://app?vid=6f08793c-0e13-4755-8250-eb14e46e9c0b"},"vehicle_type_id":"4","last_reported":1740703648,"current_range_meters":12800,"station_id":"ce4bhn12rcd13ifvqgqg","pricing_plan_id":"cebpf4jnsgd1na2vs0mg"},{"bike_id":"8f678c7f-cb2d-4b02-939d-384b0cfded7e","system_id":"levelo_inurba_marseille","lat":43.28708,"lon":5.37398,"is_reserved":false,"is_disabled":false,"rental_uris":{"android":"levelo://app?vid=8f678c7f-cb2d-4b02-939d-384b0cfded7e","ios":"levelo://app?vid=8f678c7f-cb2d-4b02-939d-384b0cfded7e"},"vehicle_type_id":"4","last_reported":1740703648,"current_range_meters":12800,"station_id":"ce4bh3p2rcd13ifvqdq0","pricing_plan_id":"cebpf4jnsgd1na2vs0mg"},{"bike_id":"2f9f99a2-13fd-4e67-b6f6-cde754ec372e","system_id":"levelo_inurba_marseille","lat":43.29015,"lon":5.35652,"is_reserved":false,"is_disabled":false,"rental_uris":{"android":"levelo://app?vid=2f9f99a2-13fd-4e67-b6f6-cde754ec372e","ios":"levelo://app?vid=2f9f99a2-13fd-4e67-b6f6-cde754ec372e"},"vehicle_type_id":"4","last_reported":1740703648,"current_range_meters":14000,"station_id":"ce4bhb92rcd13ifvqen0","pricing_plan_id":"cebpf4jnsgd1na2vs0mg"},{"bike_id":"1330b958-b6d2-49bf-a381-4306479aa4e8","system_id":"levelo_inurba_marseille","lat":43.2869,"lon":5.39984,"is_reserved":false,"is_disabled":false,"rental_uris":{"android":"levelo://app?vid=1330b958-b6d2-49bf-a381-4306479aa4e8","ios":"levelo://app?vid=1330b958-b6d2-49bf-a381-4306479aa4e8"},"vehicle_type_id":"4","last_reported":1740703648,"current_range_meters":13600,"station_id":"ce4bho92rcd13ifvqh3g","pricing_plan_id":"cebpf4jnsgd1na2vs0mg"},{"bike_id":"7562303f-eb2b-41bb-be54-db23a576d5e8","system_id":"levelo_inurba_marseille","lat":43.28622,"lon":5.35102,"is_reserved":false,"is_disabled":false,"rental_uris":{"android":"levelo://app?vid=7562303f-eb2b-41bb-be54-db23a576d5e8","ios":"levelo://app?vid=7562303f-eb2b-41bb-be54-db23a576d5e8"},"vehicle_type_id":"4","last_reported":1740703648,"current_range_meters":14000,"station_id":"ce4bhch2rcd13ifvqeug","pricing_plan_id":"cebpf4jnsgd1na2vs0mg"},{"bike_id":"7f061ae0-de9a-4df5-a252-56d0d6196e2b","system_id":"levelo_inurba_marseille","lat":43.31997,"lon":5.38149,"is_reserved":false,"is_disabled":false,"rental_uris":{"android":"levelo://app?vid=7f061ae0-de9a-4df5-a252-56d0d6196e2b","ios":"levelo://app?vid=7f061ae0-de9a-4df5-a252-56d0d6196e2b"},"vehicle_type_id":"4","last_reported":1740703648,"current_range_meters":13600,"station_id":"ce4bhr12rcd13ifvqhpg","pricing_plan_id":"cebpf4jnsgd1na2vs0mg"},{"bike_id":"dc6b2481-a65a-4538-8596-db342d3e5a57","system_id":"levelo_inurba_marseille","lat":43.29932,"lon":5.36555,"is_reserved":false,"is_disabled":false,"rental_uris":{"android":"levelo://app?vid=dc6b2481-a65a-4538-8596-db342d3e5a57","ios":"levelo://app?vid=dc6b2481-a65a-4538-8596-db342d3e5a57"},"vehicle_type_id":"4","last_reported":1740703648,"current_range_meters":15200,"station_id":"ce4bgm92rcd13ifvqbr0","pricing_plan_id":"cebpf4jnsgd1na2vs0mg"},{"bike_id":"d6eac1e4-94c7-4b0a-b122-2daa16ebae64","system_id":"levelo_inurba_marseille","lat":43.32364,"lon":5.38876,"is_reserved":false,"is_disabled":false,"rental_uris":{"android":"levelo://app?vid=d6eac1e4-94c7-4b0a-b122-2daa16ebae64","ios":"levelo://app?vid=d6eac1e4-94c7-4b0a-b122-2daa16ebae64"},"vehicle_type_id":"4","last_reported":1740703648,"current_range_meters":14000,"station_id":"ce4bhqp2rcd13ifvqhog","pricing_plan_id":"cebpf4jnsgd1na2vs0mg"},{"bike_id":"6ef6678e-7644-412c-bff0-e64827deac31","system_id":"levelo_inurba_marseille","lat":43.28411,"lon":5.37524,"is_reserved":false,"is_disabled":false,"rental_uris":{"android":"levelo://app?vid=6ef6678e-7644-412c-bff0-e64827deac31","ios":"levelo://app?vid=6ef6678e-7644-412c-bff0-e64827deac31"},"vehicle_type_id":"4","last_reported":1740703648,"current_range_meters":14000,"station_id":"ce4bh412rcd13ifvqds0","pricing_plan_id":"cebpf4jnsgd1na2vs0mg"},{"bike_id":"7b2168bf-cc79-4f74-99d5-2d042a76e474","system_id":"levelo_inurba_marseille","lat":43.30597,"lon":5.39379,"is_reserved":false,"is_disabled":false,"rental_uris":{"android":"levelo://app?vid=7b2168bf-cc79-4f74-99d5-2d042a76e474","ios":"levelo://app?vid=7b2168bf-cc79-4f74-99d5-2d042a76e474"},"vehicle_type_id":"4","last_reported":1740703648,"current_range_meters":14000,"station_id":"ce4bh0p2rcd13ifvqd80","pricing_plan_id":"cebpf4jnsgd1na2vs0mg"},{"bike_id":"f7fe6e63-0b18-4c93-be1b-f5ad9a7c4609","system_id":"levelo_inurba_marseille","lat":43.28849,"lon":5.35851,"is_reserved":false,"is_disabled":false,"rental_uris":{"android":"levelo://app?vid=f7fe6e63-0b18-4c93-be1b-f5ad9a7c4609","ios":"levelo://app?vid=f7fe6e63-0b18-4c93-be1b-f5ad9a7c4609"},"vehicle_type_id":"4","last_reported":1740703648,"current_range_meters":14400,"station_id":"ce4bhb12rcd13ifvqem0","pricing_plan_id":"cebpf4jnsgd1na2vs0mg"},{"bike_id":"43d6aa6f-20c7-4a1b-bcb8-31b660876567","system_id":"levelo_inurba_marseille","lat":43.26546,"lon":5.37294,"is_reserved":false,"is_disabled":false,"rental_uris":{"android":"levelo://app?vid=43d6aa6f-20c7-4a1b-bcb8-31b660876567","ios":"levelo://app?vid=43d6aa6f-20c7-4a1b-bcb8-31b660876567"},"vehicle_type_id":"4","last_reported":1740703648,"current_range_meters":14800,"station_id":"ce4bhg12rcd13ifvqf70","pricing_plan_id":"cebpf4jnsgd1na2vs0mg"},{"bike_id":"aec0cf5e-069a-4464-b600-20f371062b7e","system_id":"levelo_inurba_marseille","lat":43.31709,"lon":5.37853,"is_reserved":false,"is_disabled":false,"rental_uris":{"android":"levelo://app?vid=aec0cf5e-069a-4464-b600-20f371062b7e","ios":"levelo://app?vid=aec0cf5e-069a-4464-b600-20f371062b7e"},"vehicle_type_id":"4","last_reported":1740703648,"current_range_meters":14400,"station_id":"ce4bgth2rcd13ifvqch0","pricing_plan_id":"cebpf4jnsgd1na2vs0mg"},{"bike_id":"3f5e4c77-943b-4a46-b257-614bf13afec4","system_id":"levelo_inurba_marseille","lat":43.24142,"lon":5.36403,"is_reserved":false,"is_disabled":false,"rental_uris":{"android":"levelo://app?vid=3f5e4c77-943b-4a46-b257-614bf13afec4","ios":"levelo://app?vid=3f5e4c77-943b-4a46-b257-614bf13afec4"},"vehicle_type_id":"4","last_reported":1740703648,"current_range_meters":14400,"station_id":"cpo36qri1sfpv3e86is0","pricing_plan_id":"cebpf4jnsgd1na2vs0mg"},{"bike_id":"e8326ac1-e393-42b4-a549-cbf690b51fc4","system_id":"levelo_inurba_marseille","lat":43.30591,"lon":5.37201,"is_reserved":false,"is_disabled":false,"rental_uris":{"android":"levelo://app?vid=e8326ac1-e393-42b4-a549-cbf690b51fc4","ios":"levelo://app?vid=e8326ac1-e393-42b4-a549-cbf690b51fc4"},"vehicle_type_id":"4","last_reported":1740703648,"current_range_meters":14400,"station_id":"ce4bgqh2rcd13ifvqc4g","pricing_plan_id":"cebpf4jnsgd1na2vs0mg"},{"bike_id":"07e562af-4bef-47f8-a85e-d84ded116372","system_id":"levelo_inurba_marseille","lat":43.28079,"lon":5.39663,"is_reserved":false,"is_disabled":false,"rental_uris":{"android":"levelo://app?vid=07e562af-4bef-47f8-a85e-d84ded116372","ios":"levelo://app?vid=07e562af-4bef-47f8-a85e-d84ded116372"},"vehicle_type_id":"4","last_reported":1740703648,"current_range_meters":14400,"station_id":"ce4bho12rcd13ifvqh2g","pricing_plan_id":"cebpf4jnsgd1na2vs0mg"},{"bike_id":"7e9d22d9-ba51-4803-b02f-7c33cef12f33","system_id":"levelo_inurba_marseille","lat":43.28409,"lon":5.37511,"is_reserved":false,"is_disabled":false,"rental_uris":{"android":"levelo://app?vid=7e9d22d9-ba51-4803-b02f-7c33cef12f33","ios":"levelo://app?vid=7e9d22d9-ba51-4803-b02f-7c33cef12f33"},"vehicle_type_id":"4","last_reported":1740703648,"current_range_meters":14400,"station_id":"ce4bh412rcd13ifvqds0","pricing_plan_id":"cebpf4jnsgd1na2vs0mg"},{"bike_id":"07716cd5-aa06-4ec2-be21-a681b685518f","system_id":"levelo_inurba_marseille","lat":43.26189,"lon":5.42074,"is_reserved":false,"is_disabled":false,"rental_uris":{"android":"levelo://app?vid=07716cd5-aa06-4ec2-be21-a681b685518f","ios":"levelo://app?vid=07716cd5-aa06-4ec2-be21-a681b685518f"},"vehicle_type_id":"4","last_reported":1740703648,"current_range_meters":14800,"station_id":"","pricing_plan_id":"cebpf4jnsgd1na2vs0mg"},{"bike_id":"94fc79a4-4884-4101-8aeb-357625bbbbad","system_id":"levelo_inurba_marseille","lat":43.27812,"lon":5.40698,"is_reserved":false,"is_disabled":false,"rental_uris":{"android":"levelo://app?vid=94fc79a4-4884-4101-8aeb-357625bbbbad","ios":"levelo://app?vid=94fc79a4-4884-4101-8aeb-357625bbbbad"},"vehicle_type_id":"4","last_reported":1740703648,"current_range_meters":15200,"station_id":"ce4bhnh2rcd13ifvqgtg","pricing_plan_id":"cebpf4jnsgd1na2vs0mg"},{"bike_id":"c6b5f9f2-a258-4f07-9a3b-85dd6cf998c0","system_id":"levelo_inurba_marseille","lat":43.30644,"lon":5.40074,"is_reserved":false,"is_disabled":false,"rental_uris":{"android":"levelo://app?vid=c6b5f9f2-a258-4f07-9a3b-85dd6cf998c0","ios":"levelo://app?vid=c6b5f9f2-a258-4f07-9a3b-85dd6cf998c0"},"vehicle_type_id":"4","last_reported":1740703648,"current_range_meters":15200,"station_id":"ce4bh112rcd13ifvqda0","pricing_plan_id":"cebpf4jnsgd1na2vs0mg"},{"bike_id":"1da63227-255e-41d7-9093-c8c2ef6a9f2a","system_id":"levelo_inurba_marseille","lat":43.27996,"lon":5.41653,"is_reserved":false,"is_disabled":false,"rental_uris":{"android":"levelo://app?vid=1da63227-255e-41d7-9093-c8c2ef6a9f2a","ios":"levelo://app?vid=1da63227-255e-41d7-9093-c8c2ef6a9f2a"},"vehicle_type_id":"4","last_reported":1740703648,"current_range_meters":15200,"station_id":"ce4bho12rcd13ifvqh1g","pricing_plan_id":"cebpf4jnsgd1na2vs0mg"},{"bike_id":"6d428432-8be2-47ad-b84d-a58bf7f395bd","system_id":"levelo_inurba_marseille","lat":43.28926,"lon":5.36401,"is_reserved":false,"is_disabled":false,"rental_uris":{"android":"levelo://app?vid=6d428432-8be2-47ad-b84d-a58bf7f395bd","ios":"levelo://app?vid=6d428432-8be2-47ad-b84d-a58bf7f395bd"},"vehicle_type_id":"4","last_reported":1740703648,"current_range_meters":15200,"station_id":"ce4bhc92rcd13ifvqetg","pricing_plan_id":"cebpf4jnsgd1na2vs0mg"},{"bike_id":"15204670-483e-4adc-adc6-2fb8bc37754c","system_id":"levelo_inurba_marseille","lat":43.25826,"lon":5.39431,"is_reserved":false,"is_disabled":false,"rental_uris":{"android":"levelo://app?vid=15204670-483e-4adc-adc6-2fb8bc37754c","ios":"levelo://app?vid=15204670-483e-4adc-adc6-2fb8bc37754c"},"vehicle_type_id":"4","last_reported":1740703648,"current_range_meters":16000,"station_id":"ce4bhip2rcd13ifvqft0","pricing_plan_id":"cebpf4jnsgd1na2vs0mg"},{"bike_id":"0ebffcee-3697-4987-8cfd-ce56c427abfe","system_id":"levelo_inurba_marseille","lat":43.28462,"lon":5.35881,"is_reserved":false,"is_disabled":false,"rental_uris":{"android":"levelo://app?vid=0ebffcee-3697-4987-8cfd-ce56c427abfe","ios":"levelo://app?vid=0ebffcee-3697-4987-8cfd-ce56c427abfe"},"vehicle_type_id":"4","last_reported":1740703648,"current_range_meters":15200,"station_id":"ce4bhah2rcd13ifvqei0","pricing_plan_id":"cebpf4jnsgd1na2vs0mg"},{"bike_id":"a9757b2e-0188-4e2f-9062-079c74f7d4d4","system_id":"levelo_inurba_marseille","lat":43.25588,"lon":5.38241,"is_reserved":false,"is_disabled":false,"rental_uris":{"android":"levelo://app?vid=a9757b2e-0188-4e2f-9062-079c74f7d4d4","ios":"levelo://app?vid=a9757b2e-0188-4e2f-9062-079c74f7d4d4"},"vehicle_type_id":"4","last_reported":1740703648,"current_range_meters":16000,"station_id":"ce4bhih2rcd13ifvqfs0","pricing_plan_id":"cebpf4jnsgd1na2vs0mg"},{"bike_id":"6c03af07-43d6-40b5-b0cf-7c33497afc57","system_id":"levelo_inurba_marseille","lat":43.28634,"lon":5.35097,"is_reserved":false,"is_disabled":false,"rental_uris":{"android":"levelo://app?vid=6c03af07-43d6-40b5-b0cf-7c33497afc57","ios":"levelo://app?vid=6c03af07-43d6-40b5-b0cf-7c33497afc57"},"vehicle_type_id":"4","last_reported":1740703648,"current_range_meters":15200,"station_id":"ce4bhch2rcd13ifvqeug","pricing_plan_id":"cebpf4jnsgd1na2vs0mg"},{"bike_id":"1aea0dde-a7bb-4730-8e2c-695419b49399","system_id":"levelo_inurba_marseille","lat":43.3233,"lon":5.38908,"is_reserved":false,"is_disabled":false,"rental_uris":{"android":"levelo://app?vid=1aea0dde-a7bb-4730-8e2c-695419b49399","ios":"levelo://app?vid=1aea0dde-a7bb-4730-8e2c-695419b49399"},"vehicle_type_id":"4","last_reported":1740703648,"current_range_meters":16000,"station_id":"ce4bhqp2rcd13ifvqhog","pricing_plan_id":"cebpf4jnsgd1na2vs0mg"},{"bike_id":"4f28057b-959a-4300-9ae2-dd5630013219","system_id":"levelo_inurba_marseille","lat":43.30123,"lon":5.39857,"is_reserved":false,"is_disabled":false,"rental_uris":{"android":"levelo://app?vid=4f28057b-959a-4300-9ae2-dd5630013219","ios":"levelo://app?vid=4f28057b-959a-4300-9ae2-dd5630013219"},"vehicle_type_id":"4","last_reported":1740703648,"current_range_meters":16000,"station_id":"ce4bh0h2rcd13ifvqd40","pricing_plan_id":"cebpf4jnsgd1na2vs0mg"},{"bike_id":"1ec95ae8-47b1-46be-ab6f-633627e7d180","system_id":"levelo_inurba_marseille","lat":43.25077,"lon":5.39533,"is_reserved":false,"is_disabled":false,"rental_uris":{"android":"levelo://app?vid=1ec95ae8-47b1-46be-ab6f-633627e7d180","ios":"levelo://app?vid=1ec95ae8-47b1-46be-ab6f-633627e7d180"},"vehicle_type_id":"4","last_reported":1740703648,"current_range_meters":16400,"station_id":"ce4bhm12rcd13ifvqgkg","pricing_plan_id":"cebpf4jnsgd1na2vs0mg"},{"bike_id":"64d5bd85-58b2-4b54-b93c-4a6aef9a8da8","system_id":"levelo_inurba_marseille","lat":43.30551,"lon":5.36541,"is_reserved":false,"is_disabled":true,"rental_uris":{"android":"levelo://app?vid=64d5bd85-58b2-4b54-b93c-4a6aef9a8da8","ios":"levelo://app?vid=64d5bd85-58b2-4b54-b93c-4a6aef9a8da8"},"vehicle_type_id":"4","last_reported":1740703648,"current_range_meters":16000,"station_id":"ce4bgs12rcd13ifvqcag","pricing_plan_id":"cebpf4jnsgd1na2vs0mg"},{"bike_id":"41ae3cba-df90-47eb-9185-828aeb3d2ccd","system_id":"levelo_inurba_marseille","lat":43.25623,"lon":5.38199,"is_reserved":false,"is_disabled":false,"rental_uris":{"android":"levelo://app?vid=41ae3cba-df90-47eb-9185-828aeb3d2ccd","ios":"levelo://app?vid=41ae3cba-df90-47eb-9185-828aeb3d2ccd"},"vehicle_type_id":"4","last_reported":1740703648,"current_range_meters":16000,"station_id":"","pricing_plan_id":"cebpf4jnsgd1na2vs0mg"},{"bike_id":"7a49f9e1-5ffc-4171-97d7-e500777d1c5f","system_id":"levelo_inurba_marseille","lat":43.287309,"lon":5.360726,"is_reserved":false,"is_disabled":false,"rental_uris":{"android":"levelo://app?vid=7a49f9e1-5ffc-4171-97d7-e500777d1c5f","ios":"levelo://app?vid=7a49f9e1-5ffc-4171-97d7-e500777d1c5f"},"vehicle_type_id":"4","last_reported":1740703648,"current_range_meters":16000,"station_id":"cki0cbj6b192h4jlfktg","pricing_plan_id":"cebpf4jnsgd1na2vs0mg"},{"bike_id":"43af329c-244d-4bbc-beab-71128e541a54","system_id":"levelo_inurba_marseille","lat":43.29174,"lon":5.39313,"is_reserved":false,"is_disabled":false,"rental_uris":{"android":"levelo://app?vid=43af329c-244d-4bbc-beab-71128e541a54","ios":"levelo://app?vid=43af329c-244d-4bbc-beab-71128e541a54"},"vehicle_type_id":"4","last_reported":1740703648,"current_range_meters":16000,"station_id":"ce4bh192rcd13ifvqdd0","pricing_plan_id":"cebpf4jnsgd1na2vs0mg"},{"bike_id":"24476cb6-9c12-4997-ab8d-8cfe9d8b4bb4","system_id":"levelo_inurba_marseille","lat":43.28598,"lon":5.35103,"is_reserved":false,"is_disabled":false,"rental_uris":{"android":"levelo://app?vid=24476cb6-9c12-4997-ab8d-8cfe9d8b4bb4","ios":"levelo://app?vid=24476cb6-9c12-4997-ab8d-8cfe9d8b4bb4"},"vehicle_type_id":"4","last_reported":1740703648,"current_range_meters":16400,"station_id":"ce4bhch2rcd13ifvqeug","pricing_plan_id":"cebpf4jnsgd1na2vs0mg"},{"bike_id":"b6ab9a61-8985-4d83-8f2e-45b4984d4c17","system_id":"levelo_inurba_marseille","lat":43.292606,"lon":5.376253,"is_reserved":false,"is_disabled":false,"rental_uris":{"android":"levelo://app?vid=b6ab9a61-8985-4d83-8f2e-45b4984d4c17","ios":"levelo://app?vid=b6ab9a61-8985-4d83-8f2e-45b4984d4c17"},"vehicle_type_id":"4","last_reported":1740703648,"current_range_meters":16400,"station_id":"ce4bgi12rcd13ifvqb80","pricing_plan_id":"cebpf4jnsgd1na2vs0mg"},{"bike_id":"28aa6b62-1966-499c-9c1f-09f1e20fdff5","system_id":"levelo_inurba_marseille","lat":43.29251,"lon":5.38432,"is_reserved":false,"is_disabled":true,"rental_uris":{"android":"levelo://app?vid=28aa6b62-1966-499c-9c1f-09f1e20fdff5","ios":"levelo://app?vid=28aa6b62-1966-499c-9c1f-09f1e20fdff5"},"vehicle_type_id":"4","last_reported":1740703648,"current_range_meters":16400,"station_id":"ce4bh692rcd13ifvqea0","pricing_plan_id":"cebpf4jnsgd1na2vs0mg"},{"bike_id":"cb3707bf-5ae0-4061-b6c8-982588f84b39","system_id":"levelo_inurba_marseille","lat":43.27423,"lon":5.39414,"is_reserved":false,"is_disabled":true,"rental_uris":{"android":"levelo://app?vid=cb3707bf-5ae0-4061-b6c8-982588f84b39","ios":"levelo://app?vid=cb3707bf-5ae0-4061-b6c8-982588f84b39"},"vehicle_type_id":"4","last_reported":1740703648,"current_range_meters":16400,"station_id":"ce4bhdp2rcd13ifvqf20","pricing_plan_id":"cebpf4jnsgd1na2vs0mg"},{"bike_id":"e7da0d3a-eb3a-4247-b32a-301e2c05d327","system_id":"levelo_inurba_marseille","lat":43.30304,"lon":5.39195,"is_reserved":false,"is_disabled":false,"rental_uris":{"android":"levelo://app?vid=e7da0d3a-eb3a-4247-b32a-301e2c05d327","ios":"levelo://app?vid=e7da0d3a-eb3a-4247-b32a-301e2c05d327"},"vehicle_type_id":"4","last_reported":1740703648,"current_range_meters":16400,"station_id":"ce4bgkh2rcd13ifvqbk0","pricing_plan_id":"cebpf4jnsgd1na2vs0mg"},{"bike_id":"7c373590-3fd6-44dc-a774-01671497b545","system_id":"levelo_inurba_marseille","lat":43.2862,"lon":5.35099,"is_reserved":false,"is_disabled":false,"rental_uris":{"android":"levelo://app?vid=7c373590-3fd6-44dc-a774-01671497b545","ios":"levelo://app?vid=7c373590-3fd6-44dc-a774-01671497b545"},"vehicle_type_id":"4","last_reported":1740703648,"current_range_meters":16400,"station_id":"ce4bhch2rcd13ifvqeug","pricing_plan_id":"cebpf4jnsgd1na2vs0mg"},{"bike_id":"799db38b-d1ec-4880-9ea0-bfc34870244b","system_id":"levelo_inurba_marseille","lat":43.28686,"lon":5.40014,"is_reserved":false,"is_disabled":false,"rental_uris":{"android":"levelo://app?vid=799db38b-d1ec-4880-9ea0-bfc34870244b","ios":"levelo://app?vid=799db38b-d1ec-4880-9ea0-bfc34870244b"},"vehicle_type_id":"4","last_reported":1740703648,"current_range_meters":16400,"station_id":"ce4bho92rcd13ifvqh3g","pricing_plan_id":"cebpf4jnsgd1na2vs0mg"},{"bike_id":"628d4724-b075-47e2-9b24-d38c2a4b1c4e","system_id":"levelo_inurba_marseille","lat":43.269375,"lon":5.402625,"is_reserved":false,"is_disabled":false,"rental_uris":{"android":"levelo://app?vid=628d4724-b075-47e2-9b24-d38c2a4b1c4e","ios":"levelo://app?vid=628d4724-b075-47e2-9b24-d38c2a4b1c4e"},"vehicle_type_id":"4","last_reported":1740703648,"current_range_meters":16400,"station_id":"cjm6bp8fraef2m0cb0m0","pricing_plan_id":"cebpf4jnsgd1na2vs0mg"},{"bike_id":"382d557d-8024-4f45-8140-482a40d06b19","system_id":"levelo_inurba_marseille","lat":43.27804,"lon":5.40725,"is_reserved":false,"is_disabled":false,"rental_uris":{"android":"levelo://app?vid=382d557d-8024-4f45-8140-482a40d06b19","ios":"levelo://app?vid=382d557d-8024-4f45-8140-482a40d06b19"},"vehicle_type_id":"4","last_reported":1740703648,"current_range_meters":16400,"station_id":"ce4bhnh2rcd13ifvqgtg","pricing_plan_id":"cebpf4jnsgd1na2vs0mg"},{"bike_id":"3ef19255-5c1c-4038-9633-81456dc4addd","system_id":"levelo_inurba_marseille","lat":43.28725,"lon":5.39997,"is_reserved":false,"is_disabled":false,"rental_uris":{"android":"levelo://app?vid=3ef19255-5c1c-4038-9633-81456dc4addd","ios":"levelo://app?vid=3ef19255-5c1c-4038-9633-81456dc4addd"},"vehicle_type_id":"4","last_reported":1740703648,"current_range_meters":16400,"station_id":"ce4bho92rcd13ifvqh3g","pricing_plan_id":"cebpf4jnsgd1na2vs0mg"},{"bike_id":"b4f1c498-5c3f-4907-bdfa-6b4e5dbdb3b3","system_id":"levelo_inurba_marseille","lat":43.28452,"lon":5.35893,"is_reserved":false,"is_disabled":false,"rental_uris":{"android":"levelo://app?vid=b4f1c498-5c3f-4907-bdfa-6b4e5dbdb3b3","ios":"levelo://app?vid=b4f1c498-5c3f-4907-bdfa-6b4e5dbdb3b3"},"vehicle_type_id":"4","last_reported":1740703648,"current_range_meters":16800,"station_id":"ce4bhah2rcd13ifvqei0","pricing_plan_id":"cebpf4jnsgd1na2vs0mg"},{"bike_id":"c002e01b-ff75-4dc7-9d9b-ec32f49c6141","system_id":"levelo_inurba_marseille","lat":43.30322,"lon":5.40445,"is_reserved":false,"is_disabled":false,"rental_uris":{"android":"levelo://app?vid=c002e01b-ff75-4dc7-9d9b-ec32f49c6141","ios":"levelo://app?vid=c002e01b-ff75-4dc7-9d9b-ec32f49c6141"},"vehicle_type_id":"4","last_reported":1740703648,"current_range_meters":16800,"station_id":"ce4bh012rcd13ifvqd10","pricing_plan_id":"cebpf4jnsgd1na2vs0mg"},{"bike_id":"befe9faa-0acf-4473-ac2e-b1a82faba46c","system_id":"levelo_inurba_marseille","lat":43.28931,"lon":5.36417,"is_reserved":false,"is_disabled":false,"rental_uris":{"android":"levelo://app?vid=befe9faa-0acf-4473-ac2e-b1a82faba46c","ios":"levelo://app?vid=befe9faa-0acf-4473-ac2e-b1a82faba46c"},"vehicle_type_id":"4","last_reported":1740703648,"current_range_meters":16800,"station_id":"ce4bhc92rcd13ifvqetg","pricing_plan_id":"cebpf4jnsgd1na2vs0mg"},{"bike_id":"e62e4c2a-07e3-41ea-af00-47fec24e19ec","system_id":"levelo_inurba_marseille","lat":43.28844,"lon":5.35852,"is_reserved":false,"is_disabled":false,"rental_uris":{"android":"levelo://app?vid=e62e4c2a-07e3-41ea-af00-47fec24e19ec","ios":"levelo://app?vid=e62e4c2a-07e3-41ea-af00-47fec24e19ec"},"vehicle_type_id":"4","last_reported":1740703648,"current_range_meters":16800,"station_id":"ce4bhb12rcd13ifvqem0","pricing_plan_id":"cebpf4jnsgd1na2vs0mg"},{"bike_id":"5cb28ae6-b2d9-484c-bcbb-844107a08012","system_id":"levelo_inurba_marseille","lat":43.32094,"lon":5.36795,"is_reserved":false,"is_disabled":false,"rental_uris":{"android":"levelo://app?vid=5cb28ae6-b2d9-484c-bcbb-844107a08012","ios":"levelo://app?vid=5cb28ae6-b2d9-484c-bcbb-844107a08012"},"vehicle_type_id":"4","last_reported":1740703648,"current_range_meters":16800,"station_id":"ce4bhrh2rcd13ifvqhug","pricing_plan_id":"cebpf4jnsgd1na2vs0mg"},{"bike_id":"8257347b-29cc-4d11-a952-5c3b319819e9","system_id":"levelo_inurba_marseille","lat":43.30327,"lon":5.40449,"is_reserved":false,"is_disabled":false,"rental_uris":{"android":"levelo://app?vid=8257347b-29cc-4d11-a952-5c3b319819e9","ios":"levelo://app?vid=8257347b-29cc-4d11-a952-5c3b319819e9"},"vehicle_type_id":"4","last_reported":1740703648,"current_range_meters":16800,"station_id":"ce4bh012rcd13ifvqd10","pricing_plan_id":"cebpf4jnsgd1na2vs0mg"},{"bike_id":"ee641f6b-b968-4ac7-8422-c096dd19cc13","system_id":"levelo_inurba_marseille","lat":43.31716,"lon":5.37745,"is_reserved":false,"is_disabled":false,"rental_uris":{"android":"levelo://app?vid=ee641f6b-b968-4ac7-8422-c096dd19cc13","ios":"levelo://app?vid=ee641f6b-b968-4ac7-8422-c096dd19cc13"},"vehicle_type_id":"4","last_reported":1740703648,"current_range_meters":16800,"station_id":"ce4bgth2rcd13ifvqch0","pricing_plan_id":"cebpf4jnsgd1na2vs0mg"},{"bike_id":"364b209e-752e-45ea-b26c-06b2552c1833","system_id":"levelo_inurba_marseille","lat":43.23188,"lon":5.3556,"is_reserved":false,"is_disabled":false,"rental_uris":{"android":"levelo://app?vid=364b209e-752e-45ea-b26c-06b2552c1833","ios":"levelo://app?vid=364b209e-752e-45ea-b26c-06b2552c1833"},"vehicle_type_id":"4","last_reported":1740703648,"current_range_meters":16800,"station_id":"ce4bhu92rcd13ifvqi70","pricing_plan_id":"cebpf4jnsgd1na2vs0mg"},{"bike_id":"e3ff3318-d5f4-4580-b4df-8b7641ceb68c","system_id":"levelo_inurba_marseille","lat":43.30413,"lon":5.41288,"is_reserved":false,"is_disabled":false,"rental_uris":{"android":"levelo://app?vid=e3ff3318-d5f4-4580-b4df-8b7641ceb68c","ios":"levelo://app?vid=e3ff3318-d5f4-4580-b4df-8b7641ceb68c"},"vehicle_type_id":"4","last_reported":1740703648,"current_range_meters":16800,"station_id":"ce4bhop2rcd13ifvqh8g","pricing_plan_id":"cebpf4jnsgd1na2vs0mg"},{"bike_id":"513648a8-4857-4a1e-ac21-b4d51535a801","system_id":"levelo_inurba_marseille","lat":43.31718,"lon":5.42394,"is_reserved":false,"is_disabled":false,"rental_uris":{"android":"levelo://app?vid=513648a8-4857-4a1e-ac21-b4d51535a801","ios":"levelo://app?vid=513648a8-4857-4a1e-ac21-b4d51535a801"},"vehicle_type_id":"4","last_reported":1740703648,"current_range_meters":16800,"station_id":"ce4bhp92rcd13ifvqhbg","pricing_plan_id":"cebpf4jnsgd1na2vs0mg"},{"bike_id":"3e4abcf6-ec74-4d4d-8722-1baf5799169b","system_id":"levelo_inurba_marseille","lat":43.28405,"lon":5.37493,"is_reserved":false,"is_disabled":false,"rental_uris":{"android":"levelo://app?vid=3e4abcf6-ec74-4d4d-8722-1baf5799169b","ios":"levelo://app?vid=3e4abcf6-ec74-4d4d-8722-1baf5799169b"},"vehicle_type_id":"4","last_reported":1740703648,"current_range_meters":16800,"station_id":"ce4bh412rcd13ifvqds0","pricing_plan_id":"cebpf4jnsgd1na2vs0mg"},{"bike_id":"b17d2017-bcd6-4e8a-aeab-0388faac15b9","system_id":"levelo_inurba_marseille","lat":43.28458,"lon":5.3589,"is_reserved":false,"is_disabled":false,"rental_uris":{"android":"levelo://app?vid=b17d2017-bcd6-4e8a-aeab-0388faac15b9","ios":"levelo://app?vid=b17d2017-bcd6-4e8a-aeab-0388faac15b9"},"vehicle_type_id":"4","last_reported":1740703648,"current_range_meters":16800,"station_id":"ce4bhah2rcd13ifvqei0","pricing_plan_id":"cebpf4jnsgd1na2vs0mg"},{"bike_id":"ee137681-0010-4a60-9633-c2b6b9d43f5a","system_id":"levelo_inurba_marseille","lat":43.29007,"lon":5.356084,"is_reserved":false,"is_disabled":false,"rental_uris":{"android":"levelo://app?vid=ee137681-0010-4a60-9633-c2b6b9d43f5a","ios":"levelo://app?vid=ee137681-0010-4a60-9633-c2b6b9d43f5a"},"vehicle_type_id":"4","last_reported":1740703648,"current_range_meters":17200,"station_id":"ce4bhb92rcd13ifvqen0","pricing_plan_id":"cebpf4jnsgd1na2vs0mg"},{"bike_id":"f919809d-dd9d-4e14-85ef-be2db1b8dd2e","system_id":"levelo_inurba_marseille","lat":43.28448,"lon":5.35897,"is_reserved":false,"is_disabled":false,"rental_uris":{"android":"levelo://app?vid=f919809d-dd9d-4e14-85ef-be2db1b8dd2e","ios":"levelo://app?vid=f919809d-dd9d-4e14-85ef-be2db1b8dd2e"},"vehicle_type_id":"4","last_reported":1740703648,"current_range_meters":17200,"station_id":"ce4bhah2rcd13ifvqei0","pricing_plan_id":"cebpf4jnsgd1na2vs0mg"},{"bike_id":"5bc4067b-edf1-4b5e-ae1a-c4e4a4b4741b","system_id":"levelo_inurba_marseille","lat":43.31101,"lon":5.3777,"is_reserved":false,"is_disabled":false,"rental_uris":{"android":"levelo://app?vid=5bc4067b-edf1-4b5e-ae1a-c4e4a4b4741b","ios":"levelo://app?vid=5bc4067b-edf1-4b5e-ae1a-c4e4a4b4741b"},"vehicle_type_id":"4","last_reported":1740703648,"current_range_meters":17200,"station_id":"ce4bgt92rcd13ifvqcg0","pricing_plan_id":"cebpf4jnsgd1na2vs0mg"},{"bike_id":"d79774a6-7426-41ac-b7c6-85789974d608","system_id":"levelo_inurba_marseille","lat":43.25587,"lon":5.38261,"is_reserved":false,"is_disabled":false,"rental_uris":{"android":"levelo://app?vid=d79774a6-7426-41ac-b7c6-85789974d608","ios":"levelo://app?vid=d79774a6-7426-41ac-b7c6-85789974d608"},"vehicle_type_id":"4","last_reported":1740703648,"current_range_meters":17200,"station_id":"ce4bhih2rcd13ifvqfs0","pricing_plan_id":"cebpf4jnsgd1na2vs0mg"},{"bike_id":"49e9cdc7-76a5-4b66-ae2d-61c73beb73a8","system_id":"levelo_inurba_marseille","lat":43.24164,"lon":5.3641,"is_reserved":false,"is_disabled":false,"rental_uris":{"android":"levelo://app?vid=49e9cdc7-76a5-4b66-ae2d-61c73beb73a8","ios":"levelo://app?vid=49e9cdc7-76a5-4b66-ae2d-61c73beb73a8"},"vehicle_type_id":"4","last_reported":1740703648,"current_range_meters":17200,"station_id":"cpo36qri1sfpv3e86is0","pricing_plan_id":"cebpf4jnsgd1na2vs0mg"},{"bike_id":"299e1ac3-a9aa-4f9b-9e64-de9b8db0b77a","system_id":"levelo_inurba_marseille","lat":43.3107,"lon":5.38358,"is_reserved":false,"is_disabled":false,"rental_uris":{"android":"levelo://app?vid=299e1ac3-a9aa-4f9b-9e64-de9b8db0b77a","ios":"levelo://app?vid=299e1ac3-a9aa-4f9b-9e64-de9b8db0b77a"},"vehicle_type_id":"4","last_reported":1740703648,"current_range_meters":17600,"station_id":"ce4bgv92rcd13ifvqcr0","pricing_plan_id":"cebpf4jnsgd1na2vs0mg"},{"bike_id":"7cb5f9ac-368b-45e9-8b10-ae7e339a0f63","system_id":"levelo_inurba_marseille","lat":43.28707,"lon":5.399877,"is_reserved":false,"is_disabled":false,"rental_uris":{"android":"levelo://app?vid=7cb5f9ac-368b-45e9-8b10-ae7e339a0f63","ios":"levelo://app?vid=7cb5f9ac-368b-45e9-8b10-ae7e339a0f63"},"vehicle_type_id":"4","last_reported":1740703648,"current_range_meters":17600,"station_id":"ce4bho92rcd13ifvqh3g","pricing_plan_id":"cebpf4jnsgd1na2vs0mg"},{"bike_id":"b61f0806-190c-4a93-a7f8-261fe3a6d0c4","system_id":"levelo_inurba_marseille","lat":43.2656,"lon":5.373,"is_reserved":false,"is_disabled":true,"rental_uris":{"android":"levelo://app?vid=b61f0806-190c-4a93-a7f8-261fe3a6d0c4","ios":"levelo://app?vid=b61f0806-190c-4a93-a7f8-261fe3a6d0c4"},"vehicle_type_id":"4","last_reported":1740703648,"current_range_meters":17600,"station_id":"ce4bhg12rcd13ifvqf70","pricing_plan_id":"cebpf4jnsgd1na2vs0mg"},{"bike_id":"304f543e-35b0-4c9c-9eea-6331cc081879","system_id":"levelo_inurba_marseille","lat":43.28453,"lon":5.35873,"is_reserved":false,"is_disabled":false,"rental_uris":{"android":"levelo://app?vid=304f543e-35b0-4c9c-9eea-6331cc081879","ios":"levelo://app?vid=304f543e-35b0-4c9c-9eea-6331cc081879"},"vehicle_type_id":"4","last_reported":1740703648,"current_range_meters":17600,"station_id":"ce4bhah2rcd13ifvqei0","pricing_plan_id":"cebpf4jnsgd1na2vs0mg"},{"bike_id":"26867775-6abb-4a91-a339-9f9c81f54a40","system_id":"levelo_inurba_marseille","lat":43.2465,"lon":5.3816,"is_reserved":false,"is_disabled":false,"rental_uris":{"android":"levelo://app?vid=26867775-6abb-4a91-a339-9f9c81f54a40","ios":"levelo://app?vid=26867775-6abb-4a91-a339-9f9c81f54a40"},"vehicle_type_id":"4","last_reported":1740703648,"current_range_meters":17600,"station_id":"ce4bhih2rcd13ifvqfr0","pricing_plan_id":"cebpf4jnsgd1na2vs0mg"},{"bike_id":"09b9b1ba-a68b-4280-a86f-7f7da4e66a6c","system_id":"levelo_inurba_marseille","lat":43.3088,"lon":5.39634,"is_reserved":false,"is_disabled":false,"rental_uris":{"android":"levelo://app?vid=09b9b1ba-a68b-4280-a86f-7f7da4e66a6c","ios":"levelo://app?vid=09b9b1ba-a68b-4280-a86f-7f7da4e66a6c"},"vehicle_type_id":"4","last_reported":1740703648,"current_range_meters":17600,"station_id":"ce4bh012rcd13ifvqcv0","pricing_plan_id":"cebpf4jnsgd1na2vs0mg"},{"bike_id":"7f460228-eaa7-4070-8c4f-3c84b0229773","system_id":"levelo_inurba_marseille","lat":43.2558,"lon":5.38234,"is_reserved":false,"is_disabled":false,"rental_uris":{"android":"levelo://app?vid=7f460228-eaa7-4070-8c4f-3c84b0229773","ios":"levelo://app?vid=7f460228-eaa7-4070-8c4f-3c84b0229773"},"vehicle_type_id":"4","last_reported":1740703648,"current_range_meters":18000,"station_id":"ce4bhih2rcd13ifvqfs0","pricing_plan_id":"cebpf4jnsgd1na2vs0mg"},{"bike_id":"597c78d8-1097-48db-b3be-fafc8754eab9","system_id":"levelo_inurba_marseille","lat":43.241638,"lon":5.364184,"is_reserved":false,"is_disabled":false,"rental_uris":{"android":"levelo://app?vid=597c78d8-1097-48db-b3be-fafc8754eab9","ios":"levelo://app?vid=597c78d8-1097-48db-b3be-fafc8754eab9"},"vehicle_type_id":"4","last_reported":1740703648,"current_range_meters":17600,"station_id":"cpo36qri1sfpv3e86is0","pricing_plan_id":"cebpf4jnsgd1na2vs0mg"},{"bike_id":"ab2cbdfd-18e8-4816-aeda-22028e876c64","system_id":"levelo_inurba_marseille","lat":43.28611,"lon":5.35102,"is_reserved":false,"is_disabled":false,"rental_uris":{"android":"levelo://app?vid=ab2cbdfd-18e8-4816-aeda-22028e876c64","ios":"levelo://app?vid=ab2cbdfd-18e8-4816-aeda-22028e876c64"},"vehicle_type_id":"4","last_reported":1740703648,"current_range_meters":18000,"station_id":"ce4bhch2rcd13ifvqeug","pricing_plan_id":"cebpf4jnsgd1na2vs0mg"},{"bike_id":"9062ad42-18cc-4880-abfa-5d4e6bf94241","system_id":"levelo_inurba_marseille","lat":43.23196,"lon":5.39969,"is_reserved":false,"is_disabled":false,"rental_uris":{"android":"levelo://app?vid=9062ad42-18cc-4880-abfa-5d4e6bf94241","ios":"levelo://app?vid=9062ad42-18cc-4880-abfa-5d4e6bf94241"},"vehicle_type_id":"4","last_reported":1740703648,"current_range_meters":18000,"station_id":"ce4bhn12rcd13ifvqgqg","pricing_plan_id":"cebpf4jnsgd1na2vs0mg"},{"bike_id":"e77274da-0eb8-435b-8d04-8170a0e91a50","system_id":"levelo_inurba_marseille","lat":43.282583,"lon":5.350639,"is_reserved":false,"is_disabled":false,"rental_uris":{"android":"levelo://app?vid=e77274da-0eb8-435b-8d04-8170a0e91a50","ios":"levelo://app?vid=e77274da-0eb8-435b-8d04-8170a0e91a50"},"vehicle_type_id":"4","last_reported":1740703648,"current_range_meters":18000,"station_id":"ce4bh0h2rcd13ifvqd50","pricing_plan_id":"cebpf4jnsgd1na2vs0mg"},{"bike_id":"737315e8-e42f-478d-8994-74c9331bd58d","system_id":"levelo_inurba_marseille","lat":43.30792,"lon":5.43526,"is_reserved":false,"is_disabled":false,"rental_uris":{"android":"levelo://app?vid=737315e8-e42f-478d-8994-74c9331bd58d","ios":"levelo://app?vid=737315e8-e42f-478d-8994-74c9331bd58d"},"vehicle_type_id":"4","last_reported":1740703648,"current_range_meters":18800,"station_id":"ce4bhph2rcd13ifvqheg","pricing_plan_id":"cebpf4jnsgd1na2vs0mg"},{"bike_id":"59bfc5c2-9802-4e90-9e47-6a2dd0b6f273","system_id":"levelo_inurba_marseille","lat":43.29009,"lon":5.35611,"is_reserved":false,"is_disabled":false,"rental_uris":{"android":"levelo://app?vid=59bfc5c2-9802-4e90-9e47-6a2dd0b6f273","ios":"levelo://app?vid=59bfc5c2-9802-4e90-9e47-6a2dd0b6f273"},"vehicle_type_id":"4","last_reported":1740703648,"current_range_meters":18000,"station_id":"ce4bhb92rcd13ifvqen0","pricing_plan_id":"cebpf4jnsgd1na2vs0mg"},{"bike_id":"6aecb31f-da07-4ed5-9147-fb36735747bd","system_id":"levelo_inurba_marseille","lat":43.29523,"lon":5.39409,"is_reserved":false,"is_disabled":true,"rental_uris":{"android":"levelo://app?vid=6aecb31f-da07-4ed5-9147-fb36735747bd","ios":"levelo://app?vid=6aecb31f-da07-4ed5-9147-fb36735747bd"},"vehicle_type_id":"4","last_reported":1740703648,"current_range_meters":17600,"station_id":"ce4bh292rcd13ifvqdf0","pricing_plan_id":"cebpf4jnsgd1na2vs0mg"},{"bike_id":"f5fe4361-1d3d-4314-a7e8-95ca49fcf6f9","system_id":"levelo_inurba_marseille","lat":43.31582,"lon":5.36944,"is_reserved":false,"is_disabled":false,"rental_uris":{"android":"levelo://app?vid=f5fe4361-1d3d-4314-a7e8-95ca49fcf6f9","ios":"levelo://app?vid=f5fe4361-1d3d-4314-a7e8-95ca49fcf6f9"},"vehicle_type_id":"4","last_reported":1740703648,"current_range_meters":18000,"station_id":"","pricing_plan_id":"cebpf4jnsgd1na2vs0mg"},{"bike_id":"1c6f1a05-e07e-43ca-a432-8be71aba1655","system_id":"levelo_inurba_marseille","lat":43.306436,"lon":5.400988,"is_reserved":false,"is_disabled":false,"rental_uris":{"android":"levelo://app?vid=1c6f1a05-e07e-43ca-a432-8be71aba1655","ios":"levelo://app?vid=1c6f1a05-e07e-43ca-a432-8be71aba1655"},"vehicle_type_id":"4","last_reported":1740703648,"current_range_meters":18800,"station_id":"ce4bh112rcd13ifvqda0","pricing_plan_id":"cebpf4jnsgd1na2vs0mg"},{"bike_id":"f5083189-9b8f-4bde-b344-dcf2540c65c5","system_id":"levelo_inurba_marseille","lat":43.2901,"lon":5.35609,"is_reserved":false,"is_disabled":false,"rental_uris":{"android":"levelo://app?vid=f5083189-9b8f-4bde-b344-dcf2540c65c5","ios":"levelo://app?vid=f5083189-9b8f-4bde-b344-dcf2540c65c5"},"vehicle_type_id":"4","last_reported":1740703648,"current_range_meters":19200,"station_id":"ce4bhb92rcd13ifvqen0","pricing_plan_id":"cebpf4jnsgd1na2vs0mg"},{"bike_id":"321a56c2-4f26-47bf-b9c8-2b4160b2036f","system_id":"levelo_inurba_marseille","lat":43.27419,"lon":5.39415,"is_reserved":false,"is_disabled":false,"rental_uris":{"android":"levelo://app?vid=321a56c2-4f26-47bf-b9c8-2b4160b2036f","ios":"levelo://app?vid=321a56c2-4f26-47bf-b9c8-2b4160b2036f"},"vehicle_type_id":"4","last_reported":1740703648,"current_range_meters":18000,"station_id":"ce4bhdp2rcd13ifvqf20","pricing_plan_id":"cebpf4jnsgd1na2vs0mg"},{"bike_id":"a43d23d2-0d6e-4cf7-8691-8ab079a8ff69","system_id":"levelo_inurba_marseille","lat":43.29904,"lon":5.43656,"is_reserved":false,"is_disabled":false,"rental_uris":{"android":"levelo://app?vid=a43d23d2-0d6e-4cf7-8691-8ab079a8ff69","ios":"levelo://app?vid=a43d23d2-0d6e-4cf7-8691-8ab079a8ff69"},"vehicle_type_id":"4","last_reported":1740703648,"current_range_meters":19200,"station_id":"ce4bhpp2rcd13ifvqhfg","pricing_plan_id":"cebpf4jnsgd1na2vs0mg"},{"bike_id":"766f9252-76ba-4151-9194-6d162e66f1d3","system_id":"levelo_inurba_marseille","lat":43.24811,"lon":5.37459,"is_reserved":false,"is_disabled":false,"rental_uris":{"android":"levelo://app?vid=766f9252-76ba-4151-9194-6d162e66f1d3","ios":"levelo://app?vid=766f9252-76ba-4151-9194-6d162e66f1d3"},"vehicle_type_id":"4","last_reported":1740703648,"current_range_meters":19200,"station_id":"ce4bhgh2rcd13ifvqfb0","pricing_plan_id":"cebpf4jnsgd1na2vs0mg"},{"bike_id":"d2e63456-e2a3-4986-81b1-7702a5ef436e","system_id":"levelo_inurba_marseille","lat":43.306023,"lon":5.372258,"is_reserved":false,"is_disabled":false,"rental_uris":{"android":"levelo://app?vid=d2e63456-e2a3-4986-81b1-7702a5ef436e","ios":"levelo://app?vid=d2e63456-e2a3-4986-81b1-7702a5ef436e"},"vehicle_type_id":"4","last_reported":1740703648,"current_range_meters":19200,"station_id":"ce4bgqh2rcd13ifvqc4g","pricing_plan_id":"cebpf4jnsgd1na2vs0mg"},{"bike_id":"695e9a27-d903-4bbc-b050-bcc463be80aa","system_id":"levelo_inurba_marseille","lat":43.24152,"lon":5.36409,"is_reserved":false,"is_disabled":false,"rental_uris":{"android":"levelo://app?vid=695e9a27-d903-4bbc-b050-bcc463be80aa","ios":"levelo://app?vid=695e9a27-d903-4bbc-b050-bcc463be80aa"},"vehicle_type_id":"4","last_reported":1740703648,"current_range_meters":18800,"station_id":"cpo36qri1sfpv3e86is0","pricing_plan_id":"cebpf4jnsgd1na2vs0mg"},{"bike_id":"0570155c-5e28-4b10-be12-19cf2d1af039","system_id":"levelo_inurba_marseille","lat":43.29773,"lon":5.38115,"is_reserved":false,"is_disabled":true,"rental_uris":{"android":"levelo://app?vid=0570155c-5e28-4b10-be12-19cf2d1af039","ios":"levelo://app?vid=0570155c-5e28-4b10-be12-19cf2d1af039"},"vehicle_type_id":"4","last_reported":1740703648,"current_range_meters":18800,"station_id":"ce4bgip2rcd13ifvqbb0","pricing_plan_id":"cebpf4jnsgd1na2vs0mg"},{"bike_id":"8f66117f-605f-404e-be91-52fd5c075b76","system_id":"levelo_inurba_marseille","lat":43.27982,"lon":5.41661,"is_reserved":false,"is_disabled":false,"rental_uris":{"android":"levelo://app?vid=8f66117f-605f-404e-be91-52fd5c075b76","ios":"levelo://app?vid=8f66117f-605f-404e-be91-52fd5c075b76"},"vehicle_type_id":"4","last_reported":1740703648,"current_range_meters":18800,"station_id":"ce4bho12rcd13ifvqh1g","pricing_plan_id":"cebpf4jnsgd1na2vs0mg"},{"bike_id":"35e20382-3e4a-4066-8dc3-35e0fff5cef5","system_id":"levelo_inurba_marseille","lat":43.28622,"lon":5.35106,"is_reserved":false,"is_disabled":false,"rental_uris":{"android":"levelo://app?vid=35e20382-3e4a-4066-8dc3-35e0fff5cef5","ios":"levelo://app?vid=35e20382-3e4a-4066-8dc3-35e0fff5cef5"},"vehicle_type_id":"4","last_reported":1740703648,"current_range_meters":18800,"station_id":"ce4bhch2rcd13ifvqeug","pricing_plan_id":"cebpf4jnsgd1na2vs0mg"},{"bike_id":"60853400-8031-4bca-8574-38d7009dbe12","system_id":"levelo_inurba_marseille","lat":43.2784,"lon":5.39203,"is_reserved":false,"is_disabled":false,"rental_uris":{"android":"levelo://app?vid=60853400-8031-4bca-8574-38d7009dbe12","ios":"levelo://app?vid=60853400-8031-4bca-8574-38d7009dbe12"},"vehicle_type_id":"4","last_reported":1740703648,"current_range_meters":19200,"station_id":"ce4bhjp2rcd13ifvqga0","pricing_plan_id":"cebpf4jnsgd1na2vs0mg"},{"bike_id":"0693b9d6-4a9d-4e38-bfa2-80f934bcc2e3","system_id":"levelo_inurba_marseille","lat":43.241708,"lon":5.363973,"is_reserved":false,"is_disabled":false,"rental_uris":{"android":"levelo://app?vid=0693b9d6-4a9d-4e38-bfa2-80f934bcc2e3","ios":"levelo://app?vid=0693b9d6-4a9d-4e38-bfa2-80f934bcc2e3"},"vehicle_type_id":"4","last_reported":1740703648,"current_range_meters":19200,"station_id":"cpo36qri1sfpv3e86is0","pricing_plan_id":"cebpf4jnsgd1na2vs0mg"},