{"last_updated":1718204824,"ttl":30,"version":"2.2","data":{"bikes":[{"bike_id":"a35a8ab9-511a-49ad-9e3f-6e00c6583bd1","system_id":"levelo_inurba_marseille","lat":43.313545,"lon":5.367017,"is_reserved":false,"is_disabled":false,"rental_uris":{"android":"levelo://app?vid=a35a8ab9-511a-49ad-9e3f-6e00c6583bd1","ios":"levelo://app?vid=a35a8ab9-511a-49ad-9e3f-6e00c6583bd1"},"vehicle_type_id":"4","last_reported":1718204824,"current_range_meters":18400,"station_id":"","pricing_plan_id":"cebpf4jnsgd1na2vs0mg"},{"bike_id":"446538b5-ab38-44d8-aa3b-da8672f7cf5c","system_id":"levelo_inurba_marseille","lat":43.314811,"lon":5.373103,"is_reserved":false,"is_disabled":false,"rental_uris":{"android":"levelo://app?vid=446538b5-ab38-44d8-aa3b-da8672f7cf5c","ios":"levelo://app?vid=446538b5-ab38-44d8-aa3b-da8672f7cf5c"},"vehicle_type_id":"4","last_reported":1718204824,"current_range_meters":22800,"station_id":"ce4bgt12rcd13ifvqcd0","pricing_plan_id":"cebpf4jnsgd1na2vs0mg"},{"bike_id":"63e0091f-0b79-468d-a4fb-e7fa798c7b32","system_id":"levelo_inurba_marseille","lat":43.314811,"lon":5.373103,"is_reserved":false,"is_disabled":false,"rental_uris":{"android":"levelo://app?vid=63e0091f-0b79-468d-a4fb-e7fa798c7b32","ios":"levelo://app?vid=63e0091f-0b79-468d-a4fb-e7fa798c7b32"},"vehicle_type_id":"4","last_reported":1718204824,"current_range_meters":14000,"station_id":"ce4bgt12rcd13ifvqcd0","pricing_plan_id":"cebpf4jnsgd1na2vs0mg"},{"bike_id":"1acf0661-8424-4b6e-9600-36c26c4f6817","system_id":"levelo_inurba_marseille","lat":43.30537,"lon":5.367345,"is_reserved":false,"is_disabled":false,"rental_uris":{"android":"levelo://app?vid=1acf0661-8424-4b6e-9600-36c26c4f6817","ios":"levelo://app?vid=1acf0661-8424-4b6e-9600-36c26c4f6817"},"vehicle_type_id":"4","last_reported":1718204824,"current_range_meters":26400,"station_id":"ce4bgrp2rcd13ifvqc9g","pricing_plan_id":"cebpf4jnsgd1na2vs0mg"},{"bike_id":"0a79698f-83ba-48f3-89f1-3536cf9415f0","system_id":"levelo_inurba_marseille","lat":43.3056,"lon":5.36716,"is_reserved":false,"is_disabled":false,"rental_uris":{"android":"levelo://app?vid=0a79698f-83ba-48f3-89f1-3536cf9415f0","ios":"levelo://app?vid=0a79698f-83ba-48f3-89f1-3536cf9415f0"},"vehicle_type_id":"4","last_reported":1718204824,"current_range_meters":30400,"station_id":"ce4bgrp2rcd13ifvqc9g","pricing_plan_id":"cebpf4jnsgd1na2vs0mg"},{"bike_id":"3d9bb95d-da16-4b7b-8a68-c15b24a10133","system_id":"levelo_inurba_marseille","lat":43.30537,"lon":5.367345,"is_reserved":false,"is_disabled":false,"rental_uris":{"android":"levelo://app?vid=3d9bb95d-da16-4b7b-8a68-c15b24a10133","ios":"levelo://app?vid=3d9bb95d-da16-4b7b-8a68-c15b24a10133"},"vehicle_type_id":"4","last_reported":1718204824,"current_range_meters":8800,"station_id":"ce4bgrp2rcd13ifvqc9g","pricing_plan_id":"cebpf4jnsgd1na2vs0mg"},{"bike_id":"2ab7124f-d80e-4155-9c0e-607e4a40e3e6","system_id":"levelo_inurba_marseille","lat":43.305477,"lon":5.367069,"is_reserved":false,"is_disabled":false,"rental_uris":{"android":"levelo://app?vid=2ab7124f-d80e-4155-9c0e-607e4a40e3e6","ios":"levelo://app?vid=2ab7124f-d80e-4155-9c0e-607e4a40e3e6"},"vehicle_type_id":"4","last_reported":1718204824,"current_range_meters":19200,"station_id":"ce4bgrp2rcd13ifvqc9g","pricing_plan_id":"cebpf4jnsgd1na2vs0mg"},{"bike_id":"2b99ea1f-8411-4728-ad11-05a99a558f85","system_id":"levelo_inurba_marseille","lat":43.305423,"lon":5.367051,"is_reserved":false,"is_disabled":false,"rental_uris":{"android":"levelo://app?vid=2b99ea1f-8411-4728-ad11-05a99a558f85","ios":"levelo://app?vid=2b99ea1f-8411-4728-ad11-05a99a558f85"},"vehicle_type_id":"4","last_reported":1718204824,"current_range_meters":31600,"station_id":"ce4bgrp2rcd13ifvqc9g","pricing_plan_id":"cebpf4jnsgd1na2vs0mg"},{"bike_id":"9da1e7d4-4b3f-4816-b7ec-89fb96b9b448","system_id":"levelo_inurba_marseille","lat":43.30537,"lon":5.367345,"is_reserved":false,"is_disabled":false,"rental_uris":{"android":"levelo://app?vid=9da1e7d4-4b3f-4816-b7ec-89fb96b9b448","ios":"levelo://app?vid=9da1e7d4-4b3f-4816-b7ec-89fb96b9b448"},"vehicle_type_id":"4","last_reported":1718204824,"current_range_meters":31600,"station_id":"ce4bgrp2rcd13ifvqc9g","pricing_plan_id":"cebpf4jnsgd1na2vs0mg"},{"bike_id":"60fb9341-6111-4345-b40e-3a37aa3ed3b2","system_id":"levelo_inurba_marseille","lat":43.305398,"lon":5.365364,"is_reserved":false,"is_disabled":false,"rental_uris":{"android":"levelo://app?vid=60fb9341-6111-4345-b40e-3a37aa3ed3b2","ios":"levelo://app?vid=60fb9341-6111-4345-b40e-3a37aa3ed3b2"},"vehicle_type_id":"4","last_reported":1718204824,"current_range_meters":31200,"station_id":"ce4bgs12rcd13ifvqcag","pricing_plan_id":"cebpf4jnsgd1na2vs0mg"},{"bike_id":"b0756931-35ab-4259-a90b-c6ffa8cdad83","system_id":"levelo_inurba_marseille","lat":43.307945,"lon":5.376487,"is_reserved":false,"is_disabled":false,"rental_uris":{"android":"levelo://app?vid=b0756931-35ab-4259-a90b-c6ffa8cdad83","ios":"levelo://app?vid=b0756931-35ab-4259-a90b-c6ffa8cdad83"},"vehicle_type_id":"4","last_reported":1718204824,"current_range_meters":15600,"station_id":"ce4bgv92rcd13ifvqcq0","pricing_plan_id":"cebpf4jnsgd1na2vs0mg"},{"bike_id":"56d515a3-295c-40cd-b46c-a42526b390c7","system_id":"levelo_inurba_marseille","lat":43.305989,"lon":5.37225,"is_reserved":false,"is_disabled":false,"rental_uris":{"android":"levelo://app?vid=56d515a3-295c-40cd-b46c-a42526b390c7","ios":"levelo://app?vid=56d515a3-295c-40cd-b46c-a42526b390c7"},"vehicle_type_id":"4","last_reported":1718204824,"current_range_meters":31600,"station_id":"ce4bgqh2rcd13ifvqc4g","pricing_plan_id":"cebpf4jnsgd1na2vs0mg"},{"bike_id":"091456c3-7ab7-47fb-ad3f-9a60b436a022","system_id":"levelo_inurba_marseille","lat":43.30607,"lon":5.37229,"is_reserved":false,"is_disabled":false,"rental_uris":{"android":"levelo://app?vid=091456c3-7ab7-47fb-ad3f-9a60b436a022","ios":"levelo://app?vid=091456c3-7ab7-47fb-ad3f-9a60b436a022"},"vehicle_type_id":"4","last_reported":1718204824,"current_range_meters":12000,"station_id":"ce4bgqh2rcd13ifvqc4g","pricing_plan_id":"cebpf4jnsgd1na2vs0mg"},{"bike_id":"d8d4a63c-f186-4a9d-a86f-6ad6a79243d7","system_id":"levelo_inurba_marseille","lat":43.30609,"lon":5.37241,"is_reserved":false,"is_disabled":false,"rental_uris":{"android":"levelo://app?vid=d8d4a63c-f186-4a9d-a86f-6ad6a79243d7","ios":"levelo://app?vid=d8d4a63c-f186-4a9d-a86f-6ad6a79243d7"},"vehicle_type_id":"4","last_reported":1718204824,"current_range_meters":6400,"station_id":"ce4bgqh2rcd13ifvqc4g","pricing_plan_id":"cebpf4jnsgd1na2vs0mg"},{"bike_id":"ca6ffa67-2629-45af-b4a8-002048cdb34a","system_id":"levelo_inurba_marseille","lat":43.305989,"lon":5.37225,"is_reserved":false,"is_disabled":false,"rental_uris":{"android":"levelo://app?vid=ca6ffa67-2629-45af-b4a8-002048cdb34a","ios":"levelo://app?vid=ca6ffa67-2629-45af-b4a8-002048cdb34a"},"vehicle_type_id":"4","last_reported":1718204824,"current_range_meters":29200,"station_id":"ce4bgqh2rcd13ifvqc4g","pricing_plan_id":"cebpf4jnsgd1na2vs0mg"},{"bike_id":"ab786a60-6a57-4c3b-a55a-5b6c4a474fd0","system_id":"levelo_inurba_marseille","lat":43.311131,"lon":5.377651,"is_reserved":false,"is_disabled":false,"rental_uris":{"android":"levelo://app?vid=ab786a60-6a57-4c3b-a55a-5b6c4a474fd0","ios":"levelo://app?vid=ab786a60-6a57-4c3b-a55a-5b6c4a474fd0"},"vehicle_type_id":"4","last_reported":1718204824,"current_range_meters":25200,"station_id":"ce4bgt92rcd13ifvqcg0","pricing_plan_id":"cebpf4jnsgd1na2vs0mg"},{"bike_id":"2dc02bdf-a0a1-4470-bcf5-047bcaeb9472","system_id":"levelo_inurba_marseille","lat":43.311131,"lon":5.377651,"is_reserved":false,"is_disabled":false,"rental_uris":{"android":"levelo://app?vid=2dc02bdf-a0a1-4470-bcf5-047bcaeb9472","ios":"levelo://app?vid=2dc02bdf-a0a1-4470-bcf5-047bcaeb9472"},"vehicle_type_id":"4","last_reported":1718204824,"current_range_meters":18400,"station_id":"ce4bgt92rcd13ifvqcg0","pricing_plan_id":"cebpf4jnsgd1na2vs0mg"},{"bike_id":"5ee982f3-0ee9-41a6-b1ca-5e17742f5a82","system_id":"levelo_inurba_marseille","lat":43.311125,"lon":5.377624,"is_reserved":false,"is_disabled":false,"rental_uris":{"android":"levelo://app?vid=5ee982f3-0ee9-41a6-b1ca-5e17742f5a82","ios":"levelo://app?vid=5ee982f3-0ee9-41a6-b1ca-5e17742f5a82"},"vehicle_type_id":"4","last_reported":1718204824,"current_range_meters":26800,"station_id":"ce4bgt92rcd13ifvqcg0","pricing_plan_id":"cebpf4jnsgd1na2vs0mg"},{"bike_id":"d6071fba-a9b4-446a-8f08-8bbbf81237f3","system_id":"levelo_inurba_marseille","lat":43.311131,"lon":5.377651,"is_reserved":false,"is_disabled":false,"rental_uris":{"android":"levelo://app?vid=d6071fba-a9b4-446a-8f08-8bbbf81237f3","ios":"levelo://app?vid=d6071fba-a9b4-446a-8f08-8bbbf81237f3"},"vehicle_type_id":"4","last_reported":1718204824,"current_range_meters":26000,"station_id":"ce4bgt92rcd13ifvqcg0","pricing_plan_id":"cebpf4jnsgd1na2vs0mg"},{"bike_id":"97c01ebd-b122-46f2-be9b-6cd608d33948","system_id":"levelo_inurba_marseille","lat":43.307945,"lon":5.376487,"is_reserved":false,"is_disabled":false,"rental_uris":{"android":"levelo://app?vid=97c01ebd-b122-46f2-be9b-6cd608d33948","ios":"levelo://app?vid=97c01ebd-b122-46f2-be9b-6cd608d33948"},"vehicle_type_id":"4","last_reported":1718204824,"current_range_meters":1600,"station_id":"ce4bgv92rcd13ifvqcq0","pricing_plan_id":"cebpf4jnsgd1na2vs0mg"},{"bike_id":"7c2e567c-d8ad-4ff2-aa97-074ddc2fcec1","system_id":"levelo_inurba_marseille","lat":43.307945,"lon":5.376487,"is_reserved":false,"is_disabled":false,"rental_uris":{"android":"levelo://app?vid=7c2e567c-d8ad-4ff2-aa97-074ddc2fcec1","ios":"levelo://app?vid=7c2e567c-d8ad-4ff2-aa97-074ddc2fcec1"},"vehicle_type_id":"4","last_reported":1718204824,"current_range_meters":23200,"station_id":"ce4bgv92rcd13ifvqcq0","pricing_plan_id":"cebpf4jnsgd1na2vs0mg"},{"bike_id":"05c94099-9a14-4e19-ad33-43f5d595f3d3","system_id":"levelo_inurba_marseille","lat":43.307945,"lon":5.376487,"is_reserved":false,"is_disabled":false,"rental_uris":{"android":"levelo://app?vid=05c94099-9a14-4e19-ad33-43f5d595f3d3","ios":"levelo://app?vid=05c94099-9a14-4e19-ad33-43f5d595f3d3"},"vehicle_type_id":"4","last_reported":1718204824,"current_range_meters":0,"station_id":"ce4bgv92rcd13ifvqcq0","pricing_plan_id":"cebpf4jnsgd1na2vs0mg"},{"bike_id":"cf82ea0b-bebb-4eea-a7aa-b84b3993375e","system_id":"levelo_inurba_marseille","lat":43.307945,"lon":5.376487,"is_reserved":false,"is_disabled":false,"rental_uris":{"android":"levelo://app?vid=cf82ea0b-bebb-4eea-a7aa-b84b3993375e","ios":"levelo://app?vid=cf82ea0b-bebb-4eea-a7aa-b84b3993375e"},"vehicle_type_id":"4","last_reported":1718204824,"current_range_meters":13600,"station_id":"ce4bgv92rcd13ifvqcq0","pricing_plan_id":"cebpf4jnsgd1na2vs0mg"},{"bike_id":"7ae79cba-73e4-45cb-b356-727d7574e48b","system_id":"levelo_inurba_marseille","lat":43.307945,"lon":5.376487,"is_reserved":false,"is_disabled":false,"rental_uris":{"android":"levelo://app?vid=7ae79cba-73e4-45cb-b356-727d7574e48b","ios":"levelo://app?vid=7ae79cba-73e4-45cb-b356-727d7574e48b"},"vehicle_type_id":"4","last_reported":1718204824,"current_range_meters":12800,"station_id":"ce4bgv92rcd13ifvqcq0","pricing_plan_id":"cebpf4jnsgd1na2vs0mg"},{"bike_id":"acf05c7e-afbe-406d-add2-432da24cafd0","system_id":"levelo_inurba_marseille","lat":43.307945,"lon":5.376487,"is_reserved":false,"is_disabled":false,"rental_uris":{"android":"levelo://app?vid=acf05c7e-afbe-406d-add2-432da24cafd0","ios":"levelo://app?vid=acf05c7e-afbe-406d-add2-432da24cafd0"},"vehicle_type_id":"4","last_reported":1718204824,"current_range_meters":14800,"station_id":"ce4bgv92rcd13ifvqcq0","pricing_plan_id":"cebpf4jnsgd1na2vs0mg"},{"bike_id":"e5d75a89-824d-4630-a0b0-9e6614d995f0","system_id":"levelo_inurba_marseille","lat":43.307945,"lon":5.376487,"is_reserved":false,"is_disabled":false,"rental_uris":{"android":"levelo://app?vid=e5d75a89-824d-4630-a0b0-9e6614d995f0","ios":"levelo://app?vid=e5d75a89-824d-4630-a0b0-9e6614d995f0"},"vehicle_type_id":"4","last_reported":1718204824,"current_range_meters":24400,"station_id":"ce4bgv92rcd13ifvqcq0","pricing_plan_id":"cebpf4jnsgd1na2vs0mg"},{"bike_id":"caf69f5c-cdfb-486f-a2c8-670ed5882db5","system_id":"levelo_inurba_marseille","lat":43.317075,"lon":5.377367,"is_reserved":false,"is_disabled":false,"rental_uris":{"android":"levelo://app?vid=caf69f5c-cdfb-486f-a2c8-670ed5882db5","ios":"levelo://app?vid=caf69f5c-cdfb-486f-a2c8-670ed5882db5"},"vehicle_type_id":"4","last_reported":1718204824,"current_range_meters":22000,"station_id":"ce4bgth2rcd13ifvqch0","pricing_plan_id":"cebpf4jnsgd1na2vs0mg"},{"bike_id":"e60b3e85-5c6f-405d-b3ab-77ef40d003ae","system_id":"levelo_inurba_marseille","lat":43.317075,"lon":5.377367,"is_reserved":false,"is_disabled":false,"rental_uris":{"android":"levelo://app?vid=e60b3e85-5c6f-405d-b3ab-77ef40d003ae","ios":"levelo://app?vid=e60b3e85-5c6f-405d-b3ab-77ef40d003ae"},"vehicle_type_id":"4","last_reported":1718204824,"current_range_meters":32000,"station_id":"ce4bgth2rcd13ifvqch0","pricing_plan_id":"cebpf4jnsgd1na2vs0mg"},{"bike_id":"9e47b0ad-48d0-4230-9d98-396aedc9868d","system_id":"levelo_inurba_marseille","lat":43.317075,"lon":5.377367,"is_reserved":false,"is_disabled":false,"rental_uris":{"android":"levelo://app?vid=9e47b0ad-48d0-4230-9d98-396aedc9868d","ios":"levelo://app?vid=9e47b0ad-48d0-4230-9d98-396aedc9868d"},"vehicle_type_id":"4","last_reported":1718204824,"current_range_meters":24400,"station_id":"ce4bgth2rcd13ifvqch0","pricing_plan_id":"cebpf4jnsgd1na2vs0mg"},{"bike_id":"23dcc354-6d2e-47d9-8435-fde98a98569e","system_id":"levelo_inurba_marseille","lat":43.31707,"lon":5.37763,"is_reserved":false,"is_disabled":false,"rental_uris":{"android":"levelo://app?vid=23dcc354-6d2e-47d9-8435-fde98a98569e","ios":"levelo://app?vid=23dcc354-6d2e-47d9-8435-fde98a98569e"},"vehicle_type_id":"4","last_reported":1718204824,"current_range_meters":6800,"station_id":"ce4bgth2rcd13ifvqch0","pricing_plan_id":"cebpf4jnsgd1na2vs0mg"},{"bike_id":"11cdc5bc-d849-4418-8cf2-1413c967b2d0","system_id":"levelo_inurba_marseille","lat":43.30304,"lon":5.368987,"is_reserved":false,"is_disabled":false,"rental_uris":{"android":"levelo://app?vid=11cdc5bc-d849-4418-8cf2-1413c967b2d0","ios":"levelo://app?vid=11cdc5bc-d849-4418-8cf2-1413c967b2d0"},"vehicle_type_id":"4","last_reported":1718204824,"current_range_meters":0,"station_id":"ce4bgqh2rcd13ifvqc5g","pricing_plan_id":"cebpf4jnsgd1na2vs0mg"},{"bike_id":"2c8d1891-0f28-4cce-a4c4-c91dd69738f9","system_id":"levelo_inurba_marseille","lat":43.315289,"lon":5.380349,"is_reserved":false,"is_disabled":false,"rental_uris":{"android":"levelo://app?vid=2c8d1891-0f28-4cce-a4c4-c91dd69738f9","ios":"levelo://app?vid=2c8d1891-0f28-4cce-a4c4-c91dd69738f9"},"vehicle_type_id":"4","last_reported":1718204824,"current_range_meters":28400,"station_id":"ce4bhsp2rcd13ifvqi50","pricing_plan_id":"cebpf4jnsgd1na2vs0mg"},{"bike_id":"0419d7cc-4242-4aa5-838b-17857354c04a","system_id":"levelo_inurba_marseille","lat":43.30196,"lon":5.36616,"is_reserved":false,"is_disabled":false,"rental_uris":{"android":"levelo://app?vid=0419d7cc-4242-4aa5-838b-17857354c04a","ios":"levelo://app?vid=0419d7cc-4242-4aa5-838b-17857354c04a"},"vehicle_type_id":"4","last_reported":1718204824,"current_range_meters":26000,"station_id":"ce4bgrh2rcd13ifvqc8g","pricing_plan_id":"cebpf4jnsgd1na2vs0mg"},{"bike_id":"95641ab0-01fc-4d26-991a-2edc302a89ce","system_id":"levelo_inurba_marseille","lat":43.301939,"lon":5.366286,"is_reserved":false,"is_disabled":false,"rental_uris":{"android":"levelo://app?vid=95641ab0-01fc-4d26-991a-2edc302a89ce","ios":"levelo://app?vid=95641ab0-01fc-4d26-991a-2edc302a89ce"},"vehicle_type_id":"4","last_reported":1718204824,"current_range_meters":21600,"station_id":"ce4bgrh2rcd13ifvqc8g","pricing_plan_id":"cebpf4jnsgd1na2vs0mg"},{"bike_id":"01ca70b6-4e2c-42cb-9aed-a8b80d5ea29c","system_id":"levelo_inurba_marseille","lat":43.30273,"lon":5.37489,"is_reserved":false,"is_disabled":false,"rental_uris":{"android":"levelo://app?vid=01ca70b6-4e2c-42cb-9aed-a8b80d5ea29c","ios":"levelo://app?vid=01ca70b6-4e2c-42cb-9aed-a8b80d5ea29c"},"vehicle_type_id":"4","last_reported":1718204824,"current_range_meters":7200,"station_id":"","pricing_plan_id":"cebpf4jnsgd1na2vs0mg"},{"bike_id":"60c7adb2-b70f-4be9-b36d-478c05f89815","system_id":"levelo_inurba_marseille","lat":43.308012,"lon":5.381511,"is_reserved":false,"is_disabled":false,"rental_uris":{"android":"levelo://app?vid=60c7adb2-b70f-4be9-b36d-478c05f89815","ios":"levelo://app?vid=60c7adb2-b70f-4be9-b36d-478c05f89815"},"vehicle_type_id":"4","last_reported":1718204824,"current_range_meters":0,"station_id":"ce4bgt12rcd13ifvqce0","pricing_plan_id":"cebpf4jnsgd1na2vs0mg"},{"bike_id":"5b18b601-cfa2-453f-b7e9-98ea4dc53b31","system_id":"levelo_inurba_marseille","lat":43.308012,"lon":5.381511,"is_reserved":false,"is_disabled":false,"rental_uris":{"android":"levelo://app?vid=5b18b601-cfa2-453f-b7e9-98ea4dc53b31","ios":"levelo://app?vid=5b18b601-cfa2-453f-b7e9-98ea4dc53b31"},"vehicle_type_id":"4","last_reported":1718204824,"current_range_meters":30000,"station_id":"ce4bgt12rcd13ifvqce0","pricing_plan_id":"cebpf4jnsgd1na2vs0mg"},{"bike_id":"c618f2ca-3a1e-4070-a249-7491be418c22","system_id":"levelo_inurba_marseille","lat":43.308012,"lon":5.381511,"is_reserved":false,"is_disabled":false,"rental_uris":{"android":"levelo://app?vid=c618f2ca-3a1e-4070-a249-7491be418c22","ios":"levelo://app?vid=c618f2ca-3a1e-4070-a249-7491be418c22"},"vehicle_type_id":"4","last_reported":1718204824,"current_range_meters":18000,"station_id":"ce4bgt12rcd13ifvqce0","pricing_plan_id":"cebpf4jnsgd1na2vs0mg"},{"bike_id":"732a0018-3df2-4a04-aaed-e532b25038c4","system_id":"levelo_inurba_marseille","lat":43.308012,"lon":5.381511,"is_reserved":false,"is_disabled":false,"rental_uris":{"android":"levelo://app?vid=732a0018-3df2-4a04-aaed-e532b25038c4","ios":"levelo://app?vid=732a0018-3df2-4a04-aaed-e532b25038c4"},"vehicle_type_id":"4","last_reported":1718204824,"current_range_meters":22000,"station_id":"ce4bgt12rcd13ifvqce0","pricing_plan_id":"cebpf4jnsgd1na2vs0mg"},{"bike_id":"0fd86ddd-4aab-4399-8d6f-896255613265","system_id":"levelo_inurba_marseille","lat":43.30513,"lon":5.37918,"is_reserved":false,"is_disabled":false,"rental_uris":{"android":"levelo://app?vid=0fd86ddd-4aab-4399-8d6f-896255613265","ios":"levelo://app?vid=0fd86ddd-4aab-4399-8d6f-896255613265"},"vehicle_type_id":"4","last_reported":1718204824,"current_range_meters":11200,"station_id":"","pricing_plan_id":"cebpf4jnsgd1na2vs0mg"},{"bike_id":"b70a6a54-6b94-42d5-9a32-5512d768e2eb","system_id":"levelo_inurba_marseille","lat":43.30472,"lon":5.37898,"is_reserved":false,"is_disabled":false,"rental_uris":{"android":"levelo://app?vid=b70a6a54-6b94-42d5-9a32-5512d768e2eb","ios":"levelo://app?vid=b70a6a54-6b94-42d5-9a32-5512d768e2eb"},"vehicle_type_id":"4","last_reported":1718204824,"current_range_meters":2000,"station_id":"ce4bgup2rcd13ifvqcn0","pricing_plan_id":"cebpf4jnsgd1na2vs0mg"},{"bike_id":"d67699dc-6242-4cbf-acd5-3e24973bae16","system_id":"levelo_inurba_marseille","lat":43.304606,"lon":5.379026,"is_reserved":false,"is_disabled":false,"rental_uris":{"android":"levelo://app?vid=d67699dc-6242-4cbf-acd5-3e24973bae16","ios":"levelo://app?vid=d67699dc-6242-4cbf-acd5-3e24973bae16"},"vehicle_type_id":"4","last_reported":1718204824,"current_range_meters":23200,"station_id":"ce4bgup2rcd13ifvqcn0","pricing_plan_id":"cebpf4jnsgd1na2vs0mg"},{"bike_id":"4ea48f3f-ef52-461f-b82a-0f2efa8469a6","system_id":"levelo_inurba_marseille","lat":43.324771,"lon":5.36557,"is_reserved":false,"is_disabled":false,"rental_uris":{"android":"levelo://app?vid=4ea48f3f-ef52-461f-b82a-0f2efa8469a6","ios":"levelo://app?vid=4ea48f3f-ef52-461f-b82a-0f2efa8469a6"},"vehicle_type_id":"4","last_reported":1718204824,"current_range_meters":18400,"station_id":"ce4bhs12rcd13ifvqhvg","pricing_plan_id":"cebpf4jnsgd1na2vs0mg"},{"bike_id":"90b5b2a3-6404-4e2f-80c8-f20f4ae8ca1d","system_id":"levelo_inurba_marseille","lat":43.324771,"lon":5.36557,"is_reserved":false,"is_disabled":false,"rental_uris":{"android":"levelo://app?vid=90b5b2a3-6404-4e2f-80c8-f20f4ae8ca1d","ios":"levelo://app?vid=90b5b2a3-6404-4e2f-80c8-f20f4ae8ca1d"},"vehicle_type_id":"4","last_reported":1718204824,"current_range_meters":6800,"station_id":"ce4bhs12rcd13ifvqhvg","pricing_plan_id":"cebpf4jnsgd1na2vs0mg"},{"bike_id":"ba5f2234-eed9-4e0c-aed8-116d5dcd7219","system_id":"levelo_inurba_marseille","lat":43.324771,"lon":5.36557,"is_reserved":false,"is_disabled":false,"rental_uris":{"android":"levelo://app?vid=ba5f2234-eed9-4e0c-aed8-116d5dcd7219","ios":"levelo://app?vid=ba5f2234-eed9-4e0c-aed8-116d5dcd7219"},"vehicle_type_id":"4","last_reported":1718204824,"current_range_meters":5200,"station_id":"ce4bhs12rcd13ifvqhvg","pricing_plan_id":"cebpf4jnsgd1na2vs0mg"},{"bike_id":"1b2aafd9-75fc-4c41-a261-4ff68d148dad","system_id":"levelo_inurba_marseille","lat":43.324771,"lon":5.36557,"is_reserved":false,"is_disabled":false,"rental_uris":{"android":"levelo://app?vid=1b2aafd9-75fc-4c41-a261-4ff68d148dad","ios":"levelo://app?vid=1b2aafd9-75fc-4c41-a261-4ff68d148dad"},"vehicle_type_id":"4","last_reported":1718204824,"current_range_meters":8000,"station_id":"ce4bhs12rcd13ifvqhvg","pricing_plan_id":"cebpf4jnsgd1na2vs0mg"},{"bike_id":"e70afa0a-fe05-4c19-8389-9aa3f8d5603f","system_id":"levelo_inurba_marseille","lat":43.32486,"lon":5.36581,"is_reserved":false,"is_disabled":false,"rental_uris":{"android":"levelo://app?vid=e70afa0a-fe05-4c19-8389-9aa3f8d5603f","ios":"levelo://app?vid=e70afa0a-fe05-4c19-8389-9aa3f8d5603f"},"vehicle_type_id":"4","last_reported":1718204824,"current_range_meters":1200,"station_id":"ce4bhs12rcd13ifvqhvg","pricing_plan_id":"cebpf4jnsgd1na2vs0mg"},{"bike_id":"356a0a89-61d3-4e41-bc1b-4fbf4ec1385f","system_id":"levelo_inurba_marseille","lat":43.310804,"lon":5.38359,"is_reserved":false,"is_disabled":false,"rental_uris":{"android":"levelo://app?vid=356a0a89-61d3-4e41-bc1b-4fbf4ec1385f","ios":"levelo://app?vid=356a0a89-61d3-4e41-bc1b-4fbf4ec1385f"},"vehicle_type_id":"4","last_reported":1718204824,"current_range_meters":31200,"station_id":"ce4bgv92rcd13ifvqcr0","pricing_plan_id":"cebpf4jnsgd1na2vs0mg"},{"bike_id":"53d32df3-e25e-428a-8610-f938620a2266","system_id":"levelo_inurba_marseille","lat":43.302784,"lon":5.377158,"is_reserved":false,"is_disabled":false,"rental_uris":{"android":"levelo://app?vid=53d32df3-e25e-428a-8610-f938620a2266","ios":"levelo://app?vid=53d32df3-e25e-428a-8610-f938620a2266"},"vehicle_type_id":"4","last_reported":1718204824,"current_range_meters":17200,"station_id":"ce4bguh2rcd13ifvqcj0","pricing_plan_id":"cebpf4jnsgd1na2vs0mg"},{"bike_id":"fd5f56ae-748d-4085-ba5e-f6c7056f6be9","system_id":"levelo_inurba_marseille","lat":43.310804,"lon":5.38359,"is_reserved":false,"is_disabled":false,"rental_uris":{"android":"levelo://app?vid=fd5f56ae-748d-4085-ba5e-f6c7056f6be9","ios":"levelo://app?vid=fd5f56ae-748d-4085-ba5e-f6c7056f6be9"},"vehicle_type_id":"4","last_reported":1718204824,"current_range_meters":4400,"station_id":"ce4bgv92rcd13ifvqcr0","pricing_plan_id":"cebpf4jnsgd1na2vs0mg"},{"bike_id":"4b1b6ef2-a817-42ab-885e-f2e0a770e033","system_id":"levelo_inurba_marseille","lat":43.310804,"lon":5.38359,"is_reserved":false,"is_disabled":false,"rental_uris":{"android":"levelo://app?vid=4b1b6ef2-a817-42ab-885e-f2e0a770e033","ios":"levelo://app?vid=4b1b6ef2-a817-42ab-885e-f2e0a770e033"},"vehicle_type_id":"4","last_reported":1718204824,"current_range_meters":18400,"station_id":"ce4bgv92rcd13ifvqcr0","pricing_plan_id":"cebpf4jnsgd1na2vs0mg"},{"bike_id":"07a58b53-aa10-4276-b744-e799045563f9","system_id":"levelo_inurba_marseille","lat":43.302784,"lon":5.377158,"is_reserved":false,"is_disabled":false,"rental_uris":{"android":"levelo://app?vid=07a58b53-aa10-4276-b744-e799045563f9","ios":"levelo://app?vid=07a58b53-aa10-4276-b744-e799045563f9"},"vehicle_type_id":"4","last_reported":1718204824,"current_range_meters":31600,"station_id":"ce4bguh2rcd13ifvqcj0","pricing_plan_id":"cebpf4jnsgd1na2vs0mg"},{"bike_id":"52946cb6-d9f7-47a0-810d-2bdf16755360","system_id":"levelo_inurba_marseille","lat":43.310804,"lon":5.38359,"is_reserved":false,"is_disabled":false,"rental_uris":{"android":"levelo://app?vid=52946cb6-d9f7-47a0-810d-2bdf16755360","ios":"levelo://app?vid=52946cb6-d9f7-47a0-810d-2bdf16755360"},"vehicle_type_id":"4","last_reported":1718204824,"current_range_meters":0,"station_id":"ce4bgv92rcd13ifvqcr0","pricing_plan_id":"cebpf4jnsgd1na2vs0mg"},{"bike_id":"30237d9d-5c2d-4e9c-aac6-3914a3b3ef49","system_id":"levelo_inurba_marseille","lat":43.302784,"lon":5.377158,"is_reserved":false,"is_disabled":false,"rental_uris":{"android":"levelo://app?vid=30237d9d-5c2d-4e9c-aac6-3914a3b3ef49","ios":"levelo://app?vid=30237d9d-5c2d-4e9c-aac6-3914a3b3ef49"},"vehicle_type_id":"4","last_reported":1718204824,"current_range_meters":23200,"station_id":"ce4bguh2rcd13ifvqcj0","pricing_plan_id":"cebpf4jnsgd1na2vs0mg"},{"bike_id":"4700e956-a252-443b-952e-eb61b76b2ebe","system_id":"levelo_inurba_marseille","lat":43.30143,"lon":5.37413,"is_reserved":false,"is_disabled":false,"rental_uris":{"android":"levelo://app?vid=4700e956-a252-443b-952e-eb61b76b2ebe","ios":"levelo://app?vid=4700e956-a252-443b-952e-eb61b76b2ebe"},"vehicle_type_id":"4","last_reported":1718204824,"current_range_meters":11600,"station_id":"ce4bgs92rcd13ifvqcc0","pricing_plan_id":"cebpf4jnsgd1na2vs0mg"},{"bike_id":"fd1ffa28-990b-4e20-b415-8717abee2c51","system_id":"levelo_inurba_marseille","lat":43.31995,"lon":5.38171,"is_reserved":false,"is_disabled":false,"rental_uris":{"android":"levelo://app?vid=fd1ffa28-990b-4e20-b415-8717abee2c51","ios":"levelo://app?vid=fd1ffa28-990b-4e20-b415-8717abee2c51"},"vehicle_type_id":"4","last_reported":1718204824,"current_range_meters":18400,"station_id":"ce4bhr12rcd13ifvqhpg","pricing_plan_id":"cebpf4jnsgd1na2vs0mg"},{"bike_id":"da4d28df-5138-4477-b301-44f955edaf3f","system_id":"levelo_inurba_marseille","lat":43.313571,"lon":5.384829,"is_reserved":false,"is_disabled":false,"rental_uris":{"android":"levelo://app?vid=da4d28df-5138-4477-b301-44f955edaf3f","ios":"levelo://app?vid=da4d28df-5138-4477-b301-44f955edaf3f"},"vehicle_type_id":"4","last_reported":1718204824,"current_range_meters":12800,"station_id":"ce4bgt92rcd13ifvqcf0","pricing_plan_id":"cebpf4jnsgd1na2vs0mg"},{"bike_id":"c7a320c2-d828-4e76-901e-a96c167f7177","system_id":"levelo_inurba_marseille","lat":43.313571,"lon":5.384829,"is_reserved":false,"is_disabled":false,"rental_uris":{"android":"levelo://app?vid=c7a320c2-d828-4e76-901e-a96c167f7177","ios":"levelo://app?vid=c7a320c2-d828-4e76-901e-a96c167f7177"},"vehicle_type_id":"4","last_reported":1718204824,"current_range_meters":17600,"station_id":"ce4bgt92rcd13ifvqcf0","pricing_plan_id":"cebpf4jnsgd1na2vs0mg"},{"bike_id":"0ccd5357-0d56-4820-8f81-e6dfc53976ad","system_id":"levelo_inurba_marseille","lat":43.313571,"lon":5.384829,"is_reserved":false,"is_disabled":false,"rental_uris":{"android":"levelo://app?vid=0ccd5357-0d56-4820-8f81-e6dfc53976ad","ios":"levelo://app?vid=0ccd5357-0d56-4820-8f81-e6dfc53976ad"},"vehicle_type_id":"4","last_reported":1718204824,"current_range_meters":2800,"station_id":"ce4bgt92rcd13ifvqcf0","pricing_plan_id":"cebpf4jnsgd1na2vs0mg"},{"bike_id":"6d3bf9b1-6ca2-45d8-8cc2-52bbb6983cfb","system_id":"levelo_inurba_marseille","lat":43.299222,"lon":5.365554,"is_reserved":false,"is_disabled":false,"rental_uris":{"android":"levelo://app?vid=6d3bf9b1-6ca2-45d8-8cc2-52bbb6983cfb","ios":"levelo://app?vid=6d3bf9b1-6ca2-45d8-8cc2-52bbb6983cfb"},"vehicle_type_id":"4","last_reported":1718204824,"current_range_meters":6400,"station_id":"ce4bgm92rcd13ifvqbr0","pricing_plan_id":"cebpf4jnsgd1na2vs0mg"},{"bike_id":"7860c52e-48d6-4ea4-8f92-90f01c654e79","system_id":"levelo_inurba_marseille","lat":43.299724,"lon":5.371829,"is_reserved":false,"is_disabled":false,"rental_uris":{"android":"levelo://app?vid=7860c52e-48d6-4ea4-8f92-90f01c654e79","ios":"levelo://app?vid=7860c52e-48d6-4ea4-8f92-90f01c654e79"},"vehicle_type_id":"4","last_reported":1718204824,"current_range_meters":14400,"station_id":"ce4bgr92rcd13ifvqc7g","pricing_plan_id":"cebpf4jnsgd1na2vs0mg"},{"bike_id":"e22f6b70-70df-4917-817e-3214a8b66f3d","system_id":"levelo_inurba_marseille","lat":43.299724,"lon":5.371829,"is_reserved":false,"is_disabled":false,"rental_uris":{"android":"levelo://app?vid=e22f6b70-70df-4917-817e-3214a8b66f3d","ios":"levelo://app?vid=e22f6b70-70df-4917-817e-3214a8b66f3d"},"vehicle_type_id":"4","last_reported":1718204824,"current_range_meters":31600,"station_id":"ce4bgr92rcd13ifvqc7g","pricing_plan_id":"cebpf4jnsgd1na2vs0mg"},{"bike_id":"51460428-4843-4818-9fa1-324f5e5ea5f9","system_id":"levelo_inurba_marseille","lat":43.299724,"lon":5.371829,"is_reserved":false,"is_disabled":false,"rental_uris":{"android":"levelo://app?vid=51460428-4843-4818-9fa1-324f5e5ea5f9","ios":"levelo://app?vid=51460428-4843-4818-9fa1-324f5e5ea5f9"},"vehicle_type_id":"4","last_reported":1718204824,"current_range_meters":8400,"station_id":"ce4bgr92rcd13ifvqc7g","pricing_plan_id":"cebpf4jnsgd1na2vs0mg"},{"bike_id":"6f3b2fc1-9a4d-4305-ad55-fb3c15b58adb","system_id":"levelo_inurba_marseille","lat":43.298433,"lon":5.362774,"is_reserved":false,"is_disabled":false,"rental_uris":{"android":"levelo://app?vid=6f3b2fc1-9a4d-4305-ad55-fb3c15b58adb","ios":"levelo://app?vid=6f3b2fc1-9a4d-4305-ad55-fb3c15b58adb"},"vehicle_type_id":"4","last_reported":1718204824,"current_range_meters":29600,"station_id":"ce4bgpp2rcd13ifvqc3g","pricing_plan_id":"cebpf4jnsgd1na2vs0mg"},{"bike_id":"0a6ea676-a960-4268-86b1-342690b9d064","system_id":"levelo_inurba_marseille","lat":43.298433,"lon":5.362774,"is_reserved":false,"is_disabled":false,"rental_uris":{"android":"levelo://app?vid=0a6ea676-a960-4268-86b1-342690b9d064","ios":"levelo://app?vid=0a6ea676-a960-4268-86b1-342690b9d064"},"vehicle_type_id":"4","last_reported":1718204824,"current_range_meters":22800,"station_id":"ce4bgpp2rcd13ifvqc3g","pricing_plan_id":"cebpf4jnsgd1na2vs0mg"},{"bike_id":"867ccf83-5b27-4d10-aab8-21976fe1b963","system_id":"levelo_inurba_marseille","lat":43.298433,"lon":5.362774,"is_reserved":false,"is_disabled":false,"rental_uris":{"android":"levelo://app?vid=867ccf83-5b27-4d10-aab8-21976fe1b963","ios":"levelo://app?vid=867ccf83-5b27-4d10-aab8-21976fe1b963"},"vehicle_type_id":"4","last_reported":1718204824,"current_range_meters":2000,"station_id":"ce4bgpp2rcd13ifvqc3g","pricing_plan_id":"cebpf4jnsgd1na2vs0mg"},{"bike_id":"b40a2dbe-4234-437b-b178-848d41904f06","system_id":"levelo_inurba_marseille","lat":43.298433,"lon":5.362774,"is_reserved":false,"is_disabled":false,"rental_uris":{"android":"levelo://app?vid=b40a2dbe-4234-437b-b178-848d41904f06","ios":"levelo://app?vid=b40a2dbe-4234-437b-b178-848d41904f06"},"vehicle_type_id":"4","last_reported":1718204824,"current_range_meters":9200,"station_id":"ce4bgpp2rcd13ifvqc3g","pricing_plan_id":"cebpf4jnsgd1na2vs0mg"},{"bike_id":"c7f685ee-905f-49c5-925c-ee212ecdaafc","system_id":"levelo_inurba_marseille","lat":43.298433,"lon":5.362774,"is_reserved":false,"is_disabled":false,"rental_uris":{"android":"levelo://app?vid=c7f685ee-905f-49c5-925c-ee212ecdaafc","ios":"levelo://app?vid=c7f685ee-905f-49c5-925c-ee212ecdaafc"},"vehicle_type_id":"4","last_reported":1718204824,"current_range_meters":26800,"station_id":"ce4bgpp2rcd13ifvqc3g","pricing_plan_id":"cebpf4jnsgd1na2vs0mg"},{"bike_id":"07417576-7c9d-4694-a4ff-9add2421a9f0","system_id":"levelo_inurba_marseille","lat":43.298433,"lon":5.362774,"is_reserved":false,"is_disabled":false,"rental_uris":{"android":"levelo://app?vid=07417576-7c9d-4694-a4ff-9add2421a9f0","ios":"levelo://app?vid=07417576-7c9d-4694-a4ff-9add2421a9f0"},"vehicle_type_id":"4","last_reported":1718204824,"current_range_meters":32000,"station_id":"ce4bgpp2rcd13ifvqc3g","pricing_plan_id":"cebpf4jnsgd1na2vs0mg"},{"bike_id":"0480dc28-2fcd-49d6-b3a8-6a1569f1a951","system_id":"levelo_inurba_marseille","lat":43.298433,"lon":5.362774,"is_reserved":false,"is_disabled":false,"rental_uris":{"android":"levelo://app?vid=0480dc28-2fcd-49d6-b3a8-6a1569f1a951","ios":"levelo://app?vid=0480dc28-2fcd-49d6-b3a8-6a1569f1a951"},"vehicle_type_id":"4","last_reported":1718204824,"current_range_meters":10000,"station_id":"ce4bgpp2rcd13ifvqc3g","pricing_plan_id":"cebpf4jnsgd1na2vs0mg"},{"bike_id":"366099b4-7d03-49e7-9888-15c167ba2358","system_id":"levelo_inurba_marseille","lat":43.305364,"lon":5.384119,"is_reserved":false,"is_disabled":false,"rental_uris":{"android":"levelo://app?vid=366099b4-7d03-49e7-9888-15c167ba2358","ios":"levelo://app?vid=366099b4-7d03-49e7-9888-15c167ba2358"},"vehicle_type_id":"4","last_reported":1718204824,"current_range_meters":12400,"station_id":"ce4bgg92rcd13ifvqb30","pricing_plan_id":"cebpf4jnsgd1na2vs0mg"},{"bike_id":"f4922403-12a6-4e71-9383-a069e3805622","system_id":"levelo_inurba_marseille","lat":43.29843,"lon":5.3626,"is_reserved":false,"is_disabled":false,"rental_uris":{"android":"levelo://app?vid=f4922403-12a6-4e71-9383-a069e3805622","ios":"levelo://app?vid=f4922403-12a6-4e71-9383-a069e3805622"},"vehicle_type_id":"4","last_reported":1718204824,"current_range_meters":16000,"station_id":"ce4bgpp2rcd13ifvqc3g","pricing_plan_id":"cebpf4jnsgd1na2vs0mg"},{"bike_id":"19bfcfdc-30b6-4dd7-becc-119a6ab11644","system_id":"levelo_inurba_marseille","lat":43.29837,"lon":5.36268,"is_reserved":false,"is_disabled":false,"rental_uris":{"android":"levelo://app?vid=19bfcfdc-30b6-4dd7-becc-119a6ab11644","ios":"levelo://app?vid=19bfcfdc-30b6-4dd7-becc-119a6ab11644"},"vehicle_type_id":"4","last_reported":1718204824,"current_range_meters":19600,"station_id":"ce4bgpp2rcd13ifvqc3g","pricing_plan_id":"cebpf4jnsgd1na2vs0mg"},{"bike_id":"532460cf-dd2f-4688-96cb-2a4f31bb032b","system_id":"levelo_inurba_marseille","lat":43.298374,"lon":5.362632,"is_reserved":false,"is_disabled":false,"rental_uris":{"android":"levelo://app?vid=532460cf-dd2f-4688-96cb-2a4f31bb032b","ios":"levelo://app?vid=532460cf-dd2f-4688-96cb-2a4f31bb032b"},"vehicle_type_id":"4","last_reported":1718204824,"current_range_meters":31200,"station_id":"ce4bgpp2rcd13ifvqc3g","pricing_plan_id":"cebpf4jnsgd1na2vs0mg"},{"bike_id":"0492e97b-e357-4f4f-9a0f-3dd7c94ed934","system_id":"levelo_inurba_marseille","lat":43.299243,"lon":5.37481,"is_reserved":false,"is_disabled":false,"rental_uris":{"android":"levelo://app?vid=0492e97b-e357-4f4f-9a0f-3dd7c94ed934","ios":"levelo://app?vid=0492e97b-e357-4f4f-9a0f-3dd7c94ed934"},"vehicle_type_id":"4","last_reported":1718204824,"current_range_meters":800,"station_id":"ce4bgjh2rcd13ifvqbg0","pricing_plan_id":"cebpf4jnsgd1na2vs0mg"},{"bike_id":"ba12c1a1-4d1a-44aa-81b0-69911bcab614","system_id":"levelo_inurba_marseille","lat":43.311722,"lon":5.387247,"is_reserved":false,"is_disabled":false,"rental_uris":{"android":"levelo://app?vid=ba12c1a1-4d1a-44aa-81b0-69911bcab614","ios":"levelo://app?vid=ba12c1a1-4d1a-44aa-81b0-69911bcab614"},"vehicle_type_id":"4","last_reported":1718204824,"current_range_meters":0,"station_id":"ce4bgv12rcd13ifvqcp0","pricing_plan_id":"cebpf4jnsgd1na2vs0mg"},{"bike_id":"0c386fb8-d1d3-429c-92d5-5d727daf3831","system_id":"levelo_inurba_marseille","lat":43.298433,"lon":5.362774,"is_reserved":false,"is_disabled":false,"rental_uris":{"android":"levelo://app?vid=0c386fb8-d1d3-429c-92d5-5d727daf3831","ios":"levelo://app?vid=0c386fb8-d1d3-429c-92d5-5d727daf3831"},"vehicle_type_id":"4","last_reported":1718204824,"current_range_meters":400,"station_id":"ce4bgpp2rcd13ifvqc3g","pricing_plan_id":"cebpf4jnsgd1na2vs0mg"},{"bike_id":"f2dd140d-6555-49db-8200-02868e966f47","system_id":"levelo_inurba_marseille","lat":43.30158,"lon":5.38067,"is_reserved":false,"is_disabled":false,"rental_uris":{"android":"levelo://app?vid=f2dd140d-6555-49db-8200-02868e966f47","ios":"levelo://app?vid=f2dd140d-6555-49db-8200-02868e966f47"},"vehicle_type_id":"4","last_reported":1718204824,"current_range_meters":3600,"station_id":"","pricing_plan_id":"cebpf4jnsgd1na2vs0mg"},{"bike_id":"980f20c8-e3b9-40da-a755-bee9f61b65d7","system_id":"levelo_inurba_marseille","lat":43.32285,"lon":5.38252,"is_reserved":false,"is_disabled":false,"rental_uris":{"android":"levelo://app?vid=980f20c8-e3b9-40da-a755-bee9f61b65d7","ios":"levelo://app?vid=980f20c8-e3b9-40da-a755-bee9f61b65d7"},"vehicle_type_id":"4","last_reported":1718204824,"current_range_meters":0,"station_id":"ce4bhr12rcd13ifvqhqg","pricing_plan_id":"cebpf4jnsgd1na2vs0mg"},{"bike_id":"56ae48b9-cb8d-4d94-966b-b3be837fb22c","system_id":"levelo_inurba_marseille","lat":43.32286,"lon":5.38277,"is_reserved":false,"is_disabled":false,"rental_uris":{"android":"levelo://app?vid=56ae48b9-cb8d-4d94-966b-b3be837fb22c","ios":"levelo://app?vid=56ae48b9-cb8d-4d94-966b-b3be837fb22c"},"vehicle_type_id":"4","last_reported":1718204824,"current_range_meters":3600,"station_id":"ce4bhr12rcd13ifvqhqg","pricing_plan_id":"cebpf4jnsgd1na2vs0mg"},{"bike_id":"0608af92-1e7f-4c31-a925-f554a1cbda6e","system_id":"levelo_inurba_marseille","lat":43.296989,"lon":5.366109,"is_reserved":false,"is_disabled":false,"rental_uris":{"android":"levelo://app?vid=0608af92-1e7f-4c31-a925-f554a1cbda6e","ios":"levelo://app?vid=0608af92-1e7f-4c31-a925-f554a1cbda6e"},"vehicle_type_id":"4","last_reported":1718204824,"current_range_meters":31200,"station_id":"ce4bgn12rcd13ifvqbt0","pricing_plan_id":"cebpf4jnsgd1na2vs0mg"},{"bike_id":"a6813b22-0bb1-4672-ad96-587040912d46","system_id":"levelo_inurba_marseille","lat":43.296131,"lon":5.370773,"is_reserved":false,"is_disabled":false,"rental_uris":{"android":"levelo://app?vid=a6813b22-0bb1-4672-ad96-587040912d46","ios":"levelo://app?vid=a6813b22-0bb1-4672-ad96-587040912d46"},"vehicle_type_id":"4","last_reported":1718204824,"current_range_meters":2800,"station_id":"ce4bgnh2rcd13ifvqc0g","pricing_plan_id":"cebpf4jnsgd1na2vs0mg"},{"bike_id":"f2451bd5-6bcb-42cb-832c-4b34d16ce0da","system_id":"levelo_inurba_marseille","lat":43.296129,"lon":5.370777,"is_reserved":false,"is_disabled":false,"rental_uris":{"android":"levelo://app?vid=f2451bd5-6bcb-42cb-832c-4b34d16ce0da","ios":"levelo://app?vid=f2451bd5-6bcb-42cb-832c-4b34d16ce0da"},"vehicle_type_id":"4","last_reported":1718204824,"current_range_meters":28000,"station_id":"ce4bgnh2rcd13ifvqc0g","pricing_plan_id":"cebpf4jnsgd1na2vs0mg"},{"bike_id":"0a69f1b8-0c53-4448-908f-135ed4be2421","system_id":"levelo_inurba_marseille","lat":43.296129,"lon":5.370777,"is_reserved":false,"is_disabled":false,"rental_uris":{"android":"levelo://app?vid=0a69f1b8-0c53-4448-908f-135ed4be2421","ios":"levelo://app?vid=0a69f1b8-0c53-4448-908f-135ed4be2421"},"vehicle_type_id":"4","last_reported":1718204824,"current_range_meters":6000,"station_id":"ce4bgnh2rcd13ifvqc0g","pricing_plan_id":"cebpf4jnsgd1na2vs0mg"},{"bike_id":"2206ebc9-34f0-437b-819f-4018e3c56b37","system_id":"levelo_inurba_marseille","lat":43.296129,"lon":5.370777,"is_reserved":false,"is_disabled":false,"rental_uris":{"android":"levelo://app?vid=2206ebc9-34f0-437b-819f-4018e3c56b37","ios":"levelo://app?vid=2206ebc9-34f0-437b-819f-4018e3c56b37"},"vehicle_type_id":"4","last_reported":1718204824,"current_range_meters":17200,"station_id":"ce4bgnh2rcd13ifvqc0g","pricing_plan_id":"cebpf4jnsgd1na2vs0mg"},{"bike_id":"db5849f3-4da4-47e8-a4ef-e23c271ce813","system_id":"levelo_inurba_marseille","lat":43.29582,"lon":5.36746,"is_reserved":false,"is_disabled":false,"rental_uris":{"android":"levelo://app?vid=db5849f3-4da4-47e8-a4ef-e23c271ce813","ios":"levelo://app?vid=db5849f3-4da4-47e8-a4ef-e23c271ce813"},"vehicle_type_id":"4","last_reported":1718204824,"current_range_meters":19200,"station_id":"ce4bgph2rcd13ifvqc2g","pricing_plan_id":"cebpf4jnsgd1na2vs0mg"},{"bike_id":"16804a3e-0aeb-4e01-8bfe-b68f487fa3e7","system_id":"levelo_inurba_marseille","lat":43.29737,"lon":5.37697,"is_reserved":false,"is_disabled":false,"rental_uris":{"android":"levelo://app?vid=16804a3e-0aeb-4e01-8bfe-b68f487fa3e7","ios":"levelo://app?vid=16804a3e-0aeb-4e01-8bfe-b68f487fa3e7"},"vehicle_type_id":"4","last_reported":1718204824,"current_range_meters":0,"station_id":"ce4bgkh2rcd13ifvqbl0","pricing_plan_id":"cebpf4jnsgd1na2vs0mg"},{"bike_id":"8ec7f94e-affd-4f93-ab6e-eca5d0bda960","system_id":"levelo_inurba_marseille","lat":43.296921,"lon":5.376579,"is_reserved":false,"is_disabled":false,"rental_uris":{"android":"levelo://app?vid=8ec7f94e-affd-4f93-ab6e-eca5d0bda960","ios":"levelo://app?vid=8ec7f94e-affd-4f93-ab6e-eca5d0bda960"},"vehicle_type_id":"4","last_reported":1718204824,"current_range_meters":6000,"station_id":"ce4bgkh2rcd13ifvqbl0","pricing_plan_id":"cebpf4jnsgd1na2vs0mg"},{"bike_id":"c70d3623-4c8b-4d60-9a53-015a81be7c70","system_id":"levelo_inurba_marseille","lat":43.296935,"lon":5.376544,"is_reserved":false,"is_disabled":false,"rental_uris":{"android":"levelo://app?vid=c70d3623-4c8b-4d60-9a53-015a81be7c70","ios":"levelo://app?vid=c70d3623-4c8b-4d60-9a53-015a81be7c70"},"vehicle_type_id":"4","last_reported":1718204824,"current_range_meters":28000,"station_id":"ce4bgkh2rcd13ifvqbl0","pricing_plan_id":"cebpf4jnsgd1na2vs0mg"},{"bike_id":"76390a5d-29dc-4003-bec1-7aabfc97068d","system_id":"levelo_inurba_marseille","lat":43.296921,"lon":5.376579,"is_reserved":false,"is_disabled":false,"rental_uris":{"android":"levelo://app?vid=76390a5d-29dc-4003-bec1-7aabfc97068d","ios":"levelo://app?vid=76390a5d-29dc-4003-bec1-7aabfc97068d"},"vehicle_type_id":"4","last_reported":1718204824,"current_range_meters":25200,"station_id":"ce4bgkh2rcd13ifvqbl0","pricing_plan_id":"cebpf4jnsgd1na2vs0mg"},{"bike_id":"02d70a5f-7e9c-43e7-a32e-6b85f5ed4b37","system_id":"levelo_inurba_marseille","lat":43.299028,"lon":5.381509,"is_reserved":false,"is_disabled":false,"rental_uris":{"android":"levelo://app?vid=02d70a5f-7e9c-43e7-a32e-6b85f5ed4b37","ios":"levelo://app?vid=02d70a5f-7e9c-43e7-a32e-6b85f5ed4b37"},"vehicle_type_id":"4","last_reported":1718204824,"current_range_meters":31200,"station_id":"ce4bgj12rcd13ifvqbc0","pricing_plan_id":"cebpf4jnsgd1na2vs0mg"},{"bike_id":"5a6e9a51-ae9d-49b2-aad8-4c4a6336cb0a","system_id":"levelo_inurba_marseille","lat":43.309589,"lon":5.390258,"is_reserved":false,"is_disabled":false,"rental_uris":{"android":"levelo://app?vid=5a6e9a51-ae9d-49b2-aad8-4c4a6336cb0a","ios":"levelo://app?vid=5a6e9a51-ae9d-49b2-aad8-4c4a6336cb0a"},"vehicle_type_id":"4","last_reported":1718204824,"current_range_meters":25200,"station_id":"ce4bgup2rcd13ifvqco0","pricing_plan_id":"cebpf4jnsgd1na2vs0mg"},{"bike_id":"cd712fb4-cfd3-4f96-aa45-dc6575934aab","system_id":"levelo_inurba_marseille","lat":43.317557,"lon":5.390173,"is_reserved":false,"is_disabled":false,"rental_uris":{"android":"levelo://app?vid=cd712fb4-cfd3-4f96-aa45-dc6575934aab","ios":"levelo://app?vid=cd712fb4-cfd3-4f96-aa45-dc6575934aab"},"vehicle_type_id":"4","last_reported":1718204824,"current_range_meters":26800,"station_id":"ce4bhqp2rcd13ifvqhng","pricing_plan_id":"cebpf4jnsgd1na2vs0mg"},{"bike_id":"965a70bc-5245-44e5-9def-487a0a86305c","system_id":"levelo_inurba_marseille","lat":43.29802,"lon":5.38081,"is_reserved":false,"is_disabled":false,"rental_uris":{"android":"levelo://app?vid=965a70bc-5245-44e5-9def-487a0a86305c","ios":"levelo://app?vid=965a70bc-5245-44e5-9def-487a0a86305c"},"vehicle_type_id":"4","last_reported":1718204824,"current_range_meters":4000,"station_id":"ce4bgip2rcd13ifvqbb0","pricing_plan_id":"cebpf4jnsgd1na2vs0mg"},{"bike_id":"9d1a66d7-6574-430f-9563-0e53bd72f886","system_id":"levelo_inurba_marseille","lat":43.29712,"lon":5.3789,"is_reserved":false,"is_disabled":false,"rental_uris":{"android":"levelo://app?vid=9d1a66d7-6574-430f-9563-0e53bd72f886","ios":"levelo://app?vid=9d1a66d7-6574-430f-9563-0e53bd72f886"},"vehicle_type_id":"4","last_reported":1718204824,"current_range_meters":30000,"station_id":"","pricing_plan_id":"cebpf4jnsgd1na2vs0mg"},{"bike_id":"49b28238-fa65-4398-bb7e-1ee09eb74505","system_id":"levelo_inurba_marseille","lat":43.29796,"lon":5.3809,"is_reserved":false,"is_disabled":false,"rental_uris":{"android":"levelo://app?vid=49b28238-fa65-4398-bb7e-1ee09eb74505","ios":"levelo://app?vid=49b28238-fa65-4398-bb7e-1ee09eb74505"},"vehicle_type_id":"4","last_reported":1718204824,"current_range_meters":6800,"station_id":"ce4bgip2rcd13ifvqbb0","pricing_plan_id":"cebpf4jnsgd1na2vs0mg"},{"bike_id":"003ee824-64c1-42a1-a315-1ad1a2c182c1","system_id":"levelo_inurba_marseille","lat":43.295748,"lon":5.37522,"is_reserved":false,"is_disabled":false,"rental_uris":{"android":"levelo://app?vid=003ee824-64c1-42a1-a315-1ad1a2c182c1","ios":"levelo://app?vid=003ee824-64c1-42a1-a315-1ad1a2c182c1"},"vehicle_type_id":"4","last_reported":1718204824,"current_range_meters":24400,"station_id":"ce4bgh92rcd13ifvqb50","pricing_plan_id":"cebpf4jnsgd1na2vs0mg"},{"bike_id":"25632fb2-36bd-46a6-8c9b-d56c9f4c37df","system_id":"levelo_inurba_marseille","lat":43.295748,"lon":5.37522,"is_reserved":false,"is_disabled":false,"rental_uris":{"android":"levelo://app?vid=25632fb2-36bd-46a6-8c9b-d56c9f4c37df","ios":"levelo://app?vid=25632fb2-36bd-46a6-8c9b-d56c9f4c37df"},"vehicle_type_id":"4","last_reported":1718204824,"current_range_meters":29200,"station_id":"ce4bgh92rcd13ifvqb50","pricing_plan_id":"cebpf4jnsgd1na2vs0mg"},{"bike_id":"aa2ed511-d89c-4884-8b4a-d53cb326dcdd","system_id":"levelo_inurba_marseille","lat":43.295748,"lon":5.37522,"is_reserved":false,"is_disabled":false,"rental_uris":{"android":"levelo://app?vid=aa2ed511-d89c-4884-8b4a-d53cb326dcdd","ios":"levelo://app?vid=aa2ed511-d89c-4884-8b4a-d53cb326dcdd"},"vehicle_type_id":"4","last_reported":1718204824,"current_range_meters":28800,"station_id":"ce4bgh92rcd13ifvqb50","pricing_plan_id":"cebpf4jnsgd1na2vs0mg"},{"bike_id":"d51789ea-eb04-4e0b-b0d1-a567aa1af80c","system_id":"levelo_inurba_marseille","lat":43.304606,"lon":5.379026,"is_reserved":false,"is_disabled":false,"rental_uris":{"android":"levelo://app?vid=d51789ea-eb04-4e0b-b0d1-a567aa1af80c","ios":"levelo://app?vid=d51789ea-eb04-4e0b-b0d1-a567aa1af80c"},"vehicle_type_id":"4","last_reported":1718204824,"current_range_meters":10000,"station_id":"ce4bgup2rcd13ifvqcn0","pricing_plan_id":"cebpf4jnsgd1na2vs0mg"},{"bike_id":"4cbeace5-f8b7-4478-8cb4-ced355ac133a","system_id":"levelo_inurba_marseille","lat":43.295748,"lon":5.37522,"is_reserved":false,"is_disabled":false,"rental_uris":{"android":"levelo://app?vid=4cbeace5-f8b7-4478-8cb4-ced355ac133a","ios":"levelo://app?vid=4cbeace5-f8b7-4478-8cb4-ced355ac133a"},"vehicle_type_id":"4","last_reported":1718204824,"current_range_meters":9200,"station_id":"ce4bgh92rcd13ifvqb50","pricing_plan_id":"cebpf4jnsgd1na2vs0mg"},{"bike_id":"27b8f8f2-d604-4595-9da4-2db4f787bdd1","system_id":"levelo_inurba_marseille","lat":43.295748,"lon":5.37522,"is_reserved":false,"is_disabled":false,"rental_uris":{"android":"levelo://app?vid=27b8f8f2-d604-4595-9da4-2db4f787bdd1","ios":"levelo://app?vid=27b8f8f2-d604-4595-9da4-2db4f787bdd1"},"vehicle_type_id":"4","last_reported":1718204824,"current_range_meters":30000,"station_id":"ce4bgh92rcd13ifvqb50","pricing_plan_id":"cebpf4jnsgd1na2vs0mg"},{"bike_id":"31b9ae52-08a4-4036-aa0b-8a26b0526363","system_id":"levelo_inurba_marseille","lat":43.29574,"lon":5.37526,"is_reserved":false,"is_disabled":false,"rental_uris":{"android":"levelo://app?vid=31b9ae52-08a4-4036-aa0b-8a26b0526363","ios":"levelo://app?vid=31b9ae52-08a4-4036-aa0b-8a26b0526363"},"vehicle_type_id":"4","last_reported":1718204824,"current_range_meters":30800,"station_id":"ce4bgh92rcd13ifvqb50","pricing_plan_id":"cebpf4jnsgd1na2vs0mg"},{"bike_id":"19023266-eea8-4fa8-8fe0-3d85c60a9c50","system_id":"levelo_inurba_marseille","lat":43.296277,"lon":5.377108,"is_reserved":false,"is_disabled":false,"rental_uris":{"android":"levelo://app?vid=19023266-eea8-4fa8-8fe0-3d85c60a9c50","ios":"levelo://app?vid=19023266-eea8-4fa8-8fe0-3d85c60a9c50"},"vehicle_type_id":"4","last_reported":1718204824,"current_range_meters":0,"station_id":"ce4bgi92rcd13ifvqb90","pricing_plan_id":"cebpf4jnsgd1na2vs0mg"},{"bike_id":"d3274c5e-0494-4c6c-8be9-25a940f9f272","system_id":"levelo_inurba_marseille","lat":43.304274,"lon":5.388873,"is_reserved":false,"is_disabled":false,"rental_uris":{"android":"levelo://app?vid=d3274c5e-0494-4c6c-8be9-25a940f9f272","ios":"levelo://app?vid=d3274c5e-0494-4c6c-8be9-25a940f9f272"},"vehicle_type_id":"4","last_reported":1718204824,"current_range_meters":19600,"station_id":"ce4bgk12rcd13ifvqbi0","pricing_plan_id":"cebpf4jnsgd1na2vs0mg"},{"bike_id":"0ecd9818-8a45-4d2c-b41c-4f2f7d47612e","system_id":"levelo_inurba_marseille","lat":43.304274,"lon":5.388873,"is_reserved":false,"is_disabled":false,"rental_uris":{"android":"levelo://app?vid=0ecd9818-8a45-4d2c-b41c-4f2f7d47612e","ios":"levelo://app?vid=0ecd9818-8a45-4d2c-b41c-4f2f7d47612e"},"vehicle_type_id":"4","last_reported":1718204824,"current_range_meters":18800,"station_id":"ce4bgk12rcd13ifvqbi0","pricing_plan_id":"cebpf4jnsgd1na2vs0mg"},{"bike_id":"dd878538-e961-425a-8559-4fd6b3a19c9b","system_id":"levelo_inurba_marseille","lat":43.298037,"lon":5.381066,"is_reserved":false,"is_disabled":false,"rental_uris":{"android":"levelo://app?vid=dd878538-e961-425a-8559-4fd6b3a19c9b","ios":"levelo://app?vid=dd878538-e961-425a-8559-4fd6b3a19c9b"},"vehicle_type_id":"4","last_reported":1718204824,"current_range_meters":24400,"station_id":"ce4bgip2rcd13ifvqbb0","pricing_plan_id":"cebpf4jnsgd1na2vs0mg"},{"bike_id":"1bd3026a-ae3b-44b0-ae39-6770b3e180fa","system_id":"levelo_inurba_marseille","lat":43.296263,"lon":5.377094,"is_reserved":false,"is_disabled":false,"rental_uris":{"android":"levelo://app?vid=1bd3026a-ae3b-44b0-ae39-6770b3e180fa","ios":"levelo://app?vid=1bd3026a-ae3b-44b0-ae39-6770b3e180fa"},"vehicle_type_id":"4","last_reported":1718204824,"current_range_meters":0,"station_id":"ce4bgi92rcd13ifvqb90","pricing_plan_id":"cebpf4jnsgd1na2vs0mg"},{"bike_id":"cad69480-9462-41ff-850d-e91cf9248d4a","system_id":"levelo_inurba_marseille","lat":43.29613,"lon":5.37719,"is_reserved":false,"is_disabled":false,"rental_uris":{"android":"levelo://app?vid=cad69480-9462-41ff-850d-e91cf9248d4a","ios":"levelo://app?vid=cad69480-9462-41ff-850d-e91cf9248d4a"},"vehicle_type_id":"4","last_reported":1718204824,"current_range_meters":23200,"station_id":"ce4bgi92rcd13ifvqb90","pricing_plan_id":"cebpf4jnsgd1na2vs0mg"},{"bike_id":"9525da71-570a-4a3f-a26a-714d178b073e","system_id":"levelo_inurba_marseille","lat":43.2961,"lon":5.37715,"is_reserved":false,"is_disabled":false,"rental_uris":{"android":"levelo://app?vid=9525da71-570a-4a3f-a26a-714d178b073e","ios":"levelo://app?vid=9525da71-570a-4a3f-a26a-714d178b073e"},"vehicle_type_id":"4","last_reported":1718204824,"current_range_meters":11200,"station_id":"ce4bgi92rcd13ifvqb90","pricing_plan_id":"cebpf4jnsgd1na2vs0mg"},{"bike_id":"c79b9777-4e1a-4a5f-9096-223547908110","system_id":"levelo_inurba_marseille","lat":43.29609,"lon":5.37719,"is_reserved":false,"is_disabled":false,"rental_uris":{"android":"levelo://app?vid=c79b9777-4e1a-4a5f-9096-223547908110","ios":"levelo://app?vid=c79b9777-4e1a-4a5f-9096-223547908110"},"vehicle_type_id":"4","last_reported":1718204824,"current_range_meters":0,"station_id":"ce4bgi92rcd13ifvqb90","pricing_plan_id":"cebpf4jnsgd1na2vs0mg"},{"bike_id":"182825f9-8b2b-4457-95c7-eec1dcd44abe","system_id":"levelo_inurba_marseille","lat":43.295279,"lon":5.375048,"is_reserved":false,"is_disabled":false,"rental_uris":{"android":"levelo://app?vid=182825f9-8b2b-4457-95c7-eec1dcd44abe","ios":"levelo://app?vid=182825f9-8b2b-4457-95c7-eec1dcd44abe"},"vehicle_type_id":"4","last_reported":1718204824,"current_range_meters":5200,"station_id":"ce4bgkp2rcd13ifvqbmg","pricing_plan_id":"cebpf4jnsgd1na2vs0mg"},{"bike_id":"71f3350c-9179-495a-9c1b-f1b81437df96","system_id":"levelo_inurba_marseille","lat":43.29524,"lon":5.37491,"is_reserved":false,"is_disabled":false,"rental_uris":{"android":"levelo://app?vid=71f3350c-9179-495a-9c1b-f1b81437df96","ios":"levelo://app?vid=71f3350c-9179-495a-9c1b-f1b81437df96"},"vehicle_type_id":"4","last_reported":1718204824,"current_range_meters":3200,"station_id":"ce4bgkp2rcd13ifvqbmg","pricing_plan_id":"cebpf4jnsgd1na2vs0mg"},{"bike_id":"bc4fcbc4-b175-4ca6-94f8-26e180fe2cf4","system_id":"levelo_inurba_marseille","lat":43.295279,"lon":5.375048,"is_reserved":false,"is_disabled":false,"rental_uris":{"android":"levelo://app?vid=bc4fcbc4-b175-4ca6-94f8-26e180fe2cf4","ios":"levelo://app?vid=bc4fcbc4-b175-4ca6-94f8-26e180fe2cf4"},"vehicle_type_id":"4","last_reported":1718204824,"current_range_meters":0,"station_id":"ce4bgkp2rcd13ifvqbmg","pricing_plan_id":"cebpf4jnsgd1na2vs0mg"},{"bike_id":"9d085c74-2215-463f-87af-602d4b8641b9","system_id":"levelo_inurba_marseille","lat":43.295279,"lon":5.375048,"is_reserved":false,"is_disabled":false,"rental_uris":{"android":"levelo://app?vid=9d085c74-2215-463f-87af-602d4b8641b9","ios":"levelo://app?vid=9d085c74-2215-463f-87af-602d4b8641b9"},"vehicle_type_id":"4","last_reported":1718204824,"current_range_meters":30800,"station_id":"ce4bgkp2rcd13ifvqbmg","pricing_plan_id":"cebpf4jnsgd1na2vs0mg"},{"bike_id":"8110a531-c253-49d8-ab0d-a35f66c1d91f","system_id":"levelo_inurba_marseille","lat":43.32371,"lon":5.3885,"is_reserved":false,"is_disabled":false,"rental_uris":{"android":"levelo://app?vid=8110a531-c253-49d8-ab0d-a35f66c1d91f","ios":"levelo://app?vid=8110a531-c253-49d8-ab0d-a35f66c1d91f"},"vehicle_type_id":"4","last_reported":1718204824,"current_range_meters":0,"station_id":"ce4bhqp2rcd13ifvqhog","pricing_plan_id":"cebpf4jnsgd1na2vs0mg"},{"bike_id":"41a483b6-fa41-4ff1-97c9-049590a105d4","system_id":"levelo_inurba_marseille","lat":43.32367,"lon":5.388836,"is_reserved":false,"is_disabled":false,"rental_uris":{"android":"levelo://app?vid=41a483b6-fa41-4ff1-97c9-049590a105d4","ios":"levelo://app?vid=41a483b6-fa41-4ff1-97c9-049590a105d4"},"vehicle_type_id":"4","last_reported":1718204824,"current_range_meters":13200,"station_id":"ce4bhqp2rcd13ifvqhog","pricing_plan_id":"cebpf4jnsgd1na2vs0mg"},{"bike_id":"cccb211a-4eda-4c4f-b985-36f1bd6b902d","system_id":"levelo_inurba_marseille","lat":43.32367,"lon":5.388836,"is_reserved":false,"is_disabled":false,"rental_uris":{"android":"levelo://app?vid=cccb211a-4eda-4c4f-b985-36f1bd6b902d","ios":"levelo://app?vid=cccb211a-4eda-4c4f-b985-36f1bd6b902d"},"vehicle_type_id":"4","last_reported":1718204824,"current_range_meters":4800,"station_id":"ce4bhqp2rcd13ifvqhog","pricing_plan_id":"cebpf4jnsgd1na2vs0mg"},{"bike_id":"f0e66573-3087-464c-845c-bbad563319f4","system_id":"levelo_inurba_marseille","lat":43.312916,"lon":5.393699,"is_reserved":false,"is_disabled":false,"rental_uris":{"android":"levelo://app?vid=f0e66573-3087-464c-845c-bbad563319f4","ios":"levelo://app?vid=f0e66573-3087-464c-845c-bbad563319f4"},"vehicle_type_id":"4","last_reported":1718204824,"current_range_meters":14000,"station_id":"ce4bhm12rcd13ifvqgkg","pricing_plan_id":"cebpf4jnsgd1na2vs0mg"},{"bike_id":"263d13a2-e8e0-40b5-907c-eeccde028cf8","system_id":"levelo_inurba_marseille","lat":43.29602,"lon":5.381084,"is_reserved":false,"is_disabled":false,"rental_uris":{"android":"levelo://app?vid=263d13a2-e8e0-40b5-907c-eeccde028cf8","ios":"levelo://app?vid=263d13a2-e8e0-40b5-907c-eeccde028cf8"},"vehicle_type_id":"4","last_reported":1718204824,"current_range_meters":14400,"station_id":"ce4bgl12rcd13ifvqbo0","pricing_plan_id":"cebpf4jnsgd1na2vs0mg"},{"bike_id":"7d74bf7e-7fc7-4a43-8cec-e4e851fd9cfe","system_id":"levelo_inurba_marseille","lat":43.29602,"lon":5.381084,"is_reserved":false,"is_disabled":false,"rental_uris":{"android":"levelo://app?vid=7d74bf7e-7fc7-4a43-8cec-e4e851fd9cfe","ios":"levelo://app?vid=7d74bf7e-7fc7-4a43-8cec-e4e851fd9cfe"},"vehicle_type_id":"4","last_reported":1718204824,"current_range_meters":5200,"station_id":"ce4bgl12rcd13ifvqbo0","pricing_plan_id":"cebpf4jnsgd1na2vs0mg"},{"bike_id":"d7aae291-3cf9-4fde-ab0b-935990783c41","system_id":"levelo_inurba_marseille","lat":43.293249,"lon":5.371578,"is_reserved":false,"is_disabled":false,"rental_uris":{"android":"levelo://app?vid=d7aae291-3cf9-4fde-ab0b-935990783c41","ios":"levelo://app?vid=d7aae291-3cf9-4fde-ab0b-935990783c41"},"vehicle_type_id":"4","last_reported":1718204824,"current_range_meters":26800,"station_id":"ce4bgh92rcd13ifvqb40","pricing_plan_id":"cebpf4jnsgd1na2vs0mg"},{"bike_id":"21391d3a-1920-4210-90e3-b0a0494f744b","system_id":"levelo_inurba_marseille","lat":43.292749,"lon":5.368402,"is_reserved":false,"is_disabled":false,"rental_uris":{"android":"levelo://app?vid=21391d3a-1920-4210-90e3-b0a0494f744b","ios":"levelo://app?vid=21391d3a-1920-4210-90e3-b0a0494f744b"},"vehicle_type_id":"4","last_reported":1718204824,"current_range_meters":0,"station_id":"ce4bhbp2rcd13ifvqesg","pricing_plan_id":"cebpf4jnsgd1na2vs0mg"},{"bike_id":"f66e35ea-9be2-4907-a73e-e2e9d7729713","system_id":"levelo_inurba_marseille","lat":43.292749,"lon":5.368402,"is_reserved":false,"is_disabled":false,"rental_uris":{"android":"levelo://app?vid=f66e35ea-9be2-4907-a73e-e2e9d7729713","ios":"levelo://app?vid=f66e35ea-9be2-4907-a73e-e2e9d7729713"},"vehicle_type_id":"4","last_reported":1718204824,"current_range_meters":15200,"station_id":"ce4bhbp2rcd13ifvqesg","pricing_plan_id":"cebpf4jnsgd1na2vs0mg"},{"bike_id":"2a752627-d824-4aee-b879-2686e3c473f3","system_id":"levelo_inurba_marseille","lat":43.292324,"lon":5.368355,"is_reserved":false,"is_disabled":false,"rental_uris":{"android":"levelo://app?vid=2a752627-d824-4aee-b879-2686e3c473f3","ios":"levelo://app?vid=2a752627-d824-4aee-b879-2686e3c473f3"},"vehicle_type_id":"4","last_reported":1718204824,"current_range_meters":9600,"station_id":"ce4bhbp2rcd13ifvqesg","pricing_plan_id":"cebpf4jnsgd1na2vs0mg"},{"bike_id":"35025a0e-1acd-4fe5-8e14-3fd081b6d8d9","system_id":"levelo_inurba_marseille","lat":43.29301,"lon":5.37459,"is_reserved":false,"is_disabled":false,"rental_uris":{"android":"levelo://app?vid=35025a0e-1acd-4fe5-8e14-3fd081b6d8d9","ios":"levelo://app?vid=35025a0e-1acd-4fe5-8e14-3fd081b6d8d9"},"vehicle_type_id":"4","last_reported":1718204824,"current_range_meters":0,"station_id":"ce4bgi12rcd13ifvqb70","pricing_plan_id":"cebpf4jnsgd1na2vs0mg"},{"bike_id":"9c304f14-d703-4272-953f-519cdefd3bd9","system_id":"levelo_inurba_marseille","lat":43.302992,"lon":5.392136,"is_reserved":false,"is_disabled":false,"rental_uris":{"android":"levelo://app?vid=9c304f14-d703-4272-953f-519cdefd3bd9","ios":"levelo://app?vid=9c304f14-d703-4272-953f-519cdefd3bd9"},"vehicle_type_id":"4","last_reported":1718204824,"current_range_meters":30800,"station_id":"ce4bgkh2rcd13ifvqbk0","pricing_plan_id":"cebpf4jnsgd1na2vs0mg"},{"bike_id":"38293f8d-7b19-4390-84b3-a64e23c3bc9d","system_id":"levelo_inurba_marseille","lat":43.302992,"lon":5.392136,"is_reserved":false,"is_disabled":false,"rental_uris":{"android":"levelo://app?vid=38293f8d-7b19-4390-84b3-a64e23c3bc9d","ios":"levelo://app?vid=38293f8d-7b19-4390-84b3-a64e23c3bc9d"},"vehicle_type_id":"4","last_reported":1718204824,"current_range_meters":15200,"station_id":"ce4bgkh2rcd13ifvqbk0","pricing_plan_id":"cebpf4jnsgd1na2vs0mg"},{"bike_id":"908485ce-5167-409a-b0f8-959845e77427","system_id":"levelo_inurba_marseille","lat":43.302992,"lon":5.392136,"is_reserved":false,"is_disabled":false,"rental_uris":{"android":"levelo://app?vid=908485ce-5167-409a-b0f8-959845e77427","ios":"levelo://app?vid=908485ce-5167-409a-b0f8-959845e77427"},"vehicle_type_id":"4","last_reported":1718204824,"current_range_meters":19600,"station_id":"ce4bgkh2rcd13ifvqbk0","pricing_plan_id":"cebpf4jnsgd1na2vs0mg"},{"bike_id":"6265c208-8c29-4633-9b37-6a9a98decbc4","system_id":"levelo_inurba_marseille","lat":43.2936,"lon":5.37835,"is_reserved":false,"is_disabled":false,"rental_uris":{"android":"levelo://app?vid=6265c208-8c29-4633-9b37-6a9a98decbc4","ios":"levelo://app?vid=6265c208-8c29-4633-9b37-6a9a98decbc4"},"vehicle_type_id":"4","last_reported":1718204824,"current_range_meters":20400,"station_id":"ce4bgjh2rcd13ifvqbf0","pricing_plan_id":"cebpf4jnsgd1na2vs0mg"},{"bike_id":"ff50218c-91de-43fd-8cf9-cf7eecd13fcc","system_id":"levelo_inurba_marseille","lat":43.2936,"lon":5.37835,"is_reserved":false,"is_disabled":false,"rental_uris":{"android":"levelo://app?vid=ff50218c-91de-43fd-8cf9-cf7eecd13fcc","ios":"levelo://app?vid=ff50218c-91de-43fd-8cf9-cf7eecd13fcc"},"vehicle_type_id":"4","last_reported":1718204824,"current_range_meters":27200,"station_id":"ce4bgjh2rcd13ifvqbf0","pricing_plan_id":"cebpf4jnsgd1na2vs0mg"},{"bike_id":"69f3689d-93a4-459a-8411-1b38eabaded2","system_id":"levelo_inurba_marseille","lat":43.302992,"lon":5.392136,"is_reserved":false,"is_disabled":false,"rental_uris":{"android":"levelo://app?vid=69f3689d-93a4-459a-8411-1b38eabaded2","ios":"levelo://app?vid=69f3689d-93a4-459a-8411-1b38eabaded2"},"vehicle_type_id":"4","last_reported":1718204824,"current_range_meters":16000,"station_id":"ce4bgkh2rcd13ifvqbk0","pricing_plan_id":"cebpf4jnsgd1na2vs0mg"},{"bike_id":"1a5ecf33-6dcd-4a84-93d8-33cb8d839041","system_id":"levelo_inurba_marseille","lat":43.293716,"lon":5.378421,"is_reserved":false,"is_disabled":false,"rental_uris":{"android":"levelo://app?vid=1a5ecf33-6dcd-4a84-93d8-33cb8d839041","ios":"levelo://app?vid=1a5ecf33-6dcd-4a84-93d8-33cb8d839041"},"vehicle_type_id":"4","last_reported":1718204824,"current_range_meters":0,"station_id":"ce4bgjh2rcd13ifvqbf0","pricing_plan_id":"cebpf4jnsgd1na2vs0mg"},{"bike_id":"59804187-9959-4556-ad99-b43c62ec2c93","system_id":"levelo_inurba_marseille","lat":43.2936,"lon":5.37835,"is_reserved":false,"is_disabled":false,"rental_uris":{"android":"levelo://app?vid=59804187-9959-4556-ad99-b43c62ec2c93","ios":"levelo://app?vid=59804187-9959-4556-ad99-b43c62ec2c93"},"vehicle_type_id":"4","last_reported":1718204824,"current_range_meters":17200,"station_id":"ce4bgjh2rcd13ifvqbf0","pricing_plan_id":"cebpf4jnsgd1na2vs0mg"},{"bike_id":"b5541727-fd79-4b2e-8c05-b6bed878d3f7","system_id":"levelo_inurba_marseille","lat":43.2936,"lon":5.37835,"is_reserved":false,"is_disabled":false,"rental_uris":{"android":"levelo://app?vid=b5541727-fd79-4b2e-8c05-b6bed878d3f7","ios":"levelo://app?vid=b5541727-fd79-4b2e-8c05-b6bed878d3f7"},"vehicle_type_id":"4","last_reported":1718204824,"current_range_meters":23600,"station_id":"ce4bgjh2rcd13ifvqbf0","pricing_plan_id":"cebpf4jnsgd1na2vs0mg"},{"bike_id":"e19bda6e-8a61-4435-9f55-e2d90323381c","system_id":"levelo_inurba_marseille","lat":43.30085,"lon":5.390856,"is_reserved":false,"is_disabled":false,"rental_uris":{"android":"levelo://app?vid=e19bda6e-8a61-4435-9f55-e2d90323381c","ios":"levelo://app?vid=e19bda6e-8a61-4435-9f55-e2d90323381c"},"vehicle_type_id":"4","last_reported":1718204824,"current_range_meters":23600,"station_id":"ce4bh192rcd13ifvqdb0","pricing_plan_id":"cebpf4jnsgd1na2vs0mg"},{"bike_id":"071a6f33-35b5-4ee5-959e-aac2ffe5ca6e","system_id":"levelo_inurba_marseille","lat":43.30096,"lon":5.39073,"is_reserved":false,"is_disabled":false,"rental_uris":{"android":"levelo://app?vid=071a6f33-35b5-4ee5-959e-aac2ffe5ca6e","ios":"levelo://app?vid=071a6f33-35b5-4ee5-959e-aac2ffe5ca6e"},"vehicle_type_id":"4","last_reported":1718204824,"current_range_meters":0,"station_id":"ce4bh192rcd13ifvqdb0","pricing_plan_id":"cebpf4jnsgd1na2vs0mg"},{"bike_id":"886a92e8-b75f-4a4a-8c6c-271636796a30","system_id":"levelo_inurba_marseille","lat":43.292311,"lon":5.360731,"is_reserved":false,"is_disabled":false,"rental_uris":{"android":"levelo://app?vid=886a92e8-b75f-4a4a-8c6c-271636796a30","ios":"levelo://app?vid=886a92e8-b75f-4a4a-8c6c-271636796a30"},"vehicle_type_id":"4","last_reported":1718204824,"current_range_meters":0,"station_id":"ce4bhbh2rcd13ifvqeqg","pricing_plan_id":"cebpf4jnsgd1na2vs0mg"},{"bike_id":"192b8b28-a098-4a4e-a898-c71513bc8a5f","system_id":"levelo_inurba_marseille","lat":43.29227,"lon":5.36049,"is_reserved":false,"is_disabled":false,"rental_uris":{"android":"levelo://app?vid=192b8b28-a098-4a4e-a898-c71513bc8a5f","ios":"levelo://app?vid=192b8b28-a098-4a4e-a898-c71513bc8a5f"},"vehicle_type_id":"4","last_reported":1718204824,"current_range_meters":28400,"station_id":"ce4bhbh2rcd13ifvqeqg","pricing_plan_id":"cebpf4jnsgd1na2vs0mg"},{"bike_id":"2e36a8b7-96b4-43f4-b5db-266fbf0c7c71","system_id":"levelo_inurba_marseille","lat":43.29226,"lon":5.36053,"is_reserved":false,"is_disabled":false,"rental_uris":{"android":"levelo://app?vid=2e36a8b7-96b4-43f4-b5db-266fbf0c7c71","ios":"levelo://app?vid=2e36a8b7-96b4-43f4-b5db-266fbf0c7c71"},"vehicle_type_id":"4","last_reported":1718204824,"current_range_meters":8400,"station_id":"ce4bhbh2rcd13ifvqeqg","pricing_plan_id":"cebpf4jnsgd1na2vs0mg"},{"bike_id":"c7263bd0-cddc-43e0-b778-805da8baeb45","system_id":"levelo_inurba_marseille","lat":43.29227,"lon":5.36042,"is_reserved":false,"is_disabled":false,"rental_uris":{"android":"levelo://app?vid=c7263bd0-cddc-43e0-b778-805da8baeb45","ios":"levelo://app?vid=c7263bd0-cddc-43e0-b778-805da8baeb45"},"vehicle_type_id":"4","last_reported":1718204824,"current_range_meters":0,"station_id":"ce4bhbh2rcd13ifvqeqg","pricing_plan_id":"cebpf4jnsgd1na2vs0mg"},{"bike_id":"f2645758-bb2d-4ede-b68e-81958e76111e","system_id":"levelo_inurba_marseille","lat":43.29223,"lon":5.36059,"is_reserved":false,"is_disabled":false,"rental_uris":{"android":"levelo://app?vid=f2645758-bb2d-4ede-b68e-81958e76111e","ios":"levelo://app?vid=f2645758-bb2d-4ede-b68e-81958e76111e"},"vehicle_type_id":"4","last_reported":1718204824,"current_range_meters":22000,"station_id":"ce4bhbh2rcd13ifvqeqg","pricing_plan_id":"cebpf4jnsgd1na2vs0mg"},{"bike_id":"b4439667-2fe6-4f10-b16c-037c64273cca","system_id":"levelo_inurba_marseille","lat":43.293009,"lon":5.374584,"is_reserved":false,"is_disabled":false,"rental_uris":{"android":"levelo://app?vid=b4439667-2fe6-4f10-b16c-037c64273cca","ios":"levelo://app?vid=b4439667-2fe6-4f10-b16c-037c64273cca"},"vehicle_type_id":"4","last_reported":1718204824,"current_range_meters":8000,"station_id":"ce4bgi12rcd13ifvqb70","pricing_plan_id":"cebpf4jnsgd1na2vs0mg"},{"bike_id":"201f1c5f-0dfb-4e41-a1dd-63f1aabe973d","system_id":"levelo_inurba_marseille","lat":43.30085,"lon":5.390856,"is_reserved":false,"is_disabled":false,"rental_uris":{"android":"levelo://app?vid=201f1c5f-0dfb-4e41-a1dd-63f1aabe973d","ios":"levelo://app?vid=201f1c5f-0dfb-4e41-a1dd-63f1aabe973d"},"vehicle_type_id":"4","last_reported":1718204824,"current_range_meters":21200,"station_id":"ce4bh192rcd13ifvqdb0","pricing_plan_id":"cebpf4jnsgd1na2vs0mg"},{"bike_id":"45b8cf47-d18f-4d6c-8c9e-9a485c42485e","system_id":"levelo_inurba_marseille","lat":43.291671,"lon":5.371575,"is_reserved":false,"is_disabled":false,"rental_uris":{"android":"levelo://app?vid=45b8cf47-d18f-4d6c-8c9e-9a485c42485e","ios":"levelo://app?vid=45b8cf47-d18f-4d6c-8c9e-9a485c42485e"},"vehicle_type_id":"4","last_reported":1718204824,"current_range_meters":11200,"station_id":"ce4bha92rcd13ifvqeh0","pricing_plan_id":"cebpf4jnsgd1na2vs0mg"},{"bike_id":"13dcf25a-4418-4949-bc26-7a76e8ede9c3","system_id":"levelo_inurba_marseille","lat":43.291671,"lon":5.371575,"is_reserved":false,"is_disabled":false,"rental_uris":{"android":"levelo://app?vid=13dcf25a-4418-4949-bc26-7a76e8ede9c3","ios":"levelo://app?vid=13dcf25a-4418-4949-bc26-7a76e8ede9c3"},"vehicle_type_id":"4","last_reported":1718204824,"current_range_meters":9600,"station_id":"ce4bha92rcd13ifvqeh0","pricing_plan_id":"cebpf4jnsgd1na2vs0mg"},{"bike_id":"6b0b8237-382e-4381-8d44-436854f74d1f","system_id":"levelo_inurba_marseille","lat":43.29136,"lon":5.370105,"is_reserved":false,"is_disabled":false,"rental_uris":{"android":"levelo://app?vid=6b0b8237-382e-4381-8d44-436854f74d1f","ios":"levelo://app?vid=6b0b8237-382e-4381-8d44-436854f74d1f"},"vehicle_type_id":"4","last_reported":1718204824,"current_range_meters":20000,"station_id":"","pricing_plan_id":"cebpf4jnsgd1na2vs0mg"},{"bike_id":"64ee2bb5-baa8-425c-bda1-2b762d3ea106","system_id":"levelo_inurba_marseille","lat":43.30895,"lon":5.39642,"is_reserved":false,"is_disabled":false,"rental_uris":{"android":"levelo://app?vid=64ee2bb5-baa8-425c-bda1-2b762d3ea106","ios":"levelo://app?vid=64ee2bb5-baa8-425c-bda1-2b762d3ea106"},"vehicle_type_id":"4","last_reported":1718204824,"current_range_meters":12000,"station_id":"ce4bh012rcd13ifvqcv0","pricing_plan_id":"cebpf4jnsgd1na2vs0mg"},{"bike_id":"54780605-0263-4a51-a418-c4bfe51474dc","system_id":"levelo_inurba_marseille","lat":43.313291,"lon":5.396838,"is_reserved":false,"is_disabled":false,"rental_uris":{"android":"levelo://app?vid=54780605-0263-4a51-a418-c4bfe51474dc","ios":"levelo://app?vid=54780605-0263-4a51-a418-c4bfe51474dc"},"vehicle_type_id":"4","last_reported":1718204824,"current_range_meters":10400,"station_id":"ce4bgvp2rcd13ifvqcu0","pricing_plan_id":"cebpf4jnsgd1na2vs0mg"},{"bike_id":"c82dfe1a-8ea8-49fe-9c0f-b8c0427659e6","system_id":"levelo_inurba_marseille","lat":43.313291,"lon":5.396838,"is_reserved":false,"is_disabled":false,"rental_uris":{"android":"levelo://app?vid=c82dfe1a-8ea8-49fe-9c0f-b8c0427659e6","ios":"levelo://app?vid=c82dfe1a-8ea8-49fe-9c0f-b8c0427659e6"},"vehicle_type_id":"4","last_reported":1718204824,"current_range_meters":11600,"station_id":"ce4bgvp2rcd13ifvqcu0","pricing_plan_id":"cebpf4jnsgd1na2vs0mg"},{"bike_id":"5a8e6ff2-a3da-42ae-b9e4-795284fd2264","system_id":"levelo_inurba_marseille","lat":43.313291,"lon":5.396838,"is_reserved":false,"is_disabled":false,"rental_uris":{"android":"levelo://app?vid=5a8e6ff2-a3da-42ae-b9e4-795284fd2264","ios":"levelo://app?vid=5a8e6ff2-a3da-42ae-b9e4-795284fd2264"},"vehicle_type_id":"4","last_reported":1718204824,"current_range_meters":7200,"station_id":"ce4bgvp2rcd13ifvqcu0","pricing_plan_id":"cebpf4jnsgd1na2vs0mg"},{"bike_id":"ac77a5f7-ccef-4bcf-8951-841d0dc62423","system_id":"levelo_inurba_marseille","lat":43.313291,"lon":5.396838,"is_reserved":false,"is_disabled":false,"rental_uris":{"android":"levelo://app?vid=ac77a5f7-ccef-4bcf-8951-841d0dc62423","ios":"levelo://app?vid=ac77a5f7-ccef-4bcf-8951-841d0dc62423"},"vehicle_type_id":"4","last_reported":1718204824,"current_range_meters":24800,"station_id":"ce4bgvp2rcd13ifvqcu0","pricing_plan_id":"cebpf4jnsgd1na2vs0mg"},{"bike_id":"470cc951-94c8-466c-a5b2-386fa54ab088","system_id":"levelo_inurba_marseille","lat":43.313291,"lon":5.396838,"is_reserved":false,"is_disabled":false,"rental_uris":{"android":"levelo://app?vid=470cc951-94c8-466c-a5b2-386fa54ab088","ios":"levelo://app?vid=470cc951-94c8-466c-a5b2-386fa54ab088"},"vehicle_type_id":"4","last_reported":1718204824,"current_range_meters":4000,"station_id":"ce4bgvp2rcd13ifvqcu0","pricing_plan_id":"cebpf4jnsgd1na2vs0mg"},{"bike_id":"1ef00076-b4cc-41ef-8485-a9a7ff1b041a","system_id":"levelo_inurba_marseille","lat":43.313291,"lon":5.396838,"is_reserved":false,"is_disabled":false,"rental_uris":{"android":"levelo://app?vid=1ef00076-b4cc-41ef-8485-a9a7ff1b041a","ios":"levelo://app?vid=1ef00076-b4cc-41ef-8485-a9a7ff1b041a"},"vehicle_type_id":"4","last_reported":1718204824,"current_range_meters":6400,"station_id":"ce4bgvp2rcd13ifvqcu0","pricing_plan_id":"cebpf4jnsgd1na2vs0mg"},{"bike_id":"ab3b0240-d73a-42f6-baf8-53a0a7a31f08","system_id":"levelo_inurba_marseille","lat":43.295307,"lon":5.38535,"is_reserved":false,"is_disabled":false,"rental_uris":{"android":"levelo://app?vid=ab3b0240-d73a-42f6-baf8-53a0a7a31f08","ios":"levelo://app?vid=ab3b0240-d73a-42f6-baf8-53a0a7a31f08"},"vehicle_type_id":"4","last_reported":1718204824,"current_range_meters":3600,"station_id":"ce4bgih2rcd13ifvqba0","pricing_plan_id":"cebpf4jnsgd1na2vs0mg"},{"bike_id":"00ec234a-99b7-4929-b785-5f5f5d3467e8","system_id":"levelo_inurba_marseille","lat":43.29532,"lon":5.38541,"is_reserved":false,"is_disabled":false,"rental_uris":{"android":"levelo://app?vid=00ec234a-99b7-4929-b785-5f5f5d3467e8","ios":"levelo://app?vid=00ec234a-99b7-4929-b785-5f5f5d3467e8"},"vehicle_type_id":"4","last_reported":1718204824,"current_range_meters":6800,"station_id":"ce4bgih2rcd13ifvqba0","pricing_plan_id":"cebpf4jnsgd1na2vs0mg"},{"bike_id":"e0521e32-fd17-4067-bda6-03e579e2537c","system_id":"levelo_inurba_marseille","lat":43.29543,"lon":5.38563,"is_reserved":false,"is_disabled":false,"rental_uris":{"android":"levelo://app?vid=e0521e32-fd17-4067-bda6-03e579e2537c","ios":"levelo://app?vid=e0521e32-fd17-4067-bda6-03e579e2537c"},"vehicle_type_id":"4","last_reported":1718204824,"current_range_meters":18800,"station_id":"","pricing_plan_id":"cebpf4jnsgd1na2vs0mg"},{"bike_id":"c0440702-e9df-4226-b596-8ad01e464254","system_id":"levelo_inurba_marseille","lat":43.29529,"lon":5.385581,"is_reserved":false,"is_disabled":false,"rental_uris":{"android":"levelo://app?vid=c0440702-e9df-4226-b596-8ad01e464254","ios":"levelo://app?vid=c0440702-e9df-4226-b596-8ad01e464254"},"vehicle_type_id":"4","last_reported":1718204824,"current_range_meters":7600,"station_id":"ce4bgih2rcd13ifvqba0","pricing_plan_id":"cebpf4jnsgd1na2vs0mg"},{"bike_id":"fc60e223-2f7f-44fe-87df-a030f01827ce","system_id":"levelo_inurba_marseille","lat":43.29529,"lon":5.385581,"is_reserved":false,"is_disabled":false,"rental_uris":{"android":"levelo://app?vid=fc60e223-2f7f-44fe-87df-a030f01827ce","ios":"levelo://app?vid=fc60e223-2f7f-44fe-87df-a030f01827ce"},"vehicle_type_id":"4","last_reported":1718204824,"current_range_meters":2800,"station_id":"ce4bgih2rcd13ifvqba0","pricing_plan_id":"cebpf4jnsgd1na2vs0mg"},{"bike_id":"faa376b4-ca37-48ad-b992-8e703c69eda7","system_id":"levelo_inurba_marseille","lat":43.29529,"lon":5.385581,"is_reserved":false,"is_disabled":false,"rental_uris":{"android":"levelo://app?vid=faa376b4-ca37-48ad-b992-8e703c69eda7","ios":"levelo://app?vid=faa376b4-ca37-48ad-b992-8e703c69eda7"},"vehicle_type_id":"4","last_reported":1718204824,"current_range_meters":15600,"station_id":"ce4bgih2rcd13ifvqba0","pricing_plan_id":"cebpf4jnsgd1na2vs0mg"},{"bike_id":"3af43e8f-5350-49c3-9c06-e626f9393a35","system_id":"levelo_inurba_marseille","lat":43.290779,"lon":5.371482,"is_reserved":false,"is_disabled":false,"rental_uris":{"android":"levelo://app?vid=3af43e8f-5350-49c3-9c06-e626f9393a35","ios":"levelo://app?vid=3af43e8f-5350-49c3-9c06-e626f9393a35"},"vehicle_type_id":"4","last_reported":1718204824,"current_range_meters":0,"station_id":"ce4bh5p2rcd13ifvqe4g","pricing_plan_id":"cebpf4jnsgd1na2vs0mg"},{"bike_id":"0d11764c-a82c-45fa-a95b-3d2e938d5410","system_id":"levelo_inurba_marseille","lat":43.302008,"lon":5.394694,"is_reserved":false,"is_disabled":false,"rental_uris":{"android":"levelo://app?vid=0d11764c-a82c-45fa-a95b-3d2e938d5410","ios":"levelo://app?vid=0d11764c-a82c-45fa-a95b-3d2e938d5410"},"vehicle_type_id":"4","last_reported":1718204824,"current_range_meters":25200,"station_id":"ce4bh0p2rcd13ifvqd70","pricing_plan_id":"cebpf4jnsgd1na2vs0mg"},{"bike_id":"32816987-defd-4865-bad7-77d7ad512d42","system_id":"levelo_inurba_marseille","lat":43.302008,"lon":5.394694,"is_reserved":false,"is_disabled":false,"rental_uris":{"android":"levelo://app?vid=32816987-defd-4865-bad7-77d7ad512d42","ios":"levelo://app?vid=32816987-defd-4865-bad7-77d7ad512d42"},"vehicle_type_id":"4","last_reported":1718204824,"current_range_meters":10400,"station_id":"ce4bh0p2rcd13ifvqd70","pricing_plan_id":"cebpf4jnsgd1na2vs0mg"},{"bike_id":"8f5195d8-dd56-42fc-853b-cb2a15103431","system_id":"levelo_inurba_marseille","lat":43.302008,"lon":5.394694,"is_reserved":false,"is_disabled":false,"rental_uris":{"android":"levelo://app?vid=8f5195d8-dd56-42fc-853b-cb2a15103431","ios":"levelo://app?vid=8f5195d8-dd56-42fc-853b-cb2a15103431"},"vehicle_type_id":"4","last_reported":1718204824,"current_range_meters":6000,"station_id":"ce4bh0p2rcd13ifvqd70","pricing_plan_id":"cebpf4jnsgd1na2vs0mg"},{"bike_id":"5dd3b903-4e5d-4fd2-9e0f-1d814dee3dde","system_id":"levelo_inurba_marseille","lat":43.290624,"lon":5.359245,"is_reserved":false,"is_disabled":false,"rental_uris":{"android":"levelo://app?vid=5dd3b903-4e5d-4fd2-9e0f-1d814dee3dde","ios":"levelo://app?vid=5dd3b903-4e5d-4fd2-9e0f-1d814dee3dde"},"vehicle_type_id":"4","last_reported":1718204824,"current_range_meters":28000,"station_id":"ce4bha92rcd13ifvqeg0","pricing_plan_id":"cebpf4jnsgd1na2vs0mg"},{"bike_id":"c8f88498-3cac-426e-a74a-6758307bf8ee","system_id":"levelo_inurba_marseille","lat":43.290624,"lon":5.359245,"is_reserved":false,"is_disabled":false,"rental_uris":{"android":"levelo://app?vid=c8f88498-3cac-426e-a74a-6758307bf8ee","ios":"levelo://app?vid=c8f88498-3cac-426e-a74a-6758307bf8ee"},"vehicle_type_id":"4","last_reported":1718204824,"current_range_meters":2400,"station_id":"ce4bha92rcd13ifvqeg0","pricing_plan_id":"cebpf4jnsgd1na2vs0mg"},{"bike_id":"d6ad4630-2db4-43c0-8c4f-201e2784cce5","system_id":"levelo_inurba_marseille","lat":43.290624,"lon":5.359245,"is_reserved":false,"is_disabled":false,"rental_uris":{"android":"levelo://app?vid=d6ad4630-2db4-43c0-8c4f-201e2784cce5","ios":"levelo://app?vid=d6ad4630-2db4-43c0-8c4f-201e2784cce5"},"vehicle_type_id":"4","last_reported":1718204824,"current_range_meters":30000,"station_id":"ce4bha92rcd13ifvqeg0","pricing_plan_id":"cebpf4jnsgd1na2vs0mg"},{"bike_id":"35078424-9bbd-46ce-b99a-0d6dfa29983d","system_id":"levelo_inurba_marseille","lat":43.294153,"lon":5.386305,"is_reserved":false,"is_disabled":false,"rental_uris":{"android":"levelo://app?vid=35078424-9bbd-46ce-b99a-0d6dfa29983d","ios":"levelo://app?vid=35078424-9bbd-46ce-b99a-0d6dfa29983d"},"vehicle_type_id":"4","last_reported":1718204824,"current_range_meters":0,"station_id":"ce4bh2h2rcd13ifvqdh0","pricing_plan_id":"cebpf4jnsgd1na2vs0mg"},{"bike_id":"d9123b0a-c117-42bf-a87c-4ffe898234a6","system_id":"levelo_inurba_marseille","lat":43.294153,"lon":5.386305,"is_reserved":false,"is_disabled":false,"rental_uris":{"android":"levelo://app?vid=d9123b0a-c117-42bf-a87c-4ffe898234a6","ios":"levelo://app?vid=d9123b0a-c117-42bf-a87c-4ffe898234a6"},"vehicle_type_id":"4","last_reported":1718204824,"current_range_meters":0,"station_id":"ce4bh2h2rcd13ifvqdh0","pricing_plan_id":"cebpf4jnsgd1na2vs0mg"},{"bike_id":"26c185a8-f2bd-4601-ac83-f3526a8067f8","system_id":"levelo_inurba_marseille","lat":43.294162,"lon":5.386292,"is_reserved":false,"is_disabled":false,"rental_uris":{"android":"levelo://app?vid=26c185a8-f2bd-4601-ac83-f3526a8067f8","ios":"levelo://app?vid=26c185a8-f2bd-4601-ac83-f3526a8067f8"},"vehicle_type_id":"4","last_reported":1718204824,"current_range_meters":12800,"station_id":"ce4bh2h2rcd13ifvqdh0","pricing_plan_id":"cebpf4jnsgd1na2vs0mg"},{"bike_id":"b03f03a8-51cc-48dc-b7c4-510bfaa8bdbd","system_id":"levelo_inurba_marseille","lat":43.294153,"lon":5.386305,"is_reserved":false,"is_disabled":false,"rental_uris":{"android":"levelo://app?vid=b03f03a8-51cc-48dc-b7c4-510bfaa8bdbd","ios":"levelo://app?vid=b03f03a8-51cc-48dc-b7c4-510bfaa8bdbd"},"vehicle_type_id":"4","last_reported":1718204824,"current_range_meters":16000,"station_id":"ce4bh2h2rcd13ifvqdh0","pricing_plan_id":"cebpf4jnsgd1na2vs0mg"},{"bike_id":"e3ace8fd-ac97-4f66-a55b-0e43a8c528b5","system_id":"levelo_inurba_marseille","lat":43.294162,"lon":5.386292,"is_reserved":false,"is_disabled":false,"rental_uris":{"android":"levelo://app?vid=e3ace8fd-ac97-4f66-a55b-0e43a8c528b5","ios":"levelo://app?vid=e3ace8fd-ac97-4f66-a55b-0e43a8c528b5"},"vehicle_type_id":"4","last_reported":1718204824,"current_range_meters":19600,"station_id":"ce4bh2h2rcd13ifvqdh0","pricing_plan_id":"cebpf4jnsgd1na2vs0mg"},{"bike_id":"d6baef54-5d58-41a2-a5a0-483369099ed2","system_id":"levelo_inurba_marseille","lat":43.290319,"lon":5.375732,"is_reserved":false,"is_disabled":false,"rental_uris":{"android":"levelo://app?vid=d6baef54-5d58-41a2-a5a0-483369099ed2","ios":"levelo://app?vid=d6baef54-5d58-41a2-a5a0-483369099ed2"},"vehicle_type_id":"4","last_reported":1718204824,"current_range_meters":23200,"station_id":"ce4bh692rcd13ifvqe90","pricing_plan_id":"cebpf4jnsgd1na2vs0mg"},{"bike_id":"1af7edc5-c7fc-4abf-a0be-6aa22d055133","system_id":"levelo_inurba_marseille","lat":43.289184,"lon":5.366408,"is_reserved":false,"is_disabled":false,"rental_uris":{"android":"levelo://app?vid=1af7edc5-c7fc-4abf-a0be-6aa22d055133","ios":"levelo://app?vid=1af7edc5-c7fc-4abf-a0be-6aa22d055133"},"vehicle_type_id":"4","last_reported":1718204824,"current_range_meters":17600,"station_id":"ce4bhap2rcd13ifvqek0","pricing_plan_id":"cebpf4jnsgd1na2vs0mg"},{"bike_id":"d618c8be-1d1e-4ad2-a529-0a5eae10b28e","system_id":"levelo_inurba_marseille","lat":43.289184,"lon":5.366408,"is_reserved":false,"is_disabled":false,"rental_uris":{"android":"levelo://app?vid=d618c8be-1d1e-4ad2-a529-0a5eae10b28e","ios":"levelo://app?vid=d618c8be-1d1e-4ad2-a529-0a5eae10b28e"},"vehicle_type_id":"4","last_reported":1718204824,"current_range_meters":6800,"station_id":"ce4bhap2rcd13ifvqek0","pricing_plan_id":"cebpf4jnsgd1na2vs0mg"},{"bike_id":"3da506e0-4559-467a-bdb0-6399c5c714ef","system_id":"levelo_inurba_marseille","lat":43.289468,"lon":5.363719,"is_reserved":false,"is_disabled":false,"rental_uris":{"android":"levelo://app?vid=3da506e0-4559-467a-bdb0-6399c5c714ef","ios":"levelo://app?vid=3da506e0-4559-467a-bdb0-6399c5c714ef"},"vehicle_type_id":"4","last_reported":1718204824,"current_range_meters":4800,"station_id":"ce4bhc92rcd13ifvqetg","pricing_plan_id":"cebpf4jnsgd1na2vs0mg"},{"bike_id":"d51e2659-d615-42f7-ba44-da69a97023a8","system_id":"levelo_inurba_marseille","lat":43.294153,"lon":5.386305,"is_reserved":false,"is_disabled":false,"rental_uris":{"android":"levelo://app?vid=d51e2659-d615-42f7-ba44-da69a97023a8","ios":"levelo://app?vid=d51e2659-d615-42f7-ba44-da69a97023a8"},"vehicle_type_id":"4","last_reported":1718204824,"current_range_meters":6400,"station_id":"ce4bh2h2rcd13ifvqdh0","pricing_plan_id":"cebpf4jnsgd1na2vs0mg"},{"bike_id":"83f1e676-b105-4eb9-9b0b-191525bf3e45","system_id":"levelo_inurba_marseille","lat":43.292642,"lon":5.384254,"is_reserved":false,"is_disabled":false,"rental_uris":{"android":"levelo://app?vid=83f1e676-b105-4eb9-9b0b-191525bf3e45","ios":"levelo://app?vid=83f1e676-b105-4eb9-9b0b-191525bf3e45"},"vehicle_type_id":"4","last_reported":1718204824,"current_range_meters":8000,"station_id":"ce4bh692rcd13ifvqea0","pricing_plan_id":"cebpf4jnsgd1na2vs0mg"},{"bike_id":"ae58219b-7288-4769-82c3-6a360c003c2e","system_id":"levelo_inurba_marseille","lat":43.304274,"lon":5.397513,"is_reserved":false,"is_disabled":false,"rental_uris":{"android":"levelo://app?vid=ae58219b-7288-4769-82c3-6a360c003c2e","ios":"levelo://app?vid=ae58219b-7288-4769-82c3-6a360c003c2e"},"vehicle_type_id":"4","last_reported":1718204824,"current_range_meters":27600,"station_id":"ce4bh092rcd13ifvqd20","pricing_plan_id":"cebpf4jnsgd1na2vs0mg"},{"bike_id":"7740a7ed-2351-4d2d-ad01-fa916dcca65a","system_id":"levelo_inurba_marseille","lat":43.304296,"lon":5.397513,"is_reserved":false,"is_disabled":false,"rental_uris":{"android":"levelo://app?vid=7740a7ed-2351-4d2d-ad01-fa916dcca65a","ios":"levelo://app?vid=7740a7ed-2351-4d2d-ad01-fa916dcca65a"},"vehicle_type_id":"4","last_reported":1718204824,"current_range_meters":31200,"station_id":"ce4bh092rcd13ifvqd20","pricing_plan_id":"cebpf4jnsgd1na2vs0mg"},{"bike_id":"172adf74-56a1-47c1-804b-11ee92525ee4","system_id":"levelo_inurba_marseille","lat":43.3043,"lon":5.39749,"is_reserved":false,"is_disabled":false,"rental_uris":{"android":"levelo://app?vid=172adf74-56a1-47c1-804b-11ee92525ee4","ios":"levelo://app?vid=172adf74-56a1-47c1-804b-11ee92525ee4"},"vehicle_type_id":"4","last_reported":1718204824,"current_range_meters":18000,"station_id":"ce4bh092rcd13ifvqd20","pricing_plan_id":"cebpf4jnsgd1na2vs0mg"},{"bike_id":"8cdb27c1-43d8-4fb4-a38c-2bb8240f3239","system_id":"levelo_inurba_marseille","lat":43.304296,"lon":5.397513,"is_reserved":false,"is_disabled":false,"rental_uris":{"android":"levelo://app?vid=8cdb27c1-43d8-4fb4-a38c-2bb8240f3239","ios":"levelo://app?vid=8cdb27c1-43d8-4fb4-a38c-2bb8240f3239"},"vehicle_type_id":"4","last_reported":1718204824,"current_range_meters":19600,"station_id":"ce4bh092rcd13ifvqd20","pricing_plan_id":"cebpf4jnsgd1na2vs0mg"},{"bike_id":"fc62b374-c444-4b67-96bd-28c408cfae39","system_id":"levelo_inurba_marseille","lat":43.304274,"lon":5.397513,"is_reserved":false,"is_disabled":false,"rental_uris":{"android":"levelo://app?vid=fc62b374-c444-4b67-96bd-28c408cfae39","ios":"levelo://app?vid=fc62b374-c444-4b67-96bd-28c408cfae39"},"vehicle_type_id":"4","last_reported":1718204824,"current_range_meters":24400,"station_id":"ce4bh092rcd13ifvqd20","pricing_plan_id":"cebpf4jnsgd1na2vs0mg"},{"bike_id":"a9901fed-a743-4722-9669-4f607a6bd84a","system_id":"levelo_inurba_marseille","lat":43.29262,"lon":5.38444,"is_reserved":false,"is_disabled":false,"rental_uris":{"android":"levelo://app?vid=a9901fed-a743-4722-9669-4f607a6bd84a","ios":"levelo://app?vid=a9901fed-a743-4722-9669-4f607a6bd84a"},"vehicle_type_id":"4","last_reported":1718204824,"current_range_meters":14400,"station_id":"ce4bh692rcd13ifvqea0","pricing_plan_id":"cebpf4jnsgd1na2vs0mg"},{"bike_id":"c03d5ff9-ae40-4cd9-a981-6514be7441bd","system_id":"levelo_inurba_marseille","lat":43.292644,"lon":5.384257,"is_reserved":false,"is_disabled":false,"rental_uris":{"android":"levelo://app?vid=c03d5ff9-ae40-4cd9-a981-6514be7441bd","ios":"levelo://app?vid=c03d5ff9-ae40-4cd9-a981-6514be7441bd"},"vehicle_type_id":"4","last_reported":1718204824,"current_range_meters":19600,"station_id":"ce4bh692rcd13ifvqea0","pricing_plan_id":"cebpf4jnsgd1na2vs0mg"},{"bike_id":"dac2b144-3d10-4f9d-8c0d-e49d8f482a45","system_id":"levelo_inurba_marseille","lat":43.290103,"lon":5.356114,"is_reserved":false,"is_disabled":false,"rental_uris":{"android":"levelo://app?vid=dac2b144-3d10-4f9d-8c0d-e49d8f482a45","ios":"levelo://app?vid=dac2b144-3d10-4f9d-8c0d-e49d8f482a45"},"vehicle_type_id":"4","last_reported":1718204824,"current_range_meters":31200,"station_id":"ce4bhb92rcd13ifvqen0","pricing_plan_id":"cebpf4jnsgd1na2vs0mg"},{"bike_id":"1af5b7e9-deb6-4cdb-b437-a5ef9fb328c2","system_id":"levelo_inurba_marseille","lat":43.294153,"lon":5.386305,"is_reserved":false,"is_disabled":false,"rental_uris":{"android":"levelo://app?vid=1af5b7e9-deb6-4cdb-b437-a5ef9fb328c2","ios":"levelo://app?vid=1af5b7e9-deb6-4cdb-b437-a5ef9fb328c2"},"vehicle_type_id":"4","last_reported":1718204824,"current_range_meters":26800,"station_id":"ce4bh2h2rcd13ifvqdh0","pricing_plan_id":"cebpf4jnsgd1na2vs0mg"},{"bike_id":"b143e1e6-f2fe-4ef0-bb65-77d24e62bea5","system_id":"levelo_inurba_marseille","lat":43.29003,"lon":5.35624,"is_reserved":false,"is_disabled":false,"rental_uris":{"android":"levelo://app?vid=b143e1e6-f2fe-4ef0-bb65-77d24e62bea5","ios":"levelo://app?vid=b143e1e6-f2fe-4ef0-bb65-77d24e62bea5"},"vehicle_type_id":"4","last_reported":1718204824,"current_range_meters":31200,"station_id":"ce4bhb92rcd13ifvqen0","pricing_plan_id":"cebpf4jnsgd1na2vs0mg"},{"bike_id":"85fd9592-ecc9-4f1e-bcad-3892773fd4f1","system_id":"levelo_inurba_marseille","lat":43.290995,"lon":5.381361,"is_reserved":false,"is_disabled":false,"rental_uris":{"android":"levelo://app?vid=85fd9592-ecc9-4f1e-bcad-3892773fd4f1","ios":"levelo://app?vid=85fd9592-ecc9-4f1e-bcad-3892773fd4f1"},"vehicle_type_id":"4","last_reported":1718204824,"current_range_meters":12400,"station_id":"ce4bh512rcd13ifvqe2g","pricing_plan_id":"cebpf4jnsgd1na2vs0mg"},{"bike_id":"dc1c00e2-91f1-441c-963c-168e8a2f03c5","system_id":"levelo_inurba_marseille","lat":43.290995,"lon":5.381361,"is_reserved":false,"is_disabled":false,"rental_uris":{"android":"levelo://app?vid=dc1c00e2-91f1-441c-963c-168e8a2f03c5","ios":"levelo://app?vid=dc1c00e2-91f1-441c-963c-168e8a2f03c5"},"vehicle_type_id":"4","last_reported":1718204824,"current_range_meters":1200,"station_id":"ce4bh512rcd13ifvqe2g","pricing_plan_id":"cebpf4jnsgd1na2vs0mg"},{"bike_id":"7d0ad9c4-9235-4581-a4b6-f9fca7f5c0cf","system_id":"levelo_inurba_marseille","lat":43.297815,"lon":5.393548,"is_reserved":false,"is_disabled":false,"rental_uris":{"android":"levelo://app?vid=7d0ad9c4-9235-4581-a4b6-f9fca7f5c0cf","ios":"levelo://app?vid=7d0ad9c4-9235-4581-a4b6-f9fca7f5c0cf"},"vehicle_type_id":"4","last_reported":1718204824,"current_range_meters":26400,"station_id":"chh1huq6cuj3fo74tm60","pricing_plan_id":"cebpf4jnsgd1na2vs0mg"},{"bike_id":"e1b42500-fe97-4372-9037-e18b8787f8cd","system_id":"levelo_inurba_marseille","lat":43.29785,"lon":5.39339,"is_reserved":false,"is_disabled":false,"rental_uris":{"android":"levelo://app?vid=e1b42500-fe97-4372-9037-e18b8787f8cd","ios":"levelo://app?vid=e1b42500-fe97-4372-9037-e18b8787f8cd"},"vehicle_type_id":"4","last_reported":1718204824,"current_range_meters":31200,"station_id":"chh1huq6cuj3fo74tm60","pricing_plan_id":"cebpf4jnsgd1na2vs0mg"},{"bike_id":"3cf2657c-36ca-4e1c-99e6-136cb73f05bb","system_id":"levelo_inurba_marseille","lat":43.297815,"lon":5.393548,"is_reserved":false,"is_disabled":false,"rental_uris":{"android":"levelo://app?vid=3cf2657c-36ca-4e1c-99e6-136cb73f05bb","ios":"levelo://app?vid=3cf2657c-36ca-4e1c-99e6-136cb73f05bb"},"vehicle_type_id":"4","last_reported":1718204824,"current_range_meters":4000,"station_id":"chh1huq6cuj3fo74tm60","pricing_plan_id":"cebpf4jnsgd1na2vs0mg"},{"bike_id":"e309bbed-a002-4353-b21c-c585896d1347","system_id":"levelo_inurba_marseille","lat":43.289743,"lon":5.378304,"is_reserved":false,"is_disabled":false,"rental_uris":{"android":"levelo://app?vid=e309bbed-a002-4353-b21c-c585896d1347","ios":"levelo://app?vid=e309bbed-a002-4353-b21c-c585896d1347"},"vehicle_type_id":"4","last_reported":1718204824,"current_range_meters":28400,"station_id":"ce4bh9p2rcd13ifvqed0","pricing_plan_id":"cebpf4jnsgd1na2vs0mg"},{"bike_id":"30ccc04a-6907-4052-9db7-986fb23e83cd","system_id":"levelo_inurba_marseille","lat":43.330442,"lon":5.389148,"is_reserved":false,"is_disabled":false,"rental_uris":{"android":"levelo://app?vid=30ccc04a-6907-4052-9db7-986fb23e83cd","ios":"levelo://app?vid=30ccc04a-6907-4052-9db7-986fb23e83cd"},"vehicle_type_id":"4","last_reported":1718204824,"current_range_meters":26000,"station_id":"ce4bhr92rcd13ifvqhrg","pricing_plan_id":"cebpf4jnsgd1na2vs0mg"},{"bike_id":"d0d5618b-4fa2-43be-ab3f-5d51a97ff5ce","system_id":"levelo_inurba_marseille","lat":43.330442,"lon":5.389148,"is_reserved":false,"is_disabled":false,"rental_uris":{"android":"levelo://app?vid=d0d5618b-4fa2-43be-ab3f-5d51a97ff5ce","ios":"levelo://app?vid=d0d5618b-4fa2-43be-ab3f-5d51a97ff5ce"},"vehicle_type_id":"4","last_reported":1718204824,"current_range_meters":3200,"station_id":"ce4bhr92rcd13ifvqhrg","pricing_plan_id":"cebpf4jnsgd1na2vs0mg"},{"bike_id":"8826654b-98d2-473d-893f-a2520879d995","system_id":"levelo_inurba_marseille","lat":43.33026,"lon":5.39042,"is_reserved":false,"is_disabled":false,"rental_uris":{"android":"levelo://app?vid=8826654b-98d2-473d-893f-a2520879d995","ios":"levelo://app?vid=8826654b-98d2-473d-893f-a2520879d995"},"vehicle_type_id":"4","last_reported":1718204824,"current_range_meters":11200,"station_id":"ce4bhr92rcd13ifvqhrg","pricing_plan_id":"cebpf4jnsgd1na2vs0mg"},{"bike_id":"1ccaadf5-79d0-4875-907f-ea5366281843","system_id":"levelo_inurba_marseille","lat":43.33027,"lon":5.39042,"is_reserved":false,"is_disabled":false,"rental_uris":{"android":"levelo://app?vid=1ccaadf5-79d0-4875-907f-ea5366281843","ios":"levelo://app?vid=1ccaadf5-79d0-4875-907f-ea5366281843"},"vehicle_type_id":"4","last_reported":1718204824,"current_range_meters":18800,"station_id":"ce4bhr92rcd13ifvqhrg","pricing_plan_id":"cebpf4jnsgd1na2vs0mg"},{"bike_id":"586ae860-31f4-49ec-90c2-e8a467feeb9f","system_id":"levelo_inurba_marseille","lat":43.330442,"lon":5.389148,"is_reserved":false,"is_disabled":false,"rental_uris":{"android":"levelo://app?vid=586ae860-31f4-49ec-90c2-e8a467feeb9f","ios":"levelo://app?vid=586ae860-31f4-49ec-90c2-e8a467feeb9f"},"vehicle_type_id":"4","last_reported":1718204824,"current_range_meters":16400,"station_id":"ce4bhr92rcd13ifvqhrg","pricing_plan_id":"cebpf4jnsgd1na2vs0mg"},{"bike_id":"87607f48-04dd-4463-9b79-a7ba8b9706b3","system_id":"levelo_inurba_marseille","lat":43.330442,"lon":5.389148,"is_reserved":false,"is_disabled":false,"rental_uris":{"android":"levelo://app?vid=87607f48-04dd-4463-9b79-a7ba8b9706b3","ios":"levelo://app?vid=87607f48-04dd-4463-9b79-a7ba8b9706b3"},"vehicle_type_id":"4","last_reported":1718204824,"current_range_meters":7200,"station_id":"ce4bhr92rcd13ifvqhrg","pricing_plan_id":"cebpf4jnsgd1na2vs0mg"},{"bike_id":"82385019-b075-4ada-9edd-db95a77ae121","system_id":"levelo_inurba_marseille","lat":43.33029,"lon":5.39047,"is_reserved":false,"is_disabled":false,"rental_uris":{"android":"levelo://app?vid=82385019-b075-4ada-9edd-db95a77ae121","ios":"levelo://app?vid=82385019-b075-4ada-9edd-db95a77ae121"},"vehicle_type_id":"4","last_reported":1718204824,"current_range_meters":8800,"station_id":"ce4bhr92rcd13ifvqhrg","pricing_plan_id":"cebpf4jnsgd1na2vs0mg"},{"bike_id":"f50ed2c1-c487-46c9-89ac-6831ed28bd27","system_id":"levelo_inurba_marseille","lat":43.295169,"lon":5.390426,"is_reserved":false,"is_disabled":false,"rental_uris":{"android":"levelo://app?vid=f50ed2c1-c487-46c9-89ac-6831ed28bd27","ios":"levelo://app?vid=f50ed2c1-c487-46c9-89ac-6831ed28bd27"},"vehicle_type_id":"4","last_reported":1718204824,"current_range_meters":0,"station_id":"ce4bh3p2rcd13ifvqdp0","pricing_plan_id":"cebpf4jnsgd1na2vs0mg"},{"bike_id":"435ee512-32d9-42c6-a751-24226dbfa9db","system_id":"levelo_inurba_marseille","lat":43.29023,"lon":5.38136,"is_reserved":false,"is_disabled":false,"rental_uris":{"android":"levelo://app?vid=435ee512-32d9-42c6-a751-24226dbfa9db","ios":"levelo://app?vid=435ee512-32d9-42c6-a751-24226dbfa9db"},"vehicle_type_id":"4","last_reported":1718204824,"current_range_meters":14800,"station_id":"ce4bh4p2rcd13ifvqe1g","pricing_plan_id":"cebpf4jnsgd1na2vs0mg"},{"bike_id":"27223e32-0592-404c-a98c-11570880023e","system_id":"levelo_inurba_marseille","lat":43.290094,"lon":5.381264,"is_reserved":false,"is_disabled":false,"rental_uris":{"android":"levelo://app?vid=27223e32-0592-404c-a98c-11570880023e","ios":"levelo://app?vid=27223e32-0592-404c-a98c-11570880023e"},"vehicle_type_id":"4","last_reported":1718204824,"current_range_meters":0,"station_id":"ce4bh4p2rcd13ifvqe1g","pricing_plan_id":"cebpf4jnsgd1na2vs0mg"},{"bike_id":"c0c25267-f372-4808-9d78-a88c86c609ec","system_id":"levelo_inurba_marseille","lat":43.290094,"lon":5.381264,"is_reserved":false,"is_disabled":false,"rental_uris":{"android":"levelo://app?vid=c0c25267-f372-4808-9d78-a88c86c609ec","ios":"levelo://app?vid=c0c25267-f372-4808-9d78-a88c86c609ec"},"vehicle_type_id":"4","last_reported":1718204824,"current_range_meters":7600,"station_id":"ce4bh4p2rcd13ifvqe1g","pricing_plan_id":"cebpf4jnsgd1na2vs0mg"},{"bike_id":"c4f3912e-b518-41e2-b278-7c3d44f2902f","system_id":"levelo_inurba_marseille","lat":43.28856,"lon":5.358371,"is_reserved":false,"is_disabled":false,"rental_uris":{"android":"levelo://app?vid=c4f3912e-b518-41e2-b278-7c3d44f2902f","ios":"levelo://app?vid=c4f3912e-b518-41e2-b278-7c3d44f2902f"},"vehicle_type_id":"4","last_reported":1718204824,"current_range_meters":6800,"station_id":"ce4bhb12rcd13ifvqem0","pricing_plan_id":"cebpf4jnsgd1na2vs0mg"},{"bike_id":"470d7bbe-4df6-4528-903d-622d096ec6e1","system_id":"levelo_inurba_marseille","lat":43.312609,"lon":5.401662,"is_reserved":false,"is_disabled":false,"rental_uris":{"android":"levelo://app?vid=470d7bbe-4df6-4528-903d-622d096ec6e1","ios":"levelo://app?vid=470d7bbe-4df6-4528-903d-622d096ec6e1"},"vehicle_type_id":"4","last_reported":1718204824,"current_range_meters":10000,"station_id":"ce4bh092rcd13ifvqd30","pricing_plan_id":"cebpf4jnsgd1na2vs0mg"},{"bike_id":"688db2e9-450a-4ebc-81e0-665ec27c1a4c","system_id":"levelo_inurba_marseille","lat":43.337444,"lon":5.374475,"is_reserved":false,"is_disabled":false,"rental_uris":{"android":"levelo://app?vid=688db2e9-450a-4ebc-81e0-665ec27c1a4c","ios":"levelo://app?vid=688db2e9-450a-4ebc-81e0-665ec27c1a4c"},"vehicle_type_id":"4","last_reported":1718204824,"current_range_meters":6000,"station_id":"","pricing_plan_id":"cebpf4jnsgd1na2vs0mg"},{"bike_id":"a4923042-225d-4544-a591-2ff46ec00123","system_id":"levelo_inurba_marseille","lat":43.309371,"lon":5.401449,"is_reserved":false,"is_disabled":false,"rental_uris":{"android":"levelo://app?vid=a4923042-225d-4544-a591-2ff46ec00123","ios":"levelo://app?vid=a4923042-225d-4544-a591-2ff46ec00123"},"vehicle_type_id":"4","last_reported":1718204824,"current_range_meters":13600,"station_id":"ce4bgvp2rcd13ifvqct0","pricing_plan_id":"cebpf4jnsgd1na2vs0mg"},{"bike_id":"f2fad4cd-f1d0-4673-93f1-caa6997a2be9","system_id":"levelo_inurba_marseille","lat":43.309371,"lon":5.401449,"is_reserved":false,"is_disabled":false,"rental_uris":{"android":"levelo://app?vid=f2fad4cd-f1d0-4673-93f1-caa6997a2be9","ios":"levelo://app?vid=f2fad4cd-f1d0-4673-93f1-caa6997a2be9"},"vehicle_type_id":"4","last_reported":1718204824,"current_range_meters":19600,"station_id":"ce4bgvp2rcd13ifvqct0","pricing_plan_id":"cebpf4jnsgd1na2vs0mg"},{"bike_id":"6d6bd4a8-7071-403e-aca4-06e8a1784caf","system_id":"levelo_inurba_marseille","lat":43.309371,"lon":5.401449,"is_reserved":false,"is_disabled":false,"rental_uris":{"android":"levelo://app?vid=6d6bd4a8-7071-403e-aca4-06e8a1784caf","ios":"levelo://app?vid=6d6bd4a8-7071-403e-aca4-06e8a1784caf"},"vehicle_type_id":"4","last_reported":1718204824,"current_range_meters":25600,"station_id":"ce4bgvp2rcd13ifvqct0","pricing_plan_id":"cebpf4jnsgd1na2vs0mg"},{"bike_id":"674438e2-4add-4a21-bc2e-d64f7b8eacf9","system_id":"levelo_inurba_marseille","lat":43.33755,"lon":5.37441,"is_reserved":false,"is_disabled":false,"rental_uris":{"android":"levelo://app?vid=674438e2-4add-4a21-bc2e-d64f7b8eacf9","ios":"levelo://app?vid=674438e2-4add-4a21-bc2e-d64f7b8eacf9"},"vehicle_type_id":"4","last_reported":1718204824,"current_range_meters":26000,"station_id":"","pricing_plan_id":"cebpf4jnsgd1na2vs0mg"},{"bike_id":"102e168f-d5ec-482b-9e4f-07de15e28594","system_id":"levelo_inurba_marseille","lat":43.337528,"lon":5.374575,"is_reserved":false,"is_disabled":false,"rental_uris":{"android":"levelo://app?vid=102e168f-d5ec-482b-9e4f-07de15e28594","ios":"levelo://app?vid=102e168f-d5ec-482b-9e4f-07de15e28594"},"vehicle_type_id":"4","last_reported":1718204824,"current_range_meters":3600,"station_id":"","pricing_plan_id":"cebpf4jnsgd1na2vs0mg"},{"bike_id":"5267a09c-b34d-4a04-9335-82b9989ca20b","system_id":"levelo_inurba_marseille","lat":43.30646,"lon":5.40076,"is_reserved":false,"is_disabled":false,"rental_uris":{"android":"levelo://app?vid=5267a09c-b34d-4a04-9335-82b9989ca20b","ios":"levelo://app?vid=5267a09c-b34d-4a04-9335-82b9989ca20b"},"vehicle_type_id":"4","last_reported":1718204824,"current_range_meters":27600,"station_id":"ce4bh112rcd13ifvqda0","pricing_plan_id":"cebpf4jnsgd1na2vs0mg"},{"bike_id":"d1849cda-65d1-466c-89f7-e72de50cdd6f","system_id":"levelo_inurba_marseille","lat":43.33755,"lon":5.37457,"is_reserved":false,"is_disabled":false,"rental_uris":{"android":"levelo://app?vid=d1849cda-65d1-466c-89f7-e72de50cdd6f","ios":"levelo://app?vid=d1849cda-65d1-466c-89f7-e72de50cdd6f"},"vehicle_type_id":"4","last_reported":1718204824,"current_range_meters":25600,"station_id":"","pricing_plan_id":"cebpf4jnsgd1na2vs0mg"},{"bike_id":"cd6fbaa0-3f8c-4b29-beaf-56075c0662d6","system_id":"levelo_inurba_marseille","lat":43.309371,"lon":5.401449,"is_reserved":false,"is_disabled":false,"rental_uris":{"android":"levelo://app?vid=cd6fbaa0-3f8c-4b29-beaf-56075c0662d6","ios":"levelo://app?vid=cd6fbaa0-3f8c-4b29-beaf-56075c0662d6"},"vehicle_type_id":"4","last_reported":1718204824,"current_range_meters":0,"station_id":"ce4bgvp2rcd13ifvqct0","pricing_plan_id":"cebpf4jnsgd1na2vs0mg"},{"bike_id":"32ccdf7b-051d-4d4e-a00e-ff99cb2afccb","system_id":"levelo_inurba_marseille","lat":43.33757,"lon":5.37472,"is_reserved":false,"is_disabled":false,"rental_uris":{"android":"levelo://app?vid=32ccdf7b-051d-4d4e-a00e-ff99cb2afccb","ios":"levelo://app?vid=32ccdf7b-051d-4d4e-a00e-ff99cb2afccb"},"vehicle_type_id":"4","last_reported":1718204824,"current_range_meters":28000,"station_id":"","pricing_plan_id":"cebpf4jnsgd1na2vs0mg"},{"bike_id":"404c9df7-7854-41bb-a8ee-894a3e656a74","system_id":"levelo_inurba_marseille","lat":43.3065,"lon":5.40091,"is_reserved":false,"is_disabled":false,"rental_uris":{"android":"levelo://app?vid=404c9df7-7854-41bb-a8ee-894a3e656a74","ios":"levelo://app?vid=404c9df7-7854-41bb-a8ee-894a3e656a74"},"vehicle_type_id":"4","last_reported":1718204824,"current_range_meters":0,"station_id":"ce4bh112rcd13ifvqda0","pricing_plan_id":"cebpf4jnsgd1na2vs0mg"},{"bike_id":"ad66a201-6efe-4d73-836a-976caef4a30e","system_id":"levelo_inurba_marseille","lat":43.3376,"lon":5.37486,"is_reserved":false,"is_disabled":false,"rental_uris":{"android":"levelo://app?vid=ad66a201-6efe-4d73-836a-976caef4a30e","ios":"levelo://app?vid=ad66a201-6efe-4d73-836a-976caef4a30e"},