{"last_updated":1739120833,"ttl":60,"version":"2.2","data":{"bikes":[{"bike_id":"e5b37ce9-fb7a-4f7f-ab4f-03eea98d5a6a","system_id":"levelo_inurba_marseille","lat":43.29851,"lon":5.36284,"is_reserved":false,"is_disabled":false,"rental_uris":{"android":"levelo://app?vid=e5b37ce9-fb7a-4f7f-ab4f-03eea98d5a6a","ios":"levelo://app?vid=e5b37ce9-fb7a-4f7f-ab4f-03eea98d5a6a"},"vehicle_type_id":"4","last_reported":1739120833,"current_range_meters":34000,"station_id":"ce4bgpp2rcd13ifvqc3g","pricing_plan_id":"cebpf4jnsgd1na2vs0mg"},{"bike_id":"24e6347d-30fc-429d-a054-000bdfd80c76","system_id":"levelo_inurba_marseille","lat":43.2828,"lon":5.35048,"is_reserved":false,"is_disabled":false,"rental_uris":{"android":"levelo://app?vid=24e6347d-30fc-429d-a054-000bdfd80c76","ios":"levelo://app?vid=24e6347d-30fc-429d-a054-000bdfd80c76"},"vehicle_type_id":"4","last_reported":1739120833,"current_range_meters":34800,"station_id":"ce4bhbp2rcd13ifvqerg","pricing_plan_id":"cebpf4jnsgd1na2vs0mg"},{"bike_id":"34f89a3c-0a6b-434e-b1e0-a2cb7c797a75","system_id":"levelo_inurba_marseille","lat":43.2904,"lon":5.39964,"is_reserved":false,"is_disabled":false,"rental_uris":{"android":"levelo://app?vid=34f89a3c-0a6b-434e-b1e0-a2cb7c797a75","ios":"levelo://app?vid=34f89a3c-0a6b-434e-b1e0-a2cb7c797a75"},"vehicle_type_id":"4","last_reported":1739120833,"current_range_meters":24000,"station_id":"ce4bh392rcd13ifvqdm0","pricing_plan_id":"cebpf4jnsgd1na2vs0mg"},{"bike_id":"cfa7f1cc-5150-48ed-843c-f6960ddad1e1","system_id":"levelo_inurba_marseille","lat":43.26499,"lon":5.39534,"is_reserved":false,"is_disabled":true,"rental_uris":{"android":"levelo://app?vid=cfa7f1cc-5150-48ed-843c-f6960ddad1e1","ios":"levelo://app?vid=cfa7f1cc-5150-48ed-843c-f6960ddad1e1"},"vehicle_type_id":"4","last_reported":1739120833,"current_range_meters":8800,"station_id":"ce4bhi12rcd13ifvqfq0","pricing_plan_id":"cebpf4jnsgd1na2vs0mg"},{"bike_id":"943d8209-048e-421e-aa38-0e2000721ff4","system_id":"levelo_inurba_marseille","lat":43.3014,"lon":5.38765,"is_reserved":false,"is_disabled":false,"rental_uris":{"android":"levelo://app?vid=943d8209-048e-421e-aa38-0e2000721ff4","ios":"levelo://app?vid=943d8209-048e-421e-aa38-0e2000721ff4"},"vehicle_type_id":"4","last_reported":1739120833,"current_range_meters":32800,"station_id":"ce4bhoh2rcd13ifvqh6g","pricing_plan_id":"cebpf4jnsgd1na2vs0mg"},{"bike_id":"e06bad01-5d50-47d2-96c7-a75ef9dc120d","system_id":"levelo_inurba_marseille","lat":43.3377,"lon":5.37484,"is_reserved":false,"is_disabled":false,"rental_uris":{"android":"levelo://app?vid=e06bad01-5d50-47d2-96c7-a75ef9dc120d","ios":"levelo://app?vid=e06bad01-5d50-47d2-96c7-a75ef9dc120d"},"vehicle_type_id":"4","last_reported":1739120833,"current_range_meters":19200,"station_id":"","pricing_plan_id":"cebpf4jnsgd1na2vs0mg"},{"bike_id":"b52bc5ba-e8a5-4e46-a183-e23dab8a46a6","system_id":"levelo_inurba_marseille","lat":43.2902,"lon":5.38137,"is_reserved":false,"is_disabled":false,"rental_uris":{"android":"levelo://app?vid=b52bc5ba-e8a5-4e46-a183-e23dab8a46a6","ios":"levelo://app?vid=b52bc5ba-e8a5-4e46-a183-e23dab8a46a6"},"vehicle_type_id":"4","last_reported":1739120833,"current_range_meters":6800,"station_id":"ce4bh4p2rcd13ifvqe1g","pricing_plan_id":"cebpf4jnsgd1na2vs0mg"},{"bike_id":"b225a116-2b93-4007-b200-ac7139df231c","system_id":"levelo_inurba_marseille","lat":43.28468,"lon":5.35893,"is_reserved":false,"is_disabled":true,"rental_uris":{"android":"levelo://app?vid=b225a116-2b93-4007-b200-ac7139df231c","ios":"levelo://app?vid=b225a116-2b93-4007-b200-ac7139df231c"},"vehicle_type_id":"4","last_reported":1739120833,"current_range_meters":0,"station_id":"ce4bhah2rcd13ifvqei0","pricing_plan_id":"cebpf4jnsgd1na2vs0mg"},{"bike_id":"952ab6ee-c71f-431a-a116-28c771dc3a24","system_id":"levelo_inurba_marseille","lat":43.27949,"lon":5.41041,"is_reserved":false,"is_disabled":true,"rental_uris":{"android":"levelo://app?vid=952ab6ee-c71f-431a-a116-28c771dc3a24","ios":"levelo://app?vid=952ab6ee-c71f-431a-a116-28c771dc3a24"},"vehicle_type_id":"4","last_reported":1739120833,"current_range_meters":0,"station_id":"ce4bhnp2rcd13ifvqh0g","pricing_plan_id":"cebpf4jnsgd1na2vs0mg"},{"bike_id":"61bd3ba8-3f1b-462c-bd27-2990c5200ab5","system_id":"levelo_inurba_marseille","lat":43.29572,"lon":5.3999,"is_reserved":false,"is_disabled":false,"rental_uris":{"android":"levelo://app?vid=61bd3ba8-3f1b-462c-bd27-2990c5200ab5","ios":"levelo://app?vid=61bd3ba8-3f1b-462c-bd27-2990c5200ab5"},"vehicle_type_id":"4","last_reported":1739120833,"current_range_meters":32400,"station_id":"ce4bh312rcd13ifvqdj0","pricing_plan_id":"cebpf4jnsgd1na2vs0mg"},{"bike_id":"1b516083-7142-4596-8591-4acfa89a635a","system_id":"levelo_inurba_marseille","lat":43.24672,"lon":5.38162,"is_reserved":false,"is_disabled":false,"rental_uris":{"android":"levelo://app?vid=1b516083-7142-4596-8591-4acfa89a635a","ios":"levelo://app?vid=1b516083-7142-4596-8591-4acfa89a635a"},"vehicle_type_id":"4","last_reported":1739120833,"current_range_meters":32000,"station_id":"ce4bhih2rcd13ifvqfr0","pricing_plan_id":"cebpf4jnsgd1na2vs0mg"},{"bike_id":"51ac1354-bc11-4c31-af3b-389c9e47fe8c","system_id":"levelo_inurba_marseille","lat":43.29542,"lon":5.37493,"is_reserved":false,"is_disabled":false,"rental_uris":{"android":"levelo://app?vid=51ac1354-bc11-4c31-af3b-389c9e47fe8c","ios":"levelo://app?vid=51ac1354-bc11-4c31-af3b-389c9e47fe8c"},"vehicle_type_id":"4","last_reported":1739120833,"current_range_meters":16400,"station_id":"ce4bgkp2rcd13ifvqbmg","pricing_plan_id":"cebpf4jnsgd1na2vs0mg"},{"bike_id":"b88b858d-66d2-4372-a868-6bbc5891c859","system_id":"levelo_inurba_marseille","lat":43.29528,"lon":5.38541,"is_reserved":false,"is_disabled":false,"rental_uris":{"android":"levelo://app?vid=b88b858d-66d2-4372-a868-6bbc5891c859","ios":"levelo://app?vid=b88b858d-66d2-4372-a868-6bbc5891c859"},"vehicle_type_id":"4","last_reported":1739120833,"current_range_meters":11200,"station_id":"ce4bgih2rcd13ifvqba0","pricing_plan_id":"cebpf4jnsgd1na2vs0mg"},{"bike_id":"949ecb89-56e4-4c04-a100-83de2f0eaaf9","system_id":"levelo_inurba_marseille","lat":43.27818,"lon":5.40712,"is_reserved":false,"is_disabled":false,"rental_uris":{"android":"levelo://app?vid=949ecb89-56e4-4c04-a100-83de2f0eaaf9","ios":"levelo://app?vid=949ecb89-56e4-4c04-a100-83de2f0eaaf9"},"vehicle_type_id":"4","last_reported":1739120833,"current_range_meters":24400,"station_id":"ce4bhnh2rcd13ifvqgtg","pricing_plan_id":"cebpf4jnsgd1na2vs0mg"},{"bike_id":"eb195ab6-3bbe-4106-9460-2e502a80f530","system_id":"levelo_inurba_marseille","lat":43.298398,"lon":5.380968,"is_reserved":false,"is_disabled":false,"rental_uris":{"android":"levelo://app?vid=eb195ab6-3bbe-4106-9460-2e502a80f530","ios":"levelo://app?vid=eb195ab6-3bbe-4106-9460-2e502a80f530"},"vehicle_type_id":"4","last_reported":1739120833,"current_range_meters":24000,"station_id":"ce4bgip2rcd13ifvqbb0","pricing_plan_id":"cebpf4jnsgd1na2vs0mg"},{"bike_id":"f601bf7c-5f74-4563-a92a-d114947f6394","system_id":"levelo_inurba_marseille","lat":43.27218,"lon":5.39189,"is_reserved":false,"is_disabled":false,"rental_uris":{"android":"levelo://app?vid=f601bf7c-5f74-4563-a92a-d114947f6394","ios":"levelo://app?vid=f601bf7c-5f74-4563-a92a-d114947f6394"},"vehicle_type_id":"4","last_reported":1739120833,"current_range_meters":10000,"station_id":"ce4bhhp2rcd13ifvqfm0","pricing_plan_id":"cebpf4jnsgd1na2vs0mg"},{"bike_id":"d9cdfb89-a9bf-43a4-971e-da8270aa6508","system_id":"levelo_inurba_marseille","lat":43.29225,"lon":5.36065,"is_reserved":false,"is_disabled":false,"rental_uris":{"android":"levelo://app?vid=d9cdfb89-a9bf-43a4-971e-da8270aa6508","ios":"levelo://app?vid=d9cdfb89-a9bf-43a4-971e-da8270aa6508"},"vehicle_type_id":"4","last_reported":1739120833,"current_range_meters":36800,"station_id":"ce4bhbh2rcd13ifvqeqg","pricing_plan_id":"cebpf4jnsgd1na2vs0mg"},{"bike_id":"85871f00-11a0-4c2c-a01a-9516e0167395","system_id":"levelo_inurba_marseille","lat":43.30534,"lon":5.38423,"is_reserved":false,"is_disabled":false,"rental_uris":{"android":"levelo://app?vid=85871f00-11a0-4c2c-a01a-9516e0167395","ios":"levelo://app?vid=85871f00-11a0-4c2c-a01a-9516e0167395"},"vehicle_type_id":"4","last_reported":1739120833,"current_range_meters":36000,"station_id":"ce4bgg92rcd13ifvqb30","pricing_plan_id":"cebpf4jnsgd1na2vs0mg"},{"bike_id":"cc5be222-f5b9-4564-8357-792e36ef3901","system_id":"levelo_inurba_marseille","lat":43.28046,"lon":5.36955,"is_reserved":false,"is_disabled":false,"rental_uris":{"android":"levelo://app?vid=cc5be222-f5b9-4564-8357-792e36ef3901","ios":"levelo://app?vid=cc5be222-f5b9-4564-8357-792e36ef3901"},"vehicle_type_id":"4","last_reported":1739120833,"current_range_meters":38800,"station_id":"ce4bha12rcd13ifvqef0","pricing_plan_id":"cebpf4jnsgd1na2vs0mg"},{"bike_id":"bf1166a6-6d02-4b59-a461-8ee8d9697ddf","system_id":"levelo_inurba_marseille","lat":43.23963,"lon":5.36635,"is_reserved":false,"is_disabled":false,"rental_uris":{"android":"levelo://app?vid=bf1166a6-6d02-4b59-a461-8ee8d9697ddf","ios":"levelo://app?vid=bf1166a6-6d02-4b59-a461-8ee8d9697ddf"},"vehicle_type_id":"4","last_reported":1739120833,"current_range_meters":38800,"station_id":"ce4bhi12rcd13ifvqfp0","pricing_plan_id":"cebpf4jnsgd1na2vs0mg"},{"bike_id":"84632040-162e-400f-b949-c724d6e1e087","system_id":"levelo_inurba_marseille","lat":43.26214,"lon":5.37439,"is_reserved":false,"is_disabled":false,"rental_uris":{"android":"levelo://app?vid=84632040-162e-400f-b949-c724d6e1e087","ios":"levelo://app?vid=84632040-162e-400f-b949-c724d6e1e087"},"vehicle_type_id":"4","last_reported":1739120833,"current_range_meters":26800,"station_id":"ce4bhgp2rcd13ifvqfc0","pricing_plan_id":"cebpf4jnsgd1na2vs0mg"},{"bike_id":"ba1ebe5a-323a-47ab-a3ea-316ca2c55d7a","system_id":"levelo_inurba_marseille","lat":43.29273,"lon":5.36847,"is_reserved":false,"is_disabled":true,"rental_uris":{"android":"levelo://app?vid=ba1ebe5a-323a-47ab-a3ea-316ca2c55d7a","ios":"levelo://app?vid=ba1ebe5a-323a-47ab-a3ea-316ca2c55d7a"},"vehicle_type_id":"4","last_reported":1739120833,"current_range_meters":0,"station_id":"ce4bhbp2rcd13ifvqesg","pricing_plan_id":"cebpf4jnsgd1na2vs0mg"},{"bike_id":"c7214087-f338-4aa0-87d4-4c782ee32a35","system_id":"levelo_inurba_marseille","lat":43.239654,"lon":5.366286,"is_reserved":false,"is_disabled":false,"rental_uris":{"android":"levelo://app?vid=c7214087-f338-4aa0-87d4-4c782ee32a35","ios":"levelo://app?vid=c7214087-f338-4aa0-87d4-4c782ee32a35"},"vehicle_type_id":"4","last_reported":1739120833,"current_range_meters":11200,"station_id":"ce4bhi12rcd13ifvqfp0","pricing_plan_id":"cebpf4jnsgd1na2vs0mg"},{"bike_id":"9232cd87-0823-43a9-b923-e060fb0c5759","system_id":"levelo_inurba_marseille","lat":43.29547,"lon":5.42299,"is_reserved":false,"is_disabled":false,"rental_uris":{"android":"levelo://app?vid=9232cd87-0823-43a9-b923-e060fb0c5759","ios":"levelo://app?vid=9232cd87-0823-43a9-b923-e060fb0c5759"},"vehicle_type_id":"4","last_reported":1739120833,"current_range_meters":37600,"station_id":"ce4bhph2rcd13ifvqhdg","pricing_plan_id":"cebpf4jnsgd1na2vs0mg"},{"bike_id":"9fc8715c-1f2d-42c5-9ab4-6c7456cd97de","system_id":"levelo_inurba_marseille","lat":43.26592,"lon":5.39274,"is_reserved":false,"is_disabled":false,"rental_uris":{"android":"levelo://app?vid=9fc8715c-1f2d-42c5-9ab4-6c7456cd97de","ios":"levelo://app?vid=9fc8715c-1f2d-42c5-9ab4-6c7456cd97de"},"vehicle_type_id":"4","last_reported":1739120833,"current_range_meters":9600,"station_id":"","pricing_plan_id":"cebpf4jnsgd1na2vs0mg"},{"bike_id":"1b91739e-6bd2-4273-8c8f-c0534d5b551b","system_id":"levelo_inurba_marseille","lat":43.23971,"lon":5.36615,"is_reserved":false,"is_disabled":false,"rental_uris":{"android":"levelo://app?vid=1b91739e-6bd2-4273-8c8f-c0534d5b551b","ios":"levelo://app?vid=1b91739e-6bd2-4273-8c8f-c0534d5b551b"},"vehicle_type_id":"4","last_reported":1739120833,"current_range_meters":28800,"station_id":"ce4bhi12rcd13ifvqfp0","pricing_plan_id":"cebpf4jnsgd1na2vs0mg"},{"bike_id":"55ba3a08-bea6-437b-ad0a-1c5cf017ba77","system_id":"levelo_inurba_marseille","lat":43.31172,"lon":5.38715,"is_reserved":false,"is_disabled":false,"rental_uris":{"android":"levelo://app?vid=55ba3a08-bea6-437b-ad0a-1c5cf017ba77","ios":"levelo://app?vid=55ba3a08-bea6-437b-ad0a-1c5cf017ba77"},"vehicle_type_id":"4","last_reported":1739120833,"current_range_meters":6000,"station_id":"ce4bgv12rcd13ifvqcp0","pricing_plan_id":"cebpf4jnsgd1na2vs0mg"},{"bike_id":"2a1c9d4e-b987-4101-9d91-0ba238bcf302","system_id":"levelo_inurba_marseille","lat":43.27211,"lon":5.39174,"is_reserved":false,"is_disabled":false,"rental_uris":{"android":"levelo://app?vid=2a1c9d4e-b987-4101-9d91-0ba238bcf302","ios":"levelo://app?vid=2a1c9d4e-b987-4101-9d91-0ba238bcf302"},"vehicle_type_id":"4","last_reported":1739120833,"current_range_meters":25200,"station_id":"ce4bhhp2rcd13ifvqfm0","pricing_plan_id":"cebpf4jnsgd1na2vs0mg"},{"bike_id":"2d6a2e4c-47bb-4bf8-8e22-1e9c987f8b16","system_id":"levelo_inurba_marseille","lat":43.23963,"lon":5.36639,"is_reserved":false,"is_disabled":false,"rental_uris":{"android":"levelo://app?vid=2d6a2e4c-47bb-4bf8-8e22-1e9c987f8b16","ios":"levelo://app?vid=2d6a2e4c-47bb-4bf8-8e22-1e9c987f8b16"},"vehicle_type_id":"4","last_reported":1739120833,"current_range_meters":7200,"station_id":"ce4bhi12rcd13ifvqfp0","pricing_plan_id":"cebpf4jnsgd1na2vs0mg"},{"bike_id":"1c74561b-a6f6-4c2e-bc62-f72ba306b05e","system_id":"levelo_inurba_marseille","lat":43.28435,"lon":5.39192,"is_reserved":false,"is_disabled":false,"rental_uris":{"android":"levelo://app?vid=1c74561b-a6f6-4c2e-bc62-f72ba306b05e","ios":"levelo://app?vid=1c74561b-a6f6-4c2e-bc62-f72ba306b05e"},"vehicle_type_id":"4","last_reported":1739120833,"current_range_meters":38800,"station_id":"ce4bhoh2rcd13ifvqh5g","pricing_plan_id":"cebpf4jnsgd1na2vs0mg"},{"bike_id":"9219abd9-e848-400e-887a-46b3b48a5124","system_id":"levelo_inurba_marseille","lat":43.28658,"lon":5.3636,"is_reserved":false,"is_disabled":false,"rental_uris":{"android":"levelo://app?vid=9219abd9-e848-400e-887a-46b3b48a5124","ios":"levelo://app?vid=9219abd9-e848-400e-887a-46b3b48a5124"},"vehicle_type_id":"4","last_reported":1739120833,"current_range_meters":19200,"station_id":"ce4bhah2rcd13ifvqej0","pricing_plan_id":"cebpf4jnsgd1na2vs0mg"},{"bike_id":"22cdd1aa-2308-4e05-9d70-c93caf2f7a55","system_id":"levelo_inurba_marseille","lat":43.30798,"lon":5.3815,"is_reserved":false,"is_disabled":false,"rental_uris":{"android":"levelo://app?vid=22cdd1aa-2308-4e05-9d70-c93caf2f7a55","ios":"levelo://app?vid=22cdd1aa-2308-4e05-9d70-c93caf2f7a55"},"vehicle_type_id":"4","last_reported":1739120833,"current_range_meters":38800,"station_id":"ce4bgt12rcd13ifvqce0","pricing_plan_id":"cebpf4jnsgd1na2vs0mg"},{"bike_id":"c53aabef-2f2b-4451-8277-85a4bfc94fb8","system_id":"levelo_inurba_marseille","lat":43.27567,"lon":5.3842,"is_reserved":false,"is_disabled":false,"rental_uris":{"android":"levelo://app?vid=c53aabef-2f2b-4451-8277-85a4bfc94fb8","ios":"levelo://app?vid=c53aabef-2f2b-4451-8277-85a4bfc94fb8"},"vehicle_type_id":"4","last_reported":1739120833,"current_range_meters":30000,"station_id":"ce4bh512rcd13ifvqe3g","pricing_plan_id":"cebpf4jnsgd1na2vs0mg"},{"bike_id":"ecdc2c1c-a479-46bb-a6b7-dbc77a937bb6","system_id":"levelo_inurba_marseille","lat":43.29369,"lon":5.37864,"is_reserved":false,"is_disabled":false,"rental_uris":{"android":"levelo://app?vid=ecdc2c1c-a479-46bb-a6b7-dbc77a937bb6","ios":"levelo://app?vid=ecdc2c1c-a479-46bb-a6b7-dbc77a937bb6"},"vehicle_type_id":"4","last_reported":1739120833,"current_range_meters":37600,"station_id":"ce4bgjh2rcd13ifvqbf0","pricing_plan_id":"cebpf4jnsgd1na2vs0mg"},{"bike_id":"3ba26bce-5451-4186-8570-150535f6ec60","system_id":"levelo_inurba_marseille","lat":43.29188,"lon":5.35799,"is_reserved":false,"is_disabled":true,"rental_uris":{"android":"levelo://app?vid=3ba26bce-5451-4186-8570-150535f6ec60","ios":"levelo://app?vid=3ba26bce-5451-4186-8570-150535f6ec60"},"vehicle_type_id":"4","last_reported":1739120833,"current_range_meters":38800,"station_id":"ce4bhb12rcd13ifvqel0","pricing_plan_id":"cebpf4jnsgd1na2vs0mg"},{"bike_id":"4a4bde4d-ebaf-497c-9433-602988098783","system_id":"levelo_inurba_marseille","lat":43.25082,"lon":5.39516,"is_reserved":false,"is_disabled":false,"rental_uris":{"android":"levelo://app?vid=4a4bde4d-ebaf-497c-9433-602988098783","ios":"levelo://app?vid=4a4bde4d-ebaf-497c-9433-602988098783"},"vehicle_type_id":"4","last_reported":1739120833,"current_range_meters":24800,"station_id":"ce4bhm12rcd13ifvqgkg","pricing_plan_id":"cebpf4jnsgd1na2vs0mg"},{"bike_id":"156ea94b-36f5-4ee3-b1b2-16c507ebbc8e","system_id":"levelo_inurba_marseille","lat":43.23965,"lon":5.36633,"is_reserved":false,"is_disabled":false,"rental_uris":{"android":"levelo://app?vid=156ea94b-36f5-4ee3-b1b2-16c507ebbc8e","ios":"levelo://app?vid=156ea94b-36f5-4ee3-b1b2-16c507ebbc8e"},"vehicle_type_id":"4","last_reported":1739120833,"current_range_meters":34000,"station_id":"ce4bhi12rcd13ifvqfp0","pricing_plan_id":"cebpf4jnsgd1na2vs0mg"},{"bike_id":"9df38358-dc46-4f2e-aec9-85e112e02351","system_id":"levelo_inurba_marseille","lat":43.26552,"lon":5.37288,"is_reserved":false,"is_disabled":true,"rental_uris":{"android":"levelo://app?vid=9df38358-dc46-4f2e-aec9-85e112e02351","ios":"levelo://app?vid=9df38358-dc46-4f2e-aec9-85e112e02351"},"vehicle_type_id":"4","last_reported":1739120833,"current_range_meters":33600,"station_id":"ce4bhg12rcd13ifvqf70","pricing_plan_id":"cebpf4jnsgd1na2vs0mg"},{"bike_id":"109d8d07-d605-45c4-912d-3e7b38f9a9ae","system_id":"levelo_inurba_marseille","lat":43.24168,"lon":5.36402,"is_reserved":false,"is_disabled":false,"rental_uris":{"android":"levelo://app?vid=109d8d07-d605-45c4-912d-3e7b38f9a9ae","ios":"levelo://app?vid=109d8d07-d605-45c4-912d-3e7b38f9a9ae"},"vehicle_type_id":"4","last_reported":1739120833,"current_range_meters":38800,"station_id":"cpo36qri1sfpv3e86is0","pricing_plan_id":"cebpf4jnsgd1na2vs0mg"},{"bike_id":"eeada6f9-bc17-47bf-a657-75c63cc565ad","system_id":"levelo_inurba_marseille","lat":43.29001,"lon":5.35614,"is_reserved":false,"is_disabled":true,"rental_uris":{"android":"levelo://app?vid=eeada6f9-bc17-47bf-a657-75c63cc565ad","ios":"levelo://app?vid=eeada6f9-bc17-47bf-a657-75c63cc565ad"},"vehicle_type_id":"4","last_reported":1739120833,"current_range_meters":38400,"station_id":"ce4bhb92rcd13ifvqen0","pricing_plan_id":"cebpf4jnsgd1na2vs0mg"},{"bike_id":"269dd3b4-e763-4e17-8d33-189b76fc9948","system_id":"levelo_inurba_marseille","lat":43.33024,"lon":5.3904,"is_reserved":false,"is_disabled":false,"rental_uris":{"android":"levelo://app?vid=269dd3b4-e763-4e17-8d33-189b76fc9948","ios":"levelo://app?vid=269dd3b4-e763-4e17-8d33-189b76fc9948"},"vehicle_type_id":"4","last_reported":1739120833,"current_range_meters":13600,"station_id":"ce4bhr92rcd13ifvqhrg","pricing_plan_id":"cebpf4jnsgd1na2vs0mg"},{"bike_id":"2ebd233c-fd15-4f13-9700-c155c053523f","system_id":"levelo_inurba_marseille","lat":43.259292,"lon":5.408956,"is_reserved":false,"is_disabled":true,"rental_uris":{"android":"levelo://app?vid=2ebd233c-fd15-4f13-9700-c155c053523f","ios":"levelo://app?vid=2ebd233c-fd15-4f13-9700-c155c053523f"},"vehicle_type_id":"4","last_reported":1739120833,"current_range_meters":18000,"station_id":"ce4bhm92rcd13ifvqglg","pricing_plan_id":"cebpf4jnsgd1na2vs0mg"},{"bike_id":"0de50350-ec29-43fe-9d69-64305045bebf","system_id":"levelo_inurba_marseille","lat":43.30212,"lon":5.39472,"is_reserved":false,"is_disabled":false,"rental_uris":{"android":"levelo://app?vid=0de50350-ec29-43fe-9d69-64305045bebf","ios":"levelo://app?vid=0de50350-ec29-43fe-9d69-64305045bebf"},"vehicle_type_id":"4","last_reported":1739120833,"current_range_meters":16400,"station_id":"ce4bh0p2rcd13ifvqd70","pricing_plan_id":"cebpf4jnsgd1na2vs0mg"},{"bike_id":"af559d3f-35af-4704-a1ef-deb40202e2e8","system_id":"levelo_inurba_marseille","lat":43.2512,"lon":5.40323,"is_reserved":false,"is_disabled":false,"rental_uris":{"android":"levelo://app?vid=af559d3f-35af-4704-a1ef-deb40202e2e8","ios":"levelo://app?vid=af559d3f-35af-4704-a1ef-deb40202e2e8"},"vehicle_type_id":"4","last_reported":1739120833,"current_range_meters":29600,"station_id":"ce4bhlh2rcd13ifvqgig","pricing_plan_id":"cebpf4jnsgd1na2vs0mg"},{"bike_id":"d3fc1892-4ecc-4415-880c-665bb9b87473","system_id":"levelo_inurba_marseille","lat":43.29048,"lon":5.359,"is_reserved":false,"is_disabled":true,"rental_uris":{"android":"levelo://app?vid=d3fc1892-4ecc-4415-880c-665bb9b87473","ios":"levelo://app?vid=d3fc1892-4ecc-4415-880c-665bb9b87473"},"vehicle_type_id":"4","last_reported":1739120833,"current_range_meters":0,"station_id":"ce4bha92rcd13ifvqeg0","pricing_plan_id":"cebpf4jnsgd1na2vs0mg"},{"bike_id":"c13ae62e-d5d6-4d3f-b979-0be4fe4644ed","system_id":"levelo_inurba_marseille","lat":43.24663,"lon":5.38154,"is_reserved":false,"is_disabled":false,"rental_uris":{"android":"levelo://app?vid=c13ae62e-d5d6-4d3f-b979-0be4fe4644ed","ios":"levelo://app?vid=c13ae62e-d5d6-4d3f-b979-0be4fe4644ed"},"vehicle_type_id":"4","last_reported":1739120833,"current_range_meters":14400,"station_id":"ce4bhih2rcd13ifvqfr0","pricing_plan_id":"cebpf4jnsgd1na2vs0mg"},{"bike_id":"54f824a9-c6c7-4503-a444-7fbb0785598b","system_id":"levelo_inurba_marseille","lat":43.29029,"lon":5.38636,"is_reserved":false,"is_disabled":false,"rental_uris":{"android":"levelo://app?vid=54f824a9-c6c7-4503-a444-7fbb0785598b","ios":"levelo://app?vid=54f824a9-c6c7-4503-a444-7fbb0785598b"},"vehicle_type_id":"4","last_reported":1739120833,"current_range_meters":3600,"station_id":"ce4bh4p2rcd13ifvqe0g","pricing_plan_id":"cebpf4jnsgd1na2vs0mg"},{"bike_id":"2ba197c5-59fe-4a9c-ba96-b1806efdcd97","system_id":"levelo_inurba_marseille","lat":43.24177,"lon":5.39722,"is_reserved":false,"is_disabled":false,"rental_uris":{"android":"levelo://app?vid=2ba197c5-59fe-4a9c-ba96-b1806efdcd97","ios":"levelo://app?vid=2ba197c5-59fe-4a9c-ba96-b1806efdcd97"},"vehicle_type_id":"4","last_reported":1739120833,"current_range_meters":8800,"station_id":"ce4bhn12rcd13ifvqgpg","pricing_plan_id":"cebpf4jnsgd1na2vs0mg"},{"bike_id":"1d9b9c9d-363a-40b7-904e-bb37859e7849","system_id":"levelo_inurba_marseille","lat":43.248124,"lon":5.374575,"is_reserved":false,"is_disabled":false,"rental_uris":{"android":"levelo://app?vid=1d9b9c9d-363a-40b7-904e-bb37859e7849","ios":"levelo://app?vid=1d9b9c9d-363a-40b7-904e-bb37859e7849"},"vehicle_type_id":"4","last_reported":1739120833,"current_range_meters":24000,"station_id":"ce4bhgh2rcd13ifvqfb0","pricing_plan_id":"cebpf4jnsgd1na2vs0mg"},{"bike_id":"d673d385-256b-4786-9ff8-e7f9b22ac5f8","system_id":"levelo_inurba_marseille","lat":43.23954,"lon":5.36632,"is_reserved":false,"is_disabled":false,"rental_uris":{"android":"levelo://app?vid=d673d385-256b-4786-9ff8-e7f9b22ac5f8","ios":"levelo://app?vid=d673d385-256b-4786-9ff8-e7f9b22ac5f8"},"vehicle_type_id":"4","last_reported":1739120833,"current_range_meters":36800,"station_id":"ce4bhi12rcd13ifvqfp0","pricing_plan_id":"cebpf4jnsgd1na2vs0mg"},{"bike_id":"5e564748-711f-4e92-b9a9-ea5eccfa8057","system_id":"levelo_inurba_marseille","lat":43.28273,"lon":5.35065,"is_reserved":false,"is_disabled":false,"rental_uris":{"android":"levelo://app?vid=5e564748-711f-4e92-b9a9-ea5eccfa8057","ios":"levelo://app?vid=5e564748-711f-4e92-b9a9-ea5eccfa8057"},"vehicle_type_id":"4","last_reported":1739120833,"current_range_meters":7200,"station_id":"ce4bhbp2rcd13ifvqerg","pricing_plan_id":"cebpf4jnsgd1na2vs0mg"},{"bike_id":"c3297162-1cce-4aee-9ab9-0cb6b8c8d4b6","system_id":"levelo_inurba_marseille","lat":43.29542,"lon":5.42269,"is_reserved":false,"is_disabled":false,"rental_uris":{"android":"levelo://app?vid=c3297162-1cce-4aee-9ab9-0cb6b8c8d4b6","ios":"levelo://app?vid=c3297162-1cce-4aee-9ab9-0cb6b8c8d4b6"},"vehicle_type_id":"4","last_reported":1739120833,"current_range_meters":34000,"station_id":"ce4bhph2rcd13ifvqhdg","pricing_plan_id":"cebpf4jnsgd1na2vs0mg"},{"bike_id":"89912e32-c5f0-448f-82d2-e236e4d6d653","system_id":"levelo_inurba_marseille","lat":43.28266,"lon":5.40799,"is_reserved":false,"is_disabled":true,"rental_uris":{"android":"levelo://app?vid=89912e32-c5f0-448f-82d2-e236e4d6d653","ios":"levelo://app?vid=89912e32-c5f0-448f-82d2-e236e4d6d653"},"vehicle_type_id":"4","last_reported":1739120833,"current_range_meters":0,"station_id":"","pricing_plan_id":"cebpf4jnsgd1na2vs0mg"},{"bike_id":"44672e44-4fe2-4681-af0f-355cfa954cd4","system_id":"levelo_inurba_marseille","lat":43.30885,"lon":5.37198,"is_reserved":false,"is_disabled":false,"rental_uris":{"android":"levelo://app?vid=44672e44-4fe2-4681-af0f-355cfa954cd4","ios":"levelo://app?vid=44672e44-4fe2-4681-af0f-355cfa954cd4"},"vehicle_type_id":"4","last_reported":1739120833,"current_range_meters":20400,"station_id":"ce4bguh2rcd13ifvqckg","pricing_plan_id":"cebpf4jnsgd1na2vs0mg"},{"bike_id":"e7e14db6-3bef-453a-aab6-06ade3cdd6b0","system_id":"levelo_inurba_marseille","lat":43.24397,"lon":5.44098,"is_reserved":false,"is_disabled":true,"rental_uris":{"android":"levelo://app?vid=e7e14db6-3bef-453a-aab6-06ade3cdd6b0","ios":"levelo://app?vid=e7e14db6-3bef-453a-aab6-06ade3cdd6b0"},"vehicle_type_id":"4","last_reported":1739120833,"current_range_meters":0,"station_id":"","pricing_plan_id":"cebpf4jnsgd1na2vs0mg"},{"bike_id":"c7928b14-6fcc-4304-93d1-c4048700e401","system_id":"levelo_inurba_marseille","lat":43.26212,"lon":5.37946,"is_reserved":false,"is_disabled":false,"rental_uris":{"android":"levelo://app?vid=c7928b14-6fcc-4304-93d1-c4048700e401","ios":"levelo://app?vid=c7928b14-6fcc-4304-93d1-c4048700e401"},"vehicle_type_id":"4","last_reported":1739120833,"current_range_meters":36800,"station_id":"ce4bhjp2rcd13ifvqg90","pricing_plan_id":"cebpf4jnsgd1na2vs0mg"},{"bike_id":"fb5a704f-a51b-458c-a6e9-f5586a789b94","system_id":"levelo_inurba_marseille","lat":43.24177,"lon":5.36382,"is_reserved":false,"is_disabled":false,"rental_uris":{"android":"levelo://app?vid=fb5a704f-a51b-458c-a6e9-f5586a789b94","ios":"levelo://app?vid=fb5a704f-a51b-458c-a6e9-f5586a789b94"},"vehicle_type_id":"4","last_reported":1739120833,"current_range_meters":33200,"station_id":"cpo36qri1sfpv3e86is0","pricing_plan_id":"cebpf4jnsgd1na2vs0mg"},{"bike_id":"99a2797b-392c-45fd-b5b4-178139f4e513","system_id":"levelo_inurba_marseille","lat":43.28941,"lon":5.36398,"is_reserved":false,"is_disabled":false,"rental_uris":{"android":"levelo://app?vid=99a2797b-392c-45fd-b5b4-178139f4e513","ios":"levelo://app?vid=99a2797b-392c-45fd-b5b4-178139f4e513"},"vehicle_type_id":"4","last_reported":1739120833,"current_range_meters":12000,"station_id":"ce4bhc92rcd13ifvqetg","pricing_plan_id":"cebpf4jnsgd1na2vs0mg"},{"bike_id":"bfd84249-0515-4ab9-801d-3a8bb75b155d","system_id":"levelo_inurba_marseille","lat":43.27567,"lon":5.38406,"is_reserved":false,"is_disabled":false,"rental_uris":{"android":"levelo://app?vid=bfd84249-0515-4ab9-801d-3a8bb75b155d","ios":"levelo://app?vid=bfd84249-0515-4ab9-801d-3a8bb75b155d"},"vehicle_type_id":"4","last_reported":1739120833,"current_range_meters":37600,"station_id":"ce4bhh92rcd13ifvqfi0","pricing_plan_id":"cebpf4jnsgd1na2vs0mg"},{"bike_id":"badda3c4-70ef-41fb-b835-c3b6b3ba2d76","system_id":"levelo_inurba_marseille","lat":43.26491,"lon":5.39565,"is_reserved":false,"is_disabled":false,"rental_uris":{"android":"levelo://app?vid=badda3c4-70ef-41fb-b835-c3b6b3ba2d76","ios":"levelo://app?vid=badda3c4-70ef-41fb-b835-c3b6b3ba2d76"},"vehicle_type_id":"4","last_reported":1739120833,"current_range_meters":39200,"station_id":"ce4bhi12rcd13ifvqfq0","pricing_plan_id":"cebpf4jnsgd1na2vs0mg"},{"bike_id":"a9f65387-f128-48a1-bc09-415b86ce9420","system_id":"levelo_inurba_marseille","lat":43.28414,"lon":5.37513,"is_reserved":false,"is_disabled":false,"rental_uris":{"android":"levelo://app?vid=a9f65387-f128-48a1-bc09-415b86ce9420","ios":"levelo://app?vid=a9f65387-f128-48a1-bc09-415b86ce9420"},"vehicle_type_id":"4","last_reported":1739120833,"current_range_meters":10000,"station_id":"ce4bh412rcd13ifvqds0","pricing_plan_id":"cebpf4jnsgd1na2vs0mg"},{"bike_id":"ab54e2d0-4c2c-486a-84c7-811ed9008ddc","system_id":"levelo_inurba_marseille","lat":43.279573,"lon":5.423677,"is_reserved":false,"is_disabled":true,"rental_uris":{"android":"levelo://app?vid=ab54e2d0-4c2c-486a-84c7-811ed9008ddc","ios":"levelo://app?vid=ab54e2d0-4c2c-486a-84c7-811ed9008ddc"},"vehicle_type_id":"4","last_reported":1739120833,"current_range_meters":0,"station_id":"","pricing_plan_id":"cebpf4jnsgd1na2vs0mg"},{"bike_id":"04e9976f-fc67-4b3f-9a5f-08268a5eb49c","system_id":"levelo_inurba_marseille","lat":43.29415,"lon":5.38612,"is_reserved":false,"is_disabled":true,"rental_uris":{"android":"levelo://app?vid=04e9976f-fc67-4b3f-9a5f-08268a5eb49c","ios":"levelo://app?vid=04e9976f-fc67-4b3f-9a5f-08268a5eb49c"},"vehicle_type_id":"4","last_reported":1739120833,"current_range_meters":36800,"station_id":"ce4bh2h2rcd13ifvqdh0","pricing_plan_id":"cebpf4jnsgd1na2vs0mg"},{"bike_id":"187f7315-542f-4fae-914a-26c540b6c098","system_id":"levelo_inurba_marseille","lat":43.30151,"lon":5.38077,"is_reserved":false,"is_disabled":false,"rental_uris":{"android":"levelo://app?vid=187f7315-542f-4fae-914a-26c540b6c098","ios":"levelo://app?vid=187f7315-542f-4fae-914a-26c540b6c098"},"vehicle_type_id":"4","last_reported":1739120833,"current_range_meters":8000,"station_id":"ce4bgjp2rcd13ifvqbh0","pricing_plan_id":"cebpf4jnsgd1na2vs0mg"},{"bike_id":"61b62a5a-5bc2-487b-b92d-7b20142491cd","system_id":"levelo_inurba_marseille","lat":43.28719,"lon":5.40013,"is_reserved":false,"is_disabled":true,"rental_uris":{"android":"levelo://app?vid=61b62a5a-5bc2-487b-b92d-7b20142491cd","ios":"levelo://app?vid=61b62a5a-5bc2-487b-b92d-7b20142491cd"},"vehicle_type_id":"4","last_reported":1739120833,"current_range_meters":38000,"station_id":"ce4bho92rcd13ifvqh3g","pricing_plan_id":"cebpf4jnsgd1na2vs0mg"},{"bike_id":"b5135d91-2dbc-4326-bda2-20e06e74cbe2","system_id":"levelo_inurba_marseille","lat":43.29584,"lon":5.37026,"is_reserved":false,"is_disabled":false,"rental_uris":{"android":"levelo://app?vid=b5135d91-2dbc-4326-bda2-20e06e74cbe2","ios":"levelo://app?vid=b5135d91-2dbc-4326-bda2-20e06e74cbe2"},"vehicle_type_id":"4","last_reported":1739120833,"current_range_meters":15200,"station_id":"","pricing_plan_id":"cebpf4jnsgd1na2vs0mg"},{"bike_id":"28523bca-5996-44f7-a4be-7d72130dbd59","system_id":"levelo_inurba_marseille","lat":43.26215,"lon":5.37467,"is_reserved":false,"is_disabled":false,"rental_uris":{"android":"levelo://app?vid=28523bca-5996-44f7-a4be-7d72130dbd59","ios":"levelo://app?vid=28523bca-5996-44f7-a4be-7d72130dbd59"},"vehicle_type_id":"4","last_reported":1739120833,"current_range_meters":28800,"station_id":"ce4bhgp2rcd13ifvqfc0","pricing_plan_id":"cebpf4jnsgd1na2vs0mg"},{"bike_id":"bb1bab95-412e-41ba-879a-c483b6ec0924","system_id":"levelo_inurba_marseille","lat":43.27811,"lon":5.40717,"is_reserved":false,"is_disabled":false,"rental_uris":{"android":"levelo://app?vid=bb1bab95-412e-41ba-879a-c483b6ec0924","ios":"levelo://app?vid=bb1bab95-412e-41ba-879a-c483b6ec0924"},"vehicle_type_id":"4","last_reported":1739120833,"current_range_meters":8800,"station_id":"ce4bhnh2rcd13ifvqgtg","pricing_plan_id":"cebpf4jnsgd1na2vs0mg"},{"bike_id":"a85326b4-9061-42eb-ae31-588cd48f4bb2","system_id":"levelo_inurba_marseille","lat":43.30957,"lon":5.39047,"is_reserved":false,"is_disabled":false,"rental_uris":{"android":"levelo://app?vid=a85326b4-9061-42eb-ae31-588cd48f4bb2","ios":"levelo://app?vid=a85326b4-9061-42eb-ae31-588cd48f4bb2"},"vehicle_type_id":"4","last_reported":1739120833,"current_range_meters":10000,"station_id":"ce4bgup2rcd13ifvqco0","pricing_plan_id":"cebpf4jnsgd1na2vs0mg"},{"bike_id":"3600cf6e-b370-46a9-a53c-871abbc03398","system_id":"levelo_inurba_marseille","lat":43.28267,"lon":5.35064,"is_reserved":false,"is_disabled":true,"rental_uris":{"android":"levelo://app?vid=3600cf6e-b370-46a9-a53c-871abbc03398","ios":"levelo://app?vid=3600cf6e-b370-46a9-a53c-871abbc03398"},"vehicle_type_id":"4","last_reported":1739120833,"current_range_meters":38800,"station_id":"ce4bhbp2rcd13ifvqerg","pricing_plan_id":"cebpf4jnsgd1na2vs0mg"},{"bike_id":"9ee17cc6-94b6-42f9-a180-22e25ec3ed8d","system_id":"levelo_inurba_marseille","lat":43.28699,"lon":5.37409,"is_reserved":false,"is_disabled":true,"rental_uris":{"android":"levelo://app?vid=9ee17cc6-94b6-42f9-a180-22e25ec3ed8d","ios":"levelo://app?vid=9ee17cc6-94b6-42f9-a180-22e25ec3ed8d"},"vehicle_type_id":"4","last_reported":1739120833,"current_range_meters":38800,"station_id":"ce4bh3p2rcd13ifvqdq0","pricing_plan_id":"cebpf4jnsgd1na2vs0mg"},{"bike_id":"599ac96d-0531-436c-8d87-3a3fbbacb74c","system_id":"levelo_inurba_marseille","lat":43.23148,"lon":5.43699,"is_reserved":false,"is_disabled":true,"rental_uris":{"android":"levelo://app?vid=599ac96d-0531-436c-8d87-3a3fbbacb74c","ios":"levelo://app?vid=599ac96d-0531-436c-8d87-3a3fbbacb74c"},"vehicle_type_id":"4","last_reported":1739120833,"current_range_meters":400,"station_id":"ce4bhmp2rcd13ifvqgog","pricing_plan_id":"cebpf4jnsgd1na2vs0mg"},{"bike_id":"74e6bda3-26a1-463c-b806-0fbe25a13427","system_id":"levelo_inurba_marseille","lat":43.31218,"lon":5.38755,"is_reserved":false,"is_disabled":true,"rental_uris":{"android":"levelo://app?vid=74e6bda3-26a1-463c-b806-0fbe25a13427","ios":"levelo://app?vid=74e6bda3-26a1-463c-b806-0fbe25a13427"},"vehicle_type_id":"4","last_reported":1739120833,"current_range_meters":800,"station_id":"ce4bgt92rcd13ifvqcf0","pricing_plan_id":"cebpf4jnsgd1na2vs0mg"},{"bike_id":"192df136-5dc5-43df-9014-3d79c87ff1d2","system_id":"levelo_inurba_marseille","lat":43.26067,"lon":5.39399,"is_reserved":false,"is_disabled":true,"rental_uris":{"android":"levelo://app?vid=192df136-5dc5-43df-9014-3d79c87ff1d2","ios":"levelo://app?vid=192df136-5dc5-43df-9014-3d79c87ff1d2"},"vehicle_type_id":"4","last_reported":1739120833,"current_range_meters":1200,"station_id":"ce4bhh92rcd13ifvqfj0","pricing_plan_id":"cebpf4jnsgd1na2vs0mg"},{"bike_id":"d106e773-8b67-4ef4-87ba-c46e5d8d3b3e","system_id":"levelo_inurba_marseille","lat":43.2955,"lon":5.3905,"is_reserved":false,"is_disabled":false,"rental_uris":{"android":"levelo://app?vid=d106e773-8b67-4ef4-87ba-c46e5d8d3b3e","ios":"levelo://app?vid=d106e773-8b67-4ef4-87ba-c46e5d8d3b3e"},"vehicle_type_id":"4","last_reported":1739120833,"current_range_meters":22800,"station_id":"ce4bh3p2rcd13ifvqdp0","pricing_plan_id":"cebpf4jnsgd1na2vs0mg"},{"bike_id":"4913b8b5-d6bb-4003-9626-2e55d74c370d","system_id":"levelo_inurba_marseille","lat":43.23957,"lon":5.3663,"is_reserved":false,"is_disabled":false,"rental_uris":{"android":"levelo://app?vid=4913b8b5-d6bb-4003-9626-2e55d74c370d","ios":"levelo://app?vid=4913b8b5-d6bb-4003-9626-2e55d74c370d"},"vehicle_type_id":"4","last_reported":1739120833,"current_range_meters":9600,"station_id":"ce4bhi12rcd13ifvqfp0","pricing_plan_id":"cebpf4jnsgd1na2vs0mg"},{"bike_id":"5fdb6860-5ee3-463b-aea0-6848b9ff5ddc","system_id":"levelo_inurba_marseille","lat":43.26228,"lon":5.40452,"is_reserved":false,"is_disabled":false,"rental_uris":{"android":"levelo://app?vid=5fdb6860-5ee3-463b-aea0-6848b9ff5ddc","ios":"levelo://app?vid=5fdb6860-5ee3-463b-aea0-6848b9ff5ddc"},"vehicle_type_id":"4","last_reported":1739120833,"current_range_meters":22400,"station_id":"ce4bhmh2rcd13ifvqgmg","pricing_plan_id":"cebpf4jnsgd1na2vs0mg"},{"bike_id":"7b25cf1c-0f3a-48e5-bbef-07d9cd55f113","system_id":"levelo_inurba_marseille","lat":43.293669,"lon":5.36923,"is_reserved":false,"is_disabled":false,"rental_uris":{"android":"levelo://app?vid=7b25cf1c-0f3a-48e5-bbef-07d9cd55f113","ios":"levelo://app?vid=7b25cf1c-0f3a-48e5-bbef-07d9cd55f113"},"vehicle_type_id":"4","last_reported":1739120833,"current_range_meters":37600,"station_id":"ce4bhb12rcd13ifvqel0","pricing_plan_id":"cebpf4jnsgd1na2vs0mg"},{"bike_id":"23c9e249-29d6-4963-a0fc-df45ace45f54","system_id":"levelo_inurba_marseille","lat":43.28415,"lon":5.34985,"is_reserved":false,"is_disabled":false,"rental_uris":{"android":"levelo://app?vid=23c9e249-29d6-4963-a0fc-df45ace45f54","ios":"levelo://app?vid=23c9e249-29d6-4963-a0fc-df45ace45f54"},"vehicle_type_id":"4","last_reported":1739120833,"current_range_meters":36400,"station_id":"ce4bhbh2rcd13ifvqepg","pricing_plan_id":"cebpf4jnsgd1na2vs0mg"},{"bike_id":"ad0e719a-8f6d-411c-b994-d08ba46647bb","system_id":"levelo_inurba_marseille","lat":43.2953,"lon":5.39394,"is_reserved":false,"is_disabled":false,"rental_uris":{"android":"levelo://app?vid=ad0e719a-8f6d-411c-b994-d08ba46647bb","ios":"levelo://app?vid=ad0e719a-8f6d-411c-b994-d08ba46647bb"},"vehicle_type_id":"4","last_reported":1739120833,"current_range_meters":34800,"station_id":"ce4bh292rcd13ifvqdf0","pricing_plan_id":"cebpf4jnsgd1na2vs0mg"},{"bike_id":"0ccae692-16fa-48e3-88e0-236b5491d838","system_id":"levelo_inurba_marseille","lat":43.337224,"lon":5.391934,"is_reserved":false,"is_disabled":false,"rental_uris":{"android":"levelo://app?vid=0ccae692-16fa-48e3-88e0-236b5491d838","ios":"levelo://app?vid=0ccae692-16fa-48e3-88e0-236b5491d838"},"vehicle_type_id":"4","last_reported":1739120833,"current_range_meters":38800,"station_id":"ce4bhr92rcd13ifvqhsg","pricing_plan_id":"cebpf4jnsgd1na2vs0mg"},{"bike_id":"3387e857-76e8-4fc1-a1cf-94655f3cc3c6","system_id":"levelo_inurba_marseille","lat":43.23959,"lon":5.36632,"is_reserved":false,"is_disabled":false,"rental_uris":{"android":"levelo://app?vid=3387e857-76e8-4fc1-a1cf-94655f3cc3c6","ios":"levelo://app?vid=3387e857-76e8-4fc1-a1cf-94655f3cc3c6"},"vehicle_type_id":"4","last_reported":1739120833,"current_range_meters":27200,"station_id":"ce4bhi12rcd13ifvqfp0","pricing_plan_id":"cebpf4jnsgd1na2vs0mg"},{"bike_id":"77187281-d145-4340-9b76-1c6ea43773a9","system_id":"levelo_inurba_marseille","lat":43.30146,"lon":5.38077,"is_reserved":false,"is_disabled":false,"rental_uris":{"android":"levelo://app?vid=77187281-d145-4340-9b76-1c6ea43773a9","ios":"levelo://app?vid=77187281-d145-4340-9b76-1c6ea43773a9"},"vehicle_type_id":"4","last_reported":1739120833,"current_range_meters":16400,"station_id":"ce4bgjp2rcd13ifvqbh0","pricing_plan_id":"cebpf4jnsgd1na2vs0mg"},{"bike_id":"fb4ff991-8c44-4e6e-9881-23d19b1c7472","system_id":"levelo_inurba_marseille","lat":43.290985,"lon":5.381486,"is_reserved":false,"is_disabled":true,"rental_uris":{"android":"levelo://app?vid=fb4ff991-8c44-4e6e-9881-23d19b1c7472","ios":"levelo://app?vid=fb4ff991-8c44-4e6e-9881-23d19b1c7472"},"vehicle_type_id":"4","last_reported":1739120833,"current_range_meters":36000,"station_id":"ce4bh512rcd13ifvqe2g","pricing_plan_id":"cebpf4jnsgd1na2vs0mg"},{"bike_id":"11462a5d-f3b5-4ed0-8ffe-90ff24433c8c","system_id":"levelo_inurba_marseille","lat":43.28427,"lon":5.35,"is_reserved":false,"is_disabled":false,"rental_uris":{"android":"levelo://app?vid=11462a5d-f3b5-4ed0-8ffe-90ff24433c8c","ios":"levelo://app?vid=11462a5d-f3b5-4ed0-8ffe-90ff24433c8c"},"vehicle_type_id":"4","last_reported":1739120833,"current_range_meters":25200,"station_id":"ce4bhbh2rcd13ifvqepg","pricing_plan_id":"cebpf4jnsgd1na2vs0mg"},{"bike_id":"a5e98377-243e-431b-9df6-8c74828c4aae","system_id":"levelo_inurba_marseille","lat":43.2707,"lon":5.42284,"is_reserved":false,"is_disabled":false,"rental_uris":{"android":"levelo://app?vid=a5e98377-243e-431b-9df6-8c74828c4aae","ios":"levelo://app?vid=a5e98377-243e-431b-9df6-8c74828c4aae"},"vehicle_type_id":"4","last_reported":1739120833,"current_range_meters":17600,"station_id":"ce4bhk92rcd13ifvqgb0","pricing_plan_id":"cebpf4jnsgd1na2vs0mg"},{"bike_id":"96fe1668-af51-4478-b65e-c78b039aaaeb","system_id":"levelo_inurba_marseille","lat":43.29531,"lon":5.37511,"is_reserved":false,"is_disabled":true,"rental_uris":{"android":"levelo://app?vid=96fe1668-af51-4478-b65e-c78b039aaaeb","ios":"levelo://app?vid=96fe1668-af51-4478-b65e-c78b039aaaeb"},"vehicle_type_id":"4","last_reported":1739120833,"current_range_meters":31200,"station_id":"ce4bgkp2rcd13ifvqbmg","pricing_plan_id":"cebpf4jnsgd1na2vs0mg"},{"bike_id":"4c9c8777-d005-4a22-b914-8a051fe7670d","system_id":"levelo_inurba_marseille","lat":43.24668,"lon":5.38151,"is_reserved":false,"is_disabled":false,"rental_uris":{"android":"levelo://app?vid=4c9c8777-d005-4a22-b914-8a051fe7670d","ios":"levelo://app?vid=4c9c8777-d005-4a22-b914-8a051fe7670d"},"vehicle_type_id":"4","last_reported":1739120833,"current_range_meters":6800,"station_id":"ce4bhih2rcd13ifvqfr0","pricing_plan_id":"cebpf4jnsgd1na2vs0mg"},{"bike_id":"f67b7531-6c63-4f46-a9d4-4fdf588facb0","system_id":"levelo_inurba_marseille","lat":43.27874,"lon":5.40597,"is_reserved":false,"is_disabled":true,"rental_uris":{"android":"levelo://app?vid=f67b7531-6c63-4f46-a9d4-4fdf588facb0","ios":"levelo://app?vid=f67b7531-6c63-4f46-a9d4-4fdf588facb0"},"vehicle_type_id":"4","last_reported":1739120833,"current_range_meters":0,"station_id":"","pricing_plan_id":"cebpf4jnsgd1na2vs0mg"},{"bike_id":"28bc2108-0dbe-4972-a4ae-3060201c5ec2","system_id":"levelo_inurba_marseille","lat":43.28413,"lon":5.34984,"is_reserved":false,"is_disabled":false,"rental_uris":{"android":"levelo://app?vid=28bc2108-0dbe-4972-a4ae-3060201c5ec2","ios":"levelo://app?vid=28bc2108-0dbe-4972-a4ae-3060201c5ec2"},"vehicle_type_id":"4","last_reported":1739120833,"current_range_meters":22800,"station_id":"ce4bhbh2rcd13ifvqepg","pricing_plan_id":"cebpf4jnsgd1na2vs0mg"},{"bike_id":"0b8b03a1-3d98-40ad-8759-9e3d3635efba","system_id":"levelo_inurba_marseille","lat":43.24552,"lon":5.39524,"is_reserved":false,"is_disabled":false,"rental_uris":{"android":"levelo://app?vid=0b8b03a1-3d98-40ad-8759-9e3d3635efba","ios":"levelo://app?vid=0b8b03a1-3d98-40ad-8759-9e3d3635efba"},"vehicle_type_id":"4","last_reported":1739120833,"current_range_meters":6400,"station_id":"ce4bhlp2rcd13ifvqgjg","pricing_plan_id":"cebpf4jnsgd1na2vs0mg"},{"bike_id":"a1ff6a73-36b2-4a61-a88f-8f0cc16371c7","system_id":"levelo_inurba_marseille","lat":43.26225,"lon":5.40456,"is_reserved":false,"is_disabled":false,"rental_uris":{"android":"levelo://app?vid=a1ff6a73-36b2-4a61-a88f-8f0cc16371c7","ios":"levelo://app?vid=a1ff6a73-36b2-4a61-a88f-8f0cc16371c7"},"vehicle_type_id":"4","last_reported":1739120833,"current_range_meters":28400,"station_id":"ce4bhmh2rcd13ifvqgmg","pricing_plan_id":"cebpf4jnsgd1na2vs0mg"},{"bike_id":"74dda318-1b0b-46a6-82cc-20741b70a914","system_id":"levelo_inurba_marseille","lat":43.29309,"lon":5.37441,"is_reserved":false,"is_disabled":true,"rental_uris":{"android":"levelo://app?vid=74dda318-1b0b-46a6-82cc-20741b70a914","ios":"levelo://app?vid=74dda318-1b0b-46a6-82cc-20741b70a914"},"vehicle_type_id":"4","last_reported":1739120833,"current_range_meters":20400,"station_id":"ce4bgi12rcd13ifvqb70","pricing_plan_id":"cebpf4jnsgd1na2vs0mg"},{"bike_id":"64a06a3d-e571-426d-a7ae-259a53872453","system_id":"levelo_inurba_marseille","lat":43.30438,"lon":5.38893,"is_reserved":false,"is_disabled":false,"rental_uris":{"android":"levelo://app?vid=64a06a3d-e571-426d-a7ae-259a53872453","ios":"levelo://app?vid=64a06a3d-e571-426d-a7ae-259a53872453"},"vehicle_type_id":"4","last_reported":1739120833,"current_range_meters":26800,"station_id":"ce4bgk12rcd13ifvqbi0","pricing_plan_id":"cebpf4jnsgd1na2vs0mg"},{"bike_id":"c1df0cc1-b80b-4538-8d1e-39ca9283f673","system_id":"levelo_inurba_marseille","lat":43.2549,"lon":5.37648,"is_reserved":false,"is_disabled":false,"rental_uris":{"android":"levelo://app?vid=c1df0cc1-b80b-4538-8d1e-39ca9283f673","ios":"levelo://app?vid=c1df0cc1-b80b-4538-8d1e-39ca9283f673"},"vehicle_type_id":"4","last_reported":1739120833,"current_range_meters":39200,"station_id":"ce4bhh12rcd13ifvqff0","pricing_plan_id":"cebpf4jnsgd1na2vs0mg"},{"bike_id":"1c006256-7530-4a56-a25d-dca64c3573d8","system_id":"levelo_inurba_marseille","lat":43.28695,"lon":5.39988,"is_reserved":false,"is_disabled":true,"rental_uris":{"android":"levelo://app?vid=1c006256-7530-4a56-a25d-dca64c3573d8","ios":"levelo://app?vid=1c006256-7530-4a56-a25d-dca64c3573d8"},"vehicle_type_id":"4","last_reported":1739120833,"current_range_meters":38400,"station_id":"ce4bho92rcd13ifvqh3g","pricing_plan_id":"cebpf4jnsgd1na2vs0mg"},{"bike_id":"80b1cddf-1cb4-4d12-a819-f1e7716167e9","system_id":"levelo_inurba_marseille","lat":43.290036,"lon":5.356174,"is_reserved":false,"is_disabled":true,"rental_uris":{"android":"levelo://app?vid=80b1cddf-1cb4-4d12-a819-f1e7716167e9","ios":"levelo://app?vid=80b1cddf-1cb4-4d12-a819-f1e7716167e9"},"vehicle_type_id":"4","last_reported":1739120833,"current_range_meters":400,"station_id":"ce4bhb92rcd13ifvqen0","pricing_plan_id":"cebpf4jnsgd1na2vs0mg"},{"bike_id":"3a459901-6bd3-4093-8387-211cfbb80d20","system_id":"levelo_inurba_marseille","lat":43.2923,"lon":5.36077,"is_reserved":false,"is_disabled":false,"rental_uris":{"android":"levelo://app?vid=3a459901-6bd3-4093-8387-211cfbb80d20","ios":"levelo://app?vid=3a459901-6bd3-4093-8387-211cfbb80d20"},"vehicle_type_id":"4","last_reported":1739120833,"current_range_meters":36000,"station_id":"ce4bhbh2rcd13ifvqeqg","pricing_plan_id":"cebpf4jnsgd1na2vs0mg"},{"bike_id":"5c7479b7-7263-4b4c-a3b1-0d7fb0f411f8","system_id":"levelo_inurba_marseille","lat":43.30316,"lon":5.40428,"is_reserved":false,"is_disabled":true,"rental_uris":{"android":"levelo://app?vid=5c7479b7-7263-4b4c-a3b1-0d7fb0f411f8","ios":"levelo://app?vid=5c7479b7-7263-4b4c-a3b1-0d7fb0f411f8"},"vehicle_type_id":"4","last_reported":1739120833,"current_range_meters":36800,"station_id":"ce4bh012rcd13ifvqd10","pricing_plan_id":"cebpf4jnsgd1na2vs0mg"},{"bike_id":"297855fd-3dc7-4001-8386-cc5a5f7e74b9","system_id":"levelo_inurba_marseille","lat":43.33025,"lon":5.39039,"is_reserved":false,"is_disabled":false,"rental_uris":{"android":"levelo://app?vid=297855fd-3dc7-4001-8386-cc5a5f7e74b9","ios":"levelo://app?vid=297855fd-3dc7-4001-8386-cc5a5f7e74b9"},"vehicle_type_id":"4","last_reported":1739120833,"current_range_meters":30400,"station_id":"ce4bhr92rcd13ifvqhrg","pricing_plan_id":"cebpf4jnsgd1na2vs0mg"},{"bike_id":"5dec2fdf-46a6-4d2a-a8dd-9a8ec1a948d3","system_id":"levelo_inurba_marseille","lat":43.23187,"lon":5.35568,"is_reserved":false,"is_disabled":false,"rental_uris":{"android":"levelo://app?vid=5dec2fdf-46a6-4d2a-a8dd-9a8ec1a948d3","ios":"levelo://app?vid=5dec2fdf-46a6-4d2a-a8dd-9a8ec1a948d3"},"vehicle_type_id":"4","last_reported":1739120833,"current_range_meters":38800,"station_id":"ce4bhu92rcd13ifvqi70","pricing_plan_id":"cebpf4jnsgd1na2vs0mg"},{"bike_id":"92c85508-d737-41e4-9caa-c6b4d0bb3c70","system_id":"levelo_inurba_marseille","lat":43.29235,"lon":5.36082,"is_reserved":false,"is_disabled":true,"rental_uris":{"android":"levelo://app?vid=92c85508-d737-41e4-9caa-c6b4d0bb3c70","ios":"levelo://app?vid=92c85508-d737-41e4-9caa-c6b4d0bb3c70"},"vehicle_type_id":"4","last_reported":1739120833,"current_range_meters":400,"station_id":"ce4bhbh2rcd13ifvqeqg","pricing_plan_id":"cebpf4jnsgd1na2vs0mg"},{"bike_id":"c3830605-578f-4c68-8b10-5553553277a4","system_id":"levelo_inurba_marseille","lat":43.29221,"lon":5.36051,"is_reserved":false,"is_disabled":false,"rental_uris":{"android":"levelo://app?vid=c3830605-578f-4c68-8b10-5553553277a4","ios":"levelo://app?vid=c3830605-578f-4c68-8b10-5553553277a4"},"vehicle_type_id":"4","last_reported":1739120833,"current_range_meters":38800,"station_id":"ce4bhbh2rcd13ifvqeqg","pricing_plan_id":"cebpf4jnsgd1na2vs0mg"},{"bike_id":"5170b80e-6c4f-401e-87b5-9d6480477dea","system_id":"levelo_inurba_marseille","lat":43.30808,"lon":5.38146,"is_reserved":false,"is_disabled":false,"rental_uris":{"android":"levelo://app?vid=5170b80e-6c4f-401e-87b5-9d6480477dea","ios":"levelo://app?vid=5170b80e-6c4f-401e-87b5-9d6480477dea"},"vehicle_type_id":"4","last_reported":1739120833,"current_range_meters":18000,"station_id":"ce4bgt12rcd13ifvqce0","pricing_plan_id":"cebpf4jnsgd1na2vs0mg"},{"bike_id":"22669ad6-c05b-49c6-864d-bb442ac14c15","system_id":"levelo_inurba_marseille","lat":43.25921,"lon":5.40876,"is_reserved":false,"is_disabled":false,"rental_uris":{"android":"levelo://app?vid=22669ad6-c05b-49c6-864d-bb442ac14c15","ios":"levelo://app?vid=22669ad6-c05b-49c6-864d-bb442ac14c15"},"vehicle_type_id":"4","last_reported":1739120833,"current_range_meters":29600,"station_id":"ce4bhm92rcd13ifvqglg","pricing_plan_id":"cebpf4jnsgd1na2vs0mg"},{"bike_id":"5c55719c-bf56-4316-adc3-30111af87656","system_id":"levelo_inurba_marseille","lat":43.23054,"lon":5.35496,"is_reserved":false,"is_disabled":false,"rental_uris":{"android":"levelo://app?vid=5c55719c-bf56-4316-adc3-30111af87656","ios":"levelo://app?vid=5c55719c-bf56-4316-adc3-30111af87656"},"vehicle_type_id":"4","last_reported":1739120833,"current_range_meters":38800,"station_id":"cpo3342slgdg3j2ifvpg","pricing_plan_id":"cebpf4jnsgd1na2vs0mg"},{"bike_id":"c2b542d5-20ee-4d02-a9e4-f66e0540bcfb","system_id":"levelo_inurba_marseille","lat":43.24182,"lon":5.3973,"is_reserved":false,"is_disabled":false,"rental_uris":{"android":"levelo://app?vid=c2b542d5-20ee-4d02-a9e4-f66e0540bcfb","ios":"levelo://app?vid=c2b542d5-20ee-4d02-a9e4-f66e0540bcfb"},"vehicle_type_id":"4","last_reported":1739120833,"current_range_meters":11600,"station_id":"ce4bhn12rcd13ifvqgpg","pricing_plan_id":"cebpf4jnsgd1na2vs0mg"},{"bike_id":"4da5347a-028a-4ffb-9d72-7ab00361cbed","system_id":"levelo_inurba_marseille","lat":43.26058,"lon":5.39403,"is_reserved":false,"is_disabled":false,"rental_uris":{"android":"levelo://app?vid=4da5347a-028a-4ffb-9d72-7ab00361cbed","ios":"levelo://app?vid=4da5347a-028a-4ffb-9d72-7ab00361cbed"},"vehicle_type_id":"4","last_reported":1739120833,"current_range_meters":24800,"station_id":"ce4bhh92rcd13ifvqfj0","pricing_plan_id":"cebpf4jnsgd1na2vs0mg"},{"bike_id":"1da8b17b-ad28-4780-a711-431647c244ed","system_id":"levelo_inurba_marseille","lat":43.2396,"lon":5.36626,"is_reserved":false,"is_disabled":false,"rental_uris":{"android":"levelo://app?vid=1da8b17b-ad28-4780-a711-431647c244ed","ios":"levelo://app?vid=1da8b17b-ad28-4780-a711-431647c244ed"},"vehicle_type_id":"4","last_reported":1739120833,"current_range_meters":19600,"station_id":"ce4bhi12rcd13ifvqfp0","pricing_plan_id":"cebpf4jnsgd1na2vs0mg"},{"bike_id":"a6765402-a26f-454e-ae08-3cc7d771c71f","system_id":"levelo_inurba_marseille","lat":43.29769,"lon":5.37095,"is_reserved":false,"is_disabled":false,"rental_uris":{"android":"levelo://app?vid=a6765402-a26f-454e-ae08-3cc7d771c71f","ios":"levelo://app?vid=a6765402-a26f-454e-ae08-3cc7d771c71f"},"vehicle_type_id":"4","last_reported":1739120833,"current_range_meters":21600,"station_id":"ce4bgop2rcd13ifvqc1g","pricing_plan_id":"cebpf4jnsgd1na2vs0mg"},{"bike_id":"7243d2a0-8cbd-4c75-9acd-ba6045d97ce5","system_id":"levelo_inurba_marseille","lat":43.23196,"lon":5.35567,"is_reserved":false,"is_disabled":false,"rental_uris":{"android":"levelo://app?vid=7243d2a0-8cbd-4c75-9acd-ba6045d97ce5","ios":"levelo://app?vid=7243d2a0-8cbd-4c75-9acd-ba6045d97ce5"},"vehicle_type_id":"4","last_reported":1739120833,"current_range_meters":26000,"station_id":"ce4bhu92rcd13ifvqi70","pricing_plan_id":"cebpf4jnsgd1na2vs0mg"},{"bike_id":"f78952aa-a1e4-42f8-b5d2-31338580d315","system_id":"levelo_inurba_marseille","lat":43.23964,"lon":5.36631,"is_reserved":false,"is_disabled":false,"rental_uris":{"android":"levelo://app?vid=f78952aa-a1e4-42f8-b5d2-31338580d315","ios":"levelo://app?vid=f78952aa-a1e4-42f8-b5d2-31338580d315"},"vehicle_type_id":"4","last_reported":1739120833,"current_range_meters":10800,"station_id":"ce4bhi12rcd13ifvqfp0","pricing_plan_id":"cebpf4jnsgd1na2vs0mg"},{"bike_id":"f2d50267-98d9-493b-8957-63594a0dadcc","system_id":"levelo_inurba_marseille","lat":43.23049,"lon":5.35494,"is_reserved":false,"is_disabled":false,"rental_uris":{"android":"levelo://app?vid=f2d50267-98d9-493b-8957-63594a0dadcc","ios":"levelo://app?vid=f2d50267-98d9-493b-8957-63594a0dadcc"},"vehicle_type_id":"4","last_reported":1739120833,"current_range_meters":38800,"station_id":"cpo3342slgdg3j2ifvpg","pricing_plan_id":"cebpf4jnsgd1na2vs0mg"},{"bike_id":"985ea620-1838-4cc4-9f45-6622855b2de9","system_id":"levelo_inurba_marseille","lat":43.27993,"lon":5.40013,"is_reserved":false,"is_disabled":false,"rental_uris":{"android":"levelo://app?vid=985ea620-1838-4cc4-9f45-6622855b2de9","ios":"levelo://app?vid=985ea620-1838-4cc4-9f45-6622855b2de9"},"vehicle_type_id":"4","last_reported":1739120833,"current_range_meters":38000,"station_id":"ce4bho92rcd13ifvqh4g","pricing_plan_id":"cebpf4jnsgd1na2vs0mg"},{"bike_id":"b62dea62-0007-4bca-a1b0-d88bfab77dea","system_id":"levelo_inurba_marseille","lat":43.32468,"lon":5.36574,"is_reserved":false,"is_disabled":false,"rental_uris":{"android":"levelo://app?vid=b62dea62-0007-4bca-a1b0-d88bfab77dea","ios":"levelo://app?vid=b62dea62-0007-4bca-a1b0-d88bfab77dea"},"vehicle_type_id":"4","last_reported":1739120833,"current_range_meters":28800,"station_id":"ce4bhs12rcd13ifvqhvg","pricing_plan_id":"cebpf4jnsgd1na2vs0mg"},{"bike_id":"ae128c9a-2c17-485a-97db-2929e2372b36","system_id":"levelo_inurba_marseille","lat":43.29257,"lon":5.40912,"is_reserved":false,"is_disabled":false,"rental_uris":{"android":"levelo://app?vid=ae128c9a-2c17-485a-97db-2929e2372b36","ios":"levelo://app?vid=ae128c9a-2c17-485a-97db-2929e2372b36"},"vehicle_type_id":"4","last_reported":1739120833,"current_range_meters":11600,"station_id":"ce4bh192rcd13ifvqdc0","pricing_plan_id":"cebpf4jnsgd1na2vs0mg"},{"bike_id":"65789fb5-105a-448c-877c-117ad45438b9","system_id":"levelo_inurba_marseille","lat":43.25125,"lon":5.40322,"is_reserved":false,"is_disabled":false,"rental_uris":{"android":"levelo://app?vid=65789fb5-105a-448c-877c-117ad45438b9","ios":"levelo://app?vid=65789fb5-105a-448c-877c-117ad45438b9"},"vehicle_type_id":"4","last_reported":1739120833,"current_range_meters":8000,"station_id":"ce4bhlh2rcd13ifvqgig","pricing_plan_id":"cebpf4jnsgd1na2vs0mg"},{"bike_id":"98514ce6-c9a0-445d-988e-9d038e3f1731","system_id":"levelo_inurba_marseille","lat":43.24078,"lon":5.37758,"is_reserved":false,"is_disabled":false,"rental_uris":{"android":"levelo://app?vid=98514ce6-c9a0-445d-988e-9d038e3f1731","ios":"levelo://app?vid=98514ce6-c9a0-445d-988e-9d038e3f1731"},"vehicle_type_id":"4","last_reported":1739120833,"current_range_meters":30000,"station_id":"ce4bhnp2rcd13ifvqgvg","pricing_plan_id":"cebpf4jnsgd1na2vs0mg"},{"bike_id":"aa35cf0f-c960-445f-a08f-f629c019d1a0","system_id":"levelo_inurba_marseille","lat":43.33732,"lon":5.39185,"is_reserved":false,"is_disabled":false,"rental_uris":{"android":"levelo://app?vid=aa35cf0f-c960-445f-a08f-f629c019d1a0","ios":"levelo://app?vid=aa35cf0f-c960-445f-a08f-f629c019d1a0"},"vehicle_type_id":"4","last_reported":1739120833,"current_range_meters":37600,"station_id":"ce4bhr92rcd13ifvqhsg","pricing_plan_id":"cebpf4jnsgd1na2vs0mg"},{"bike_id":"732c5df3-2e65-4874-8d86-8e1f61b1e679","system_id":"levelo_inurba_marseille","lat":43.29786,"lon":5.38116,"is_reserved":false,"is_disabled":false,"rental_uris":{"android":"levelo://app?vid=732c5df3-2e65-4874-8d86-8e1f61b1e679","ios":"levelo://app?vid=732c5df3-2e65-4874-8d86-8e1f61b1e679"},"vehicle_type_id":"4","last_reported":1739120833,"current_range_meters":38800,"station_id":"ce4bgip2rcd13ifvqbb0","pricing_plan_id":"cebpf4jnsgd1na2vs0mg"},{"bike_id":"22a5c6e1-bb6b-4333-8051-e7583e5afc36","system_id":"levelo_inurba_marseille","lat":43.29436,"lon":5.39786,"is_reserved":false,"is_disabled":true,"rental_uris":{"android":"levelo://app?vid=22a5c6e1-bb6b-4333-8051-e7583e5afc36","ios":"levelo://app?vid=22a5c6e1-bb6b-4333-8051-e7583e5afc36"},"vehicle_type_id":"4","last_reported":1739120833,"current_range_meters":38400,"station_id":"ce4bh3h2rcd13ifvqdo0","pricing_plan_id":"cebpf4jnsgd1na2vs0mg"},{"bike_id":"16fd6c8c-1ee3-4fe5-a29b-04519c1f6524","system_id":"levelo_inurba_marseille","lat":43.28936,"lon":5.36638,"is_reserved":false,"is_disabled":false,"rental_uris":{"android":"levelo://app?vid=16fd6c8c-1ee3-4fe5-a29b-04519c1f6524","ios":"levelo://app?vid=16fd6c8c-1ee3-4fe5-a29b-04519c1f6524"},"vehicle_type_id":"4","last_reported":1739120833,"current_range_meters":38800,"station_id":"ce4bhap2rcd13ifvqek0","pricing_plan_id":"cebpf4jnsgd1na2vs0mg"},{"bike_id":"76b0498f-d7c9-46df-aadb-b6c74c0ef402","system_id":"levelo_inurba_marseille","lat":43.30431,"lon":5.38813,"is_reserved":false,"is_disabled":false,"rental_uris":{"android":"levelo://app?vid=76b0498f-d7c9-46df-aadb-b6c74c0ef402","ios":"levelo://app?vid=76b0498f-d7c9-46df-aadb-b6c74c0ef402"},"vehicle_type_id":"4","last_reported":1739120833,"current_range_meters":38400,"station_id":"ce4bgk12rcd13ifvqbi0","pricing_plan_id":"cebpf4jnsgd1na2vs0mg"},{"bike_id":"65913fd2-b29f-48fa-b945-f7a4ac432b6b","system_id":"levelo_inurba_marseille","lat":43.29038,"lon":5.35919,"is_reserved":false,"is_disabled":true,"rental_uris":{"android":"levelo://app?vid=65913fd2-b29f-48fa-b945-f7a4ac432b6b","ios":"levelo://app?vid=65913fd2-b29f-48fa-b945-f7a4ac432b6b"},"vehicle_type_id":"4","last_reported":1739120833,"current_range_meters":1200,"station_id":"ce4bha92rcd13ifvqeg0","pricing_plan_id":"cebpf4jnsgd1na2vs0mg"},{"bike_id":"fd7f60dd-1b52-46f9-9b6b-de4b0fe7477f","system_id":"levelo_inurba_marseille","lat":43.27078,"lon":5.42286,"is_reserved":false,"is_disabled":true,"rental_uris":{"android":"levelo://app?vid=fd7f60dd-1b52-46f9-9b6b-de4b0fe7477f","ios":"levelo://app?vid=fd7f60dd-1b52-46f9-9b6b-de4b0fe7477f"},"vehicle_type_id":"4","last_reported":1739120833,"current_range_meters":33600,"station_id":"ce4bhk92rcd13ifvqgb0","pricing_plan_id":"cebpf4jnsgd1na2vs0mg"},{"bike_id":"2a256a54-1e9f-4d2e-856a-c49046f7dde9","system_id":"levelo_inurba_marseille","lat":43.26054,"lon":5.39398,"is_reserved":false,"is_disabled":false,"rental_uris":{"android":"levelo://app?vid=2a256a54-1e9f-4d2e-856a-c49046f7dde9","ios":"levelo://app?vid=2a256a54-1e9f-4d2e-856a-c49046f7dde9"},"vehicle_type_id":"4","last_reported":1739120833,"current_range_meters":39200,"station_id":"ce4bhh92rcd13ifvqfj0","pricing_plan_id":"cebpf4jnsgd1na2vs0mg"},{"bike_id":"4b09f8e7-647b-473a-993c-45bfb3affc10","system_id":"levelo_inurba_marseille","lat":43.30091,"lon":5.39126,"is_reserved":false,"is_disabled":false,"rental_uris":{"android":"levelo://app?vid=4b09f8e7-647b-473a-993c-45bfb3affc10","ios":"levelo://app?vid=4b09f8e7-647b-473a-993c-45bfb3affc10"},"vehicle_type_id":"4","last_reported":1739120833,"current_range_meters":29600,"station_id":"ce4bh192rcd13ifvqdb0","pricing_plan_id":"cebpf4jnsgd1na2vs0mg"},{"bike_id":"71af4c3a-fa26-4039-9ee7-f5d24e009142","system_id":"levelo_inurba_marseille","lat":43.24802,"lon":5.37448,"is_reserved":false,"is_disabled":false,"rental_uris":{"android":"levelo://app?vid=71af4c3a-fa26-4039-9ee7-f5d24e009142","ios":"levelo://app?vid=71af4c3a-fa26-4039-9ee7-f5d24e009142"},"vehicle_type_id":"4","last_reported":1739120833,"current_range_meters":38800,"station_id":"ce4bhgh2rcd13ifvqfb0","pricing_plan_id":"cebpf4jnsgd1na2vs0mg"},{"bike_id":"ab718d08-fa73-4b37-8fd0-bd8c0a26cdbd","system_id":"levelo_inurba_marseille","lat":43.2762,"lon":5.36121,"is_reserved":false,"is_disabled":false,"rental_uris":{"android":"levelo://app?vid=ab718d08-fa73-4b37-8fd0-bd8c0a26cdbd","ios":"levelo://app?vid=ab718d08-fa73-4b37-8fd0-bd8c0a26cdbd"},"vehicle_type_id":"4","last_reported":1739120833,"current_range_meters":39200,"station_id":"ce4bgj92rcd13ifvqbe0","pricing_plan_id":"cebpf4jnsgd1na2vs0mg"},{"bike_id":"b108129b-a98c-44dc-9179-6b5664963c24","system_id":"levelo_inurba_marseille","lat":43.23962,"lon":5.36634,"is_reserved":false,"is_disabled":true,"rental_uris":{"android":"levelo://app?vid=b108129b-a98c-44dc-9179-6b5664963c24","ios":"levelo://app?vid=b108129b-a98c-44dc-9179-6b5664963c24"},"vehicle_type_id":"4","last_reported":1739120833,"current_range_meters":0,"station_id":"ce4bhi12rcd13ifvqfp0","pricing_plan_id":"cebpf4jnsgd1na2vs0mg"},{"bike_id":"45ee09f9-58a4-4594-be36-fd6302974eda","system_id":"levelo_inurba_marseille","lat":43.2842,"lon":5.34988,"is_reserved":false,"is_disabled":false,"rental_uris":{"android":"levelo://app?vid=45ee09f9-58a4-4594-be36-fd6302974eda","ios":"levelo://app?vid=45ee09f9-58a4-4594-be36-fd6302974eda"},"vehicle_type_id":"4","last_reported":1739120833,"current_range_meters":38800,"station_id":"ce4bhbh2rcd13ifvqepg","pricing_plan_id":"cebpf4jnsgd1na2vs0mg"},{"bike_id":"3a748329-e5fe-4fe8-b83f-9bcb3f7263b0","system_id":"levelo_inurba_marseille","lat":43.2944,"lon":5.39753,"is_reserved":false,"is_disabled":false,"rental_uris":{"android":"levelo://app?vid=3a748329-e5fe-4fe8-b83f-9bcb3f7263b0","ios":"levelo://app?vid=3a748329-e5fe-4fe8-b83f-9bcb3f7263b0"},"vehicle_type_id":"4","last_reported":1739120833,"current_range_meters":37600,"station_id":"ce4bh3h2rcd13ifvqdo0","pricing_plan_id":"cebpf4jnsgd1na2vs0mg"},{"bike_id":"6a14739a-b5fc-42d5-9b40-b808b7ab9afe","system_id":"levelo_inurba_marseille","lat":43.24662,"lon":5.38161,"is_reserved":false,"is_disabled":false,"rental_uris":{"android":"levelo://app?vid=6a14739a-b5fc-42d5-9b40-b808b7ab9afe","ios":"levelo://app?vid=6a14739a-b5fc-42d5-9b40-b808b7ab9afe"},"vehicle_type_id":"4","last_reported":1739120833,"current_range_meters":35200,"station_id":"ce4bhih2rcd13ifvqfr0","pricing_plan_id":"cebpf4jnsgd1na2vs0mg"},{"bike_id":"985fd5ff-400c-4d62-8731-66bd04cc9d2b","system_id":"levelo_inurba_marseille","lat":43.26203,"lon":5.37443,"is_reserved":false,"is_disabled":false,"rental_uris":{"android":"levelo://app?vid=985fd5ff-400c-4d62-8731-66bd04cc9d2b","ios":"levelo://app?vid=985fd5ff-400c-4d62-8731-66bd04cc9d2b"},"vehicle_type_id":"4","last_reported":1739120833,"current_range_meters":22000,"station_id":"ce4bhgp2rcd13ifvqfc0","pricing_plan_id":"cebpf4jnsgd1na2vs0mg"},{"bike_id":"9da2535f-e77c-4f48-aae1-c197f0a0daad","system_id":"levelo_inurba_marseille","lat":43.27996,"lon":5.41658,"is_reserved":false,"is_disabled":true,"rental_uris":{"android":"levelo://app?vid=9da2535f-e77c-4f48-aae1-c197f0a0daad","ios":"levelo://app?vid=9da2535f-e77c-4f48-aae1-c197f0a0daad"},"vehicle_type_id":"4","last_reported":1739120833,"current_range_meters":0,"station_id":"ce4bho12rcd13ifvqh1g","pricing_plan_id":"cebpf4jnsgd1na2vs0mg"},{"bike_id":"1e7ea249-d903-40f6-89fb-e1f3f84b80f6","system_id":"levelo_inurba_marseille","lat":43.29514,"lon":5.39407,"is_reserved":false,"is_disabled":false,"rental_uris":{"android":"levelo://app?vid=1e7ea249-d903-40f6-89fb-e1f3f84b80f6","ios":"levelo://app?vid=1e7ea249-d903-40f6-89fb-e1f3f84b80f6"},"vehicle_type_id":"4","last_reported":1739120833,"current_range_meters":30400,"station_id":"ce4bh292rcd13ifvqdf0","pricing_plan_id":"cebpf4jnsgd1na2vs0mg"},{"bike_id":"d5fd2a14-8ff1-4b6e-a72e-8f7d6ba6ec2f","system_id":"levelo_inurba_marseille","lat":43.28274,"lon":5.35054,"is_reserved":false,"is_disabled":false,"rental_uris":{"android":"levelo://app?vid=d5fd2a14-8ff1-4b6e-a72e-8f7d6ba6ec2f","ios":"levelo://app?vid=d5fd2a14-8ff1-4b6e-a72e-8f7d6ba6ec2f"},"vehicle_type_id":"4","last_reported":1739120833,"current_range_meters":20800,"station_id":"ce4bhbp2rcd13ifvqerg","pricing_plan_id":"cebpf4jnsgd1na2vs0mg"},{"bike_id":"90a5fdf9-2767-48e9-a623-49e0156266d8","system_id":"levelo_inurba_marseille","lat":43.29693,"lon":5.37295,"is_reserved":false,"is_disabled":false,"rental_uris":{"android":"levelo://app?vid=90a5fdf9-2767-48e9-a623-49e0156266d8","ios":"levelo://app?vid=90a5fdf9-2767-48e9-a623-49e0156266d8"},"vehicle_type_id":"4","last_reported":1739120833,"current_range_meters":16000,"station_id":"ce4bgk12rcd13ifvqbj0","pricing_plan_id":"cebpf4jnsgd1na2vs0mg"},{"bike_id":"29c9ba85-0135-4611-af6c-b8dee113d319","system_id":"levelo_inurba_marseille","lat":43.2695,"lon":5.38632,"is_reserved":false,"is_disabled":true,"rental_uris":{"android":"levelo://app?vid=29c9ba85-0135-4611-af6c-b8dee113d319","ios":"levelo://app?vid=29c9ba85-0135-4611-af6c-b8dee113d319"},"vehicle_type_id":"4","last_reported":1739120833,"current_range_meters":1200,"station_id":"ce4bhh92rcd13ifvqfh0","pricing_plan_id":"cebpf4jnsgd1na2vs0mg"},{"bike_id":"c6f92ca4-91f7-4b27-a97d-0ada5b4e29ae","system_id":"levelo_inurba_marseille","lat":43.24684,"lon":5.38148,"is_reserved":false,"is_disabled":false,"rental_uris":{"android":"levelo://app?vid=c6f92ca4-91f7-4b27-a97d-0ada5b4e29ae","ios":"levelo://app?vid=c6f92ca4-91f7-4b27-a97d-0ada5b4e29ae"},"vehicle_type_id":"4","last_reported":1739120833,"current_range_meters":24400,"station_id":"ce4bhih2rcd13ifvqfr0","pricing_plan_id":"cebpf4jnsgd1na2vs0mg"},{"bike_id":"5917c661-30d2-4b8b-a2b8-814c03065bdc","system_id":"levelo_inurba_marseille","lat":43.30272,"lon":5.37698,"is_reserved":false,"is_disabled":false,"rental_uris":{"android":"levelo://app?vid=5917c661-30d2-4b8b-a2b8-814c03065bdc","ios":"levelo://app?vid=5917c661-30d2-4b8b-a2b8-814c03065bdc"},"vehicle_type_id":"4","last_reported":1739120833,"current_range_meters":37600,"station_id":"ce4bguh2rcd13ifvqcj0","pricing_plan_id":"cebpf4jnsgd1na2vs0mg"},{"bike_id":"0924843e-4fe0-4b4f-8a18-f335415d9113","system_id":"levelo_inurba_marseille","lat":43.29415,"lon":5.38608,"is_reserved":false,"is_disabled":false,"rental_uris":{"android":"levelo://app?vid=0924843e-4fe0-4b4f-8a18-f335415d9113","ios":"levelo://app?vid=0924843e-4fe0-4b4f-8a18-f335415d9113"},"vehicle_type_id":"4","last_reported":1739120833,"current_range_meters":25200,"station_id":"ce4bh2h2rcd13ifvqdh0","pricing_plan_id":"cebpf4jnsgd1na2vs0mg"},{"bike_id":"a31eff19-cced-4507-a171-7bcbb7870aa7","system_id":"levelo_inurba_marseille","lat":43.32355,"lon":5.38894,"is_reserved":false,"is_disabled":false,"rental_uris":{"android":"levelo://app?vid=a31eff19-cced-4507-a171-7bcbb7870aa7","ios":"levelo://app?vid=a31eff19-cced-4507-a171-7bcbb7870aa7"},"vehicle_type_id":"4","last_reported":1739120833,"current_range_meters":16800,"station_id":"ce4bhqp2rcd13ifvqhog","pricing_plan_id":"cebpf4jnsgd1na2vs0mg"},{"bike_id":"110b5397-d612-4b43-9970-8f955358b259","system_id":"levelo_inurba_marseille","lat":43.23961,"lon":5.36637,"is_reserved":false,"is_disabled":false,"rental_uris":{"android":"levelo://app?vid=110b5397-d612-4b43-9970-8f955358b259","ios":"levelo://app?vid=110b5397-d612-4b43-9970-8f955358b259"},"vehicle_type_id":"4","last_reported":1739120833,"current_range_meters":38800,"station_id":"ce4bhi12rcd13ifvqfp0","pricing_plan_id":"cebpf4jnsgd1na2vs0mg"},{"bike_id":"398998a9-ddbf-4df6-a7f5-8b46018e0a35","system_id":"levelo_inurba_marseille","lat":43.26706,"lon":5.38257,"is_reserved":false,"is_disabled":false,"rental_uris":{"android":"levelo://app?vid=398998a9-ddbf-4df6-a7f5-8b46018e0a35","ios":"levelo://app?vid=398998a9-ddbf-4df6-a7f5-8b46018e0a35"},"vehicle_type_id":"4","last_reported":1739120833,"current_range_meters":10800,"station_id":"ce4bhg92rcd13ifvqf90","pricing_plan_id":"cebpf4jnsgd1na2vs0mg"},{"bike_id":"d7511d01-1032-40a1-8bce-16d726103777","system_id":"levelo_inurba_marseille","lat":43.31206,"lon":5.36865,"is_reserved":false,"is_disabled":false,"rental_uris":{"android":"levelo://app?vid=d7511d01-1032-40a1-8bce-16d726103777","ios":"levelo://app?vid=d7511d01-1032-40a1-8bce-16d726103777"},"vehicle_type_id":"4","last_reported":1739120833,"current_range_meters":38800,"station_id":"ce4bgl92rcd13ifvqbq0","pricing_plan_id":"cebpf4jnsgd1na2vs0mg"},{"bike_id":"2b5781c9-d3d9-4875-b5da-04147f9edefe","system_id":"levelo_inurba_marseille","lat":43.275352,"lon":5.360051,"is_reserved":false,"is_disabled":false,"rental_uris":{"android":"levelo://app?vid=2b5781c9-d3d9-4875-b5da-04147f9edefe","ios":"levelo://app?vid=2b5781c9-d3d9-4875-b5da-04147f9edefe"},"vehicle_type_id":"4","last_reported":1739120833,"current_range_meters":16400,"station_id":"ce4bha12rcd13ifvqef0","pricing_plan_id":"cebpf4jnsgd1na2vs0mg"},{"bike_id":"c5789181-d252-4c46-b75d-908f3a6a38fe","system_id":"levelo_inurba_marseille","lat":43.33724,"lon":5.39179,"is_reserved":false,"is_disabled":false,"rental_uris":{"android":"levelo://app?vid=c5789181-d252-4c46-b75d-908f3a6a38fe","ios":"levelo://app?vid=c5789181-d252-4c46-b75d-908f3a6a38fe"},"vehicle_type_id":"4","last_reported":1739120833,"current_range_meters":38800,"station_id":"ce4bhr92rcd13ifvqhsg","pricing_plan_id":"cebpf4jnsgd1na2vs0mg"},{"bike_id":"4662cadc-d8cc-46d4-8513-fe6cec73d116","system_id":"levelo_inurba_marseille","lat":43.31373,"lon":5.38509,"is_reserved":false,"is_disabled":false,"rental_uris":{"android":"levelo://app?vid=4662cadc-d8cc-46d4-8513-fe6cec73d116","ios":"levelo://app?vid=4662cadc-d8cc-46d4-8513-fe6cec73d116"},"vehicle_type_id":"4","last_reported":1739120833,"current_range_meters":37600,"station_id":"ce4bgt92rcd13ifvqcf0","pricing_plan_id":"cebpf4jnsgd1na2vs0mg"},{"bike_id":"35cf31ae-7c5a-49a1-a13c-46f2b54919a5","system_id":"levelo_inurba_marseille","lat":43.30215,"lon":5.39472,"is_reserved":false,"is_disabled":false,"rental_uris":{"android":"levelo://app?vid=35cf31ae-7c5a-49a1-a13c-46f2b54919a5","ios":"levelo://app?vid=35cf31ae-7c5a-49a1-a13c-46f2b54919a5"},"vehicle_type_id":"4","last_reported":1739120833,"current_range_meters":6000,"station_id":"ce4bh0p2rcd13ifvqd70","pricing_plan_id":"cebpf4jnsgd1na2vs0mg"},{"bike_id":"0298ee51-d259-4557-a6c7-c0e7fe219495","system_id":"levelo_inurba_marseille","lat":43.30212,"lon":5.39462,"is_reserved":false,"is_disabled":false,"rental_uris":{"android":"levelo://app?vid=0298ee51-d259-4557-a6c7-c0e7fe219495","ios":"levelo://app?vid=0298ee51-d259-4557-a6c7-c0e7fe219495"},"vehicle_type_id":"4","last_reported":1739120833,"current_range_meters":29600,"station_id":"ce4bh0p2rcd13ifvqd70","pricing_plan_id":"cebpf4jnsgd1na2vs0mg"},{"bike_id":"0465b098-501d-4eaa-9851-ecad7c11e06c","system_id":"levelo_inurba_marseille","lat":43.27823,"lon":5.40709,"is_reserved":false,"is_disabled":false,"rental_uris":{"android":"levelo://app?vid=0465b098-501d-4eaa-9851-ecad7c11e06c","ios":"levelo://app?vid=0465b098-501d-4eaa-9851-ecad7c11e06c"},"vehicle_type_id":"4","last_reported":1739120833,"current_range_meters":38400,"station_id":"ce4bhnh2rcd13ifvqgtg","pricing_plan_id":"cebpf4jnsgd1na2vs0mg"},{"bike_id":"e81a784e-2624-4847-a2c1-89429223b598","system_id":"levelo_inurba_marseille","lat":43.28695,"lon":5.37393,"is_reserved":false,"is_disabled":false,"rental_uris":{"android":"levelo://app?vid=e81a784e-2624-4847-a2c1-89429223b598","ios":"levelo://app?vid=e81a784e-2624-4847-a2c1-89429223b598"},"vehicle_type_id":"4","last_reported":1739120833,"current_range_meters":28400,"station_id":"ce4bh3p2rcd13ifvqdq0","pricing_plan_id":"cebpf4jnsgd1na2vs0mg"},{"bike_id":"a0e4aa32-2930-4b3f-a9c9-c8d667116e7d","system_id":"levelo_inurba_marseille","lat":43.30146,"lon":5.39669,"is_reserved":false,"is_disabled":false,"rental_uris":{"android":"levelo://app?vid=a0e4aa32-2930-4b3f-a9c9-c8d667116e7d","ios":"levelo://app?vid=a0e4aa32-2930-4b3f-a9c9-c8d667116e7d"},"vehicle_type_id":"4","last_reported":1739120833,"current_range_meters":24000,"station_id":"","pricing_plan_id":"cebpf4jnsgd1na2vs0mg"},{"bike_id":"cda70a47-1966-4606-a6ee-e81748054c04","system_id":"levelo_inurba_marseille","lat":43.23964,"lon":5.3663,"is_reserved":false,"is_disabled":false,"rental_uris":{"android":"levelo://app?vid=cda70a47-1966-4606-a6ee-e81748054c04","ios":"levelo://app?vid=cda70a47-1966-4606-a6ee-e81748054c04"},"vehicle_type_id":"4","last_reported":1739120833,"current_range_meters":30800,"station_id":"ce4bhi12rcd13ifvqfp0","pricing_plan_id":"cebpf4jnsgd1na2vs0mg"},{"bike_id":"880ce712-c0f5-4aaf-8504-50bcf653db47","system_id":"levelo_inurba_marseille","lat":43.2481,"lon":5.37453,"is_reserved":false,"is_disabled":false,"rental_uris":{"android":"levelo://app?vid=880ce712-c0f5-4aaf-8504-50bcf653db47","ios":"levelo://app?vid=880ce712-c0f5-4aaf-8504-50bcf653db47"},"vehicle_type_id":"4","last_reported":1739120833,"current_range_meters":28000,"station_id":"ce4bhgh2rcd13ifvqfb0","pricing_plan_id":"cebpf4jnsgd1na2vs0mg"},{"bike_id":"9722d12f-71ee-413e-97d6-4c96358ec50a","system_id":"levelo_inurba_marseille","lat":43.29187,"lon":5.35807,"is_reserved":false,"is_disabled":false,"rental_uris":{"android":"levelo://app?vid=9722d12f-71ee-413e-97d6-4c96358ec50a","ios":"levelo://app?vid=9722d12f-71ee-413e-97d6-4c96358ec50a"},"vehicle_type_id":"4","last_reported":1739120833,"current_range_meters":38800,"station_id":"ce4bhb12rcd13ifvqel0","pricing_plan_id":"cebpf4jnsgd1na2vs0mg"},{"bike_id":"656b3b3b-ebfa-4345-b7c9-9eedd9381155","system_id":"levelo_inurba_marseille","lat":43.307997,"lon":5.400055,"is_reserved":false,"is_disabled":false,"rental_uris":{"android":"levelo://app?vid=656b3b3b-ebfa-4345-b7c9-9eedd9381155","ios":"levelo://app?vid=656b3b3b-ebfa-4345-b7c9-9eedd9381155"},"vehicle_type_id":"4","last_reported":1739120833,"current_range_meters":10800,"station_id":"","pricing_plan_id":"cebpf4jnsgd1na2vs0mg"},{"bike_id":"f572c4d0-7db4-4c29-925c-f9578f18219d","system_id":"levelo_inurba_marseille","lat":43.28415,"lon":5.34992,"is_reserved":false,"is_disabled":false,"rental_uris":{"android":"levelo://app?vid=f572c4d0-7db4-4c29-925c-f9578f18219d","ios":"levelo://app?vid=f572c4d0-7db4-4c29-925c-f9578f18219d"},"vehicle_type_id":"4","last_reported":1739120833,"current_range_meters":25600,"station_id":"ce4bhbh2rcd13ifvqepg","pricing_plan_id":"cebpf4jnsgd1na2vs0mg"},{"bike_id":"a3202439-b164-4de2-aacb-1a6746630a48","system_id":"levelo_inurba_marseille","lat":43.29769,"lon":5.36381,"is_reserved":false,"is_disabled":false,"rental_uris":{"android":"levelo://app?vid=a3202439-b164-4de2-aacb-1a6746630a48","ios":"levelo://app?vid=a3202439-b164-4de2-aacb-1a6746630a48"},"vehicle_type_id":"4","last_reported":1739120833,"current_range_meters":4000,"station_id":"","pricing_plan_id":"cebpf4jnsgd1na2vs0mg"},{"bike_id":"f9ec8a41-50bd-48e3-a9c3-1936ef8a8e37","system_id":"levelo_inurba_marseille","lat":43.26951,"lon":5.38632,"is_reserved":false,"is_disabled":false,"rental_uris":{"android":"levelo://app?vid=f9ec8a41-50bd-48e3-a9c3-1936ef8a8e37","ios":"levelo://app?vid=f9ec8a41-50bd-48e3-a9c3-1936ef8a8e37"},"vehicle_type_id":"4","last_reported":1739120833,"current_range_meters":34000,"station_id":"ce4bhh92rcd13ifvqfh0","pricing_plan_id":"cebpf4jnsgd1na2vs0mg"},{"bike_id":"4994adc0-2531-4243-b0b8-d8f7007189ea","system_id":"levelo_inurba_marseille","lat":43.27184,"lon":5.40987,"is_reserved":false,"is_disabled":false,"rental_uris":{"android":"levelo://app?vid=4994adc0-2531-4243-b0b8-d8f7007189ea","ios":"levelo://app?vid=4994adc0-2531-4243-b0b8-d8f7007189ea"},"vehicle_type_id":"4","last_reported":1739120833,"current_range_meters":24000,"station_id":"ce4bho92rcd13ifvqh3g","pricing_plan_id":"cebpf4jnsgd1na2vs0mg"},{"bike_id":"5f4c0fcb-a35b-4374-aa55-6ae702d7d671","system_id":"levelo_inurba_marseille","lat":43.28459,"lon":5.359,"is_reserved":false,"is_disabled":false,"rental_uris":{"android":"levelo://app?vid=5f4c0fcb-a35b-4374-aa55-6ae702d7d671","ios":"levelo://app?vid=5f4c0fcb-a35b-4374-aa55-6ae702d7d671"},"vehicle_type_id":"4","last_reported":1739120833,"current_range_meters":36000,"station_id":"ce4bhah2rcd13ifvqei0","pricing_plan_id":"cebpf4jnsgd1na2vs0mg"},{"bike_id":"40db5fa1-2b65-4e45-ba33-57c99419b8cf","system_id":"levelo_inurba_marseille","lat":43.29641,"lon":5.40604,"is_reserved":false,"is_disabled":false,"rental_uris":{"android":"levelo://app?vid=40db5fa1-2b65-4e45-ba33-57c99419b8cf","ios":"levelo://app?vid=40db5fa1-2b65-4e45-ba33-57c99419b8cf"},"vehicle_type_id":"4","last_reported":1739120833,"current_range_meters":26800,"station_id":"ce4bh0h2rcd13ifvqd60","pricing_plan_id":"cebpf4jnsgd1na2vs0mg"},{"bike_id":"7ea602af-bc8d-4d49-af25-40c9a921e77f","system_id":"levelo_inurba_marseille","lat":43.26934,"lon":5.38917,"is_reserved":false,"is_disabled":false,"rental_uris":{"android":"levelo://app?vid=7ea602af-bc8d-4d49-af25-40c9a921e77f","ios":"levelo://app?vid=7ea602af-bc8d-4d49-af25-40c9a921e77f"},"vehicle_type_id":"4","last_reported":1739120833,"current_range_meters":21600,"station_id":"ce4bhhh2rcd13ifvqfl0","pricing_plan_id":"cebpf4jnsgd1na2vs0mg"},{"bike_id":"7f2deb56-183c-436c-981c-cfbcfece13e6","system_id":"levelo_inurba_marseille","lat":43.23955,"lon":5.36642,"is_reserved":false,"is_disabled":false,"rental_uris":{"android":"levelo://app?vid=7f2deb56-183c-436c-981c-cfbcfece13e6","ios":"levelo://app?vid=7f2deb56-183c-436c-981c-cfbcfece13e6"},"vehicle_type_id":"4","last_reported":1739120833,"current_range_meters":35200,"station_id":"ce4bhi12rcd13ifvqfp0","pricing_plan_id":"cebpf4jnsgd1na2vs0mg"},{"bike_id":"e02f1452-6368-48dc-be64-7ad889aedf04","system_id":"levelo_inurba_marseille","lat":43.28443,"lon":5.39174,"is_reserved":false,"is_disabled":false,"rental_uris":{"android":"levelo://app?vid=e02f1452-6368-48dc-be64-7ad889aedf04","ios":"levelo://app?vid=e02f1452-6368-48dc-be64-7ad889aedf04"},"vehicle_type_id":"4","last_reported":1739120833,"current_range_meters":21600,"station_id":"ce4bhoh2rcd13ifvqh5g","pricing_plan_id":"cebpf4jnsgd1na2vs0mg"},{"bike_id":"1c392f62-33c0-4d1d-9a0e-eb4241b06292","system_id":"levelo_inurba_marseille","lat":43.24074,"lon":5.37759,"is_reserved":false,"is_disabled":false,"rental_uris":{"android":"levelo://app?vid=1c392f62-33c0-4d1d-9a0e-eb4241b06292","ios":"levelo://app?vid=1c392f62-33c0-4d1d-9a0e-eb4241b06292"},"vehicle_type_id":"4","last_reported":1739120833,"current_range_meters":11200,"station_id":"ce4bhnp2rcd13ifvqgvg","pricing_plan_id":"cebpf4jnsgd1na2vs0mg"},{"bike_id":"a5a14ac8-8c40-406c-865a-09ed98e25470","system_id":"levelo_inurba_marseille","lat":43.23198,"lon":5.35535,"is_reserved":false,"is_disabled":false,"rental_uris":{"android":"levelo://app?vid=a5a14ac8-8c40-406c-865a-09ed98e25470","ios":"levelo://app?vid=a5a14ac8-8c40-406c-865a-09ed98e25470"},"vehicle_type_id":"4","last_reported":1739120833,"current_range_meters":12800,"station_id":"ce4bhu92rcd13ifvqi70","pricing_plan_id":"cebpf4jnsgd1na2vs0mg"},{"bike_id":"cf611754-8468-486a-98e2-51e8b36d733a","system_id":"levelo_inurba_marseille","lat":43.28609,"lon":5.37062,"is_reserved":false,"is_disabled":false,"rental_uris":{"android":"levelo://app?vid=cf611754-8468-486a-98e2-51e8b36d733a","ios":"levelo://app?vid=cf611754-8468-486a-98e2-51e8b36d733a"},"vehicle_type_id":"4","last_reported":1739120833,"current_range_meters":25200,"station_id":"ce4bht12rcd13ifvqi60","pricing_plan_id":"cebpf4jnsgd1na2vs0mg"},{"bike_id":"7c905234-7582-4a41-8d71-4d3d7f3dac68","system_id":"levelo_inurba_marseille","lat":43.26215,"lon":5.3745,"is_reserved":false,"is_disabled":false,"rental_uris":{"android":"levelo://app?vid=7c905234-7582-4a41-8d71-4d3d7f3dac68","ios":"levelo://app?vid=7c905234-7582-4a41-8d71-4d3d7f3dac68"},"vehicle_type_id":"4","last_reported":1739120833,"current_range_meters":32000,"station_id":"ce4bhgp2rcd13ifvqfc0","pricing_plan_id":"cebpf4jnsgd1na2vs0mg"},{"bike_id":"87f55178-b221-4f5a-9b43-4df846d42ec8","system_id":"levelo_inurba_marseille","lat":43.32295,"lon":5.38276,"is_reserved":false,"is_disabled":false,"rental_uris":{"android":"levelo://app?vid=87f55178-b221-4f5a-9b43-4df846d42ec8","ios":"levelo://app?vid=87f55178-b221-4f5a-9b43-4df846d42ec8"},"vehicle_type_id":"4","last_reported":1739120833,"current_range_meters":28000,"station_id":"ce4bhr12rcd13ifvqhqg","pricing_plan_id":"cebpf4jnsgd1na2vs0mg"},{"bike_id":"f7063a1c-a097-45d5-8fdb-84651485ef24","system_id":"levelo_inurba_marseille","lat":43.24662,"lon":5.38157,"is_reserved":false,"is_disabled":false,"rental_uris":{"android":"levelo://app?vid=f7063a1c-a097-45d5-8fdb-84651485ef24","ios":"levelo://app?vid=f7063a1c-a097-45d5-8fdb-84651485ef24"},"vehicle_type_id":"4","last_reported":1739120833,"current_range_meters":38800,"station_id":"ce4bhih2rcd13ifvqfr0","pricing_plan_id":"cebpf4jnsgd1na2vs0mg"},{"bike_id":"ab445631-9e5a-46dc-8708-c7ea376fcabc","system_id":"levelo_inurba_marseille","lat":43.25083,"lon":5.39517,"is_reserved":false,"is_disabled":false,"rental_uris":{"android":"levelo://app?vid=ab445631-9e5a-46dc-8708-c7ea376fcabc","ios":"levelo://app?vid=ab445631-9e5a-46dc-8708-c7ea376fcabc"},"vehicle_type_id":"4","last_reported":1739120833,"current_range_meters":17200,"station_id":"ce4bhm12rcd13ifvqgkg","pricing_plan_id":"cebpf4jnsgd1na2vs0mg"},{"bike_id":"d5f9500a-f083-4696-bd1b-11c24c8d2587","system_id":"levelo_inurba_marseille","lat":43.26194,"lon":5.3745,"is_reserved":false,"is_disabled":false,"rental_uris":{"android":"levelo://app?vid=d5f9500a-f083-4696-bd1b-11c24c8d2587","ios":"levelo://app?vid=d5f9500a-f083-4696-bd1b-11c24c8d2587"},"vehicle_type_id":"4","last_reported":1739120833,"current_range_meters":38000,"station_id":"ce4bhgp2rcd13ifvqfc0","pricing_plan_id":"cebpf4jnsgd1na2vs0mg"},{"bike_id":"59db9156-837c-4bef-bdf0-6cb05d00fb23","system_id":"levelo_inurba_marseille","lat":43.24167,"lon":5.36402,"is_reserved":false,"is_disabled":false,"rental_uris":{"android":"levelo://app?vid=59db9156-837c-4bef-bdf0-6cb05d00fb23","ios":"levelo://app?vid=59db9156-837c-4bef-bdf0-6cb05d00fb23"},"vehicle_type_id":"4","last_reported":1739120833,"current_range_meters":23200,"station_id":"cpo36qri1sfpv3e86is0","pricing_plan_id":"cebpf4jnsgd1na2vs0mg"},{"bike_id":"19451b00-0da6-4802-adb9-190a671a48da","system_id":"levelo_inurba_marseille","lat":43.29258,"lon":5.38425,"is_reserved":false,"is_disabled":false,"rental_uris":{"android":"levelo://app?vid=19451b00-0da6-4802-adb9-190a671a48da","ios":"levelo://app?vid=19451b00-0da6-4802-adb9-190a671a48da"},"vehicle_type_id":"4","last_reported":1739120833,"current_range_meters":18800,"station_id":"ce4bh692rcd13ifvqea0","pricing_plan_id":"cebpf4jnsgd1na2vs0mg"},{"bike_id":"f1e9b514-8d63-4512-92a1-4bc9d87c157b","system_id":"levelo_inurba_marseille","lat":43.31697,"lon":5.43692,"is_reserved":false,"is_disabled":true,"rental_uris":{"android":"levelo://app?vid=f1e9b514-8d63-4512-92a1-4bc9d87c157b","ios":"levelo://app?vid=f1e9b514-8d63-4512-92a1-4bc9d87c157b"},"vehicle_type_id":"4","last_reported":1739120833,"current_range_meters":0,"station_id":"ce4bhp92rcd13ifvqhcg","pricing_plan_id":"cebpf4jnsgd1na2vs0mg"},{"bike_id":"a0074d74-cecf-48cb-88d9-dfdc2b2fa810","system_id":"levelo_inurba_marseille","lat":43.23958,"lon":5.36622,"is_reserved":false,"is_disabled":false,"rental_uris":{"android":"levelo://app?vid=a0074d74-cecf-48cb-88d9-dfdc2b2fa810","ios":"levelo://app?vid=a0074d74-cecf-48cb-88d9-dfdc2b2fa810"},"vehicle_type_id":"4","last_reported":1739120833,"current_range_meters":16800,"station_id":"ce4bhi12rcd13ifvqfp0","pricing_plan_id":"cebpf4jnsgd1na2vs0mg"},{"bike_id":"81d37ca3-5a86-4697-be03-dd0b787f28cf","system_id":"levelo_inurba_marseille","lat":43.32337,"lon":5.40628,"is_reserved":false,"is_disabled":true,"rental_uris":{"android":"levelo://app?vid=81d37ca3-5a86-4697-be03-dd0b787f28cf","ios":"levelo://app?vid=81d37ca3-5a86-4697-be03-dd0b787f28cf"},"vehicle_type_id":"4","last_reported":1739120833,"current_range_meters":5600,"station_id":"ce4bhq92rcd13ifvqhjg","pricing_plan_id":"cebpf4jnsgd1na2vs0mg"},{"bike_id":"4e2a4563-69c1-463e-a6f5-6fb1db0fe638","system_id":"levelo_inurba_marseille","lat":43.30273,"lon":5.37717,"is_reserved":false,"is_disabled":false,"rental_uris":{"android":"levelo://app?vid=4e2a4563-69c1-463e-a6f5-6fb1db0fe638","ios":"levelo://app?vid=4e2a4563-69c1-463e-a6f5-6fb1db0fe638"},"vehicle_type_id":"4","last_reported":1739120833,"current_range_meters":34000,"station_id":"ce4bguh2rcd13ifvqcj0","pricing_plan_id":"cebpf4jnsgd1na2vs0mg"},{"bike_id":"7e424a35-8cf7-4c71-b98f-4231461d22a0","system_id":"levelo_inurba_marseille","lat":43.27495,"lon":5.38989,"is_reserved":false,"is_disabled":false,"rental_uris":{"android":"levelo://app?vid=7e424a35-8cf7-4c71-b98f-4231461d22a0","ios":"levelo://app?vid=7e424a35-8cf7-4c71-b98f-4231461d22a0"},"vehicle_type_id":"4","last_reported":1739120833,"current_range_meters":33600,"station_id":"","pricing_plan_id":"cebpf4jnsgd1na2vs0mg"},{"bike_id":"9189e0cd-d5d1-46a9-97ed-08ec6d7d8cc9","system_id":"levelo_inurba_marseille","lat":43.29968,"lon":5.38487,"is_reserved":false,"is_disabled":true,"rental_uris":{"android":"levelo://app?vid=9189e0cd-d5d1-46a9-97ed-08ec6d7d8cc9","ios":"levelo://app?vid=9189e0cd-d5d1-46a9-97ed-08ec6d7d8cc9"},"vehicle_type_id":"4","last_reported":1739120833,"current_range_meters":38400,"station_id":"ce4bgj92rcd13ifvqbd0","pricing_plan_id":"cebpf4jnsgd1na2vs0mg"},{"bike_id":"462e50f2-7c1f-4a75-ad87-acef486284a9","system_id":"levelo_inurba_marseille","lat":43.27309,"lon":5.39059,"is_reserved":false,"is_disabled":false,"rental_uris":{"android":"levelo://app?vid=462e50f2-7c1f-4a75-ad87-acef486284a9","ios":"levelo://app?vid=462e50f2-7c1f-4a75-ad87-acef486284a9"},"vehicle_type_id":"4","last_reported":1739120833,"current_range_meters":12800,"station_id":"ce4bhgp2rcd13ifvqfe0","pricing_plan_id":"cebpf4jnsgd1na2vs0mg"},{"bike_id":"9c3ed8fb-7268-418c-ac09-3f255c9e9b5e","system_id":"levelo_inurba_marseille","lat":43.28039,"lon":5.36934,"is_reserved":false,"is_disabled":false,"rental_uris":{"android":"levelo://app?vid=9c3ed8fb-7268-418c-ac09-3f255c9e9b5e","ios":"levelo://app?vid=9c3ed8fb-7268-418c-ac09-3f255c9e9b5e"},"vehicle_type_id":"4","last_reported":1739120833,"current_range_meters":36800,"station_id":"ce4bha12rcd13ifvqef0","pricing_plan_id":"cebpf4jnsgd1na2vs0mg"},{"bike_id":"c91fa3f3-a774-43d0-92fe-010e57bc5d25","system_id":"levelo_inurba_marseille","lat":43.262,"lon":5.37438,"is_reserved":false,"is_disabled":false,"rental_uris":{"android":"levelo://app?vid=c91fa3f3-a774-43d0-92fe-010e57bc5d25","ios":"levelo://app?vid=c91fa3f3-a774-43d0-92fe-010e57bc5d25"},"vehicle_type_id":"4","last_reported":1739120833,"current_range_meters":8800,"station_id":"ce4bhgp2rcd13ifvqfc0","pricing_plan_id":"cebpf4jnsgd1na2vs0mg"},{"bike_id":"2776d449-60e1-4a9d-a369-36a41d2d8ca7","system_id":"levelo_inurba_marseille","lat":43.29015,"lon":5.38129,"is_reserved":false,"is_disabled":true,"rental_uris":{"android":"levelo://app?vid=2776d449-60e1-4a9d-a369-36a41d2d8ca7","ios":"levelo://app?vid=2776d449-60e1-4a9d-a369-36a41d2d8ca7"},"vehicle_type_id":"4","last_reported":1739120833,"current_range_meters":0,"station_id":"ce4bh4p2rcd13ifvqe1g","pricing_plan_id":"cebpf4jnsgd1na2vs0mg"},{"bike_id":"277b6126-0441-4bd1-a1f0-147e7c5fd945","system_id":"levelo_inurba_marseille","lat":43.26035,"lon":5.37555,"is_reserved":false,"is_disabled":false,"rental_uris":{"android":"levelo://app?vid=277b6126-0441-4bd1-a1f0-147e7c5fd945","ios":"levelo://app?vid=277b6126-0441-4bd1-a1f0-147e7c5fd945"},"vehicle_type_id":"4","last_reported":1739120833,"current_range_meters":20400,"station_id":"ce4bhgh2rcd13ifvqfa0","pricing_plan_id":"cebpf4jnsgd1na2vs0mg"},{"bike_id":"6ff781d1-2621-44d1-b299-83b571f09432","system_id":"levelo_inurba_marseille","lat":43.34064,"lon":5.3851,"is_reserved":false,"is_disabled":true,"rental_uris":{"android":"levelo://app?vid=6ff781d1-2621-44d1-b299-83b571f09432","ios":"levelo://app?vid=6ff781d1-2621-44d1-b299-83b571f09432"},"vehicle_type_id":"4","last_reported":1739120833,"current_range_meters":0,"station_id":"","pricing_plan_id":"cebpf4jnsgd1na2vs0mg"},{"bike_id":"c11afab6-c00c-4284-bf72-5bd8694d52ba","system_id":"levelo_inurba_marseille","lat":43.28416,"lon":5.34976,"is_reserved":false,"is_disabled":false,"rental_uris":{"android":"levelo://app?vid=c11afab6-c00c-4284-bf72-5bd8694d52ba","ios":"levelo://app?vid=c11afab6-c00c-4284-bf72-5bd8694d52ba"},"vehicle_type_id":"4","last_reported":1739120833,"current_range_meters":13600,"station_id":"ce4bhbh2rcd13ifvqepg","pricing_plan_id":"cebpf4jnsgd1na2vs0mg"},{"bike_id":"f2354b3b-9398-430a-991c-0c108e9a4c6a","system_id":"levelo_inurba_marseille","lat":43.30311,"lon":5.39199,"is_reserved":false,"is_disabled":true,"rental_uris":{"android":"levelo://app?vid=f2354b3b-9398-430a-991c-0c108e9a4c6a","ios":"levelo://app?vid=f2354b3b-9398-430a-991c-0c108e9a4c6a"},"vehicle_type_id":"4","last_reported":1739120833,"current_range_meters":38000,"station_id":"ce4bgkh2rcd13ifvqbk0","pricing_plan_id":"cebpf4jnsgd1na2vs0mg"},{"bike_id":"023da4ba-3275-433f-9c20-6aa1fe5c1824","system_id":"levelo_inurba_marseille","lat":43.24058,"lon":5.3774,"is_reserved":false,"is_disabled":false,"rental_uris":{"android":"levelo://app?vid=023da4ba-3275-433f-9c20-6aa1fe5c1824","ios":"levelo://app?vid=023da4ba-3275-433f-9c20-6aa1fe5c1824"},"vehicle_type_id":"4","last_reported":1739120833,"current_range_meters":34000,"station_id":"ce4bhnp2rcd13ifvqgvg","pricing_plan_id":"cebpf4jnsgd1na2vs0mg"},{"bike_id":"0d19ec67-ccd5-41a2-abf8-7029c4486e0f","system_id":"levelo_inurba_marseille","lat":43.26577,"lon":5.38999,"is_reserved":false,"is_disabled":false,"rental_uris":{"android":"levelo://app?vid=0d19ec67-ccd5-41a2-abf8-7029c4486e0f","ios":"levelo://app?vid=0d19ec67-ccd5-41a2-abf8-7029c4486e0f"},"vehicle_type_id":"4","last_reported":1739120833,"current_range_meters":26000,"station_id":"ce4bhe12rcd13ifvqf30","pricing_plan_id":"cebpf4jnsgd1na2vs0mg"},{"bike_id":"3bcef26d-4f99-41ca-8731-0ea17f115ba4","system_id":"levelo_inurba_marseille","lat":43.28416,"lon":5.34994,"is_reserved":false,"is_disabled":false,"rental_uris":{"android":"levelo://app?vid=3bcef26d-4f99-41ca-8731-0ea17f115ba4","ios":"levelo://app?vid=3bcef26d-4f99-41ca-8731-0ea17f115ba4"},"vehicle_type_id":"4","last_reported":1739120833,"current_range_meters":38800,"station_id":"ce4bhbh2rcd13ifvqepg","pricing_plan_id":"cebpf4jnsgd1na2vs0mg"},{"bike_id":"c6dca595-4be1-45fa-a1b8-a15482531e43","system_id":"levelo_inurba_marseille","lat":43.26179,"lon":5.37445,"is_reserved":false,"is_disabled":false,"rental_uris":{"android":"levelo://app?vid=c6dca595-4be1-45fa-a1b8-a15482531e43","ios":"levelo://app?vid=c6dca595-4be1-45fa-a1b8-a15482531e43"},"vehicle_type_id":"4","last_reported":1739120833,"current_range_meters":8800,"station_id":"ce4bhgp2rcd13ifvqfc0","pricing_plan_id":"cebpf4jnsgd1na2vs0mg"},{"bike_id":"03dc0a60-23d6-429c-a406-0c86a8f516e4","system_id":"levelo_inurba_marseille","lat":43.2416,"lon":5.39713,"is_reserved":false,"is_disabled":false,"rental_uris":{"android":"levelo://app?vid=03dc0a60-23d6-429c-a406-0c86a8f516e4","ios":"levelo://app?vid=03dc0a60-23d6-429c-a406-0c86a8f516e4"},"vehicle_type_id":"4","last_reported":1739120833,"current_range_meters":32400,"station_id":"ce4bhn12rcd13ifvqgpg","pricing_plan_id":"cebpf4jnsgd1na2vs0mg"},{"bike_id":"afe9f47a-4ac1-4e75-88c2-424c0c3d02a7","system_id":"levelo_inurba_marseille","lat":43.26193,"lon":5.37445,"is_reserved":false,"is_disabled":false,"rental_uris":{"android":"levelo://app?vid=afe9f47a-4ac1-4e75-88c2-424c0c3d02a7","ios":"levelo://app?vid=afe9f47a-4ac1-4e75-88c2-424c0c3d02a7"},"vehicle_type_id":"4","last_reported":1739120833,"current_range_meters":26000,"station_id":"ce4bhgp2rcd13ifvqfc0","pricing_plan_id":"cebpf4jnsgd1na2vs0mg"},{"bike_id":"b7c33b4f-978a-4ae8-bf52-0353e8d8af68","system_id":"levelo_inurba_marseille","lat":43.31491,"lon":5.37311,"is_reserved":false,"is_disabled":false,"rental_uris":{"android":"levelo://app?vid=b7c33b4f-978a-4ae8-bf52-0353e8d8af68","ios":"levelo://app?vid=b7c33b4f-978a-4ae8-bf52-0353e8d8af68"},"vehicle_type_id":"4","last_reported":1739120833,"current_range_meters":18000,"station_id":"ce4bgt12rcd13ifvqcd0","pricing_plan_id":"cebpf4jnsgd1na2vs0mg"},{"bike_id":"37fc9ecf-d187-4780-98f8-bfafd8664be0","system_id":"levelo_inurba_marseille","lat":43.26545,"lon":5.37288,"is_reserved":false,"is_disabled":true,"rental_uris":{"android":"levelo://app?vid=37fc9ecf-d187-4780-98f8-bfafd8664be0","ios":"levelo://app?vid=37fc9ecf-d187-4780-98f8-bfafd8664be0"},"vehicle_type_id":"4","last_reported":1739120833,"current_range_meters":36000,"station_id":"ce4bhg12rcd13ifvqf70","pricing_plan_id":"cebpf4jnsgd1na2vs0mg"},{"bike_id":"e2200dc8-d2f7-4f30-b1b2-4f395de74e61","system_id":"levelo_inurba_marseille","lat":43.31132,"lon":5.37761,"is_reserved":false,"is_disabled":false,"rental_uris":{"android":"levelo://app?vid=e2200dc8-d2f7-4f30-b1b2-4f395de74e61","ios":"levelo://app?vid=e2200dc8-d2f7-4f30-b1b2-4f395de74e61"},"vehicle_type_id":"4","last_reported":1739120833,"current_range_meters":24800,"station_id":"ce4bgt92rcd13ifvqcg0","pricing_plan_id":"cebpf4jnsgd1na2vs0mg"},{"bike_id":"6dc8aad2-7037-4229-8043-78cd60c32539","system_id":"levelo_inurba_marseille","lat":43.23966,"lon":5.36627,"is_reserved":false,"is_disabled":false,"rental_uris":{"android":"levelo://app?vid=6dc8aad2-7037-4229-8043-78cd60c32539","ios":"levelo://app?vid=6dc8aad2-7037-4229-8043-78cd60c32539"},"vehicle_type_id":"4","last_reported":1739120833,"current_range_meters":38800,"station_id":"ce4bhi12rcd13ifvqfp0","pricing_plan_id":"cebpf4jnsgd1na2vs0mg"},{"bike_id":"f8fc3f94-57ec-43d5-a665-8dab40d58216","system_id":"levelo_inurba_marseille","lat":43.28274,"lon":5.35073,"is_reserved":false,"is_disabled":false,"rental_uris":{"android":"levelo://app?vid=f8fc3f94-57ec-43d5-a665-8dab40d58216","ios":"levelo://app?vid=f8fc3f94-57ec-43d5-a665-8dab40d58216"},"vehicle_type_id":"4","last_reported":1739120833,"current_range_meters":38800,"station_id":"ce4bhbp2rcd13ifvqerg","pricing_plan_id":"cebpf4jnsgd1na2vs0mg"},{"bike_id":"df199ea2-6423-4e47-8a78-4d2e4b95c9f1","system_id":"levelo_inurba_marseille","lat":43.30885,"lon":5.3966,"is_reserved":false,"is_disabled":true,"rental_uris":{"android":"levelo://app?vid=df199ea2-6423-4e47-8a78-4d2e4b95c9f1","ios":"levelo://app?vid=df199ea2-6423-4e47-8a78-4d2e4b95c9f1"},"vehicle_type_id":"4","last_reported":1739120833,"current_range_meters":34000,"station_id":"ce4bh012rcd13ifvqcv0","pricing_plan_id":"cebpf4jnsgd1na2vs0mg"},{"bike_id":"ffe0f4ec-452b-455a-97e3-ecc9f5ed121c","system_id":"levelo_inurba_marseille","lat":43.29868,"lon":5.38911,"is_reserved":false,"is_disabled":true,"rental_uris":{"android":"levelo://app?vid=ffe0f4ec-452b-455a-97e3-ecc9f5ed121c","ios":"levelo://app?vid=ffe0f4ec-452b-455a-97e3-ecc9f5ed121c"},"vehicle_type_id":"4","last_reported":1739120833,"current_range_meters":34800,"station_id":"ce4bh392rcd13ifvqdl0","pricing_plan_id":"cebpf4jnsgd1na2vs0mg"},{"bike_id":"c4ad2556-4681-4279-b1a8-bb626a67acea","system_id":"levelo_inurba_marseille","lat":43.30946,"lon":5.39033,"is_reserved":false,"is_disabled":false,"rental_uris":{"android":"levelo://app?vid=c4ad2556-4681-4279-b1a8-bb626a67acea","ios":"levelo://app?vid=c4ad2556-4681-4279-b1a8-bb626a67acea"},"vehicle_type_id":"4","last_reported":1739120833,"current_range_meters":21600,"station_id":"ce4bgup2rcd13ifvqco0","pricing_plan_id":"cebpf4jnsgd1na2vs0mg"},{"bike_id":"4eacaa73-d5d0-401f-bbc8-6544e2f5874f","system_id":"levelo_inurba_marseille","lat":43.27312,"lon":5.39082,"is_reserved":false,"is_disabled":false,"rental_uris":{"android":"levelo://app?vid=4eacaa73-d5d0-401f-bbc8-6544e2f5874f","ios":"levelo://app?vid=4eacaa73-d5d0-401f-bbc8-6544e2f5874f"},"vehicle_type_id":"4","last_reported":1739120833,"current_range_meters":35600,"station_id":"ce4bhgp2rcd13ifvqfe0","pricing_plan_id":"cebpf4jnsgd1na2vs0mg"},{"bike_id":"065cfb8c-302d-435e-b3e0-c92853df3635","system_id":"levelo_inurba_marseille","lat":43.284912,"lon":5.384102,"is_reserved":false,"is_disabled":false,"rental_uris":{"android":"levelo://app?vid=065cfb8c-302d-435e-b3e0-c92853df3635","ios":"levelo://app?vid=065cfb8c-302d-435e-b3e0-c92853df3635"},"vehicle_type_id":"4","last_reported":1739120833,"current_range_meters":38400,"station_id":"ce4bh512rcd13ifvqe3g","pricing_plan_id":"cebpf4jnsgd1na2vs0mg"},{"bike_id":"b8b92176-fffd-4d03-a216-09643d5e8030","system_id":"levelo_inurba_marseille","lat":43.29282,"lon":5.40119,"is_reserved":false,"is_disabled":false,"rental_uris":{"android":"levelo://app?vid=b8b92176-fffd-4d03-a216-09643d5e8030","ios":"levelo://app?vid=b8b92176-fffd-4d03-a216-09643d5e8030"},"vehicle_type_id":"4","last_reported":1739120833,"current_range_meters":6000,"station_id":"ce4bh312rcd13ifvqdk0","pricing_plan_id":"cebpf4jnsgd1na2vs0mg"},{"bike_id":"c2ee49e6-03c1-49e2-ae3a-c102a3d681ab","system_id":"levelo_inurba_marseille","lat":43.2619,"lon":5.3745,"is_reserved":false,"is_disabled":false,"rental_uris":{"android":"levelo://app?vid=c2ee49e6-03c1-49e2-ae3a-c102a3d681ab","ios":"levelo://app?vid=c2ee49e6-03c1-49e2-ae3a-c102a3d681ab"},"vehicle_type_id":"4","last_reported":1739120833,"current_range_meters":33600,"station_id":"ce4bhgp2rcd13ifvqfc0","pricing_plan_id":"cebpf4jnsgd1na2vs0mg"},{"bike_id":"d51f1456-524e-490c-84b1-302d3f32c03d","system_id":"levelo_inurba_marseille","lat":43.31131,"lon":5.38261,"is_reserved":false,"is_disabled":false,"rental_uris":{"android":"levelo://app?vid=d51f1456-524e-490c-84b1-302d3f32c03d","ios":"levelo://app?vid=d51f1456-524e-490c-84b1-302d3f32c03d"},"vehicle_type_id":"4","last_reported":1739120833,"current_range_meters":30000,"station_id":"","pricing_plan_id":"cebpf4jnsgd1na2vs0mg"},{"bike_id":"b4ca0283-dee1-4950-aeb8-94a22ab8094a","system_id":"levelo_inurba_marseille","lat":43.26692,"lon":5.38271,"is_reserved":false,"is_disabled":false,"rental_uris":{"android":"levelo://app?vid=b4ca0283-dee1-4950-aeb8-94a22ab8094a","ios":"levelo://app?vid=b4ca0283-dee1-4950-aeb8-94a22ab8094a"},"vehicle_type_id":"4","last_reported":1739120833,"current_range_meters":38000,"station_id":"ce4bhg92rcd13ifvqf90","pricing_plan_id":"cebpf4jnsgd1na2vs0mg"},{"bike_id":"d8f62340-4eca-4551-9614-e0d9ad9e8911","system_id":"levelo_inurba_marseille","lat":43.26953,"lon":5.38629,"is_reserved":false,"is_disabled":false,"rental_uris":{"android":"levelo://app?vid=d8f62340-4eca-4551-9614-e0d9ad9e8911","ios":"levelo://app?vid=d8f62340-4eca-4551-9614-e0d9ad9e8911"},"vehicle_type_id":"4","last_reported":1739120833,"current_range_meters":13600,"station_id":"ce4bhh92rcd13ifvqfh0","pricing_plan_id":"cebpf4jnsgd1na2vs0mg"},{"bike_id":"5c0d81e9-7fe2-4a32-a96c-32115c865f52","system_id":"levelo_inurba_marseille","lat":43.28724,"lon":5.3609,"is_reserved":false,"is_disabled":false,"rental_uris":{"android":"levelo://app?vid=5c0d81e9-7fe2-4a32-a96c-32115c865f52","ios":"levelo://app?vid=5c0d81e9-7fe2-4a32-a96c-32115c865f52"},"vehicle_type_id":"4","last_reported":1739120833,"current_range_meters":22000,"station_id":"cki0cbj6b192h4jlfktg","pricing_plan_id":"cebpf4jnsgd1na2vs0mg"},{"bike_id":"dec3e81a-2a6d-47e2-85e2-98535e780eba","system_id":"levelo_inurba_marseille","lat":43.32281,"lon":5.38264,"is_reserved":false,"is_disabled":false,"rental_uris":{"android":"levelo://app?vid=dec3e81a-2a6d-47e2-85e2-98535e780eba","ios":"levelo://app?vid=dec3e81a-2a6d-47e2-85e2-98535e780eba"},"vehicle_type_id":"4","last_reported":1739120833,"current_range_meters":4000,"station_id":"ce4bhr12rcd13ifvqhqg","pricing_plan_id":"cebpf4jnsgd1na2vs0mg"},{"bike_id":"4f3e6e81-556e-4a1f-86e6-f1d5d993a9ca","system_id":"levelo_inurba_marseille","lat":43.2848,"lon":5.38427,"is_reserved":false,"is_disabled":false,"rental_uris":{"android":"levelo://app?vid=4f3e6e81-556e-4a1f-86e6-f1d5d993a9ca","ios":"levelo://app?vid=4f3e6e81-556e-4a1f-86e6-f1d5d993a9ca"},"vehicle_type_id":"4","last_reported":1739120833,"current_range_meters":33200,"station_id":"ce4bh512rcd13ifvqe3g","pricing_plan_id":"cebpf4jnsgd1na2vs0mg"},{"bike_id":"4ba591b6-ab5e-4982-bae7-e3c883970d67","system_id":"levelo_inurba_marseille","lat":43.30148,"lon":5.38101,"is_reserved":false,"is_disabled":true,"rental_uris":{"android":"levelo://app?vid=4ba591b6-ab5e-4982-bae7-e3c883970d67","ios":"levelo://app?vid=4ba591b6-ab5e-4982-bae7-e3c883970d67"},"vehicle_type_id":"4","last_reported":1739120833,"current_range_meters":38800,"station_id":"ce4bgjp2rcd13ifvqbh0","pricing_plan_id":"cebpf4jnsgd1na2vs0mg"},{"bike_id":"59295360-0154-4e1d-9d13-5af69c469e94","system_id":"levelo_inurba_marseille","lat":43.28618,"lon":5.35094,"is_reserved":false,"is_disabled":true,"rental_uris":{"android":"levelo://app?vid=59295360-0154-4e1d-9d13-5af69c469e94","ios":"levelo://app?vid=59295360-0154-4e1d-9d13-5af69c469e94"},"vehicle_type_id":"4","last_reported":1739120833,"current_range_meters":33200,"station_id":"ce4bhch2rcd13ifvqeug","pricing_plan_id":"cebpf4jnsgd1na2vs0mg"},{"bike_id":"7717995f-6374-47b8-98eb-99080a149840","system_id":"levelo_inurba_marseille","lat":43.23961,"lon":5.36627,"is_reserved":false,"is_disabled":false,"rental_uris":{"android":"levelo://app?vid=7717995f-6374-47b8-98eb-99080a149840","ios":"levelo://app?vid=7717995f-6374-47b8-98eb-99080a149840"},"vehicle_type_id":"4","last_reported":1739120833,"current_range_meters":3200,"station_id":"ce4bhi12rcd13ifvqfp0","pricing_plan_id":"cebpf4jnsgd1na2vs0mg"},{"bike_id":"a684bd77-94ef-4a57-ace6-57bc52fe66cc","system_id":"levelo_inurba_marseille","lat":43.28365,"lon":5.38642,"is_reserved":false,"is_disabled":false,"rental_uris":{"android":"levelo://app?vid=a684bd77-94ef-4a57-ace6-57bc52fe66cc","ios":"levelo://app?vid=a684bd77-94ef-4a57-ace6-57bc52fe66cc"},"vehicle_type_id":"4","last_reported":1739120833,"current_range_meters":6000,"station_id":"ce4bh492rcd13ifvqdvg","pricing_plan_id":"cebpf4jnsgd1na2vs0mg"},