{"last_updated":1701131743,"ttl":30,"version":"2.2","data":{"bikes":[{"bike_id":"7c6518b5-72f3-43fe-a3a7-692bdd8bd221","system_id":"levelo_inurba_marseille","lat":43.312239,"lon":5.368562,"is_reserved":false,"is_disabled":false,"rental_uris":{"android":"levelo://app?vid=7c6518b5-72f3-43fe-a3a7-692bdd8bd221","ios":"levelo://app?vid=7c6518b5-72f3-43fe-a3a7-692bdd8bd221"},"vehicle_type_id":"4","last_reported":1701131743,"current_range_meters":30400,"station_id":"ce4bgl92rcd13ifvqbq0","pricing_plan_id":"free"},{"bike_id":"6245e4e5-888b-47ad-8f8a-65e07ca884d6","system_id":"levelo_inurba_marseille","lat":43.309076,"lon":5.368465,"is_reserved":false,"is_disabled":false,"rental_uris":{"android":"levelo://app?vid=6245e4e5-888b-47ad-8f8a-65e07ca884d6","ios":"levelo://app?vid=6245e4e5-888b-47ad-8f8a-65e07ca884d6"},"vehicle_type_id":"4","last_reported":1701131743,"current_range_meters":24800,"station_id":"ce4bgn92rcd13ifvqbvg","pricing_plan_id":"free"},{"bike_id":"a4d2e083-bf3c-4852-bce2-d53ff4535105","system_id":"levelo_inurba_marseille","lat":43.309076,"lon":5.368465,"is_reserved":false,"is_disabled":false,"rental_uris":{"android":"levelo://app?vid=a4d2e083-bf3c-4852-bce2-d53ff4535105","ios":"levelo://app?vid=a4d2e083-bf3c-4852-bce2-d53ff4535105"},"vehicle_type_id":"4","last_reported":1701131743,"current_range_meters":28000,"station_id":"ce4bgn92rcd13ifvqbvg","pricing_plan_id":"free"},{"bike_id":"5126b0aa-d865-4589-8d50-8d8600ba8782","system_id":"levelo_inurba_marseille","lat":43.308416,"lon":5.368774,"is_reserved":false,"is_disabled":false,"rental_uris":{"android":"levelo://app?vid=5126b0aa-d865-4589-8d50-8d8600ba8782","ios":"levelo://app?vid=5126b0aa-d865-4589-8d50-8d8600ba8782"},"vehicle_type_id":"4","last_reported":1701131743,"current_range_meters":24400,"station_id":"","pricing_plan_id":"free"},{"bike_id":"09b4c0c8-dcea-460e-bacf-553a29699226","system_id":"levelo_inurba_marseille","lat":43.30892,"lon":5.372013,"is_reserved":false,"is_disabled":false,"rental_uris":{"android":"levelo://app?vid=09b4c0c8-dcea-460e-bacf-553a29699226","ios":"levelo://app?vid=09b4c0c8-dcea-460e-bacf-553a29699226"},"vehicle_type_id":"4","last_reported":1701131743,"current_range_meters":21600,"station_id":"ce4bguh2rcd13ifvqckg","pricing_plan_id":"free"},{"bike_id":"fa4c08a8-f79b-4419-8791-02374ece74c7","system_id":"levelo_inurba_marseille","lat":43.316883,"lon":5.372876,"is_reserved":false,"is_disabled":false,"rental_uris":{"android":"levelo://app?vid=fa4c08a8-f79b-4419-8791-02374ece74c7","ios":"levelo://app?vid=fa4c08a8-f79b-4419-8791-02374ece74c7"},"vehicle_type_id":"4","last_reported":1701131743,"current_range_meters":4000,"station_id":"","pricing_plan_id":"free"},{"bike_id":"226310b2-638c-444c-a15f-247c16471cee","system_id":"levelo_inurba_marseille","lat":43.3193,"lon":5.368061,"is_reserved":false,"is_disabled":false,"rental_uris":{"android":"levelo://app?vid=226310b2-638c-444c-a15f-247c16471cee","ios":"levelo://app?vid=226310b2-638c-444c-a15f-247c16471cee"},"vehicle_type_id":"4","last_reported":1701131743,"current_range_meters":13600,"station_id":"","pricing_plan_id":"free"},{"bike_id":"0525c228-cd5d-40c2-ac67-edd6915961b7","system_id":"levelo_inurba_marseille","lat":43.308186,"lon":5.376562,"is_reserved":false,"is_disabled":false,"rental_uris":{"android":"levelo://app?vid=0525c228-cd5d-40c2-ac67-edd6915961b7","ios":"levelo://app?vid=0525c228-cd5d-40c2-ac67-edd6915961b7"},"vehicle_type_id":"4","last_reported":1701131743,"current_range_meters":4400,"station_id":"ce4bgv92rcd13ifvqcq0","pricing_plan_id":"free"},{"bike_id":"fc415d5e-6575-4d37-9a53-1372d544d6af","system_id":"levelo_inurba_marseille","lat":43.308165,"lon":5.376605,"is_reserved":false,"is_disabled":false,"rental_uris":{"android":"levelo://app?vid=fc415d5e-6575-4d37-9a53-1372d544d6af","ios":"levelo://app?vid=fc415d5e-6575-4d37-9a53-1372d544d6af"},"vehicle_type_id":"4","last_reported":1701131743,"current_range_meters":23600,"station_id":"ce4bgv92rcd13ifvqcq0","pricing_plan_id":"free"},{"bike_id":"f427a2c3-6e4a-446b-ae2f-9be8aa7f4122","system_id":"levelo_inurba_marseille","lat":43.31719,"lon":5.376813,"is_reserved":false,"is_disabled":false,"rental_uris":{"android":"levelo://app?vid=f427a2c3-6e4a-446b-ae2f-9be8aa7f4122","ios":"levelo://app?vid=f427a2c3-6e4a-446b-ae2f-9be8aa7f4122"},"vehicle_type_id":"4","last_reported":1701131743,"current_range_meters":15200,"station_id":"ce4bgth2rcd13ifvqch0","pricing_plan_id":"free"},{"bike_id":"e913f328-1e31-4c22-bd87-f809ea246de4","system_id":"levelo_inurba_marseille","lat":43.317168,"lon":5.376883,"is_reserved":false,"is_disabled":false,"rental_uris":{"android":"levelo://app?vid=e913f328-1e31-4c22-bd87-f809ea246de4","ios":"levelo://app?vid=e913f328-1e31-4c22-bd87-f809ea246de4"},"vehicle_type_id":"4","last_reported":1701131743,"current_range_meters":17600,"station_id":"ce4bgth2rcd13ifvqch0","pricing_plan_id":"free"},{"bike_id":"5a9e0af0-77a2-4736-8647-f0816bf53ea9","system_id":"levelo_inurba_marseille","lat":43.307945,"lon":5.376487,"is_reserved":false,"is_disabled":false,"rental_uris":{"android":"levelo://app?vid=5a9e0af0-77a2-4736-8647-f0816bf53ea9","ios":"levelo://app?vid=5a9e0af0-77a2-4736-8647-f0816bf53ea9"},"vehicle_type_id":"4","last_reported":1701131743,"current_range_meters":31200,"station_id":"ce4bgv92rcd13ifvqcq0","pricing_plan_id":"free"},{"bike_id":"6c562f85-64e2-4398-aad0-f51f94bb41f4","system_id":"levelo_inurba_marseille","lat":43.308012,"lon":5.381511,"is_reserved":false,"is_disabled":false,"rental_uris":{"android":"levelo://app?vid=6c562f85-64e2-4398-aad0-f51f94bb41f4","ios":"levelo://app?vid=6c562f85-64e2-4398-aad0-f51f94bb41f4"},"vehicle_type_id":"4","last_reported":1701131743,"current_range_meters":6000,"station_id":"ce4bgt12rcd13ifvqce0","pricing_plan_id":"free"},{"bike_id":"66b87a65-4c69-4787-adc3-3179cd2daeb1","system_id":"levelo_inurba_marseille","lat":43.304606,"lon":5.379026,"is_reserved":false,"is_disabled":false,"rental_uris":{"android":"levelo://app?vid=66b87a65-4c69-4787-adc3-3179cd2daeb1","ios":"levelo://app?vid=66b87a65-4c69-4787-adc3-3179cd2daeb1"},"vehicle_type_id":"4","last_reported":1701131743,"current_range_meters":29600,"station_id":"ce4bgup2rcd13ifvqcn0","pricing_plan_id":"free"},{"bike_id":"4ad8db87-2e2d-4900-a804-a1bb931ba164","system_id":"levelo_inurba_marseille","lat":43.319973,"lon":5.381527,"is_reserved":false,"is_disabled":false,"rental_uris":{"android":"levelo://app?vid=4ad8db87-2e2d-4900-a804-a1bb931ba164","ios":"levelo://app?vid=4ad8db87-2e2d-4900-a804-a1bb931ba164"},"vehicle_type_id":"4","last_reported":1701131743,"current_range_meters":0,"station_id":"ce4bhr12rcd13ifvqhpg","pricing_plan_id":"free"},{"bike_id":"e17a7de5-ebd4-42fc-8860-6e511f77b829","system_id":"levelo_inurba_marseille","lat":43.32517,"lon":5.36171,"is_reserved":false,"is_disabled":false,"rental_uris":{"android":"levelo://app?vid=e17a7de5-ebd4-42fc-8860-6e511f77b829","ios":"levelo://app?vid=e17a7de5-ebd4-42fc-8860-6e511f77b829"},"vehicle_type_id":"4","last_reported":1701131743,"current_range_meters":26400,"station_id":"","pricing_plan_id":"free"},{"bike_id":"a197ca14-0597-446a-98f0-2e2889ca3f6f","system_id":"levelo_inurba_marseille","lat":43.313571,"lon":5.384829,"is_reserved":false,"is_disabled":false,"rental_uris":{"android":"levelo://app?vid=a197ca14-0597-446a-98f0-2e2889ca3f6f","ios":"levelo://app?vid=a197ca14-0597-446a-98f0-2e2889ca3f6f"},"vehicle_type_id":"4","last_reported":1701131743,"current_range_meters":27200,"station_id":"ce4bgt92rcd13ifvqcf0","pricing_plan_id":"free"},{"bike_id":"c400ebe4-e00e-4b81-bc61-5d9016d46b6b","system_id":"levelo_inurba_marseille","lat":43.313571,"lon":5.384829,"is_reserved":false,"is_disabled":false,"rental_uris":{"android":"levelo://app?vid=c400ebe4-e00e-4b81-bc61-5d9016d46b6b","ios":"levelo://app?vid=c400ebe4-e00e-4b81-bc61-5d9016d46b6b"},"vehicle_type_id":"4","last_reported":1701131743,"current_range_meters":12000,"station_id":"ce4bgt92rcd13ifvqcf0","pricing_plan_id":"free"},{"bike_id":"74c61186-5a22-47b0-9c3e-c78231c21522","system_id":"levelo_inurba_marseille","lat":43.313678,"lon":5.384953,"is_reserved":false,"is_disabled":false,"rental_uris":{"android":"levelo://app?vid=74c61186-5a22-47b0-9c3e-c78231c21522","ios":"levelo://app?vid=74c61186-5a22-47b0-9c3e-c78231c21522"},"vehicle_type_id":"4","last_reported":1701131743,"current_range_meters":17600,"station_id":"","pricing_plan_id":"free"},{"bike_id":"9eca9eea-46d8-4b9f-b9ad-14875694e23b","system_id":"levelo_inurba_marseille","lat":43.313571,"lon":5.384829,"is_reserved":false,"is_disabled":false,"rental_uris":{"android":"levelo://app?vid=9eca9eea-46d8-4b9f-b9ad-14875694e23b","ios":"levelo://app?vid=9eca9eea-46d8-4b9f-b9ad-14875694e23b"},"vehicle_type_id":"4","last_reported":1701131743,"current_range_meters":29200,"station_id":"ce4bgt92rcd13ifvqcf0","pricing_plan_id":"free"},{"bike_id":"a802f0a3-746e-4626-87ec-24218d93fd78","system_id":"levelo_inurba_marseille","lat":43.313571,"lon":5.384829,"is_reserved":false,"is_disabled":false,"rental_uris":{"android":"levelo://app?vid=a802f0a3-746e-4626-87ec-24218d93fd78","ios":"levelo://app?vid=a802f0a3-746e-4626-87ec-24218d93fd78"},"vehicle_type_id":"4","last_reported":1701131743,"current_range_meters":0,"station_id":"ce4bgt92rcd13ifvqcf0","pricing_plan_id":"free"},{"bike_id":"f8d165e7-d334-4abd-8688-f7bbe3b066ac","system_id":"levelo_inurba_marseille","lat":43.31352,"lon":5.385,"is_reserved":false,"is_disabled":false,"rental_uris":{"android":"levelo://app?vid=f8d165e7-d334-4abd-8688-f7bbe3b066ac","ios":"levelo://app?vid=f8d165e7-d334-4abd-8688-f7bbe3b066ac"},"vehicle_type_id":"4","last_reported":1701131743,"current_range_meters":23600,"station_id":"ce4bgt92rcd13ifvqcf0","pricing_plan_id":"free"},{"bike_id":"b2ee6be8-55aa-485f-af71-aa9a87f6169d","system_id":"levelo_inurba_marseille","lat":43.313571,"lon":5.384829,"is_reserved":false,"is_disabled":false,"rental_uris":{"android":"levelo://app?vid=b2ee6be8-55aa-485f-af71-aa9a87f6169d","ios":"levelo://app?vid=b2ee6be8-55aa-485f-af71-aa9a87f6169d"},"vehicle_type_id":"4","last_reported":1701131743,"current_range_meters":31200,"station_id":"ce4bgt92rcd13ifvqcf0","pricing_plan_id":"free"},{"bike_id":"f4dfd7c6-e0c2-4ac0-b38f-c2ffaa0351de","system_id":"levelo_inurba_marseille","lat":43.299283,"lon":5.365448,"is_reserved":false,"is_disabled":false,"rental_uris":{"android":"levelo://app?vid=f4dfd7c6-e0c2-4ac0-b38f-c2ffaa0351de","ios":"levelo://app?vid=f4dfd7c6-e0c2-4ac0-b38f-c2ffaa0351de"},"vehicle_type_id":"4","last_reported":1701131743,"current_range_meters":4000,"station_id":"ce4bgm92rcd13ifvqbr0","pricing_plan_id":"free"},{"bike_id":"0923cdaf-f0e8-4595-b3f7-ac27770c3f74","system_id":"levelo_inurba_marseille","lat":43.29854,"lon":5.3628,"is_reserved":false,"is_disabled":false,"rental_uris":{"android":"levelo://app?vid=0923cdaf-f0e8-4595-b3f7-ac27770c3f74","ios":"levelo://app?vid=0923cdaf-f0e8-4595-b3f7-ac27770c3f74"},"vehicle_type_id":"4","last_reported":1701131743,"current_range_meters":6400,"station_id":"ce4bgpp2rcd13ifvqc3g","pricing_plan_id":"free"},{"bike_id":"09516f4d-a8f4-43cd-92f1-a4db7382c379","system_id":"levelo_inurba_marseille","lat":43.31188,"lon":5.38711,"is_reserved":false,"is_disabled":false,"rental_uris":{"android":"levelo://app?vid=09516f4d-a8f4-43cd-92f1-a4db7382c379","ios":"levelo://app?vid=09516f4d-a8f4-43cd-92f1-a4db7382c379"},"vehicle_type_id":"4","last_reported":1701131743,"current_range_meters":14000,"station_id":"ce4bgv12rcd13ifvqcp0","pricing_plan_id":"free"},{"bike_id":"4c0f5728-1e5c-4168-ab2b-8710a5fc23ce","system_id":"levelo_inurba_marseille","lat":43.311722,"lon":5.387247,"is_reserved":false,"is_disabled":false,"rental_uris":{"android":"levelo://app?vid=4c0f5728-1e5c-4168-ab2b-8710a5fc23ce","ios":"levelo://app?vid=4c0f5728-1e5c-4168-ab2b-8710a5fc23ce"},"vehicle_type_id":"4","last_reported":1701131743,"current_range_meters":28400,"station_id":"ce4bgv12rcd13ifvqcp0","pricing_plan_id":"free"},{"bike_id":"e2048a67-10ec-47ce-a0b3-acbc099d5b2a","system_id":"levelo_inurba_marseille","lat":43.311722,"lon":5.387247,"is_reserved":false,"is_disabled":false,"rental_uris":{"android":"levelo://app?vid=e2048a67-10ec-47ce-a0b3-acbc099d5b2a","ios":"levelo://app?vid=e2048a67-10ec-47ce-a0b3-acbc099d5b2a"},"vehicle_type_id":"4","last_reported":1701131743,"current_range_meters":31200,"station_id":"ce4bgv12rcd13ifvqcp0","pricing_plan_id":"free"},{"bike_id":"583ba3d6-9fa5-4c56-9dfd-6c9e888cb6c3","system_id":"levelo_inurba_marseille","lat":43.311722,"lon":5.387247,"is_reserved":false,"is_disabled":false,"rental_uris":{"android":"levelo://app?vid=583ba3d6-9fa5-4c56-9dfd-6c9e888cb6c3","ios":"levelo://app?vid=583ba3d6-9fa5-4c56-9dfd-6c9e888cb6c3"},"vehicle_type_id":"4","last_reported":1701131743,"current_range_meters":30000,"station_id":"ce4bgv12rcd13ifvqcp0","pricing_plan_id":"free"},{"bike_id":"72a3ee6f-8a45-4a76-bda7-0424dd268c12","system_id":"levelo_inurba_marseille","lat":43.311722,"lon":5.387247,"is_reserved":false,"is_disabled":false,"rental_uris":{"android":"levelo://app?vid=72a3ee6f-8a45-4a76-bda7-0424dd268c12","ios":"levelo://app?vid=72a3ee6f-8a45-4a76-bda7-0424dd268c12"},"vehicle_type_id":"4","last_reported":1701131743,"current_range_meters":8400,"station_id":"ce4bgv12rcd13ifvqcp0","pricing_plan_id":"free"},{"bike_id":"6b6496e6-04bc-4786-8dfc-8d0c4ae9cfa2","system_id":"levelo_inurba_marseille","lat":43.311722,"lon":5.387247,"is_reserved":false,"is_disabled":false,"rental_uris":{"android":"levelo://app?vid=6b6496e6-04bc-4786-8dfc-8d0c4ae9cfa2","ios":"levelo://app?vid=6b6496e6-04bc-4786-8dfc-8d0c4ae9cfa2"},"vehicle_type_id":"4","last_reported":1701131743,"current_range_meters":29600,"station_id":"ce4bgv12rcd13ifvqcp0","pricing_plan_id":"free"},{"bike_id":"79f1fbeb-2f59-4735-9a98-68d2fc434ef5","system_id":"levelo_inurba_marseille","lat":43.311722,"lon":5.387247,"is_reserved":false,"is_disabled":false,"rental_uris":{"android":"levelo://app?vid=79f1fbeb-2f59-4735-9a98-68d2fc434ef5","ios":"levelo://app?vid=79f1fbeb-2f59-4735-9a98-68d2fc434ef5"},"vehicle_type_id":"4","last_reported":1701131743,"current_range_meters":20800,"station_id":"ce4bgv12rcd13ifvqcp0","pricing_plan_id":"free"},{"bike_id":"ea81c7a7-10cd-4f6b-b0a5-a3d91306bc0f","system_id":"levelo_inurba_marseille","lat":43.322872,"lon":5.382756,"is_reserved":false,"is_disabled":false,"rental_uris":{"android":"levelo://app?vid=ea81c7a7-10cd-4f6b-b0a5-a3d91306bc0f","ios":"levelo://app?vid=ea81c7a7-10cd-4f6b-b0a5-a3d91306bc0f"},"vehicle_type_id":"4","last_reported":1701131743,"current_range_meters":30400,"station_id":"ce4bhr12rcd13ifvqhqg","pricing_plan_id":"free"},{"bike_id":"94c07b7d-507e-4af7-a58b-47c5971b76e1","system_id":"levelo_inurba_marseille","lat":43.29975,"lon":5.37836,"is_reserved":false,"is_disabled":false,"rental_uris":{"android":"levelo://app?vid=94c07b7d-507e-4af7-a58b-47c5971b76e1","ios":"levelo://app?vid=94c07b7d-507e-4af7-a58b-47c5971b76e1"},"vehicle_type_id":"4","last_reported":1701131743,"current_range_meters":27600,"station_id":"","pricing_plan_id":"free"},{"bike_id":"1df95087-0211-4401-99cb-f533fc6d5326","system_id":"levelo_inurba_marseille","lat":43.328371,"lon":5.366909,"is_reserved":false,"is_disabled":false,"rental_uris":{"android":"levelo://app?vid=1df95087-0211-4401-99cb-f533fc6d5326","ios":"levelo://app?vid=1df95087-0211-4401-99cb-f533fc6d5326"},"vehicle_type_id":"4","last_reported":1701131743,"current_range_meters":19600,"station_id":"ce4bhs92rcd13ifvqi0g","pricing_plan_id":"free"},{"bike_id":"4385b718-3239-4595-aacd-110aedfff5cd","system_id":"levelo_inurba_marseille","lat":43.328371,"lon":5.366909,"is_reserved":false,"is_disabled":false,"rental_uris":{"android":"levelo://app?vid=4385b718-3239-4595-aacd-110aedfff5cd","ios":"levelo://app?vid=4385b718-3239-4595-aacd-110aedfff5cd"},"vehicle_type_id":"4","last_reported":1701131743,"current_range_meters":8000,"station_id":"ce4bhs92rcd13ifvqi0g","pricing_plan_id":"free"},{"bike_id":"a7e3ee8f-2150-44e9-ae56-77d9247d37b8","system_id":"levelo_inurba_marseille","lat":43.328371,"lon":5.366909,"is_reserved":false,"is_disabled":false,"rental_uris":{"android":"levelo://app?vid=a7e3ee8f-2150-44e9-ae56-77d9247d37b8","ios":"levelo://app?vid=a7e3ee8f-2150-44e9-ae56-77d9247d37b8"},"vehicle_type_id":"4","last_reported":1701131743,"current_range_meters":26000,"station_id":"ce4bhs92rcd13ifvqi0g","pricing_plan_id":"free"},{"bike_id":"31161762-189c-4f9c-9ddb-4941382bb1d9","system_id":"levelo_inurba_marseille","lat":43.328371,"lon":5.366909,"is_reserved":false,"is_disabled":false,"rental_uris":{"android":"levelo://app?vid=31161762-189c-4f9c-9ddb-4941382bb1d9","ios":"levelo://app?vid=31161762-189c-4f9c-9ddb-4941382bb1d9"},"vehicle_type_id":"4","last_reported":1701131743,"current_range_meters":26000,"station_id":"ce4bhs92rcd13ifvqi0g","pricing_plan_id":"free"},{"bike_id":"f7f59c23-bc6f-479d-8752-b4ab95b41a11","system_id":"levelo_inurba_marseille","lat":43.297163,"lon":5.365866,"is_reserved":false,"is_disabled":false,"rental_uris":{"android":"levelo://app?vid=f7f59c23-bc6f-479d-8752-b4ab95b41a11","ios":"levelo://app?vid=f7f59c23-bc6f-479d-8752-b4ab95b41a11"},"vehicle_type_id":"4","last_reported":1701131743,"current_range_meters":30400,"station_id":"ce4bgn12rcd13ifvqbt0","pricing_plan_id":"free"},{"bike_id":"edc5a8da-078a-4a24-8f3e-ffeb7784ed9b","system_id":"levelo_inurba_marseille","lat":43.297163,"lon":5.365866,"is_reserved":false,"is_disabled":false,"rental_uris":{"android":"levelo://app?vid=edc5a8da-078a-4a24-8f3e-ffeb7784ed9b","ios":"levelo://app?vid=edc5a8da-078a-4a24-8f3e-ffeb7784ed9b"},"vehicle_type_id":"4","last_reported":1701131743,"current_range_meters":24400,"station_id":"ce4bgn12rcd13ifvqbt0","pricing_plan_id":"free"},{"bike_id":"9f0dd190-5090-4a4c-82b6-7b8f872b7af9","system_id":"levelo_inurba_marseille","lat":43.300435,"lon":5.380845,"is_reserved":false,"is_disabled":false,"rental_uris":{"android":"levelo://app?vid=9f0dd190-5090-4a4c-82b6-7b8f872b7af9","ios":"levelo://app?vid=9f0dd190-5090-4a4c-82b6-7b8f872b7af9"},"vehicle_type_id":"4","last_reported":1701131743,"current_range_meters":26800,"station_id":"","pricing_plan_id":"free"},{"bike_id":"4c95beac-a5ce-4bfa-b22f-3c47a7c86e4e","system_id":"levelo_inurba_marseille","lat":43.295922,"lon":5.36801,"is_reserved":false,"is_disabled":false,"rental_uris":{"android":"levelo://app?vid=4c95beac-a5ce-4bfa-b22f-3c47a7c86e4e","ios":"levelo://app?vid=4c95beac-a5ce-4bfa-b22f-3c47a7c86e4e"},"vehicle_type_id":"4","last_reported":1701131743,"current_range_meters":22000,"station_id":"","pricing_plan_id":"free"},{"bike_id":"4450508a-3973-49be-83c1-421065a9e1cc","system_id":"levelo_inurba_marseille","lat":43.29573,"lon":5.367355,"is_reserved":false,"is_disabled":false,"rental_uris":{"android":"levelo://app?vid=4450508a-3973-49be-83c1-421065a9e1cc","ios":"levelo://app?vid=4450508a-3973-49be-83c1-421065a9e1cc"},"vehicle_type_id":"4","last_reported":1701131743,"current_range_meters":22400,"station_id":"ce4bgph2rcd13ifvqc2g","pricing_plan_id":"free"},{"bike_id":"4aa10407-271f-473f-8a5e-4c25952ac374","system_id":"levelo_inurba_marseille","lat":43.296921,"lon":5.376579,"is_reserved":false,"is_disabled":false,"rental_uris":{"android":"levelo://app?vid=4aa10407-271f-473f-8a5e-4c25952ac374","ios":"levelo://app?vid=4aa10407-271f-473f-8a5e-4c25952ac374"},"vehicle_type_id":"4","last_reported":1701131743,"current_range_meters":30800,"station_id":"ce4bgkh2rcd13ifvqbl0","pricing_plan_id":"free"},{"bike_id":"316c1e62-8eac-4884-9f83-90ce839cb8e2","system_id":"levelo_inurba_marseille","lat":43.299028,"lon":5.381509,"is_reserved":false,"is_disabled":false,"rental_uris":{"android":"levelo://app?vid=316c1e62-8eac-4884-9f83-90ce839cb8e2","ios":"levelo://app?vid=316c1e62-8eac-4884-9f83-90ce839cb8e2"},"vehicle_type_id":"4","last_reported":1701131743,"current_range_meters":28000,"station_id":"ce4bgj12rcd13ifvqbc0","pricing_plan_id":"free"},{"bike_id":"b6c18fcd-f4b8-4b24-9600-087a0e986344","system_id":"levelo_inurba_marseille","lat":43.309589,"lon":5.390258,"is_reserved":false,"is_disabled":false,"rental_uris":{"android":"levelo://app?vid=b6c18fcd-f4b8-4b24-9600-087a0e986344","ios":"levelo://app?vid=b6c18fcd-f4b8-4b24-9600-087a0e986344"},"vehicle_type_id":"4","last_reported":1701131743,"current_range_meters":28400,"station_id":"ce4bgup2rcd13ifvqco0","pricing_plan_id":"free"},{"bike_id":"ff3a89ca-1e81-456b-9cf0-cfeb5280b912","system_id":"levelo_inurba_marseille","lat":43.317557,"lon":5.390173,"is_reserved":false,"is_disabled":false,"rental_uris":{"android":"levelo://app?vid=ff3a89ca-1e81-456b-9cf0-cfeb5280b912","ios":"levelo://app?vid=ff3a89ca-1e81-456b-9cf0-cfeb5280b912"},"vehicle_type_id":"4","last_reported":1701131743,"current_range_meters":29200,"station_id":"ce4bhqp2rcd13ifvqhng","pricing_plan_id":"free"},{"bike_id":"6684d52d-75d3-4c1b-919b-213463e70b08","system_id":"levelo_inurba_marseille","lat":43.32369,"lon":5.38893,"is_reserved":false,"is_disabled":false,"rental_uris":{"android":"levelo://app?vid=6684d52d-75d3-4c1b-919b-213463e70b08","ios":"levelo://app?vid=6684d52d-75d3-4c1b-919b-213463e70b08"},"vehicle_type_id":"4","last_reported":1701131743,"current_range_meters":21600,"station_id":"ce4bhqp2rcd13ifvqhog","pricing_plan_id":"free"},{"bike_id":"5cc0cacb-1fbc-4f6d-ba24-65add6cc533d","system_id":"levelo_inurba_marseille","lat":43.305994,"lon":5.393687,"is_reserved":false,"is_disabled":false,"rental_uris":{"android":"levelo://app?vid=5cc0cacb-1fbc-4f6d-ba24-65add6cc533d","ios":"levelo://app?vid=5cc0cacb-1fbc-4f6d-ba24-65add6cc533d"},"vehicle_type_id":"4","last_reported":1701131743,"current_range_meters":29200,"station_id":"ce4bh0p2rcd13ifvqd80","pricing_plan_id":"free"},{"bike_id":"fa71a3b7-f9d0-41ac-86a9-2e8907f5b548","system_id":"levelo_inurba_marseille","lat":43.291675,"lon":5.371583,"is_reserved":false,"is_disabled":false,"rental_uris":{"android":"levelo://app?vid=fa71a3b7-f9d0-41ac-86a9-2e8907f5b548","ios":"levelo://app?vid=fa71a3b7-f9d0-41ac-86a9-2e8907f5b548"},"vehicle_type_id":"4","last_reported":1701131743,"current_range_meters":26400,"station_id":"ce4bha92rcd13ifvqeh0","pricing_plan_id":"free"},{"bike_id":"c81d9255-a93e-4508-a520-67e9511520cb","system_id":"levelo_inurba_marseille","lat":43.309038,"lon":5.396546,"is_reserved":false,"is_disabled":false,"rental_uris":{"android":"levelo://app?vid=c81d9255-a93e-4508-a520-67e9511520cb","ios":"levelo://app?vid=c81d9255-a93e-4508-a520-67e9511520cb"},"vehicle_type_id":"4","last_reported":1701131743,"current_range_meters":32000,"station_id":"ce4bh012rcd13ifvqcv0","pricing_plan_id":"free"},{"bike_id":"4d25e414-2156-4598-9db5-60f403f3775f","system_id":"levelo_inurba_marseille","lat":43.291931,"lon":5.358003,"is_reserved":false,"is_disabled":false,"rental_uris":{"android":"levelo://app?vid=4d25e414-2156-4598-9db5-60f403f3775f","ios":"levelo://app?vid=4d25e414-2156-4598-9db5-60f403f3775f"},"vehicle_type_id":"4","last_reported":1701131743,"current_range_meters":23600,"station_id":"ce4bhb12rcd13ifvqel0","pricing_plan_id":"free"},{"bike_id":"100b8801-2a71-4674-9ffe-0952631c0772","system_id":"levelo_inurba_marseille","lat":43.313291,"lon":5.396838,"is_reserved":false,"is_disabled":false,"rental_uris":{"android":"levelo://app?vid=100b8801-2a71-4674-9ffe-0952631c0772","ios":"levelo://app?vid=100b8801-2a71-4674-9ffe-0952631c0772"},"vehicle_type_id":"4","last_reported":1701131743,"current_range_meters":17600,"station_id":"ce4bgvp2rcd13ifvqcu0","pricing_plan_id":"free"},{"bike_id":"af3a816d-c99d-4280-99e5-79604c8235fa","system_id":"levelo_inurba_marseille","lat":43.29191,"lon":5.35801,"is_reserved":false,"is_disabled":false,"rental_uris":{"android":"levelo://app?vid=af3a816d-c99d-4280-99e5-79604c8235fa","ios":"levelo://app?vid=af3a816d-c99d-4280-99e5-79604c8235fa"},"vehicle_type_id":"4","last_reported":1701131743,"current_range_meters":18000,"station_id":"ce4bhb12rcd13ifvqel0","pricing_plan_id":"free"},{"bike_id":"8fc84ccf-b925-4157-83d8-252a4afe2990","system_id":"levelo_inurba_marseille","lat":43.309047,"lon":5.396551,"is_reserved":false,"is_disabled":false,"rental_uris":{"android":"levelo://app?vid=8fc84ccf-b925-4157-83d8-252a4afe2990","ios":"levelo://app?vid=8fc84ccf-b925-4157-83d8-252a4afe2990"},"vehicle_type_id":"4","last_reported":1701131743,"current_range_meters":30000,"station_id":"ce4bh012rcd13ifvqcv0","pricing_plan_id":"free"},{"bike_id":"8f868c80-12e3-44d6-8ad7-837a3579bc19","system_id":"levelo_inurba_marseille","lat":43.313291,"lon":5.396838,"is_reserved":false,"is_disabled":false,"rental_uris":{"android":"levelo://app?vid=8f868c80-12e3-44d6-8ad7-837a3579bc19","ios":"levelo://app?vid=8f868c80-12e3-44d6-8ad7-837a3579bc19"},"vehicle_type_id":"4","last_reported":1701131743,"current_range_meters":4800,"station_id":"ce4bgvp2rcd13ifvqcu0","pricing_plan_id":"free"},{"bike_id":"72edd8fb-1f78-46ab-a528-f5c72497e419","system_id":"levelo_inurba_marseille","lat":43.313291,"lon":5.396838,"is_reserved":false,"is_disabled":false,"rental_uris":{"android":"levelo://app?vid=72edd8fb-1f78-46ab-a528-f5c72497e419","ios":"levelo://app?vid=72edd8fb-1f78-46ab-a528-f5c72497e419"},"vehicle_type_id":"4","last_reported":1701131743,"current_range_meters":16000,"station_id":"ce4bgvp2rcd13ifvqcu0","pricing_plan_id":"free"},{"bike_id":"9b14d32a-fd8a-4177-9b88-21f0eec481ab","system_id":"levelo_inurba_marseille","lat":43.309038,"lon":5.396546,"is_reserved":false,"is_disabled":false,"rental_uris":{"android":"levelo://app?vid=9b14d32a-fd8a-4177-9b88-21f0eec481ab","ios":"levelo://app?vid=9b14d32a-fd8a-4177-9b88-21f0eec481ab"},"vehicle_type_id":"4","last_reported":1701131743,"current_range_meters":11200,"station_id":"ce4bh012rcd13ifvqcv0","pricing_plan_id":"free"},{"bike_id":"9dfc1be4-40e0-479e-8a23-39504815e756","system_id":"levelo_inurba_marseille","lat":43.332749,"lon":5.379619,"is_reserved":false,"is_disabled":false,"rental_uris":{"android":"levelo://app?vid=9dfc1be4-40e0-479e-8a23-39504815e756","ios":"levelo://app?vid=9dfc1be4-40e0-479e-8a23-39504815e756"},"vehicle_type_id":"4","last_reported":1701131743,"current_range_meters":30000,"station_id":"","pricing_plan_id":"free"},{"bike_id":"a342ac9f-e0ac-4396-a61c-534d761602e7","system_id":"levelo_inurba_marseille","lat":43.289184,"lon":5.366408,"is_reserved":false,"is_disabled":false,"rental_uris":{"android":"levelo://app?vid=a342ac9f-e0ac-4396-a61c-534d761602e7","ios":"levelo://app?vid=a342ac9f-e0ac-4396-a61c-534d761602e7"},"vehicle_type_id":"4","last_reported":1701131743,"current_range_meters":27200,"station_id":"ce4bhap2rcd13ifvqek0","pricing_plan_id":"free"},{"bike_id":"a040e2d8-3b19-4d88-8dfb-0c1f1c8cbde0","system_id":"levelo_inurba_marseille","lat":43.289184,"lon":5.366408,"is_reserved":false,"is_disabled":false,"rental_uris":{"android":"levelo://app?vid=a040e2d8-3b19-4d88-8dfb-0c1f1c8cbde0","ios":"levelo://app?vid=a040e2d8-3b19-4d88-8dfb-0c1f1c8cbde0"},"vehicle_type_id":"4","last_reported":1701131743,"current_range_meters":29200,"station_id":"ce4bhap2rcd13ifvqek0","pricing_plan_id":"free"},{"bike_id":"59617d5d-fb68-4f1b-b777-9d2e3b412639","system_id":"levelo_inurba_marseille","lat":43.289184,"lon":5.366408,"is_reserved":false,"is_disabled":false,"rental_uris":{"android":"levelo://app?vid=59617d5d-fb68-4f1b-b777-9d2e3b412639","ios":"levelo://app?vid=59617d5d-fb68-4f1b-b777-9d2e3b412639"},"vehicle_type_id":"4","last_reported":1701131743,"current_range_meters":31200,"station_id":"ce4bhap2rcd13ifvqek0","pricing_plan_id":"free"},{"bike_id":"52c485eb-b4cf-459d-ba51-4182cfa93107","system_id":"levelo_inurba_marseille","lat":43.289184,"lon":5.366408,"is_reserved":false,"is_disabled":false,"rental_uris":{"android":"levelo://app?vid=52c485eb-b4cf-459d-ba51-4182cfa93107","ios":"levelo://app?vid=52c485eb-b4cf-459d-ba51-4182cfa93107"},"vehicle_type_id":"4","last_reported":1701131743,"current_range_meters":10000,"station_id":"ce4bhap2rcd13ifvqek0","pricing_plan_id":"free"},{"bike_id":"292a637c-73ac-4923-9d61-4c2faa9f1460","system_id":"levelo_inurba_marseille","lat":43.28934,"lon":5.363941,"is_reserved":false,"is_disabled":false,"rental_uris":{"android":"levelo://app?vid=292a637c-73ac-4923-9d61-4c2faa9f1460","ios":"levelo://app?vid=292a637c-73ac-4923-9d61-4c2faa9f1460"},"vehicle_type_id":"4","last_reported":1701131743,"current_range_meters":28800,"station_id":"ce4bhc92rcd13ifvqetg","pricing_plan_id":"free"},{"bike_id":"8ae6c6ad-3769-42bf-910b-622bf6b860cf","system_id":"levelo_inurba_marseille","lat":43.290103,"lon":5.356114,"is_reserved":false,"is_disabled":false,"rental_uris":{"android":"levelo://app?vid=8ae6c6ad-3769-42bf-910b-622bf6b860cf","ios":"levelo://app?vid=8ae6c6ad-3769-42bf-910b-622bf6b860cf"},"vehicle_type_id":"4","last_reported":1701131743,"current_range_meters":28800,"station_id":"ce4bhb92rcd13ifvqen0","pricing_plan_id":"free"},{"bike_id":"733df573-ef55-4625-82f6-5556c4c6510e","system_id":"levelo_inurba_marseille","lat":43.330373,"lon":5.389256,"is_reserved":false,"is_disabled":false,"rental_uris":{"android":"levelo://app?vid=733df573-ef55-4625-82f6-5556c4c6510e","ios":"levelo://app?vid=733df573-ef55-4625-82f6-5556c4c6510e"},"vehicle_type_id":"4","last_reported":1701131743,"current_range_meters":17200,"station_id":"ce4bhr92rcd13ifvqhrg","pricing_plan_id":"free"},{"bike_id":"0e8b74c5-db88-4ede-90fd-1c86c15e2e8f","system_id":"levelo_inurba_marseille","lat":43.330401,"lon":5.389216,"is_reserved":false,"is_disabled":false,"rental_uris":{"android":"levelo://app?vid=0e8b74c5-db88-4ede-90fd-1c86c15e2e8f","ios":"levelo://app?vid=0e8b74c5-db88-4ede-90fd-1c86c15e2e8f"},"vehicle_type_id":"4","last_reported":1701131743,"current_range_meters":12800,"station_id":"ce4bhr92rcd13ifvqhrg","pricing_plan_id":"free"},{"bike_id":"d1d2ec39-8591-4091-a6a0-3f48a8b1abf1","system_id":"levelo_inurba_marseille","lat":43.33044,"lon":5.38921,"is_reserved":false,"is_disabled":false,"rental_uris":{"android":"levelo://app?vid=d1d2ec39-8591-4091-a6a0-3f48a8b1abf1","ios":"levelo://app?vid=d1d2ec39-8591-4091-a6a0-3f48a8b1abf1"},"vehicle_type_id":"4","last_reported":1701131743,"current_range_meters":19200,"station_id":"ce4bhr92rcd13ifvqhrg","pricing_plan_id":"free"},{"bike_id":"f31d314c-e309-40e1-9f06-8bed658472c4","system_id":"levelo_inurba_marseille","lat":43.290995,"lon":5.381361,"is_reserved":false,"is_disabled":false,"rental_uris":{"android":"levelo://app?vid=f31d314c-e309-40e1-9f06-8bed658472c4","ios":"levelo://app?vid=f31d314c-e309-40e1-9f06-8bed658472c4"},"vehicle_type_id":"4","last_reported":1701131743,"current_range_meters":29600,"station_id":"ce4bh512rcd13ifvqe2g","pricing_plan_id":"free"},{"bike_id":"fdd6a463-6709-4f7b-9373-86f071ea5bac","system_id":"levelo_inurba_marseille","lat":43.290995,"lon":5.381361,"is_reserved":false,"is_disabled":false,"rental_uris":{"android":"levelo://app?vid=fdd6a463-6709-4f7b-9373-86f071ea5bac","ios":"levelo://app?vid=fdd6a463-6709-4f7b-9373-86f071ea5bac"},"vehicle_type_id":"4","last_reported":1701131743,"current_range_meters":14400,"station_id":"ce4bh512rcd13ifvqe2g","pricing_plan_id":"free"},{"bike_id":"31e2e191-cce4-4e72-8128-bd98e59ad577","system_id":"levelo_inurba_marseille","lat":43.297815,"lon":5.393548,"is_reserved":false,"is_disabled":false,"rental_uris":{"android":"levelo://app?vid=31e2e191-cce4-4e72-8128-bd98e59ad577","ios":"levelo://app?vid=31e2e191-cce4-4e72-8128-bd98e59ad577"},"vehicle_type_id":"4","last_reported":1701131743,"current_range_meters":25600,"station_id":"chh1huq6cuj3fo74tm60","pricing_plan_id":"free"},{"bike_id":"fe62a29c-2f80-4f72-9a15-75ea4858603e","system_id":"levelo_inurba_marseille","lat":43.295169,"lon":5.390426,"is_reserved":false,"is_disabled":false,"rental_uris":{"android":"levelo://app?vid=fe62a29c-2f80-4f72-9a15-75ea4858603e","ios":"levelo://app?vid=fe62a29c-2f80-4f72-9a15-75ea4858603e"},"vehicle_type_id":"4","last_reported":1701131743,"current_range_meters":31200,"station_id":"ce4bh3p2rcd13ifvqdp0","pricing_plan_id":"free"},{"bike_id":"0f666bf7-311d-4e74-8e4b-afb2c844f8b3","system_id":"levelo_inurba_marseille","lat":43.28856,"lon":5.358371,"is_reserved":false,"is_disabled":false,"rental_uris":{"android":"levelo://app?vid=0f666bf7-311d-4e74-8e4b-afb2c844f8b3","ios":"levelo://app?vid=0f666bf7-311d-4e74-8e4b-afb2c844f8b3"},"vehicle_type_id":"4","last_reported":1701131743,"current_range_meters":25600,"station_id":"ce4bhb12rcd13ifvqem0","pricing_plan_id":"free"},{"bike_id":"55cae7bd-bda8-4019-b114-5141e60d1a79","system_id":"levelo_inurba_marseille","lat":43.28856,"lon":5.358371,"is_reserved":false,"is_disabled":false,"rental_uris":{"android":"levelo://app?vid=55cae7bd-bda8-4019-b114-5141e60d1a79","ios":"levelo://app?vid=55cae7bd-bda8-4019-b114-5141e60d1a79"},"vehicle_type_id":"4","last_reported":1701131743,"current_range_meters":30000,"station_id":"ce4bhb12rcd13ifvqem0","pricing_plan_id":"free"},{"bike_id":"db85d867-f8f3-41a3-bdb4-e8809c8e6b61","system_id":"levelo_inurba_marseille","lat":43.28856,"lon":5.358371,"is_reserved":false,"is_disabled":false,"rental_uris":{"android":"levelo://app?vid=db85d867-f8f3-41a3-bdb4-e8809c8e6b61","ios":"levelo://app?vid=db85d867-f8f3-41a3-bdb4-e8809c8e6b61"},"vehicle_type_id":"4","last_reported":1701131743,"current_range_meters":29200,"station_id":"ce4bhb12rcd13ifvqem0","pricing_plan_id":"free"},{"bike_id":"f3ee3b5f-d9bd-46c4-af6e-8604c5cb2a3e","system_id":"levelo_inurba_marseille","lat":43.288533,"lon":5.358593,"is_reserved":false,"is_disabled":false,"rental_uris":{"android":"levelo://app?vid=f3ee3b5f-d9bd-46c4-af6e-8604c5cb2a3e","ios":"levelo://app?vid=f3ee3b5f-d9bd-46c4-af6e-8604c5cb2a3e"},"vehicle_type_id":"4","last_reported":1701131743,"current_range_meters":24800,"station_id":"ce4bhb12rcd13ifvqem0","pricing_plan_id":"free"},{"bike_id":"1affd046-af12-41fb-ade5-939f7e0100fb","system_id":"levelo_inurba_marseille","lat":43.312769,"lon":5.401676,"is_reserved":false,"is_disabled":false,"rental_uris":{"android":"levelo://app?vid=1affd046-af12-41fb-ade5-939f7e0100fb","ios":"levelo://app?vid=1affd046-af12-41fb-ade5-939f7e0100fb"},"vehicle_type_id":"4","last_reported":1701131743,"current_range_meters":6800,"station_id":"ce4bh092rcd13ifvqd30","pricing_plan_id":"free"},{"bike_id":"3189f36d-eef8-493a-9360-ba220aab2c25","system_id":"levelo_inurba_marseille","lat":43.312787,"lon":5.401677,"is_reserved":false,"is_disabled":false,"rental_uris":{"android":"levelo://app?vid=3189f36d-eef8-493a-9360-ba220aab2c25","ios":"levelo://app?vid=3189f36d-eef8-493a-9360-ba220aab2c25"},"vehicle_type_id":"4","last_reported":1701131743,"current_range_meters":22800,"station_id":"ce4bh092rcd13ifvqd30","pricing_plan_id":"free"},{"bike_id":"7112c221-d2eb-4911-87b2-ada2980400a4","system_id":"levelo_inurba_marseille","lat":43.312738,"lon":5.40181,"is_reserved":false,"is_disabled":false,"rental_uris":{"android":"levelo://app?vid=7112c221-d2eb-4911-87b2-ada2980400a4","ios":"levelo://app?vid=7112c221-d2eb-4911-87b2-ada2980400a4"},"vehicle_type_id":"4","last_reported":1701131743,"current_range_meters":26400,"station_id":"ce4bh092rcd13ifvqd30","pricing_plan_id":"free"},{"bike_id":"4082c4ab-3467-4f15-9a8e-e63a4dcdfbc2","system_id":"levelo_inurba_marseille","lat":43.30642,"lon":5.401031,"is_reserved":false,"is_disabled":false,"rental_uris":{"android":"levelo://app?vid=4082c4ab-3467-4f15-9a8e-e63a4dcdfbc2","ios":"levelo://app?vid=4082c4ab-3467-4f15-9a8e-e63a4dcdfbc2"},"vehicle_type_id":"4","last_reported":1701131743,"current_range_meters":28400,"station_id":"ce4bh112rcd13ifvqda0","pricing_plan_id":"free"},{"bike_id":"9b486256-89e9-4880-93d5-58b2a2344e55","system_id":"levelo_inurba_marseille","lat":43.306412,"lon":5.401035,"is_reserved":false,"is_disabled":false,"rental_uris":{"android":"levelo://app?vid=9b486256-89e9-4880-93d5-58b2a2344e55","ios":"levelo://app?vid=9b486256-89e9-4880-93d5-58b2a2344e55"},"vehicle_type_id":"4","last_reported":1701131743,"current_range_meters":24000,"station_id":"ce4bh112rcd13ifvqda0","pricing_plan_id":"free"},{"bike_id":"306f98cf-6486-4eca-beab-4b7262158a77","system_id":"levelo_inurba_marseille","lat":43.30642,"lon":5.401031,"is_reserved":false,"is_disabled":false,"rental_uris":{"android":"levelo://app?vid=306f98cf-6486-4eca-beab-4b7262158a77","ios":"levelo://app?vid=306f98cf-6486-4eca-beab-4b7262158a77"},"vehicle_type_id":"4","last_reported":1701131743,"current_range_meters":31200,"station_id":"ce4bh112rcd13ifvqda0","pricing_plan_id":"free"},{"bike_id":"a306b5f8-d346-457a-b48a-7a7bb8bb2e0a","system_id":"levelo_inurba_marseille","lat":43.30642,"lon":5.401031,"is_reserved":false,"is_disabled":false,"rental_uris":{"android":"levelo://app?vid=a306b5f8-d346-457a-b48a-7a7bb8bb2e0a","ios":"levelo://app?vid=a306b5f8-d346-457a-b48a-7a7bb8bb2e0a"},"vehicle_type_id":"4","last_reported":1701131743,"current_range_meters":31200,"station_id":"ce4bh112rcd13ifvqda0","pricing_plan_id":"free"},{"bike_id":"0f47b4e2-b0ec-49db-a4d8-26825a477124","system_id":"levelo_inurba_marseille","lat":43.30642,"lon":5.401031,"is_reserved":false,"is_disabled":false,"rental_uris":{"android":"levelo://app?vid=0f47b4e2-b0ec-49db-a4d8-26825a477124","ios":"levelo://app?vid=0f47b4e2-b0ec-49db-a4d8-26825a477124"},"vehicle_type_id":"4","last_reported":1701131743,"current_range_meters":4000,"station_id":"ce4bh112rcd13ifvqda0","pricing_plan_id":"free"},{"bike_id":"629a3533-8375-4c7d-8cd7-67117903657f","system_id":"levelo_inurba_marseille","lat":43.30642,"lon":5.401031,"is_reserved":false,"is_disabled":false,"rental_uris":{"android":"levelo://app?vid=629a3533-8375-4c7d-8cd7-67117903657f","ios":"levelo://app?vid=629a3533-8375-4c7d-8cd7-67117903657f"},"vehicle_type_id":"4","last_reported":1701131743,"current_range_meters":16000,"station_id":"ce4bh112rcd13ifvqda0","pricing_plan_id":"free"},{"bike_id":"307faea1-e557-438d-b47c-d12eda2bf0fd","system_id":"levelo_inurba_marseille","lat":43.301117,"lon":5.398795,"is_reserved":false,"is_disabled":false,"rental_uris":{"android":"levelo://app?vid=307faea1-e557-438d-b47c-d12eda2bf0fd","ios":"levelo://app?vid=307faea1-e557-438d-b47c-d12eda2bf0fd"},"vehicle_type_id":"4","last_reported":1701131743,"current_range_meters":27600,"station_id":"ce4bh0h2rcd13ifvqd40","pricing_plan_id":"free"},{"bike_id":"17d77149-f5d4-4fda-9f82-7bd72b431470","system_id":"levelo_inurba_marseille","lat":43.28727,"lon":5.36078,"is_reserved":false,"is_disabled":false,"rental_uris":{"android":"levelo://app?vid=17d77149-f5d4-4fda-9f82-7bd72b431470","ios":"levelo://app?vid=17d77149-f5d4-4fda-9f82-7bd72b431470"},"vehicle_type_id":"4","last_reported":1701131743,"current_range_meters":19600,"station_id":"cki0cbj6b192h4jlfktg","pricing_plan_id":"free"},{"bike_id":"49b38d7d-6a39-4901-9971-9ee7aab2646d","system_id":"levelo_inurba_marseille","lat":43.28727,"lon":5.36078,"is_reserved":false,"is_disabled":false,"rental_uris":{"android":"levelo://app?vid=49b38d7d-6a39-4901-9971-9ee7aab2646d","ios":"levelo://app?vid=49b38d7d-6a39-4901-9971-9ee7aab2646d"},"vehicle_type_id":"4","last_reported":1701131743,"current_range_meters":27600,"station_id":"cki0cbj6b192h4jlfktg","pricing_plan_id":"free"},{"bike_id":"cf3b36af-2c00-4833-a3dd-afc17ed25d2f","system_id":"levelo_inurba_marseille","lat":43.30632,"lon":5.401745,"is_reserved":false,"is_disabled":false,"rental_uris":{"android":"levelo://app?vid=cf3b36af-2c00-4833-a3dd-afc17ed25d2f","ios":"levelo://app?vid=cf3b36af-2c00-4833-a3dd-afc17ed25d2f"},"vehicle_type_id":"4","last_reported":1701131743,"current_range_meters":24800,"station_id":"","pricing_plan_id":"free"},{"bike_id":"4fe5f09b-6d96-4787-b878-15c40a2640ea","system_id":"levelo_inurba_marseille","lat":43.298681,"lon":5.397225,"is_reserved":false,"is_disabled":false,"rental_uris":{"android":"levelo://app?vid=4fe5f09b-6d96-4787-b878-15c40a2640ea","ios":"levelo://app?vid=4fe5f09b-6d96-4787-b878-15c40a2640ea"},"vehicle_type_id":"4","last_reported":1701131743,"current_range_meters":26800,"station_id":"ce4bh0h2rcd13ifvqd50","pricing_plan_id":"free"},{"bike_id":"8af5ad11-57d9-47cb-843e-f779b0495f65","system_id":"levelo_inurba_marseille","lat":43.286593,"lon":5.363346,"is_reserved":false,"is_disabled":false,"rental_uris":{"android":"levelo://app?vid=8af5ad11-57d9-47cb-843e-f779b0495f65","ios":"levelo://app?vid=8af5ad11-57d9-47cb-843e-f779b0495f65"},"vehicle_type_id":"4","last_reported":1701131743,"current_range_meters":17600,"station_id":"ce4bhah2rcd13ifvqej0","pricing_plan_id":"free"},{"bike_id":"09ffa2f6-fcec-47c3-8367-28c3660a197c","system_id":"levelo_inurba_marseille","lat":43.286593,"lon":5.363346,"is_reserved":false,"is_disabled":false,"rental_uris":{"android":"levelo://app?vid=09ffa2f6-fcec-47c3-8367-28c3660a197c","ios":"levelo://app?vid=09ffa2f6-fcec-47c3-8367-28c3660a197c"},"vehicle_type_id":"4","last_reported":1701131743,"current_range_meters":29200,"station_id":"ce4bhah2rcd13ifvqej0","pricing_plan_id":"free"},{"bike_id":"2a27f955-612d-4a87-8913-c0b4960386d0","system_id":"levelo_inurba_marseille","lat":43.286593,"lon":5.363346,"is_reserved":false,"is_disabled":false,"rental_uris":{"android":"levelo://app?vid=2a27f955-612d-4a87-8913-c0b4960386d0","ios":"levelo://app?vid=2a27f955-612d-4a87-8913-c0b4960386d0"},"vehicle_type_id":"4","last_reported":1701131743,"current_range_meters":29600,"station_id":"ce4bhah2rcd13ifvqej0","pricing_plan_id":"free"},{"bike_id":"b86167c9-7a0c-443f-8b9c-0b048ed5ec36","system_id":"levelo_inurba_marseille","lat":43.286593,"lon":5.363346,"is_reserved":false,"is_disabled":false,"rental_uris":{"android":"levelo://app?vid=b86167c9-7a0c-443f-8b9c-0b048ed5ec36","ios":"levelo://app?vid=b86167c9-7a0c-443f-8b9c-0b048ed5ec36"},"vehicle_type_id":"4","last_reported":1701131743,"current_range_meters":21600,"station_id":"ce4bhah2rcd13ifvqej0","pricing_plan_id":"free"},{"bike_id":"b691dbb5-abe7-4d11-a190-bb1f0789c1e8","system_id":"levelo_inurba_marseille","lat":43.286961,"lon":5.373785,"is_reserved":false,"is_disabled":false,"rental_uris":{"android":"levelo://app?vid=b691dbb5-abe7-4d11-a190-bb1f0789c1e8","ios":"levelo://app?vid=b691dbb5-abe7-4d11-a190-bb1f0789c1e8"},"vehicle_type_id":"4","last_reported":1701131743,"current_range_meters":26400,"station_id":"ce4bh3p2rcd13ifvqdq0","pricing_plan_id":"free"},{"bike_id":"5b082016-1bf3-4c7f-bb0e-3f74cd66433d","system_id":"levelo_inurba_marseille","lat":43.286995,"lon":5.373995,"is_reserved":false,"is_disabled":false,"rental_uris":{"android":"levelo://app?vid=5b082016-1bf3-4c7f-bb0e-3f74cd66433d","ios":"levelo://app?vid=5b082016-1bf3-4c7f-bb0e-3f74cd66433d"},"vehicle_type_id":"4","last_reported":1701131743,"current_range_meters":29200,"station_id":"ce4bh3p2rcd13ifvqdq0","pricing_plan_id":"free"},{"bike_id":"051a4c0d-0a86-4d87-a13e-417be310018e","system_id":"levelo_inurba_marseille","lat":43.286584,"lon":5.36363,"is_reserved":false,"is_disabled":false,"rental_uris":{"android":"levelo://app?vid=051a4c0d-0a86-4d87-a13e-417be310018e","ios":"levelo://app?vid=051a4c0d-0a86-4d87-a13e-417be310018e"},"vehicle_type_id":"4","last_reported":1701131743,"current_range_meters":21200,"station_id":"ce4bhah2rcd13ifvqej0","pricing_plan_id":"free"},{"bike_id":"c1c45b28-db7c-4352-8fd9-a5189516c453","system_id":"levelo_inurba_marseille","lat":43.298681,"lon":5.397225,"is_reserved":false,"is_disabled":false,"rental_uris":{"android":"levelo://app?vid=c1c45b28-db7c-4352-8fd9-a5189516c453","ios":"levelo://app?vid=c1c45b28-db7c-4352-8fd9-a5189516c453"},"vehicle_type_id":"4","last_reported":1701131743,"current_range_meters":28000,"station_id":"ce4bh0h2rcd13ifvqd50","pricing_plan_id":"free"},{"bike_id":"965fcf4d-dd88-41a5-a443-b3f5ee7bcc9a","system_id":"levelo_inurba_marseille","lat":43.286593,"lon":5.363346,"is_reserved":false,"is_disabled":false,"rental_uris":{"android":"levelo://app?vid=965fcf4d-dd88-41a5-a443-b3f5ee7bcc9a","ios":"levelo://app?vid=965fcf4d-dd88-41a5-a443-b3f5ee7bcc9a"},"vehicle_type_id":"4","last_reported":1701131743,"current_range_meters":14400,"station_id":"ce4bhah2rcd13ifvqej0","pricing_plan_id":"free"},{"bike_id":"77d67210-41a3-4d2b-aa1b-99bec95b3ae2","system_id":"levelo_inurba_marseille","lat":43.302759,"lon":5.400793,"is_reserved":false,"is_disabled":false,"rental_uris":{"android":"levelo://app?vid=77d67210-41a3-4d2b-aa1b-99bec95b3ae2","ios":"levelo://app?vid=77d67210-41a3-4d2b-aa1b-99bec95b3ae2"},"vehicle_type_id":"4","last_reported":1701131743,"current_range_meters":0,"station_id":"ce4bgvh2rcd13ifvqcs0","pricing_plan_id":"free"},{"bike_id":"218ad862-5bde-4e4d-8a15-be014385d3e2","system_id":"levelo_inurba_marseille","lat":43.289285,"lon":5.383945,"is_reserved":false,"is_disabled":false,"rental_uris":{"android":"levelo://app?vid=218ad862-5bde-4e4d-8a15-be014385d3e2","ios":"levelo://app?vid=218ad862-5bde-4e4d-8a15-be014385d3e2"},"vehicle_type_id":"4","last_reported":1701131743,"current_range_meters":28000,"station_id":"ce4bh612rcd13ifvqe6g","pricing_plan_id":"free"},{"bike_id":"df08eb96-1aac-4490-9ed6-213ebd925bd4","system_id":"levelo_inurba_marseille","lat":43.302759,"lon":5.400793,"is_reserved":false,"is_disabled":false,"rental_uris":{"android":"levelo://app?vid=df08eb96-1aac-4490-9ed6-213ebd925bd4","ios":"levelo://app?vid=df08eb96-1aac-4490-9ed6-213ebd925bd4"},"vehicle_type_id":"4","last_reported":1701131743,"current_range_meters":11200,"station_id":"ce4bgvh2rcd13ifvqcs0","pricing_plan_id":"free"},{"bike_id":"ae46468a-8415-470a-908c-347afe972df5","system_id":"levelo_inurba_marseille","lat":43.289307,"lon":5.38406,"is_reserved":false,"is_disabled":false,"rental_uris":{"android":"levelo://app?vid=ae46468a-8415-470a-908c-347afe972df5","ios":"levelo://app?vid=ae46468a-8415-470a-908c-347afe972df5"},"vehicle_type_id":"4","last_reported":1701131743,"current_range_meters":18400,"station_id":"ce4bh612rcd13ifvqe6g","pricing_plan_id":"free"},{"bike_id":"1f3aa395-3a60-4d58-8f22-b070fc013951","system_id":"levelo_inurba_marseille","lat":43.289307,"lon":5.38406,"is_reserved":false,"is_disabled":false,"rental_uris":{"android":"levelo://app?vid=1f3aa395-3a60-4d58-8f22-b070fc013951","ios":"levelo://app?vid=1f3aa395-3a60-4d58-8f22-b070fc013951"},"vehicle_type_id":"4","last_reported":1701131743,"current_range_meters":31200,"station_id":"ce4bh612rcd13ifvqe6g","pricing_plan_id":"free"},{"bike_id":"7b43cb20-574d-4892-8e7b-8f84975b65f2","system_id":"levelo_inurba_marseille","lat":43.29029,"lon":5.38644,"is_reserved":false,"is_disabled":false,"rental_uris":{"android":"levelo://app?vid=7b43cb20-574d-4892-8e7b-8f84975b65f2","ios":"levelo://app?vid=7b43cb20-574d-4892-8e7b-8f84975b65f2"},"vehicle_type_id":"4","last_reported":1701131743,"current_range_meters":22800,"station_id":"ce4bh4p2rcd13ifvqe0g","pricing_plan_id":"free"},{"bike_id":"2da0428e-ccf5-49c6-9617-f8ea3c506923","system_id":"levelo_inurba_marseille","lat":43.289197,"lon":5.383896,"is_reserved":false,"is_disabled":false,"rental_uris":{"android":"levelo://app?vid=2da0428e-ccf5-49c6-9617-f8ea3c506923","ios":"levelo://app?vid=2da0428e-ccf5-49c6-9617-f8ea3c506923"},"vehicle_type_id":"4","last_reported":1701131743,"current_range_meters":19200,"station_id":"ce4bh612rcd13ifvqe6g","pricing_plan_id":"free"},{"bike_id":"7db0b900-2d8b-4357-b2dd-d3e10dee922c","system_id":"levelo_inurba_marseille","lat":43.290266,"lon":5.386454,"is_reserved":false,"is_disabled":false,"rental_uris":{"android":"levelo://app?vid=7db0b900-2d8b-4357-b2dd-d3e10dee922c","ios":"levelo://app?vid=7db0b900-2d8b-4357-b2dd-d3e10dee922c"},"vehicle_type_id":"4","last_reported":1701131743,"current_range_meters":0,"station_id":"","pricing_plan_id":"free"},{"bike_id":"169b64f2-4490-487d-9a32-04aa3843ea12","system_id":"levelo_inurba_marseille","lat":43.302476,"lon":5.400646,"is_reserved":false,"is_disabled":false,"rental_uris":{"android":"levelo://app?vid=169b64f2-4490-487d-9a32-04aa3843ea12","ios":"levelo://app?vid=169b64f2-4490-487d-9a32-04aa3843ea12"},"vehicle_type_id":"4","last_reported":1701131743,"current_range_meters":15200,"station_id":"ce4bgvh2rcd13ifvqcs0","pricing_plan_id":"free"},{"bike_id":"4495add2-f3b9-49a5-be76-015e0e92cfc8","system_id":"levelo_inurba_marseille","lat":43.302759,"lon":5.400793,"is_reserved":false,"is_disabled":false,"rental_uris":{"android":"levelo://app?vid=4495add2-f3b9-49a5-be76-015e0e92cfc8","ios":"levelo://app?vid=4495add2-f3b9-49a5-be76-015e0e92cfc8"},"vehicle_type_id":"4","last_reported":1701131743,"current_range_meters":29600,"station_id":"ce4bgvh2rcd13ifvqcs0","pricing_plan_id":"free"},{"bike_id":"15e6465f-0b6e-4233-aa8b-e230108a9a5e","system_id":"levelo_inurba_marseille","lat":43.302434,"lon":5.400707,"is_reserved":false,"is_disabled":false,"rental_uris":{"android":"levelo://app?vid=15e6465f-0b6e-4233-aa8b-e230108a9a5e","ios":"levelo://app?vid=15e6465f-0b6e-4233-aa8b-e230108a9a5e"},"vehicle_type_id":"4","last_reported":1701131743,"current_range_meters":23600,"station_id":"ce4bgvh2rcd13ifvqcs0","pricing_plan_id":"free"},{"bike_id":"2b4ce913-3383-48fd-b937-7268ebfa296c","system_id":"levelo_inurba_marseille","lat":43.316517,"lon":5.404375,"is_reserved":false,"is_disabled":false,"rental_uris":{"android":"levelo://app?vid=2b4ce913-3383-48fd-b937-7268ebfa296c","ios":"levelo://app?vid=2b4ce913-3383-48fd-b937-7268ebfa296c"},"vehicle_type_id":"4","last_reported":1701131743,"current_range_meters":17200,"station_id":"ce4bh012rcd13ifvqd00","pricing_plan_id":"free"},{"bike_id":"563105a5-d214-4a6a-9861-ea6deece7711","system_id":"levelo_inurba_marseille","lat":43.3165,"lon":5.40443,"is_reserved":false,"is_disabled":false,"rental_uris":{"android":"levelo://app?vid=563105a5-d214-4a6a-9861-ea6deece7711","ios":"levelo://app?vid=563105a5-d214-4a6a-9861-ea6deece7711"},"vehicle_type_id":"4","last_reported":1701131743,"current_range_meters":17600,"station_id":"ce4bh012rcd13ifvqd00","pricing_plan_id":"free"},{"bike_id":"10889358-5e19-486c-b30c-593c612bde27","system_id":"levelo_inurba_marseille","lat":43.291996,"lon":5.393215,"is_reserved":false,"is_disabled":false,"rental_uris":{"android":"levelo://app?vid=10889358-5e19-486c-b30c-593c612bde27","ios":"levelo://app?vid=10889358-5e19-486c-b30c-593c612bde27"},"vehicle_type_id":"4","last_reported":1701131743,"current_range_meters":30400,"station_id":"ce4bh192rcd13ifvqdd0","pricing_plan_id":"free"},{"bike_id":"c15d4ac4-5fba-4e9f-ac2c-42621a596729","system_id":"levelo_inurba_marseille","lat":43.291883,"lon":5.393133,"is_reserved":false,"is_disabled":false,"rental_uris":{"android":"levelo://app?vid=c15d4ac4-5fba-4e9f-ac2c-42621a596729","ios":"levelo://app?vid=c15d4ac4-5fba-4e9f-ac2c-42621a596729"},"vehicle_type_id":"4","last_reported":1701131743,"current_range_meters":20000,"station_id":"ce4bh192rcd13ifvqdd0","pricing_plan_id":"free"},{"bike_id":"561b9b19-24db-4717-9847-8bcf97272437","system_id":"levelo_inurba_marseille","lat":43.28469,"lon":5.35915,"is_reserved":false,"is_disabled":false,"rental_uris":{"android":"levelo://app?vid=561b9b19-24db-4717-9847-8bcf97272437","ios":"levelo://app?vid=561b9b19-24db-4717-9847-8bcf97272437"},"vehicle_type_id":"4","last_reported":1701131743,"current_range_meters":30800,"station_id":"ce4bhah2rcd13ifvqei0","pricing_plan_id":"free"},{"bike_id":"aa1603ac-437d-4dc9-87cc-4bd8d3c02f92","system_id":"levelo_inurba_marseille","lat":43.28467,"lon":5.35898,"is_reserved":false,"is_disabled":false,"rental_uris":{"android":"levelo://app?vid=aa1603ac-437d-4dc9-87cc-4bd8d3c02f92","ios":"levelo://app?vid=aa1603ac-437d-4dc9-87cc-4bd8d3c02f92"},"vehicle_type_id":"4","last_reported":1701131743,"current_range_meters":31200,"station_id":"ce4bhah2rcd13ifvqei0","pricing_plan_id":"free"},{"bike_id":"278f5dcf-1f41-4d60-a862-bd9c7c6a092d","system_id":"levelo_inurba_marseille","lat":43.284534,"lon":5.358662,"is_reserved":false,"is_disabled":false,"rental_uris":{"android":"levelo://app?vid=278f5dcf-1f41-4d60-a862-bd9c7c6a092d","ios":"levelo://app?vid=278f5dcf-1f41-4d60-a862-bd9c7c6a092d"},"vehicle_type_id":"4","last_reported":1701131743,"current_range_meters":28800,"station_id":"ce4bhah2rcd13ifvqei0","pricing_plan_id":"free"},{"bike_id":"18fc0276-255d-4758-93dc-ce7225397580","system_id":"levelo_inurba_marseille","lat":43.28462,"lon":5.35899,"is_reserved":false,"is_disabled":false,"rental_uris":{"android":"levelo://app?vid=18fc0276-255d-4758-93dc-ce7225397580","ios":"levelo://app?vid=18fc0276-255d-4758-93dc-ce7225397580"},"vehicle_type_id":"4","last_reported":1701131743,"current_range_meters":20000,"station_id":"ce4bhah2rcd13ifvqei0","pricing_plan_id":"free"},{"bike_id":"57926e17-0722-4768-a805-33ea2d14981c","system_id":"levelo_inurba_marseille","lat":43.284534,"lon":5.358662,"is_reserved":false,"is_disabled":false,"rental_uris":{"android":"levelo://app?vid=57926e17-0722-4768-a805-33ea2d14981c","ios":"levelo://app?vid=57926e17-0722-4768-a805-33ea2d14981c"},"vehicle_type_id":"4","last_reported":1701131743,"current_range_meters":28400,"station_id":"ce4bhah2rcd13ifvqei0","pricing_plan_id":"free"},{"bike_id":"a8491baa-5dc8-4b11-bab3-5f0f9aab6908","system_id":"levelo_inurba_marseille","lat":43.284534,"lon":5.358662,"is_reserved":false,"is_disabled":false,"rental_uris":{"android":"levelo://app?vid=a8491baa-5dc8-4b11-bab3-5f0f9aab6908","ios":"levelo://app?vid=a8491baa-5dc8-4b11-bab3-5f0f9aab6908"},"vehicle_type_id":"4","last_reported":1701131743,"current_range_meters":15600,"station_id":"ce4bhah2rcd13ifvqei0","pricing_plan_id":"free"},{"bike_id":"fdfc44ee-48d9-4c8c-99e0-fa5e6a889c82","system_id":"levelo_inurba_marseille","lat":43.28462,"lon":5.3589,"is_reserved":false,"is_disabled":false,"rental_uris":{"android":"levelo://app?vid=fdfc44ee-48d9-4c8c-99e0-fa5e6a889c82","ios":"levelo://app?vid=fdfc44ee-48d9-4c8c-99e0-fa5e6a889c82"},"vehicle_type_id":"4","last_reported":1701131743,"current_range_meters":26000,"station_id":"ce4bhah2rcd13ifvqei0","pricing_plan_id":"free"},{"bike_id":"47f9626e-4c8e-450b-bf57-d1d9fcdc0b79","system_id":"levelo_inurba_marseille","lat":43.28462,"lon":5.3589,"is_reserved":false,"is_disabled":false,"rental_uris":{"android":"levelo://app?vid=47f9626e-4c8e-450b-bf57-d1d9fcdc0b79","ios":"levelo://app?vid=47f9626e-4c8e-450b-bf57-d1d9fcdc0b79"},"vehicle_type_id":"4","last_reported":1701131743,"current_range_meters":26400,"station_id":"ce4bhah2rcd13ifvqei0","pricing_plan_id":"free"},{"bike_id":"6dacb245-8b21-469c-866c-fd0d732c6064","system_id":"levelo_inurba_marseille","lat":43.28461,"lon":5.35893,"is_reserved":false,"is_disabled":false,"rental_uris":{"android":"levelo://app?vid=6dacb245-8b21-469c-866c-fd0d732c6064","ios":"levelo://app?vid=6dacb245-8b21-469c-866c-fd0d732c6064"},"vehicle_type_id":"4","last_reported":1701131743,"current_range_meters":30800,"station_id":"ce4bhah2rcd13ifvqei0","pricing_plan_id":"free"},{"bike_id":"2656dc22-1191-4d92-ad98-f874d280eee1","system_id":"levelo_inurba_marseille","lat":43.284534,"lon":5.358662,"is_reserved":false,"is_disabled":false,"rental_uris":{"android":"levelo://app?vid=2656dc22-1191-4d92-ad98-f874d280eee1","ios":"levelo://app?vid=2656dc22-1191-4d92-ad98-f874d280eee1"},"vehicle_type_id":"4","last_reported":1701131743,"current_range_meters":31200,"station_id":"ce4bhah2rcd13ifvqei0","pricing_plan_id":"free"},{"bike_id":"4213be0d-d565-44b2-9f5a-7f828771c79f","system_id":"levelo_inurba_marseille","lat":43.28458,"lon":5.35892,"is_reserved":false,"is_disabled":false,"rental_uris":{"android":"levelo://app?vid=4213be0d-d565-44b2-9f5a-7f828771c79f","ios":"levelo://app?vid=4213be0d-d565-44b2-9f5a-7f828771c79f"},"vehicle_type_id":"4","last_reported":1701131743,"current_range_meters":30800,"station_id":"ce4bhah2rcd13ifvqei0","pricing_plan_id":"free"},{"bike_id":"133469e0-6899-4538-83db-9fc816004c1a","system_id":"levelo_inurba_marseille","lat":43.312803,"lon":5.406462,"is_reserved":false,"is_disabled":false,"rental_uris":{"android":"levelo://app?vid=133469e0-6899-4538-83db-9fc816004c1a","ios":"levelo://app?vid=133469e0-6899-4538-83db-9fc816004c1a"},"vehicle_type_id":"4","last_reported":1701131743,"current_range_meters":20000,"station_id":"","pricing_plan_id":"free"},{"bike_id":"d70dbdf6-49bf-4682-8f1b-fbf08b5163ae","system_id":"levelo_inurba_marseille","lat":43.29437,"lon":5.39737,"is_reserved":false,"is_disabled":false,"rental_uris":{"android":"levelo://app?vid=d70dbdf6-49bf-4682-8f1b-fbf08b5163ae","ios":"levelo://app?vid=d70dbdf6-49bf-4682-8f1b-fbf08b5163ae"},"vehicle_type_id":"4","last_reported":1701131743,"current_range_meters":18400,"station_id":"ce4bh3h2rcd13ifvqdo0","pricing_plan_id":"free"},{"bike_id":"b938ee90-655c-456a-851f-53c34ae4663e","system_id":"levelo_inurba_marseille","lat":43.29447,"lon":5.3975,"is_reserved":false,"is_disabled":false,"rental_uris":{"android":"levelo://app?vid=b938ee90-655c-456a-851f-53c34ae4663e","ios":"levelo://app?vid=b938ee90-655c-456a-851f-53c34ae4663e"},"vehicle_type_id":"4","last_reported":1701131743,"current_range_meters":4800,"station_id":"ce4bh3h2rcd13ifvqdo0","pricing_plan_id":"free"},{"bike_id":"eb23f825-31b2-4ae6-b526-916161a6fa03","system_id":"levelo_inurba_marseille","lat":43.284544,"lon":5.358922,"is_reserved":false,"is_disabled":false,"rental_uris":{"android":"levelo://app?vid=eb23f825-31b2-4ae6-b526-916161a6fa03","ios":"levelo://app?vid=eb23f825-31b2-4ae6-b526-916161a6fa03"},"vehicle_type_id":"4","last_reported":1701131743,"current_range_meters":29600,"station_id":"ce4bhah2rcd13ifvqei0","pricing_plan_id":"free"},{"bike_id":"632c01c4-2f00-4f87-be35-13c3a90251c8","system_id":"levelo_inurba_marseille","lat":43.294314,"lon":5.397498,"is_reserved":false,"is_disabled":false,"rental_uris":{"android":"levelo://app?vid=632c01c4-2f00-4f87-be35-13c3a90251c8","ios":"levelo://app?vid=632c01c4-2f00-4f87-be35-13c3a90251c8"},"vehicle_type_id":"4","last_reported":1701131743,"current_range_meters":29600,"station_id":"ce4bh3h2rcd13ifvqdo0","pricing_plan_id":"free"},{"bike_id":"5722570c-5f28-4103-85aa-19d598179a6b","system_id":"levelo_inurba_marseille","lat":43.285856,"lon":5.350771,"is_reserved":false,"is_disabled":false,"rental_uris":{"android":"levelo://app?vid=5722570c-5f28-4103-85aa-19d598179a6b","ios":"levelo://app?vid=5722570c-5f28-4103-85aa-19d598179a6b"},"vehicle_type_id":"4","last_reported":1701131743,"current_range_meters":20400,"station_id":"ce4bhch2rcd13ifvqeug","pricing_plan_id":"free"},{"bike_id":"9ef78dd2-c80a-4ee4-9b84-9dc3cefa79f6","system_id":"levelo_inurba_marseille","lat":43.28618,"lon":5.351,"is_reserved":false,"is_disabled":false,"rental_uris":{"android":"levelo://app?vid=9ef78dd2-c80a-4ee4-9b84-9dc3cefa79f6","ios":"levelo://app?vid=9ef78dd2-c80a-4ee4-9b84-9dc3cefa79f6"},"vehicle_type_id":"4","last_reported":1701131743,"current_range_meters":26000,"station_id":"ce4bhch2rcd13ifvqeug","pricing_plan_id":"free"},{"bike_id":"b430f992-f7d3-48af-ae25-306455da45ce","system_id":"levelo_inurba_marseille","lat":43.28611,"lon":5.35098,"is_reserved":false,"is_disabled":false,"rental_uris":{"android":"levelo://app?vid=b430f992-f7d3-48af-ae25-306455da45ce","ios":"levelo://app?vid=b430f992-f7d3-48af-ae25-306455da45ce"},"vehicle_type_id":"4","last_reported":1701131743,"current_range_meters":26400,"station_id":"ce4bhch2rcd13ifvqeug","pricing_plan_id":"free"},{"bike_id":"8ff62079-d734-4a56-9e5b-84c4321b39ac","system_id":"levelo_inurba_marseille","lat":43.284151,"lon":5.375114,"is_reserved":false,"is_disabled":false,"rental_uris":{"android":"levelo://app?vid=8ff62079-d734-4a56-9e5b-84c4321b39ac","ios":"levelo://app?vid=8ff62079-d734-4a56-9e5b-84c4321b39ac"},"vehicle_type_id":"4","last_reported":1701131743,"current_range_meters":29200,"station_id":"ce4bh412rcd13ifvqds0","pricing_plan_id":"free"},{"bike_id":"c8a7e7f2-7c27-44ef-a668-96c2dd930213","system_id":"levelo_inurba_marseille","lat":43.284122,"lon":5.37513,"is_reserved":false,"is_disabled":false,"rental_uris":{"android":"levelo://app?vid=c8a7e7f2-7c27-44ef-a668-96c2dd930213","ios":"levelo://app?vid=c8a7e7f2-7c27-44ef-a668-96c2dd930213"},"vehicle_type_id":"4","last_reported":1701131743,"current_range_meters":31200,"station_id":"ce4bh412rcd13ifvqds0","pricing_plan_id":"free"},{"bike_id":"f42c3fce-4b62-4615-adbe-ccdbca6d8c10","system_id":"levelo_inurba_marseille","lat":43.283998,"lon":5.375062,"is_reserved":false,"is_disabled":false,"rental_uris":{"android":"levelo://app?vid=f42c3fce-4b62-4615-adbe-ccdbca6d8c10","ios":"levelo://app?vid=f42c3fce-4b62-4615-adbe-ccdbca6d8c10"},"vehicle_type_id":"4","last_reported":1701131743,"current_range_meters":30800,"station_id":"ce4bh412rcd13ifvqds0","pricing_plan_id":"free"},{"bike_id":"a6941947-37b1-42e9-8e03-0364e5d01717","system_id":"levelo_inurba_marseille","lat":43.283998,"lon":5.375062,"is_reserved":false,"is_disabled":false,"rental_uris":{"android":"levelo://app?vid=a6941947-37b1-42e9-8e03-0364e5d01717","ios":"levelo://app?vid=a6941947-37b1-42e9-8e03-0364e5d01717"},"vehicle_type_id":"4","last_reported":1701131743,"current_range_meters":30400,"station_id":"ce4bh412rcd13ifvqds0","pricing_plan_id":"free"},{"bike_id":"f59936c8-bfa4-4e82-9b6a-a89887ecb79d","system_id":"levelo_inurba_marseille","lat":43.283998,"lon":5.375062,"is_reserved":false,"is_disabled":false,"rental_uris":{"android":"levelo://app?vid=f59936c8-bfa4-4e82-9b6a-a89887ecb79d","ios":"levelo://app?vid=f59936c8-bfa4-4e82-9b6a-a89887ecb79d"},"vehicle_type_id":"4","last_reported":1701131743,"current_range_meters":13600,"station_id":"ce4bh412rcd13ifvqds0","pricing_plan_id":"free"},{"bike_id":"793bcc18-0055-4128-bbe2-673ff1bc4eec","system_id":"levelo_inurba_marseille","lat":43.283998,"lon":5.375062,"is_reserved":false,"is_disabled":false,"rental_uris":{"android":"levelo://app?vid=793bcc18-0055-4128-bbe2-673ff1bc4eec","ios":"levelo://app?vid=793bcc18-0055-4128-bbe2-673ff1bc4eec"},"vehicle_type_id":"4","last_reported":1701131743,"current_range_meters":14000,"station_id":"ce4bh412rcd13ifvqds0","pricing_plan_id":"free"},{"bike_id":"2ef6a675-4e3f-4bc8-b5af-6dd2de7be8d7","system_id":"levelo_inurba_marseille","lat":43.28406,"lon":5.37509,"is_reserved":false,"is_disabled":false,"rental_uris":{"android":"levelo://app?vid=2ef6a675-4e3f-4bc8-b5af-6dd2de7be8d7","ios":"levelo://app?vid=2ef6a675-4e3f-4bc8-b5af-6dd2de7be8d7"},"vehicle_type_id":"4","last_reported":1701131743,"current_range_meters":0,"station_id":"","pricing_plan_id":"free"},{"bike_id":"832f5eab-424c-49f2-9a46-94bfaffac849","system_id":"levelo_inurba_marseille","lat":43.283998,"lon":5.375062,"is_reserved":false,"is_disabled":false,"rental_uris":{"android":"levelo://app?vid=832f5eab-424c-49f2-9a46-94bfaffac849","ios":"levelo://app?vid=832f5eab-424c-49f2-9a46-94bfaffac849"},"vehicle_type_id":"4","last_reported":1701131743,"current_range_meters":24000,"station_id":"ce4bh412rcd13ifvqds0","pricing_plan_id":"free"},{"bike_id":"0c486e2b-a904-4f44-b99b-d5afa895a16f","system_id":"levelo_inurba_marseille","lat":43.283998,"lon":5.375062,"is_reserved":false,"is_disabled":false,"rental_uris":{"android":"levelo://app?vid=0c486e2b-a904-4f44-b99b-d5afa895a16f","ios":"levelo://app?vid=0c486e2b-a904-4f44-b99b-d5afa895a16f"},"vehicle_type_id":"4","last_reported":1701131743,"current_range_meters":22400,"station_id":"ce4bh412rcd13ifvqds0","pricing_plan_id":"free"},{"bike_id":"8e6522cc-185f-4185-93fd-fa4c2827d3da","system_id":"levelo_inurba_marseille","lat":43.295713,"lon":5.399639,"is_reserved":false,"is_disabled":false,"rental_uris":{"android":"levelo://app?vid=8e6522cc-185f-4185-93fd-fa4c2827d3da","ios":"levelo://app?vid=8e6522cc-185f-4185-93fd-fa4c2827d3da"},"vehicle_type_id":"4","last_reported":1701131743,"current_range_meters":30400,"station_id":"ce4bh312rcd13ifvqdj0","pricing_plan_id":"free"},{"bike_id":"0cdfff8c-453a-4318-9d19-bd41dce669f2","system_id":"levelo_inurba_marseille","lat":43.295713,"lon":5.399639,"is_reserved":false,"is_disabled":false,"rental_uris":{"android":"levelo://app?vid=0cdfff8c-453a-4318-9d19-bd41dce669f2","ios":"levelo://app?vid=0cdfff8c-453a-4318-9d19-bd41dce669f2"},"vehicle_type_id":"4","last_reported":1701131743,"current_range_meters":23600,"station_id":"ce4bh312rcd13ifvqdj0","pricing_plan_id":"free"},{"bike_id":"76a91624-078a-44c3-b15f-d8bedec3309f","system_id":"levelo_inurba_marseille","lat":43.286595,"lon":5.386795,"is_reserved":false,"is_disabled":false,"rental_uris":{"android":"levelo://app?vid=76a91624-078a-44c3-b15f-d8bedec3309f","ios":"levelo://app?vid=76a91624-078a-44c3-b15f-d8bedec3309f"},"vehicle_type_id":"4","last_reported":1701131743,"current_range_meters":21200,"station_id":"ce4bh492rcd13ifvqdug","pricing_plan_id":"free"},{"bike_id":"1a291e63-4c1a-4cea-9fd0-d5e96e1d4699","system_id":"levelo_inurba_marseille","lat":43.286595,"lon":5.386795,"is_reserved":false,"is_disabled":false,"rental_uris":{"android":"levelo://app?vid=1a291e63-4c1a-4cea-9fd0-d5e96e1d4699","ios":"levelo://app?vid=1a291e63-4c1a-4cea-9fd0-d5e96e1d4699"},"vehicle_type_id":"4","last_reported":1701131743,"current_range_meters":27600,"station_id":"ce4bh492rcd13ifvqdug","pricing_plan_id":"free"},{"bike_id":"cc17f51c-2a77-4f12-9d6e-82137c29f28b","system_id":"levelo_inurba_marseille","lat":43.319179,"lon":5.407725,"is_reserved":false,"is_disabled":false,"rental_uris":{"android":"levelo://app?vid=cc17f51c-2a77-4f12-9d6e-82137c29f28b","ios":"levelo://app?vid=cc17f51c-2a77-4f12-9d6e-82137c29f28b"},"vehicle_type_id":"4","last_reported":1701131743,"current_range_meters":27600,"station_id":"ce4bhq12rcd13ifvqhig","pricing_plan_id":"free"},{"bike_id":"8fa51fbe-d3ae-468c-918d-b5d900ca27bf","system_id":"levelo_inurba_marseille","lat":43.323464,"lon":5.406297,"is_reserved":false,"is_disabled":false,"rental_uris":{"android":"levelo://app?vid=8fa51fbe-d3ae-468c-918d-b5d900ca27bf","ios":"levelo://app?vid=8fa51fbe-d3ae-468c-918d-b5d900ca27bf"},"vehicle_type_id":"4","last_reported":1701131743,"current_range_meters":30000,"station_id":"ce4bhq92rcd13ifvqhjg","pricing_plan_id":"free"},{"bike_id":"7e3cacd5-099a-4189-be83-c3325025a008","system_id":"levelo_inurba_marseille","lat":43.33717,"lon":5.391857,"is_reserved":false,"is_disabled":false,"rental_uris":{"android":"levelo://app?vid=7e3cacd5-099a-4189-be83-c3325025a008","ios":"levelo://app?vid=7e3cacd5-099a-4189-be83-c3325025a008"},"vehicle_type_id":"4","last_reported":1701131743,"current_range_meters":31200,"station_id":"ce4bhr92rcd13ifvqhsg","pricing_plan_id":"free"},{"bike_id":"2ec5961f-1b4b-4587-a7b0-f9177d2b9fbd","system_id":"levelo_inurba_marseille","lat":43.323464,"lon":5.406297,"is_reserved":false,"is_disabled":false,"rental_uris":{"android":"levelo://app?vid=2ec5961f-1b4b-4587-a7b0-f9177d2b9fbd","ios":"levelo://app?vid=2ec5961f-1b4b-4587-a7b0-f9177d2b9fbd"},"vehicle_type_id":"4","last_reported":1701131743,"current_range_meters":31200,"station_id":"ce4bhq92rcd13ifvqhjg","pricing_plan_id":"free"},{"bike_id":"6e5fc2ab-e680-4453-a607-400458212688","system_id":"levelo_inurba_marseille","lat":43.323464,"lon":5.406297,"is_reserved":false,"is_disabled":false,"rental_uris":{"android":"levelo://app?vid=6e5fc2ab-e680-4453-a607-400458212688","ios":"levelo://app?vid=6e5fc2ab-e680-4453-a607-400458212688"},"vehicle_type_id":"4","last_reported":1701131743,"current_range_meters":31200,"station_id":"ce4bhq92rcd13ifvqhjg","pricing_plan_id":"free"},{"bike_id":"72a42685-a59b-4ec5-8d0d-6f674a1195df","system_id":"levelo_inurba_marseille","lat":43.297946,"lon":5.404063,"is_reserved":false,"is_disabled":false,"rental_uris":{"android":"levelo://app?vid=72a42685-a59b-4ec5-8d0d-6f674a1195df","ios":"levelo://app?vid=72a42685-a59b-4ec5-8d0d-6f674a1195df"},"vehicle_type_id":"4","last_reported":1701131743,"current_range_meters":29600,"station_id":"ce4bh112rcd13ifvqd90","pricing_plan_id":"free"},{"bike_id":"0a181d4e-ed7a-4fa2-ae07-d4d8a73c4500","system_id":"levelo_inurba_marseille","lat":43.29795,"lon":5.404086,"is_reserved":false,"is_disabled":false,"rental_uris":{"android":"levelo://app?vid=0a181d4e-ed7a-4fa2-ae07-d4d8a73c4500","ios":"levelo://app?vid=0a181d4e-ed7a-4fa2-ae07-d4d8a73c4500"},"vehicle_type_id":"4","last_reported":1701131743,"current_range_meters":31200,"station_id":"ce4bh112rcd13ifvqd90","pricing_plan_id":"free"},{"bike_id":"555eea31-d2ce-4f08-8a25-0a2b22718a1a","system_id":"levelo_inurba_marseille","lat":43.283494,"lon":5.380945,"is_reserved":false,"is_disabled":false,"rental_uris":{"android":"levelo://app?vid=555eea31-d2ce-4f08-8a25-0a2b22718a1a","ios":"levelo://app?vid=555eea31-d2ce-4f08-8a25-0a2b22718a1a"},"vehicle_type_id":"4","last_reported":1701131743,"current_range_meters":26400,"station_id":"ce4bh412rcd13ifvqdr0","pricing_plan_id":"free"},{"bike_id":"56af1279-2272-4a30-8962-92bd141d82ce","system_id":"levelo_inurba_marseille","lat":43.284219,"lon":5.3497,"is_reserved":false,"is_disabled":false,"rental_uris":{"android":"levelo://app?vid=56af1279-2272-4a30-8962-92bd141d82ce","ios":"levelo://app?vid=56af1279-2272-4a30-8962-92bd141d82ce"},"vehicle_type_id":"4","last_reported":1701131743,"current_range_meters":27200,"station_id":"ce4bhbh2rcd13ifvqepg","pricing_plan_id":"free"},{"bike_id":"e2284003-4e46-4e0a-93e7-73d05c3666d9","system_id":"levelo_inurba_marseille","lat":43.33508,"lon":5.397755,"is_reserved":false,"is_disabled":false,"rental_uris":{"android":"levelo://app?vid=e2284003-4e46-4e0a-93e7-73d05c3666d9","ios":"levelo://app?vid=e2284003-4e46-4e0a-93e7-73d05c3666d9"},"vehicle_type_id":"4","last_reported":1701131743,"current_range_meters":13200,"station_id":"","pricing_plan_id":"free"},{"bike_id":"a244648a-5b31-413c-8660-4ff1a9b2b915","system_id":"levelo_inurba_marseille","lat":43.292724,"lon":5.401131,"is_reserved":false,"is_disabled":false,"rental_uris":{"android":"levelo://app?vid=a244648a-5b31-413c-8660-4ff1a9b2b915","ios":"levelo://app?vid=a244648a-5b31-413c-8660-4ff1a9b2b915"},"vehicle_type_id":"4","last_reported":1701131743,"current_range_meters":22800,"station_id":"ce4bh312rcd13ifvqdk0","pricing_plan_id":"free"},{"bike_id":"cab7a74c-73b2-4530-b250-feaa23499635","system_id":"levelo_inurba_marseille","lat":43.282744,"lon":5.350533,"is_reserved":false,"is_disabled":false,"rental_uris":{"android":"levelo://app?vid=cab7a74c-73b2-4530-b250-feaa23499635","ios":"levelo://app?vid=cab7a74c-73b2-4530-b250-feaa23499635"},"vehicle_type_id":"4","last_reported":1701131743,"current_range_meters":27600,"station_id":"ce4bhbp2rcd13ifvqerg","pricing_plan_id":"free"},{"bike_id":"63ba3539-cbad-42dc-8cba-9adc149b5148","system_id":"levelo_inurba_marseille","lat":43.282744,"lon":5.350533,"is_reserved":false,"is_disabled":false,"rental_uris":{"android":"levelo://app?vid=63ba3539-cbad-42dc-8cba-9adc149b5148","ios":"levelo://app?vid=63ba3539-cbad-42dc-8cba-9adc149b5148"},"vehicle_type_id":"4","last_reported":1701131743,"current_range_meters":1600,"station_id":"ce4bhbp2rcd13ifvqerg","pricing_plan_id":"free"},{"bike_id":"3c4a717e-f1ea-4de5-8956-865275323ee1","system_id":"levelo_inurba_marseille","lat":43.28039,"lon":5.369297,"is_reserved":false,"is_disabled":false,"rental_uris":{"android":"levelo://app?vid=3c4a717e-f1ea-4de5-8956-865275323ee1","ios":"levelo://app?vid=3c4a717e-f1ea-4de5-8956-865275323ee1"},"vehicle_type_id":"4","last_reported":1701131743,"current_range_meters":29600,"station_id":"ce4bha12rcd13ifvqef0","pricing_plan_id":"free"},{"bike_id":"190df295-f81a-4b41-9349-5a5c25e04f62","system_id":"levelo_inurba_marseille","lat":43.280317,"lon":5.369378,"is_reserved":false,"is_disabled":false,"rental_uris":{"android":"levelo://app?vid=190df295-f81a-4b41-9349-5a5c25e04f62","ios":"levelo://app?vid=190df295-f81a-4b41-9349-5a5c25e04f62"},"vehicle_type_id":"4","last_reported":1701131743,"current_range_meters":4000,"station_id":"ce4bha12rcd13ifvqef0","pricing_plan_id":"free"},{"bike_id":"2d884891-2722-4f44-8072-8fada83a090e","system_id":"levelo_inurba_marseille","lat":43.28039,"lon":5.369297,"is_reserved":false,"is_disabled":false,"rental_uris":{"android":"levelo://app?vid=2d884891-2722-4f44-8072-8fada83a090e","ios":"levelo://app?vid=2d884891-2722-4f44-8072-8fada83a090e"},"vehicle_type_id":"4","last_reported":1701131743,"current_range_meters":30800,"station_id":"ce4bha12rcd13ifvqef0","pricing_plan_id":"free"},{"bike_id":"f6b36f6f-71c2-48b7-928a-28ddaa19d0e5","system_id":"levelo_inurba_marseille","lat":43.28039,"lon":5.369297,"is_reserved":false,"is_disabled":false,"rental_uris":{"android":"levelo://app?vid=f6b36f6f-71c2-48b7-928a-28ddaa19d0e5","ios":"levelo://app?vid=f6b36f6f-71c2-48b7-928a-28ddaa19d0e5"},"vehicle_type_id":"4","last_reported":1701131743,"current_range_meters":28800,"station_id":"ce4bha12rcd13ifvqef0","pricing_plan_id":"free"},{"bike_id":"919a1060-2cd1-496e-a2bd-93f4f7483c00","system_id":"levelo_inurba_marseille","lat":43.281044,"lon":5.378308,"is_reserved":false,"is_disabled":false,"rental_uris":{"android":"levelo://app?vid=919a1060-2cd1-496e-a2bd-93f4f7483c00","ios":"levelo://app?vid=919a1060-2cd1-496e-a2bd-93f4f7483c00"},"vehicle_type_id":"4","last_reported":1701131743,"current_range_meters":30000,"station_id":"ce4bha12rcd13ifvqee0","pricing_plan_id":"free"},{"bike_id":"4a04d945-4b5a-4ed3-bb0b-a7465312b60a","system_id":"levelo_inurba_marseille","lat":43.296263,"lon":5.40601,"is_reserved":false,"is_disabled":false,"rental_uris":{"android":"levelo://app?vid=4a04d945-4b5a-4ed3-bb0b-a7465312b60a","ios":"levelo://app?vid=4a04d945-4b5a-4ed3-bb0b-a7465312b60a"},"vehicle_type_id":"4","last_reported":1701131743,"current_range_meters":25600,"station_id":"ce4bh0h2rcd13ifvqd60","pricing_plan_id":"free"},{"bike_id":"223cb07c-0d59-4e66-9f4e-cc84b20e739d","system_id":"levelo_inurba_marseille","lat":43.284462,"lon":5.392121,"is_reserved":false,"is_disabled":false,"rental_uris":{"android":"levelo://app?vid=223cb07c-0d59-4e66-9f4e-cc84b20e739d","ios":"levelo://app?vid=223cb07c-0d59-4e66-9f4e-cc84b20e739d"},"vehicle_type_id":"4","last_reported":1701131743,"current_range_meters":21600,"station_id":"ce4bhoh2rcd13ifvqh5g","pricing_plan_id":"free"},{"bike_id":"20b28bfb-6ae5-4eba-8ed6-8ad93598b0f4","system_id":"levelo_inurba_marseille","lat":43.284462,"lon":5.392121,"is_reserved":false,"is_disabled":false,"rental_uris":{"android":"levelo://app?vid=20b28bfb-6ae5-4eba-8ed6-8ad93598b0f4","ios":"levelo://app?vid=20b28bfb-6ae5-4eba-8ed6-8ad93598b0f4"},"vehicle_type_id":"4","last_reported":1701131743,"current_range_meters":25200,"station_id":"ce4bhoh2rcd13ifvqh5g","pricing_plan_id":"free"},{"bike_id":"7efab9f0-258a-495d-ab78-57dd876ebb91","system_id":"levelo_inurba_marseille","lat":43.304188,"lon":5.412904,"is_reserved":false,"is_disabled":false,"rental_uris":{"android":"levelo://app?vid=7efab9f0-258a-495d-ab78-57dd876ebb91","ios":"levelo://app?vid=7efab9f0-258a-495d-ab78-57dd876ebb91"},"vehicle_type_id":"4","last_reported":1701131743,"current_range_meters":27600,"station_id":"ce4bhop2rcd13ifvqh8g","pricing_plan_id":"free"},{"bike_id":"bef418d9-ce64-4511-b4a9-596493b89312","system_id":"levelo_inurba_marseille","lat":43.304188,"lon":5.412904,"is_reserved":false,"is_disabled":false,"rental_uris":{"android":"levelo://app?vid=bef418d9-ce64-4511-b4a9-596493b89312","ios":"levelo://app?vid=bef418d9-ce64-4511-b4a9-596493b89312"},"vehicle_type_id":"4","last_reported":1701131743,"current_range_meters":26400,"station_id":"ce4bhop2rcd13ifvqh8g","pricing_plan_id":"free"},{"bike_id":"7d18d8c2-3d50-4316-8060-5d1b0d443517","system_id":"levelo_inurba_marseille","lat":43.304188,"lon":5.412904,"is_reserved":false,"is_disabled":false,"rental_uris":{"android":"levelo://app?vid=7d18d8c2-3d50-4316-8060-5d1b0d443517","ios":"levelo://app?vid=7d18d8c2-3d50-4316-8060-5d1b0d443517"},"vehicle_type_id":"4","last_reported":1701131743,"current_range_meters":31200,"station_id":"ce4bhop2rcd13ifvqh8g","pricing_plan_id":"free"},{"bike_id":"6526cad1-2f4b-4db1-8d6b-ce04bc407b31","system_id":"levelo_inurba_marseille","lat":43.346897,"lon":5.37683,"is_reserved":false,"is_disabled":false,"rental_uris":{"android":"levelo://app?vid=6526cad1-2f4b-4db1-8d6b-ce04bc407b31","ios":"levelo://app?vid=6526cad1-2f4b-4db1-8d6b-ce04bc407b31"},"vehicle_type_id":"4","last_reported":1701131743,"current_range_meters":0,"station_id":"","pricing_plan_id":"free"},{"bike_id":"27480461-b1f0-4a51-a056-c4af04af3efb","system_id":"levelo_inurba_marseille","lat":43.29429,"lon":5.40766,"is_reserved":false,"is_disabled":false,"rental_uris":{"android":"levelo://app?vid=27480461-b1f0-4a51-a056-c4af04af3efb","ios":"levelo://app?vid=27480461-b1f0-4a51-a056-c4af04af3efb"},"vehicle_type_id":"4","last_reported":1701131743,"current_range_meters":6400,"station_id":"","pricing_plan_id":"free"},{"bike_id":"eb555d25-016f-4268-b5ae-ff2905c71108","system_id":"levelo_inurba_marseille","lat":43.279087,"lon":5.380114,"is_reserved":false,"is_disabled":false,"rental_uris":{"android":"levelo://app?vid=eb555d25-016f-4268-b5ae-ff2905c71108","ios":"levelo://app?vid=eb555d25-016f-4268-b5ae-ff2905c71108"},"vehicle_type_id":"4","last_reported":1701131743,"current_range_meters":26800,"station_id":"ce4bhf92rcd13ifvqf50","pricing_plan_id":"free"},{"bike_id":"55c92fa4-3dcc-44cf-9a51-3020b29b4ead","system_id":"levelo_inurba_marseille","lat":43.287154,"lon":5.399979,"is_reserved":false,"is_disabled":false,"rental_uris":{"android":"levelo://app?vid=55c92fa4-3dcc-44cf-9a51-3020b29b4ead","ios":"levelo://app?vid=55c92fa4-3dcc-44cf-9a51-3020b29b4ead"},"vehicle_type_id":"4","last_reported":1701131743,"current_range_meters":28400,"station_id":"ce4bho92rcd13ifvqh3g","pricing_plan_id":"free"},{"bike_id":"76a8d1f0-5c30-4894-8e87-e80f3a0f2144","system_id":"levelo_inurba_marseille","lat":43.299577,"lon":5.413277,"is_reserved":false,"is_disabled":false,"rental_uris":{"android":"levelo://app?vid=76a8d1f0-5c30-4894-8e87-e80f3a0f2144","ios":"levelo://app?vid=76a8d1f0-5c30-4894-8e87-e80f3a0f2144"},"vehicle_type_id":"4","last_reported":1701131743,"current_range_meters":28000,"station_id":"ce4bhp12rcd13ifvqh9g","pricing_plan_id":"free"},{"bike_id":"c30b898a-54ca-444c-8f26-e1943fa33449","system_id":"levelo_inurba_marseille","lat":43.279742,"lon":5.38744,"is_reserved":false,"is_disabled":false,"rental_uris":{"android":"levelo://app?vid=c30b898a-54ca-444c-8f26-e1943fa33449","ios":"levelo://app?vid=c30b898a-54ca-444c-8f26-e1943fa33449"},"vehicle_type_id":"4","last_reported":1701131743,"current_range_meters":26800,"station_id":"ce4bhg12rcd13ifvqf80","pricing_plan_id":"free"},{"bike_id":"521e0e2e-a8d2-4d18-8079-009c449dd225","system_id":"levelo_inurba_marseille","lat":43.292832,"lon":5.409927,"is_reserved":false,"is_disabled":false,"rental_uris":{"android":"levelo://app?vid=521e0e2e-a8d2-4d18-8079-009c449dd225","ios":"levelo://app?vid=521e0e2e-a8d2-4d18-8079-009c449dd225"},"vehicle_type_id":"4","last_reported":1701131743,"current_range_meters":3200,"station_id":"","pricing_plan_id":"free"},{"bike_id":"be9690c5-c7a1-4c76-a31f-e0ecc29f7955","system_id":"levelo_inurba_marseille","lat":43.280784,"lon":5.396622,"is_reserved":false,"is_disabled":false,"rental_uris":{"android":"levelo://app?vid=be9690c5-c7a1-4c76-a31f-e0ecc29f7955","ios":"levelo://app?vid=be9690c5-c7a1-4c76-a31f-e0ecc29f7955"},"vehicle_type_id":"4","last_reported":1701131743,"current_range_meters":31200,"station_id":"ce4bho12rcd13ifvqh2g","pricing_plan_id":"free"},{"bike_id":"44087013-9d8f-488c-9025-5d33d053b6d3","system_id":"levelo_inurba_marseille","lat":43.280784,"lon":5.396622,"is_reserved":false,"is_disabled":false,"rental_uris":{"android":"levelo://app?vid=44087013-9d8f-488c-9025-5d33d053b6d3","ios":"levelo://app?vid=44087013-9d8f-488c-9025-5d33d053b6d3"},"vehicle_type_id":"4","last_reported":1701131743,"current_range_meters":24400,"station_id":"ce4bho12rcd13ifvqh2g","pricing_plan_id":"free"},{"bike_id":"2a1a99c2-b40b-47d5-83ec-73fe8d8ad059","system_id":"levelo_inurba_marseille","lat":43.280784,"lon":5.396622,"is_reserved":false,"is_disabled":false,"rental_uris":{"android":"levelo://app?vid=2a1a99c2-b40b-47d5-83ec-73fe8d8ad059","ios":"levelo://app?vid=2a1a99c2-b40b-47d5-83ec-73fe8d8ad059"},"vehicle_type_id":"4","last_reported":1701131743,"current_range_meters":28400,"station_id":"ce4bho12rcd13ifvqh2g","pricing_plan_id":"free"},{"bike_id":"6c0961d8-7cc7-4144-8638-1ad0e9e89d2d","system_id":"levelo_inurba_marseille","lat":43.278399,"lon":5.392139,"is_reserved":false,"is_disabled":false,"rental_uris":{"android":"levelo://app?vid=6c0961d8-7cc7-4144-8638-1ad0e9e89d2d","ios":"levelo://app?vid=6c0961d8-7cc7-4144-8638-1ad0e9e89d2d"},"vehicle_type_id":"4","last_reported":1701131743,"current_range_meters":18000,"station_id":"ce4bhjp2rcd13ifvqga0","pricing_plan_id":"free"},{"bike_id":"a6f9448e-832d-44a3-9936-c32e6436e76b","system_id":"levelo_inurba_marseille","lat":43.278399,"lon":5.392139,"is_reserved":false,"is_disabled":false,"rental_uris":{"android":"levelo://app?vid=a6f9448e-832d-44a3-9936-c32e6436e76b","ios":"levelo://app?vid=a6f9448e-832d-44a3-9936-c32e6436e76b"},"vehicle_type_id":"4","last_reported":1701131743,"current_range_meters":17600,"station_id":"ce4bhjp2rcd13ifvqga0","pricing_plan_id":"free"},{"bike_id":"65a6bc97-46ab-4be9-93d6-3f5986a84f2d","system_id":"levelo_inurba_marseille","lat":43.278399,"lon":5.392139,"is_reserved":false,"is_disabled":false,"rental_uris":{"android":"levelo://app?vid=65a6bc97-46ab-4be9-93d6-3f5986a84f2d","ios":"levelo://app?vid=65a6bc97-46ab-4be9-93d6-3f5986a84f2d"},"vehicle_type_id":"4","last_reported":1701131743,"current_range_meters":31200,"station_id":"ce4bhjp2rcd13ifvqga0","pricing_plan_id":"free"},{"bike_id":"a39afdfa-2a34-46dc-b8b1-ea5e8d0ddeac","system_id":"levelo_inurba_marseille","lat":43.275625,"lon":5.384392,"is_reserved":false,"is_disabled":false,"rental_uris":{"android":"levelo://app?vid=a39afdfa-2a34-46dc-b8b1-ea5e8d0ddeac","ios":"levelo://app?vid=a39afdfa-2a34-46dc-b8b1-ea5e8d0ddeac"},"vehicle_type_id":"4","last_reported":1701131743,"current_range_meters":28400,"station_id":"ce4bhh92rcd13ifvqfi0","pricing_plan_id":"free"},{"bike_id":"02f623df-3276-4700-ab31-d4a22e1c46a6","system_id":"levelo_inurba_marseille","lat":43.273613,"lon":5.362705,"is_reserved":false,"is_disabled":false,"rental_uris":{"android":"levelo://app?vid=02f623df-3276-4700-ab31-d4a22e1c46a6","ios":"levelo://app?vid=02f623df-3276-4700-ab31-d4a22e1c46a6"},"vehicle_type_id":"4","last_reported":1701131743,"current_range_meters":24400,"station_id":"ce4bhbh2rcd13ifvqeo0","pricing_plan_id":"free"},{"bike_id":"40f6d377-528e-4074-806e-ae08fe5a0e27","system_id":"levelo_inurba_marseille","lat":43.273613,"lon":5.362705,"is_reserved":false,"is_disabled":false,"rental_uris":{"android":"levelo://app?vid=40f6d377-528e-4074-806e-ae08fe5a0e27","ios":"levelo://app?vid=40f6d377-528e-4074-806e-ae08fe5a0e27"},"vehicle_type_id":"4","last_reported":1701131743,"current_range_meters":19200,"station_id":"ce4bhbh2rcd13ifvqeo0","pricing_plan_id":"free"},{"bike_id":"43a0b753-fb47-4881-91d9-d29a0815f06e","system_id":"levelo_inurba_marseille","lat":43.273609,"lon":5.362708,"is_reserved":false,"is_disabled":false,"rental_uris":{"android":"levelo://app?vid=43a0b753-fb47-4881-91d9-d29a0815f06e","ios":"levelo://app?vid=43a0b753-fb47-4881-91d9-d29a0815f06e"},"vehicle_type_id":"4","last_reported":1701131743,"current_range_meters":31200,"station_id":"ce4bhbh2rcd13ifvqeo0","pricing_plan_id":"free"},{"bike_id":"a3d9a7d4-c1f1-4784-8005-3c27d8c653a2","system_id":"levelo_inurba_marseille","lat":43.27566,"lon":5.38427,"is_reserved":false,"is_disabled":false,"rental_uris":{"android":"levelo://app?vid=a3d9a7d4-c1f1-4784-8005-3c27d8c653a2","ios":"levelo://app?vid=a3d9a7d4-c1f1-4784-8005-3c27d8c653a2"},"vehicle_type_id":"4","last_reported":1701131743,"current_range_meters":30800,"station_id":"ce4bhh92rcd13ifvqfi0","pricing_plan_id":"free"},{"bike_id":"3d955af7-b7d1-4f39-8a2f-4096fce89c61","system_id":"levelo_inurba_marseille","lat":43.273609,"lon":5.362708,"is_reserved":false,"is_disabled":false,"rental_uris":{"android":"levelo://app?vid=3d955af7-b7d1-4f39-8a2f-4096fce89c61","ios":"levelo://app?vid=3d955af7-b7d1-4f39-8a2f-4096fce89c61"},"vehicle_type_id":"4","last_reported":1701131743,"current_range_meters":27600,"station_id":"ce4bhbh2rcd13ifvqeo0","pricing_plan_id":"free"},{"bike_id":"b5ceb548-85f0-433f-a02d-26b317627d79","system_id":"levelo_inurba_marseille","lat":43.273609,"lon":5.362708,"is_reserved":false,"is_disabled":false,"rental_uris":{"android":"levelo://app?vid=b5ceb548-85f0-433f-a02d-26b317627d79","ios":"levelo://app?vid=b5ceb548-85f0-433f-a02d-26b317627d79"},"vehicle_type_id":"4","last_reported":1701131743,"current_range_meters":26800,"station_id":"ce4bhbh2rcd13ifvqeo0","pricing_plan_id":"free"},{"bike_id":"68d1e3bd-3108-4de0-b40c-a97d1d5dcd71","system_id":"levelo_inurba_marseille","lat":43.27564,"lon":5.38424,"is_reserved":false,"is_disabled":false,"rental_uris":{"android":"levelo://app?vid=68d1e3bd-3108-4de0-b40c-a97d1d5dcd71","ios":"levelo://app?vid=68d1e3bd-3108-4de0-b40c-a97d1d5dcd71"},"vehicle_type_id":"4","last_reported":1701131743,"current_range_meters":25200,"station_id":"ce4bhh92rcd13ifvqfi0","pricing_plan_id":"free"},{"bike_id":"2789d664-3ab2-4b77-a280-91723a2b9428","system_id":"levelo_inurba_marseille","lat":43.336134,"lon":5.410341,"is_reserved":false,"is_disabled":false,"rental_uris":{"android":"levelo://app?vid=2789d664-3ab2-4b77-a280-91723a2b9428","ios":"levelo://app?vid=2789d664-3ab2-4b77-a280-91723a2b9428"},"vehicle_type_id":"4","last_reported":1701131743,"current_range_meters":22000,"station_id":"ce4bhqh2rcd13ifvqhmg","pricing_plan_id":"free"},{"bike_id":"5ee5e746-a628-4f3c-80a0-3c11b187084c","system_id":"levelo_inurba_marseille","lat":43.336134,"lon":5.410341,"is_reserved":false,"is_disabled":false,"rental_uris":{"android":"levelo://app?vid=5ee5e746-a628-4f3c-80a0-3c11b187084c","ios":"levelo://app?vid=5ee5e746-a628-4f3c-80a0-3c11b187084c"},"vehicle_type_id":"4","last_reported":1701131743,"current_range_meters":12000,"station_id":"ce4bhqh2rcd13ifvqhmg","pricing_plan_id":"free"},{"bike_id":"1c65a731-f44d-4095-8f56-ade1cfe17088","system_id":"levelo_inurba_marseille","lat":43.275625,"lon":5.384392,"is_reserved":false,"is_disabled":false,"rental_uris":{"android":"levelo://app?vid=1c65a731-f44d-4095-8f56-ade1cfe17088","ios":"levelo://app?vid=1c65a731-f44d-4095-8f56-ade1cfe17088"},"vehicle_type_id":"4","last_reported":1701131743,"current_range_meters":25200,"station_id":"ce4bhh92rcd13ifvqfi0","pricing_plan_id":"free"},{"bike_id":"89aa26c5-dfbd-4222-82ba-a6eb8e66196a","system_id":"levelo_inurba_marseille","lat":43.336148,"lon":5.410349,"is_reserved":false,"is_disabled":false,"rental_uris":{"android":"levelo://app?vid=89aa26c5-dfbd-4222-82ba-a6eb8e66196a","ios":"levelo://app?vid=89aa26c5-dfbd-4222-82ba-a6eb8e66196a"},"vehicle_type_id":"4","last_reported":1701131743,"current_range_meters":30400,"station_id":"ce4bhqh2rcd13ifvqhmg","pricing_plan_id":"free"},{"bike_id":"9771622f-ad79-4430-82f6-e6b54226d601","system_id":"levelo_inurba_marseille","lat":43.336134,"lon":5.410341,"is_reserved":false,"is_disabled":false,"rental_uris":{"android":"levelo://app?vid=9771622f-ad79-4430-82f6-e6b54226d601","ios":"levelo://app?vid=9771622f-ad79-4430-82f6-e6b54226d601"},"vehicle_type_id":"4","last_reported":1701131743,"current_range_meters":31600,"station_id":"ce4bhqh2rcd13ifvqhmg","pricing_plan_id":"free"},{"bike_id":"b3fb9279-0c66-4e61-88dd-3ef6d4c0ca8f","system_id":"levelo_inurba_marseille","lat":43.276769,"lon":5.388787,"is_reserved":false,"is_disabled":false,"rental_uris":{"android":"levelo://app?vid=b3fb9279-0c66-4e61-88dd-3ef6d4c0ca8f","ios":"levelo://app?vid=b3fb9279-0c66-4e61-88dd-3ef6d4c0ca8f"},"vehicle_type_id":"4","last_reported":1701131743,"current_range_meters":24400,"station_id":"ce4bhi12rcd13ifvqfo0","pricing_plan_id":"free"},{"bike_id":"a3ba2bbe-6302-4e7d-88dd-5f487d6e388e","system_id":"levelo_inurba_marseille","lat":43.27998,"lon":5.40016,"is_reserved":false,"is_disabled":false,"rental_uris":{"android":"levelo://app?vid=a3ba2bbe-6302-4e7d-88dd-5f487d6e388e","ios":"levelo://app?vid=a3ba2bbe-6302-4e7d-88dd-5f487d6e388e"},"vehicle_type_id":"4","last_reported":1701131743,"current_range_meters":30400,"station_id":"ce4bho92rcd13ifvqh4g","pricing_plan_id":"free"},{"bike_id":"745de0c3-f80a-4d92-a7ac-ec5d31b4bb9a","system_id":"levelo_inurba_marseille","lat":43.279952,"lon":5.400085,"is_reserved":false,"is_disabled":false,"rental_uris":{"android":"levelo://app?vid=745de0c3-f80a-4d92-a7ac-ec5d31b4bb9a","ios":"levelo://app?vid=745de0c3-f80a-4d92-a7ac-ec5d31b4bb9a"},"vehicle_type_id":"4","last_reported":1701131743,"current_range_meters":26800,"station_id":"ce4bho92rcd13ifvqh4g","pricing_plan_id":"free"},{"bike_id":"89b9a57b-3c62-4bcd-a510-245ba6546272","system_id":"levelo_inurba_marseille","lat":43.31715,"lon":5.424001,"is_reserved":false,"is_disabled":false,"rental_uris":{"android":"levelo://app?vid=89b9a57b-3c62-4bcd-a510-245ba6546272","ios":"levelo://app?vid=89b9a57b-3c62-4bcd-a510-245ba6546272"},"vehicle_type_id":"4","last_reported":1701131743,"current_range_meters":0,"station_id":"ce4bhp92rcd13ifvqhbg","pricing_plan_id":"free"},{"bike_id":"460d5063-5d7a-4405-ba58-f7ba9110acb2","system_id":"levelo_inurba_marseille","lat":43.31726,"lon":5.42399,"is_reserved":false,"is_disabled":false,"rental_uris":{"android":"levelo://app?vid=460d5063-5d7a-4405-ba58-f7ba9110acb2","ios":"levelo://app?vid=460d5063-5d7a-4405-ba58-f7ba9110acb2"},"vehicle_type_id":"4","last_reported":1701131743,"current_range_meters":6400,"station_id":"ce4bhp92rcd13ifvqhbg","pricing_plan_id":"free"},{"bike_id":"177119fa-77bc-4b45-9076-05ca3e223bc7","system_id":"levelo_inurba_marseille","lat":43.340804,"lon":5.410219,"is_reserved":false,"is_disabled":false,"rental_uris":{"android":"levelo://app?vid=177119fa-77bc-4b45-9076-05ca3e223bc7","ios":"levelo://app?vid=177119fa-77bc-4b45-9076-05ca3e223bc7"},"vehicle_type_id":"4","last_reported":1701131743,"current_range_meters":30000,"station_id":"ce4bhqh2rcd13ifvqhlg","pricing_plan_id":"free"},{"bike_id":"eb8e3439-4437-4084-af30-08a0047e6e7a","system_id":"levelo_inurba_marseille","lat":43.340804,"lon":5.410219,"is_reserved":false,"is_disabled":false,"rental_uris":{"android":"levelo://app?vid=eb8e3439-4437-4084-af30-08a0047e6e7a","ios":"levelo://app?vid=eb8e3439-4437-4084-af30-08a0047e6e7a"},"vehicle_type_id":"4","last_reported":1701131743,"current_range_meters":30400,"station_id":"ce4bhqh2rcd13ifvqhlg","pricing_plan_id":"free"},{"bike_id":"f2bde5fe-1806-4abd-8d3e-905bb0bc42a6","system_id":"levelo_inurba_marseille","lat":43.274099,"lon":5.394019,"is_reserved":false,"is_disabled":false,"rental_uris":{"android":"levelo://app?vid=f2bde5fe-1806-4abd-8d3e-905bb0bc42a6","ios":"levelo://app?vid=f2bde5fe-1806-4abd-8d3e-905bb0bc42a6"},"vehicle_type_id":"4","last_reported":1701131743,"current_range_meters":28400,"station_id":"ce4bhdp2rcd13ifvqf20","pricing_plan_id":"free"},{"bike_id":"5a188d9f-ecab-4144-bbb1-9608ff140870","system_id":"levelo_inurba_marseille","lat":43.27122,"lon":5.38727,"is_reserved":false,"is_disabled":false,"rental_uris":{"android":"levelo://app?vid=5a188d9f-ecab-4144-bbb1-9608ff140870","ios":"levelo://app?vid=5a188d9f-ecab-4144-bbb1-9608ff140870"},"vehicle_type_id":"4","last_reported":1701131743,"current_range_meters":29600,"station_id":"","pricing_plan_id":"free"},{"bike_id":"73eeb136-9ad5-41a6-a459-fb0ef87f8779","system_id":"levelo_inurba_marseille","lat":43.295523,"lon":5.422926,"is_reserved":false,"is_disabled":false,"rental_uris":{"android":"levelo://app?vid=73eeb136-9ad5-41a6-a459-fb0ef87f8779","ios":"levelo://app?vid=73eeb136-9ad5-41a6-a459-fb0ef87f8779"},"vehicle_type_id":"4","last_reported":1701131743,"current_range_meters":2800,"station_id":"ce4bhph2rcd13ifvqhdg","pricing_plan_id":"free"},{"bike_id":"6b00c00a-acab-4a0b-825e-4b6c2ea383bc","system_id":"levelo_inurba_marseille","lat":43.295523,"lon":5.422926,"is_reserved":false,"is_disabled":false,"rental_uris":{"android":"levelo://app?vid=6b00c00a-acab-4a0b-825e-4b6c2ea383bc","ios":"levelo://app?vid=6b00c00a-acab-4a0b-825e-4b6c2ea383bc"},"vehicle_type_id":"4","last_reported":1701131743,"current_range_meters":27600,"station_id":"ce4bhph2rcd13ifvqhdg","pricing_plan_id":"free"},{"bike_id":"fccf1799-4473-414c-9389-9b30b0508c40","system_id":"levelo_inurba_marseille","lat":43.295523,"lon":5.422926,"is_reserved":false,"is_disabled":false,"rental_uris":{"android":"levelo://app?vid=fccf1799-4473-414c-9389-9b30b0508c40","ios":"levelo://app?vid=fccf1799-4473-414c-9389-9b30b0508c40"},"vehicle_type_id":"4","last_reported":1701131743,"current_range_meters":19200,"station_id":"ce4bhph2rcd13ifvqhdg","pricing_plan_id":"free"},{"bike_id":"08fe44e4-201e-4497-b2af-1597ca570ac3","system_id":"levelo_inurba_marseille","lat":43.295511,"lon":5.422926,"is_reserved":false,"is_disabled":false,"rental_uris":{"android":"levelo://app?vid=08fe44e4-201e-4497-b2af-1597ca570ac3","ios":"levelo://app?vid=08fe44e4-201e-4497-b2af-1597ca570ac3"},"vehicle_type_id":"4","last_reported":1701131743,"current_range_meters":21200,"station_id":"ce4bhph2rcd13ifvqhdg","pricing_plan_id":"free"},{"bike_id":"487e8935-2222-4e65-8507-6d483307a42a","system_id":"levelo_inurba_marseille","lat":43.295511,"lon":5.422926,"is_reserved":false,"is_disabled":false,"rental_uris":{"android":"levelo://app?vid=487e8935-2222-4e65-8507-6d483307a42a","ios":"levelo://app?vid=487e8935-2222-4e65-8507-6d483307a42a"},"vehicle_type_id":"4","last_reported":1701131743,"current_range_meters":31200,"station_id":"ce4bhph2rcd13ifvqhdg","pricing_plan_id":"free"},{"bike_id":"4c605ca3-481c-41f4-97f4-419aa29ab2ca","system_id":"levelo_inurba_marseille","lat":43.295523,"lon":5.422926,"is_reserved":false,"is_disabled":false,"rental_uris":{"android":"levelo://app?vid=4c605ca3-481c-41f4-97f4-419aa29ab2ca","ios":"levelo://app?vid=4c605ca3-481c-41f4-97f4-419aa29ab2ca"},"vehicle_type_id":"4","last_reported":1701131743,"current_range_meters":1200,"station_id":"ce4bhph2rcd13ifvqhdg","pricing_plan_id":"free"},{"bike_id":"96661c5e-90e7-498e-8229-323d527ddcf5","system_id":"levelo_inurba_marseille","lat":43.295523,"lon":5.422926,"is_reserved":false,"is_disabled":false,"rental_uris":{"android":"levelo://app?vid=96661c5e-90e7-498e-8229-323d527ddcf5","ios":"levelo://app?vid=96661c5e-90e7-498e-8229-323d527ddcf5"},"vehicle_type_id":"4","last_reported":1701131743,"current_range_meters":21200,"station_id":"ce4bhph2rcd13ifvqhdg","pricing_plan_id":"free"},{"bike_id":"76c54cc3-5f25-4fd7-a417-9afa50fb9df9","system_id":"levelo_inurba_marseille","lat":43.295523,"lon":5.422926,"is_reserved":false,"is_disabled":false,"rental_uris":{"android":"levelo://app?vid=76c54cc3-5f25-4fd7-a417-9afa50fb9df9","ios":"levelo://app?vid=76c54cc3-5f25-4fd7-a417-9afa50fb9df9"},"vehicle_type_id":"4","last_reported":1701131743,"current_range_meters":14000,"station_id":"ce4bhph2rcd13ifvqhdg","pricing_plan_id":"free"},{"bike_id":"b5345938-438d-49b4-a969-d1562d2f1280","system_id":"levelo_inurba_marseille","lat":43.295523,"lon":5.422926,"is_reserved":false,"is_disabled":false,"rental_uris":{"android":"levelo://app?vid=b5345938-438d-49b4-a969-d1562d2f1280","ios":"levelo://app?vid=b5345938-438d-49b4-a969-d1562d2f1280"},"vehicle_type_id":"4","last_reported":1701131743,"current_range_meters":27600,"station_id":"ce4bhph2rcd13ifvqhdg","pricing_plan_id":"free"},{"bike_id":"60d68696-e37a-4397-b24a-012f516bc63c","system_id":"levelo_inurba_marseille","lat":43.295523,"lon":5.422926,"is_reserved":false,"is_disabled":false,"rental_uris":{"android":"levelo://app?vid=60d68696-e37a-4397-b24a-012f516bc63c","ios":"levelo://app?vid=60d68696-e37a-4397-b24a-012f516bc63c"},"vehicle_type_id":"4","last_reported":1701131743,"current_range_meters":16400,"station_id":"ce4bhph2rcd13ifvqhdg","pricing_plan_id":"free"},{"bike_id":"9a61eba2-a45e-443d-84ea-0dc531858312","system_id":"levelo_inurba_marseille","lat":43.272116,"lon":5.391747,"is_reserved":false,"is_disabled":false,"rental_uris":{"android":"levelo://app?vid=9a61eba2-a45e-443d-84ea-0dc531858312","ios":"levelo://app?vid=9a61eba2-a45e-443d-84ea-0dc531858312"},"vehicle_type_id":"4","last_reported":1701131743,"current_range_meters":23200,"station_id":"ce4bhhp2rcd13ifvqfm0","pricing_plan_id":"free"},{"bike_id":"cdd98271-d617-4391-81c2-397290d2133b","system_id":"levelo_inurba_marseille","lat":43.272116,"lon":5.391763,"is_reserved":false,"is_disabled":false,"rental_uris":{"android":"levelo://app?vid=cdd98271-d617-4391-81c2-397290d2133b","ios":"levelo://app?vid=cdd98271-d617-4391-81c2-397290d2133b"},"vehicle_type_id":"4","last_reported":1701131743,"current_range_meters":30000,"station_id":"ce4bhhp2rcd13ifvqfm0","pricing_plan_id":"free"},{"bike_id":"855705df-aefe-4905-93e9-451fe5247586","system_id":"levelo_inurba_marseille","lat":43.272116,"lon":5.391747,"is_reserved":false,"is_disabled":false,"rental_uris":{"android":"levelo://app?vid=855705df-aefe-4905-93e9-451fe5247586","ios":"levelo://app?vid=855705df-aefe-4905-93e9-451fe5247586"},"vehicle_type_id":"4","last_reported":1701131743,"current_range_meters":28000,"station_id":"ce4bhhp2rcd13ifvqfm0","pricing_plan_id":"free"},{"bike_id":"2c8b464a-1040-43df-b34b-a76d22945d24","system_id":"levelo_inurba_marseille","lat":43.272118,"lon":5.391758,"is_reserved":false,"is_disabled":false,"rental_uris":{"android":"levelo://app?vid=2c8b464a-1040-43df-b34b-a76d22945d24","ios":"levelo://app?vid=2c8b464a-1040-43df-b34b-a76d22945d24"},"vehicle_type_id":"4","last_reported":1701131743,"current_range_meters":31200,"station_id":"ce4bhhp2rcd13ifvqfm0","pricing_plan_id":"free"},{"bike_id":"5bc88291-9b99-4d24-a306-d3ff88f8c050","system_id":"levelo_inurba_marseille","lat":43.272116,"lon":5.391747,"is_reserved":false,"is_disabled":false,"rental_uris":{"android":"levelo://app?vid=5bc88291-9b99-4d24-a306-d3ff88f8c050","ios":"levelo://app?vid=5bc88291-9b99-4d24-a306-d3ff88f8c050"},"vehicle_type_id":"4","last_reported":1701131743,"current_range_meters":24400,"station_id":"ce4bhhp2rcd13ifvqfm0","pricing_plan_id":"free"},{"bike_id":"a7531d4a-23ea-4529-96f3-a2eb33f857d8","system_id":"levelo_inurba_marseille","lat":43.272118,"lon":5.391758,"is_reserved":false,"is_disabled":false,"rental_uris":{"android":"levelo://app?vid=a7531d4a-23ea-4529-96f3-a2eb33f857d8","ios":"levelo://app?vid=a7531d4a-23ea-4529-96f3-a2eb33f857d8"},"vehicle_type_id":"4","last_reported":1701131743,"current_range_meters":28800,"station_id":"ce4bhhp2rcd13ifvqfm0","pricing_plan_id":"free"},{"bike_id":"a348cdea-deac-45d0-a976-1d4a7b9a75c0","system_id":"levelo_inurba_marseille","lat":43.272118,"lon":5.391758,"is_reserved":false,"is_disabled":false,"rental_uris":{"android":"levelo://app?vid=a348cdea-deac-45d0-a976-1d4a7b9a75c0","ios":"levelo://app?vid=a348cdea-deac-45d0-a976-1d4a7b9a75c0"},"vehicle_type_id":"4","last_reported":1701131743,"current_range_meters":31200,"station_id":"ce4bhhp2rcd13ifvqfm0","pricing_plan_id":"free"},{"bike_id":"44826651-e808-424d-bfab-f8f943a68cf5","system_id":"levelo_inurba_marseille","lat":43.272118,"lon":5.391758,"is_reserved":false,"is_disabled":false,"rental_uris":{"android":"levelo://app?vid=44826651-e808-424d-bfab-f8f943a68cf5","ios":"levelo://app?vid=44826651-e808-424d-bfab-f8f943a68cf5"},"vehicle_type_id":"4","last_reported":1701131743,"current_range_meters":22800,"station_id":"ce4bhhp2rcd13ifvqfm0","pricing_plan_id":"free"},{"bike_id":"864e6737-f9e6-432d-b815-914e27bc5a83","system_id":"levelo_inurba_marseille","lat":43.272118,"lon":5.391758,"is_reserved":false,"is_disabled":false,"rental_uris":{"android":"levelo://app?vid=864e6737-f9e6-432d-b815-914e27bc5a83","ios":"levelo://app?vid=864e6737-f9e6-432d-b815-914e27bc5a83"},"vehicle_type_id":"4","last_reported":1701131743,"current_range_meters":31600,"station_id":"ce4bhhp2rcd13ifvqfm0","pricing_plan_id":"free"},{"bike_id":"bcd0fbc4-ff27-4d0a-a5be-bd84a39d7d93","system_id":"levelo_inurba_marseille","lat":43.272116,"lon":5.391747,"is_reserved":false,"is_disabled":false,"rental_uris":{"android":"levelo://app?vid=bcd0fbc4-ff27-4d0a-a5be-bd84a39d7d93","ios":"levelo://app?vid=bcd0fbc4-ff27-4d0a-a5be-bd84a39d7d93"},"vehicle_type_id":"4","last_reported":1701131743,"current_range_meters":28800,"station_id":"ce4bhhp2rcd13ifvqfm0","pricing_plan_id":"free"},{"bike_id":"46aac6a0-e9db-492e-8502-4f6b44f75d26","system_id":"levelo_inurba_marseille","lat":43.272116,"lon":5.391747,"is_reserved":false,"is_disabled":false,"rental_uris":{"android":"levelo://app?vid=46aac6a0-e9db-492e-8502-4f6b44f75d26","ios":"levelo://app?vid=46aac6a0-e9db-492e-8502-4f6b44f75d26"},"vehicle_type_id":"4","last_reported":1701131743,"current_range_meters":25600,"station_id":"ce4bhhp2rcd13ifvqfm0","pricing_plan_id":"free"},{"bike_id":"2794b1bc-150c-4deb-a9c5-692e90e1ab6c","system_id":"levelo_inurba_marseille","lat":43.272118,"lon":5.391758,"is_reserved":false,"is_disabled":false,"rental_uris":{"android":"levelo://app?vid=2794b1bc-150c-4deb-a9c5-692e90e1ab6c","ios":"levelo://app?vid=2794b1bc-150c-4deb-a9c5-692e90e1ab6c"},