{"last_updated":1703077581,"ttl":30,"version":"2.2","data":{"bikes":[{"bike_id":"82e35af4-c944-4279-b6c1-893491be7416","system_id":"levelo_inurba_marseille","lat":43.31341,"lon":5.367098,"is_reserved":false,"is_disabled":false,"rental_uris":{"android":"levelo://app?vid=82e35af4-c944-4279-b6c1-893491be7416","ios":"levelo://app?vid=82e35af4-c944-4279-b6c1-893491be7416"},"vehicle_type_id":"4","last_reported":1703077581,"current_range_meters":24400,"station_id":"ce4bgr92rcd13ifvqc6g","pricing_plan_id":"free"},{"bike_id":"ca916074-1d6b-47ac-9f55-ac6ef6ec310d","system_id":"levelo_inurba_marseille","lat":43.31341,"lon":5.367098,"is_reserved":false,"is_disabled":false,"rental_uris":{"android":"levelo://app?vid=ca916074-1d6b-47ac-9f55-ac6ef6ec310d","ios":"levelo://app?vid=ca916074-1d6b-47ac-9f55-ac6ef6ec310d"},"vehicle_type_id":"4","last_reported":1703077581,"current_range_meters":21200,"station_id":"ce4bgr92rcd13ifvqc6g","pricing_plan_id":"free"},{"bike_id":"041e6275-034f-4721-9f43-fb99d5c08c3c","system_id":"levelo_inurba_marseille","lat":43.313391,"lon":5.36706,"is_reserved":false,"is_disabled":false,"rental_uris":{"android":"levelo://app?vid=041e6275-034f-4721-9f43-fb99d5c08c3c","ios":"levelo://app?vid=041e6275-034f-4721-9f43-fb99d5c08c3c"},"vehicle_type_id":"4","last_reported":1703077581,"current_range_meters":21200,"station_id":"ce4bgr92rcd13ifvqc6g","pricing_plan_id":"free"},{"bike_id":"06200de9-b54a-4d19-839e-e15513ea2dc5","system_id":"levelo_inurba_marseille","lat":43.31341,"lon":5.367098,"is_reserved":false,"is_disabled":false,"rental_uris":{"android":"levelo://app?vid=06200de9-b54a-4d19-839e-e15513ea2dc5","ios":"levelo://app?vid=06200de9-b54a-4d19-839e-e15513ea2dc5"},"vehicle_type_id":"4","last_reported":1703077581,"current_range_meters":32000,"station_id":"ce4bgr92rcd13ifvqc6g","pricing_plan_id":"free"},{"bike_id":"962fbd30-7ff6-4284-bec5-6270eb564a1c","system_id":"levelo_inurba_marseille","lat":43.313391,"lon":5.36706,"is_reserved":false,"is_disabled":false,"rental_uris":{"android":"levelo://app?vid=962fbd30-7ff6-4284-bec5-6270eb564a1c","ios":"levelo://app?vid=962fbd30-7ff6-4284-bec5-6270eb564a1c"},"vehicle_type_id":"4","last_reported":1703077581,"current_range_meters":12400,"station_id":"ce4bgr92rcd13ifvqc6g","pricing_plan_id":"free"},{"bike_id":"385c4116-b7eb-4dc1-8ab8-4cd9cad30c5b","system_id":"levelo_inurba_marseille","lat":43.31341,"lon":5.367098,"is_reserved":false,"is_disabled":false,"rental_uris":{"android":"levelo://app?vid=385c4116-b7eb-4dc1-8ab8-4cd9cad30c5b","ios":"levelo://app?vid=385c4116-b7eb-4dc1-8ab8-4cd9cad30c5b"},"vehicle_type_id":"4","last_reported":1703077581,"current_range_meters":32000,"station_id":"ce4bgr92rcd13ifvqc6g","pricing_plan_id":"free"},{"bike_id":"5581df76-9eaa-4cb1-9e64-a029de783903","system_id":"levelo_inurba_marseille","lat":43.31341,"lon":5.367098,"is_reserved":false,"is_disabled":false,"rental_uris":{"android":"levelo://app?vid=5581df76-9eaa-4cb1-9e64-a029de783903","ios":"levelo://app?vid=5581df76-9eaa-4cb1-9e64-a029de783903"},"vehicle_type_id":"4","last_reported":1703077581,"current_range_meters":29600,"station_id":"ce4bgr92rcd13ifvqc6g","pricing_plan_id":"free"},{"bike_id":"f62553e8-8bdb-4c71-af92-e12ab03c0bdd","system_id":"levelo_inurba_marseille","lat":43.313391,"lon":5.36706,"is_reserved":false,"is_disabled":false,"rental_uris":{"android":"levelo://app?vid=f62553e8-8bdb-4c71-af92-e12ab03c0bdd","ios":"levelo://app?vid=f62553e8-8bdb-4c71-af92-e12ab03c0bdd"},"vehicle_type_id":"4","last_reported":1703077581,"current_range_meters":16400,"station_id":"ce4bgr92rcd13ifvqc6g","pricing_plan_id":"free"},{"bike_id":"15c7edea-86ab-4b62-9286-30eaeca9bae0","system_id":"levelo_inurba_marseille","lat":43.31341,"lon":5.367098,"is_reserved":false,"is_disabled":false,"rental_uris":{"android":"levelo://app?vid=15c7edea-86ab-4b62-9286-30eaeca9bae0","ios":"levelo://app?vid=15c7edea-86ab-4b62-9286-30eaeca9bae0"},"vehicle_type_id":"4","last_reported":1703077581,"current_range_meters":32000,"station_id":"ce4bgr92rcd13ifvqc6g","pricing_plan_id":"free"},{"bike_id":"97b782f1-5690-4499-bd82-79dac7f90f45","system_id":"levelo_inurba_marseille","lat":43.313391,"lon":5.36706,"is_reserved":false,"is_disabled":false,"rental_uris":{"android":"levelo://app?vid=97b782f1-5690-4499-bd82-79dac7f90f45","ios":"levelo://app?vid=97b782f1-5690-4499-bd82-79dac7f90f45"},"vehicle_type_id":"4","last_reported":1703077581,"current_range_meters":20400,"station_id":"ce4bgr92rcd13ifvqc6g","pricing_plan_id":"free"},{"bike_id":"9d52a925-323b-4a5e-9c24-9e0718f8c66b","system_id":"levelo_inurba_marseille","lat":43.313391,"lon":5.36706,"is_reserved":false,"is_disabled":false,"rental_uris":{"android":"levelo://app?vid=9d52a925-323b-4a5e-9c24-9e0718f8c66b","ios":"levelo://app?vid=9d52a925-323b-4a5e-9c24-9e0718f8c66b"},"vehicle_type_id":"4","last_reported":1703077581,"current_range_meters":31200,"station_id":"ce4bgr92rcd13ifvqc6g","pricing_plan_id":"free"},{"bike_id":"c85993cf-56a9-4974-93ef-b2f2282f54b8","system_id":"levelo_inurba_marseille","lat":43.313391,"lon":5.36706,"is_reserved":false,"is_disabled":false,"rental_uris":{"android":"levelo://app?vid=c85993cf-56a9-4974-93ef-b2f2282f54b8","ios":"levelo://app?vid=c85993cf-56a9-4974-93ef-b2f2282f54b8"},"vehicle_type_id":"4","last_reported":1703077581,"current_range_meters":18400,"station_id":"ce4bgr92rcd13ifvqc6g","pricing_plan_id":"free"},{"bike_id":"5bf53713-9015-41ac-a733-030d364b249e","system_id":"levelo_inurba_marseille","lat":43.313391,"lon":5.36706,"is_reserved":false,"is_disabled":false,"rental_uris":{"android":"levelo://app?vid=5bf53713-9015-41ac-a733-030d364b249e","ios":"levelo://app?vid=5bf53713-9015-41ac-a733-030d364b249e"},"vehicle_type_id":"4","last_reported":1703077581,"current_range_meters":8000,"station_id":"ce4bgr92rcd13ifvqc6g","pricing_plan_id":"free"},{"bike_id":"dc02301a-e25b-4088-96c9-2c95bbdc42aa","system_id":"levelo_inurba_marseille","lat":43.31341,"lon":5.367098,"is_reserved":false,"is_disabled":false,"rental_uris":{"android":"levelo://app?vid=dc02301a-e25b-4088-96c9-2c95bbdc42aa","ios":"levelo://app?vid=dc02301a-e25b-4088-96c9-2c95bbdc42aa"},"vehicle_type_id":"4","last_reported":1703077581,"current_range_meters":32000,"station_id":"ce4bgr92rcd13ifvqc6g","pricing_plan_id":"free"},{"bike_id":"c5e2906e-a12b-49a2-9196-ab926cf8a9a4","system_id":"levelo_inurba_marseille","lat":43.31341,"lon":5.367098,"is_reserved":false,"is_disabled":false,"rental_uris":{"android":"levelo://app?vid=c5e2906e-a12b-49a2-9196-ab926cf8a9a4","ios":"levelo://app?vid=c5e2906e-a12b-49a2-9196-ab926cf8a9a4"},"vehicle_type_id":"4","last_reported":1703077581,"current_range_meters":32000,"station_id":"ce4bgr92rcd13ifvqc6g","pricing_plan_id":"free"},{"bike_id":"b02f8698-ab43-4514-915c-7ac2039754d7","system_id":"levelo_inurba_marseille","lat":43.313391,"lon":5.36706,"is_reserved":false,"is_disabled":false,"rental_uris":{"android":"levelo://app?vid=b02f8698-ab43-4514-915c-7ac2039754d7","ios":"levelo://app?vid=b02f8698-ab43-4514-915c-7ac2039754d7"},"vehicle_type_id":"4","last_reported":1703077581,"current_range_meters":0,"station_id":"ce4bgr92rcd13ifvqc6g","pricing_plan_id":"free"},{"bike_id":"86521b66-fd6f-4efd-8e38-0fbeb1b6ed02","system_id":"levelo_inurba_marseille","lat":43.313391,"lon":5.36706,"is_reserved":false,"is_disabled":false,"rental_uris":{"android":"levelo://app?vid=86521b66-fd6f-4efd-8e38-0fbeb1b6ed02","ios":"levelo://app?vid=86521b66-fd6f-4efd-8e38-0fbeb1b6ed02"},"vehicle_type_id":"4","last_reported":1703077581,"current_range_meters":23200,"station_id":"ce4bgr92rcd13ifvqc6g","pricing_plan_id":"free"},{"bike_id":"cdc1f6b5-253b-459c-867e-da6142322fdc","system_id":"levelo_inurba_marseille","lat":43.312239,"lon":5.368562,"is_reserved":false,"is_disabled":false,"rental_uris":{"android":"levelo://app?vid=cdc1f6b5-253b-459c-867e-da6142322fdc","ios":"levelo://app?vid=cdc1f6b5-253b-459c-867e-da6142322fdc"},"vehicle_type_id":"4","last_reported":1703077581,"current_range_meters":24400,"station_id":"ce4bgl92rcd13ifvqbq0","pricing_plan_id":"free"},{"bike_id":"a8d5ba16-71a6-42eb-bd87-f3fc28468325","system_id":"levelo_inurba_marseille","lat":43.312239,"lon":5.368562,"is_reserved":false,"is_disabled":false,"rental_uris":{"android":"levelo://app?vid=a8d5ba16-71a6-42eb-bd87-f3fc28468325","ios":"levelo://app?vid=a8d5ba16-71a6-42eb-bd87-f3fc28468325"},"vehicle_type_id":"4","last_reported":1703077581,"current_range_meters":31600,"station_id":"ce4bgl92rcd13ifvqbq0","pricing_plan_id":"free"},{"bike_id":"4633ea53-e71a-451e-aa3a-bd0eb49de51a","system_id":"levelo_inurba_marseille","lat":43.312239,"lon":5.368562,"is_reserved":false,"is_disabled":false,"rental_uris":{"android":"levelo://app?vid=4633ea53-e71a-451e-aa3a-bd0eb49de51a","ios":"levelo://app?vid=4633ea53-e71a-451e-aa3a-bd0eb49de51a"},"vehicle_type_id":"4","last_reported":1703077581,"current_range_meters":30000,"station_id":"ce4bgl92rcd13ifvqbq0","pricing_plan_id":"free"},{"bike_id":"2c6ae5dc-96f9-46c3-abaf-16437c6a83f3","system_id":"levelo_inurba_marseille","lat":43.312239,"lon":5.368562,"is_reserved":false,"is_disabled":false,"rental_uris":{"android":"levelo://app?vid=2c6ae5dc-96f9-46c3-abaf-16437c6a83f3","ios":"levelo://app?vid=2c6ae5dc-96f9-46c3-abaf-16437c6a83f3"},"vehicle_type_id":"4","last_reported":1703077581,"current_range_meters":22400,"station_id":"ce4bgl92rcd13ifvqbq0","pricing_plan_id":"free"},{"bike_id":"71695d16-2724-44d4-aaec-bf4108e95c6c","system_id":"levelo_inurba_marseille","lat":43.309076,"lon":5.368465,"is_reserved":false,"is_disabled":false,"rental_uris":{"android":"levelo://app?vid=71695d16-2724-44d4-aaec-bf4108e95c6c","ios":"levelo://app?vid=71695d16-2724-44d4-aaec-bf4108e95c6c"},"vehicle_type_id":"4","last_reported":1703077581,"current_range_meters":27600,"station_id":"ce4bgn92rcd13ifvqbvg","pricing_plan_id":"free"},{"bike_id":"af2242c6-3cfa-458c-8de6-984c2026785d","system_id":"levelo_inurba_marseille","lat":43.309076,"lon":5.368465,"is_reserved":false,"is_disabled":false,"rental_uris":{"android":"levelo://app?vid=af2242c6-3cfa-458c-8de6-984c2026785d","ios":"levelo://app?vid=af2242c6-3cfa-458c-8de6-984c2026785d"},"vehicle_type_id":"4","last_reported":1703077581,"current_range_meters":17600,"station_id":"ce4bgn92rcd13ifvqbvg","pricing_plan_id":"free"},{"bike_id":"86a11bf0-cb85-4e66-820f-6dc45e8d354e","system_id":"levelo_inurba_marseille","lat":43.309076,"lon":5.368465,"is_reserved":false,"is_disabled":false,"rental_uris":{"android":"levelo://app?vid=86a11bf0-cb85-4e66-820f-6dc45e8d354e","ios":"levelo://app?vid=86a11bf0-cb85-4e66-820f-6dc45e8d354e"},"vehicle_type_id":"4","last_reported":1703077581,"current_range_meters":27600,"station_id":"ce4bgn92rcd13ifvqbvg","pricing_plan_id":"free"},{"bike_id":"19d7187c-8b68-43b4-a011-e2111c86d3f4","system_id":"levelo_inurba_marseille","lat":43.309076,"lon":5.368465,"is_reserved":false,"is_disabled":false,"rental_uris":{"android":"levelo://app?vid=19d7187c-8b68-43b4-a011-e2111c86d3f4","ios":"levelo://app?vid=19d7187c-8b68-43b4-a011-e2111c86d3f4"},"vehicle_type_id":"4","last_reported":1703077581,"current_range_meters":26800,"station_id":"ce4bgn92rcd13ifvqbvg","pricing_plan_id":"free"},{"bike_id":"1c9c2674-9e54-4819-b17d-e04022c180db","system_id":"levelo_inurba_marseille","lat":43.309076,"lon":5.368465,"is_reserved":false,"is_disabled":false,"rental_uris":{"android":"levelo://app?vid=1c9c2674-9e54-4819-b17d-e04022c180db","ios":"levelo://app?vid=1c9c2674-9e54-4819-b17d-e04022c180db"},"vehicle_type_id":"4","last_reported":1703077581,"current_range_meters":30400,"station_id":"ce4bgn92rcd13ifvqbvg","pricing_plan_id":"free"},{"bike_id":"4aff95af-45e2-49b1-83fe-ad7f5fa6667c","system_id":"levelo_inurba_marseille","lat":43.309076,"lon":5.368465,"is_reserved":false,"is_disabled":false,"rental_uris":{"android":"levelo://app?vid=4aff95af-45e2-49b1-83fe-ad7f5fa6667c","ios":"levelo://app?vid=4aff95af-45e2-49b1-83fe-ad7f5fa6667c"},"vehicle_type_id":"4","last_reported":1703077581,"current_range_meters":32000,"station_id":"ce4bgn92rcd13ifvqbvg","pricing_plan_id":"free"},{"bike_id":"bf7bf10f-53c3-468c-92ad-fab9731bc205","system_id":"levelo_inurba_marseille","lat":43.309076,"lon":5.368465,"is_reserved":false,"is_disabled":false,"rental_uris":{"android":"levelo://app?vid=bf7bf10f-53c3-468c-92ad-fab9731bc205","ios":"levelo://app?vid=bf7bf10f-53c3-468c-92ad-fab9731bc205"},"vehicle_type_id":"4","last_reported":1703077581,"current_range_meters":26800,"station_id":"ce4bgn92rcd13ifvqbvg","pricing_plan_id":"free"},{"bike_id":"f102ec20-f63e-4f17-a402-2996ed87870c","system_id":"levelo_inurba_marseille","lat":43.309076,"lon":5.368465,"is_reserved":false,"is_disabled":false,"rental_uris":{"android":"levelo://app?vid=f102ec20-f63e-4f17-a402-2996ed87870c","ios":"levelo://app?vid=f102ec20-f63e-4f17-a402-2996ed87870c"},"vehicle_type_id":"4","last_reported":1703077581,"current_range_meters":17600,"station_id":"ce4bgn92rcd13ifvqbvg","pricing_plan_id":"free"},{"bike_id":"4657fffc-ee94-4a82-ac10-6b95d387b3a3","system_id":"levelo_inurba_marseille","lat":43.309076,"lon":5.368465,"is_reserved":false,"is_disabled":false,"rental_uris":{"android":"levelo://app?vid=4657fffc-ee94-4a82-ac10-6b95d387b3a3","ios":"levelo://app?vid=4657fffc-ee94-4a82-ac10-6b95d387b3a3"},"vehicle_type_id":"4","last_reported":1703077581,"current_range_meters":32000,"station_id":"ce4bgn92rcd13ifvqbvg","pricing_plan_id":"free"},{"bike_id":"1bed87af-7d3a-437a-9b52-33d2b6b46e35","system_id":"levelo_inurba_marseille","lat":43.30877,"lon":5.37192,"is_reserved":false,"is_disabled":false,"rental_uris":{"android":"levelo://app?vid=1bed87af-7d3a-437a-9b52-33d2b6b46e35","ios":"levelo://app?vid=1bed87af-7d3a-437a-9b52-33d2b6b46e35"},"vehicle_type_id":"4","last_reported":1703077581,"current_range_meters":23600,"station_id":"ce4bguh2rcd13ifvqckg","pricing_plan_id":"free"},{"bike_id":"93757b9d-daf7-46db-acb0-483674818b1a","system_id":"levelo_inurba_marseille","lat":43.305712,"lon":5.365641,"is_reserved":false,"is_disabled":false,"rental_uris":{"android":"levelo://app?vid=93757b9d-daf7-46db-acb0-483674818b1a","ios":"levelo://app?vid=93757b9d-daf7-46db-acb0-483674818b1a"},"vehicle_type_id":"4","last_reported":1703077581,"current_range_meters":18000,"station_id":"ce4bgs12rcd13ifvqcag","pricing_plan_id":"free"},{"bike_id":"bf0bfcb5-f739-463a-8171-bfc64574555a","system_id":"levelo_inurba_marseille","lat":43.305712,"lon":5.365641,"is_reserved":false,"is_disabled":false,"rental_uris":{"android":"levelo://app?vid=bf0bfcb5-f739-463a-8171-bfc64574555a","ios":"levelo://app?vid=bf0bfcb5-f739-463a-8171-bfc64574555a"},"vehicle_type_id":"4","last_reported":1703077581,"current_range_meters":32000,"station_id":"ce4bgs12rcd13ifvqcag","pricing_plan_id":"free"},{"bike_id":"aff2b6b9-42b5-4cb9-9669-71a9b61bae8d","system_id":"levelo_inurba_marseille","lat":43.305712,"lon":5.365641,"is_reserved":false,"is_disabled":false,"rental_uris":{"android":"levelo://app?vid=aff2b6b9-42b5-4cb9-9669-71a9b61bae8d","ios":"levelo://app?vid=aff2b6b9-42b5-4cb9-9669-71a9b61bae8d"},"vehicle_type_id":"4","last_reported":1703077581,"current_range_meters":0,"station_id":"ce4bgs12rcd13ifvqcag","pricing_plan_id":"free"},{"bike_id":"8867c2d7-f6b4-4050-8448-6bae24a286c8","system_id":"levelo_inurba_marseille","lat":43.305368,"lon":5.367343,"is_reserved":false,"is_disabled":false,"rental_uris":{"android":"levelo://app?vid=8867c2d7-f6b4-4050-8448-6bae24a286c8","ios":"levelo://app?vid=8867c2d7-f6b4-4050-8448-6bae24a286c8"},"vehicle_type_id":"4","last_reported":1703077581,"current_range_meters":24800,"station_id":"ce4bgrp2rcd13ifvqc9g","pricing_plan_id":"free"},{"bike_id":"e5323174-83cc-4b0f-95a9-80183a9c6a2f","system_id":"levelo_inurba_marseille","lat":43.305714,"lon":5.365633,"is_reserved":false,"is_disabled":false,"rental_uris":{"android":"levelo://app?vid=e5323174-83cc-4b0f-95a9-80183a9c6a2f","ios":"levelo://app?vid=e5323174-83cc-4b0f-95a9-80183a9c6a2f"},"vehicle_type_id":"4","last_reported":1703077581,"current_range_meters":31200,"station_id":"ce4bgs12rcd13ifvqcag","pricing_plan_id":"free"},{"bike_id":"9762f74a-d07e-4b3d-859b-ada4838068d4","system_id":"levelo_inurba_marseille","lat":43.305714,"lon":5.365633,"is_reserved":false,"is_disabled":false,"rental_uris":{"android":"levelo://app?vid=9762f74a-d07e-4b3d-859b-ada4838068d4","ios":"levelo://app?vid=9762f74a-d07e-4b3d-859b-ada4838068d4"},"vehicle_type_id":"4","last_reported":1703077581,"current_range_meters":18000,"station_id":"ce4bgs12rcd13ifvqcag","pricing_plan_id":"free"},{"bike_id":"ae6d1417-7116-408c-8868-cc4d2356a98d","system_id":"levelo_inurba_marseille","lat":43.305368,"lon":5.367343,"is_reserved":false,"is_disabled":false,"rental_uris":{"android":"levelo://app?vid=ae6d1417-7116-408c-8868-cc4d2356a98d","ios":"levelo://app?vid=ae6d1417-7116-408c-8868-cc4d2356a98d"},"vehicle_type_id":"4","last_reported":1703077581,"current_range_meters":7600,"station_id":"ce4bgrp2rcd13ifvqc9g","pricing_plan_id":"free"},{"bike_id":"b04255b9-a9e3-412d-adc5-3107a87e52ae","system_id":"levelo_inurba_marseille","lat":43.305331,"lon":5.367026,"is_reserved":false,"is_disabled":false,"rental_uris":{"android":"levelo://app?vid=b04255b9-a9e3-412d-adc5-3107a87e52ae","ios":"levelo://app?vid=b04255b9-a9e3-412d-adc5-3107a87e52ae"},"vehicle_type_id":"4","last_reported":1703077581,"current_range_meters":0,"station_id":"ce4bgrp2rcd13ifvqc9g","pricing_plan_id":"free"},{"bike_id":"3acfdf2c-ef0a-4d88-aa3b-9cf10bf1e4d7","system_id":"levelo_inurba_marseille","lat":43.305368,"lon":5.367343,"is_reserved":false,"is_disabled":false,"rental_uris":{"android":"levelo://app?vid=3acfdf2c-ef0a-4d88-aa3b-9cf10bf1e4d7","ios":"levelo://app?vid=3acfdf2c-ef0a-4d88-aa3b-9cf10bf1e4d7"},"vehicle_type_id":"4","last_reported":1703077581,"current_range_meters":14400,"station_id":"ce4bgrp2rcd13ifvqc9g","pricing_plan_id":"free"},{"bike_id":"bbea508e-3616-441b-98d3-06c47cb809ce","system_id":"levelo_inurba_marseille","lat":43.30535,"lon":5.36545,"is_reserved":false,"is_disabled":false,"rental_uris":{"android":"levelo://app?vid=bbea508e-3616-441b-98d3-06c47cb809ce","ios":"levelo://app?vid=bbea508e-3616-441b-98d3-06c47cb809ce"},"vehicle_type_id":"4","last_reported":1703077581,"current_range_meters":19200,"station_id":"ce4bgs12rcd13ifvqcag","pricing_plan_id":"free"},{"bike_id":"afc8e02f-afd4-492d-a222-998b515fd8ee","system_id":"levelo_inurba_marseille","lat":43.305706,"lon":5.365654,"is_reserved":false,"is_disabled":false,"rental_uris":{"android":"levelo://app?vid=afc8e02f-afd4-492d-a222-998b515fd8ee","ios":"levelo://app?vid=afc8e02f-afd4-492d-a222-998b515fd8ee"},"vehicle_type_id":"4","last_reported":1703077581,"current_range_meters":3200,"station_id":"ce4bgs12rcd13ifvqcag","pricing_plan_id":"free"},{"bike_id":"21a87b11-b34e-4ac9-b840-399e42220625","system_id":"levelo_inurba_marseille","lat":43.305706,"lon":5.365654,"is_reserved":false,"is_disabled":false,"rental_uris":{"android":"levelo://app?vid=21a87b11-b34e-4ac9-b840-399e42220625","ios":"levelo://app?vid=21a87b11-b34e-4ac9-b840-399e42220625"},"vehicle_type_id":"4","last_reported":1703077581,"current_range_meters":32000,"station_id":"ce4bgs12rcd13ifvqcag","pricing_plan_id":"free"},{"bike_id":"227b19b3-a278-4dea-99dc-5c91f230706c","system_id":"levelo_inurba_marseille","lat":43.305706,"lon":5.365654,"is_reserved":false,"is_disabled":false,"rental_uris":{"android":"levelo://app?vid=227b19b3-a278-4dea-99dc-5c91f230706c","ios":"levelo://app?vid=227b19b3-a278-4dea-99dc-5c91f230706c"},"vehicle_type_id":"4","last_reported":1703077581,"current_range_meters":16000,"station_id":"ce4bgs12rcd13ifvqcag","pricing_plan_id":"free"},{"bike_id":"f2f66771-a9ed-4764-94b1-e85642bec9ec","system_id":"levelo_inurba_marseille","lat":43.305706,"lon":5.365654,"is_reserved":false,"is_disabled":false,"rental_uris":{"android":"levelo://app?vid=f2f66771-a9ed-4764-94b1-e85642bec9ec","ios":"levelo://app?vid=f2f66771-a9ed-4764-94b1-e85642bec9ec"},"vehicle_type_id":"4","last_reported":1703077581,"current_range_meters":24400,"station_id":"ce4bgs12rcd13ifvqcag","pricing_plan_id":"free"},{"bike_id":"fcf54c51-05e3-4f0e-b866-95757e00cd2b","system_id":"levelo_inurba_marseille","lat":43.305706,"lon":5.365654,"is_reserved":false,"is_disabled":false,"rental_uris":{"android":"levelo://app?vid=fcf54c51-05e3-4f0e-b866-95757e00cd2b","ios":"levelo://app?vid=fcf54c51-05e3-4f0e-b866-95757e00cd2b"},"vehicle_type_id":"4","last_reported":1703077581,"current_range_meters":22400,"station_id":"ce4bgs12rcd13ifvqcag","pricing_plan_id":"free"},{"bike_id":"13b28650-b328-4f05-b45b-c31d78685b38","system_id":"levelo_inurba_marseille","lat":43.30528,"lon":5.36544,"is_reserved":false,"is_disabled":false,"rental_uris":{"android":"levelo://app?vid=13b28650-b328-4f05-b45b-c31d78685b38","ios":"levelo://app?vid=13b28650-b328-4f05-b45b-c31d78685b38"},"vehicle_type_id":"4","last_reported":1703077581,"current_range_meters":29200,"station_id":"ce4bgs12rcd13ifvqcag","pricing_plan_id":"free"},{"bike_id":"23415b54-81cf-4182-ae47-ba2459cf2f98","system_id":"levelo_inurba_marseille","lat":43.30596,"lon":5.37228,"is_reserved":false,"is_disabled":false,"rental_uris":{"android":"levelo://app?vid=23415b54-81cf-4182-ae47-ba2459cf2f98","ios":"levelo://app?vid=23415b54-81cf-4182-ae47-ba2459cf2f98"},"vehicle_type_id":"4","last_reported":1703077581,"current_range_meters":30800,"station_id":"ce4bgqh2rcd13ifvqc4g","pricing_plan_id":"free"},{"bike_id":"3fe21dff-9d93-4627-9362-d5408489ff37","system_id":"levelo_inurba_marseille","lat":43.305989,"lon":5.37225,"is_reserved":false,"is_disabled":false,"rental_uris":{"android":"levelo://app?vid=3fe21dff-9d93-4627-9362-d5408489ff37","ios":"levelo://app?vid=3fe21dff-9d93-4627-9362-d5408489ff37"},"vehicle_type_id":"4","last_reported":1703077581,"current_range_meters":20800,"station_id":"ce4bgqh2rcd13ifvqc4g","pricing_plan_id":"free"},{"bike_id":"ef769b7a-4857-4a41-b5d7-db48e047666e","system_id":"levelo_inurba_marseille","lat":43.307945,"lon":5.376487,"is_reserved":false,"is_disabled":false,"rental_uris":{"android":"levelo://app?vid=ef769b7a-4857-4a41-b5d7-db48e047666e","ios":"levelo://app?vid=ef769b7a-4857-4a41-b5d7-db48e047666e"},"vehicle_type_id":"4","last_reported":1703077581,"current_range_meters":20800,"station_id":"ce4bgv92rcd13ifvqcq0","pricing_plan_id":"free"},{"bike_id":"6f6c0d90-c17a-41cc-aff7-ccfd5dba54b6","system_id":"levelo_inurba_marseille","lat":43.307945,"lon":5.376487,"is_reserved":false,"is_disabled":false,"rental_uris":{"android":"levelo://app?vid=6f6c0d90-c17a-41cc-aff7-ccfd5dba54b6","ios":"levelo://app?vid=6f6c0d90-c17a-41cc-aff7-ccfd5dba54b6"},"vehicle_type_id":"4","last_reported":1703077581,"current_range_meters":18800,"station_id":"ce4bgv92rcd13ifvqcq0","pricing_plan_id":"free"},{"bike_id":"c4db9364-5022-47c7-a568-d54d9ac5aafe","system_id":"levelo_inurba_marseille","lat":43.317075,"lon":5.377367,"is_reserved":false,"is_disabled":false,"rental_uris":{"android":"levelo://app?vid=c4db9364-5022-47c7-a568-d54d9ac5aafe","ios":"levelo://app?vid=c4db9364-5022-47c7-a568-d54d9ac5aafe"},"vehicle_type_id":"4","last_reported":1703077581,"current_range_meters":11600,"station_id":"ce4bgth2rcd13ifvqch0","pricing_plan_id":"free"},{"bike_id":"f08479b4-3d20-4280-a7bb-c733abfef0d6","system_id":"levelo_inurba_marseille","lat":43.317075,"lon":5.377367,"is_reserved":false,"is_disabled":false,"rental_uris":{"android":"levelo://app?vid=f08479b4-3d20-4280-a7bb-c733abfef0d6","ios":"levelo://app?vid=f08479b4-3d20-4280-a7bb-c733abfef0d6"},"vehicle_type_id":"4","last_reported":1703077581,"current_range_meters":25600,"station_id":"ce4bgth2rcd13ifvqch0","pricing_plan_id":"free"},{"bike_id":"d73ed108-01bc-42b1-a41f-7adf119129aa","system_id":"levelo_inurba_marseille","lat":43.317075,"lon":5.377367,"is_reserved":false,"is_disabled":false,"rental_uris":{"android":"levelo://app?vid=d73ed108-01bc-42b1-a41f-7adf119129aa","ios":"levelo://app?vid=d73ed108-01bc-42b1-a41f-7adf119129aa"},"vehicle_type_id":"4","last_reported":1703077581,"current_range_meters":7600,"station_id":"ce4bgth2rcd13ifvqch0","pricing_plan_id":"free"},{"bike_id":"f9eeff44-89fa-4ca4-b5a9-bc43a49b95e4","system_id":"levelo_inurba_marseille","lat":43.303217,"lon":5.369163,"is_reserved":false,"is_disabled":false,"rental_uris":{"android":"levelo://app?vid=f9eeff44-89fa-4ca4-b5a9-bc43a49b95e4","ios":"levelo://app?vid=f9eeff44-89fa-4ca4-b5a9-bc43a49b95e4"},"vehicle_type_id":"4","last_reported":1703077581,"current_range_meters":400,"station_id":"ce4bgqh2rcd13ifvqc5g","pricing_plan_id":"free"},{"bike_id":"2950c2e1-0f1d-4eb9-a3db-00410c4b4c7e","system_id":"levelo_inurba_marseille","lat":43.303046,"lon":5.368981,"is_reserved":false,"is_disabled":false,"rental_uris":{"android":"levelo://app?vid=2950c2e1-0f1d-4eb9-a3db-00410c4b4c7e","ios":"levelo://app?vid=2950c2e1-0f1d-4eb9-a3db-00410c4b4c7e"},"vehicle_type_id":"4","last_reported":1703077581,"current_range_meters":5200,"station_id":"ce4bgqh2rcd13ifvqc5g","pricing_plan_id":"free"},{"bike_id":"a64f0ec9-1310-4315-b6b7-70c1dea3a0b1","system_id":"levelo_inurba_marseille","lat":43.303046,"lon":5.368981,"is_reserved":false,"is_disabled":false,"rental_uris":{"android":"levelo://app?vid=a64f0ec9-1310-4315-b6b7-70c1dea3a0b1","ios":"levelo://app?vid=a64f0ec9-1310-4315-b6b7-70c1dea3a0b1"},"vehicle_type_id":"4","last_reported":1703077581,"current_range_meters":28800,"station_id":"ce4bgqh2rcd13ifvqc5g","pricing_plan_id":"free"},{"bike_id":"02f097d2-3bc1-417f-86fa-05b8ff7b3f6b","system_id":"levelo_inurba_marseille","lat":43.30304,"lon":5.368987,"is_reserved":false,"is_disabled":false,"rental_uris":{"android":"levelo://app?vid=02f097d2-3bc1-417f-86fa-05b8ff7b3f6b","ios":"levelo://app?vid=02f097d2-3bc1-417f-86fa-05b8ff7b3f6b"},"vehicle_type_id":"4","last_reported":1703077581,"current_range_meters":22400,"station_id":"ce4bgqh2rcd13ifvqc5g","pricing_plan_id":"free"},{"bike_id":"d0c2a4e8-f479-48ea-a48b-186620232029","system_id":"levelo_inurba_marseille","lat":43.303046,"lon":5.368981,"is_reserved":false,"is_disabled":false,"rental_uris":{"android":"levelo://app?vid=d0c2a4e8-f479-48ea-a48b-186620232029","ios":"levelo://app?vid=d0c2a4e8-f479-48ea-a48b-186620232029"},"vehicle_type_id":"4","last_reported":1703077581,"current_range_meters":17200,"station_id":"ce4bgqh2rcd13ifvqc5g","pricing_plan_id":"free"},{"bike_id":"ccd6d0ec-d21d-42b6-b226-8fca55b9fb61","system_id":"levelo_inurba_marseille","lat":43.30304,"lon":5.368987,"is_reserved":false,"is_disabled":false,"rental_uris":{"android":"levelo://app?vid=ccd6d0ec-d21d-42b6-b226-8fca55b9fb61","ios":"levelo://app?vid=ccd6d0ec-d21d-42b6-b226-8fca55b9fb61"},"vehicle_type_id":"4","last_reported":1703077581,"current_range_meters":14400,"station_id":"ce4bgqh2rcd13ifvqc5g","pricing_plan_id":"free"},{"bike_id":"94447234-b973-49b1-99df-90e70ed32359","system_id":"levelo_inurba_marseille","lat":43.303046,"lon":5.368981,"is_reserved":false,"is_disabled":false,"rental_uris":{"android":"levelo://app?vid=94447234-b973-49b1-99df-90e70ed32359","ios":"levelo://app?vid=94447234-b973-49b1-99df-90e70ed32359"},"vehicle_type_id":"4","last_reported":1703077581,"current_range_meters":400,"station_id":"ce4bgqh2rcd13ifvqc5g","pricing_plan_id":"free"},{"bike_id":"6fd6fb13-cef9-4547-be86-7686eebb50a4","system_id":"levelo_inurba_marseille","lat":43.30143,"lon":5.37413,"is_reserved":false,"is_disabled":false,"rental_uris":{"android":"levelo://app?vid=6fd6fb13-cef9-4547-be86-7686eebb50a4","ios":"levelo://app?vid=6fd6fb13-cef9-4547-be86-7686eebb50a4"},"vehicle_type_id":"4","last_reported":1703077581,"current_range_meters":22400,"station_id":"ce4bgs92rcd13ifvqcc0","pricing_plan_id":"free"},{"bike_id":"1afd39e5-0a83-4392-991a-7aad1ed19507","system_id":"levelo_inurba_marseille","lat":43.302784,"lon":5.377158,"is_reserved":false,"is_disabled":false,"rental_uris":{"android":"levelo://app?vid=1afd39e5-0a83-4392-991a-7aad1ed19507","ios":"levelo://app?vid=1afd39e5-0a83-4392-991a-7aad1ed19507"},"vehicle_type_id":"4","last_reported":1703077581,"current_range_meters":22000,"station_id":"ce4bguh2rcd13ifvqcj0","pricing_plan_id":"free"},{"bike_id":"ce01180d-dfd8-4830-9975-340e7c2bfb33","system_id":"levelo_inurba_marseille","lat":43.301429,"lon":5.37413,"is_reserved":false,"is_disabled":false,"rental_uris":{"android":"levelo://app?vid=ce01180d-dfd8-4830-9975-340e7c2bfb33","ios":"levelo://app?vid=ce01180d-dfd8-4830-9975-340e7c2bfb33"},"vehicle_type_id":"4","last_reported":1703077581,"current_range_meters":22000,"station_id":"ce4bgs92rcd13ifvqcc0","pricing_plan_id":"free"},{"bike_id":"948a77c1-7eb4-4bbb-aee2-23c136bca4ed","system_id":"levelo_inurba_marseille","lat":43.301429,"lon":5.37413,"is_reserved":false,"is_disabled":false,"rental_uris":{"android":"levelo://app?vid=948a77c1-7eb4-4bbb-aee2-23c136bca4ed","ios":"levelo://app?vid=948a77c1-7eb4-4bbb-aee2-23c136bca4ed"},"vehicle_type_id":"4","last_reported":1703077581,"current_range_meters":18800,"station_id":"ce4bgs92rcd13ifvqcc0","pricing_plan_id":"free"},{"bike_id":"6bd330e5-be91-4c6a-bd12-6b4c0748505e","system_id":"levelo_inurba_marseille","lat":43.319935,"lon":5.381699,"is_reserved":false,"is_disabled":false,"rental_uris":{"android":"levelo://app?vid=6bd330e5-be91-4c6a-bd12-6b4c0748505e","ios":"levelo://app?vid=6bd330e5-be91-4c6a-bd12-6b4c0748505e"},"vehicle_type_id":"4","last_reported":1703077581,"current_range_meters":10400,"station_id":"ce4bhr12rcd13ifvqhpg","pricing_plan_id":"free"},{"bike_id":"0ef9c6e3-9743-4c1e-80d7-ff7dd91ae51a","system_id":"levelo_inurba_marseille","lat":43.313571,"lon":5.384829,"is_reserved":false,"is_disabled":false,"rental_uris":{"android":"levelo://app?vid=0ef9c6e3-9743-4c1e-80d7-ff7dd91ae51a","ios":"levelo://app?vid=0ef9c6e3-9743-4c1e-80d7-ff7dd91ae51a"},"vehicle_type_id":"4","last_reported":1703077581,"current_range_meters":25600,"station_id":"ce4bgt92rcd13ifvqcf0","pricing_plan_id":"free"},{"bike_id":"5c31b275-2f94-44f9-8631-f2c5cb3ef2a0","system_id":"levelo_inurba_marseille","lat":43.313571,"lon":5.384829,"is_reserved":false,"is_disabled":false,"rental_uris":{"android":"levelo://app?vid=5c31b275-2f94-44f9-8631-f2c5cb3ef2a0","ios":"levelo://app?vid=5c31b275-2f94-44f9-8631-f2c5cb3ef2a0"},"vehicle_type_id":"4","last_reported":1703077581,"current_range_meters":12800,"station_id":"ce4bgt92rcd13ifvqcf0","pricing_plan_id":"free"},{"bike_id":"d3a3c088-3d55-404e-8a08-8960f046eff1","system_id":"levelo_inurba_marseille","lat":43.313571,"lon":5.384829,"is_reserved":false,"is_disabled":false,"rental_uris":{"android":"levelo://app?vid=d3a3c088-3d55-404e-8a08-8960f046eff1","ios":"levelo://app?vid=d3a3c088-3d55-404e-8a08-8960f046eff1"},"vehicle_type_id":"4","last_reported":1703077581,"current_range_meters":20400,"station_id":"ce4bgt92rcd13ifvqcf0","pricing_plan_id":"free"},{"bike_id":"23446e56-9acb-48a2-8b7b-56453764d99a","system_id":"levelo_inurba_marseille","lat":43.299724,"lon":5.371829,"is_reserved":false,"is_disabled":false,"rental_uris":{"android":"levelo://app?vid=23446e56-9acb-48a2-8b7b-56453764d99a","ios":"levelo://app?vid=23446e56-9acb-48a2-8b7b-56453764d99a"},"vehicle_type_id":"4","last_reported":1703077581,"current_range_meters":30000,"station_id":"ce4bgr92rcd13ifvqc7g","pricing_plan_id":"free"},{"bike_id":"4f63a1dd-afbf-46e8-bacd-dae4dc37d351","system_id":"levelo_inurba_marseille","lat":43.299222,"lon":5.365554,"is_reserved":false,"is_disabled":false,"rental_uris":{"android":"levelo://app?vid=4f63a1dd-afbf-46e8-bacd-dae4dc37d351","ios":"levelo://app?vid=4f63a1dd-afbf-46e8-bacd-dae4dc37d351"},"vehicle_type_id":"4","last_reported":1703077581,"current_range_meters":29600,"station_id":"ce4bgm92rcd13ifvqbr0","pricing_plan_id":"free"},{"bike_id":"0e8584d7-7c7e-4b39-b965-8c5edf0eba3c","system_id":"levelo_inurba_marseille","lat":43.299724,"lon":5.371829,"is_reserved":false,"is_disabled":false,"rental_uris":{"android":"levelo://app?vid=0e8584d7-7c7e-4b39-b965-8c5edf0eba3c","ios":"levelo://app?vid=0e8584d7-7c7e-4b39-b965-8c5edf0eba3c"},"vehicle_type_id":"4","last_reported":1703077581,"current_range_meters":16800,"station_id":"ce4bgr92rcd13ifvqc7g","pricing_plan_id":"free"},{"bike_id":"5bed50e3-e4be-47ce-bede-d05340cee5de","system_id":"levelo_inurba_marseille","lat":43.299724,"lon":5.371829,"is_reserved":false,"is_disabled":false,"rental_uris":{"android":"levelo://app?vid=5bed50e3-e4be-47ce-bede-d05340cee5de","ios":"levelo://app?vid=5bed50e3-e4be-47ce-bede-d05340cee5de"},"vehicle_type_id":"4","last_reported":1703077581,"current_range_meters":23600,"station_id":"ce4bgr92rcd13ifvqc7g","pricing_plan_id":"free"},{"bike_id":"7d5b2a28-c645-4297-ba44-dbade29e7729","system_id":"levelo_inurba_marseille","lat":43.298433,"lon":5.362774,"is_reserved":false,"is_disabled":false,"rental_uris":{"android":"levelo://app?vid=7d5b2a28-c645-4297-ba44-dbade29e7729","ios":"levelo://app?vid=7d5b2a28-c645-4297-ba44-dbade29e7729"},"vehicle_type_id":"4","last_reported":1703077581,"current_range_meters":20000,"station_id":"ce4bgpp2rcd13ifvqc3g","pricing_plan_id":"free"},{"bike_id":"3c1206e4-f532-4126-95f2-8a897c8b3457","system_id":"levelo_inurba_marseille","lat":43.299243,"lon":5.374807,"is_reserved":false,"is_disabled":false,"rental_uris":{"android":"levelo://app?vid=3c1206e4-f532-4126-95f2-8a897c8b3457","ios":"levelo://app?vid=3c1206e4-f532-4126-95f2-8a897c8b3457"},"vehicle_type_id":"4","last_reported":1703077581,"current_range_meters":6800,"station_id":"ce4bgjh2rcd13ifvqbg0","pricing_plan_id":"free"},{"bike_id":"f4bbfdbf-9043-405a-916b-6640fb8eb430","system_id":"levelo_inurba_marseille","lat":43.305461,"lon":5.384411,"is_reserved":false,"is_disabled":false,"rental_uris":{"android":"levelo://app?vid=f4bbfdbf-9043-405a-916b-6640fb8eb430","ios":"levelo://app?vid=f4bbfdbf-9043-405a-916b-6640fb8eb430"},"vehicle_type_id":"4","last_reported":1703077581,"current_range_meters":0,"station_id":"ce4bgg92rcd13ifvqb30","pricing_plan_id":"free"},{"bike_id":"51087264-72c6-4b4d-bc29-8e5a37938a9e","system_id":"levelo_inurba_marseille","lat":43.298433,"lon":5.362774,"is_reserved":false,"is_disabled":false,"rental_uris":{"android":"levelo://app?vid=51087264-72c6-4b4d-bc29-8e5a37938a9e","ios":"levelo://app?vid=51087264-72c6-4b4d-bc29-8e5a37938a9e"},"vehicle_type_id":"4","last_reported":1703077581,"current_range_meters":26000,"station_id":"ce4bgpp2rcd13ifvqc3g","pricing_plan_id":"free"},{"bike_id":"087bc658-9f88-4b2a-98c6-90157f44baee","system_id":"levelo_inurba_marseille","lat":43.299243,"lon":5.37481,"is_reserved":false,"is_disabled":false,"rental_uris":{"android":"levelo://app?vid=087bc658-9f88-4b2a-98c6-90157f44baee","ios":"levelo://app?vid=087bc658-9f88-4b2a-98c6-90157f44baee"},"vehicle_type_id":"4","last_reported":1703077581,"current_range_meters":18800,"station_id":"ce4bgjh2rcd13ifvqbg0","pricing_plan_id":"free"},{"bike_id":"b8d2d249-a3a6-4543-b1c7-6b3650de13c5","system_id":"levelo_inurba_marseille","lat":43.322872,"lon":5.382756,"is_reserved":false,"is_disabled":false,"rental_uris":{"android":"levelo://app?vid=b8d2d249-a3a6-4543-b1c7-6b3650de13c5","ios":"levelo://app?vid=b8d2d249-a3a6-4543-b1c7-6b3650de13c5"},"vehicle_type_id":"4","last_reported":1703077581,"current_range_meters":18400,"station_id":"ce4bhr12rcd13ifvqhqg","pricing_plan_id":"free"},{"bike_id":"04742fce-b899-4dfe-ab52-a05d5116e83a","system_id":"levelo_inurba_marseille","lat":43.322872,"lon":5.382756,"is_reserved":false,"is_disabled":false,"rental_uris":{"android":"levelo://app?vid=04742fce-b899-4dfe-ab52-a05d5116e83a","ios":"levelo://app?vid=04742fce-b899-4dfe-ab52-a05d5116e83a"},"vehicle_type_id":"4","last_reported":1703077581,"current_range_meters":29200,"station_id":"ce4bhr12rcd13ifvqhqg","pricing_plan_id":"free"},{"bike_id":"c22e4b9f-ba20-4a7c-a7c8-fd0a73d903e0","system_id":"levelo_inurba_marseille","lat":43.328261,"lon":5.366808,"is_reserved":false,"is_disabled":false,"rental_uris":{"android":"levelo://app?vid=c22e4b9f-ba20-4a7c-a7c8-fd0a73d903e0","ios":"levelo://app?vid=c22e4b9f-ba20-4a7c-a7c8-fd0a73d903e0"},"vehicle_type_id":"4","last_reported":1703077581,"current_range_meters":23600,"station_id":"ce4bhs92rcd13ifvqi0g","pricing_plan_id":"free"},{"bike_id":"48ebe570-3797-4c11-9550-8036b565ccb1","system_id":"levelo_inurba_marseille","lat":43.32827,"lon":5.3667,"is_reserved":false,"is_disabled":false,"rental_uris":{"android":"levelo://app?vid=48ebe570-3797-4c11-9550-8036b565ccb1","ios":"levelo://app?vid=48ebe570-3797-4c11-9550-8036b565ccb1"},"vehicle_type_id":"4","last_reported":1703077581,"current_range_meters":28400,"station_id":"ce4bhs92rcd13ifvqi0g","pricing_plan_id":"free"},{"bike_id":"eb8ebe7d-6983-4780-997c-9447c3c0c6e2","system_id":"levelo_inurba_marseille","lat":43.328286,"lon":5.366851,"is_reserved":false,"is_disabled":false,"rental_uris":{"android":"levelo://app?vid=eb8ebe7d-6983-4780-997c-9447c3c0c6e2","ios":"levelo://app?vid=eb8ebe7d-6983-4780-997c-9447c3c0c6e2"},"vehicle_type_id":"4","last_reported":1703077581,"current_range_meters":28800,"station_id":"ce4bhs92rcd13ifvqi0g","pricing_plan_id":"free"},{"bike_id":"c12df297-168e-4ca3-95d9-a300ff1ffbd9","system_id":"levelo_inurba_marseille","lat":43.328371,"lon":5.366909,"is_reserved":false,"is_disabled":false,"rental_uris":{"android":"levelo://app?vid=c12df297-168e-4ca3-95d9-a300ff1ffbd9","ios":"levelo://app?vid=c12df297-168e-4ca3-95d9-a300ff1ffbd9"},"vehicle_type_id":"4","last_reported":1703077581,"current_range_meters":30400,"station_id":"ce4bhs92rcd13ifvqi0g","pricing_plan_id":"free"},{"bike_id":"3f4a7c0a-9bb3-46c1-bd5c-d0138c78b4a3","system_id":"levelo_inurba_marseille","lat":43.32832,"lon":5.36684,"is_reserved":false,"is_disabled":false,"rental_uris":{"android":"levelo://app?vid=3f4a7c0a-9bb3-46c1-bd5c-d0138c78b4a3","ios":"levelo://app?vid=3f4a7c0a-9bb3-46c1-bd5c-d0138c78b4a3"},"vehicle_type_id":"4","last_reported":1703077581,"current_range_meters":5200,"station_id":"ce4bhs92rcd13ifvqi0g","pricing_plan_id":"free"},{"bike_id":"2a8a59a2-86cc-48a9-8714-ae0edcb4d489","system_id":"levelo_inurba_marseille","lat":43.328323,"lon":5.366853,"is_reserved":false,"is_disabled":false,"rental_uris":{"android":"levelo://app?vid=2a8a59a2-86cc-48a9-8714-ae0edcb4d489","ios":"levelo://app?vid=2a8a59a2-86cc-48a9-8714-ae0edcb4d489"},"vehicle_type_id":"4","last_reported":1703077581,"current_range_meters":3200,"station_id":"ce4bhs92rcd13ifvqi0g","pricing_plan_id":"free"},{"bike_id":"cb97846c-9508-4ec4-82fd-1a637ef7dd90","system_id":"levelo_inurba_marseille","lat":43.328326,"lon":5.366803,"is_reserved":false,"is_disabled":false,"rental_uris":{"android":"levelo://app?vid=cb97846c-9508-4ec4-82fd-1a637ef7dd90","ios":"levelo://app?vid=cb97846c-9508-4ec4-82fd-1a637ef7dd90"},"vehicle_type_id":"4","last_reported":1703077581,"current_range_meters":1600,"station_id":"ce4bhs92rcd13ifvqi0g","pricing_plan_id":"free"},{"bike_id":"d4f6701c-e3f2-46f1-9d79-a244618bd2b1","system_id":"levelo_inurba_marseille","lat":43.29573,"lon":5.367355,"is_reserved":false,"is_disabled":false,"rental_uris":{"android":"levelo://app?vid=d4f6701c-e3f2-46f1-9d79-a244618bd2b1","ios":"levelo://app?vid=d4f6701c-e3f2-46f1-9d79-a244618bd2b1"},"vehicle_type_id":"4","last_reported":1703077581,"current_range_meters":9200,"station_id":"ce4bgph2rcd13ifvqc2g","pricing_plan_id":"free"},{"bike_id":"e21dd2c6-8166-48e0-af81-4e151d1a63dc","system_id":"levelo_inurba_marseille","lat":43.299028,"lon":5.381509,"is_reserved":false,"is_disabled":false,"rental_uris":{"android":"levelo://app?vid=e21dd2c6-8166-48e0-af81-4e151d1a63dc","ios":"levelo://app?vid=e21dd2c6-8166-48e0-af81-4e151d1a63dc"},"vehicle_type_id":"4","last_reported":1703077581,"current_range_meters":27200,"station_id":"ce4bgj12rcd13ifvqbc0","pricing_plan_id":"free"},{"bike_id":"ea730a13-5d1f-4c4c-b963-7ebec907b96e","system_id":"levelo_inurba_marseille","lat":43.29709,"lon":5.37702,"is_reserved":false,"is_disabled":false,"rental_uris":{"android":"levelo://app?vid=ea730a13-5d1f-4c4c-b963-7ebec907b96e","ios":"levelo://app?vid=ea730a13-5d1f-4c4c-b963-7ebec907b96e"},"vehicle_type_id":"4","last_reported":1703077581,"current_range_meters":19600,"station_id":"ce4bgkh2rcd13ifvqbl0","pricing_plan_id":"free"},{"bike_id":"6bb9b204-8c03-43fc-bc3c-bf5f55b5da64","system_id":"levelo_inurba_marseille","lat":43.309589,"lon":5.390258,"is_reserved":false,"is_disabled":false,"rental_uris":{"android":"levelo://app?vid=6bb9b204-8c03-43fc-bc3c-bf5f55b5da64","ios":"levelo://app?vid=6bb9b204-8c03-43fc-bc3c-bf5f55b5da64"},"vehicle_type_id":"4","last_reported":1703077581,"current_range_meters":15200,"station_id":"ce4bgup2rcd13ifvqco0","pricing_plan_id":"free"},{"bike_id":"fdc23866-8ac4-4625-8541-4905a5ae623d","system_id":"levelo_inurba_marseille","lat":43.299028,"lon":5.381509,"is_reserved":false,"is_disabled":false,"rental_uris":{"android":"levelo://app?vid=fdc23866-8ac4-4625-8541-4905a5ae623d","ios":"levelo://app?vid=fdc23866-8ac4-4625-8541-4905a5ae623d"},"vehicle_type_id":"4","last_reported":1703077581,"current_range_meters":27600,"station_id":"ce4bgj12rcd13ifvqbc0","pricing_plan_id":"free"},{"bike_id":"e250d81f-d08c-4f11-bfcb-b6856bebfd7f","system_id":"levelo_inurba_marseille","lat":43.31749,"lon":5.39013,"is_reserved":false,"is_disabled":false,"rental_uris":{"android":"levelo://app?vid=e250d81f-d08c-4f11-bfcb-b6856bebfd7f","ios":"levelo://app?vid=e250d81f-d08c-4f11-bfcb-b6856bebfd7f"},"vehicle_type_id":"4","last_reported":1703077581,"current_range_meters":24000,"station_id":"ce4bhqp2rcd13ifvqhng","pricing_plan_id":"free"},{"bike_id":"b041e015-21f2-44ae-a5b0-923fa3a9243f","system_id":"levelo_inurba_marseille","lat":43.31751,"lon":5.39028,"is_reserved":false,"is_disabled":false,"rental_uris":{"android":"levelo://app?vid=b041e015-21f2-44ae-a5b0-923fa3a9243f","ios":"levelo://app?vid=b041e015-21f2-44ae-a5b0-923fa3a9243f"},"vehicle_type_id":"4","last_reported":1703077581,"current_range_meters":29600,"station_id":"ce4bhqp2rcd13ifvqhng","pricing_plan_id":"free"},{"bike_id":"4a91c572-dfeb-4707-860e-66e86e267de1","system_id":"levelo_inurba_marseille","lat":43.298037,"lon":5.381066,"is_reserved":false,"is_disabled":false,"rental_uris":{"android":"levelo://app?vid=4a91c572-dfeb-4707-860e-66e86e267de1","ios":"levelo://app?vid=4a91c572-dfeb-4707-860e-66e86e267de1"},"vehicle_type_id":"4","last_reported":1703077581,"current_range_meters":9200,"station_id":"ce4bgip2rcd13ifvqbb0","pricing_plan_id":"free"},{"bike_id":"7d5240c1-21bc-4000-b01a-a64694b453db","system_id":"levelo_inurba_marseille","lat":43.296277,"lon":5.377108,"is_reserved":false,"is_disabled":false,"rental_uris":{"android":"levelo://app?vid=7d5240c1-21bc-4000-b01a-a64694b453db","ios":"levelo://app?vid=7d5240c1-21bc-4000-b01a-a64694b453db"},"vehicle_type_id":"4","last_reported":1703077581,"current_range_meters":4400,"station_id":"ce4bgi92rcd13ifvqb90","pricing_plan_id":"free"},{"bike_id":"91bacf36-4c1a-493b-b9c4-e6eb1ce88c24","system_id":"levelo_inurba_marseille","lat":43.296263,"lon":5.377094,"is_reserved":false,"is_disabled":false,"rental_uris":{"android":"levelo://app?vid=91bacf36-4c1a-493b-b9c4-e6eb1ce88c24","ios":"levelo://app?vid=91bacf36-4c1a-493b-b9c4-e6eb1ce88c24"},"vehicle_type_id":"4","last_reported":1703077581,"current_range_meters":5200,"station_id":"ce4bgi92rcd13ifvqb90","pricing_plan_id":"free"},{"bike_id":"843ada00-63f1-4c08-a701-2167a9591ffb","system_id":"levelo_inurba_marseille","lat":43.296263,"lon":5.377094,"is_reserved":false,"is_disabled":false,"rental_uris":{"android":"levelo://app?vid=843ada00-63f1-4c08-a701-2167a9591ffb","ios":"levelo://app?vid=843ada00-63f1-4c08-a701-2167a9591ffb"},"vehicle_type_id":"4","last_reported":1703077581,"current_range_meters":28000,"station_id":"ce4bgi92rcd13ifvqb90","pricing_plan_id":"free"},{"bike_id":"c7558a05-00eb-44d2-9daf-f4588cf9d7e7","system_id":"levelo_inurba_marseille","lat":43.299707,"lon":5.384859,"is_reserved":false,"is_disabled":false,"rental_uris":{"android":"levelo://app?vid=c7558a05-00eb-44d2-9daf-f4588cf9d7e7","ios":"levelo://app?vid=c7558a05-00eb-44d2-9daf-f4588cf9d7e7"},"vehicle_type_id":"4","last_reported":1703077581,"current_range_meters":18000,"station_id":"ce4bgj92rcd13ifvqbd0","pricing_plan_id":"free"},{"bike_id":"207fbe8f-33a0-4288-80c6-57724e697e87","system_id":"levelo_inurba_marseille","lat":43.295279,"lon":5.375048,"is_reserved":false,"is_disabled":false,"rental_uris":{"android":"levelo://app?vid=207fbe8f-33a0-4288-80c6-57724e697e87","ios":"levelo://app?vid=207fbe8f-33a0-4288-80c6-57724e697e87"},"vehicle_type_id":"4","last_reported":1703077581,"current_range_meters":16800,"station_id":"ce4bgkp2rcd13ifvqbmg","pricing_plan_id":"free"},{"bike_id":"39a5a7f1-613e-4ce9-85dc-bf406e7675c4","system_id":"levelo_inurba_marseille","lat":43.32367,"lon":5.388836,"is_reserved":false,"is_disabled":false,"rental_uris":{"android":"levelo://app?vid=39a5a7f1-613e-4ce9-85dc-bf406e7675c4","ios":"levelo://app?vid=39a5a7f1-613e-4ce9-85dc-bf406e7675c4"},"vehicle_type_id":"4","last_reported":1703077581,"current_range_meters":4400,"station_id":"ce4bhqp2rcd13ifvqhog","pricing_plan_id":"free"},{"bike_id":"38afc684-8e47-4c09-8806-adee3e178ec1","system_id":"levelo_inurba_marseille","lat":43.29602,"lon":5.381084,"is_reserved":false,"is_disabled":false,"rental_uris":{"android":"levelo://app?vid=38afc684-8e47-4c09-8806-adee3e178ec1","ios":"levelo://app?vid=38afc684-8e47-4c09-8806-adee3e178ec1"},"vehicle_type_id":"4","last_reported":1703077581,"current_range_meters":20000,"station_id":"ce4bgl12rcd13ifvqbo0","pricing_plan_id":"free"},{"bike_id":"a317d27c-4cc7-4ee1-b3e4-9393e1afd76a","system_id":"levelo_inurba_marseille","lat":43.29601,"lon":5.381084,"is_reserved":false,"is_disabled":false,"rental_uris":{"android":"levelo://app?vid=a317d27c-4cc7-4ee1-b3e4-9393e1afd76a","ios":"levelo://app?vid=a317d27c-4cc7-4ee1-b3e4-9393e1afd76a"},"vehicle_type_id":"4","last_reported":1703077581,"current_range_meters":24400,"station_id":"ce4bgl12rcd13ifvqbo0","pricing_plan_id":"free"},{"bike_id":"17bad60e-b645-478e-b3e6-44b8b695e703","system_id":"levelo_inurba_marseille","lat":43.305994,"lon":5.393687,"is_reserved":false,"is_disabled":false,"rental_uris":{"android":"levelo://app?vid=17bad60e-b645-478e-b3e6-44b8b695e703","ios":"levelo://app?vid=17bad60e-b645-478e-b3e6-44b8b695e703"},"vehicle_type_id":"4","last_reported":1703077581,"current_range_meters":3600,"station_id":"ce4bh0p2rcd13ifvqd80","pricing_plan_id":"free"},{"bike_id":"069ecf42-dce5-4e5c-8d21-d71f6d12c24a","system_id":"levelo_inurba_marseille","lat":43.2936,"lon":5.37835,"is_reserved":false,"is_disabled":false,"rental_uris":{"android":"levelo://app?vid=069ecf42-dce5-4e5c-8d21-d71f6d12c24a","ios":"levelo://app?vid=069ecf42-dce5-4e5c-8d21-d71f6d12c24a"},"vehicle_type_id":"4","last_reported":1703077581,"current_range_meters":15600,"station_id":"ce4bgjh2rcd13ifvqbf0","pricing_plan_id":"free"},{"bike_id":"c9c4b47e-5ae1-4d1b-9133-00afdb346814","system_id":"levelo_inurba_marseille","lat":43.300852,"lon":5.390859,"is_reserved":false,"is_disabled":false,"rental_uris":{"android":"levelo://app?vid=c9c4b47e-5ae1-4d1b-9133-00afdb346814","ios":"levelo://app?vid=c9c4b47e-5ae1-4d1b-9133-00afdb346814"},"vehicle_type_id":"4","last_reported":1703077581,"current_range_meters":3600,"station_id":"ce4bh192rcd13ifvqdb0","pricing_plan_id":"free"},{"bike_id":"c624917b-98ab-4991-ba57-153146f36992","system_id":"levelo_inurba_marseille","lat":43.300961,"lon":5.390836,"is_reserved":false,"is_disabled":false,"rental_uris":{"android":"levelo://app?vid=c624917b-98ab-4991-ba57-153146f36992","ios":"levelo://app?vid=c624917b-98ab-4991-ba57-153146f36992"},"vehicle_type_id":"4","last_reported":1703077581,"current_range_meters":24800,"station_id":"","pricing_plan_id":"free"},{"bike_id":"67dbc710-e248-4701-92da-b94e6f063a32","system_id":"levelo_inurba_marseille","lat":43.32297,"lon":5.39239,"is_reserved":false,"is_disabled":false,"rental_uris":{"android":"levelo://app?vid=67dbc710-e248-4701-92da-b94e6f063a32","ios":"levelo://app?vid=67dbc710-e248-4701-92da-b94e6f063a32"},"vehicle_type_id":"4","last_reported":1703077581,"current_range_meters":4800,"station_id":"","pricing_plan_id":"free"},{"bike_id":"3f93e709-53c4-4945-867d-319bae2df98c","system_id":"levelo_inurba_marseille","lat":43.29269,"lon":5.37626,"is_reserved":false,"is_disabled":false,"rental_uris":{"android":"levelo://app?vid=3f93e709-53c4-4945-867d-319bae2df98c","ios":"levelo://app?vid=3f93e709-53c4-4945-867d-319bae2df98c"},"vehicle_type_id":"4","last_reported":1703077581,"current_range_meters":26400,"station_id":"","pricing_plan_id":"free"},{"bike_id":"d334c886-b6e8-48a8-b49b-94a4bc9d2b2e","system_id":"levelo_inurba_marseille","lat":43.292653,"lon":5.376281,"is_reserved":false,"is_disabled":false,"rental_uris":{"android":"levelo://app?vid=d334c886-b6e8-48a8-b49b-94a4bc9d2b2e","ios":"levelo://app?vid=d334c886-b6e8-48a8-b49b-94a4bc9d2b2e"},"vehicle_type_id":"4","last_reported":1703077581,"current_range_meters":29600,"station_id":"","pricing_plan_id":"free"},{"bike_id":"3d02c13a-6d8b-41af-b0e7-06d6329d44e8","system_id":"levelo_inurba_marseille","lat":43.291675,"lon":5.371583,"is_reserved":false,"is_disabled":false,"rental_uris":{"android":"levelo://app?vid=3d02c13a-6d8b-41af-b0e7-06d6329d44e8","ios":"levelo://app?vid=3d02c13a-6d8b-41af-b0e7-06d6329d44e8"},"vehicle_type_id":"4","last_reported":1703077581,"current_range_meters":25600,"station_id":"ce4bha92rcd13ifvqeh0","pricing_plan_id":"free"},{"bike_id":"c54bf0c3-531d-43db-a728-bd22737d494c","system_id":"levelo_inurba_marseille","lat":43.29866,"lon":5.38904,"is_reserved":false,"is_disabled":false,"rental_uris":{"android":"levelo://app?vid=c54bf0c3-531d-43db-a728-bd22737d494c","ios":"levelo://app?vid=c54bf0c3-531d-43db-a728-bd22737d494c"},"vehicle_type_id":"4","last_reported":1703077581,"current_range_meters":20000,"station_id":"","pricing_plan_id":"free"},{"bike_id":"75ce0cf4-fd64-419f-8786-f7a794ab9814","system_id":"levelo_inurba_marseille","lat":43.291994,"lon":5.357886,"is_reserved":false,"is_disabled":false,"rental_uris":{"android":"levelo://app?vid=75ce0cf4-fd64-419f-8786-f7a794ab9814","ios":"levelo://app?vid=75ce0cf4-fd64-419f-8786-f7a794ab9814"},"vehicle_type_id":"4","last_reported":1703077581,"current_range_meters":0,"station_id":"ce4bhb12rcd13ifvqel0","pricing_plan_id":"free"},{"bike_id":"65add176-2b1a-4a1d-b6c7-feb0b05aeb57","system_id":"levelo_inurba_marseille","lat":43.29185,"lon":5.35645,"is_reserved":false,"is_disabled":false,"rental_uris":{"android":"levelo://app?vid=65add176-2b1a-4a1d-b6c7-feb0b05aeb57","ios":"levelo://app?vid=65add176-2b1a-4a1d-b6c7-feb0b05aeb57"},"vehicle_type_id":"4","last_reported":1703077581,"current_range_meters":10000,"station_id":"ce4bhbp2rcd13ifvqesg","pricing_plan_id":"free"},{"bike_id":"da2b3029-06c9-4a90-93cc-36f423f5c2eb","system_id":"levelo_inurba_marseille","lat":43.290779,"lon":5.371482,"is_reserved":false,"is_disabled":false,"rental_uris":{"android":"levelo://app?vid=da2b3029-06c9-4a90-93cc-36f423f5c2eb","ios":"levelo://app?vid=da2b3029-06c9-4a90-93cc-36f423f5c2eb"},"vehicle_type_id":"4","last_reported":1703077581,"current_range_meters":25200,"station_id":"ce4bh5p2rcd13ifvqe4g","pricing_plan_id":"free"},{"bike_id":"147c22b4-163a-420d-bebc-fdfbe36ea4fe","system_id":"levelo_inurba_marseille","lat":43.290631,"lon":5.359244,"is_reserved":false,"is_disabled":false,"rental_uris":{"android":"levelo://app?vid=147c22b4-163a-420d-bebc-fdfbe36ea4fe","ios":"levelo://app?vid=147c22b4-163a-420d-bebc-fdfbe36ea4fe"},"vehicle_type_id":"4","last_reported":1703077581,"current_range_meters":12000,"station_id":"ce4bha92rcd13ifvqeg0","pricing_plan_id":"free"},{"bike_id":"a7f5f287-5085-4c09-a969-b2a7f2eb108a","system_id":"levelo_inurba_marseille","lat":43.290631,"lon":5.359244,"is_reserved":false,"is_disabled":false,"rental_uris":{"android":"levelo://app?vid=a7f5f287-5085-4c09-a969-b2a7f2eb108a","ios":"levelo://app?vid=a7f5f287-5085-4c09-a969-b2a7f2eb108a"},"vehicle_type_id":"4","last_reported":1703077581,"current_range_meters":22800,"station_id":"ce4bha92rcd13ifvqeg0","pricing_plan_id":"free"},{"bike_id":"3602bbcc-fe6a-4ab4-b999-b2064086d87e","system_id":"levelo_inurba_marseille","lat":43.290631,"lon":5.359244,"is_reserved":false,"is_disabled":false,"rental_uris":{"android":"levelo://app?vid=3602bbcc-fe6a-4ab4-b999-b2064086d87e","ios":"levelo://app?vid=3602bbcc-fe6a-4ab4-b999-b2064086d87e"},"vehicle_type_id":"4","last_reported":1703077581,"current_range_meters":16400,"station_id":"ce4bha92rcd13ifvqeg0","pricing_plan_id":"free"},{"bike_id":"aec8f65f-1795-48ea-9b6d-7251bc449555","system_id":"levelo_inurba_marseille","lat":43.290327,"lon":5.375711,"is_reserved":false,"is_disabled":false,"rental_uris":{"android":"levelo://app?vid=aec8f65f-1795-48ea-9b6d-7251bc449555","ios":"levelo://app?vid=aec8f65f-1795-48ea-9b6d-7251bc449555"},"vehicle_type_id":"4","last_reported":1703077581,"current_range_meters":29600,"station_id":"ce4bh692rcd13ifvqe90","pricing_plan_id":"free"},{"bike_id":"5d177f45-ff38-42e9-88e9-2540d1ab91d8","system_id":"levelo_inurba_marseille","lat":43.289184,"lon":5.366408,"is_reserved":false,"is_disabled":false,"rental_uris":{"android":"levelo://app?vid=5d177f45-ff38-42e9-88e9-2540d1ab91d8","ios":"levelo://app?vid=5d177f45-ff38-42e9-88e9-2540d1ab91d8"},"vehicle_type_id":"4","last_reported":1703077581,"current_range_meters":20000,"station_id":"ce4bhap2rcd13ifvqek0","pricing_plan_id":"free"},{"bike_id":"0cef339d-224f-47cc-a022-054ed8c2e1eb","system_id":"levelo_inurba_marseille","lat":43.289184,"lon":5.366408,"is_reserved":false,"is_disabled":false,"rental_uris":{"android":"levelo://app?vid=0cef339d-224f-47cc-a022-054ed8c2e1eb","ios":"levelo://app?vid=0cef339d-224f-47cc-a022-054ed8c2e1eb"},"vehicle_type_id":"4","last_reported":1703077581,"current_range_meters":27200,"station_id":"ce4bhap2rcd13ifvqek0","pricing_plan_id":"free"},{"bike_id":"30a65fd2-d467-4b91-81d9-fe4e7a745023","system_id":"levelo_inurba_marseille","lat":43.289468,"lon":5.363719,"is_reserved":false,"is_disabled":false,"rental_uris":{"android":"levelo://app?vid=30a65fd2-d467-4b91-81d9-fe4e7a745023","ios":"levelo://app?vid=30a65fd2-d467-4b91-81d9-fe4e7a745023"},"vehicle_type_id":"4","last_reported":1703077581,"current_range_meters":6400,"station_id":"ce4bhc92rcd13ifvqetg","pricing_plan_id":"free"},{"bike_id":"dab44b39-e83c-4c7b-b45a-de5d133fa5ea","system_id":"levelo_inurba_marseille","lat":43.289184,"lon":5.366408,"is_reserved":false,"is_disabled":false,"rental_uris":{"android":"levelo://app?vid=dab44b39-e83c-4c7b-b45a-de5d133fa5ea","ios":"levelo://app?vid=dab44b39-e83c-4c7b-b45a-de5d133fa5ea"},"vehicle_type_id":"4","last_reported":1703077581,"current_range_meters":26400,"station_id":"ce4bhap2rcd13ifvqek0","pricing_plan_id":"free"},{"bike_id":"48b7ce17-9bca-4f81-9d31-14c47bbd2336","system_id":"levelo_inurba_marseille","lat":43.289468,"lon":5.363719,"is_reserved":false,"is_disabled":false,"rental_uris":{"android":"levelo://app?vid=48b7ce17-9bca-4f81-9d31-14c47bbd2336","ios":"levelo://app?vid=48b7ce17-9bca-4f81-9d31-14c47bbd2336"},"vehicle_type_id":"4","last_reported":1703077581,"current_range_meters":24400,"station_id":"ce4bhc92rcd13ifvqetg","pricing_plan_id":"free"},{"bike_id":"dadd9bc8-efbe-425c-b233-a170cf5d4ffa","system_id":"levelo_inurba_marseille","lat":43.289468,"lon":5.363719,"is_reserved":false,"is_disabled":false,"rental_uris":{"android":"levelo://app?vid=dadd9bc8-efbe-425c-b233-a170cf5d4ffa","ios":"levelo://app?vid=dadd9bc8-efbe-425c-b233-a170cf5d4ffa"},"vehicle_type_id":"4","last_reported":1703077581,"current_range_meters":30000,"station_id":"ce4bhc92rcd13ifvqetg","pricing_plan_id":"free"},{"bike_id":"bb3e59aa-06ff-4e39-87b3-e937b840a126","system_id":"levelo_inurba_marseille","lat":43.292642,"lon":5.384254,"is_reserved":false,"is_disabled":false,"rental_uris":{"android":"levelo://app?vid=bb3e59aa-06ff-4e39-87b3-e937b840a126","ios":"levelo://app?vid=bb3e59aa-06ff-4e39-87b3-e937b840a126"},"vehicle_type_id":"4","last_reported":1703077581,"current_range_meters":14400,"station_id":"ce4bh692rcd13ifvqea0","pricing_plan_id":"free"},{"bike_id":"98c728b3-31fb-48cd-9bc6-804fb2f588d4","system_id":"levelo_inurba_marseille","lat":43.292644,"lon":5.384257,"is_reserved":false,"is_disabled":false,"rental_uris":{"android":"levelo://app?vid=98c728b3-31fb-48cd-9bc6-804fb2f588d4","ios":"levelo://app?vid=98c728b3-31fb-48cd-9bc6-804fb2f588d4"},"vehicle_type_id":"4","last_reported":1703077581,"current_range_meters":30000,"station_id":"ce4bh692rcd13ifvqea0","pricing_plan_id":"free"},{"bike_id":"98eb9a8c-9383-4570-9499-5f09616c2bc5","system_id":"levelo_inurba_marseille","lat":43.304296,"lon":5.397513,"is_reserved":false,"is_disabled":false,"rental_uris":{"android":"levelo://app?vid=98eb9a8c-9383-4570-9499-5f09616c2bc5","ios":"levelo://app?vid=98eb9a8c-9383-4570-9499-5f09616c2bc5"},"vehicle_type_id":"4","last_reported":1703077581,"current_range_meters":21600,"station_id":"ce4bh092rcd13ifvqd20","pricing_plan_id":"free"},{"bike_id":"39e98c13-8bf5-4359-b4b2-7b9441a1d969","system_id":"levelo_inurba_marseille","lat":43.330442,"lon":5.389148,"is_reserved":false,"is_disabled":false,"rental_uris":{"android":"levelo://app?vid=39e98c13-8bf5-4359-b4b2-7b9441a1d969","ios":"levelo://app?vid=39e98c13-8bf5-4359-b4b2-7b9441a1d969"},"vehicle_type_id":"4","last_reported":1703077581,"current_range_meters":26000,"station_id":"ce4bhr92rcd13ifvqhrg","pricing_plan_id":"free"},{"bike_id":"03792874-86d9-468e-be10-3c6851108053","system_id":"levelo_inurba_marseille","lat":43.330442,"lon":5.389148,"is_reserved":false,"is_disabled":false,"rental_uris":{"android":"levelo://app?vid=03792874-86d9-468e-be10-3c6851108053","ios":"levelo://app?vid=03792874-86d9-468e-be10-3c6851108053"},"vehicle_type_id":"4","last_reported":1703077581,"current_range_meters":18400,"station_id":"ce4bhr92rcd13ifvqhrg","pricing_plan_id":"free"},{"bike_id":"d34dfd7d-2dc1-4d6b-a7d3-cd304620e3eb","system_id":"levelo_inurba_marseille","lat":43.290995,"lon":5.381361,"is_reserved":false,"is_disabled":false,"rental_uris":{"android":"levelo://app?vid=d34dfd7d-2dc1-4d6b-a7d3-cd304620e3eb","ios":"levelo://app?vid=d34dfd7d-2dc1-4d6b-a7d3-cd304620e3eb"},"vehicle_type_id":"4","last_reported":1703077581,"current_range_meters":11200,"station_id":"ce4bh512rcd13ifvqe2g","pricing_plan_id":"free"},{"bike_id":"53769e88-5a8b-46b4-a8ad-a26fdc947b4a","system_id":"levelo_inurba_marseille","lat":43.2901,"lon":5.381269,"is_reserved":false,"is_disabled":false,"rental_uris":{"android":"levelo://app?vid=53769e88-5a8b-46b4-a8ad-a26fdc947b4a","ios":"levelo://app?vid=53769e88-5a8b-46b4-a8ad-a26fdc947b4a"},"vehicle_type_id":"4","last_reported":1703077581,"current_range_meters":17600,"station_id":"ce4bh4p2rcd13ifvqe1g","pricing_plan_id":"free"},{"bike_id":"615645b8-6804-45c2-862c-13e059918103","system_id":"levelo_inurba_marseille","lat":43.28849,"lon":5.35851,"is_reserved":false,"is_disabled":false,"rental_uris":{"android":"levelo://app?vid=615645b8-6804-45c2-862c-13e059918103","ios":"levelo://app?vid=615645b8-6804-45c2-862c-13e059918103"},"vehicle_type_id":"4","last_reported":1703077581,"current_range_meters":0,"station_id":"ce4bhb12rcd13ifvqem0","pricing_plan_id":"free"},{"bike_id":"0ee78268-26ed-42fb-aec2-e7134d6fb294","system_id":"levelo_inurba_marseille","lat":43.28856,"lon":5.358371,"is_reserved":false,"is_disabled":false,"rental_uris":{"android":"levelo://app?vid=0ee78268-26ed-42fb-aec2-e7134d6fb294","ios":"levelo://app?vid=0ee78268-26ed-42fb-aec2-e7134d6fb294"},"vehicle_type_id":"4","last_reported":1703077581,"current_range_meters":12000,"station_id":"ce4bhb12rcd13ifvqem0","pricing_plan_id":"free"},{"bike_id":"efc8b483-666b-48da-afa0-0447382868fd","system_id":"levelo_inurba_marseille","lat":43.337448,"lon":5.374743,"is_reserved":false,"is_disabled":false,"rental_uris":{"android":"levelo://app?vid=efc8b483-666b-48da-afa0-0447382868fd","ios":"levelo://app?vid=efc8b483-666b-48da-afa0-0447382868fd"},"vehicle_type_id":"4","last_reported":1703077581,"current_range_meters":27200,"station_id":"","pricing_plan_id":"free"},{"bike_id":"62222dbf-89ec-4ee8-85e7-b7356be86272","system_id":"levelo_inurba_marseille","lat":43.306412,"lon":5.401035,"is_reserved":false,"is_disabled":false,"rental_uris":{"android":"levelo://app?vid=62222dbf-89ec-4ee8-85e7-b7356be86272","ios":"levelo://app?vid=62222dbf-89ec-4ee8-85e7-b7356be86272"},"vehicle_type_id":"4","last_reported":1703077581,"current_range_meters":25200,"station_id":"ce4bh112rcd13ifvqda0","pricing_plan_id":"free"},{"bike_id":"cc51d32e-c960-4da1-92c6-b4cd39df0a99","system_id":"levelo_inurba_marseille","lat":43.33758,"lon":5.37475,"is_reserved":false,"is_disabled":false,"rental_uris":{"android":"levelo://app?vid=cc51d32e-c960-4da1-92c6-b4cd39df0a99","ios":"levelo://app?vid=cc51d32e-c960-4da1-92c6-b4cd39df0a99"},"vehicle_type_id":"4","last_reported":1703077581,"current_range_meters":31200,"station_id":"","pricing_plan_id":"free"},{"bike_id":"a4515738-5734-4dfb-b5e5-dbe21a6c935d","system_id":"levelo_inurba_marseille","lat":43.30642,"lon":5.401031,"is_reserved":false,"is_disabled":false,"rental_uris":{"android":"levelo://app?vid=a4515738-5734-4dfb-b5e5-dbe21a6c935d","ios":"levelo://app?vid=a4515738-5734-4dfb-b5e5-dbe21a6c935d"},"vehicle_type_id":"4","last_reported":1703077581,"current_range_meters":25200,"station_id":"ce4bh112rcd13ifvqda0","pricing_plan_id":"free"},{"bike_id":"243e1df6-d0c9-44a3-86c5-548abcd287e7","system_id":"levelo_inurba_marseille","lat":43.30642,"lon":5.401031,"is_reserved":false,"is_disabled":false,"rental_uris":{"android":"levelo://app?vid=243e1df6-d0c9-44a3-86c5-548abcd287e7","ios":"levelo://app?vid=243e1df6-d0c9-44a3-86c5-548abcd287e7"},"vehicle_type_id":"4","last_reported":1703077581,"current_range_meters":16800,"station_id":"ce4bh112rcd13ifvqda0","pricing_plan_id":"free"},{"bike_id":"d4af162a-4adc-4730-90d1-932f2ae92f42","system_id":"levelo_inurba_marseille","lat":43.306412,"lon":5.401035,"is_reserved":false,"is_disabled":false,"rental_uris":{"android":"levelo://app?vid=d4af162a-4adc-4730-90d1-932f2ae92f42","ios":"levelo://app?vid=d4af162a-4adc-4730-90d1-932f2ae92f42"},"vehicle_type_id":"4","last_reported":1703077581,"current_range_meters":28000,"station_id":"ce4bh112rcd13ifvqda0","pricing_plan_id":"free"},{"bike_id":"d0a0031c-390e-406c-bdc0-0964bebb7218","system_id":"levelo_inurba_marseille","lat":43.298681,"lon":5.397225,"is_reserved":false,"is_disabled":false,"rental_uris":{"android":"levelo://app?vid=d0a0031c-390e-406c-bdc0-0964bebb7218","ios":"levelo://app?vid=d0a0031c-390e-406c-bdc0-0964bebb7218"},"vehicle_type_id":"4","last_reported":1703077581,"current_range_meters":24000,"station_id":"ce4bh0h2rcd13ifvqd50","pricing_plan_id":"free"},{"bike_id":"d76866af-2e3f-4d70-86cf-d9ca980619c2","system_id":"levelo_inurba_marseille","lat":43.286591,"lon":5.363346,"is_reserved":false,"is_disabled":false,"rental_uris":{"android":"levelo://app?vid=d76866af-2e3f-4d70-86cf-d9ca980619c2","ios":"levelo://app?vid=d76866af-2e3f-4d70-86cf-d9ca980619c2"},"vehicle_type_id":"4","last_reported":1703077581,"current_range_meters":22400,"station_id":"ce4bhah2rcd13ifvqej0","pricing_plan_id":"free"},{"bike_id":"eaf6334d-9993-493a-a181-15e31cf626d1","system_id":"levelo_inurba_marseille","lat":43.286961,"lon":5.373785,"is_reserved":false,"is_disabled":false,"rental_uris":{"android":"levelo://app?vid=eaf6334d-9993-493a-a181-15e31cf626d1","ios":"levelo://app?vid=eaf6334d-9993-493a-a181-15e31cf626d1"},"vehicle_type_id":"4","last_reported":1703077581,"current_range_meters":23200,"station_id":"ce4bh3p2rcd13ifvqdq0","pricing_plan_id":"free"},{"bike_id":"0d07e009-0920-4d93-99ed-707bff935aef","system_id":"levelo_inurba_marseille","lat":43.289307,"lon":5.38406,"is_reserved":false,"is_disabled":false,"rental_uris":{"android":"levelo://app?vid=0d07e009-0920-4d93-99ed-707bff935aef","ios":"levelo://app?vid=0d07e009-0920-4d93-99ed-707bff935aef"},"vehicle_type_id":"4","last_reported":1703077581,"current_range_meters":18800,"station_id":"ce4bh612rcd13ifvqe6g","pricing_plan_id":"free"},{"bike_id":"1b3e9861-a8d3-4cc0-984d-320568871ae3","system_id":"levelo_inurba_marseille","lat":43.289307,"lon":5.38406,"is_reserved":false,"is_disabled":false,"rental_uris":{"android":"levelo://app?vid=1b3e9861-a8d3-4cc0-984d-320568871ae3","ios":"levelo://app?vid=1b3e9861-a8d3-4cc0-984d-320568871ae3"},"vehicle_type_id":"4","last_reported":1703077581,"current_range_meters":27200,"station_id":"ce4bh612rcd13ifvqe6g","pricing_plan_id":"free"},{"bike_id":"ec7ecf5a-3c5f-47b8-b664-60a8853972bd","system_id":"levelo_inurba_marseille","lat":43.290345,"lon":5.38646,"is_reserved":false,"is_disabled":false,"rental_uris":{"android":"levelo://app?vid=ec7ecf5a-3c5f-47b8-b664-60a8853972bd","ios":"levelo://app?vid=ec7ecf5a-3c5f-47b8-b664-60a8853972bd"},"vehicle_type_id":"4","last_reported":1703077581,"current_range_meters":18400,"station_id":"ce4bh4p2rcd13ifvqe0g","pricing_plan_id":"free"},{"bike_id":"9105c869-eb4c-418e-b216-58dadbdc92e7","system_id":"levelo_inurba_marseille","lat":43.302759,"lon":5.400793,"is_reserved":false,"is_disabled":false,"rental_uris":{"android":"levelo://app?vid=9105c869-eb4c-418e-b216-58dadbdc92e7","ios":"levelo://app?vid=9105c869-eb4c-418e-b216-58dadbdc92e7"},"vehicle_type_id":"4","last_reported":1703077581,"current_range_meters":26000,"station_id":"ce4bgvh2rcd13ifvqcs0","pricing_plan_id":"free"},{"bike_id":"da63bf62-c76d-4a8d-89ec-94fc85da6b01","system_id":"levelo_inurba_marseille","lat":43.289307,"lon":5.38406,"is_reserved":false,"is_disabled":false,"rental_uris":{"android":"levelo://app?vid=da63bf62-c76d-4a8d-89ec-94fc85da6b01","ios":"levelo://app?vid=da63bf62-c76d-4a8d-89ec-94fc85da6b01"},"vehicle_type_id":"4","last_reported":1703077581,"current_range_meters":23600,"station_id":"ce4bh612rcd13ifvqe6g","pricing_plan_id":"free"},{"bike_id":"be7f58f6-12f3-418c-b935-2ce2bbd0c2ae","system_id":"levelo_inurba_marseille","lat":43.290345,"lon":5.38646,"is_reserved":false,"is_disabled":false,"rental_uris":{"android":"levelo://app?vid=be7f58f6-12f3-418c-b935-2ce2bbd0c2ae","ios":"levelo://app?vid=be7f58f6-12f3-418c-b935-2ce2bbd0c2ae"},"vehicle_type_id":"4","last_reported":1703077581,"current_range_meters":1200,"station_id":"ce4bh4p2rcd13ifvqe0g","pricing_plan_id":"free"},{"bike_id":"657577b9-aac4-4653-8b6b-22f49e62594d","system_id":"levelo_inurba_marseille","lat":43.286039,"lon":5.370679,"is_reserved":false,"is_disabled":false,"rental_uris":{"android":"levelo://app?vid=657577b9-aac4-4653-8b6b-22f49e62594d","ios":"levelo://app?vid=657577b9-aac4-4653-8b6b-22f49e62594d"},"vehicle_type_id":"4","last_reported":1703077581,"current_range_meters":30000,"station_id":"ce4bht12rcd13ifvqi60","pricing_plan_id":"free"},{"bike_id":"f4788d0d-8f46-4243-bf7a-9fa1b5fa7389","system_id":"levelo_inurba_marseille","lat":43.286039,"lon":5.370679,"is_reserved":false,"is_disabled":false,"rental_uris":{"android":"levelo://app?vid=f4788d0d-8f46-4243-bf7a-9fa1b5fa7389","ios":"levelo://app?vid=f4788d0d-8f46-4243-bf7a-9fa1b5fa7389"},"vehicle_type_id":"4","last_reported":1703077581,"current_range_meters":17600,"station_id":"ce4bht12rcd13ifvqi60","pricing_plan_id":"free"},{"bike_id":"1bf3f67f-66ba-4ecd-9330-3f24c8af6681","system_id":"levelo_inurba_marseille","lat":43.287185,"lon":5.379373,"is_reserved":false,"is_disabled":false,"rental_uris":{"android":"levelo://app?vid=1bf3f67f-66ba-4ecd-9330-3f24c8af6681","ios":"levelo://app?vid=1bf3f67f-66ba-4ecd-9330-3f24c8af6681"},"vehicle_type_id":"4","last_reported":1703077581,"current_range_meters":21200,"station_id":"ce4bh9p2rcd13ifvqec0","pricing_plan_id":"free"},{"bike_id":"ccf043cc-3ef2-4ff5-a63b-20103b45fad7","system_id":"levelo_inurba_marseille","lat":43.287184,"lon":5.37937,"is_reserved":false,"is_disabled":false,"rental_uris":{"android":"levelo://app?vid=ccf043cc-3ef2-4ff5-a63b-20103b45fad7","ios":"levelo://app?vid=ccf043cc-3ef2-4ff5-a63b-20103b45fad7"},"vehicle_type_id":"4","last_reported":1703077581,"current_range_meters":11200,"station_id":"ce4bh9p2rcd13ifvqec0","pricing_plan_id":"free"},{"bike_id":"450eb73a-5ce0-4ece-8060-c92f780650f2","system_id":"levelo_inurba_marseille","lat":43.287185,"lon":5.379373,"is_reserved":false,"is_disabled":false,"rental_uris":{"android":"levelo://app?vid=450eb73a-5ce0-4ece-8060-c92f780650f2","ios":"levelo://app?vid=450eb73a-5ce0-4ece-8060-c92f780650f2"},"vehicle_type_id":"4","last_reported":1703077581,"current_range_meters":10400,"station_id":"ce4bh9p2rcd13ifvqec0","pricing_plan_id":"free"},{"bike_id":"30d391be-4403-48f5-bc60-5e02d1e9f0b9","system_id":"levelo_inurba_marseille","lat":43.284534,"lon":5.358662,"is_reserved":false,"is_disabled":false,"rental_uris":{"android":"levelo://app?vid=30d391be-4403-48f5-bc60-5e02d1e9f0b9","ios":"levelo://app?vid=30d391be-4403-48f5-bc60-5e02d1e9f0b9"},"vehicle_type_id":"4","last_reported":1703077581,"current_range_meters":14400,"station_id":"ce4bhah2rcd13ifvqei0","pricing_plan_id":"free"},{"bike_id":"479b79df-bd31-40a0-bd53-c41d640a6bcc","system_id":"levelo_inurba_marseille","lat":43.294314,"lon":5.397498,"is_reserved":false,"is_disabled":false,"rental_uris":{"android":"levelo://app?vid=479b79df-bd31-40a0-bd53-c41d640a6bcc","ios":"levelo://app?vid=479b79df-bd31-40a0-bd53-c41d640a6bcc"},"vehicle_type_id":"4","last_reported":1703077581,"current_range_meters":18000,"station_id":"ce4bh3h2rcd13ifvqdo0","pricing_plan_id":"free"},{"bike_id":"b7d2d3af-2335-4bc1-a638-9d123cc8d915","system_id":"levelo_inurba_marseille","lat":43.294314,"lon":5.397498,"is_reserved":false,"is_disabled":false,"rental_uris":{"android":"levelo://app?vid=b7d2d3af-2335-4bc1-a638-9d123cc8d915","ios":"levelo://app?vid=b7d2d3af-2335-4bc1-a638-9d123cc8d915"},"vehicle_type_id":"4","last_reported":1703077581,"current_range_meters":24800,"station_id":"ce4bh3h2rcd13ifvqdo0","pricing_plan_id":"free"},{"bike_id":"5f0e7b91-fd31-48f9-882c-75e0788e850b","system_id":"levelo_inurba_marseille","lat":43.285848,"lon":5.350787,"is_reserved":false,"is_disabled":false,"rental_uris":{"android":"levelo://app?vid=5f0e7b91-fd31-48f9-882c-75e0788e850b","ios":"levelo://app?vid=5f0e7b91-fd31-48f9-882c-75e0788e850b"},"vehicle_type_id":"4","last_reported":1703077581,"current_range_meters":28800,"station_id":"ce4bhch2rcd13ifvqeug","pricing_plan_id":"free"},{"bike_id":"d01fcdac-7d59-46ae-9572-c69e6fb89425","system_id":"levelo_inurba_marseille","lat":43.285856,"lon":5.350771,"is_reserved":false,"is_disabled":false,"rental_uris":{"android":"levelo://app?vid=d01fcdac-7d59-46ae-9572-c69e6fb89425","ios":"levelo://app?vid=d01fcdac-7d59-46ae-9572-c69e6fb89425"},"vehicle_type_id":"4","last_reported":1703077581,"current_range_meters":21200,"station_id":"ce4bhch2rcd13ifvqeug","pricing_plan_id":"free"},{"bike_id":"8538e6dd-dbef-4a5a-a119-9a857fd021ad","system_id":"levelo_inurba_marseille","lat":43.33218,"lon":5.397067,"is_reserved":false,"is_disabled":false,"rental_uris":{"android":"levelo://app?vid=8538e6dd-dbef-4a5a-a119-9a857fd021ad","ios":"levelo://app?vid=8538e6dd-dbef-4a5a-a119-9a857fd021ad"},"vehicle_type_id":"4","last_reported":1703077581,"current_range_meters":0,"station_id":"","pricing_plan_id":"free"},{"bike_id":"0e6bbc92-cec6-497f-ad89-d75d7e889db3","system_id":"levelo_inurba_marseille","lat":43.33717,"lon":5.391857,"is_reserved":false,"is_disabled":false,"rental_uris":{"android":"levelo://app?vid=0e6bbc92-cec6-497f-ad89-d75d7e889db3","ios":"levelo://app?vid=0e6bbc92-cec6-497f-ad89-d75d7e889db3"},"vehicle_type_id":"4","last_reported":1703077581,"current_range_meters":31600,"station_id":"ce4bhr92rcd13ifvqhsg","pricing_plan_id":"free"},{"bike_id":"e89015c1-fbee-41fb-af73-8abdda38dd38","system_id":"levelo_inurba_marseille","lat":43.33717,"lon":5.391857,"is_reserved":false,"is_disabled":false,"rental_uris":{"android":"levelo://app?vid=e89015c1-fbee-41fb-af73-8abdda38dd38","ios":"levelo://app?vid=e89015c1-fbee-41fb-af73-8abdda38dd38"},"vehicle_type_id":"4","last_reported":1703077581,"current_range_meters":12800,"station_id":"ce4bhr92rcd13ifvqhsg","pricing_plan_id":"free"},{"bike_id":"d3b8a933-bb32-4027-8cd2-ea28e07b8fa8","system_id":"levelo_inurba_marseille","lat":43.337168,"lon":5.391825,"is_reserved":false,"is_disabled":false,"rental_uris":{"android":"levelo://app?vid=d3b8a933-bb32-4027-8cd2-ea28e07b8fa8","ios":"levelo://app?vid=d3b8a933-bb32-4027-8cd2-ea28e07b8fa8"},"vehicle_type_id":"4","last_reported":1703077581,"current_range_meters":26000,"station_id":"ce4bhr92rcd13ifvqhsg","pricing_plan_id":"free"},{"bike_id":"c3d37a83-4535-4b89-9eb5-8b37095ba839","system_id":"levelo_inurba_marseille","lat":43.337168,"lon":5.391825,"is_reserved":false,"is_disabled":false,"rental_uris":{"android":"levelo://app?vid=c3d37a83-4535-4b89-9eb5-8b37095ba839","ios":"levelo://app?vid=c3d37a83-4535-4b89-9eb5-8b37095ba839"},"vehicle_type_id":"4","last_reported":1703077581,"current_range_meters":30000,"station_id":"ce4bhr92rcd13ifvqhsg","pricing_plan_id":"free"},{"bike_id":"bfddaa23-4e4c-45cc-82be-2c48099335fc","system_id":"levelo_inurba_marseille","lat":43.323464,"lon":5.406297,"is_reserved":false,"is_disabled":false,"rental_uris":{"android":"levelo://app?vid=bfddaa23-4e4c-45cc-82be-2c48099335fc","ios":"levelo://app?vid=bfddaa23-4e4c-45cc-82be-2c48099335fc"},"vehicle_type_id":"4","last_reported":1703077581,"current_range_meters":20800,"station_id":"ce4bhq92rcd13ifvqhjg","pricing_plan_id":"free"},{"bike_id":"79aed9d7-2f3c-4236-83a0-bbdb65707c4a","system_id":"levelo_inurba_marseille","lat":43.284787,"lon":5.384116,"is_reserved":false,"is_disabled":false,"rental_uris":{"android":"levelo://app?vid=79aed9d7-2f3c-4236-83a0-bbdb65707c4a","ios":"levelo://app?vid=79aed9d7-2f3c-4236-83a0-bbdb65707c4a"},"vehicle_type_id":"4","last_reported":1703077581,"current_range_meters":26400,"station_id":"ce4bh512rcd13ifvqe3g","pricing_plan_id":"free"},{"bike_id":"d74e8218-1781-42cb-a224-6ff89ac857d5","system_id":"levelo_inurba_marseille","lat":43.288501,"lon":5.393087,"is_reserved":false,"is_disabled":false,"rental_uris":{"android":"levelo://app?vid=d74e8218-1781-42cb-a224-6ff89ac857d5","ios":"levelo://app?vid=d74e8218-1781-42cb-a224-6ff89ac857d5"},"vehicle_type_id":"4","last_reported":1703077581,"current_range_meters":8000,"station_id":"ce4bh2p2rcd13ifvqdi0","pricing_plan_id":"free"},{"bike_id":"438b017b-c7d3-46c4-9f6c-ca828929870e","system_id":"levelo_inurba_marseille","lat":43.284219,"lon":5.3497,"is_reserved":false,"is_disabled":false,"rental_uris":{"android":"levelo://app?vid=438b017b-c7d3-46c4-9f6c-ca828929870e","ios":"levelo://app?vid=438b017b-c7d3-46c4-9f6c-ca828929870e"},"vehicle_type_id":"4","last_reported":1703077581,"current_range_meters":26800,"station_id":"ce4bhbh2rcd13ifvqepg","pricing_plan_id":"free"},{"bike_id":"2c7907b3-c901-4f29-becb-6395e1a50b59","system_id":"levelo_inurba_marseille","lat":43.284217,"lon":5.349697,"is_reserved":false,"is_disabled":false,"rental_uris":{"android":"levelo://app?vid=2c7907b3-c901-4f29-becb-6395e1a50b59","ios":"levelo://app?vid=2c7907b3-c901-4f29-becb-6395e1a50b59"},"vehicle_type_id":"4","last_reported":1703077581,"current_range_meters":31200,"station_id":"ce4bhbh2rcd13ifvqepg","pricing_plan_id":"free"},{"bike_id":"07a7c46a-9443-4613-8cf8-7c1791884f57","system_id":"levelo_inurba_marseille","lat":43.292724,"lon":5.401131,"is_reserved":false,"is_disabled":false,"rental_uris":{"android":"levelo://app?vid=07a7c46a-9443-4613-8cf8-7c1791884f57","ios":"levelo://app?vid=07a7c46a-9443-4613-8cf8-7c1791884f57"},"vehicle_type_id":"4","last_reported":1703077581,"current_range_meters":26800,"station_id":"ce4bh312rcd13ifvqdk0","pricing_plan_id":"free"},{"bike_id":"512033b6-904a-4d6d-89e5-f55078fe6832","system_id":"levelo_inurba_marseille","lat":43.282754,"lon":5.350519,"is_reserved":false,"is_disabled":false,"rental_uris":{"android":"levelo://app?vid=512033b6-904a-4d6d-89e5-f55078fe6832","ios":"levelo://app?vid=512033b6-904a-4d6d-89e5-f55078fe6832"},"vehicle_type_id":"4","last_reported":1703077581,"current_range_meters":30000,"station_id":"ce4bhbp2rcd13ifvqerg","pricing_plan_id":"free"},{"bike_id":"410f61f8-1209-490a-8dd0-e0f413c850e3","system_id":"levelo_inurba_marseille","lat":43.282744,"lon":5.350533,"is_reserved":false,"is_disabled":false,"rental_uris":{"android":"levelo://app?vid=410f61f8-1209-490a-8dd0-e0f413c850e3","ios":"levelo://app?vid=410f61f8-1209-490a-8dd0-e0f413c850e3"},"vehicle_type_id":"4","last_reported":1703077581,"current_range_meters":28400,"station_id":"ce4bhbp2rcd13ifvqerg","pricing_plan_id":"free"},{"bike_id":"705e0e5e-cffe-4498-adda-e5de0c6b11e7","system_id":"levelo_inurba_marseille","lat":43.28039,"lon":5.369297,"is_reserved":false,"is_disabled":false,"rental_uris":{"android":"levelo://app?vid=705e0e5e-cffe-4498-adda-e5de0c6b11e7","ios":"levelo://app?vid=705e0e5e-cffe-4498-adda-e5de0c6b11e7"},"vehicle_type_id":"4","last_reported":1703077581,"current_range_meters":18000,"station_id":"ce4bha12rcd13ifvqef0","pricing_plan_id":"free"},{"bike_id":"cdbcc46b-7661-4a20-910a-8de40a272988","system_id":"levelo_inurba_marseille","lat":43.290412,"lon":5.399633,"is_reserved":false,"is_disabled":false,"rental_uris":{"android":"levelo://app?vid=cdbcc46b-7661-4a20-910a-8de40a272988","ios":"levelo://app?vid=cdbcc46b-7661-4a20-910a-8de40a272988"},"vehicle_type_id":"4","last_reported":1703077581,"current_range_meters":9600,"station_id":"ce4bh392rcd13ifvqdm0","pricing_plan_id":"free"},{"bike_id":"85fdbae8-240a-4981-9353-8711b606be51","system_id":"levelo_inurba_marseille","lat":43.29041,"lon":5.399634,"is_reserved":false,"is_disabled":false,"rental_uris":{"android":"levelo://app?vid=85fdbae8-240a-4981-9353-8711b606be51","ios":"levelo://app?vid=85fdbae8-240a-4981-9353-8711b606be51"},"vehicle_type_id":"4","last_reported":1703077581,"current_range_meters":28400,"station_id":"ce4bh392rcd13ifvqdm0","pricing_plan_id":"free"},{"bike_id":"76d0bbbd-97b0-420c-be00-e21ac75bc6f7","system_id":"levelo_inurba_marseille","lat":43.296097,"lon":5.405633,"is_reserved":false,"is_disabled":false,"rental_uris":{"android":"levelo://app?vid=76d0bbbd-97b0-420c-be00-e21ac75bc6f7","ios":"levelo://app?vid=76d0bbbd-97b0-420c-be00-e21ac75bc6f7"},"vehicle_type_id":"4","last_reported":1703077581,"current_range_meters":30000,"station_id":"","pricing_plan_id":"free"},{"bike_id":"3dd90fb0-cd96-456f-8662-4b00392b8069","system_id":"levelo_inurba_marseille","lat":43.281044,"lon":5.378308,"is_reserved":false,"is_disabled":false,"rental_uris":{"android":"levelo://app?vid=3dd90fb0-cd96-456f-8662-4b00392b8069","ios":"levelo://app?vid=3dd90fb0-cd96-456f-8662-4b00392b8069"},"vehicle_type_id":"4","last_reported":1703077581,"current_range_meters":28400,"station_id":"ce4bha12rcd13ifvqee0","pricing_plan_id":"free"},{"bike_id":"5346d188-4883-4281-906b-d41e657db82f","system_id":"levelo_inurba_marseille","lat":43.28567,"lon":5.39498,"is_reserved":false,"is_disabled":false,"rental_uris":{"android":"levelo://app?vid=5346d188-4883-4281-906b-d41e657db82f","ios":"levelo://app?vid=5346d188-4883-4281-906b-d41e657db82f"},"vehicle_type_id":"4","last_reported":1703077581,"current_range_meters":0,"station_id":"ce4bh292rcd13ifvqdg0","pricing_plan_id":"free"},{"bike_id":"48b56a34-a75b-4ccf-9da9-569c23bf05ae","system_id":"levelo_inurba_marseille","lat":43.304188,"lon":5.412904,"is_reserved":false,"is_disabled":false,"rental_uris":{"android":"levelo://app?vid=48b56a34-a75b-4ccf-9da9-569c23bf05ae","ios":"levelo://app?vid=48b56a34-a75b-4ccf-9da9-569c23bf05ae"},"vehicle_type_id":"4","last_reported":1703077581,"current_range_meters":28400,"station_id":"ce4bhop2rcd13ifvqh8g","pricing_plan_id":"free"},{"bike_id":"01dcf88a-d88b-4fdd-9d78-b4c7d4ba5da2","system_id":"levelo_inurba_marseille","lat":43.279087,"lon":5.380114,"is_reserved":false,"is_disabled":false,"rental_uris":{"android":"levelo://app?vid=01dcf88a-d88b-4fdd-9d78-b4c7d4ba5da2","ios":"levelo://app?vid=01dcf88a-d88b-4fdd-9d78-b4c7d4ba5da2"},"vehicle_type_id":"4","last_reported":1703077581,"current_range_meters":13200,"station_id":"ce4bhf92rcd13ifvqf50","pricing_plan_id":"free"},{"bike_id":"58dd73f3-8d8a-4047-baae-936f51538c12","system_id":"levelo_inurba_marseille","lat":43.287154,"lon":5.399979,"is_reserved":false,"is_disabled":false,"rental_uris":{"android":"levelo://app?vid=58dd73f3-8d8a-4047-baae-936f51538c12","ios":"levelo://app?vid=58dd73f3-8d8a-4047-baae-936f51538c12"},"vehicle_type_id":"4","last_reported":1703077581,"current_range_meters":30800,"station_id":"ce4bho92rcd13ifvqh3g","pricing_plan_id":"free"},{"bike_id":"cb0668d4-d46c-4efe-a7e0-185ebe495ab4","system_id":"levelo_inurba_marseille","lat":43.280583,"lon":5.389264,"is_reserved":false,"is_disabled":false,"rental_uris":{"android":"levelo://app?vid=cb0668d4-d46c-4efe-a7e0-185ebe495ab4","ios":"levelo://app?vid=cb0668d4-d46c-4efe-a7e0-185ebe495ab4"},"vehicle_type_id":"4","last_reported":1703077581,"current_range_meters":7600,"station_id":"","pricing_plan_id":"free"},{"bike_id":"5161b995-3f81-44ee-a011-2628a5bc8456","system_id":"levelo_inurba_marseille","lat":43.320045,"lon":5.415046,"is_reserved":false,"is_disabled":false,"rental_uris":{"android":"levelo://app?vid=5161b995-3f81-44ee-a011-2628a5bc8456","ios":"levelo://app?vid=5161b995-3f81-44ee-a011-2628a5bc8456"},"vehicle_type_id":"4","last_reported":1703077581,"current_range_meters":22800,"station_id":"ce4bhq92rcd13ifvqhkg","pricing_plan_id":"free"},{"bike_id":"1a0bc111-85db-4d0c-a797-51110032f0b6","system_id":"levelo_inurba_marseille","lat":43.320045,"lon":5.415046,"is_reserved":false,"is_disabled":false,"rental_uris":{"android":"levelo://app?vid=1a0bc111-85db-4d0c-a797-51110032f0b6","ios":"levelo://app?vid=1a0bc111-85db-4d0c-a797-51110032f0b6"},"vehicle_type_id":"4","last_reported":1703077581,"current_range_meters":30000,"station_id":"ce4bhq92rcd13ifvqhkg","pricing_plan_id":"free"},{"bike_id":"47e44665-953f-4951-beb0-1a9040286bd9","system_id":"levelo_inurba_marseille","lat":43.279742,"lon":5.38744,"is_reserved":false,"is_disabled":false,"rental_uris":{"android":"levelo://app?vid=47e44665-953f-4951-beb0-1a9040286bd9","ios":"levelo://app?vid=47e44665-953f-4951-beb0-1a9040286bd9"},"vehicle_type_id":"4","last_reported":1703077581,"current_range_meters":15600,"station_id":"ce4bhg12rcd13ifvqf80","pricing_plan_id":"free"},{"bike_id":"5b0daffb-c9d0-4606-9bb6-c71a3d74273d","system_id":"levelo_inurba_marseille","lat":43.325243,"lon":5.414326,"is_reserved":false,"is_disabled":false,"rental_uris":{"android":"levelo://app?vid=5b0daffb-c9d0-4606-9bb6-c71a3d74273d","ios":"levelo://app?vid=5b0daffb-c9d0-4606-9bb6-c71a3d74273d"},"vehicle_type_id":"4","last_reported":1703077581,"current_range_meters":27600,"station_id":"ce4bhq12rcd13ifvqhhg","pricing_plan_id":"free"},{"bike_id":"761ddb83-5c81-48b4-aa77-ad1952687cca","system_id":"levelo_inurba_marseille","lat":43.27618,"lon":5.361009,"is_reserved":false,"is_disabled":false,"rental_uris":{"android":"levelo://app?vid=761ddb83-5c81-48b4-aa77-ad1952687cca","ios":"levelo://app?vid=761ddb83-5c81-48b4-aa77-ad1952687cca"},"vehicle_type_id":"4","last_reported":1703077581,"current_range_meters":7600,"station_id":"ce4bgj92rcd13ifvqbe0","pricing_plan_id":"free"},{"bike_id":"ae97ba37-8759-486d-94a5-f27bc8d713dd","system_id":"levelo_inurba_marseille","lat":43.27618,"lon":5.361009,"is_reserved":false,"is_disabled":false,"rental_uris":{"android":"levelo://app?vid=ae97ba37-8759-486d-94a5-f27bc8d713dd","ios":"levelo://app?vid=ae97ba37-8759-486d-94a5-f27bc8d713dd"},"vehicle_type_id":"4","last_reported":1703077581,"current_range_meters":25600,"station_id":"ce4bgj92rcd13ifvqbe0","pricing_plan_id":"free"},{"bike_id":"1b411c6b-201d-4488-8b0a-082671a3e74b","system_id":"levelo_inurba_marseille","lat":43.28079,"lon":5.39655,"is_reserved":false,"is_disabled":false,"rental_uris":{"android":"levelo://app?vid=1b411c6b-201d-4488-8b0a-082671a3e74b","ios":"levelo://app?vid=1b411c6b-201d-4488-8b0a-082671a3e74b"},"vehicle_type_id":"4","last_reported":1703077581,"current_range_meters":6400,"station_id":"ce4bho12rcd13ifvqh2g","pricing_plan_id":"free"},{"bike_id":"e2b9a110-28f1-46ce-985b-854c3fa1893b","system_id":"levelo_inurba_marseille","lat":43.280784,"lon":5.396622,"is_reserved":false,"is_disabled":false,"rental_uris":{"android":"levelo://app?vid=e2b9a110-28f1-46ce-985b-854c3fa1893b","ios":"levelo://app?vid=e2b9a110-28f1-46ce-985b-854c3fa1893b"},"vehicle_type_id":"4","last_reported":1703077581,"current_range_meters":23200,"station_id":"ce4bho12rcd13ifvqh2g","pricing_plan_id":"free"},{"bike_id":"83489523-53cc-428e-8af2-548f20585f1b","system_id":"levelo_inurba_marseille","lat":43.303837,"lon":5.418724,"is_reserved":false,"is_disabled":false,"rental_uris":{"android":"levelo://app?vid=83489523-53cc-428e-8af2-548f20585f1b","ios":"levelo://app?vid=83489523-53cc-428e-8af2-548f20585f1b"},"vehicle_type_id":"4","last_reported":1703077581,"current_range_meters":27200,"station_id":"ce4bhop2rcd13ifvqh7g","pricing_plan_id":"free"},{"bike_id":"983c8516-e98c-4a13-8486-3db8e2c6ef2c","system_id":"levelo_inurba_marseille","lat":43.303837,"lon":5.418724,"is_reserved":false,"is_disabled":false,"rental_uris":{"android":"levelo://app?vid=983c8516-e98c-4a13-8486-3db8e2c6ef2c","ios":"levelo://app?vid=983c8516-e98c-4a13-8486-3db8e2c6ef2c"},"vehicle_type_id":"4","last_reported":1703077581,"current_range_meters":14800,"station_id":"ce4bhop2rcd13ifvqh7g","pricing_plan_id":"free"},{"bike_id":"c21d8b79-8f7f-448f-bff8-d2d54c0cde2d","system_id":"levelo_inurba_marseille","lat":43.273613,"lon":5.362705,"is_reserved":false,"is_disabled":false,"rental_uris":{"android":"levelo://app?vid=c21d8b79-8f7f-448f-bff8-d2d54c0cde2d","ios":"levelo://app?vid=c21d8b79-8f7f-448f-bff8-d2d54c0cde2d"},"vehicle_type_id":"4","last_reported":1703077581,"current_range_meters":29600,"station_id":"ce4bhbh2rcd13ifvqeo0","pricing_plan_id":"free"},{"bike_id":"e17d1858-0b93-45c5-8a69-d8981e6ac188","system_id":"levelo_inurba_marseille","lat":43.275625,"lon":5.384392,"is_reserved":false,"is_disabled":false,"rental_uris":{"android":"levelo://app?vid=e17d1858-0b93-45c5-8a69-d8981e6ac188","ios":"levelo://app?vid=e17d1858-0b93-45c5-8a69-d8981e6ac188"},"vehicle_type_id":"4","last_reported":1703077581,"current_range_meters":13600,"station_id":"ce4bhh92rcd13ifvqfi0","pricing_plan_id":"free"},{"bike_id":"3a1f04a1-5a84-41fe-984d-a837d7ea2cab","system_id":"levelo_inurba_marseille","lat":43.336134,"lon":5.410341,"is_reserved":false,"is_disabled":false,"rental_uris":{"android":"levelo://app?vid=3a1f04a1-5a84-41fe-984d-a837d7ea2cab","ios":"levelo://app?vid=3a1f04a1-5a84-41fe-984d-a837d7ea2cab"},"vehicle_type_id":"4","last_reported":1703077581,"current_range_meters":22400,"station_id":"ce4bhqh2rcd13ifvqhmg","pricing_plan_id":"free"},{"bike_id":"39111e99-0a3f-4991-80b2-ae6d3d137c2e","system_id":"levelo_inurba_marseille","lat":43.275625,"lon":5.384392,"is_reserved":false,"is_disabled":false,"rental_uris":{"android":"levelo://app?vid=39111e99-0a3f-4991-80b2-ae6d3d137c2e","ios":"levelo://app?vid=39111e99-0a3f-4991-80b2-ae6d3d137c2e"},"vehicle_type_id":"4","last_reported":1703077581,"current_range_meters":29600,"station_id":"ce4bhh92rcd13ifvqfi0","pricing_plan_id":"free"},{"bike_id":"0b7aaedc-7640-4713-9316-eac23e9f8595","system_id":"levelo_inurba_marseille","lat":43.275625,"lon":5.384392,"is_reserved":false,"is_disabled":false,"rental_uris":{"android":"levelo://app?vid=0b7aaedc-7640-4713-9316-eac23e9f8595","ios":"levelo://app?vid=0b7aaedc-7640-4713-9316-eac23e9f8595"},"vehicle_type_id":"4","last_reported":1703077581,"current_range_meters":30000,"station_id":"ce4bhh92rcd13ifvqfi0","pricing_plan_id":"free"},{"bike_id":"32fe79e3-1bf2-462d-926a-5f21899373f5","system_id":"levelo_inurba_marseille","lat":43.276771,"lon":5.388799,"is_reserved":false,"is_disabled":false,"rental_uris":{"android":"levelo://app?vid=32fe79e3-1bf2-462d-926a-5f21899373f5","ios":"levelo://app?vid=32fe79e3-1bf2-462d-926a-5f21899373f5"},"vehicle_type_id":"4","last_reported":1703077581,"current_range_meters":15600,"station_id":"ce4bhi12rcd13ifvqfo0","pricing_plan_id":"free"},{"bike_id":"16f0464e-c8e3-48c4-8269-adfbb03de339","system_id":"levelo_inurba_marseille","lat":43.279952,"lon":5.400085,"is_reserved":false,"is_disabled":false,"rental_uris":{"android":"levelo://app?vid=16f0464e-c8e3-48c4-8269-adfbb03de339","ios":"levelo://app?vid=16f0464e-c8e3-48c4-8269-adfbb03de339"},"vehicle_type_id":"4","last_reported":1703077581,"current_range_meters":13200,"station_id":"ce4bho92rcd13ifvqh4g","pricing_plan_id":"free"},{"bike_id":"d22d1203-0f21-4007-9972-05249b0e3c2d","system_id":"levelo_inurba_marseille","lat":43.317121,"lon":5.423936,"is_reserved":false,"is_disabled":false,"rental_uris":{"android":"levelo://app?vid=d22d1203-0f21-4007-9972-05249b0e3c2d","ios":"levelo://app?vid=d22d1203-0f21-4007-9972-05249b0e3c2d"},"vehicle_type_id":"4","last_reported":1703077581,"current_range_meters":25200,"station_id":"ce4bhp92rcd13ifvqhbg","pricing_plan_id":"free"},{"bike_id":"a186b623-a02e-4b49-b9f8-d08ed118be67","system_id":"levelo_inurba_marseille","lat":43.310785,"lon":5.424305,"is_reserved":false,"is_disabled":false,"rental_uris":{"android":"levelo://app?vid=a186b623-a02e-4b49-b9f8-d08ed118be67","ios":"levelo://app?vid=a186b623-a02e-4b49-b9f8-d08ed118be67"},"vehicle_type_id":"4","last_reported":1703077581,"current_range_meters":31600,"station_id":"ce4bhp92rcd13ifvqhag","pricing_plan_id":"free"},{"bike_id":"6aeb72c6-7795-421e-8c99-8e89a08bfac6","system_id":"levelo_inurba_marseille","lat":43.317121,"lon":5.423936,"is_reserved":false,"is_disabled":false,"rental_uris":{"android":"levelo://app?vid=6aeb72c6-7795-421e-8c99-8e89a08bfac6","ios":"levelo://app?vid=6aeb72c6-7795-421e-8c99-8e89a08bfac6"},"vehicle_type_id":"4","last_reported":1703077581,"current_range_meters":30400,"station_id":"ce4bhp92rcd13ifvqhbg","pricing_plan_id":"free"},{"bike_id":"a5be1e0a-9870-48c1-b934-a7e079d58b9c","system_id":"levelo_inurba_marseille","lat":43.310785,"lon":5.424305,"is_reserved":false,"is_disabled":false,"rental_uris":{"android":"levelo://app?vid=a5be1e0a-9870-48c1-b934-a7e079d58b9c","ios":"levelo://app?vid=a5be1e0a-9870-48c1-b934-a7e079d58b9c"},"vehicle_type_id":"4","last_reported":1703077581,"current_range_meters":29600,"station_id":"ce4bhp92rcd13ifvqhag","pricing_plan_id":"free"},{"bike_id":"3c3c58d3-be51-4d08-b7d0-aa82b5c92010","system_id":"levelo_inurba_marseille","lat":43.310785,"lon":5.424305,"is_reserved":false,"is_disabled":false,"rental_uris":{"android":"levelo://app?vid=3c3c58d3-be51-4d08-b7d0-aa82b5c92010","ios":"levelo://app?vid=3c3c58d3-be51-4d08-b7d0-aa82b5c92010"},"vehicle_type_id":"4","last_reported":1703077581,"current_range_meters":21600,"station_id":"ce4bhp92rcd13ifvqhag","pricing_plan_id":"free"},{"bike_id":"c6e52286-01ff-4b8a-8cd1-ba7cb7687511","system_id":"levelo_inurba_marseille","lat":43.340804,"lon":5.410219,"is_reserved":false,"is_disabled":false,"rental_uris":{"android":"levelo://app?vid=c6e52286-01ff-4b8a-8cd1-ba7cb7687511","ios":"levelo://app?vid=c6e52286-01ff-4b8a-8cd1-ba7cb7687511"},"vehicle_type_id":"4","last_reported":1703077581,"current_range_meters":27200,"station_id":"ce4bhqh2rcd13ifvqhlg","pricing_plan_id":"free"},{"bike_id":"974dc7db-ff3c-4554-8964-132f9db52d9b","system_id":"levelo_inurba_marseille","lat":43.276092,"lon":5.395289,"is_reserved":false,"is_disabled":false,"rental_uris":{"android":"levelo://app?vid=974dc7db-ff3c-4554-8964-132f9db52d9b","ios":"levelo://app?vid=974dc7db-ff3c-4554-8964-132f9db52d9b"},"vehicle_type_id":"4","last_reported":1703077581,"current_range_meters":4000,"station_id":"","pricing_plan_id":"free"},{"bike_id":"938051b1-f212-49a2-b0c9-2a7bcbf8a4aa","system_id":"levelo_inurba_marseille","lat":43.27432,"lon":5.39404,"is_reserved":false,"is_disabled":false,"rental_uris":{"android":"levelo://app?vid=938051b1-f212-49a2-b0c9-2a7bcbf8a4aa","ios":"levelo://app?vid=938051b1-f212-49a2-b0c9-2a7bcbf8a4aa"},"vehicle_type_id":"4","last_reported":1703077581,"current_range_meters":28800,"station_id":"ce4bhdp2rcd13ifvqf20","pricing_plan_id":"free"},{"bike_id":"62c6ddcd-2f0d-4dda-9190-28a2ac4933d2","system_id":"levelo_inurba_marseille","lat":43.273129,"lon":5.390725,"is_reserved":false,"is_disabled":false,"rental_uris":{"android":"levelo://app?vid=62c6ddcd-2f0d-4dda-9190-28a2ac4933d2","ios":"levelo://app?vid=62c6ddcd-2f0d-4dda-9190-28a2ac4933d2"},"vehicle_type_id":"4","last_reported":1703077581,"current_range_meters":10800,"station_id":"ce4bhgp2rcd13ifvqfe0","pricing_plan_id":"free"},{"bike_id":"f94c0757-14dd-424e-9250-3f322563e069","system_id":"levelo_inurba_marseille","lat":43.27481,"lon":5.39671,"is_reserved":false,"is_disabled":false,"rental_uris":{"android":"levelo://app?vid=f94c0757-14dd-424e-9250-3f322563e069","ios":"levelo://app?vid=f94c0757-14dd-424e-9250-3f322563e069"},"vehicle_type_id":"4","last_reported":1703077581,"current_range_meters":18000,"station_id":"","pricing_plan_id":"free"},{"bike_id":"1cf7a822-2196-4dcd-93b0-c8d30b6277ac","system_id":"levelo_inurba_marseille","lat":43.295523,"lon":5.422926,"is_reserved":false,"is_disabled":false,"rental_uris":{"android":"levelo://app?vid=1cf7a822-2196-4dcd-93b0-c8d30b6277ac","ios":"levelo://app?vid=1cf7a822-2196-4dcd-93b0-c8d30b6277ac"},"vehicle_type_id":"4","last_reported":1703077581,"current_range_meters":3200,"station_id":"ce4bhph2rcd13ifvqhdg","pricing_plan_id":"free"},{"bike_id":"4b024186-44c5-4e5f-802f-63528bdb82e2","system_id":"levelo_inurba_marseille","lat":43.295511,"lon":5.422926,"is_reserved":false,"is_disabled":false,"rental_uris":{"android":"levelo://app?vid=4b024186-44c5-4e5f-802f-63528bdb82e2","ios":"levelo://app?vid=4b024186-44c5-4e5f-802f-63528bdb82e2"},"vehicle_type_id":"4","last_reported":1703077581,"current_range_meters":13600,"station_id":"ce4bhph2rcd13ifvqhdg","pricing_plan_id":"free"},{"bike_id":"22e3e3a8-e509-49c1-9da1-f8500d4ff2f0","system_id":"levelo_inurba_marseille","lat":43.278128,"lon":5.407195,"is_reserved":false,"is_disabled":false,"rental_uris":{"android":"levelo://app?vid=22e3e3a8-e509-49c1-9da1-f8500d4ff2f0","ios":"levelo://app?vid=22e3e3a8-e509-49c1-9da1-f8500d4ff2f0"},"vehicle_type_id":"4","last_reported":1703077581,"current_range_meters":31600,"station_id":"ce4bhnh2rcd13ifvqgtg","pricing_plan_id":"free"},{"bike_id":"4738b81e-a620-4ba6-abbc-4ed198113470","system_id":"levelo_inurba_marseille","lat":43.269467,"lon":5.386439,"is_reserved":false,"is_disabled":false,"rental_uris":{"android":"levelo://app?vid=4738b81e-a620-4ba6-abbc-4ed198113470","ios":"levelo://app?vid=4738b81e-a620-4ba6-abbc-4ed198113470"},"vehicle_type_id":"4","last_reported":1703077581,"current_range_meters":19600,"station_id":"ce4bhh92rcd13ifvqfh0","pricing_plan_id":"free"},{"bike_id":"cd5ead18-aa07-4193-883b-72c877dfbf41","system_id":"levelo_inurba_marseille","lat":43.269467,"lon":5.386439,"is_reserved":false,"is_disabled":false,"rental_uris":{"android":"levelo://app?vid=cd5ead18-aa07-4193-883b-72c877dfbf41","ios":"levelo://app?vid=cd5ead18-aa07-4193-883b-72c877dfbf41"},"vehicle_type_id":"4","last_reported":1703077581,"current_range_meters":28400,"station_id":"ce4bhh92rcd13ifvqfh0","pricing_plan_id":"free"},{"bike_id":"79da8f6a-e653-4122-88f2-d8083c898786","system_id":"levelo_inurba_marseille","lat":43.26681,"lon":5.382694,"is_reserved":false,"is_disabled":false,"rental_uris":{"android":"levelo://app?vid=79da8f6a-e653-4122-88f2-d8083c898786","ios":"levelo://app?vid=79da8f6a-e653-4122-88f2-d8083c898786"},"vehicle_type_id":"4","last_reported":1703077581,"current_range_meters":24800,"station_id":"ce4bhg92rcd13ifvqf90","pricing_plan_id":"free"},{"bike_id":"13c19234-02b4-4990-a13d-9001ea971590","system_id":"levelo_inurba_marseille","lat":43.26681,"lon":5.382694,"is_reserved":false,"is_disabled":false,"rental_uris":{"android":"levelo://app?vid=13c19234-02b4-4990-a13d-9001ea971590","ios":"levelo://app?vid=13c19234-02b4-4990-a13d-9001ea971590"},"vehicle_type_id":"4","last_reported":1703077581,"current_range_meters":16800,"station_id":"ce4bhg92rcd13ifvqf90","pricing_plan_id":"free"},{"bike_id":"d3bdeec8-1d1f-4c67-ab71-b3a81fab050e","system_id":"levelo_inurba_marseille","lat":43.265714,"lon":5.372891,"is_reserved":false,"is_disabled":false,"rental_uris":{"android":"levelo://app?vid=d3bdeec8-1d1f-4c67-ab71-b3a81fab050e","ios":"levelo://app?vid=d3bdeec8-1d1f-4c67-ab71-b3a81fab050e"},"vehicle_type_id":"4","last_reported":1703077581,"current_range_meters":12800,"station_id":"ce4bhg12rcd13ifvqf70","pricing_plan_id":"free"},{"bike_id":"3c0ee6da-11e5-4f6b-a6a4-520e2a70a8e0","system_id":"levelo_inurba_marseille","lat":43.265714,"lon":5.372891,"is_reserved":false,"is_disabled":false,"rental_uris":{"android":"levelo://app?vid=3c0ee6da-11e5-4f6b-a6a4-520e2a70a8e0","ios":"levelo://app?vid=3c0ee6da-11e5-4f6b-a6a4-520e2a70a8e0"},"vehicle_type_id":"4","last_reported":1703077581,"current_range_meters":9200,"station_id":"ce4bhg12rcd13ifvqf70","pricing_plan_id":"free"},{"bike_id":"7ed7151e-4d56-4dcd-968c-ebc2821c7b91","system_id":"levelo_inurba_marseille","lat":43.27996,"lon":5.416624,"is_reserved":false,"is_disabled":false,"rental_uris":{"android":"levelo://app?vid=7ed7151e-4d56-4dcd-968c-ebc2821c7b91","ios":"levelo://app?vid=7ed7151e-4d56-4dcd-968c-ebc2821c7b91"},"vehicle_type_id":"4","last_reported":1703077581,"current_range_meters":6000,"station_id":"ce4bho12rcd13ifvqh1g","pricing_plan_id":"free"},{"bike_id":"9e6615a8-1e6d-47ad-a68c-3626d2bd7c8d","system_id":"levelo_inurba_marseille","lat":43.267966,"lon":5.393976,"is_reserved":false,"is_disabled":false,"rental_uris":{"android":"levelo://app?vid=9e6615a8-1e6d-47ad-a68c-3626d2bd7c8d","ios":"levelo://app?vid=9e6615a8-1e6d-47ad-a68c-3626d2bd7c8d"},"vehicle_type_id":"4","last_reported":1703077581,"current_range_meters":26800,"station_id":"ce4bhh12rcd13ifvqfg0","pricing_plan_id":"free"},{"bike_id":"698162d1-43ba-4d61-9188-100e17274b9d","system_id":"levelo_inurba_marseille","lat":43.267966,"lon":5.393976,"is_reserved":false,"is_disabled":false,"rental_uris":{"android":"levelo://app?vid=698162d1-43ba-4d61-9188-100e17274b9d","ios":"levelo://app?vid=698162d1-43ba-4d61-9188-100e17274b9d"},"vehicle_type_id":"4","last_reported":1703077581,"current_range_meters":29200,"station_id":"ce4bhh12rcd13ifvqfg0","pricing_plan_id":"free"},{"bike_id":"6876a666-a3d1-4e2a-a240-b5b1ce17cc9a","system_id":"levelo_inurba_marseille","lat":43.267966,"lon":5.393976,"is_reserved":false,"is_disabled":false,"rental_uris":{"android":"levelo://app?vid=6876a666-a3d1-4e2a-a240-b5b1ce17cc9a","ios":"levelo://app?vid=6876a666-a3d1-4e2a-a240-b5b1ce17cc9a"},"vehicle_type_id":"4","last_reported":1703077581,"current_range_meters":0,"station_id":"ce4bhh12rcd13ifvqfg0","pricing_plan_id":"free"},{"bike_id":"26370ebe-9690-4043-bd94-cea9a9659bab","system_id":"levelo_inurba_marseille","lat":43.267966,"lon":5.393976,"is_reserved":false,"is_disabled":false,"rental_uris":{"android":"levelo://app?vid=26370ebe-9690-4043-bd94-cea9a9659bab","ios":"levelo://app?vid=26370ebe-9690-4043-bd94-cea9a9659bab"},"vehicle_type_id":"4","last_reported":1703077581,"current_range_meters":7200,"station_id":"ce4bhh12rcd13ifvqfg0","pricing_plan_id":"free"},{"bike_id":"aee58545-1074-462e-bac4-78e58b3851b8","system_id":"levelo_inurba_marseille","lat":43.308051,"lon":5.43527,"is_reserved":false,"is_disabled":false,"rental_uris":{"android":"levelo://app?vid=aee58545-1074-462e-bac4-78e58b3851b8","ios":"levelo://app?vid=aee58545-1074-462e-bac4-78e58b3851b8"},"vehicle_type_id":"4","last_reported":1703077581,"current_range_meters":30800,"station_id":"ce4bhph2rcd13ifvqheg","pricing_plan_id":"free"},{"bike_id":"19e43e6d-7a92-4255-8378-6d68e709d98f","system_id":"levelo_inurba_marseille","lat":43.265569,"lon":5.390047,"is_reserved":false,"is_disabled":false,"rental_uris":{"android":"levelo://app?vid=19e43e6d-7a92-4255-8378-6d68e709d98f","ios":"levelo://app?vid=19e43e6d-7a92-4255-8378-6d68e709d98f"},"vehicle_type_id":"4","last_reported":1703077581,"current_range_meters":13200,"station_id":"ce4bhe12rcd13ifvqf30","pricing_plan_id":"free"},{"bike_id":"909ec5b3-d2fa-4683-bbe1-6437e32d9100","system_id":"levelo_inurba_marseille","lat":43.261782,"lon":5.374515,"is_reserved":false,"is_disabled":false,"rental_uris":{"android":"levelo://app?vid=909ec5b3-d2fa-4683-bbe1-6437e32d9100","ios":"levelo://app?vid=909ec5b3-d2fa-4683-bbe1-6437e32d9100"},"vehicle_type_id":"4","last_reported":1703077581,"current_range_meters":22400,"station_id":"ce4bhgp2rcd13ifvqfc0","pricing_plan_id":"free"},