{"last_updated":1701533271,"ttl":30,"version":"2.2","data":{"bikes":[{"bike_id":"7bae870a-85b8-48ab-8a09-94353e0afd80","system_id":"levelo_inurba_marseille","lat":43.312239,"lon":5.368562,"is_reserved":false,"is_disabled":false,"rental_uris":{"android":"levelo://app?vid=7bae870a-85b8-48ab-8a09-94353e0afd80","ios":"levelo://app?vid=7bae870a-85b8-48ab-8a09-94353e0afd80"},"vehicle_type_id":"4","last_reported":1701533271,"current_range_meters":4800,"station_id":"ce4bgl92rcd13ifvqbq0","pricing_plan_id":"free"},{"bike_id":"86230556-d574-49e5-bbd1-99130cf824ac","system_id":"levelo_inurba_marseille","lat":43.312239,"lon":5.368562,"is_reserved":false,"is_disabled":false,"rental_uris":{"android":"levelo://app?vid=86230556-d574-49e5-bbd1-99130cf824ac","ios":"levelo://app?vid=86230556-d574-49e5-bbd1-99130cf824ac"},"vehicle_type_id":"4","last_reported":1701533271,"current_range_meters":12400,"station_id":"ce4bgl92rcd13ifvqbq0","pricing_plan_id":"free"},{"bike_id":"b32d67e5-b2e5-47ce-b91f-0fbc061173cf","system_id":"levelo_inurba_marseille","lat":43.312239,"lon":5.368562,"is_reserved":false,"is_disabled":false,"rental_uris":{"android":"levelo://app?vid=b32d67e5-b2e5-47ce-b91f-0fbc061173cf","ios":"levelo://app?vid=b32d67e5-b2e5-47ce-b91f-0fbc061173cf"},"vehicle_type_id":"4","last_reported":1701533271,"current_range_meters":17200,"station_id":"ce4bgl92rcd13ifvqbq0","pricing_plan_id":"free"},{"bike_id":"ab1a45bc-5c86-4dc9-86c5-b3cdd9eb5b1a","system_id":"levelo_inurba_marseille","lat":43.3154,"lon":5.36999,"is_reserved":false,"is_disabled":false,"rental_uris":{"android":"levelo://app?vid=ab1a45bc-5c86-4dc9-86c5-b3cdd9eb5b1a","ios":"levelo://app?vid=ab1a45bc-5c86-4dc9-86c5-b3cdd9eb5b1a"},"vehicle_type_id":"4","last_reported":1701533271,"current_range_meters":0,"station_id":"","pricing_plan_id":"free"},{"bike_id":"cb12f4b8-270a-4354-8cd4-c5bda755e939","system_id":"levelo_inurba_marseille","lat":43.309076,"lon":5.368465,"is_reserved":false,"is_disabled":false,"rental_uris":{"android":"levelo://app?vid=cb12f4b8-270a-4354-8cd4-c5bda755e939","ios":"levelo://app?vid=cb12f4b8-270a-4354-8cd4-c5bda755e939"},"vehicle_type_id":"4","last_reported":1701533271,"current_range_meters":0,"station_id":"ce4bgn92rcd13ifvqbvg","pricing_plan_id":"free"},{"bike_id":"1af889a2-7512-4716-bfac-0e5c3103097c","system_id":"levelo_inurba_marseille","lat":43.315,"lon":5.37312,"is_reserved":false,"is_disabled":false,"rental_uris":{"android":"levelo://app?vid=1af889a2-7512-4716-bfac-0e5c3103097c","ios":"levelo://app?vid=1af889a2-7512-4716-bfac-0e5c3103097c"},"vehicle_type_id":"4","last_reported":1701533271,"current_range_meters":0,"station_id":"ce4bgt12rcd13ifvqcd0","pricing_plan_id":"free"},{"bike_id":"68536a09-a82a-4bcd-95be-37e35bff44e0","system_id":"levelo_inurba_marseille","lat":43.305712,"lon":5.365641,"is_reserved":false,"is_disabled":false,"rental_uris":{"android":"levelo://app?vid=68536a09-a82a-4bcd-95be-37e35bff44e0","ios":"levelo://app?vid=68536a09-a82a-4bcd-95be-37e35bff44e0"},"vehicle_type_id":"4","last_reported":1701533271,"current_range_meters":8400,"station_id":"ce4bgs12rcd13ifvqcag","pricing_plan_id":"free"},{"bike_id":"c1c8d076-eb0f-4d03-b164-081841dff200","system_id":"levelo_inurba_marseille","lat":43.30553,"lon":5.367053,"is_reserved":false,"is_disabled":false,"rental_uris":{"android":"levelo://app?vid=c1c8d076-eb0f-4d03-b164-081841dff200","ios":"levelo://app?vid=c1c8d076-eb0f-4d03-b164-081841dff200"},"vehicle_type_id":"4","last_reported":1701533271,"current_range_meters":6800,"station_id":"ce4bgrp2rcd13ifvqc9g","pricing_plan_id":"free"},{"bike_id":"1a7e8dd4-24e5-420b-ac73-7aa9974016a6","system_id":"levelo_inurba_marseille","lat":43.305714,"lon":5.365633,"is_reserved":false,"is_disabled":false,"rental_uris":{"android":"levelo://app?vid=1a7e8dd4-24e5-420b-ac73-7aa9974016a6","ios":"levelo://app?vid=1a7e8dd4-24e5-420b-ac73-7aa9974016a6"},"vehicle_type_id":"4","last_reported":1701533271,"current_range_meters":6400,"station_id":"ce4bgs12rcd13ifvqcag","pricing_plan_id":"free"},{"bike_id":"24daa5ef-bc81-4706-b3c6-4845adb08404","system_id":"levelo_inurba_marseille","lat":43.30541,"lon":5.36546,"is_reserved":false,"is_disabled":false,"rental_uris":{"android":"levelo://app?vid=24daa5ef-bc81-4706-b3c6-4845adb08404","ios":"levelo://app?vid=24daa5ef-bc81-4706-b3c6-4845adb08404"},"vehicle_type_id":"4","last_reported":1701533271,"current_range_meters":25200,"station_id":"ce4bgs12rcd13ifvqcag","pricing_plan_id":"free"},{"bike_id":"60f589fc-c09e-43bd-bd7f-32123489b9a0","system_id":"levelo_inurba_marseille","lat":43.305706,"lon":5.365654,"is_reserved":false,"is_disabled":false,"rental_uris":{"android":"levelo://app?vid=60f589fc-c09e-43bd-bd7f-32123489b9a0","ios":"levelo://app?vid=60f589fc-c09e-43bd-bd7f-32123489b9a0"},"vehicle_type_id":"4","last_reported":1701533271,"current_range_meters":20800,"station_id":"ce4bgs12rcd13ifvqcag","pricing_plan_id":"free"},{"bike_id":"1162c0d6-bd2c-4c63-8e39-01242955092b","system_id":"levelo_inurba_marseille","lat":43.305989,"lon":5.37225,"is_reserved":false,"is_disabled":false,"rental_uris":{"android":"levelo://app?vid=1162c0d6-bd2c-4c63-8e39-01242955092b","ios":"levelo://app?vid=1162c0d6-bd2c-4c63-8e39-01242955092b"},"vehicle_type_id":"4","last_reported":1701533271,"current_range_meters":22000,"station_id":"ce4bgqh2rcd13ifvqc4g","pricing_plan_id":"free"},{"bike_id":"f5805da5-bea4-4d85-9dcc-64d0ef5b2365","system_id":"levelo_inurba_marseille","lat":43.305989,"lon":5.37225,"is_reserved":false,"is_disabled":false,"rental_uris":{"android":"levelo://app?vid=f5805da5-bea4-4d85-9dcc-64d0ef5b2365","ios":"levelo://app?vid=f5805da5-bea4-4d85-9dcc-64d0ef5b2365"},"vehicle_type_id":"4","last_reported":1701533271,"current_range_meters":25600,"station_id":"ce4bgqh2rcd13ifvqc4g","pricing_plan_id":"free"},{"bike_id":"cfd3bb51-5657-4943-be4a-4ca2f802bb01","system_id":"levelo_inurba_marseille","lat":43.308157,"lon":5.376608,"is_reserved":false,"is_disabled":false,"rental_uris":{"android":"levelo://app?vid=cfd3bb51-5657-4943-be4a-4ca2f802bb01","ios":"levelo://app?vid=cfd3bb51-5657-4943-be4a-4ca2f802bb01"},"vehicle_type_id":"4","last_reported":1701533271,"current_range_meters":10000,"station_id":"ce4bgv92rcd13ifvqcq0","pricing_plan_id":"free"},{"bike_id":"f427a2c3-6e4a-446b-ae2f-9be8aa7f4122","system_id":"levelo_inurba_marseille","lat":43.31719,"lon":5.376813,"is_reserved":false,"is_disabled":false,"rental_uris":{"android":"levelo://app?vid=f427a2c3-6e4a-446b-ae2f-9be8aa7f4122","ios":"levelo://app?vid=f427a2c3-6e4a-446b-ae2f-9be8aa7f4122"},"vehicle_type_id":"4","last_reported":1701533271,"current_range_meters":0,"station_id":"","pricing_plan_id":"free"},{"bike_id":"e913f328-1e31-4c22-bd87-f809ea246de4","system_id":"levelo_inurba_marseille","lat":43.317168,"lon":5.376883,"is_reserved":false,"is_disabled":false,"rental_uris":{"android":"levelo://app?vid=e913f328-1e31-4c22-bd87-f809ea246de4","ios":"levelo://app?vid=e913f328-1e31-4c22-bd87-f809ea246de4"},"vehicle_type_id":"4","last_reported":1701533271,"current_range_meters":0,"station_id":"","pricing_plan_id":"free"},{"bike_id":"80f94ef1-767f-496d-ada1-3fde4a38ce65","system_id":"levelo_inurba_marseille","lat":43.317075,"lon":5.377367,"is_reserved":false,"is_disabled":false,"rental_uris":{"android":"levelo://app?vid=80f94ef1-767f-496d-ada1-3fde4a38ce65","ios":"levelo://app?vid=80f94ef1-767f-496d-ada1-3fde4a38ce65"},"vehicle_type_id":"4","last_reported":1701533271,"current_range_meters":9200,"station_id":"ce4bgth2rcd13ifvqch0","pricing_plan_id":"free"},{"bike_id":"910fd3aa-d2e0-4553-894a-6161d41c7fcd","system_id":"levelo_inurba_marseille","lat":43.30536,"lon":5.37309,"is_reserved":false,"is_disabled":false,"rental_uris":{"android":"levelo://app?vid=910fd3aa-d2e0-4553-894a-6161d41c7fcd","ios":"levelo://app?vid=910fd3aa-d2e0-4553-894a-6161d41c7fcd"},"vehicle_type_id":"4","last_reported":1701533271,"current_range_meters":25600,"station_id":"","pricing_plan_id":"free"},{"bike_id":"fb6fd937-527b-4585-9058-0dfdc6436ac8","system_id":"levelo_inurba_marseille","lat":43.31351,"lon":5.37909,"is_reserved":false,"is_disabled":false,"rental_uris":{"android":"levelo://app?vid=fb6fd937-527b-4585-9058-0dfdc6436ac8","ios":"levelo://app?vid=fb6fd937-527b-4585-9058-0dfdc6436ac8"},"vehicle_type_id":"4","last_reported":1701533271,"current_range_meters":21200,"station_id":"","pricing_plan_id":"free"},{"bike_id":"785abf48-8eb8-4a0f-b3a9-dadcc96f2e97","system_id":"levelo_inurba_marseille","lat":43.301939,"lon":5.366286,"is_reserved":false,"is_disabled":false,"rental_uris":{"android":"levelo://app?vid=785abf48-8eb8-4a0f-b3a9-dadcc96f2e97","ios":"levelo://app?vid=785abf48-8eb8-4a0f-b3a9-dadcc96f2e97"},"vehicle_type_id":"4","last_reported":1701533271,"current_range_meters":24800,"station_id":"ce4bgrh2rcd13ifvqc8g","pricing_plan_id":"free"},{"bike_id":"1c2d9ee4-8784-4b29-b7c6-88b68bec751f","system_id":"levelo_inurba_marseille","lat":43.31021,"lon":5.38152,"is_reserved":false,"is_disabled":false,"rental_uris":{"android":"levelo://app?vid=1c2d9ee4-8784-4b29-b7c6-88b68bec751f","ios":"levelo://app?vid=1c2d9ee4-8784-4b29-b7c6-88b68bec751f"},"vehicle_type_id":"4","last_reported":1701533271,"current_range_meters":31200,"station_id":"","pricing_plan_id":"free"},{"bike_id":"9e69d542-96f9-4893-ae1a-d13d97fb2616","system_id":"levelo_inurba_marseille","lat":43.301939,"lon":5.366286,"is_reserved":false,"is_disabled":false,"rental_uris":{"android":"levelo://app?vid=9e69d542-96f9-4893-ae1a-d13d97fb2616","ios":"levelo://app?vid=9e69d542-96f9-4893-ae1a-d13d97fb2616"},"vehicle_type_id":"4","last_reported":1701533271,"current_range_meters":0,"station_id":"ce4bgrh2rcd13ifvqc8g","pricing_plan_id":"free"},{"bike_id":"ce669172-a6fc-4371-ad3d-f3dc9c207572","system_id":"levelo_inurba_marseille","lat":43.301939,"lon":5.366286,"is_reserved":false,"is_disabled":false,"rental_uris":{"android":"levelo://app?vid=ce669172-a6fc-4371-ad3d-f3dc9c207572","ios":"levelo://app?vid=ce669172-a6fc-4371-ad3d-f3dc9c207572"},"vehicle_type_id":"4","last_reported":1701533271,"current_range_meters":20800,"station_id":"ce4bgrh2rcd13ifvqc8g","pricing_plan_id":"free"},{"bike_id":"0c37dd1e-10fb-4568-b561-5a18393768b1","system_id":"levelo_inurba_marseille","lat":43.304606,"lon":5.379026,"is_reserved":false,"is_disabled":false,"rental_uris":{"android":"levelo://app?vid=0c37dd1e-10fb-4568-b561-5a18393768b1","ios":"levelo://app?vid=0c37dd1e-10fb-4568-b561-5a18393768b1"},"vehicle_type_id":"4","last_reported":1701533271,"current_range_meters":11600,"station_id":"ce4bgup2rcd13ifvqcn0","pricing_plan_id":"free"},{"bike_id":"2903100b-b979-444f-837c-90952222a1f9","system_id":"levelo_inurba_marseille","lat":43.304606,"lon":5.379026,"is_reserved":false,"is_disabled":false,"rental_uris":{"android":"levelo://app?vid=2903100b-b979-444f-837c-90952222a1f9","ios":"levelo://app?vid=2903100b-b979-444f-837c-90952222a1f9"},"vehicle_type_id":"4","last_reported":1701533271,"current_range_meters":25200,"station_id":"ce4bgup2rcd13ifvqcn0","pricing_plan_id":"free"},{"bike_id":"34ef20b1-7581-4495-86fa-691a4ff89b9b","system_id":"levelo_inurba_marseille","lat":43.30456,"lon":5.379,"is_reserved":false,"is_disabled":false,"rental_uris":{"android":"levelo://app?vid=34ef20b1-7581-4495-86fa-691a4ff89b9b","ios":"levelo://app?vid=34ef20b1-7581-4495-86fa-691a4ff89b9b"},"vehicle_type_id":"4","last_reported":1701533271,"current_range_meters":800,"station_id":"ce4bgup2rcd13ifvqcn0","pricing_plan_id":"free"},{"bike_id":"8c6725c5-5ff6-4a6a-9768-66e32939cf43","system_id":"levelo_inurba_marseille","lat":43.32482,"lon":5.36569,"is_reserved":false,"is_disabled":false,"rental_uris":{"android":"levelo://app?vid=8c6725c5-5ff6-4a6a-9768-66e32939cf43","ios":"levelo://app?vid=8c6725c5-5ff6-4a6a-9768-66e32939cf43"},"vehicle_type_id":"4","last_reported":1701533271,"current_range_meters":26000,"station_id":"ce4bhs12rcd13ifvqhvg","pricing_plan_id":"free"},{"bike_id":"e56c4c03-d6ac-416d-8380-bbaf7fb49559","system_id":"levelo_inurba_marseille","lat":43.324834,"lon":5.365558,"is_reserved":false,"is_disabled":false,"rental_uris":{"android":"levelo://app?vid=e56c4c03-d6ac-416d-8380-bbaf7fb49559","ios":"levelo://app?vid=e56c4c03-d6ac-416d-8380-bbaf7fb49559"},"vehicle_type_id":"4","last_reported":1701533271,"current_range_meters":2000,"station_id":"ce4bhs12rcd13ifvqhvg","pricing_plan_id":"free"},{"bike_id":"bc8eac31-4b5b-48b3-aa99-5c3fdd18d82e","system_id":"levelo_inurba_marseille","lat":43.324771,"lon":5.36557,"is_reserved":false,"is_disabled":false,"rental_uris":{"android":"levelo://app?vid=bc8eac31-4b5b-48b3-aa99-5c3fdd18d82e","ios":"levelo://app?vid=bc8eac31-4b5b-48b3-aa99-5c3fdd18d82e"},"vehicle_type_id":"4","last_reported":1701533271,"current_range_meters":18400,"station_id":"ce4bhs12rcd13ifvqhvg","pricing_plan_id":"free"},{"bike_id":"c220c9eb-a209-4396-b6c2-45d934af8198","system_id":"levelo_inurba_marseille","lat":43.30143,"lon":5.37413,"is_reserved":false,"is_disabled":false,"rental_uris":{"android":"levelo://app?vid=c220c9eb-a209-4396-b6c2-45d934af8198","ios":"levelo://app?vid=c220c9eb-a209-4396-b6c2-45d934af8198"},"vehicle_type_id":"4","last_reported":1701533271,"current_range_meters":31200,"station_id":"ce4bgs92rcd13ifvqcc0","pricing_plan_id":"free"},{"bike_id":"2275aca5-3158-4c2c-8022-ca5d2714bc86","system_id":"levelo_inurba_marseille","lat":43.319997,"lon":5.381594,"is_reserved":false,"is_disabled":false,"rental_uris":{"android":"levelo://app?vid=2275aca5-3158-4c2c-8022-ca5d2714bc86","ios":"levelo://app?vid=2275aca5-3158-4c2c-8022-ca5d2714bc86"},"vehicle_type_id":"4","last_reported":1701533271,"current_range_meters":14800,"station_id":"ce4bhr12rcd13ifvqhpg","pricing_plan_id":"free"},{"bike_id":"7f15fa98-4fd6-4e24-9803-c2d688f4a999","system_id":"levelo_inurba_marseille","lat":43.299724,"lon":5.371829,"is_reserved":false,"is_disabled":false,"rental_uris":{"android":"levelo://app?vid=7f15fa98-4fd6-4e24-9803-c2d688f4a999","ios":"levelo://app?vid=7f15fa98-4fd6-4e24-9803-c2d688f4a999"},"vehicle_type_id":"4","last_reported":1701533271,"current_range_meters":22400,"station_id":"ce4bgr92rcd13ifvqc7g","pricing_plan_id":"free"},{"bike_id":"9fdb7f97-586d-42d2-befd-15216ba2e422","system_id":"levelo_inurba_marseille","lat":43.31183,"lon":5.38523,"is_reserved":false,"is_disabled":false,"rental_uris":{"android":"levelo://app?vid=9fdb7f97-586d-42d2-befd-15216ba2e422","ios":"levelo://app?vid=9fdb7f97-586d-42d2-befd-15216ba2e422"},"vehicle_type_id":"4","last_reported":1701533271,"current_range_meters":800,"station_id":"","pricing_plan_id":"free"},{"bike_id":"88007df5-d705-47b5-b449-7b77ed47380e","system_id":"levelo_inurba_marseille","lat":43.29932,"lon":5.36557,"is_reserved":false,"is_disabled":false,"rental_uris":{"android":"levelo://app?vid=88007df5-d705-47b5-b449-7b77ed47380e","ios":"levelo://app?vid=88007df5-d705-47b5-b449-7b77ed47380e"},"vehicle_type_id":"4","last_reported":1701533271,"current_range_meters":24800,"station_id":"ce4bgm92rcd13ifvqbr0","pricing_plan_id":"free"},{"bike_id":"748d12ab-8e09-4ecd-b2d2-cbe0ea9624f6","system_id":"levelo_inurba_marseille","lat":43.29891,"lon":5.367429,"is_reserved":false,"is_disabled":false,"rental_uris":{"android":"levelo://app?vid=748d12ab-8e09-4ecd-b2d2-cbe0ea9624f6","ios":"levelo://app?vid=748d12ab-8e09-4ecd-b2d2-cbe0ea9624f6"},"vehicle_type_id":"4","last_reported":1701533271,"current_range_meters":5600,"station_id":"","pricing_plan_id":"free"},{"bike_id":"afeab52e-b50d-43da-af4b-882e54b22f6f","system_id":"levelo_inurba_marseille","lat":43.298433,"lon":5.362774,"is_reserved":false,"is_disabled":false,"rental_uris":{"android":"levelo://app?vid=afeab52e-b50d-43da-af4b-882e54b22f6f","ios":"levelo://app?vid=afeab52e-b50d-43da-af4b-882e54b22f6f"},"vehicle_type_id":"4","last_reported":1701533271,"current_range_meters":1600,"station_id":"ce4bgpp2rcd13ifvqc3g","pricing_plan_id":"free"},{"bike_id":"d4bc959c-3f22-44c7-ad3b-671b5895dc95","system_id":"levelo_inurba_marseille","lat":43.298433,"lon":5.362774,"is_reserved":false,"is_disabled":false,"rental_uris":{"android":"levelo://app?vid=d4bc959c-3f22-44c7-ad3b-671b5895dc95","ios":"levelo://app?vid=d4bc959c-3f22-44c7-ad3b-671b5895dc95"},"vehicle_type_id":"4","last_reported":1701533271,"current_range_meters":4800,"station_id":"ce4bgpp2rcd13ifvqc3g","pricing_plan_id":"free"},{"bike_id":"fdc8ffef-3cc2-43ca-b007-2ad572da373b","system_id":"levelo_inurba_marseille","lat":43.305364,"lon":5.384119,"is_reserved":false,"is_disabled":false,"rental_uris":{"android":"levelo://app?vid=fdc8ffef-3cc2-43ca-b007-2ad572da373b","ios":"levelo://app?vid=fdc8ffef-3cc2-43ca-b007-2ad572da373b"},"vehicle_type_id":"4","last_reported":1701533271,"current_range_meters":19200,"station_id":"ce4bgg92rcd13ifvqb30","pricing_plan_id":"free"},{"bike_id":"fd1f1229-18d8-4493-a2bd-dd724cf4d50b","system_id":"levelo_inurba_marseille","lat":43.298433,"lon":5.362774,"is_reserved":false,"is_disabled":false,"rental_uris":{"android":"levelo://app?vid=fd1f1229-18d8-4493-a2bd-dd724cf4d50b","ios":"levelo://app?vid=fd1f1229-18d8-4493-a2bd-dd724cf4d50b"},"vehicle_type_id":"4","last_reported":1701533271,"current_range_meters":2800,"station_id":"ce4bgpp2rcd13ifvqc3g","pricing_plan_id":"free"},{"bike_id":"b6bdb944-db60-4c51-a6aa-73b32e993db1","system_id":"levelo_inurba_marseille","lat":43.297794,"lon":5.370888,"is_reserved":false,"is_disabled":false,"rental_uris":{"android":"levelo://app?vid=b6bdb944-db60-4c51-a6aa-73b32e993db1","ios":"levelo://app?vid=b6bdb944-db60-4c51-a6aa-73b32e993db1"},"vehicle_type_id":"4","last_reported":1701533271,"current_range_meters":23200,"station_id":"ce4bgop2rcd13ifvqc1g","pricing_plan_id":"free"},{"bike_id":"8d7cbc3a-dc89-4ffe-af66-a05dd6e38785","system_id":"levelo_inurba_marseille","lat":43.322872,"lon":5.382756,"is_reserved":false,"is_disabled":false,"rental_uris":{"android":"levelo://app?vid=8d7cbc3a-dc89-4ffe-af66-a05dd6e38785","ios":"levelo://app?vid=8d7cbc3a-dc89-4ffe-af66-a05dd6e38785"},"vehicle_type_id":"4","last_reported":1701533271,"current_range_meters":30800,"station_id":"ce4bhr12rcd13ifvqhqg","pricing_plan_id":"free"},{"bike_id":"c0284961-478e-4ccd-b43e-321d6e4c5580","system_id":"levelo_inurba_marseille","lat":43.328306,"lon":5.366822,"is_reserved":false,"is_disabled":false,"rental_uris":{"android":"levelo://app?vid=c0284961-478e-4ccd-b43e-321d6e4c5580","ios":"levelo://app?vid=c0284961-478e-4ccd-b43e-321d6e4c5580"},"vehicle_type_id":"4","last_reported":1701533271,"current_range_meters":2800,"station_id":"ce4bhs92rcd13ifvqi0g","pricing_plan_id":"free"},{"bike_id":"5c26bdfb-7b7c-43fb-8a01-250128a1a6f8","system_id":"levelo_inurba_marseille","lat":43.32832,"lon":5.36679,"is_reserved":false,"is_disabled":false,"rental_uris":{"android":"levelo://app?vid=5c26bdfb-7b7c-43fb-8a01-250128a1a6f8","ios":"levelo://app?vid=5c26bdfb-7b7c-43fb-8a01-250128a1a6f8"},"vehicle_type_id":"4","last_reported":1701533271,"current_range_meters":20800,"station_id":"ce4bhs92rcd13ifvqi0g","pricing_plan_id":"free"},{"bike_id":"3c6eacad-63e8-42f7-9988-09cf64b64dd8","system_id":"levelo_inurba_marseille","lat":43.32832,"lon":5.36678,"is_reserved":false,"is_disabled":false,"rental_uris":{"android":"levelo://app?vid=3c6eacad-63e8-42f7-9988-09cf64b64dd8","ios":"levelo://app?vid=3c6eacad-63e8-42f7-9988-09cf64b64dd8"},"vehicle_type_id":"4","last_reported":1701533271,"current_range_meters":7200,"station_id":"ce4bhs92rcd13ifvqi0g","pricing_plan_id":"free"},{"bike_id":"09da9c9d-034a-473c-8a19-0301f9290c30","system_id":"levelo_inurba_marseille","lat":43.297163,"lon":5.365866,"is_reserved":false,"is_disabled":false,"rental_uris":{"android":"levelo://app?vid=09da9c9d-034a-473c-8a19-0301f9290c30","ios":"levelo://app?vid=09da9c9d-034a-473c-8a19-0301f9290c30"},"vehicle_type_id":"4","last_reported":1701533271,"current_range_meters":0,"station_id":"ce4bgn12rcd13ifvqbt0","pricing_plan_id":"free"},{"bike_id":"863e68e6-f678-4404-9035-1f0c001016cb","system_id":"levelo_inurba_marseille","lat":43.32882,"lon":5.36192,"is_reserved":false,"is_disabled":false,"rental_uris":{"android":"levelo://app?vid=863e68e6-f678-4404-9035-1f0c001016cb","ios":"levelo://app?vid=863e68e6-f678-4404-9035-1f0c001016cb"},"vehicle_type_id":"4","last_reported":1701533271,"current_range_meters":18800,"station_id":"","pricing_plan_id":"free"},{"bike_id":"eaa0e7e7-2390-47fa-909b-7b240952cbef","system_id":"levelo_inurba_marseille","lat":43.31653,"lon":5.38961,"is_reserved":false,"is_disabled":false,"rental_uris":{"android":"levelo://app?vid=eaa0e7e7-2390-47fa-909b-7b240952cbef","ios":"levelo://app?vid=eaa0e7e7-2390-47fa-909b-7b240952cbef"},"vehicle_type_id":"4","last_reported":1701533271,"current_range_meters":16800,"station_id":"","pricing_plan_id":"free"},{"bike_id":"be9bbced-71de-44f0-beba-4d9c1d231067","system_id":"levelo_inurba_marseille","lat":43.296935,"lon":5.376544,"is_reserved":false,"is_disabled":false,"rental_uris":{"android":"levelo://app?vid=be9bbced-71de-44f0-beba-4d9c1d231067","ios":"levelo://app?vid=be9bbced-71de-44f0-beba-4d9c1d231067"},"vehicle_type_id":"4","last_reported":1701533271,"current_range_meters":0,"station_id":"ce4bgkh2rcd13ifvqbl0","pricing_plan_id":"free"},{"bike_id":"ed86fb9a-ab27-4b36-8c3b-3ea1477404db","system_id":"levelo_inurba_marseille","lat":43.309589,"lon":5.390258,"is_reserved":false,"is_disabled":false,"rental_uris":{"android":"levelo://app?vid=ed86fb9a-ab27-4b36-8c3b-3ea1477404db","ios":"levelo://app?vid=ed86fb9a-ab27-4b36-8c3b-3ea1477404db"},"vehicle_type_id":"4","last_reported":1701533271,"current_range_meters":27200,"station_id":"ce4bgup2rcd13ifvqco0","pricing_plan_id":"free"},{"bike_id":"7da6fb70-0b35-4a24-90cc-7bbdb6361120","system_id":"levelo_inurba_marseille","lat":43.309589,"lon":5.390258,"is_reserved":false,"is_disabled":false,"rental_uris":{"android":"levelo://app?vid=7da6fb70-0b35-4a24-90cc-7bbdb6361120","ios":"levelo://app?vid=7da6fb70-0b35-4a24-90cc-7bbdb6361120"},"vehicle_type_id":"4","last_reported":1701533271,"current_range_meters":7600,"station_id":"ce4bgup2rcd13ifvqco0","pricing_plan_id":"free"},{"bike_id":"99bb4d70-a79f-4da8-8cc2-278500b05e0d","system_id":"levelo_inurba_marseille","lat":43.304278,"lon":5.388868,"is_reserved":false,"is_disabled":false,"rental_uris":{"android":"levelo://app?vid=99bb4d70-a79f-4da8-8cc2-278500b05e0d","ios":"levelo://app?vid=99bb4d70-a79f-4da8-8cc2-278500b05e0d"},"vehicle_type_id":"4","last_reported":1701533271,"current_range_meters":1200,"station_id":"ce4bgk12rcd13ifvqbi0","pricing_plan_id":"free"},{"bike_id":"10ca0545-4b67-44d4-97ae-28dd42aeb7f2","system_id":"levelo_inurba_marseille","lat":43.304278,"lon":5.388868,"is_reserved":false,"is_disabled":false,"rental_uris":{"android":"levelo://app?vid=10ca0545-4b67-44d4-97ae-28dd42aeb7f2","ios":"levelo://app?vid=10ca0545-4b67-44d4-97ae-28dd42aeb7f2"},"vehicle_type_id":"4","last_reported":1701533271,"current_range_meters":25600,"station_id":"ce4bgk12rcd13ifvqbi0","pricing_plan_id":"free"},{"bike_id":"96dc9346-d7ec-406d-a514-d9bbe42fe1ce","system_id":"levelo_inurba_marseille","lat":43.304274,"lon":5.388873,"is_reserved":false,"is_disabled":false,"rental_uris":{"android":"levelo://app?vid=96dc9346-d7ec-406d-a514-d9bbe42fe1ce","ios":"levelo://app?vid=96dc9346-d7ec-406d-a514-d9bbe42fe1ce"},"vehicle_type_id":"4","last_reported":1701533271,"current_range_meters":18000,"station_id":"ce4bgk12rcd13ifvqbi0","pricing_plan_id":"free"},{"bike_id":"c6a6fe8f-da55-4cdb-a9f3-9a5ee4a50cdb","system_id":"levelo_inurba_marseille","lat":43.293259,"lon":5.371586,"is_reserved":false,"is_disabled":false,"rental_uris":{"android":"levelo://app?vid=c6a6fe8f-da55-4cdb-a9f3-9a5ee4a50cdb","ios":"levelo://app?vid=c6a6fe8f-da55-4cdb-a9f3-9a5ee4a50cdb"},"vehicle_type_id":"4","last_reported":1701533271,"current_range_meters":8000,"station_id":"ce4bgh92rcd13ifvqb40","pricing_plan_id":"free"},{"bike_id":"e1bdea2a-1eb6-4663-a0fa-aa8480c66340","system_id":"levelo_inurba_marseille","lat":43.293249,"lon":5.371578,"is_reserved":false,"is_disabled":false,"rental_uris":{"android":"levelo://app?vid=e1bdea2a-1eb6-4663-a0fa-aa8480c66340","ios":"levelo://app?vid=e1bdea2a-1eb6-4663-a0fa-aa8480c66340"},"vehicle_type_id":"4","last_reported":1701533271,"current_range_meters":0,"station_id":"ce4bgh92rcd13ifvqb40","pricing_plan_id":"free"},{"bike_id":"b4e417d4-8d2f-4de0-96f5-a0e488dbafef","system_id":"levelo_inurba_marseille","lat":43.293259,"lon":5.371586,"is_reserved":false,"is_disabled":false,"rental_uris":{"android":"levelo://app?vid=b4e417d4-8d2f-4de0-96f5-a0e488dbafef","ios":"levelo://app?vid=b4e417d4-8d2f-4de0-96f5-a0e488dbafef"},"vehicle_type_id":"4","last_reported":1701533271,"current_range_meters":14000,"station_id":"ce4bgh92rcd13ifvqb40","pricing_plan_id":"free"},{"bike_id":"c93b02ac-797f-45d7-94e8-9618ad4b1cbc","system_id":"levelo_inurba_marseille","lat":43.292749,"lon":5.368402,"is_reserved":false,"is_disabled":false,"rental_uris":{"android":"levelo://app?vid=c93b02ac-797f-45d7-94e8-9618ad4b1cbc","ios":"levelo://app?vid=c93b02ac-797f-45d7-94e8-9618ad4b1cbc"},"vehicle_type_id":"4","last_reported":1701533271,"current_range_meters":0,"station_id":"ce4bhbp2rcd13ifvqesg","pricing_plan_id":"free"},{"bike_id":"74bec859-f3a5-463b-863d-022dadb0556e","system_id":"levelo_inurba_marseille","lat":43.29269,"lon":5.36842,"is_reserved":false,"is_disabled":false,"rental_uris":{"android":"levelo://app?vid=74bec859-f3a5-463b-863d-022dadb0556e","ios":"levelo://app?vid=74bec859-f3a5-463b-863d-022dadb0556e"},"vehicle_type_id":"4","last_reported":1701533271,"current_range_meters":0,"station_id":"ce4bhbp2rcd13ifvqesg","pricing_plan_id":"free"},{"bike_id":"8aa0158c-906f-4108-bd01-f3821598cecf","system_id":"levelo_inurba_marseille","lat":43.292663,"lon":5.376394,"is_reserved":false,"is_disabled":false,"rental_uris":{"android":"levelo://app?vid=8aa0158c-906f-4108-bd01-f3821598cecf","ios":"levelo://app?vid=8aa0158c-906f-4108-bd01-f3821598cecf"},"vehicle_type_id":"4","last_reported":1701533271,"current_range_meters":17200,"station_id":"ce4bgi12rcd13ifvqb80","pricing_plan_id":"free"},{"bike_id":"1480c094-176e-4c94-bf32-425943209478","system_id":"levelo_inurba_marseille","lat":43.298763,"lon":5.389037,"is_reserved":false,"is_disabled":false,"rental_uris":{"android":"levelo://app?vid=1480c094-176e-4c94-bf32-425943209478","ios":"levelo://app?vid=1480c094-176e-4c94-bf32-425943209478"},"vehicle_type_id":"4","last_reported":1701533271,"current_range_meters":31200,"station_id":"ce4bh392rcd13ifvqdl0","pricing_plan_id":"free"},{"bike_id":"2e8d03da-f9dd-4f7c-9d06-04a9b6052115","system_id":"levelo_inurba_marseille","lat":43.313291,"lon":5.396838,"is_reserved":false,"is_disabled":false,"rental_uris":{"android":"levelo://app?vid=2e8d03da-f9dd-4f7c-9d06-04a9b6052115","ios":"levelo://app?vid=2e8d03da-f9dd-4f7c-9d06-04a9b6052115"},"vehicle_type_id":"4","last_reported":1701533271,"current_range_meters":20400,"station_id":"ce4bgvp2rcd13ifvqcu0","pricing_plan_id":"free"},{"bike_id":"57661733-dac0-4b3d-8d7d-f56c49ffd7e5","system_id":"levelo_inurba_marseille","lat":43.309038,"lon":5.396546,"is_reserved":false,"is_disabled":false,"rental_uris":{"android":"levelo://app?vid=57661733-dac0-4b3d-8d7d-f56c49ffd7e5","ios":"levelo://app?vid=57661733-dac0-4b3d-8d7d-f56c49ffd7e5"},"vehicle_type_id":"4","last_reported":1701533271,"current_range_meters":8800,"station_id":"ce4bh012rcd13ifvqcv0","pricing_plan_id":"free"},{"bike_id":"a9acc292-c093-4ced-a2c1-b92abe28e014","system_id":"levelo_inurba_marseille","lat":43.290779,"lon":5.371482,"is_reserved":false,"is_disabled":false,"rental_uris":{"android":"levelo://app?vid=a9acc292-c093-4ced-a2c1-b92abe28e014","ios":"levelo://app?vid=a9acc292-c093-4ced-a2c1-b92abe28e014"},"vehicle_type_id":"4","last_reported":1701533271,"current_range_meters":19200,"station_id":"ce4bh5p2rcd13ifvqe4g","pricing_plan_id":"free"},{"bike_id":"3f0a94c6-7c93-4bdd-b802-e46b00db5015","system_id":"levelo_inurba_marseille","lat":43.290624,"lon":5.359245,"is_reserved":false,"is_disabled":false,"rental_uris":{"android":"levelo://app?vid=3f0a94c6-7c93-4bdd-b802-e46b00db5015","ios":"levelo://app?vid=3f0a94c6-7c93-4bdd-b802-e46b00db5015"},"vehicle_type_id":"4","last_reported":1701533271,"current_range_meters":2400,"station_id":"ce4bha92rcd13ifvqeg0","pricing_plan_id":"free"},{"bike_id":"8ed3ca95-2f7b-4d5a-bd42-8bf0ed0b7744","system_id":"levelo_inurba_marseille","lat":43.29149,"lon":5.37948,"is_reserved":false,"is_disabled":false,"rental_uris":{"android":"levelo://app?vid=8ed3ca95-2f7b-4d5a-bd42-8bf0ed0b7744","ios":"levelo://app?vid=8ed3ca95-2f7b-4d5a-bd42-8bf0ed0b7744"},"vehicle_type_id":"4","last_reported":1701533271,"current_range_meters":18000,"station_id":"","pricing_plan_id":"free"},{"bike_id":"cbb1de20-099d-4280-9a03-56d7ee14f705","system_id":"levelo_inurba_marseille","lat":43.29038,"lon":5.37565,"is_reserved":false,"is_disabled":false,"rental_uris":{"android":"levelo://app?vid=cbb1de20-099d-4280-9a03-56d7ee14f705","ios":"levelo://app?vid=cbb1de20-099d-4280-9a03-56d7ee14f705"},"vehicle_type_id":"4","last_reported":1701533271,"current_range_meters":5200,"station_id":"ce4bh692rcd13ifvqe90","pricing_plan_id":"free"},{"bike_id":"9ef69420-9047-42de-8bb4-8883de38c080","system_id":"levelo_inurba_marseille","lat":43.304274,"lon":5.397513,"is_reserved":false,"is_disabled":false,"rental_uris":{"android":"levelo://app?vid=9ef69420-9047-42de-8bb4-8883de38c080","ios":"levelo://app?vid=9ef69420-9047-42de-8bb4-8883de38c080"},"vehicle_type_id":"4","last_reported":1701533271,"current_range_meters":5600,"station_id":"ce4bh092rcd13ifvqd20","pricing_plan_id":"free"},{"bike_id":"b38135b0-bb14-4c25-bf29-b49d406cc922","system_id":"levelo_inurba_marseille","lat":43.33056,"lon":5.39058,"is_reserved":false,"is_disabled":false,"rental_uris":{"android":"levelo://app?vid=b38135b0-bb14-4c25-bf29-b49d406cc922","ios":"levelo://app?vid=b38135b0-bb14-4c25-bf29-b49d406cc922"},"vehicle_type_id":"4","last_reported":1701533271,"current_range_meters":400,"station_id":"","pricing_plan_id":"free"},{"bike_id":"75ee5a35-25e5-4210-a426-2d92cbb1b782","system_id":"levelo_inurba_marseille","lat":43.331157,"lon":5.390033,"is_reserved":false,"is_disabled":false,"rental_uris":{"android":"levelo://app?vid=75ee5a35-25e5-4210-a426-2d92cbb1b782","ios":"levelo://app?vid=75ee5a35-25e5-4210-a426-2d92cbb1b782"},"vehicle_type_id":"4","last_reported":1701533271,"current_range_meters":0,"station_id":"","pricing_plan_id":"free"},{"bike_id":"30ce2cbb-317b-42e5-a503-0ae38a10d0ef","system_id":"levelo_inurba_marseille","lat":43.309371,"lon":5.401449,"is_reserved":false,"is_disabled":false,"rental_uris":{"android":"levelo://app?vid=30ce2cbb-317b-42e5-a503-0ae38a10d0ef","ios":"levelo://app?vid=30ce2cbb-317b-42e5-a503-0ae38a10d0ef"},"vehicle_type_id":"4","last_reported":1701533271,"current_range_meters":8800,"station_id":"ce4bgvp2rcd13ifvqct0","pricing_plan_id":"free"},{"bike_id":"ab5c60f7-ea0d-4a9c-83f0-108c24cf3175","system_id":"levelo_inurba_marseille","lat":43.30935,"lon":5.40145,"is_reserved":false,"is_disabled":false,"rental_uris":{"android":"levelo://app?vid=ab5c60f7-ea0d-4a9c-83f0-108c24cf3175","ios":"levelo://app?vid=ab5c60f7-ea0d-4a9c-83f0-108c24cf3175"},"vehicle_type_id":"4","last_reported":1701533271,"current_range_meters":1200,"station_id":"ce4bgvp2rcd13ifvqct0","pricing_plan_id":"free"},{"bike_id":"5ee830a4-21de-41db-b2c1-269c4d7c09cd","system_id":"levelo_inurba_marseille","lat":43.306412,"lon":5.401035,"is_reserved":false,"is_disabled":false,"rental_uris":{"android":"levelo://app?vid=5ee830a4-21de-41db-b2c1-269c4d7c09cd","ios":"levelo://app?vid=5ee830a4-21de-41db-b2c1-269c4d7c09cd"},"vehicle_type_id":"4","last_reported":1701533271,"current_range_meters":28800,"station_id":"ce4bh112rcd13ifvqda0","pricing_plan_id":"free"},{"bike_id":"ff092f75-798e-405b-9dfc-f5773a571553","system_id":"levelo_inurba_marseille","lat":43.306412,"lon":5.401035,"is_reserved":false,"is_disabled":false,"rental_uris":{"android":"levelo://app?vid=ff092f75-798e-405b-9dfc-f5773a571553","ios":"levelo://app?vid=ff092f75-798e-405b-9dfc-f5773a571553"},"vehicle_type_id":"4","last_reported":1701533271,"current_range_meters":0,"station_id":"ce4bh112rcd13ifvqda0","pricing_plan_id":"free"},{"bike_id":"6c435ff6-c261-4326-91a7-1ba8c7572366","system_id":"levelo_inurba_marseille","lat":43.301117,"lon":5.398795,"is_reserved":false,"is_disabled":false,"rental_uris":{"android":"levelo://app?vid=6c435ff6-c261-4326-91a7-1ba8c7572366","ios":"levelo://app?vid=6c435ff6-c261-4326-91a7-1ba8c7572366"},"vehicle_type_id":"4","last_reported":1701533271,"current_range_meters":31200,"station_id":"ce4bh0h2rcd13ifvqd40","pricing_plan_id":"free"},{"bike_id":"63e313ad-68f9-4b5b-a580-bd49559c46ec","system_id":"levelo_inurba_marseille","lat":43.28727,"lon":5.36078,"is_reserved":false,"is_disabled":false,"rental_uris":{"android":"levelo://app?vid=63e313ad-68f9-4b5b-a580-bd49559c46ec","ios":"levelo://app?vid=63e313ad-68f9-4b5b-a580-bd49559c46ec"},"vehicle_type_id":"4","last_reported":1701533271,"current_range_meters":28800,"station_id":"cki0cbj6b192h4jlfktg","pricing_plan_id":"free"},{"bike_id":"417230d2-12b6-441b-815b-3ea734f30f3e","system_id":"levelo_inurba_marseille","lat":43.295196,"lon":5.39397,"is_reserved":false,"is_disabled":false,"rental_uris":{"android":"levelo://app?vid=417230d2-12b6-441b-815b-3ea734f30f3e","ios":"levelo://app?vid=417230d2-12b6-441b-815b-3ea734f30f3e"},"vehicle_type_id":"4","last_reported":1701533271,"current_range_meters":24400,"station_id":"ce4bh292rcd13ifvqdf0","pricing_plan_id":"free"},{"bike_id":"f0b6f1c5-515a-456d-a69f-48826c896ffa","system_id":"levelo_inurba_marseille","lat":43.295194,"lon":5.39397,"is_reserved":false,"is_disabled":false,"rental_uris":{"android":"levelo://app?vid=f0b6f1c5-515a-456d-a69f-48826c896ffa","ios":"levelo://app?vid=f0b6f1c5-515a-456d-a69f-48826c896ffa"},"vehicle_type_id":"4","last_reported":1701533271,"current_range_meters":31200,"station_id":"ce4bh292rcd13ifvqdf0","pricing_plan_id":"free"},{"bike_id":"8f5bae89-c84b-4268-ab36-91cf4e9426fd","system_id":"levelo_inurba_marseille","lat":43.284534,"lon":5.358662,"is_reserved":false,"is_disabled":false,"rental_uris":{"android":"levelo://app?vid=8f5bae89-c84b-4268-ab36-91cf4e9426fd","ios":"levelo://app?vid=8f5bae89-c84b-4268-ab36-91cf4e9426fd"},"vehicle_type_id":"4","last_reported":1701533271,"current_range_meters":6400,"station_id":"ce4bhah2rcd13ifvqei0","pricing_plan_id":"free"},{"bike_id":"2beafe02-28aa-4ec2-b585-0daf71209c6e","system_id":"levelo_inurba_marseille","lat":43.284538,"lon":5.358657,"is_reserved":false,"is_disabled":false,"rental_uris":{"android":"levelo://app?vid=2beafe02-28aa-4ec2-b585-0daf71209c6e","ios":"levelo://app?vid=2beafe02-28aa-4ec2-b585-0daf71209c6e"},"vehicle_type_id":"4","last_reported":1701533271,"current_range_meters":20800,"station_id":"ce4bhah2rcd13ifvqei0","pricing_plan_id":"free"},{"bike_id":"523ad5c7-c91c-4c0c-a2b5-897e48892164","system_id":"levelo_inurba_marseille","lat":43.284534,"lon":5.358662,"is_reserved":false,"is_disabled":false,"rental_uris":{"android":"levelo://app?vid=523ad5c7-c91c-4c0c-a2b5-897e48892164","ios":"levelo://app?vid=523ad5c7-c91c-4c0c-a2b5-897e48892164"},"vehicle_type_id":"4","last_reported":1701533271,"current_range_meters":6800,"station_id":"ce4bhah2rcd13ifvqei0","pricing_plan_id":"free"},{"bike_id":"1fb1bb08-2059-45cc-b2f9-780790e0022e","system_id":"levelo_inurba_marseille","lat":43.284538,"lon":5.358657,"is_reserved":false,"is_disabled":false,"rental_uris":{"android":"levelo://app?vid=1fb1bb08-2059-45cc-b2f9-780790e0022e","ios":"levelo://app?vid=1fb1bb08-2059-45cc-b2f9-780790e0022e"},"vehicle_type_id":"4","last_reported":1701533271,"current_range_meters":8800,"station_id":"ce4bhah2rcd13ifvqei0","pricing_plan_id":"free"},{"bike_id":"b9429627-71b1-4108-902e-37abe02c0cfb","system_id":"levelo_inurba_marseille","lat":43.295713,"lon":5.399639,"is_reserved":false,"is_disabled":false,"rental_uris":{"android":"levelo://app?vid=b9429627-71b1-4108-902e-37abe02c0cfb","ios":"levelo://app?vid=b9429627-71b1-4108-902e-37abe02c0cfb"},"vehicle_type_id":"4","last_reported":1701533271,"current_range_meters":19200,"station_id":"ce4bh312rcd13ifvqdj0","pricing_plan_id":"free"},{"bike_id":"135a25bb-f24d-45d5-a217-3648219a6278","system_id":"levelo_inurba_marseille","lat":43.284534,"lon":5.358662,"is_reserved":false,"is_disabled":false,"rental_uris":{"android":"levelo://app?vid=135a25bb-f24d-45d5-a217-3648219a6278","ios":"levelo://app?vid=135a25bb-f24d-45d5-a217-3648219a6278"},"vehicle_type_id":"4","last_reported":1701533271,"current_range_meters":16800,"station_id":"ce4bhah2rcd13ifvqei0","pricing_plan_id":"free"},{"bike_id":"e6196d5a-17aa-40fa-a008-34b9464591f2","system_id":"levelo_inurba_marseille","lat":43.284538,"lon":5.358657,"is_reserved":false,"is_disabled":false,"rental_uris":{"android":"levelo://app?vid=e6196d5a-17aa-40fa-a008-34b9464591f2","ios":"levelo://app?vid=e6196d5a-17aa-40fa-a008-34b9464591f2"},"vehicle_type_id":"4","last_reported":1701533271,"current_range_meters":5200,"station_id":"ce4bhah2rcd13ifvqei0","pricing_plan_id":"free"},{"bike_id":"ee729104-bcf7-4a1c-8fc8-8bbc0a2ad9c3","system_id":"levelo_inurba_marseille","lat":43.284538,"lon":5.358657,"is_reserved":false,"is_disabled":false,"rental_uris":{"android":"levelo://app?vid=ee729104-bcf7-4a1c-8fc8-8bbc0a2ad9c3","ios":"levelo://app?vid=ee729104-bcf7-4a1c-8fc8-8bbc0a2ad9c3"},"vehicle_type_id":"4","last_reported":1701533271,"current_range_meters":4000,"station_id":"ce4bhah2rcd13ifvqei0","pricing_plan_id":"free"},{"bike_id":"521bda52-c583-4ef1-a5b5-8fd522f08076","system_id":"levelo_inurba_marseille","lat":43.28619,"lon":5.35105,"is_reserved":false,"is_disabled":false,"rental_uris":{"android":"levelo://app?vid=521bda52-c583-4ef1-a5b5-8fd522f08076","ios":"levelo://app?vid=521bda52-c583-4ef1-a5b5-8fd522f08076"},"vehicle_type_id":"4","last_reported":1701533271,"current_range_meters":4400,"station_id":"ce4bhch2rcd13ifvqeug","pricing_plan_id":"free"},{"bike_id":"917c3b4b-63f6-4aa3-831c-3380988ce8f7","system_id":"levelo_inurba_marseille","lat":43.285848,"lon":5.350787,"is_reserved":false,"is_disabled":false,"rental_uris":{"android":"levelo://app?vid=917c3b4b-63f6-4aa3-831c-3380988ce8f7","ios":"levelo://app?vid=917c3b4b-63f6-4aa3-831c-3380988ce8f7"},"vehicle_type_id":"4","last_reported":1701533271,"current_range_meters":2800,"station_id":"ce4bhch2rcd13ifvqeug","pricing_plan_id":"free"},{"bike_id":"316c4c57-7f10-41b8-bf56-530c90e91ad3","system_id":"levelo_inurba_marseille","lat":43.285848,"lon":5.350787,"is_reserved":false,"is_disabled":false,"rental_uris":{"android":"levelo://app?vid=316c4c57-7f10-41b8-bf56-530c90e91ad3","ios":"levelo://app?vid=316c4c57-7f10-41b8-bf56-530c90e91ad3"},"vehicle_type_id":"4","last_reported":1701533271,"current_range_meters":0,"station_id":"ce4bhch2rcd13ifvqeug","pricing_plan_id":"free"},{"bike_id":"f99fc4d8-709b-4cee-a32c-2cdd6f1e8b1e","system_id":"levelo_inurba_marseille","lat":43.33749,"lon":5.39111,"is_reserved":false,"is_disabled":false,"rental_uris":{"android":"levelo://app?vid=f99fc4d8-709b-4cee-a32c-2cdd6f1e8b1e","ios":"levelo://app?vid=f99fc4d8-709b-4cee-a32c-2cdd6f1e8b1e"},"vehicle_type_id":"4","last_reported":1701533271,"current_range_meters":25600,"station_id":"","pricing_plan_id":"free"},{"bike_id":"b6c3cd19-eebb-4649-a02b-576804d77040","system_id":"levelo_inurba_marseille","lat":43.284793,"lon":5.384119,"is_reserved":false,"is_disabled":false,"rental_uris":{"android":"levelo://app?vid=b6c3cd19-eebb-4649-a02b-576804d77040","ios":"levelo://app?vid=b6c3cd19-eebb-4649-a02b-576804d77040"},"vehicle_type_id":"4","last_reported":1701533271,"current_range_meters":0,"station_id":"ce4bh512rcd13ifvqe3g","pricing_plan_id":"free"},{"bike_id":"8b6b1a4a-e2e4-42ec-b0f2-8a517edadf67","system_id":"levelo_inurba_marseille","lat":43.281059,"lon":5.378307,"is_reserved":false,"is_disabled":false,"rental_uris":{"android":"levelo://app?vid=8b6b1a4a-e2e4-42ec-b0f2-8a517edadf67","ios":"levelo://app?vid=8b6b1a4a-e2e4-42ec-b0f2-8a517edadf67"},"vehicle_type_id":"4","last_reported":1701533271,"current_range_meters":0,"station_id":"ce4bha12rcd13ifvqee0","pricing_plan_id":"free"},{"bike_id":"accf48b0-0b46-4885-83ca-fcfeb1ee8360","system_id":"levelo_inurba_marseille","lat":43.281044,"lon":5.378308,"is_reserved":false,"is_disabled":false,"rental_uris":{"android":"levelo://app?vid=accf48b0-0b46-4885-83ca-fcfeb1ee8360","ios":"levelo://app?vid=accf48b0-0b46-4885-83ca-fcfeb1ee8360"},"vehicle_type_id":"4","last_reported":1701533271,"current_range_meters":30000,"station_id":"ce4bha12rcd13ifvqee0","pricing_plan_id":"free"},{"bike_id":"d7580144-2510-4cc5-86fe-088e4ade8ba8","system_id":"levelo_inurba_marseille","lat":43.279087,"lon":5.380114,"is_reserved":false,"is_disabled":false,"rental_uris":{"android":"levelo://app?vid=d7580144-2510-4cc5-86fe-088e4ade8ba8","ios":"levelo://app?vid=d7580144-2510-4cc5-86fe-088e4ade8ba8"},"vehicle_type_id":"4","last_reported":1701533271,"current_range_meters":9200,"station_id":"ce4bhf92rcd13ifvqf50","pricing_plan_id":"free"},{"bike_id":"62584543-2291-4355-ad87-4e65b411f1f8","system_id":"levelo_inurba_marseille","lat":43.287154,"lon":5.399979,"is_reserved":false,"is_disabled":false,"rental_uris":{"android":"levelo://app?vid=62584543-2291-4355-ad87-4e65b411f1f8","ios":"levelo://app?vid=62584543-2291-4355-ad87-4e65b411f1f8"},"vehicle_type_id":"4","last_reported":1701533271,"current_range_meters":21600,"station_id":"ce4bho92rcd13ifvqh3g","pricing_plan_id":"free"},{"bike_id":"a86b05ec-d6e9-4108-9eb9-985025562aa2","system_id":"levelo_inurba_marseille","lat":43.299579,"lon":5.413255,"is_reserved":false,"is_disabled":false,"rental_uris":{"android":"levelo://app?vid=a86b05ec-d6e9-4108-9eb9-985025562aa2","ios":"levelo://app?vid=a86b05ec-d6e9-4108-9eb9-985025562aa2"},"vehicle_type_id":"4","last_reported":1701533271,"current_range_meters":24800,"station_id":"ce4bhp12rcd13ifvqh9g","pricing_plan_id":"free"},{"bike_id":"24bc5161-453b-4771-9162-a600518cc473","system_id":"levelo_inurba_marseille","lat":43.279742,"lon":5.38744,"is_reserved":false,"is_disabled":false,"rental_uris":{"android":"levelo://app?vid=24bc5161-453b-4771-9162-a600518cc473","ios":"levelo://app?vid=24bc5161-453b-4771-9162-a600518cc473"},"vehicle_type_id":"4","last_reported":1701533271,"current_range_meters":12400,"station_id":"ce4bhg12rcd13ifvqf80","pricing_plan_id":"free"},{"bike_id":"84b9469e-662f-49ed-9119-09b74453ef70","system_id":"levelo_inurba_marseille","lat":43.29362,"lon":5.409715,"is_reserved":false,"is_disabled":false,"rental_uris":{"android":"levelo://app?vid=84b9469e-662f-49ed-9119-09b74453ef70","ios":"levelo://app?vid=84b9469e-662f-49ed-9119-09b74453ef70"},"vehicle_type_id":"4","last_reported":1701533271,"current_range_meters":22000,"station_id":"","pricing_plan_id":"free"},{"bike_id":"efdd9243-206c-4f71-9b5f-2270830b4801","system_id":"levelo_inurba_marseille","lat":43.276183,"lon":5.361077,"is_reserved":false,"is_disabled":false,"rental_uris":{"android":"levelo://app?vid=efdd9243-206c-4f71-9b5f-2270830b4801","ios":"levelo://app?vid=efdd9243-206c-4f71-9b5f-2270830b4801"},"vehicle_type_id":"4","last_reported":1701533271,"current_range_meters":20800,"station_id":"","pricing_plan_id":"free"},{"bike_id":"79bef162-5c7c-4d39-b39b-7e934257755a","system_id":"levelo_inurba_marseille","lat":43.325457,"lon":5.414402,"is_reserved":false,"is_disabled":false,"rental_uris":{"android":"levelo://app?vid=79bef162-5c7c-4d39-b39b-7e934257755a","ios":"levelo://app?vid=79bef162-5c7c-4d39-b39b-7e934257755a"},"vehicle_type_id":"4","last_reported":1701533271,"current_range_meters":7200,"station_id":"ce4bhq12rcd13ifvqhhg","pricing_plan_id":"free"},{"bike_id":"0c11ea42-716b-4995-868b-d8429e4c8eca","system_id":"levelo_inurba_marseille","lat":43.27618,"lon":5.361009,"is_reserved":false,"is_disabled":false,"rental_uris":{"android":"levelo://app?vid=0c11ea42-716b-4995-868b-d8429e4c8eca","ios":"levelo://app?vid=0c11ea42-716b-4995-868b-d8429e4c8eca"},"vehicle_type_id":"4","last_reported":1701533271,"current_range_meters":14800,"station_id":"ce4bgj92rcd13ifvqbe0","pricing_plan_id":"free"},{"bike_id":"451e5711-912b-4e6f-ba92-14f20d0093e3","system_id":"levelo_inurba_marseille","lat":43.336942,"lon":5.406538,"is_reserved":false,"is_disabled":false,"rental_uris":{"android":"levelo://app?vid=451e5711-912b-4e6f-ba92-14f20d0093e3","ios":"levelo://app?vid=451e5711-912b-4e6f-ba92-14f20d0093e3"},"vehicle_type_id":"4","last_reported":1701533271,"current_range_meters":19600,"station_id":"","pricing_plan_id":"free"},{"bike_id":"bcdb50df-13be-4393-adc8-1a79a4e56c43","system_id":"levelo_inurba_marseille","lat":43.28619,"lon":5.40406,"is_reserved":false,"is_disabled":false,"rental_uris":{"android":"levelo://app?vid=bcdb50df-13be-4393-adc8-1a79a4e56c43","ios":"levelo://app?vid=bcdb50df-13be-4393-adc8-1a79a4e56c43"},"vehicle_type_id":"4","last_reported":1701533271,"current_range_meters":0,"station_id":"","pricing_plan_id":"free"},{"bike_id":"752df9af-6368-443e-9bb6-fec7b7e9f4b7","system_id":"levelo_inurba_marseille","lat":43.280784,"lon":5.396622,"is_reserved":false,"is_disabled":false,"rental_uris":{"android":"levelo://app?vid=752df9af-6368-443e-9bb6-fec7b7e9f4b7","ios":"levelo://app?vid=752df9af-6368-443e-9bb6-fec7b7e9f4b7"},"vehicle_type_id":"4","last_reported":1701533271,"current_range_meters":30000,"station_id":"ce4bho12rcd13ifvqh2g","pricing_plan_id":"free"},{"bike_id":"774385de-cce0-4517-8caf-d394ab058e3b","system_id":"levelo_inurba_marseille","lat":43.275625,"lon":5.384392,"is_reserved":false,"is_disabled":false,"rental_uris":{"android":"levelo://app?vid=774385de-cce0-4517-8caf-d394ab058e3b","ios":"levelo://app?vid=774385de-cce0-4517-8caf-d394ab058e3b"},"vehicle_type_id":"4","last_reported":1701533271,"current_range_meters":15600,"station_id":"ce4bhh92rcd13ifvqfi0","pricing_plan_id":"free"},{"bike_id":"f72e4428-b475-41c0-ba8a-600431fbbaf6","system_id":"levelo_inurba_marseille","lat":43.273613,"lon":5.362705,"is_reserved":false,"is_disabled":false,"rental_uris":{"android":"levelo://app?vid=f72e4428-b475-41c0-ba8a-600431fbbaf6","ios":"levelo://app?vid=f72e4428-b475-41c0-ba8a-600431fbbaf6"},"vehicle_type_id":"4","last_reported":1701533271,"current_range_meters":17200,"station_id":"ce4bhbh2rcd13ifvqeo0","pricing_plan_id":"free"},{"bike_id":"dd1614ba-585e-450a-834b-1c03d5d026e1","system_id":"levelo_inurba_marseille","lat":43.273613,"lon":5.362705,"is_reserved":false,"is_disabled":false,"rental_uris":{"android":"levelo://app?vid=dd1614ba-585e-450a-834b-1c03d5d026e1","ios":"levelo://app?vid=dd1614ba-585e-450a-834b-1c03d5d026e1"},"vehicle_type_id":"4","last_reported":1701533271,"current_range_meters":28000,"station_id":"ce4bhbh2rcd13ifvqeo0","pricing_plan_id":"free"},{"bike_id":"4f44e41c-5d5f-40b0-808d-6fe2cbe6b56b","system_id":"levelo_inurba_marseille","lat":43.33604,"lon":5.41032,"is_reserved":false,"is_disabled":false,"rental_uris":{"android":"levelo://app?vid=4f44e41c-5d5f-40b0-808d-6fe2cbe6b56b","ios":"levelo://app?vid=4f44e41c-5d5f-40b0-808d-6fe2cbe6b56b"},"vehicle_type_id":"4","last_reported":1701533271,"current_range_meters":30000,"station_id":"ce4bhqh2rcd13ifvqhmg","pricing_plan_id":"free"},{"bike_id":"6b9a9acd-8c91-4055-8490-a304cd7c83dc","system_id":"levelo_inurba_marseille","lat":43.336134,"lon":5.410341,"is_reserved":false,"is_disabled":false,"rental_uris":{"android":"levelo://app?vid=6b9a9acd-8c91-4055-8490-a304cd7c83dc","ios":"levelo://app?vid=6b9a9acd-8c91-4055-8490-a304cd7c83dc"},"vehicle_type_id":"4","last_reported":1701533271,"current_range_meters":30000,"station_id":"ce4bhqh2rcd13ifvqhmg","pricing_plan_id":"free"},{"bike_id":"031638a0-bfc0-4060-8e2b-d5c6505097a4","system_id":"levelo_inurba_marseille","lat":43.336075,"lon":5.410335,"is_reserved":false,"is_disabled":false,"rental_uris":{"android":"levelo://app?vid=031638a0-bfc0-4060-8e2b-d5c6505097a4","ios":"levelo://app?vid=031638a0-bfc0-4060-8e2b-d5c6505097a4"},"vehicle_type_id":"4","last_reported":1701533271,"current_range_meters":7200,"station_id":"ce4bhqh2rcd13ifvqhmg","pricing_plan_id":"free"},{"bike_id":"69bb95e4-1f5e-4fad-ae51-138bf90c9184","system_id":"levelo_inurba_marseille","lat":43.276769,"lon":5.388787,"is_reserved":false,"is_disabled":false,"rental_uris":{"android":"levelo://app?vid=69bb95e4-1f5e-4fad-ae51-138bf90c9184","ios":"levelo://app?vid=69bb95e4-1f5e-4fad-ae51-138bf90c9184"},"vehicle_type_id":"4","last_reported":1701533271,"current_range_meters":26800,"station_id":"ce4bhi12rcd13ifvqfo0","pricing_plan_id":"free"},{"bike_id":"1029ab0c-e692-4651-b8c9-72c4c80f9558","system_id":"levelo_inurba_marseille","lat":43.274103,"lon":5.394016,"is_reserved":false,"is_disabled":false,"rental_uris":{"android":"levelo://app?vid=1029ab0c-e692-4651-b8c9-72c4c80f9558","ios":"levelo://app?vid=1029ab0c-e692-4651-b8c9-72c4c80f9558"},"vehicle_type_id":"4","last_reported":1701533271,"current_range_meters":24800,"station_id":"ce4bhdp2rcd13ifvqf20","pricing_plan_id":"free"},{"bike_id":"ac66a036-a10d-4f8c-83e4-715d71e292f8","system_id":"levelo_inurba_marseille","lat":43.295523,"lon":5.422926,"is_reserved":false,"is_disabled":false,"rental_uris":{"android":"levelo://app?vid=ac66a036-a10d-4f8c-83e4-715d71e292f8","ios":"levelo://app?vid=ac66a036-a10d-4f8c-83e4-715d71e292f8"},"vehicle_type_id":"4","last_reported":1701533271,"current_range_meters":28400,"station_id":"ce4bhph2rcd13ifvqhdg","pricing_plan_id":"free"},{"bike_id":"a73624e3-76fe-4779-9cf9-d17b0eb3018d","system_id":"levelo_inurba_marseille","lat":43.278128,"lon":5.407195,"is_reserved":false,"is_disabled":false,"rental_uris":{"android":"levelo://app?vid=a73624e3-76fe-4779-9cf9-d17b0eb3018d","ios":"levelo://app?vid=a73624e3-76fe-4779-9cf9-d17b0eb3018d"},"vehicle_type_id":"4","last_reported":1701533271,"current_range_meters":26400,"station_id":"ce4bhnh2rcd13ifvqgtg","pricing_plan_id":"free"},{"bike_id":"6413cebc-c2c6-4ab0-bbd1-6a5cb078c570","system_id":"levelo_inurba_marseille","lat":43.278128,"lon":5.407195,"is_reserved":false,"is_disabled":false,"rental_uris":{"android":"levelo://app?vid=6413cebc-c2c6-4ab0-bbd1-6a5cb078c570","ios":"levelo://app?vid=6413cebc-c2c6-4ab0-bbd1-6a5cb078c570"},"vehicle_type_id":"4","last_reported":1701533271,"current_range_meters":0,"station_id":"ce4bhnh2rcd13ifvqgtg","pricing_plan_id":"free"},{"bike_id":"12090fa8-005f-497d-b441-ae58c816e8cf","system_id":"levelo_inurba_marseille","lat":43.27996,"lon":5.416624,"is_reserved":false,"is_disabled":false,"rental_uris":{"android":"levelo://app?vid=12090fa8-005f-497d-b441-ae58c816e8cf","ios":"levelo://app?vid=12090fa8-005f-497d-b441-ae58c816e8cf"},"vehicle_type_id":"4","last_reported":1701533271,"current_range_meters":12400,"station_id":"ce4bho12rcd13ifvqh1g","pricing_plan_id":"free"},{"bike_id":"f4b37137-c78e-4881-86b7-2d6974a0cbac","system_id":"levelo_inurba_marseille","lat":43.267966,"lon":5.393976,"is_reserved":false,"is_disabled":false,"rental_uris":{"android":"levelo://app?vid=f4b37137-c78e-4881-86b7-2d6974a0cbac","ios":"levelo://app?vid=f4b37137-c78e-4881-86b7-2d6974a0cbac"},"vehicle_type_id":"4","last_reported":1701533271,"current_range_meters":0,"station_id":"ce4bhh12rcd13ifvqfg0","pricing_plan_id":"free"},{"bike_id":"3c44e0fb-a92a-400a-9cde-8ed457c6764a","system_id":"levelo_inurba_marseille","lat":43.26783,"lon":5.3942,"is_reserved":false,"is_disabled":false,"rental_uris":{"android":"levelo://app?vid=3c44e0fb-a92a-400a-9cde-8ed457c6764a","ios":"levelo://app?vid=3c44e0fb-a92a-400a-9cde-8ed457c6764a"},"vehicle_type_id":"4","last_reported":1701533271,"current_range_meters":30400,"station_id":"ce4bhh12rcd13ifvqfg0","pricing_plan_id":"free"},{"bike_id":"04b331c5-af1d-4cf2-a49f-e86d450c9442","system_id":"levelo_inurba_marseille","lat":43.265714,"lon":5.372891,"is_reserved":false,"is_disabled":false,"rental_uris":{"android":"levelo://app?vid=04b331c5-af1d-4cf2-a49f-e86d450c9442","ios":"levelo://app?vid=04b331c5-af1d-4cf2-a49f-e86d450c9442"},"vehicle_type_id":"4","last_reported":1701533271,"current_range_meters":4400,"station_id":"ce4bhg12rcd13ifvqf70","pricing_plan_id":"free"},{"bike_id":"b7207059-a431-43dd-84e2-0ad89c3e2a35","system_id":"levelo_inurba_marseille","lat":43.308051,"lon":5.43527,"is_reserved":false,"is_disabled":false,"rental_uris":{"android":"levelo://app?vid=b7207059-a431-43dd-84e2-0ad89c3e2a35","ios":"levelo://app?vid=b7207059-a431-43dd-84e2-0ad89c3e2a35"},"vehicle_type_id":"4","last_reported":1701533271,"current_range_meters":28000,"station_id":"ce4bhph2rcd13ifvqheg","pricing_plan_id":"free"},{"bike_id":"b465ea39-9ab2-43bf-bc9f-9118534bf15b","system_id":"levelo_inurba_marseille","lat":43.267959,"lon":5.402687,"is_reserved":false,"is_disabled":false,"rental_uris":{"android":"levelo://app?vid=b465ea39-9ab2-43bf-bc9f-9118534bf15b","ios":"levelo://app?vid=b465ea39-9ab2-43bf-bc9f-9118534bf15b"},"vehicle_type_id":"4","last_reported":1701533271,"current_range_meters":30800,"station_id":"ce501612rcd8frsf0b60","pricing_plan_id":"free"},{"bike_id":"7c54b78b-badc-4c3c-b5e9-d9766a131246","system_id":"levelo_inurba_marseille","lat":43.260225,"lon":5.375455,"is_reserved":false,"is_disabled":false,"rental_uris":{"android":"levelo://app?vid=7c54b78b-badc-4c3c-b5e9-d9766a131246","ios":"levelo://app?vid=7c54b78b-badc-4c3c-b5e9-d9766a131246"},"vehicle_type_id":"4","last_reported":1701533271,"current_range_meters":28000,"station_id":"ce4bhgh2rcd13ifvqfa0","pricing_plan_id":"free"},{"bike_id":"42c2f902-b92f-4293-bd7f-ace0b830882b","system_id":"levelo_inurba_marseille","lat":43.281548,"lon":5.42643,"is_reserved":false,"is_disabled":false,"rental_uris":{"android":"levelo://app?vid=42c2f902-b92f-4293-bd7f-ace0b830882b","ios":"levelo://app?vid=42c2f902-b92f-4293-bd7f-ace0b830882b"},"vehicle_type_id":"4","last_reported":1701533271,"current_range_meters":0,"station_id":"ce4bhnh2rcd13ifvqgug","pricing_plan_id":"free"},{"bike_id":"193712cd-68a1-42cb-997f-ddeb8e9a3d16","system_id":"levelo_inurba_marseille","lat":43.281548,"lon":5.42643,"is_reserved":false,"is_disabled":false,"rental_uris":{"android":"levelo://app?vid=193712cd-68a1-42cb-997f-ddeb8e9a3d16","ios":"levelo://app?vid=193712cd-68a1-42cb-997f-ddeb8e9a3d16"},"vehicle_type_id":"4","last_reported":1701533271,"current_range_meters":2800,"station_id":"ce4bhnh2rcd13ifvqgug","pricing_plan_id":"free"},{"bike_id":"e3c70838-55a8-49b1-aa7d-64e2101d31db","system_id":"levelo_inurba_marseille","lat":43.2607,"lon":5.393983,"is_reserved":false,"is_disabled":false,"rental_uris":{"android":"levelo://app?vid=e3c70838-55a8-49b1-aa7d-64e2101d31db","ios":"levelo://app?vid=e3c70838-55a8-49b1-aa7d-64e2101d31db"},"vehicle_type_id":"4","last_reported":1701533271,"current_range_meters":2400,"station_id":"ce4bhh92rcd13ifvqfj0","pricing_plan_id":"free"},{"bike_id":"c44133c1-3dcc-436f-8fba-b97bd24a85de","system_id":"levelo_inurba_marseille","lat":43.2606,"lon":5.39401,"is_reserved":false,"is_disabled":false,"rental_uris":{"android":"levelo://app?vid=c44133c1-3dcc-436f-8fba-b97bd24a85de","ios":"levelo://app?vid=c44133c1-3dcc-436f-8fba-b97bd24a85de"},"vehicle_type_id":"4","last_reported":1701533271,"current_range_meters":24800,"station_id":"ce4bhh92rcd13ifvqfj0","pricing_plan_id":"free"},{"bike_id":"21e4bd2a-dd95-49b8-bd15-0a867a40aaf9","system_id":"levelo_inurba_marseille","lat":43.275028,"lon":5.424534,"is_reserved":false,"is_disabled":false,"rental_uris":{"android":"levelo://app?vid=21e4bd2a-dd95-49b8-bd15-0a867a40aaf9","ios":"levelo://app?vid=21e4bd2a-dd95-49b8-bd15-0a867a40aaf9"},"vehicle_type_id":"4","last_reported":1701533271,"current_range_meters":6800,"station_id":"ce4bhn92rcd13ifvqgrg","pricing_plan_id":"free"},{"bike_id":"a9c4395e-8bff-42df-a1ae-620827e0f323","system_id":"levelo_inurba_marseille","lat":43.25506,"lon":5.37651,"is_reserved":false,"is_disabled":false,"rental_uris":{"android":"levelo://app?vid=a9c4395e-8bff-42df-a1ae-620827e0f323","ios":"levelo://app?vid=a9c4395e-8bff-42df-a1ae-620827e0f323"},"vehicle_type_id":"4","last_reported":1701533271,"current_range_meters":11200,"station_id":"ce4bhh12rcd13ifvqff0","pricing_plan_id":"free"},{"bike_id":"86e8b253-5460-40b0-b647-90b5101280c7","system_id":"levelo_inurba_marseille","lat":43.25496,"lon":5.3765,"is_reserved":false,"is_disabled":false,"rental_uris":{"android":"levelo://app?vid=86e8b253-5460-40b0-b647-90b5101280c7","ios":"levelo://app?vid=86e8b253-5460-40b0-b647-90b5101280c7"},"vehicle_type_id":"4","last_reported":1701533271,"current_range_meters":7600,"station_id":"ce4bhh12rcd13ifvqff0","pricing_plan_id":"free"},{"bike_id":"9d6180bc-15e1-46b5-92b5-ce80008844e8","system_id":"levelo_inurba_marseille","lat":43.25495,"lon":5.3765,"is_reserved":false,"is_disabled":false,"rental_uris":{"android":"levelo://app?vid=9d6180bc-15e1-46b5-92b5-ce80008844e8","ios":"levelo://app?vid=9d6180bc-15e1-46b5-92b5-ce80008844e8"},"vehicle_type_id":"4","last_reported":1701533271,"current_range_meters":18000,"station_id":"ce4bhh12rcd13ifvqff0","pricing_plan_id":"free"},{"bike_id":"df041b5b-3e99-414e-ba87-1aab03ad564f","system_id":"levelo_inurba_marseille","lat":43.25871,"lon":5.39899,"is_reserved":false,"is_disabled":false,"rental_uris":{"android":"levelo://app?vid=df041b5b-3e99-414e-ba87-1aab03ad564f","ios":"levelo://app?vid=df041b5b-3e99-414e-ba87-1aab03ad564f"},"vehicle_type_id":"4","last_reported":1701533271,"current_range_meters":5200,"station_id":"ce4bhl92rcd13ifvqghg","pricing_plan_id":"free"},{"bike_id":"bdc72d7c-9d46-4016-8a92-851cd50823f9","system_id":"levelo_inurba_marseille","lat":43.259009,"lon":5.40929,"is_reserved":false,"is_disabled":false,"rental_uris":{"android":"levelo://app?vid=bdc72d7c-9d46-4016-8a92-851cd50823f9","ios":"levelo://app?vid=bdc72d7c-9d46-4016-8a92-851cd50823f9"},"vehicle_type_id":"4","last_reported":1701533271,"current_range_meters":28000,"station_id":"ce4bhm92rcd13ifvqglg","pricing_plan_id":"free"},{"bike_id":"8b461cd2-ef6a-465d-beba-fe65f8253827","system_id":"levelo_inurba_marseille","lat":43.25727,"lon":5.41103,"is_reserved":false,"is_disabled":false,"rental_uris":{"android":"levelo://app?vid=8b461cd2-ef6a-465d-beba-fe65f8253827","ios":"levelo://app?vid=8b461cd2-ef6a-465d-beba-fe65f8253827"},"vehicle_type_id":"4","last_reported":1701533271,"current_range_meters":11600,"station_id":"ce4bhkp2rcd13ifvqgd0","pricing_plan_id":"free"},{"bike_id":"b01b3ad7-b886-41aa-b08c-cadf9941b5ec","system_id":"levelo_inurba_marseille","lat":43.257079,"lon":5.411051,"is_reserved":false,"is_disabled":false,"rental_uris":{"android":"levelo://app?vid=b01b3ad7-b886-41aa-b08c-cadf9941b5ec","ios":"levelo://app?vid=b01b3ad7-b886-41aa-b08c-cadf9941b5ec"},"vehicle_type_id":"4","last_reported":1701533271,"current_range_meters":27600,"station_id":"ce4bhkp2rcd13ifvqgd0","pricing_plan_id":"free"},{"bike_id":"c2c54c96-8911-41ce-9741-6ecbcb115f60","system_id":"levelo_inurba_marseille","lat":43.250009,"lon":5.389195,"is_reserved":false,"is_disabled":false,"rental_uris":{"android":"levelo://app?vid=c2c54c96-8911-41ce-9741-6ecbcb115f60","ios":"levelo://app?vid=c2c54c96-8911-41ce-9741-6ecbcb115f60"},"vehicle_type_id":"4","last_reported":1701533271,"current_range_meters":31600,"station_id":"ce4bhgp2rcd13ifvqfd0","pricing_plan_id":"free"},{"bike_id":"09a4ee21-c0a4-41eb-b4fe-14da8c31cf7b","system_id":"levelo_inurba_marseille","lat":43.250009,"lon":5.389195,"is_reserved":false,"is_disabled":false,"rental_uris":{"android":"levelo://app?vid=09a4ee21-c0a4-41eb-b4fe-14da8c31cf7b","ios":"levelo://app?vid=09a4ee21-c0a4-41eb-b4fe-14da8c31cf7b"},"vehicle_type_id":"4","last_reported":1701533271,"current_range_meters":7600,"station_id":"ce4bhgp2rcd13ifvqfd0","pricing_plan_id":"free"},{"bike_id":"21880e12-98f7-4d38-abb0-00192718ead3","system_id":"levelo_inurba_marseille","lat":43.24808,"lon":5.37455,"is_reserved":false,"is_disabled":false,"rental_uris":{"android":"levelo://app?vid=21880e12-98f7-4d38-abb0-00192718ead3","ios":"levelo://app?vid=21880e12-98f7-4d38-abb0-00192718ead3"},"vehicle_type_id":"4","last_reported":1701533271,"current_range_meters":30800,"station_id":"ce4bhgh2rcd13ifvqfb0","pricing_plan_id":"free"},{"bike_id":"a1ac006e-7a6a-42c0-b6e2-759e78ccf577","system_id":"levelo_inurba_marseille","lat":43.24808,"lon":5.37455,"is_reserved":false,"is_disabled":false,"rental_uris":{"android":"levelo://app?vid=a1ac006e-7a6a-42c0-b6e2-759e78ccf577","ios":"levelo://app?vid=a1ac006e-7a6a-42c0-b6e2-759e78ccf577"},"vehicle_type_id":"4","last_reported":1701533271,"current_range_meters":27200,"station_id":"ce4bhgh2rcd13ifvqfb0","pricing_plan_id":"free"},{"bike_id":"c52cab8b-e0ba-4588-a7c9-f9aabdec73d0","system_id":"levelo_inurba_marseille","lat":43.250966,"lon":5.395186,"is_reserved":false,"is_disabled":false,"rental_uris":{"android":"levelo://app?vid=c52cab8b-e0ba-4588-a7c9-f9aabdec73d0","ios":"levelo://app?vid=c52cab8b-e0ba-4588-a7c9-f9aabdec73d0"},"vehicle_type_id":"4","last_reported":1701533271,"current_range_meters":27600,"station_id":"ce4bhm12rcd13ifvqgkg","pricing_plan_id":"free"},{"bike_id":"4ffd374f-1efe-427e-870a-2a675e26e81e","system_id":"levelo_inurba_marseille","lat":43.250966,"lon":5.395186,"is_reserved":false,"is_disabled":false,"rental_uris":{"android":"levelo://app?vid=4ffd374f-1efe-427e-870a-2a675e26e81e","ios":"levelo://app?vid=4ffd374f-1efe-427e-870a-2a675e26e81e"},"vehicle_type_id":"4","last_reported":1701533271,"current_range_meters":6400,"station_id":"ce4bhm12rcd13ifvqgkg","pricing_plan_id":"free"},{"bike_id":"d53c3682-70bc-4675-ab09-c3fdc1de8af4","system_id":"levelo_inurba_marseille","lat":43.250966,"lon":5.395186,"is_reserved":false,"is_disabled":false,"rental_uris":{"android":"levelo://app?vid=d53c3682-70bc-4675-ab09-c3fdc1de8af4","ios":"levelo://app?vid=d53c3682-70bc-4675-ab09-c3fdc1de8af4"},"vehicle_type_id":"4","last_reported":1701533271,"current_range_meters":31600,"station_id":"ce4bhm12rcd13ifvqgkg","pricing_plan_id":"free"},{"bike_id":"ada0aadf-ed1c-44ae-be81-695ed7b96fa8","system_id":"levelo_inurba_marseille","lat":43.240623,"lon":5.377642,"is_reserved":false,"is_disabled":false,"rental_uris":{"android":"levelo://app?vid=ada0aadf-ed1c-44ae-be81-695ed7b96fa8","ios":"levelo://app?vid=ada0aadf-ed1c-44ae-be81-695ed7b96fa8"},"vehicle_type_id":"4","last_reported":1701533271,"current_range_meters":8800,"station_id":"ce4bhnp2rcd13ifvqgvg","pricing_plan_id":"free"},{"bike_id":"02ee09a3-cd5c-410d-82c4-9b38dce6dc9d","system_id":"levelo_inurba_marseille","lat":43.240623,"lon":5.377642,"is_reserved":false,"is_disabled":false,"rental_uris":{"android":"levelo://app?vid=02ee09a3-cd5c-410d-82c4-9b38dce6dc9d","ios":"levelo://app?vid=02ee09a3-cd5c-410d-82c4-9b38dce6dc9d"},"vehicle_type_id":"4","last_reported":1701533271,"current_range_meters":24400,"station_id":"ce4bhnp2rcd13ifvqgvg","pricing_plan_id":"free"},{"bike_id":"253842fc-929c-41d1-9477-59c41002129c","system_id":"levelo_inurba_marseille","lat":43.239588,"lon":5.366238,"is_reserved":false,"is_disabled":false,"rental_uris":{"android":"levelo://app?vid=253842fc-929c-41d1-9477-59c41002129c","ios":"levelo://app?vid=253842fc-929c-41d1-9477-59c41002129c"},"vehicle_type_id":"4","last_reported":1701533271,"current_range_meters":18800,"station_id":"ce4bhi12rcd13ifvqfp0","pricing_plan_id":"free"},{"bike_id":"b101f295-ac85-402a-8afe-c635c176f114","system_id":"levelo_inurba_marseille","lat":43.28527,"lon":5.46058,"is_reserved":false,"is_disabled":false,"rental_uris":{"android":"levelo://app?vid=b101f295-ac85-402a-8afe-c635c176f114","ios":"levelo://app?vid=b101f295-ac85-402a-8afe-c635c176f114"},"vehicle_type_id":"4","last_reported":1701533271,"current_range_meters":23200,"station_id":"","pricing_plan_id":"free"},{"bike_id":"4506c45e-2d09-462d-97b5-d051c36d1044","system_id":"levelo_inurba_marseille","lat":43.231919,"lon":5.355532,"is_reserved":false,"is_disabled":false,"rental_uris":{"android":"levelo://app?vid=4506c45e-2d09-462d-97b5-d051c36d1044","ios":"levelo://app?vid=4506c45e-2d09-462d-97b5-d051c36d1044"},"vehicle_type_id":"4","last_reported":1701533271,"current_range_meters":15600,"station_id":"ce4bhu92rcd13ifvqi70","pricing_plan_id":"free"},{"bike_id":"564457e1-2e6b-4272-9a47-1e00dc780928","system_id":"levelo_inurba_marseille","lat":43.231923,"lon":5.355545,"is_reserved":false,"is_disabled":false,"rental_uris":{"android":"levelo://app?vid=564457e1-2e6b-4272-9a47-1e00dc780928","ios":"levelo://app?vid=564457e1-2e6b-4272-9a47-1e00dc780928"},"vehicle_type_id":"4","last_reported":1701533271,"current_range_meters":14800,"station_id":"ce4bhu92rcd13ifvqi70","pricing_plan_id":"free"},{"bike_id":"c1ab21fa-19f8-4baa-aff6-8700f11b4595","system_id":"levelo_inurba_marseille","lat":43.231923,"lon":5.355545,"is_reserved":false,"is_disabled":false,"rental_uris":{"android":"levelo://app?vid=c1ab21fa-19f8-4baa-aff6-8700f11b4595","ios":"levelo://app?vid=c1ab21fa-19f8-4baa-aff6-8700f11b4595"},"vehicle_type_id":"4","last_reported":1701533271,"current_range_meters":20800,"station_id":"ce4bhu92rcd13ifvqi70","pricing_plan_id":"free"},{"bike_id":"6382809b-45d0-4ad2-8be7-697249f82077","system_id":"levelo_inurba_marseille","lat":43.231919,"lon":5.355532,"is_reserved":false,"is_disabled":false,"rental_uris":{"android":"levelo://app?vid=6382809b-45d0-4ad2-8be7-697249f82077","ios":"levelo://app?vid=6382809b-45d0-4ad2-8be7-697249f82077"},"vehicle_type_id":"4","last_reported":1701533271,"current_range_meters":31200,"station_id":"ce4bhu92rcd13ifvqi70","pricing_plan_id":"free"},{"bike_id":"e1e0ee00-25b6-4b3e-9528-4dc4d90295d8","system_id":"levelo_inurba_marseille","lat":43.231923,"lon":5.355545,"is_reserved":false,"is_disabled":false,"rental_uris":{"android":"levelo://app?vid=e1e0ee00-25b6-4b3e-9528-4dc4d90295d8","ios":"levelo://app?vid=e1e0ee00-25b6-4b3e-9528-4dc4d90295d8"},"vehicle_type_id":"4","last_reported":1701533271,"current_range_meters":9600,"station_id":"ce4bhu92rcd13ifvqi70","pricing_plan_id":"free"},{"bike_id":"4e176977-ccb9-4a01-b3da-279fd61eadf6","system_id":"levelo_inurba_marseille","lat":43.231919,"lon":5.355532,"is_reserved":false,"is_disabled":false,"rental_uris":{"android":"levelo://app?vid=4e176977-ccb9-4a01-b3da-279fd61eadf6","ios":"levelo://app?vid=4e176977-ccb9-4a01-b3da-279fd61eadf6"},"vehicle_type_id":"4","last_reported":1701533271,"current_range_meters":22400,"station_id":"ce4bhu92rcd13ifvqi70","pricing_plan_id":"free"},{"bike_id":"cf3102c4-88e0-4a41-86b7-69a76932d3e6","system_id":"levelo_inurba_marseille","lat":43.231923,"lon":5.355545,"is_reserved":false,"is_disabled":false,"rental_uris":{"android":"levelo://app?vid=cf3102c4-88e0-4a41-86b7-69a76932d3e6","ios":"levelo://app?vid=cf3102c4-88e0-4a41-86b7-69a76932d3e6"},"vehicle_type_id":"4","last_reported":1701533271,"current_range_meters":31200,"station_id":"ce4bhu92rcd13ifvqi70","pricing_plan_id":"free"},{"bike_id":"2b04708e-eed8-4471-916a-9fdeea01eec7","system_id":"levelo_inurba_marseille","lat":43.231923,"lon":5.355545,"is_reserved":false,"is_disabled":false,"rental_uris":{"android":"levelo://app?vid=2b04708e-eed8-4471-916a-9fdeea01eec7","ios":"levelo://app?vid=2b04708e-eed8-4471-916a-9fdeea01eec7"},"vehicle_type_id":"4","last_reported":1701533271,"current_range_meters":13600,"station_id":"ce4bhu92rcd13ifvqi70","pricing_plan_id":"free"},{"bike_id":"4dae0f2e-3beb-46e8-877b-0143e05c3e8e","system_id":"levelo_inurba_marseille","lat":43.231919,"lon":5.355532,"is_reserved":false,"is_disabled":false,"rental_uris":{"android":"levelo://app?vid=4dae0f2e-3beb-46e8-877b-0143e05c3e8e","ios":"levelo://app?vid=4dae0f2e-3beb-46e8-877b-0143e05c3e8e"},"vehicle_type_id":"4","last_reported":1701533271,"current_range_meters":0,"station_id":"ce4bhu92rcd13ifvqi70","pricing_plan_id":"free"},{"bike_id":"b8f295a9-10f8-4746-b4a0-4491480d1fc4","system_id":"levelo_inurba_marseille","lat":43.231919,"lon":5.355532,"is_reserved":false,"is_disabled":false,"rental_uris":{"android":"levelo://app?vid=b8f295a9-10f8-4746-b4a0-4491480d1fc4","ios":"levelo://app?vid=b8f295a9-10f8-4746-b4a0-4491480d1fc4"},"vehicle_type_id":"4","last_reported":1701533271,"current_range_meters":24000,"station_id":"ce4bhu92rcd13ifvqi70","pricing_plan_id":"free"},{"bike_id":"9e01ee59-41e6-425c-ae1f-3e33312fefcd","system_id":"levelo_inurba_marseille","lat":43.231923,"lon":5.355545,"is_reserved":false,"is_disabled":false,"rental_uris":{"android":"levelo://app?vid=9e01ee59-41e6-425c-ae1f-3e33312fefcd","ios":"levelo://app?vid=9e01ee59-41e6-425c-ae1f-3e33312fefcd"},"vehicle_type_id":"4","last_reported":1701533271,"current_range_meters":20400,"station_id":"ce4bhu92rcd13ifvqi70","pricing_plan_id":"free"},{"bike_id":"6462fbc5-ceb8-47e3-b56d-fc1e69bef19f","system_id":"levelo_inurba_marseille","lat":43.231919,"lon":5.355532,"is_reserved":false,"is_disabled":false,"rental_uris":{"android":"levelo://app?vid=6462fbc5-ceb8-47e3-b56d-fc1e69bef19f","ios":"levelo://app?vid=6462fbc5-ceb8-47e3-b56d-fc1e69bef19f"},"vehicle_type_id":"4","last_reported":1701533271,"current_range_meters":29200,"station_id":"ce4bhu92rcd13ifvqi70","pricing_plan_id":"free"},{"bike_id":"177a82e2-68da-4975-a68b-b32649f3d1f2","system_id":"levelo_inurba_marseille","lat":43.231923,"lon":5.355545,"is_reserved":false,"is_disabled":false,"rental_uris":{"android":"levelo://app?vid=177a82e2-68da-4975-a68b-b32649f3d1f2","ios":"levelo://app?vid=177a82e2-68da-4975-a68b-b32649f3d1f2"},"vehicle_type_id":"4","last_reported":1701533271,"current_range_meters":13600,"station_id":"ce4bhu92rcd13ifvqi70","pricing_plan_id":"free"},{"bike_id":"88cf855f-bb31-40e0-8afc-686df3c193ab","system_id":"levelo_inurba_marseille","lat":43.231794,"lon":5.400052,"is_reserved":false,"is_disabled":false,"rental_uris":{"android":"levelo://app?vid=88cf855f-bb31-40e0-8afc-686df3c193ab","ios":"levelo://app?vid=88cf855f-bb31-40e0-8afc-686df3c193ab"},"vehicle_type_id":"4","last_reported":1701533271,"current_range_meters":28800,"station_id":"ce4bhn12rcd13ifvqgqg","pricing_plan_id":"free"},{"bike_id":"27852c29-47dc-4826-817e-c88bd3a0386e","system_id":"levelo_inurba_marseille","lat":43.231953,"lon":5.39977,"is_reserved":false,"is_disabled":false,"rental_uris":{"android":"levelo://app?vid=27852c29-47dc-4826-817e-c88bd3a0386e","ios":"levelo://app?vid=27852c29-47dc-4826-817e-c88bd3a0386e"},"vehicle_type_id":"4","last_reported":1701533271,"current_range_meters":22000,"station_id":"ce4bhn12rcd13ifvqgqg","pricing_plan_id":"free"},{"bike_id":"a926f4bb-1e59-4822-80ea-1d5ff6f2a5c5","system_id":"levelo_inurba_marseille","lat":43.23194,"lon":5.399805,"is_reserved":false,"is_disabled":false,"rental_uris":{"android":"levelo://app?vid=a926f4bb-1e59-4822-80ea-1d5ff6f2a5c5","ios":"levelo://app?vid=a926f4bb-1e59-4822-80ea-1d5ff6f2a5c5"},"vehicle_type_id":"4","last_reported":1701533271,"current_range_meters":18800,"station_id":"ce4bhn12rcd13ifvqgqg","pricing_plan_id":"free"},{"bike_id":"22bd98e3-c33f-4c44-ae2b-f96729d36f4f","system_id":"levelo_inurba_marseille","lat":43.231793,"lon":5.400044,"is_reserved":false,"is_disabled":false,"rental_uris":{"android":"levelo://app?vid=22bd98e3-c33f-4c44-ae2b-f96729d36f4f","ios":"levelo://app?vid=22bd98e3-c33f-4c44-ae2b-f96729d36f4f"},"vehicle_type_id":"4","last_reported":1701533271,"current_range_meters":30000,"station_id":"ce4bhn12rcd13ifvqgqg","pricing_plan_id":"free"},{"bike_id":"d0b35396-6769-42d4-8160-8b44cb829902","system_id":"levelo_inurba_marseille","lat":43.23193,"lon":5.39983,"is_reserved":false,"is_disabled":false,"rental_uris":{"android":"levelo://app?vid=d0b35396-6769-42d4-8160-8b44cb829902","ios":"levelo://app?vid=d0b35396-6769-42d4-8160-8b44cb829902"},"vehicle_type_id":"4","last_reported":1701533271,"current_range_meters":31200,"station_id":"ce4bhn12rcd13ifvqgqg","pricing_plan_id":"free"},{"bike_id":"6bd9f065-50d9-4657-9ca0-a006f413d305","system_id":"levelo_inurba_marseille","lat":43.231794,"lon":5.400052,"is_reserved":false,"is_disabled":false,"rental_uris":{"android":"levelo://app?vid=6bd9f065-50d9-4657-9ca0-a006f413d305","ios":"levelo://app?vid=6bd9f065-50d9-4657-9ca0-a006f413d305"},"vehicle_type_id":"4","last_reported":1701533271,"current_range_meters":31200,"station_id":"ce4bhn12rcd13ifvqgqg","pricing_plan_id":"free"},{"bike_id":"8a513cfb-2a22-4eaf-90eb-23484384c4e8","system_id":"levelo_inurba_marseille","lat":43.23188,"lon":5.39987,"is_reserved":false,"is_disabled":false,"rental_uris":{"android":"levelo://app?vid=8a513cfb-2a22-4eaf-90eb-23484384c4e8","ios":"levelo://app?vid=8a513cfb-2a22-4eaf-90eb-23484384c4e8"},"vehicle_type_id":"4","last_reported":1701533271,"current_range_meters":6400,"station_id":"ce4bhn12rcd13ifvqgqg","pricing_plan_id":"free"},{"bike_id":"457c552c-8af5-4b7b-9f6b-8c901265a623","system_id":"levelo_inurba_marseille","lat":43.23188,"lon":5.39989,"is_reserved":false,"is_disabled":false,"rental_uris":{"android":"levelo://app?vid=457c552c-8af5-4b7b-9f6b-8c901265a623","ios":"levelo://app?vid=457c552c-8af5-4b7b-9f6b-8c901265a623"},"vehicle_type_id":"4","last_reported":1701533271,"current_range_meters":31200,"station_id":"ce4bhn12rcd13ifvqgqg","pricing_plan_id":"free"},{"bike_id":"78f53433-040f-4233-aa84-06b0d095f95e","system_id":"levelo_inurba_marseille","lat":43.231794,"lon":5.400052,"is_reserved":false,"is_disabled":false,"rental_uris":{"android":"levelo://app?vid=78f53433-040f-4233-aa84-06b0d095f95e","ios":"levelo://app?vid=78f53433-040f-4233-aa84-06b0d095f95e"},"vehicle_type_id":"4","last_reported":1701533271,"current_range_meters":27200,"station_id":"ce4bhn12rcd13ifvqgqg","pricing_plan_id":"free"},{"bike_id":"83862a0a-d647-45eb-9884-693fce6366ab","system_id":"levelo_inurba_marseille","lat":43.23186,"lon":5.39986,"is_reserved":false,"is_disabled":false,"rental_uris":{"android":"levelo://app?vid=83862a0a-d647-45eb-9884-693fce6366ab","ios":"levelo://app?vid=83862a0a-d647-45eb-9884-693fce6366ab"},"vehicle_type_id":"4","last_reported":1701533271,"current_range_meters":18400,"station_id":"ce4bhn12rcd13ifvqgqg","pricing_plan_id":"free"},{"bike_id":"77b1a551-da7f-429a-980e-bfc6767a5958","system_id":"levelo_inurba_marseille","lat":43.231794,"lon":5.400052,"is_reserved":false,"is_disabled":false,"rental_uris":{"android":"levelo://app?vid=77b1a551-da7f-429a-980e-bfc6767a5958","ios":"levelo://app?vid=77b1a551-da7f-429a-980e-bfc6767a5958"},"vehicle_type_id":"4","last_reported":1701533271,"current_range_meters":31200,"station_id":"ce4bhn12rcd13ifvqgqg","pricing_plan_id":"free"},{"bike_id":"6c2dc1c9-372c-445d-814a-4d69ce499bdb","system_id":"levelo_inurba_marseille","lat":43.2318,"lon":5.39996,"is_reserved":false,"is_disabled":false,"rental_uris":{"android":"levelo://app?vid=6c2dc1c9-372c-445d-814a-4d69ce499bdb","ios":"levelo://app?vid=6c2dc1c9-372c-445d-814a-4d69ce499bdb"},"vehicle_type_id":"4","last_reported":1701533271,"current_range_meters":0,"station_id":"ce4bhn12rcd13ifvqgqg","pricing_plan_id":"free"},{"bike_id":"56fae2ce-4e45-42ed-ab37-f0e3d486207b","system_id":"levelo_inurba_marseille","lat":43.23176,"lon":5.39987,"is_reserved":false,"is_disabled":false,"rental_uris":{"android":"levelo://app?vid=56fae2ce-4e45-42ed-ab37-f0e3d486207b","ios":"levelo://app?vid=56fae2ce-4e45-42ed-ab37-f0e3d486207b"},"vehicle_type_id":"4","last_reported":1701533271,"current_range_meters":4400,"station_id":"ce4bhn12rcd13ifvqgqg","pricing_plan_id":"free"},{"bike_id":"71f20082-da83-4544-9fba-0b380be1c3df","system_id":"levelo_inurba_marseille","lat":43.231562,"lon":5.436933,"is_reserved":false,"is_disabled":false,"rental_uris":{"android":"levelo://app?vid=71f20082-da83-4544-9fba-0b380be1c3df","ios":"levelo://app?vid=71f20082-da83-4544-9fba-0b380be1c3df"},"vehicle_type_id":"4","last_reported":1701533271,"current_range_meters":31200,"station_id":"ce4bhmp2rcd13ifvqgog","pricing_plan_id":"free"},{"bike_id":"f50c292b-cc74-4220-88ff-ce7e4d6e67ca","system_id":"levelo_inurba_marseille","lat":43.231562,"lon":5.436933,"is_reserved":false,"is_disabled":false,"rental_uris":{"android":"levelo://app?vid=f50c292b-cc74-4220-88ff-ce7e4d6e67ca","ios":"levelo://app?vid=f50c292b-cc74-4220-88ff-ce7e4d6e67ca"},"vehicle_type_id":"4","last_reported":1701533271,"current_range_meters":29200,"station_id":"ce4bhmp2rcd13ifvqgog","pricing_plan_id":"free"},{"bike_id":"8b0eecaa-962f-4e0f-9094-7dab4177ce44","system_id":"levelo_inurba_marseille","lat":43.231562,"lon":5.436933,"is_reserved":false,"is_disabled":false,"rental_uris":{"android":"levelo://app?vid=8b0eecaa-962f-4e0f-9094-7dab4177ce44","ios":"levelo://app?vid=8b0eecaa-962f-4e0f-9094-7dab4177ce44"},"vehicle_type_id":"4","last_reported":1701533271,"current_range_meters":26000,"station_id":"ce4bhmp2rcd13ifvqgog","pricing_plan_id":"free"}]}}