{"last_updated":1725991897,"ttl":30,"version":"2.2","data":{"bikes":[{"bike_id":"f3a3e681-c4d1-47fc-93a9-4f4d12a86ec7","system_id":"levelo_inurba_marseille","lat":43.286252,"lon":5.361194,"is_reserved":false,"is_disabled":false,"rental_uris":{"android":"levelo://app?vid=f3a3e681-c4d1-47fc-93a9-4f4d12a86ec7","ios":"levelo://app?vid=f3a3e681-c4d1-47fc-93a9-4f4d12a86ec7"},"vehicle_type_id":"4","last_reported":1725991897,"current_range_meters":10000,"station_id":"ce4bhah2rcd13ifvqej0","pricing_plan_id":"cebpf4jnsgd1na2vs0mg"},{"bike_id":"046bf721-c1c0-40be-9d17-ad221ecda6bd","system_id":"levelo_inurba_marseille","lat":43.286693,"lon":5.386695,"is_reserved":false,"is_disabled":false,"rental_uris":{"android":"levelo://app?vid=046bf721-c1c0-40be-9d17-ad221ecda6bd","ios":"levelo://app?vid=046bf721-c1c0-40be-9d17-ad221ecda6bd"},"vehicle_type_id":"4","last_reported":1725991897,"current_range_meters":8800,"station_id":"ce4bh492rcd13ifvqdug","pricing_plan_id":"cebpf4jnsgd1na2vs0mg"},{"bike_id":"98b93cd0-59a0-450f-a0f2-6512388a46a6","system_id":"levelo_inurba_marseille","lat":43.29804,"lon":5.40413,"is_reserved":false,"is_disabled":false,"rental_uris":{"android":"levelo://app?vid=98b93cd0-59a0-450f-a0f2-6512388a46a6","ios":"levelo://app?vid=98b93cd0-59a0-450f-a0f2-6512388a46a6"},"vehicle_type_id":"4","last_reported":1725991897,"current_range_meters":24400,"station_id":"ce4bh112rcd13ifvqd90","pricing_plan_id":"cebpf4jnsgd1na2vs0mg"},{"bike_id":"9b4e0646-c8d7-4d7f-a814-9f0e924b4926","system_id":"levelo_inurba_marseille","lat":43.28701,"lon":5.37404,"is_reserved":false,"is_disabled":false,"rental_uris":{"android":"levelo://app?vid=9b4e0646-c8d7-4d7f-a814-9f0e924b4926","ios":"levelo://app?vid=9b4e0646-c8d7-4d7f-a814-9f0e924b4926"},"vehicle_type_id":"4","last_reported":1725991897,"current_range_meters":2800,"station_id":"ce4bh3p2rcd13ifvqdq0","pricing_plan_id":"cebpf4jnsgd1na2vs0mg"},{"bike_id":"95e7fdc8-bf5f-4f9c-aaac-a84bae7d977c","system_id":"levelo_inurba_marseille","lat":43.27074,"lon":5.42282,"is_reserved":false,"is_disabled":false,"rental_uris":{"android":"levelo://app?vid=95e7fdc8-bf5f-4f9c-aaac-a84bae7d977c","ios":"levelo://app?vid=95e7fdc8-bf5f-4f9c-aaac-a84bae7d977c"},"vehicle_type_id":"4","last_reported":1725991897,"current_range_meters":38400,"station_id":"ce4bhk92rcd13ifvqgb0","pricing_plan_id":"cebpf4jnsgd1na2vs0mg"},{"bike_id":"069df821-dfdf-4548-baba-b6ff1bba925d","system_id":"levelo_inurba_marseille","lat":43.29574,"lon":5.39961,"is_reserved":false,"is_disabled":false,"rental_uris":{"android":"levelo://app?vid=069df821-dfdf-4548-baba-b6ff1bba925d","ios":"levelo://app?vid=069df821-dfdf-4548-baba-b6ff1bba925d"},"vehicle_type_id":"4","last_reported":1725991897,"current_range_meters":38800,"station_id":"ce4bh312rcd13ifvqdj0","pricing_plan_id":"cebpf4jnsgd1na2vs0mg"},{"bike_id":"cebdcb3c-a582-4217-afdb-03e92107c00e","system_id":"levelo_inurba_marseille","lat":43.289374,"lon":5.396276,"is_reserved":false,"is_disabled":false,"rental_uris":{"android":"levelo://app?vid=cebdcb3c-a582-4217-afdb-03e92107c00e","ios":"levelo://app?vid=cebdcb3c-a582-4217-afdb-03e92107c00e"},"vehicle_type_id":"4","last_reported":1725991897,"current_range_meters":4400,"station_id":"ce4bh3h2rcd13ifvqdn0","pricing_plan_id":"cebpf4jnsgd1na2vs0mg"},{"bike_id":"93a07149-a600-4504-9393-72e7f8bd7e3c","system_id":"levelo_inurba_marseille","lat":43.31332,"lon":5.39697,"is_reserved":false,"is_disabled":false,"rental_uris":{"android":"levelo://app?vid=93a07149-a600-4504-9393-72e7f8bd7e3c","ios":"levelo://app?vid=93a07149-a600-4504-9393-72e7f8bd7e3c"},"vehicle_type_id":"4","last_reported":1725991897,"current_range_meters":38400,"station_id":"ce4bgvp2rcd13ifvqcu0","pricing_plan_id":"cebpf4jnsgd1na2vs0mg"},{"bike_id":"f34747ce-f309-4326-987e-7bc67d09e8c3","system_id":"levelo_inurba_marseille","lat":43.32293,"lon":5.38262,"is_reserved":false,"is_disabled":false,"rental_uris":{"android":"levelo://app?vid=f34747ce-f309-4326-987e-7bc67d09e8c3","ios":"levelo://app?vid=f34747ce-f309-4326-987e-7bc67d09e8c3"},"vehicle_type_id":"4","last_reported":1725991897,"current_range_meters":36000,"station_id":"ce4bhr12rcd13ifvqhqg","pricing_plan_id":"cebpf4jnsgd1na2vs0mg"},{"bike_id":"962bb7a3-05a7-49bc-9a49-5d193216f960","system_id":"levelo_inurba_marseille","lat":43.31763,"lon":5.39021,"is_reserved":false,"is_disabled":false,"rental_uris":{"android":"levelo://app?vid=962bb7a3-05a7-49bc-9a49-5d193216f960","ios":"levelo://app?vid=962bb7a3-05a7-49bc-9a49-5d193216f960"},"vehicle_type_id":"4","last_reported":1725991897,"current_range_meters":29600,"station_id":"ce4bhqp2rcd13ifvqhng","pricing_plan_id":"cebpf4jnsgd1na2vs0mg"},{"bike_id":"3a610c72-f44c-428a-ba87-6ec4a94fc829","system_id":"levelo_inurba_marseille","lat":43.29227,"lon":5.36062,"is_reserved":false,"is_disabled":false,"rental_uris":{"android":"levelo://app?vid=3a610c72-f44c-428a-ba87-6ec4a94fc829","ios":"levelo://app?vid=3a610c72-f44c-428a-ba87-6ec4a94fc829"},"vehicle_type_id":"4","last_reported":1725991897,"current_range_meters":10800,"station_id":"ce4bhbh2rcd13ifvqeqg","pricing_plan_id":"cebpf4jnsgd1na2vs0mg"},{"bike_id":"2e6a8e91-56bc-4736-8e62-060376a60ba5","system_id":"levelo_inurba_marseille","lat":43.29969,"lon":5.3718,"is_reserved":false,"is_disabled":false,"rental_uris":{"android":"levelo://app?vid=2e6a8e91-56bc-4736-8e62-060376a60ba5","ios":"levelo://app?vid=2e6a8e91-56bc-4736-8e62-060376a60ba5"},"vehicle_type_id":"4","last_reported":1725991897,"current_range_meters":8000,"station_id":"ce4bgr92rcd13ifvqc7g","pricing_plan_id":"cebpf4jnsgd1na2vs0mg"},{"bike_id":"f4115c0c-ee36-4e4f-b0f5-d7a496ff544f","system_id":"levelo_inurba_marseille","lat":43.28709,"lon":5.39993,"is_reserved":false,"is_disabled":false,"rental_uris":{"android":"levelo://app?vid=f4115c0c-ee36-4e4f-b0f5-d7a496ff544f","ios":"levelo://app?vid=f4115c0c-ee36-4e4f-b0f5-d7a496ff544f"},"vehicle_type_id":"4","last_reported":1725991897,"current_range_meters":10800,"station_id":"ce4bho92rcd13ifvqh3g","pricing_plan_id":"cebpf4jnsgd1na2vs0mg"},{"bike_id":"ee4607c9-6955-4e13-b7d5-aec07ce4d086","system_id":"levelo_inurba_marseille","lat":43.3169,"lon":5.40485,"is_reserved":false,"is_disabled":false,"rental_uris":{"android":"levelo://app?vid=ee4607c9-6955-4e13-b7d5-aec07ce4d086","ios":"levelo://app?vid=ee4607c9-6955-4e13-b7d5-aec07ce4d086"},"vehicle_type_id":"4","last_reported":1725991897,"current_range_meters":17600,"station_id":"ce4bh012rcd13ifvqd00","pricing_plan_id":"cebpf4jnsgd1na2vs0mg"},{"bike_id":"79188595-59c1-477d-b31f-31815e80c303","system_id":"levelo_inurba_marseille","lat":43.26929,"lon":5.38938,"is_reserved":false,"is_disabled":false,"rental_uris":{"android":"levelo://app?vid=79188595-59c1-477d-b31f-31815e80c303","ios":"levelo://app?vid=79188595-59c1-477d-b31f-31815e80c303"},"vehicle_type_id":"4","last_reported":1725991897,"current_range_meters":27600,"station_id":"ce4bhhh2rcd13ifvqfl0","pricing_plan_id":"cebpf4jnsgd1na2vs0mg"},{"bike_id":"6c02a711-e0d4-4009-9d44-fba5428f55b2","system_id":"levelo_inurba_marseille","lat":43.23202,"lon":5.35556,"is_reserved":false,"is_disabled":false,"rental_uris":{"android":"levelo://app?vid=6c02a711-e0d4-4009-9d44-fba5428f55b2","ios":"levelo://app?vid=6c02a711-e0d4-4009-9d44-fba5428f55b2"},"vehicle_type_id":"4","last_reported":1725991897,"current_range_meters":8400,"station_id":"ce4bhu92rcd13ifvqi70","pricing_plan_id":"cebpf4jnsgd1na2vs0mg"},{"bike_id":"9e6532cf-419a-4ec7-bb94-41f3c17b443b","system_id":"levelo_inurba_marseille","lat":43.31527,"lon":5.38032,"is_reserved":false,"is_disabled":false,"rental_uris":{"android":"levelo://app?vid=9e6532cf-419a-4ec7-bb94-41f3c17b443b","ios":"levelo://app?vid=9e6532cf-419a-4ec7-bb94-41f3c17b443b"},"vehicle_type_id":"4","last_reported":1725991897,"current_range_meters":16000,"station_id":"ce4bhsp2rcd13ifvqi50","pricing_plan_id":"cebpf4jnsgd1na2vs0mg"},{"bike_id":"840c0279-62cb-4ce1-ba8f-b8eb21f37ef0","system_id":"levelo_inurba_marseille","lat":43.290125,"lon":5.386541,"is_reserved":false,"is_disabled":false,"rental_uris":{"android":"levelo://app?vid=840c0279-62cb-4ce1-ba8f-b8eb21f37ef0","ios":"levelo://app?vid=840c0279-62cb-4ce1-ba8f-b8eb21f37ef0"},"vehicle_type_id":"4","last_reported":1725991897,"current_range_meters":10000,"station_id":"ce4bh4p2rcd13ifvqe0g","pricing_plan_id":"cebpf4jnsgd1na2vs0mg"},{"bike_id":"58af0796-66f7-4b56-9899-db46d79e830a","system_id":"levelo_inurba_marseille","lat":43.23967,"lon":5.36635,"is_reserved":false,"is_disabled":false,"rental_uris":{"android":"levelo://app?vid=58af0796-66f7-4b56-9899-db46d79e830a","ios":"levelo://app?vid=58af0796-66f7-4b56-9899-db46d79e830a"},"vehicle_type_id":"4","last_reported":1725991897,"current_range_meters":23200,"station_id":"ce4bhi12rcd13ifvqfp0","pricing_plan_id":"cebpf4jnsgd1na2vs0mg"},{"bike_id":"b59d6bb8-aefb-4db8-b3f2-f169f342ddcd","system_id":"levelo_inurba_marseille","lat":43.32364,"lon":5.38889,"is_reserved":false,"is_disabled":false,"rental_uris":{"android":"levelo://app?vid=b59d6bb8-aefb-4db8-b3f2-f169f342ddcd","ios":"levelo://app?vid=b59d6bb8-aefb-4db8-b3f2-f169f342ddcd"},"vehicle_type_id":"4","last_reported":1725991897,"current_range_meters":7200,"station_id":"ce4bhqp2rcd13ifvqhog","pricing_plan_id":"cebpf4jnsgd1na2vs0mg"},{"bike_id":"e7856795-7181-4708-965e-28de31ac7220","system_id":"levelo_inurba_marseille","lat":43.31728,"lon":5.42402,"is_reserved":false,"is_disabled":false,"rental_uris":{"android":"levelo://app?vid=e7856795-7181-4708-965e-28de31ac7220","ios":"levelo://app?vid=e7856795-7181-4708-965e-28de31ac7220"},"vehicle_type_id":"4","last_reported":1725991897,"current_range_meters":30800,"station_id":"ce4bhp92rcd13ifvqhbg","pricing_plan_id":"cebpf4jnsgd1na2vs0mg"},{"bike_id":"d94cf20d-19e4-4d88-bbb3-72b7a4c6baa3","system_id":"levelo_inurba_marseille","lat":43.32297,"lon":5.38274,"is_reserved":false,"is_disabled":false,"rental_uris":{"android":"levelo://app?vid=d94cf20d-19e4-4d88-bbb3-72b7a4c6baa3","ios":"levelo://app?vid=d94cf20d-19e4-4d88-bbb3-72b7a4c6baa3"},"vehicle_type_id":"4","last_reported":1725991897,"current_range_meters":35600,"station_id":"ce4bhr12rcd13ifvqhqg","pricing_plan_id":"cebpf4jnsgd1na2vs0mg"},{"bike_id":"1c9c8ba7-62e6-4edf-b6d2-42641af33eb8","system_id":"levelo_inurba_marseille","lat":43.292692,"lon":5.408621,"is_reserved":false,"is_disabled":false,"rental_uris":{"android":"levelo://app?vid=1c9c8ba7-62e6-4edf-b6d2-42641af33eb8","ios":"levelo://app?vid=1c9c8ba7-62e6-4edf-b6d2-42641af33eb8"},"vehicle_type_id":"4","last_reported":1725991897,"current_range_meters":4800,"station_id":"ce4bh192rcd13ifvqdc0","pricing_plan_id":"cebpf4jnsgd1na2vs0mg"},{"bike_id":"00ca710c-aa25-453d-b5eb-9286e939dc6d","system_id":"levelo_inurba_marseille","lat":43.29558,"lon":5.42298,"is_reserved":false,"is_disabled":false,"rental_uris":{"android":"levelo://app?vid=00ca710c-aa25-453d-b5eb-9286e939dc6d","ios":"levelo://app?vid=00ca710c-aa25-453d-b5eb-9286e939dc6d"},"vehicle_type_id":"4","last_reported":1725991897,"current_range_meters":6400,"station_id":"ce4bhph2rcd13ifvqhdg","pricing_plan_id":"cebpf4jnsgd1na2vs0mg"},{"bike_id":"9e8ce58e-9632-4017-8f84-94cf9853256b","system_id":"levelo_inurba_marseille","lat":43.29987,"lon":5.37188,"is_reserved":false,"is_disabled":false,"rental_uris":{"android":"levelo://app?vid=9e8ce58e-9632-4017-8f84-94cf9853256b","ios":"levelo://app?vid=9e8ce58e-9632-4017-8f84-94cf9853256b"},"vehicle_type_id":"4","last_reported":1725991897,"current_range_meters":30000,"station_id":"ce4bgr92rcd13ifvqc7g","pricing_plan_id":"cebpf4jnsgd1na2vs0mg"},{"bike_id":"2e23597d-e77d-486c-a95e-6cdb71b1bd53","system_id":"levelo_inurba_marseille","lat":43.32373,"lon":5.38892,"is_reserved":false,"is_disabled":false,"rental_uris":{"android":"levelo://app?vid=2e23597d-e77d-486c-a95e-6cdb71b1bd53","ios":"levelo://app?vid=2e23597d-e77d-486c-a95e-6cdb71b1bd53"},"vehicle_type_id":"4","last_reported":1725991897,"current_range_meters":13600,"station_id":"ce4bhqp2rcd13ifvqhog","pricing_plan_id":"cebpf4jnsgd1na2vs0mg"},{"bike_id":"ea0fae3d-d368-4144-9ff4-3de1dd83913d","system_id":"levelo_inurba_marseille","lat":43.28673,"lon":5.38665,"is_reserved":false,"is_disabled":false,"rental_uris":{"android":"levelo://app?vid=ea0fae3d-d368-4144-9ff4-3de1dd83913d","ios":"levelo://app?vid=ea0fae3d-d368-4144-9ff4-3de1dd83913d"},"vehicle_type_id":"4","last_reported":1725991897,"current_range_meters":8000,"station_id":"ce4bh492rcd13ifvqdug","pricing_plan_id":"cebpf4jnsgd1na2vs0mg"},{"bike_id":"a0f777fd-2b64-4158-818c-6e3cb77d56a3","system_id":"levelo_inurba_marseille","lat":43.30805,"lon":5.43524,"is_reserved":false,"is_disabled":false,"rental_uris":{"android":"levelo://app?vid=a0f777fd-2b64-4158-818c-6e3cb77d56a3","ios":"levelo://app?vid=a0f777fd-2b64-4158-818c-6e3cb77d56a3"},"vehicle_type_id":"4","last_reported":1725991897,"current_range_meters":17200,"station_id":"ce4bhph2rcd13ifvqheg","pricing_plan_id":"cebpf4jnsgd1na2vs0mg"},{"bike_id":"ea52eade-5ccb-43f1-ae37-46735420bd2d","system_id":"levelo_inurba_marseille","lat":43.279989,"lon":5.416629,"is_reserved":false,"is_disabled":false,"rental_uris":{"android":"levelo://app?vid=ea52eade-5ccb-43f1-ae37-46735420bd2d","ios":"levelo://app?vid=ea52eade-5ccb-43f1-ae37-46735420bd2d"},"vehicle_type_id":"4","last_reported":1725991897,"current_range_meters":34000,"station_id":"ce4bho12rcd13ifvqh1g","pricing_plan_id":"cebpf4jnsgd1na2vs0mg"},{"bike_id":"6ac0385a-09c3-4112-8eb3-5351bb9c2a07","system_id":"levelo_inurba_marseille","lat":43.28461,"lon":5.35894,"is_reserved":false,"is_disabled":false,"rental_uris":{"android":"levelo://app?vid=6ac0385a-09c3-4112-8eb3-5351bb9c2a07","ios":"levelo://app?vid=6ac0385a-09c3-4112-8eb3-5351bb9c2a07"},"vehicle_type_id":"4","last_reported":1725991897,"current_range_meters":3200,"station_id":"ce4bhah2rcd13ifvqei0","pricing_plan_id":"cebpf4jnsgd1na2vs0mg"},{"bike_id":"b77681a4-4ed0-4be8-bbd7-2dc7c4cd333c","system_id":"levelo_inurba_marseille","lat":43.31764,"lon":5.39021,"is_reserved":false,"is_disabled":false,"rental_uris":{"android":"levelo://app?vid=b77681a4-4ed0-4be8-bbd7-2dc7c4cd333c","ios":"levelo://app?vid=b77681a4-4ed0-4be8-bbd7-2dc7c4cd333c"},"vehicle_type_id":"4","last_reported":1725991897,"current_range_meters":33200,"station_id":"ce4bhqp2rcd13ifvqhng","pricing_plan_id":"cebpf4jnsgd1na2vs0mg"},{"bike_id":"b7f41d6f-4b27-4fa1-b7f1-d395fe8a5d40","system_id":"levelo_inurba_marseille","lat":43.2794,"lon":5.41046,"is_reserved":false,"is_disabled":false,"rental_uris":{"android":"levelo://app?vid=b7f41d6f-4b27-4fa1-b7f1-d395fe8a5d40","ios":"levelo://app?vid=b7f41d6f-4b27-4fa1-b7f1-d395fe8a5d40"},"vehicle_type_id":"4","last_reported":1725991897,"current_range_meters":24400,"station_id":"ce4bhnp2rcd13ifvqh0g","pricing_plan_id":"cebpf4jnsgd1na2vs0mg"},{"bike_id":"9e1511d4-c5d7-457d-bed9-25eec8af8076","system_id":"levelo_inurba_marseille","lat":43.28354,"lon":5.38104,"is_reserved":false,"is_disabled":false,"rental_uris":{"android":"levelo://app?vid=9e1511d4-c5d7-457d-bed9-25eec8af8076","ios":"levelo://app?vid=9e1511d4-c5d7-457d-bed9-25eec8af8076"},"vehicle_type_id":"4","last_reported":1725991897,"current_range_meters":30400,"station_id":"ce4bh412rcd13ifvqdr0","pricing_plan_id":"cebpf4jnsgd1na2vs0mg"},{"bike_id":"f4de3804-6ab0-4165-ab8b-726e923a29d8","system_id":"levelo_inurba_marseille","lat":43.29011,"lon":5.38158,"is_reserved":false,"is_disabled":false,"rental_uris":{"android":"levelo://app?vid=f4de3804-6ab0-4165-ab8b-726e923a29d8","ios":"levelo://app?vid=f4de3804-6ab0-4165-ab8b-726e923a29d8"},"vehicle_type_id":"4","last_reported":1725991897,"current_range_meters":17600,"station_id":"ce4bh4p2rcd13ifvqe1g","pricing_plan_id":"cebpf4jnsgd1na2vs0mg"},{"bike_id":"044c6c19-928b-49be-810d-1a1364296b66","system_id":"levelo_inurba_marseille","lat":43.27811,"lon":5.40711,"is_reserved":false,"is_disabled":false,"rental_uris":{"android":"levelo://app?vid=044c6c19-928b-49be-810d-1a1364296b66","ios":"levelo://app?vid=044c6c19-928b-49be-810d-1a1364296b66"},"vehicle_type_id":"4","last_reported":1725991897,"current_range_meters":23200,"station_id":"ce4bhnh2rcd13ifvqgtg","pricing_plan_id":"cebpf4jnsgd1na2vs0mg"},{"bike_id":"cb64f9ac-d377-4fbc-88ec-d3c3f84dd02b","system_id":"levelo_inurba_marseille","lat":43.27179,"lon":5.40996,"is_reserved":false,"is_disabled":false,"rental_uris":{"android":"levelo://app?vid=cb64f9ac-d377-4fbc-88ec-d3c3f84dd02b","ios":"levelo://app?vid=cb64f9ac-d377-4fbc-88ec-d3c3f84dd02b"},"vehicle_type_id":"4","last_reported":1725991897,"current_range_meters":15200,"station_id":"ce4bhl12rcd13ifvqgf0","pricing_plan_id":"cebpf4jnsgd1na2vs0mg"},{"bike_id":"37488835-2ef5-4f93-91b9-7da7380734c1","system_id":"levelo_inurba_marseille","lat":43.28411,"lon":5.34999,"is_reserved":false,"is_disabled":false,"rental_uris":{"android":"levelo://app?vid=37488835-2ef5-4f93-91b9-7da7380734c1","ios":"levelo://app?vid=37488835-2ef5-4f93-91b9-7da7380734c1"},"vehicle_type_id":"4","last_reported":1725991897,"current_range_meters":38800,"station_id":"ce4bhbh2rcd13ifvqepg","pricing_plan_id":"cebpf4jnsgd1na2vs0mg"},{"bike_id":"ddec4860-1793-4c53-9e57-33acb664ce05","system_id":"levelo_inurba_marseille","lat":43.29531,"lon":5.38532,"is_reserved":false,"is_disabled":false,"rental_uris":{"android":"levelo://app?vid=ddec4860-1793-4c53-9e57-33acb664ce05","ios":"levelo://app?vid=ddec4860-1793-4c53-9e57-33acb664ce05"},"vehicle_type_id":"4","last_reported":1725991897,"current_range_meters":38400,"station_id":"ce4bgih2rcd13ifvqba0","pricing_plan_id":"cebpf4jnsgd1na2vs0mg"},{"bike_id":"802c109f-0bef-4ea9-b692-0f53d80ce135","system_id":"levelo_inurba_marseille","lat":43.28621,"lon":5.35104,"is_reserved":false,"is_disabled":false,"rental_uris":{"android":"levelo://app?vid=802c109f-0bef-4ea9-b692-0f53d80ce135","ios":"levelo://app?vid=802c109f-0bef-4ea9-b692-0f53d80ce135"},"vehicle_type_id":"4","last_reported":1725991897,"current_range_meters":38800,"station_id":"ce4bhch2rcd13ifvqeug","pricing_plan_id":"cebpf4jnsgd1na2vs0mg"},{"bike_id":"fd8d8a6c-f985-45da-a7aa-0a1be3eba506","system_id":"levelo_inurba_marseille","lat":43.2698,"lon":5.39856,"is_reserved":false,"is_disabled":false,"rental_uris":{"android":"levelo://app?vid=fd8d8a6c-f985-45da-a7aa-0a1be3eba506","ios":"levelo://app?vid=fd8d8a6c-f985-45da-a7aa-0a1be3eba506"},"vehicle_type_id":"4","last_reported":1725991897,"current_range_meters":28000,"station_id":"","pricing_plan_id":"cebpf4jnsgd1na2vs0mg"},{"bike_id":"f5477965-e49c-4432-8635-7f674b69b771","system_id":"levelo_inurba_marseille","lat":43.29556,"lon":5.42293,"is_reserved":false,"is_disabled":false,"rental_uris":{"android":"levelo://app?vid=f5477965-e49c-4432-8635-7f674b69b771","ios":"levelo://app?vid=f5477965-e49c-4432-8635-7f674b69b771"},"vehicle_type_id":"4","last_reported":1725991897,"current_range_meters":3600,"station_id":"ce4bhph2rcd13ifvqhdg","pricing_plan_id":"cebpf4jnsgd1na2vs0mg"},{"bike_id":"5d352641-3593-4267-b2f1-8ab039017e05","system_id":"levelo_inurba_marseille","lat":43.23196,"lon":5.35554,"is_reserved":false,"is_disabled":false,"rental_uris":{"android":"levelo://app?vid=5d352641-3593-4267-b2f1-8ab039017e05","ios":"levelo://app?vid=5d352641-3593-4267-b2f1-8ab039017e05"},"vehicle_type_id":"4","last_reported":1725991897,"current_range_meters":3200,"station_id":"ce4bhu92rcd13ifvqi70","pricing_plan_id":"cebpf4jnsgd1na2vs0mg"},{"bike_id":"29f1cbac-77e4-4249-a0a2-be996311df9b","system_id":"levelo_inurba_marseille","lat":43.29713,"lon":5.37881,"is_reserved":false,"is_disabled":false,"rental_uris":{"android":"levelo://app?vid=29f1cbac-77e4-4249-a0a2-be996311df9b","ios":"levelo://app?vid=29f1cbac-77e4-4249-a0a2-be996311df9b"},"vehicle_type_id":"4","last_reported":1725991897,"current_range_meters":9600,"station_id":"","pricing_plan_id":"cebpf4jnsgd1na2vs0mg"},{"bike_id":"07688173-b0ed-47c0-b1e4-7d18479ab2e6","system_id":"levelo_inurba_marseille","lat":43.30265,"lon":5.40081,"is_reserved":false,"is_disabled":false,"rental_uris":{"android":"levelo://app?vid=07688173-b0ed-47c0-b1e4-7d18479ab2e6","ios":"levelo://app?vid=07688173-b0ed-47c0-b1e4-7d18479ab2e6"},"vehicle_type_id":"4","last_reported":1725991897,"current_range_meters":38400,"station_id":"ce4bgvh2rcd13ifvqcs0","pricing_plan_id":"cebpf4jnsgd1na2vs0mg"},{"bike_id":"8f48865f-d256-458e-ac11-354e59532d8b","system_id":"levelo_inurba_marseille","lat":43.29961,"lon":5.41327,"is_reserved":false,"is_disabled":false,"rental_uris":{"android":"levelo://app?vid=8f48865f-d256-458e-ac11-354e59532d8b","ios":"levelo://app?vid=8f48865f-d256-458e-ac11-354e59532d8b"},"vehicle_type_id":"4","last_reported":1725991897,"current_range_meters":4000,"station_id":"ce4bhp12rcd13ifvqh9g","pricing_plan_id":"cebpf4jnsgd1na2vs0mg"},{"bike_id":"723c073e-5c6a-4fb9-a382-e8ea44a73076","system_id":"levelo_inurba_marseille","lat":43.29563,"lon":5.42286,"is_reserved":false,"is_disabled":false,"rental_uris":{"android":"levelo://app?vid=723c073e-5c6a-4fb9-a382-e8ea44a73076","ios":"levelo://app?vid=723c073e-5c6a-4fb9-a382-e8ea44a73076"},"vehicle_type_id":"4","last_reported":1725991897,"current_range_meters":10000,"station_id":"ce4bhph2rcd13ifvqhdg","pricing_plan_id":"cebpf4jnsgd1na2vs0mg"},{"bike_id":"2aad4b02-945c-4d35-b3a5-85b3d17dc503","system_id":"levelo_inurba_marseille","lat":43.32297,"lon":5.38265,"is_reserved":false,"is_disabled":false,"rental_uris":{"android":"levelo://app?vid=2aad4b02-945c-4d35-b3a5-85b3d17dc503","ios":"levelo://app?vid=2aad4b02-945c-4d35-b3a5-85b3d17dc503"},"vehicle_type_id":"4","last_reported":1725991897,"current_range_meters":8000,"station_id":"ce4bhr12rcd13ifvqhqg","pricing_plan_id":"cebpf4jnsgd1na2vs0mg"},{"bike_id":"6073408b-b4fc-4eeb-ac9e-351084b1cf63","system_id":"levelo_inurba_marseille","lat":43.24817,"lon":5.37466,"is_reserved":false,"is_disabled":false,"rental_uris":{"android":"levelo://app?vid=6073408b-b4fc-4eeb-ac9e-351084b1cf63","ios":"levelo://app?vid=6073408b-b4fc-4eeb-ac9e-351084b1cf63"},"vehicle_type_id":"4","last_reported":1725991897,"current_range_meters":3200,"station_id":"ce4bhgh2rcd13ifvqfb0","pricing_plan_id":"cebpf4jnsgd1na2vs0mg"},{"bike_id":"c1a95008-ab85-4db6-abdc-4fa36e813c37","system_id":"levelo_inurba_marseille","lat":43.23961,"lon":5.36633,"is_reserved":false,"is_disabled":false,"rental_uris":{"android":"levelo://app?vid=c1a95008-ab85-4db6-abdc-4fa36e813c37","ios":"levelo://app?vid=c1a95008-ab85-4db6-abdc-4fa36e813c37"},"vehicle_type_id":"4","last_reported":1725991897,"current_range_meters":22000,"station_id":"ce4bhi12rcd13ifvqfp0","pricing_plan_id":"cebpf4jnsgd1na2vs0mg"},{"bike_id":"db968614-7668-408e-9758-e21867157427","system_id":"levelo_inurba_marseille","lat":43.30925,"lon":5.40139,"is_reserved":false,"is_disabled":false,"rental_uris":{"android":"levelo://app?vid=db968614-7668-408e-9758-e21867157427","ios":"levelo://app?vid=db968614-7668-408e-9758-e21867157427"},"vehicle_type_id":"4","last_reported":1725991897,"current_range_meters":37600,"station_id":"ce4bgvp2rcd13ifvqct0","pricing_plan_id":"cebpf4jnsgd1na2vs0mg"},{"bike_id":"eb64cd5e-0de1-45b6-830d-0f125a4d3cff","system_id":"levelo_inurba_marseille","lat":43.29193,"lon":5.39317,"is_reserved":false,"is_disabled":false,"rental_uris":{"android":"levelo://app?vid=eb64cd5e-0de1-45b6-830d-0f125a4d3cff","ios":"levelo://app?vid=eb64cd5e-0de1-45b6-830d-0f125a4d3cff"},"vehicle_type_id":"4","last_reported":1725991897,"current_range_meters":4000,"station_id":"ce4bh192rcd13ifvqdd0","pricing_plan_id":"cebpf4jnsgd1na2vs0mg"},{"bike_id":"ff31ff1d-6d6b-48df-ac91-eca8dac2f506","system_id":"levelo_inurba_marseille","lat":43.26688,"lon":5.38273,"is_reserved":false,"is_disabled":false,"rental_uris":{"android":"levelo://app?vid=ff31ff1d-6d6b-48df-ac91-eca8dac2f506","ios":"levelo://app?vid=ff31ff1d-6d6b-48df-ac91-eca8dac2f506"},"vehicle_type_id":"4","last_reported":1725991897,"current_range_meters":38800,"station_id":"ce4bhg92rcd13ifvqf90","pricing_plan_id":"cebpf4jnsgd1na2vs0mg"},{"bike_id":"3a5232c5-cc45-44ea-84c3-d1e824e620d9","system_id":"levelo_inurba_marseille","lat":43.301007,"lon":5.386002,"is_reserved":false,"is_disabled":false,"rental_uris":{"android":"levelo://app?vid=3a5232c5-cc45-44ea-84c3-d1e824e620d9","ios":"levelo://app?vid=3a5232c5-cc45-44ea-84c3-d1e824e620d9"},"vehicle_type_id":"4","last_reported":1725991897,"current_range_meters":23200,"station_id":"ce4bhr12rcd13ifvqhpg","pricing_plan_id":"cebpf4jnsgd1na2vs0mg"},{"bike_id":"c4a11cd6-597d-4826-ad55-56b34d91dddb","system_id":"levelo_inurba_marseille","lat":43.24079,"lon":5.37765,"is_reserved":false,"is_disabled":false,"rental_uris":{"android":"levelo://app?vid=c4a11cd6-597d-4826-ad55-56b34d91dddb","ios":"levelo://app?vid=c4a11cd6-597d-4826-ad55-56b34d91dddb"},"vehicle_type_id":"4","last_reported":1725991897,"current_range_meters":16800,"station_id":"ce4bhnp2rcd13ifvqgvg","pricing_plan_id":"cebpf4jnsgd1na2vs0mg"},{"bike_id":"f1009423-44b9-46e0-916f-a90ebc93de0a","system_id":"levelo_inurba_marseille","lat":43.31295,"lon":5.37561,"is_reserved":false,"is_disabled":false,"rental_uris":{"android":"levelo://app?vid=f1009423-44b9-46e0-916f-a90ebc93de0a","ios":"levelo://app?vid=f1009423-44b9-46e0-916f-a90ebc93de0a"},"vehicle_type_id":"4","last_reported":1725991897,"current_range_meters":16800,"station_id":"","pricing_plan_id":"cebpf4jnsgd1na2vs0mg"},{"bike_id":"d479c876-2159-43b6-a8cf-685fded57ab7","system_id":"levelo_inurba_marseille","lat":43.3237,"lon":5.38882,"is_reserved":false,"is_disabled":false,"rental_uris":{"android":"levelo://app?vid=d479c876-2159-43b6-a8cf-685fded57ab7","ios":"levelo://app?vid=d479c876-2159-43b6-a8cf-685fded57ab7"},"vehicle_type_id":"4","last_reported":1725991897,"current_range_meters":8800,"station_id":"ce4bhqp2rcd13ifvqhog","pricing_plan_id":"cebpf4jnsgd1na2vs0mg"},{"bike_id":"e9325df9-e72f-4573-a615-b79136d0be44","system_id":"levelo_inurba_marseille","lat":43.27818,"lon":5.40714,"is_reserved":false,"is_disabled":false,"rental_uris":{"android":"levelo://app?vid=e9325df9-e72f-4573-a615-b79136d0be44","ios":"levelo://app?vid=e9325df9-e72f-4573-a615-b79136d0be44"},"vehicle_type_id":"4","last_reported":1725991897,"current_range_meters":9600,"station_id":"ce4bhnh2rcd13ifvqgtg","pricing_plan_id":"cebpf4jnsgd1na2vs0mg"},{"bike_id":"11fb4c44-b1c2-46f0-9320-2d1e43b5bad6","system_id":"levelo_inurba_marseille","lat":43.2846,"lon":5.35885,"is_reserved":false,"is_disabled":false,"rental_uris":{"android":"levelo://app?vid=11fb4c44-b1c2-46f0-9320-2d1e43b5bad6","ios":"levelo://app?vid=11fb4c44-b1c2-46f0-9320-2d1e43b5bad6"},"vehicle_type_id":"4","last_reported":1725991897,"current_range_meters":27600,"station_id":"ce4bhah2rcd13ifvqei0","pricing_plan_id":"cebpf4jnsgd1na2vs0mg"},{"bike_id":"9aa5c77d-a7d3-487a-93fc-12a66b7bdc71","system_id":"levelo_inurba_marseille","lat":43.31287,"lon":5.40179,"is_reserved":false,"is_disabled":false,"rental_uris":{"android":"levelo://app?vid=9aa5c77d-a7d3-487a-93fc-12a66b7bdc71","ios":"levelo://app?vid=9aa5c77d-a7d3-487a-93fc-12a66b7bdc71"},"vehicle_type_id":"4","last_reported":1725991897,"current_range_meters":36400,"station_id":"ce4bh092rcd13ifvqd30","pricing_plan_id":"cebpf4jnsgd1na2vs0mg"},{"bike_id":"2d92bd08-e042-418b-b0d5-25effce55802","system_id":"levelo_inurba_marseille","lat":43.2598,"lon":5.37571,"is_reserved":false,"is_disabled":false,"rental_uris":{"android":"levelo://app?vid=2d92bd08-e042-418b-b0d5-25effce55802","ios":"levelo://app?vid=2d92bd08-e042-418b-b0d5-25effce55802"},"vehicle_type_id":"4","last_reported":1725991897,"current_range_meters":21600,"station_id":"","pricing_plan_id":"cebpf4jnsgd1na2vs0mg"},{"bike_id":"4b740380-435b-4ce9-9b96-3da5fb37bac6","system_id":"levelo_inurba_marseille","lat":43.30961,"lon":5.40059,"is_reserved":false,"is_disabled":false,"rental_uris":{"android":"levelo://app?vid=4b740380-435b-4ce9-9b96-3da5fb37bac6","ios":"levelo://app?vid=4b740380-435b-4ce9-9b96-3da5fb37bac6"},"vehicle_type_id":"4","last_reported":1725991897,"current_range_meters":11600,"station_id":"ce4bhpp2rcd13ifvqhgg","pricing_plan_id":"cebpf4jnsgd1na2vs0mg"},{"bike_id":"7b2b6aa9-d9ad-475c-a16f-abdf3eec6d77","system_id":"levelo_inurba_marseille","lat":43.22934,"lon":5.35393,"is_reserved":false,"is_disabled":false,"rental_uris":{"android":"levelo://app?vid=7b2b6aa9-d9ad-475c-a16f-abdf3eec6d77","ios":"levelo://app?vid=7b2b6aa9-d9ad-475c-a16f-abdf3eec6d77"},"vehicle_type_id":"4","last_reported":1725991897,"current_range_meters":20800,"station_id":"cpo3532slgdg3j2ikp40","pricing_plan_id":"cebpf4jnsgd1na2vs0mg"},{"bike_id":"2c8e647e-6645-4fce-b27e-a37e68dfb606","system_id":"levelo_inurba_marseille","lat":43.31327,"lon":5.39699,"is_reserved":false,"is_disabled":false,"rental_uris":{"android":"levelo://app?vid=2c8e647e-6645-4fce-b27e-a37e68dfb606","ios":"levelo://app?vid=2c8e647e-6645-4fce-b27e-a37e68dfb606"},"vehicle_type_id":"4","last_reported":1725991897,"current_range_meters":38800,"station_id":"ce4bgvp2rcd13ifvqcu0","pricing_plan_id":"cebpf4jnsgd1na2vs0mg"},{"bike_id":"e9a48fe1-13e0-4605-a8d3-026756af862b","system_id":"levelo_inurba_marseille","lat":43.30278,"lon":5.37708,"is_reserved":false,"is_disabled":false,"rental_uris":{"android":"levelo://app?vid=e9a48fe1-13e0-4605-a8d3-026756af862b","ios":"levelo://app?vid=e9a48fe1-13e0-4605-a8d3-026756af862b"},"vehicle_type_id":"4","last_reported":1725991897,"current_range_meters":33600,"station_id":"ce4bguh2rcd13ifvqcj0","pricing_plan_id":"cebpf4jnsgd1na2vs0mg"},{"bike_id":"ff3573c2-afdc-4329-bf14-0ae61f4c884f","system_id":"levelo_inurba_marseille","lat":43.29695,"lon":5.37691,"is_reserved":false,"is_disabled":false,"rental_uris":{"android":"levelo://app?vid=ff3573c2-afdc-4329-bf14-0ae61f4c884f","ios":"levelo://app?vid=ff3573c2-afdc-4329-bf14-0ae61f4c884f"},"vehicle_type_id":"4","last_reported":1725991897,"current_range_meters":3200,"station_id":"ce4bgkh2rcd13ifvqbl0","pricing_plan_id":"cebpf4jnsgd1na2vs0mg"},{"bike_id":"7f4ea667-56df-4b26-bd46-3e71bc3cc245","system_id":"levelo_inurba_marseille","lat":43.29318,"lon":5.35559,"is_reserved":false,"is_disabled":false,"rental_uris":{"android":"levelo://app?vid=7f4ea667-56df-4b26-bd46-3e71bc3cc245","ios":"levelo://app?vid=7f4ea667-56df-4b26-bd46-3e71bc3cc245"},"vehicle_type_id":"4","last_reported":1725991897,"current_range_meters":7200,"station_id":"","pricing_plan_id":"cebpf4jnsgd1na2vs0mg"},{"bike_id":"3b163329-75e0-42ce-a395-e2936b5dfbec","system_id":"levelo_inurba_marseille","lat":43.2956,"lon":5.42288,"is_reserved":false,"is_disabled":false,"rental_uris":{"android":"levelo://app?vid=3b163329-75e0-42ce-a395-e2936b5dfbec","ios":"levelo://app?vid=3b163329-75e0-42ce-a395-e2936b5dfbec"},"vehicle_type_id":"4","last_reported":1725991897,"current_range_meters":12800,"station_id":"ce4bhph2rcd13ifvqhdg","pricing_plan_id":"cebpf4jnsgd1na2vs0mg"},{"bike_id":"d3c8ea6e-d01d-4d9e-9557-beffc1884ace","system_id":"levelo_inurba_marseille","lat":43.32293,"lon":5.38273,"is_reserved":false,"is_disabled":false,"rental_uris":{"android":"levelo://app?vid=d3c8ea6e-d01d-4d9e-9557-beffc1884ace","ios":"levelo://app?vid=d3c8ea6e-d01d-4d9e-9557-beffc1884ace"},"vehicle_type_id":"4","last_reported":1725991897,"current_range_meters":39200,"station_id":"ce4bhr12rcd13ifvqhqg","pricing_plan_id":"cebpf4jnsgd1na2vs0mg"},{"bike_id":"74144048-6a3e-478d-be5d-781ca9700498","system_id":"levelo_inurba_marseille","lat":43.31329,"lon":5.39698,"is_reserved":false,"is_disabled":false,"rental_uris":{"android":"levelo://app?vid=74144048-6a3e-478d-be5d-781ca9700498","ios":"levelo://app?vid=74144048-6a3e-478d-be5d-781ca9700498"},"vehicle_type_id":"4","last_reported":1725991897,"current_range_meters":22400,"station_id":"ce4bgvp2rcd13ifvqcu0","pricing_plan_id":"cebpf4jnsgd1na2vs0mg"},{"bike_id":"507f99d3-0b82-4a35-89e2-98eb58769a71","system_id":"levelo_inurba_marseille","lat":43.23192,"lon":5.35549,"is_reserved":false,"is_disabled":false,"rental_uris":{"android":"levelo://app?vid=507f99d3-0b82-4a35-89e2-98eb58769a71","ios":"levelo://app?vid=507f99d3-0b82-4a35-89e2-98eb58769a71"},"vehicle_type_id":"4","last_reported":1725991897,"current_range_meters":16000,"station_id":"ce4bhu92rcd13ifvqi70","pricing_plan_id":"cebpf4jnsgd1na2vs0mg"},{"bike_id":"b4800b53-ab76-4695-8299-3f92b6aa3c45","system_id":"levelo_inurba_marseille","lat":43.28726,"lon":5.36079,"is_reserved":false,"is_disabled":false,"rental_uris":{"android":"levelo://app?vid=b4800b53-ab76-4695-8299-3f92b6aa3c45","ios":"levelo://app?vid=b4800b53-ab76-4695-8299-3f92b6aa3c45"},"vehicle_type_id":"4","last_reported":1725991897,"current_range_meters":16000,"station_id":"cki0cbj6b192h4jlfktg","pricing_plan_id":"cebpf4jnsgd1na2vs0mg"},{"bike_id":"a7daed7b-c59b-4520-90c6-7a166edfccef","system_id":"levelo_inurba_marseille","lat":43.280442,"lon":5.369288,"is_reserved":false,"is_disabled":false,"rental_uris":{"android":"levelo://app?vid=a7daed7b-c59b-4520-90c6-7a166edfccef","ios":"levelo://app?vid=a7daed7b-c59b-4520-90c6-7a166edfccef"},"vehicle_type_id":"4","last_reported":1725991897,"current_range_meters":6400,"station_id":"ce4bha12rcd13ifvqef0","pricing_plan_id":"cebpf4jnsgd1na2vs0mg"},{"bike_id":"249153fa-4b59-493d-bc55-4176acf8acf5","system_id":"levelo_inurba_marseille","lat":43.282623,"lon":5.350479,"is_reserved":false,"is_disabled":false,"rental_uris":{"android":"levelo://app?vid=249153fa-4b59-493d-bc55-4176acf8acf5","ios":"levelo://app?vid=249153fa-4b59-493d-bc55-4176acf8acf5"},"vehicle_type_id":"4","last_reported":1725991897,"current_range_meters":34800,"station_id":"ce4bhbp2rcd13ifvqerg","pricing_plan_id":"cebpf4jnsgd1na2vs0mg"},{"bike_id":"36e02e03-11f3-41ac-9b0f-93c4017adc48","system_id":"levelo_inurba_marseille","lat":43.27355,"lon":5.41602,"is_reserved":false,"is_disabled":false,"rental_uris":{"android":"levelo://app?vid=36e02e03-11f3-41ac-9b0f-93c4017adc48","ios":"levelo://app?vid=36e02e03-11f3-41ac-9b0f-93c4017adc48"},"vehicle_type_id":"4","last_reported":1725991897,"current_range_meters":5600,"station_id":"","pricing_plan_id":"cebpf4jnsgd1na2vs0mg"},{"bike_id":"fc1155b4-c230-4be8-a630-1fbbd7c3bd7a","system_id":"levelo_inurba_marseille","lat":43.31324,"lon":5.39686,"is_reserved":false,"is_disabled":false,"rental_uris":{"android":"levelo://app?vid=fc1155b4-c230-4be8-a630-1fbbd7c3bd7a","ios":"levelo://app?vid=fc1155b4-c230-4be8-a630-1fbbd7c3bd7a"},"vehicle_type_id":"4","last_reported":1725991897,"current_range_meters":14000,"station_id":"ce4bgvp2rcd13ifvqcu0","pricing_plan_id":"cebpf4jnsgd1na2vs0mg"},{"bike_id":"36973a74-dcb5-42a3-b6ab-222146836943","system_id":"levelo_inurba_marseille","lat":43.31764,"lon":5.39014,"is_reserved":false,"is_disabled":false,"rental_uris":{"android":"levelo://app?vid=36973a74-dcb5-42a3-b6ab-222146836943","ios":"levelo://app?vid=36973a74-dcb5-42a3-b6ab-222146836943"},"vehicle_type_id":"4","last_reported":1725991897,"current_range_meters":17600,"station_id":"ce4bhqp2rcd13ifvqhng","pricing_plan_id":"cebpf4jnsgd1na2vs0mg"},{"bike_id":"4eff876a-60f1-458a-a289-6e7a54b9bcc3","system_id":"levelo_inurba_marseille","lat":43.25723,"lon":5.41121,"is_reserved":false,"is_disabled":false,"rental_uris":{"android":"levelo://app?vid=4eff876a-60f1-458a-a289-6e7a54b9bcc3","ios":"levelo://app?vid=4eff876a-60f1-458a-a289-6e7a54b9bcc3"},"vehicle_type_id":"4","last_reported":1725991897,"current_range_meters":9200,"station_id":"ce4bhkp2rcd13ifvqgd0","pricing_plan_id":"cebpf4jnsgd1na2vs0mg"},{"bike_id":"5b9bb0b4-a876-498f-b099-b8fa0747ab74","system_id":"levelo_inurba_marseille","lat":43.31696,"lon":5.40469,"is_reserved":false,"is_disabled":false,"rental_uris":{"android":"levelo://app?vid=5b9bb0b4-a876-498f-b099-b8fa0747ab74","ios":"levelo://app?vid=5b9bb0b4-a876-498f-b099-b8fa0747ab74"},"vehicle_type_id":"4","last_reported":1725991897,"current_range_meters":38800,"station_id":"ce4bh012rcd13ifvqd00","pricing_plan_id":"cebpf4jnsgd1na2vs0mg"},{"bike_id":"9042a679-e579-498b-bc4f-3859be122eff","system_id":"levelo_inurba_marseille","lat":43.31766,"lon":5.39016,"is_reserved":false,"is_disabled":false,"rental_uris":{"android":"levelo://app?vid=9042a679-e579-498b-bc4f-3859be122eff","ios":"levelo://app?vid=9042a679-e579-498b-bc4f-3859be122eff"},"vehicle_type_id":"4","last_reported":1725991897,"current_range_meters":7200,"station_id":"ce4bhqp2rcd13ifvqhng","pricing_plan_id":"cebpf4jnsgd1na2vs0mg"},{"bike_id":"b24bcaac-1ebb-42e7-886a-a6b3b2b9eba8","system_id":"levelo_inurba_marseille","lat":43.28457,"lon":5.35886,"is_reserved":false,"is_disabled":false,"rental_uris":{"android":"levelo://app?vid=b24bcaac-1ebb-42e7-886a-a6b3b2b9eba8","ios":"levelo://app?vid=b24bcaac-1ebb-42e7-886a-a6b3b2b9eba8"},"vehicle_type_id":"4","last_reported":1725991897,"current_range_meters":24800,"station_id":"ce4bhah2rcd13ifvqei0","pricing_plan_id":"cebpf4jnsgd1na2vs0mg"},{"bike_id":"83d91187-0e5d-4449-94c3-2adf02a5028b","system_id":"levelo_inurba_marseille","lat":43.2738,"lon":5.36258,"is_reserved":false,"is_disabled":false,"rental_uris":{"android":"levelo://app?vid=83d91187-0e5d-4449-94c3-2adf02a5028b","ios":"levelo://app?vid=83d91187-0e5d-4449-94c3-2adf02a5028b"},"vehicle_type_id":"4","last_reported":1725991897,"current_range_meters":35200,"station_id":"ce4bhbh2rcd13ifvqeo0","pricing_plan_id":"cebpf4jnsgd1na2vs0mg"},{"bike_id":"5876c5ef-9fac-478d-bd3c-ea1780c21005","system_id":"levelo_inurba_marseille","lat":43.33762,"lon":5.3745,"is_reserved":false,"is_disabled":false,"rental_uris":{"android":"levelo://app?vid=5876c5ef-9fac-478d-bd3c-ea1780c21005","ios":"levelo://app?vid=5876c5ef-9fac-478d-bd3c-ea1780c21005"},"vehicle_type_id":"4","last_reported":1725991897,"current_range_meters":36000,"station_id":"","pricing_plan_id":"cebpf4jnsgd1na2vs0mg"},{"bike_id":"3ef293cb-6b10-47c2-a61b-1c747b67c2aa","system_id":"levelo_inurba_marseille","lat":43.229666,"lon":5.354241,"is_reserved":false,"is_disabled":false,"rental_uris":{"android":"levelo://app?vid=3ef293cb-6b10-47c2-a61b-1c747b67c2aa","ios":"levelo://app?vid=3ef293cb-6b10-47c2-a61b-1c747b67c2aa"},"vehicle_type_id":"4","last_reported":1725991897,"current_range_meters":4000,"station_id":"cpo3532slgdg3j2ikp40","pricing_plan_id":"cebpf4jnsgd1na2vs0mg"},{"bike_id":"e71cc727-b2a1-4d29-ad39-3b83dbb82be6","system_id":"levelo_inurba_marseille","lat":43.299,"lon":5.43666,"is_reserved":false,"is_disabled":false,"rental_uris":{"android":"levelo://app?vid=e71cc727-b2a1-4d29-ad39-3b83dbb82be6","ios":"levelo://app?vid=e71cc727-b2a1-4d29-ad39-3b83dbb82be6"},"vehicle_type_id":"4","last_reported":1725991897,"current_range_meters":12000,"station_id":"ce4bhpp2rcd13ifvqhfg","pricing_plan_id":"cebpf4jnsgd1na2vs0mg"},{"bike_id":"e95f64bd-9364-4406-8d8c-4e1320175930","system_id":"levelo_inurba_marseille","lat":43.3234,"lon":5.40628,"is_reserved":false,"is_disabled":false,"rental_uris":{"android":"levelo://app?vid=e95f64bd-9364-4406-8d8c-4e1320175930","ios":"levelo://app?vid=e95f64bd-9364-4406-8d8c-4e1320175930"},"vehicle_type_id":"4","last_reported":1725991897,"current_range_meters":14400,"station_id":"ce4bhq92rcd13ifvqhjg","pricing_plan_id":"cebpf4jnsgd1na2vs0mg"},{"bike_id":"7abb3655-b461-4e13-bc97-8c353f282d6b","system_id":"levelo_inurba_marseille","lat":43.23191,"lon":5.39987,"is_reserved":false,"is_disabled":false,"rental_uris":{"android":"levelo://app?vid=7abb3655-b461-4e13-bc97-8c353f282d6b","ios":"levelo://app?vid=7abb3655-b461-4e13-bc97-8c353f282d6b"},"vehicle_type_id":"4","last_reported":1725991897,"current_range_meters":9600,"station_id":"ce4bhn12rcd13ifvqgqg","pricing_plan_id":"cebpf4jnsgd1na2vs0mg"},{"bike_id":"3f48e559-de96-42ea-88b9-925d9064e054","system_id":"levelo_inurba_marseille","lat":43.31366,"lon":5.38507,"is_reserved":false,"is_disabled":false,"rental_uris":{"android":"levelo://app?vid=3f48e559-de96-42ea-88b9-925d9064e054","ios":"levelo://app?vid=3f48e559-de96-42ea-88b9-925d9064e054"},"vehicle_type_id":"4","last_reported":1725991897,"current_range_meters":12000,"station_id":"ce4bgt92rcd13ifvqcf0","pricing_plan_id":"cebpf4jnsgd1na2vs0mg"},{"bike_id":"00b26dab-4d72-47d9-a792-2b039ef91dc7","system_id":"levelo_inurba_marseille","lat":43.30786,"lon":5.37644,"is_reserved":false,"is_disabled":false,"rental_uris":{"android":"levelo://app?vid=00b26dab-4d72-47d9-a792-2b039ef91dc7","ios":"levelo://app?vid=00b26dab-4d72-47d9-a792-2b039ef91dc7"},"vehicle_type_id":"4","last_reported":1725991897,"current_range_meters":17200,"station_id":"ce4bgv92rcd13ifvqcq0","pricing_plan_id":"cebpf4jnsgd1na2vs0mg"},{"bike_id":"269cd03d-63c1-41b8-a2e1-1c243c81b4f2","system_id":"levelo_inurba_marseille","lat":43.30644,"lon":5.4009,"is_reserved":false,"is_disabled":false,"rental_uris":{"android":"levelo://app?vid=269cd03d-63c1-41b8-a2e1-1c243c81b4f2","ios":"levelo://app?vid=269cd03d-63c1-41b8-a2e1-1c243c81b4f2"},"vehicle_type_id":"4","last_reported":1725991897,"current_range_meters":14000,"station_id":"ce4bh112rcd13ifvqda0","pricing_plan_id":"cebpf4jnsgd1na2vs0mg"},{"bike_id":"08819695-2021-44db-83ff-ae31b6b9ffcc","system_id":"levelo_inurba_marseille","lat":43.25084,"lon":5.39524,"is_reserved":false,"is_disabled":false,"rental_uris":{"android":"levelo://app?vid=08819695-2021-44db-83ff-ae31b6b9ffcc","ios":"levelo://app?vid=08819695-2021-44db-83ff-ae31b6b9ffcc"},"vehicle_type_id":"4","last_reported":1725991897,"current_range_meters":36800,"station_id":"ce4bhm12rcd13ifvqgkg","pricing_plan_id":"cebpf4jnsgd1na2vs0mg"},{"bike_id":"6db8853d-54cc-4393-8580-5f938c6e1f2c","system_id":"levelo_inurba_marseille","lat":43.296267,"lon":5.37152,"is_reserved":false,"is_disabled":false,"rental_uris":{"android":"levelo://app?vid=6db8853d-54cc-4393-8580-5f938c6e1f2c","ios":"levelo://app?vid=6db8853d-54cc-4393-8580-5f938c6e1f2c"},"vehicle_type_id":"4","last_reported":1725991897,"current_range_meters":30800,"station_id":"ce4bgnh2rcd13ifvqc0g","pricing_plan_id":"cebpf4jnsgd1na2vs0mg"},{"bike_id":"2cf1a821-584d-438b-ab21-1ff40c09cb1d","system_id":"levelo_inurba_marseille","lat":43.2886,"lon":5.35856,"is_reserved":false,"is_disabled":false,"rental_uris":{"android":"levelo://app?vid=2cf1a821-584d-438b-ab21-1ff40c09cb1d","ios":"levelo://app?vid=2cf1a821-584d-438b-ab21-1ff40c09cb1d"},"vehicle_type_id":"4","last_reported":1725991897,"current_range_meters":7200,"station_id":"ce4bhb12rcd13ifvqem0","pricing_plan_id":"cebpf4jnsgd1na2vs0mg"},{"bike_id":"3f2c3201-e6af-4cbf-9578-c0bb9a2b0bd9","system_id":"levelo_inurba_marseille","lat":43.25501,"lon":5.37649,"is_reserved":false,"is_disabled":false,"rental_uris":{"android":"levelo://app?vid=3f2c3201-e6af-4cbf-9578-c0bb9a2b0bd9","ios":"levelo://app?vid=3f2c3201-e6af-4cbf-9578-c0bb9a2b0bd9"},"vehicle_type_id":"4","last_reported":1725991897,"current_range_meters":28000,"station_id":"ce4bhh12rcd13ifvqff0","pricing_plan_id":"cebpf4jnsgd1na2vs0mg"},{"bike_id":"a2a39fbf-e7de-436e-9b01-8478bf6db33a","system_id":"levelo_inurba_marseille","lat":43.2763,"lon":5.36132,"is_reserved":false,"is_disabled":false,"rental_uris":{"android":"levelo://app?vid=a2a39fbf-e7de-436e-9b01-8478bf6db33a","ios":"levelo://app?vid=a2a39fbf-e7de-436e-9b01-8478bf6db33a"},"vehicle_type_id":"4","last_reported":1725991897,"current_range_meters":28800,"station_id":"ce4bgj92rcd13ifvqbe0","pricing_plan_id":"cebpf4jnsgd1na2vs0mg"},{"bike_id":"1bc6d034-1c4e-4b81-95f7-9274b014bd03","system_id":"levelo_inurba_marseille","lat":43.28468,"lon":5.35905,"is_reserved":false,"is_disabled":false,"rental_uris":{"android":"levelo://app?vid=1bc6d034-1c4e-4b81-95f7-9274b014bd03","ios":"levelo://app?vid=1bc6d034-1c4e-4b81-95f7-9274b014bd03"},"vehicle_type_id":"4","last_reported":1725991897,"current_range_meters":33600,"station_id":"ce4bhah2rcd13ifvqei0","pricing_plan_id":"cebpf4jnsgd1na2vs0mg"},{"bike_id":"8a49885e-9bc1-45ae-b119-20ec961f4a3c","system_id":"levelo_inurba_marseille","lat":43.295354,"lon":5.38572,"is_reserved":false,"is_disabled":false,"rental_uris":{"android":"levelo://app?vid=8a49885e-9bc1-45ae-b119-20ec961f4a3c","ios":"levelo://app?vid=8a49885e-9bc1-45ae-b119-20ec961f4a3c"},"vehicle_type_id":"4","last_reported":1725991897,"current_range_meters":38000,"station_id":"ce4bgih2rcd13ifvqba0","pricing_plan_id":"cebpf4jnsgd1na2vs0mg"},{"bike_id":"cbb14fcd-d064-4e30-b2ac-917926d9699b","system_id":"levelo_inurba_marseille","lat":43.29529,"lon":5.38544,"is_reserved":false,"is_disabled":false,"rental_uris":{"android":"levelo://app?vid=cbb14fcd-d064-4e30-b2ac-917926d9699b","ios":"levelo://app?vid=cbb14fcd-d064-4e30-b2ac-917926d9699b"},"vehicle_type_id":"4","last_reported":1725991897,"current_range_meters":33600,"station_id":"ce4bgih2rcd13ifvqba0","pricing_plan_id":"cebpf4jnsgd1na2vs0mg"},{"bike_id":"5ad54804-22d2-4d05-8dc8-669f0346c4fe","system_id":"levelo_inurba_marseille","lat":43.26025,"lon":5.37549,"is_reserved":false,"is_disabled":false,"rental_uris":{"android":"levelo://app?vid=5ad54804-22d2-4d05-8dc8-669f0346c4fe","ios":"levelo://app?vid=5ad54804-22d2-4d05-8dc8-669f0346c4fe"},"vehicle_type_id":"4","last_reported":1725991897,"current_range_meters":23200,"station_id":"ce4bhgh2rcd13ifvqfa0","pricing_plan_id":"cebpf4jnsgd1na2vs0mg"},{"bike_id":"c25508be-a553-4e86-b959-6cf74594e042","system_id":"levelo_inurba_marseille","lat":43.31178,"lon":5.38715,"is_reserved":false,"is_disabled":false,"rental_uris":{"android":"levelo://app?vid=c25508be-a553-4e86-b959-6cf74594e042","ios":"levelo://app?vid=c25508be-a553-4e86-b959-6cf74594e042"},"vehicle_type_id":"4","last_reported":1725991897,"current_range_meters":11200,"station_id":"ce4bgv12rcd13ifvqcp0","pricing_plan_id":"cebpf4jnsgd1na2vs0mg"},{"bike_id":"c8e0fcb6-1d3f-4d83-b861-1f56e6b3ab2c","system_id":"levelo_inurba_marseille","lat":43.32291,"lon":5.38269,"is_reserved":false,"is_disabled":false,"rental_uris":{"android":"levelo://app?vid=c8e0fcb6-1d3f-4d83-b861-1f56e6b3ab2c","ios":"levelo://app?vid=c8e0fcb6-1d3f-4d83-b861-1f56e6b3ab2c"},"vehicle_type_id":"4","last_reported":1725991897,"current_range_meters":35600,"station_id":"ce4bhr12rcd13ifvqhqg","pricing_plan_id":"cebpf4jnsgd1na2vs0mg"},{"bike_id":"5ea32702-287c-433b-8574-a7d5d5c7827f","system_id":"levelo_inurba_marseille","lat":43.2816,"lon":5.42643,"is_reserved":false,"is_disabled":false,"rental_uris":{"android":"levelo://app?vid=5ea32702-287c-433b-8574-a7d5d5c7827f","ios":"levelo://app?vid=5ea32702-287c-433b-8574-a7d5d5c7827f"},"vehicle_type_id":"4","last_reported":1725991897,"current_range_meters":6000,"station_id":"ce4bhnh2rcd13ifvqgug","pricing_plan_id":"cebpf4jnsgd1na2vs0mg"},{"bike_id":"dc218077-9636-4a54-b04d-739064ce3bd9","system_id":"levelo_inurba_marseille","lat":43.29029,"lon":5.38655,"is_reserved":false,"is_disabled":false,"rental_uris":{"android":"levelo://app?vid=dc218077-9636-4a54-b04d-739064ce3bd9","ios":"levelo://app?vid=dc218077-9636-4a54-b04d-739064ce3bd9"},"vehicle_type_id":"4","last_reported":1725991897,"current_range_meters":26000,"station_id":"ce4bh4p2rcd13ifvqe0g","pricing_plan_id":"cebpf4jnsgd1na2vs0mg"},{"bike_id":"fde8b686-25f1-4cb6-9b02-191c4abffffc","system_id":"levelo_inurba_marseille","lat":43.324838,"lon":5.40703,"is_reserved":false,"is_disabled":false,"rental_uris":{"android":"levelo://app?vid=fde8b686-25f1-4cb6-9b02-191c4abffffc","ios":"levelo://app?vid=fde8b686-25f1-4cb6-9b02-191c4abffffc"},"vehicle_type_id":"4","last_reported":1725991897,"current_range_meters":16800,"station_id":"ce4bhq92rcd13ifvqhjg","pricing_plan_id":"cebpf4jnsgd1na2vs0mg"},{"bike_id":"f2f6feac-8b59-4aaa-b926-f92cf17edfc4","system_id":"levelo_inurba_marseille","lat":43.256571,"lon":5.408332,"is_reserved":false,"is_disabled":false,"rental_uris":{"android":"levelo://app?vid=f2f6feac-8b59-4aaa-b926-f92cf17edfc4","ios":"levelo://app?vid=f2f6feac-8b59-4aaa-b926-f92cf17edfc4"},"vehicle_type_id":"4","last_reported":1725991897,"current_range_meters":27600,"station_id":"","pricing_plan_id":"cebpf4jnsgd1na2vs0mg"},{"bike_id":"6fb4a3f2-ae48-4264-824c-1399038a1cda","system_id":"levelo_inurba_marseille","lat":43.292978,"lon":5.403548,"is_reserved":false,"is_disabled":false,"rental_uris":{"android":"levelo://app?vid=6fb4a3f2-ae48-4264-824c-1399038a1cda","ios":"levelo://app?vid=6fb4a3f2-ae48-4264-824c-1399038a1cda"},"vehicle_type_id":"4","last_reported":1725991897,"current_range_meters":14400,"station_id":"ce4bhnh2rcd13ifvqgug","pricing_plan_id":"cebpf4jnsgd1na2vs0mg"},{"bike_id":"15df1d87-3f87-49ea-bc00-ae9f69827264","system_id":"levelo_inurba_marseille","lat":43.28938,"lon":5.36397,"is_reserved":false,"is_disabled":false,"rental_uris":{"android":"levelo://app?vid=15df1d87-3f87-49ea-bc00-ae9f69827264","ios":"levelo://app?vid=15df1d87-3f87-49ea-bc00-ae9f69827264"},"vehicle_type_id":"4","last_reported":1725991897,"current_range_meters":24800,"station_id":"ce4bhc92rcd13ifvqetg","pricing_plan_id":"cebpf4jnsgd1na2vs0mg"},{"bike_id":"3862b03b-48b9-42b0-880d-35338e5d45f3","system_id":"levelo_inurba_marseille","lat":43.33596,"lon":5.41022,"is_reserved":false,"is_disabled":false,"rental_uris":{"android":"levelo://app?vid=3862b03b-48b9-42b0-880d-35338e5d45f3","ios":"levelo://app?vid=3862b03b-48b9-42b0-880d-35338e5d45f3"},"vehicle_type_id":"4","last_reported":1725991897,"current_range_meters":14000,"station_id":"ce4bhqh2rcd13ifvqhmg","pricing_plan_id":"cebpf4jnsgd1na2vs0mg"},{"bike_id":"304a272f-477d-4cc7-8623-45d538e5b272","system_id":"levelo_inurba_marseille","lat":43.2843,"lon":5.34995,"is_reserved":false,"is_disabled":false,"rental_uris":{"android":"levelo://app?vid=304a272f-477d-4cc7-8623-45d538e5b272","ios":"levelo://app?vid=304a272f-477d-4cc7-8623-45d538e5b272"},"vehicle_type_id":"4","last_reported":1725991897,"current_range_meters":38800,"station_id":"ce4bhbh2rcd13ifvqepg","pricing_plan_id":"cebpf4jnsgd1na2vs0mg"},{"bike_id":"f49a9897-14b0-49a6-89ce-905ae36dc96b","system_id":"levelo_inurba_marseille","lat":43.277932,"lon":5.406857,"is_reserved":false,"is_disabled":false,"rental_uris":{"android":"levelo://app?vid=f49a9897-14b0-49a6-89ce-905ae36dc96b","ios":"levelo://app?vid=f49a9897-14b0-49a6-89ce-905ae36dc96b"},"vehicle_type_id":"4","last_reported":1725991897,"current_range_meters":8000,"station_id":"ce4bhnh2rcd13ifvqgtg","pricing_plan_id":"cebpf4jnsgd1na2vs0mg"},{"bike_id":"b2aae679-3e99-40e2-820f-725946de1e45","system_id":"levelo_inurba_marseille","lat":43.31718,"lon":5.43706,"is_reserved":false,"is_disabled":false,"rental_uris":{"android":"levelo://app?vid=b2aae679-3e99-40e2-820f-725946de1e45","ios":"levelo://app?vid=b2aae679-3e99-40e2-820f-725946de1e45"},"vehicle_type_id":"4","last_reported":1725991897,"current_range_meters":14000,"station_id":"ce4bhp92rcd13ifvqhcg","pricing_plan_id":"cebpf4jnsgd1na2vs0mg"},{"bike_id":"fc6dc0e2-42aa-4baa-82f9-7acbdbba2aa0","system_id":"levelo_inurba_marseille","lat":43.31324,"lon":5.39687,"is_reserved":false,"is_disabled":false,"rental_uris":{"android":"levelo://app?vid=fc6dc0e2-42aa-4baa-82f9-7acbdbba2aa0","ios":"levelo://app?vid=fc6dc0e2-42aa-4baa-82f9-7acbdbba2aa0"},"vehicle_type_id":"4","last_reported":1725991897,"current_range_meters":34000,"station_id":"ce4bgvp2rcd13ifvqcu0","pricing_plan_id":"cebpf4jnsgd1na2vs0mg"},{"bike_id":"052af6ca-89cf-4291-87df-de8427e1c6d9","system_id":"levelo_inurba_marseille","lat":43.28942,"lon":5.36641,"is_reserved":false,"is_disabled":false,"rental_uris":{"android":"levelo://app?vid=052af6ca-89cf-4291-87df-de8427e1c6d9","ios":"levelo://app?vid=052af6ca-89cf-4291-87df-de8427e1c6d9"},"vehicle_type_id":"4","last_reported":1725991897,"current_range_meters":20000,"station_id":"ce4bhap2rcd13ifvqek0","pricing_plan_id":"cebpf4jnsgd1na2vs0mg"},{"bike_id":"25d29541-4ca9-41fe-a176-8ac0c1623a89","system_id":"levelo_inurba_marseille","lat":43.29781,"lon":5.39352,"is_reserved":false,"is_disabled":false,"rental_uris":{"android":"levelo://app?vid=25d29541-4ca9-41fe-a176-8ac0c1623a89","ios":"levelo://app?vid=25d29541-4ca9-41fe-a176-8ac0c1623a89"},"vehicle_type_id":"4","last_reported":1725991897,"current_range_meters":18000,"station_id":"chh1huq6cuj3fo74tm60","pricing_plan_id":"cebpf4jnsgd1na2vs0mg"},{"bike_id":"55145fae-a8cb-41b8-a97f-efce85464954","system_id":"levelo_inurba_marseille","lat":43.33751,"lon":5.37461,"is_reserved":false,"is_disabled":false,"rental_uris":{"android":"levelo://app?vid=55145fae-a8cb-41b8-a97f-efce85464954","ios":"levelo://app?vid=55145fae-a8cb-41b8-a97f-efce85464954"},"vehicle_type_id":"4","last_reported":1725991897,"current_range_meters":32800,"station_id":"","pricing_plan_id":"cebpf4jnsgd1na2vs0mg"},{"bike_id":"f400d370-a20e-4ced-86f0-64f62510749c","system_id":"levelo_inurba_marseille","lat":43.3237,"lon":5.38926,"is_reserved":false,"is_disabled":false,"rental_uris":{"android":"levelo://app?vid=f400d370-a20e-4ced-86f0-64f62510749c","ios":"levelo://app?vid=f400d370-a20e-4ced-86f0-64f62510749c"},"vehicle_type_id":"4","last_reported":1725991897,"current_range_meters":17200,"station_id":"","pricing_plan_id":"cebpf4jnsgd1na2vs0mg"},{"bike_id":"27ec5606-a918-47d8-a6fe-422c284da1c9","system_id":"levelo_inurba_marseille","lat":43.29196,"lon":5.39329,"is_reserved":false,"is_disabled":false,"rental_uris":{"android":"levelo://app?vid=27ec5606-a918-47d8-a6fe-422c284da1c9","ios":"levelo://app?vid=27ec5606-a918-47d8-a6fe-422c284da1c9"},"vehicle_type_id":"4","last_reported":1725991897,"current_range_meters":36800,"station_id":"ce4bh192rcd13ifvqdd0","pricing_plan_id":"cebpf4jnsgd1na2vs0mg"},{"bike_id":"fccce0f1-26df-45f3-98a8-faf49d48c01d","system_id":"levelo_inurba_marseille","lat":43.283827,"lon":5.380849,"is_reserved":false,"is_disabled":false,"rental_uris":{"android":"levelo://app?vid=fccce0f1-26df-45f3-98a8-faf49d48c01d","ios":"levelo://app?vid=fccce0f1-26df-45f3-98a8-faf49d48c01d"},"vehicle_type_id":"4","last_reported":1725991897,"current_range_meters":14800,"station_id":"ce4bh412rcd13ifvqdr0","pricing_plan_id":"cebpf4jnsgd1na2vs0mg"},{"bike_id":"352029a9-13de-42b9-838c-f6dc286bfb3e","system_id":"levelo_inurba_marseille","lat":43.29302,"lon":5.37463,"is_reserved":false,"is_disabled":false,"rental_uris":{"android":"levelo://app?vid=352029a9-13de-42b9-838c-f6dc286bfb3e","ios":"levelo://app?vid=352029a9-13de-42b9-838c-f6dc286bfb3e"},"vehicle_type_id":"4","last_reported":1725991897,"current_range_meters":3600,"station_id":"ce4bgi12rcd13ifvqb70","pricing_plan_id":"cebpf4jnsgd1na2vs0mg"},{"bike_id":"e9d8c7b2-62a1-4e01-b449-32058adc2bb5","system_id":"levelo_inurba_marseille","lat":43.31177,"lon":5.38714,"is_reserved":false,"is_disabled":false,"rental_uris":{"android":"levelo://app?vid=e9d8c7b2-62a1-4e01-b449-32058adc2bb5","ios":"levelo://app?vid=e9d8c7b2-62a1-4e01-b449-32058adc2bb5"},"vehicle_type_id":"4","last_reported":1725991897,"current_range_meters":13600,"station_id":"ce4bgv12rcd13ifvqcp0","pricing_plan_id":"cebpf4jnsgd1na2vs0mg"},{"bike_id":"4f98b9a6-3078-458b-b605-3b0ed6341dd8","system_id":"levelo_inurba_marseille","lat":43.287037,"lon":5.375093,"is_reserved":false,"is_disabled":false,"rental_uris":{"android":"levelo://app?vid=4f98b9a6-3078-458b-b605-3b0ed6341dd8","ios":"levelo://app?vid=4f98b9a6-3078-458b-b605-3b0ed6341dd8"},"vehicle_type_id":"4","last_reported":1725991897,"current_range_meters":32800,"station_id":"","pricing_plan_id":"cebpf4jnsgd1na2vs0mg"},{"bike_id":"8542bf91-30ba-4b78-a115-4736886b8fdc","system_id":"levelo_inurba_marseille","lat":43.32372,"lon":5.38885,"is_reserved":false,"is_disabled":false,"rental_uris":{"android":"levelo://app?vid=8542bf91-30ba-4b78-a115-4736886b8fdc","ios":"levelo://app?vid=8542bf91-30ba-4b78-a115-4736886b8fdc"},"vehicle_type_id":"4","last_reported":1725991897,"current_range_meters":9600,"station_id":"ce4bhqp2rcd13ifvqhog","pricing_plan_id":"cebpf4jnsgd1na2vs0mg"},{"bike_id":"b8c53ace-3353-404c-807f-3367f3e67022","system_id":"levelo_inurba_marseille","lat":43.31765,"lon":5.39015,"is_reserved":false,"is_disabled":false,"rental_uris":{"android":"levelo://app?vid=b8c53ace-3353-404c-807f-3367f3e67022","ios":"levelo://app?vid=b8c53ace-3353-404c-807f-3367f3e67022"},"vehicle_type_id":"4","last_reported":1725991897,"current_range_meters":38800,"station_id":"ce4bhqp2rcd13ifvqhng","pricing_plan_id":"cebpf4jnsgd1na2vs0mg"},{"bike_id":"352ee0fa-2719-4f4c-9e0c-37ded75c568b","system_id":"levelo_inurba_marseille","lat":43.29575,"lon":5.37511,"is_reserved":false,"is_disabled":false,"rental_uris":{"android":"levelo://app?vid=352ee0fa-2719-4f4c-9e0c-37ded75c568b","ios":"levelo://app?vid=352ee0fa-2719-4f4c-9e0c-37ded75c568b"},"vehicle_type_id":"4","last_reported":1725991897,"current_range_meters":0,"station_id":"ce4bgh92rcd13ifvqb50","pricing_plan_id":"cebpf4jnsgd1na2vs0mg"},{"bike_id":"21dcec27-645b-4877-b774-5201571a951e","system_id":"levelo_inurba_marseille","lat":43.28613,"lon":5.35098,"is_reserved":false,"is_disabled":false,"rental_uris":{"android":"levelo://app?vid=21dcec27-645b-4877-b774-5201571a951e","ios":"levelo://app?vid=21dcec27-645b-4877-b774-5201571a951e"},"vehicle_type_id":"4","last_reported":1725991897,"current_range_meters":28400,"station_id":"ce4bhch2rcd13ifvqeug","pricing_plan_id":"cebpf4jnsgd1na2vs0mg"},{"bike_id":"e3ff2ff2-1096-4b7a-a3a2-7928d38557b8","system_id":"levelo_inurba_marseille","lat":43.27814,"lon":5.40716,"is_reserved":false,"is_disabled":false,"rental_uris":{"android":"levelo://app?vid=e3ff2ff2-1096-4b7a-a3a2-7928d38557b8","ios":"levelo://app?vid=e3ff2ff2-1096-4b7a-a3a2-7928d38557b8"},"vehicle_type_id":"4","last_reported":1725991897,"current_range_meters":13600,"station_id":"ce4bhnh2rcd13ifvqgtg","pricing_plan_id":"cebpf4jnsgd1na2vs0mg"},{"bike_id":"f9588990-7de1-4e0b-979b-31419c532106","system_id":"levelo_inurba_marseille","lat":43.28042,"lon":5.36953,"is_reserved":false,"is_disabled":false,"rental_uris":{"android":"levelo://app?vid=f9588990-7de1-4e0b-979b-31419c532106","ios":"levelo://app?vid=f9588990-7de1-4e0b-979b-31419c532106"},"vehicle_type_id":"4","last_reported":1725991897,"current_range_meters":14000,"station_id":"ce4bha12rcd13ifvqef0","pricing_plan_id":"cebpf4jnsgd1na2vs0mg"},{"bike_id":"c33da793-bbd9-4d19-b3a5-c543ddba70d5","system_id":"levelo_inurba_marseille","lat":43.27813,"lon":5.40706,"is_reserved":false,"is_disabled":false,"rental_uris":{"android":"levelo://app?vid=c33da793-bbd9-4d19-b3a5-c543ddba70d5","ios":"levelo://app?vid=c33da793-bbd9-4d19-b3a5-c543ddba70d5"},"vehicle_type_id":"4","last_reported":1725991897,"current_range_meters":39200,"station_id":"ce4bhnh2rcd13ifvqgtg","pricing_plan_id":"cebpf4jnsgd1na2vs0mg"},{"bike_id":"36f58328-8f54-4fcf-bcca-0a753cccddb2","system_id":"levelo_inurba_marseille","lat":43.23195,"lon":5.35558,"is_reserved":false,"is_disabled":false,"rental_uris":{"android":"levelo://app?vid=36f58328-8f54-4fcf-bcca-0a753cccddb2","ios":"levelo://app?vid=36f58328-8f54-4fcf-bcca-0a753cccddb2"},"vehicle_type_id":"4","last_reported":1725991897,"current_range_meters":20400,"station_id":"ce4bhu92rcd13ifvqi70","pricing_plan_id":"cebpf4jnsgd1na2vs0mg"},{"bike_id":"44f32411-a978-4e5c-8794-5490ed45ba7d","system_id":"levelo_inurba_marseille","lat":43.33768,"lon":5.37446,"is_reserved":false,"is_disabled":false,"rental_uris":{"android":"levelo://app?vid=44f32411-a978-4e5c-8794-5490ed45ba7d","ios":"levelo://app?vid=44f32411-a978-4e5c-8794-5490ed45ba7d"},"vehicle_type_id":"4","last_reported":1725991897,"current_range_meters":38400,"station_id":"","pricing_plan_id":"cebpf4jnsgd1na2vs0mg"},{"bike_id":"bd01515f-8524-4504-bb30-2d821deae18b","system_id":"levelo_inurba_marseille","lat":43.25106,"lon":5.40326,"is_reserved":false,"is_disabled":false,"rental_uris":{"android":"levelo://app?vid=bd01515f-8524-4504-bb30-2d821deae18b","ios":"levelo://app?vid=bd01515f-8524-4504-bb30-2d821deae18b"},"vehicle_type_id":"4","last_reported":1725991897,"current_range_meters":14000,"station_id":"ce4bhlh2rcd13ifvqgig","pricing_plan_id":"cebpf4jnsgd1na2vs0mg"},{"bike_id":"a5637a8b-38f0-4dcf-bb5c-f0548702728e","system_id":"levelo_inurba_marseille","lat":43.24075,"lon":5.37763,"is_reserved":false,"is_disabled":false,"rental_uris":{"android":"levelo://app?vid=a5637a8b-38f0-4dcf-bb5c-f0548702728e","ios":"levelo://app?vid=a5637a8b-38f0-4dcf-bb5c-f0548702728e"},"vehicle_type_id":"4","last_reported":1725991897,"current_range_meters":5600,"station_id":"ce4bhnp2rcd13ifvqgvg","pricing_plan_id":"cebpf4jnsgd1na2vs0mg"},{"bike_id":"a914063c-d43d-4703-8485-482db81e983b","system_id":"levelo_inurba_marseille","lat":43.28613,"lon":5.35102,"is_reserved":false,"is_disabled":false,"rental_uris":{"android":"levelo://app?vid=a914063c-d43d-4703-8485-482db81e983b","ios":"levelo://app?vid=a914063c-d43d-4703-8485-482db81e983b"},"vehicle_type_id":"4","last_reported":1725991897,"current_range_meters":38800,"station_id":"ce4bhch2rcd13ifvqeug","pricing_plan_id":"cebpf4jnsgd1na2vs0mg"},{"bike_id":"01a9d190-f5a0-4eda-b7c1-457da88c2b6b","system_id":"levelo_inurba_marseille","lat":43.24667,"lon":5.38172,"is_reserved":false,"is_disabled":false,"rental_uris":{"android":"levelo://app?vid=01a9d190-f5a0-4eda-b7c1-457da88c2b6b","ios":"levelo://app?vid=01a9d190-f5a0-4eda-b7c1-457da88c2b6b"},"vehicle_type_id":"4","last_reported":1725991897,"current_range_meters":13600,"station_id":"ce4bhih2rcd13ifvqfr0","pricing_plan_id":"cebpf4jnsgd1na2vs0mg"},{"bike_id":"3b1942b8-bb45-4d64-b704-9c594ce94e63","system_id":"levelo_inurba_marseille","lat":43.250853,"lon":5.395209,"is_reserved":false,"is_disabled":false,"rental_uris":{"android":"levelo://app?vid=3b1942b8-bb45-4d64-b704-9c594ce94e63","ios":"levelo://app?vid=3b1942b8-bb45-4d64-b704-9c594ce94e63"},"vehicle_type_id":"4","last_reported":1725991897,"current_range_meters":11600,"station_id":"ce4bhm12rcd13ifvqgkg","pricing_plan_id":"cebpf4jnsgd1na2vs0mg"},{"bike_id":"8fb9a2de-2e39-4cee-9a2d-1ba3230acc6a","system_id":"levelo_inurba_marseille","lat":43.31764,"lon":5.39015,"is_reserved":false,"is_disabled":false,"rental_uris":{"android":"levelo://app?vid=8fb9a2de-2e39-4cee-9a2d-1ba3230acc6a","ios":"levelo://app?vid=8fb9a2de-2e39-4cee-9a2d-1ba3230acc6a"},"vehicle_type_id":"4","last_reported":1725991897,"current_range_meters":6000,"station_id":"ce4bhqp2rcd13ifvqhng","pricing_plan_id":"cebpf4jnsgd1na2vs0mg"},{"bike_id":"fc44cd02-1a44-4b5e-8321-7f26d798eba9","system_id":"levelo_inurba_marseille","lat":43.2439,"lon":5.37065,"is_reserved":false,"is_disabled":false,"rental_uris":{"android":"levelo://app?vid=fc44cd02-1a44-4b5e-8321-7f26d798eba9","ios":"levelo://app?vid=fc44cd02-1a44-4b5e-8321-7f26d798eba9"},"vehicle_type_id":"4","last_reported":1725991897,"current_range_meters":35600,"station_id":"ce4bhhh2rcd13ifvqfk0","pricing_plan_id":"cebpf4jnsgd1na2vs0mg"},{"bike_id":"3fd1f4a5-dc41-43b4-af54-2afb3493d528","system_id":"levelo_inurba_marseille","lat":43.3014,"lon":5.3878,"is_reserved":false,"is_disabled":false,"rental_uris":{"android":"levelo://app?vid=3fd1f4a5-dc41-43b4-af54-2afb3493d528","ios":"levelo://app?vid=3fd1f4a5-dc41-43b4-af54-2afb3493d528"},"vehicle_type_id":"4","last_reported":1725991897,"current_range_meters":38800,"station_id":"ce4bghh2rcd13ifvqb60","pricing_plan_id":"cebpf4jnsgd1na2vs0mg"},{"bike_id":"7988bc0e-6b7b-4e0b-83be-b664002dac0a","system_id":"levelo_inurba_marseille","lat":43.302749,"lon":5.376902,"is_reserved":false,"is_disabled":false,"rental_uris":{"android":"levelo://app?vid=7988bc0e-6b7b-4e0b-83be-b664002dac0a","ios":"levelo://app?vid=7988bc0e-6b7b-4e0b-83be-b664002dac0a"},"vehicle_type_id":"4","last_reported":1725991897,"current_range_meters":4800,"station_id":"ce4bguh2rcd13ifvqcj0","pricing_plan_id":"cebpf4jnsgd1na2vs0mg"},{"bike_id":"407bec1f-a88f-4707-afe0-ba4fa6b4998f","system_id":"levelo_inurba_marseille","lat":43.28928,"lon":5.36389,"is_reserved":false,"is_disabled":false,"rental_uris":{"android":"levelo://app?vid=407bec1f-a88f-4707-afe0-ba4fa6b4998f","ios":"levelo://app?vid=407bec1f-a88f-4707-afe0-ba4fa6b4998f"},"vehicle_type_id":"4","last_reported":1725991897,"current_range_meters":12400,"station_id":"ce4bhc92rcd13ifvqetg","pricing_plan_id":"cebpf4jnsgd1na2vs0mg"},{"bike_id":"446650f3-b097-45e1-b927-a75342034326","system_id":"levelo_inurba_marseille","lat":43.31212,"lon":5.36814,"is_reserved":false,"is_disabled":false,"rental_uris":{"android":"levelo://app?vid=446650f3-b097-45e1-b927-a75342034326","ios":"levelo://app?vid=446650f3-b097-45e1-b927-a75342034326"},"vehicle_type_id":"4","last_reported":1725991897,"current_range_meters":4800,"station_id":"","pricing_plan_id":"cebpf4jnsgd1na2vs0mg"},{"bike_id":"0e0f29cb-7750-4382-a5f2-9d249c534e98","system_id":"levelo_inurba_marseille","lat":43.23967,"lon":5.36626,"is_reserved":false,"is_disabled":false,"rental_uris":{"android":"levelo://app?vid=0e0f29cb-7750-4382-a5f2-9d249c534e98","ios":"levelo://app?vid=0e0f29cb-7750-4382-a5f2-9d249c534e98"},"vehicle_type_id":"4","last_reported":1725991897,"current_range_meters":14000,"station_id":"ce4bhi12rcd13ifvqfp0","pricing_plan_id":"cebpf4jnsgd1na2vs0mg"},{"bike_id":"e6264c20-be57-40da-b2af-fdb3ad55e519","system_id":"levelo_inurba_marseille","lat":43.309245,"lon":5.401527,"is_reserved":false,"is_disabled":false,"rental_uris":{"android":"levelo://app?vid=e6264c20-be57-40da-b2af-fdb3ad55e519","ios":"levelo://app?vid=e6264c20-be57-40da-b2af-fdb3ad55e519"},"vehicle_type_id":"4","last_reported":1725991897,"current_range_meters":37600,"station_id":"ce4bgvp2rcd13ifvqct0","pricing_plan_id":"cebpf4jnsgd1na2vs0mg"},{"bike_id":"ee3a8381-2e02-4117-869d-aab4f89be3b0","system_id":"levelo_inurba_marseille","lat":43.29025,"lon":5.38134,"is_reserved":false,"is_disabled":false,"rental_uris":{"android":"levelo://app?vid=ee3a8381-2e02-4117-869d-aab4f89be3b0","ios":"levelo://app?vid=ee3a8381-2e02-4117-869d-aab4f89be3b0"},"vehicle_type_id":"4","last_reported":1725991897,"current_range_meters":4000,"station_id":"ce4bh4p2rcd13ifvqe1g","pricing_plan_id":"cebpf4jnsgd1na2vs0mg"},{"bike_id":"2a7cec00-a15b-48a6-9cc2-3d7a153f3b3a","system_id":"levelo_inurba_marseille","lat":43.25112,"lon":5.40322,"is_reserved":false,"is_disabled":false,"rental_uris":{"android":"levelo://app?vid=2a7cec00-a15b-48a6-9cc2-3d7a153f3b3a","ios":"levelo://app?vid=2a7cec00-a15b-48a6-9cc2-3d7a153f3b3a"},"vehicle_type_id":"4","last_reported":1725991897,"current_range_meters":11200,"station_id":"ce4bhlh2rcd13ifvqgig","pricing_plan_id":"cebpf4jnsgd1na2vs0mg"},{"bike_id":"3bfff435-780c-430e-a884-b7e0a240cebc","system_id":"levelo_inurba_marseille","lat":43.2881,"lon":5.3914,"is_reserved":false,"is_disabled":false,"rental_uris":{"android":"levelo://app?vid=3bfff435-780c-430e-a884-b7e0a240cebc","ios":"levelo://app?vid=3bfff435-780c-430e-a884-b7e0a240cebc"},"vehicle_type_id":"4","last_reported":1725991897,"current_range_meters":22800,"station_id":"","pricing_plan_id":"cebpf4jnsgd1na2vs0mg"},{"bike_id":"5f0c3727-c1d5-4b40-b3b0-2729374cfedd","system_id":"levelo_inurba_marseille","lat":43.23153,"lon":5.43709,"is_reserved":false,"is_disabled":false,"rental_uris":{"android":"levelo://app?vid=5f0c3727-c1d5-4b40-b3b0-2729374cfedd","ios":"levelo://app?vid=5f0c3727-c1d5-4b40-b3b0-2729374cfedd"},"vehicle_type_id":"4","last_reported":1725991897,"current_range_meters":2000,"station_id":"ce4bhmp2rcd13ifvqgog","pricing_plan_id":"cebpf4jnsgd1na2vs0mg"},{"bike_id":"77e299e8-e2e6-43f3-82f0-30c0fb02210f","system_id":"levelo_inurba_marseille","lat":43.28727,"lon":5.361,"is_reserved":false,"is_disabled":false,"rental_uris":{"android":"levelo://app?vid=77e299e8-e2e6-43f3-82f0-30c0fb02210f","ios":"levelo://app?vid=77e299e8-e2e6-43f3-82f0-30c0fb02210f"},"vehicle_type_id":"4","last_reported":1725991897,"current_range_meters":8000,"station_id":"cki0cbj6b192h4jlfktg","pricing_plan_id":"cebpf4jnsgd1na2vs0mg"},{"bike_id":"a3797960-f1a8-4cb7-ac24-022dbafe2bdf","system_id":"levelo_inurba_marseille","lat":43.29554,"lon":5.422907,"is_reserved":false,"is_disabled":false,"rental_uris":{"android":"levelo://app?vid=a3797960-f1a8-4cb7-ac24-022dbafe2bdf","ios":"levelo://app?vid=a3797960-f1a8-4cb7-ac24-022dbafe2bdf"},"vehicle_type_id":"4","last_reported":1725991897,"current_range_meters":3600,"station_id":"ce4bhph2rcd13ifvqhdg","pricing_plan_id":"cebpf4jnsgd1na2vs0mg"},{"bike_id":"27bd8122-a181-4d04-b1ee-1d326561bf92","system_id":"levelo_inurba_marseille","lat":43.24807,"lon":5.37458,"is_reserved":false,"is_disabled":false,"rental_uris":{"android":"levelo://app?vid=27bd8122-a181-4d04-b1ee-1d326561bf92","ios":"levelo://app?vid=27bd8122-a181-4d04-b1ee-1d326561bf92"},"vehicle_type_id":"4","last_reported":1725991897,"current_range_meters":30400,"station_id":"ce4bhgh2rcd13ifvqfb0","pricing_plan_id":"cebpf4jnsgd1na2vs0mg"},{"bike_id":"79921b31-dd12-42b8-9098-1a4d6ea184ed","system_id":"levelo_inurba_marseille","lat":43.31228,"lon":5.36867,"is_reserved":false,"is_disabled":false,"rental_uris":{"android":"levelo://app?vid=79921b31-dd12-42b8-9098-1a4d6ea184ed","ios":"levelo://app?vid=79921b31-dd12-42b8-9098-1a4d6ea184ed"},"vehicle_type_id":"4","last_reported":1725991897,"current_range_meters":5600,"station_id":"","pricing_plan_id":"cebpf4jnsgd1na2vs0mg"},{"bike_id":"057eda3e-e407-46de-89fb-0689f1715225","system_id":"levelo_inurba_marseille","lat":43.28933,"lon":5.36396,"is_reserved":false,"is_disabled":false,"rental_uris":{"android":"levelo://app?vid=057eda3e-e407-46de-89fb-0689f1715225","ios":"levelo://app?vid=057eda3e-e407-46de-89fb-0689f1715225"},"vehicle_type_id":"4","last_reported":1725991897,"current_range_meters":20400,"station_id":"ce4bhc92rcd13ifvqetg","pricing_plan_id":"cebpf4jnsgd1na2vs0mg"},{"bike_id":"f2fe3ac4-b784-4143-85fc-8044a767ce9b","system_id":"levelo_inurba_marseille","lat":43.27561,"lon":5.38395,"is_reserved":false,"is_disabled":false,"rental_uris":{"android":"levelo://app?vid=f2fe3ac4-b784-4143-85fc-8044a767ce9b","ios":"levelo://app?vid=f2fe3ac4-b784-4143-85fc-8044a767ce9b"},"vehicle_type_id":"4","last_reported":1725991897,"current_range_meters":20800,"station_id":"ce4bhh92rcd13ifvqfi0","pricing_plan_id":"cebpf4jnsgd1na2vs0mg"},{"bike_id":"8bef04eb-0349-4fbd-b9df-717e89664ce3","system_id":"levelo_inurba_marseille","lat":43.25586,"lon":5.38238,"is_reserved":false,"is_disabled":false,"rental_uris":{"android":"levelo://app?vid=8bef04eb-0349-4fbd-b9df-717e89664ce3","ios":"levelo://app?vid=8bef04eb-0349-4fbd-b9df-717e89664ce3"},"vehicle_type_id":"4","last_reported":1725991897,"current_range_meters":9200,"station_id":"ce4bhih2rcd13ifvqfs0","pricing_plan_id":"cebpf4jnsgd1na2vs0mg"},{"bike_id":"20e99fee-7f5e-4fd9-8345-d42fb0592de3","system_id":"levelo_inurba_marseille","lat":43.3376,"lon":5.37462,"is_reserved":false,"is_disabled":false,"rental_uris":{"android":"levelo://app?vid=20e99fee-7f5e-4fd9-8345-d42fb0592de3","ios":"levelo://app?vid=20e99fee-7f5e-4fd9-8345-d42fb0592de3"},"vehicle_type_id":"4","last_reported":1725991897,"current_range_meters":19600,"station_id":"","pricing_plan_id":"cebpf4jnsgd1na2vs0mg"},{"bike_id":"b50d82f9-5037-41d5-975a-ed42c505f159","system_id":"levelo_inurba_marseille","lat":43.3372,"lon":5.39187,"is_reserved":false,"is_disabled":false,"rental_uris":{"android":"levelo://app?vid=b50d82f9-5037-41d5-975a-ed42c505f159","ios":"levelo://app?vid=b50d82f9-5037-41d5-975a-ed42c505f159"},"vehicle_type_id":"4","last_reported":1725991897,"current_range_meters":6800,"station_id":"ce4bhr92rcd13ifvqhsg","pricing_plan_id":"cebpf4jnsgd1na2vs0mg"},{"bike_id":"354e70a6-6bda-4d1d-9698-db6f01e5c1bc","system_id":"levelo_inurba_marseille","lat":43.295738,"lon":5.375123,"is_reserved":false,"is_disabled":false,"rental_uris":{"android":"levelo://app?vid=354e70a6-6bda-4d1d-9698-db6f01e5c1bc","ios":"levelo://app?vid=354e70a6-6bda-4d1d-9698-db6f01e5c1bc"},"vehicle_type_id":"4","last_reported":1725991897,"current_range_meters":36400,"station_id":"ce4bgh92rcd13ifvqb50","pricing_plan_id":"cebpf4jnsgd1na2vs0mg"},{"bike_id":"be58d8d2-042f-4015-a7d7-d6dc9536fe77","system_id":"levelo_inurba_marseille","lat":43.27949,"lon":5.4104,"is_reserved":false,"is_disabled":false,"rental_uris":{"android":"levelo://app?vid=be58d8d2-042f-4015-a7d7-d6dc9536fe77","ios":"levelo://app?vid=be58d8d2-042f-4015-a7d7-d6dc9536fe77"},"vehicle_type_id":"4","last_reported":1725991897,"current_range_meters":18800,"station_id":"ce4bhnp2rcd13ifvqh0g","pricing_plan_id":"cebpf4jnsgd1na2vs0mg"},{"bike_id":"9a66868f-1f3e-4fc3-b7f9-1dd7428cb6b6","system_id":"levelo_inurba_marseille","lat":43.29051,"lon":5.35916,"is_reserved":false,"is_disabled":false,"rental_uris":{"android":"levelo://app?vid=9a66868f-1f3e-4fc3-b7f9-1dd7428cb6b6","ios":"levelo://app?vid=9a66868f-1f3e-4fc3-b7f9-1dd7428cb6b6"},"vehicle_type_id":"4","last_reported":1725991897,"current_range_meters":32400,"station_id":"ce4bha92rcd13ifvqeg0","pricing_plan_id":"cebpf4jnsgd1na2vs0mg"},{"bike_id":"36d482d1-21c7-4358-a3a3-d2a070079f60","system_id":"levelo_inurba_marseille","lat":43.30929,"lon":5.40156,"is_reserved":false,"is_disabled":false,"rental_uris":{"android":"levelo://app?vid=36d482d1-21c7-4358-a3a3-d2a070079f60","ios":"levelo://app?vid=36d482d1-21c7-4358-a3a3-d2a070079f60"},"vehicle_type_id":"4","last_reported":1725991897,"current_range_meters":14000,"station_id":"ce4bgvp2rcd13ifvqct0","pricing_plan_id":"cebpf4jnsgd1na2vs0mg"},{"bike_id":"9f050876-159a-47d9-9d0b-cb3a6694cef8","system_id":"levelo_inurba_marseille","lat":43.2796,"lon":5.41047,"is_reserved":false,"is_disabled":false,"rental_uris":{"android":"levelo://app?vid=9f050876-159a-47d9-9d0b-cb3a6694cef8","ios":"levelo://app?vid=9f050876-159a-47d9-9d0b-cb3a6694cef8"},"vehicle_type_id":"4","last_reported":1725991897,"current_range_meters":10000,"station_id":"ce4bhnp2rcd13ifvqh0g","pricing_plan_id":"cebpf4jnsgd1na2vs0mg"},{"bike_id":"9e3ce9b2-b6fd-4791-bf3e-a8d687b25a7e","system_id":"levelo_inurba_marseille","lat":43.290185,"lon":5.386613,"is_reserved":false,"is_disabled":false,"rental_uris":{"android":"levelo://app?vid=9e3ce9b2-b6fd-4791-bf3e-a8d687b25a7e","ios":"levelo://app?vid=9e3ce9b2-b6fd-4791-bf3e-a8d687b25a7e"},"vehicle_type_id":"4","last_reported":1725991897,"current_range_meters":3600,"station_id":"ce4bh4p2rcd13ifvqe0g","pricing_plan_id":"cebpf4jnsgd1na2vs0mg"},{"bike_id":"51b7e934-f810-437c-b6ec-1a13a8ca7c9f","system_id":"levelo_inurba_marseille","lat":43.27671,"lon":5.38909,"is_reserved":false,"is_disabled":false,"rental_uris":{"android":"levelo://app?vid=51b7e934-f810-437c-b6ec-1a13a8ca7c9f","ios":"levelo://app?vid=51b7e934-f810-437c-b6ec-1a13a8ca7c9f"},"vehicle_type_id":"4","last_reported":1725991897,"current_range_meters":33600,"station_id":"ce4bhi12rcd13ifvqfo0","pricing_plan_id":"cebpf4jnsgd1na2vs0mg"},{"bike_id":"5cd970b2-0eaf-43dc-a078-d6635bb94a24","system_id":"levelo_inurba_marseille","lat":43.297047,"lon":5.365947,"is_reserved":false,"is_disabled":false,"rental_uris":{"android":"levelo://app?vid=5cd970b2-0eaf-43dc-a078-d6635bb94a24","ios":"levelo://app?vid=5cd970b2-0eaf-43dc-a078-d6635bb94a24"},"vehicle_type_id":"4","last_reported":1725991897,"current_range_meters":6800,"station_id":"ce4bh2h2rcd13ifvqdh0","pricing_plan_id":"cebpf4jnsgd1na2vs0mg"},{"bike_id":"43666cc4-9de2-4278-ada6-42d1072583b7","system_id":"levelo_inurba_marseille","lat":43.30888,"lon":5.39658,"is_reserved":false,"is_disabled":false,"rental_uris":{"android":"levelo://app?vid=43666cc4-9de2-4278-ada6-42d1072583b7","ios":"levelo://app?vid=43666cc4-9de2-4278-ada6-42d1072583b7"},"vehicle_type_id":"4","last_reported":1725991897,"current_range_meters":23200,"station_id":"ce4bh012rcd13ifvqcv0","pricing_plan_id":"cebpf4jnsgd1na2vs0mg"},{"bike_id":"b227c2ba-c610-4812-8c31-a03a7d0afe33","system_id":"levelo_inurba_marseille","lat":43.29296,"lon":5.37456,"is_reserved":false,"is_disabled":false,"rental_uris":{"android":"levelo://app?vid=b227c2ba-c610-4812-8c31-a03a7d0afe33","ios":"levelo://app?vid=b227c2ba-c610-4812-8c31-a03a7d0afe33"},"vehicle_type_id":"4","last_reported":1725991897,"current_range_meters":18000,"station_id":"ce4bgi12rcd13ifvqb70","pricing_plan_id":"cebpf4jnsgd1na2vs0mg"},{"bike_id":"9affd36d-071a-4203-b5ac-ac86b51a9567","system_id":"levelo_inurba_marseille","lat":43.28615,"lon":5.351,"is_reserved":false,"is_disabled":false,"rental_uris":{"android":"levelo://app?vid=9affd36d-071a-4203-b5ac-ac86b51a9567","ios":"levelo://app?vid=9affd36d-071a-4203-b5ac-ac86b51a9567"},"vehicle_type_id":"4","last_reported":1725991897,"current_range_meters":38800,"station_id":"ce4bhch2rcd13ifvqeug","pricing_plan_id":"cebpf4jnsgd1na2vs0mg"},{"bike_id":"1dbd6707-df07-4ea4-9b68-be3fffe8a5e4","system_id":"levelo_inurba_marseille","lat":43.30814,"lon":5.38162,"is_reserved":false,"is_disabled":false,"rental_uris":{"android":"levelo://app?vid=1dbd6707-df07-4ea4-9b68-be3fffe8a5e4","ios":"levelo://app?vid=1dbd6707-df07-4ea4-9b68-be3fffe8a5e4"},"vehicle_type_id":"4","last_reported":1725991897,"current_range_meters":38800,"station_id":"ce4bgt12rcd13ifvqce0","pricing_plan_id":"cebpf4jnsgd1na2vs0mg"},{"bike_id":"c23429ad-72fd-44cc-84bd-a0641a9f2d63","system_id":"levelo_inurba_marseille","lat":43.308456,"lon":5.396486,"is_reserved":false,"is_disabled":false,"rental_uris":{"android":"levelo://app?vid=c23429ad-72fd-44cc-84bd-a0641a9f2d63","ios":"levelo://app?vid=c23429ad-72fd-44cc-84bd-a0641a9f2d63"},"vehicle_type_id":"4","last_reported":1725991897,"current_range_meters":18800,"station_id":"ce4bh012rcd13ifvqcv0","pricing_plan_id":"cebpf4jnsgd1na2vs0mg"},{"bike_id":"e9b8371d-d517-4507-9422-198648494e6a","system_id":"levelo_inurba_marseille","lat":43.30795,"lon":5.37656,"is_reserved":false,"is_disabled":false,"rental_uris":{"android":"levelo://app?vid=e9b8371d-d517-4507-9422-198648494e6a","ios":"levelo://app?vid=e9b8371d-d517-4507-9422-198648494e6a"},"vehicle_type_id":"4","last_reported":1725991897,"current_range_meters":19600,"station_id":"ce4bgv92rcd13ifvqcq0","pricing_plan_id":"cebpf4jnsgd1na2vs0mg"},{"bike_id":"493179a0-9e36-4586-92de-621cc8212e8b","system_id":"levelo_inurba_marseille","lat":43.309498,"lon":5.390288,"is_reserved":false,"is_disabled":false,"rental_uris":{"android":"levelo://app?vid=493179a0-9e36-4586-92de-621cc8212e8b","ios":"levelo://app?vid=493179a0-9e36-4586-92de-621cc8212e8b"},"vehicle_type_id":"4","last_reported":1725991897,"current_range_meters":15200,"station_id":"ce4bgj92rcd13ifvqbd0","pricing_plan_id":"cebpf4jnsgd1na2vs0mg"},{"bike_id":"6083c8fd-673d-4152-81ee-1bcd378ef7c7","system_id":"levelo_inurba_marseille","lat":43.28467,"lon":5.35894,"is_reserved":false,"is_disabled":false,"rental_uris":{"android":"levelo://app?vid=6083c8fd-673d-4152-81ee-1bcd378ef7c7","ios":"levelo://app?vid=6083c8fd-673d-4152-81ee-1bcd378ef7c7"},"vehicle_type_id":"4","last_reported":1725991897,"current_range_meters":16400,"station_id":"ce4bhah2rcd13ifvqei0","pricing_plan_id":"cebpf4jnsgd1na2vs0mg"},{"bike_id":"02c0a6c9-c431-4744-b454-e02a3257f5ec","system_id":"levelo_inurba_marseille","lat":43.30792,"lon":5.37654,"is_reserved":false,"is_disabled":false,"rental_uris":{"android":"levelo://app?vid=02c0a6c9-c431-4744-b454-e02a3257f5ec","ios":"levelo://app?vid=02c0a6c9-c431-4744-b454-e02a3257f5ec"},"vehicle_type_id":"4","last_reported":1725991897,"current_range_meters":36400,"station_id":"ce4bgv92rcd13ifvqcq0","pricing_plan_id":"cebpf4jnsgd1na2vs0mg"},{"bike_id":"230e3a22-1a03-408c-b711-7f167a488065","system_id":"levelo_inurba_marseille","lat":43.30567,"lon":5.38148,"is_reserved":false,"is_disabled":false,"rental_uris":{"android":"levelo://app?vid=230e3a22-1a03-408c-b711-7f167a488065","ios":"levelo://app?vid=230e3a22-1a03-408c-b711-7f167a488065"},"vehicle_type_id":"4","last_reported":1725991897,"current_range_meters":12800,"station_id":"ce4bgup2rcd13ifvqcn0","pricing_plan_id":"cebpf4jnsgd1na2vs0mg"},{"bike_id":"c1102846-db9e-4dc7-9add-a9c698ee45f4","system_id":"levelo_inurba_marseille","lat":43.29197,"lon":5.35825,"is_reserved":false,"is_disabled":false,"rental_uris":{"android":"levelo://app?vid=c1102846-db9e-4dc7-9add-a9c698ee45f4","ios":"levelo://app?vid=c1102846-db9e-4dc7-9add-a9c698ee45f4"},"vehicle_type_id":"4","last_reported":1725991897,"current_range_meters":10800,"station_id":"ce4bhb12rcd13ifvqel0","pricing_plan_id":"cebpf4jnsgd1na2vs0mg"},{"bike_id":"e5af8ce4-7f8f-4fae-af3e-50411355a4e1","system_id":"levelo_inurba_marseille","lat":43.25084,"lon":5.39528,"is_reserved":false,"is_disabled":false,"rental_uris":{"android":"levelo://app?vid=e5af8ce4-7f8f-4fae-af3e-50411355a4e1","ios":"levelo://app?vid=e5af8ce4-7f8f-4fae-af3e-50411355a4e1"},"vehicle_type_id":"4","last_reported":1725991897,"current_range_meters":4000,"station_id":"ce4bhm12rcd13ifvqgkg","pricing_plan_id":"cebpf4jnsgd1na2vs0mg"},{"bike_id":"2a9160ce-702e-4049-9e47-c7e9b66a6250","system_id":"levelo_inurba_marseille","lat":43.23968,"lon":5.36629,"is_reserved":false,"is_disabled":false,"rental_uris":{"android":"levelo://app?vid=2a9160ce-702e-4049-9e47-c7e9b66a6250","ios":"levelo://app?vid=2a9160ce-702e-4049-9e47-c7e9b66a6250"},"vehicle_type_id":"4","last_reported":1725991897,"current_range_meters":22400,"station_id":"ce4bhi12rcd13ifvqfp0","pricing_plan_id":"cebpf4jnsgd1na2vs0mg"},{"bike_id":"31cccb43-d26f-4e5b-8296-65be7de4d061","system_id":"levelo_inurba_marseille","lat":43.30899,"lon":5.40264,"is_reserved":false,"is_disabled":false,"rental_uris":{"android":"levelo://app?vid=31cccb43-d26f-4e5b-8296-65be7de4d061","ios":"levelo://app?vid=31cccb43-d26f-4e5b-8296-65be7de4d061"},"vehicle_type_id":"4","last_reported":1725991897,"current_range_meters":17600,"station_id":"","pricing_plan_id":"cebpf4jnsgd1na2vs0mg"},{"bike_id":"e04fab12-e050-4f44-be13-9071c652e9c0","system_id":"levelo_inurba_marseille","lat":43.299839,"lon":5.384643,"is_reserved":false,"is_disabled":false,"rental_uris":{"android":"levelo://app?vid=e04fab12-e050-4f44-be13-9071c652e9c0","ios":"levelo://app?vid=e04fab12-e050-4f44-be13-9071c652e9c0"},"vehicle_type_id":"4","last_reported":1725991897,"current_range_meters":38400,"station_id":"ce4bgj92rcd13ifvqbd0","pricing_plan_id":"cebpf4jnsgd1na2vs0mg"},{"bike_id":"ba1821f7-e375-47c2-84bc-60d4fe7db1d1","system_id":"levelo_inurba_marseille","lat":43.23063,"lon":5.35492,"is_reserved":false,"is_disabled":false,"rental_uris":{"android":"levelo://app?vid=ba1821f7-e375-47c2-84bc-60d4fe7db1d1","ios":"levelo://app?vid=ba1821f7-e375-47c2-84bc-60d4fe7db1d1"},"vehicle_type_id":"4","last_reported":1725991897,"current_range_meters":13600,"station_id":"cpo3342slgdg3j2ifvpg","pricing_plan_id":"cebpf4jnsgd1na2vs0mg"},{"bike_id":"8f776d3a-b850-4c02-90df-23831b1848aa","system_id":"levelo_inurba_marseille","lat":43.29559,"lon":5.42295,"is_reserved":false,"is_disabled":false,"rental_uris":{"android":"levelo://app?vid=8f776d3a-b850-4c02-90df-23831b1848aa","ios":"levelo://app?vid=8f776d3a-b850-4c02-90df-23831b1848aa"},"vehicle_type_id":"4","last_reported":1725991897,"current_range_meters":25600,"station_id":"ce4bhph2rcd13ifvqhdg","pricing_plan_id":"cebpf4jnsgd1na2vs0mg"},{"bike_id":"68a0ed04-fa5d-42ea-9053-e2f7b5462638","system_id":"levelo_inurba_marseille","lat":43.33603,"lon":5.41036,"is_reserved":false,"is_disabled":false,"rental_uris":{"android":"levelo://app?vid=68a0ed04-fa5d-42ea-9053-e2f7b5462638","ios":"levelo://app?vid=68a0ed04-fa5d-42ea-9053-e2f7b5462638"},"vehicle_type_id":"4","last_reported":1725991897,"current_range_meters":10000,"station_id":"ce4bhqh2rcd13ifvqhmg","pricing_plan_id":"cebpf4jnsgd1na2vs0mg"},{"bike_id":"dcaee71f-c882-4ad1-b5fa-57b477a37213","system_id":"levelo_inurba_marseille","lat":43.29261,"lon":5.40904,"is_reserved":false,"is_disabled":false,"rental_uris":{"android":"levelo://app?vid=dcaee71f-c882-4ad1-b5fa-57b477a37213","ios":"levelo://app?vid=dcaee71f-c882-4ad1-b5fa-57b477a37213"},"vehicle_type_id":"4","last_reported":1725991897,"current_range_meters":26000,"station_id":"ce4bh192rcd13ifvqdc0","pricing_plan_id":"cebpf4jnsgd1na2vs0mg"},{"bike_id":"26472f42-99b5-4197-aad1-5639b283609b","system_id":"levelo_inurba_marseille","lat":43.31822,"lon":5.37398,"is_reserved":false,"is_disabled":false,"rental_uris":{"android":"levelo://app?vid=26472f42-99b5-4197-aad1-5639b283609b","ios":"levelo://app?vid=26472f42-99b5-4197-aad1-5639b283609b"},"vehicle_type_id":"4","last_reported":1725991897,"current_range_meters":9600,"station_id":"","pricing_plan_id":"cebpf4jnsgd1na2vs0mg"},{"bike_id":"e04008a3-d2b4-40eb-9815-b324c664f626","system_id":"levelo_inurba_marseille","lat":43.284626,"lon":5.358859,"is_reserved":false,"is_disabled":false,"rental_uris":{"android":"levelo://app?vid=e04008a3-d2b4-40eb-9815-b324c664f626","ios":"levelo://app?vid=e04008a3-d2b4-40eb-9815-b324c664f626"},"vehicle_type_id":"4","last_reported":1725991897,"current_range_meters":14800,"station_id":"ce4bhah2rcd13ifvqei0","pricing_plan_id":"cebpf4jnsgd1na2vs0mg"},{"bike_id":"13ca1fff-a3e1-44e3-a380-4af6f249d7b0","system_id":"levelo_inurba_marseille","lat":43.32366,"lon":5.38883,"is_reserved":false,"is_disabled":false,"rental_uris":{"android":"levelo://app?vid=13ca1fff-a3e1-44e3-a380-4af6f249d7b0","ios":"levelo://app?vid=13ca1fff-a3e1-44e3-a380-4af6f249d7b0"},"vehicle_type_id":"4","last_reported":1725991897,"current_range_meters":36000,"station_id":"ce4bhqp2rcd13ifvqhog","pricing_plan_id":"cebpf4jnsgd1na2vs0mg"},{"bike_id":"2712ff8c-94cf-423a-87d8-8c9dfd3506fc","system_id":"levelo_inurba_marseille","lat":43.30429,"lon":5.397431,"is_reserved":false,"is_disabled":false,"rental_uris":{"android":"levelo://app?vid=2712ff8c-94cf-423a-87d8-8c9dfd3506fc","ios":"levelo://app?vid=2712ff8c-94cf-423a-87d8-8c9dfd3506fc"},"vehicle_type_id":"4","last_reported":1725991897,"current_range_meters":33200,"station_id":"ce4bh092rcd13ifvqd20","pricing_plan_id":"cebpf4jnsgd1na2vs0mg"},{"bike_id":"1856745f-71af-4e2e-8155-c160eeda8161","system_id":"levelo_inurba_marseille","lat":43.297915,"lon":5.40382,"is_reserved":false,"is_disabled":false,"rental_uris":{"android":"levelo://app?vid=1856745f-71af-4e2e-8155-c160eeda8161","ios":"levelo://app?vid=1856745f-71af-4e2e-8155-c160eeda8161"},"vehicle_type_id":"4","last_reported":1725991897,"current_range_meters":39200,"station_id":"ce4bh112rcd13ifvqd90","pricing_plan_id":"cebpf4jnsgd1na2vs0mg"},{"bike_id":"ca1d9074-b589-4fee-9c55-307cfa895bd7","system_id":"levelo_inurba_marseille","lat":43.25582,"lon":5.3823,"is_reserved":false,"is_disabled":false,"rental_uris":{"android":"levelo://app?vid=ca1d9074-b589-4fee-9c55-307cfa895bd7","ios":"levelo://app?vid=ca1d9074-b589-4fee-9c55-307cfa895bd7"},"vehicle_type_id":"4","last_reported":1725991897,"current_range_meters":10000,"station_id":"ce4bhih2rcd13ifvqfs0","pricing_plan_id":"cebpf4jnsgd1na2vs0mg"},{"bike_id":"e17c9bf4-b103-423a-b5a0-7800abc4cdcd","system_id":"levelo_inurba_marseille","lat":43.31687,"lon":5.40471,"is_reserved":false,"is_disabled":false,"rental_uris":{"android":"levelo://app?vid=e17c9bf4-b103-423a-b5a0-7800abc4cdcd","ios":"levelo://app?vid=e17c9bf4-b103-423a-b5a0-7800abc4cdcd"},"vehicle_type_id":"4","last_reported":1725991897,"current_range_meters":36400,"station_id":"ce4bh012rcd13ifvqd00","pricing_plan_id":"cebpf4jnsgd1na2vs0mg"},{"bike_id":"09141d33-9644-4fd7-8932-b08b8246e61b","system_id":"levelo_inurba_marseille","lat":43.30893,"lon":5.3967,"is_reserved":false,"is_disabled":false,"rental_uris":{"android":"levelo://app?vid=09141d33-9644-4fd7-8932-b08b8246e61b","ios":"levelo://app?vid=09141d33-9644-4fd7-8932-b08b8246e61b"},"vehicle_type_id":"4","last_reported":1725991897,"current_range_meters":9600,"station_id":"ce4bh012rcd13ifvqcv0","pricing_plan_id":"cebpf4jnsgd1na2vs0mg"},{"bike_id":"fc6808ef-c0d3-4135-bedd-6891039c4559","system_id":"levelo_inurba_marseille","lat":43.32367,"lon":5.38884,"is_reserved":false,"is_disabled":false,"rental_uris":{"android":"levelo://app?vid=fc6808ef-c0d3-4135-bedd-6891039c4559","ios":"levelo://app?vid=fc6808ef-c0d3-4135-bedd-6891039c4559"},"vehicle_type_id":"4","last_reported":1725991897,"current_range_meters":4000,"station_id":"ce4bhqp2rcd13ifvqhog","pricing_plan_id":"cebpf4jnsgd1na2vs0mg"},{"bike_id":"0c450922-9906-4b53-9c0f-5c4d46a8e086","system_id":"levelo_inurba_marseille","lat":43.24806,"lon":5.37453,"is_reserved":false,"is_disabled":false,"rental_uris":{"android":"levelo://app?vid=0c450922-9906-4b53-9c0f-5c4d46a8e086","ios":"levelo://app?vid=0c450922-9906-4b53-9c0f-5c4d46a8e086"},"vehicle_type_id":"4","last_reported":1725991897,"current_range_meters":16000,"station_id":"ce4bhgh2rcd13ifvqfb0","pricing_plan_id":"cebpf4jnsgd1na2vs0mg"},{"bike_id":"b7de0091-660c-4e2d-bcb6-5d04f5ed5055","system_id":"levelo_inurba_marseille","lat":43.29901,"lon":5.43666,"is_reserved":false,"is_disabled":false,"rental_uris":{"android":"levelo://app?vid=b7de0091-660c-4e2d-bcb6-5d04f5ed5055","ios":"levelo://app?vid=b7de0091-660c-4e2d-bcb6-5d04f5ed5055"},"vehicle_type_id":"4","last_reported":1725991897,"current_range_meters":34000,"station_id":"ce4bhpp2rcd13ifvqhfg","pricing_plan_id":"cebpf4jnsgd1na2vs0mg"},{"bike_id":"4beb077b-649d-4723-852b-26f733c406ee","system_id":"levelo_inurba_marseille","lat":43.28006,"lon":5.40023,"is_reserved":false,"is_disabled":false,"rental_uris":{"android":"levelo://app?vid=4beb077b-649d-4723-852b-26f733c406ee","ios":"levelo://app?vid=4beb077b-649d-4723-852b-26f733c406ee"},"vehicle_type_id":"4","last_reported":1725991897,"current_range_meters":30400,"station_id":"ce4bho92rcd13ifvqh4g","pricing_plan_id":"cebpf4jnsgd1na2vs0mg"},{"bike_id":"99a95265-7093-4033-ae35-fd9b444c56bd","system_id":"levelo_inurba_marseille","lat":43.23199,"lon":5.35551,"is_reserved":false,"is_disabled":false,"rental_uris":{"android":"levelo://app?vid=99a95265-7093-4033-ae35-fd9b444c56bd","ios":"levelo://app?vid=99a95265-7093-4033-ae35-fd9b444c56bd"},"vehicle_type_id":"4","last_reported":1725991897,"current_range_meters":4000,"station_id":"ce4bhu92rcd13ifvqi70","pricing_plan_id":"cebpf4jnsgd1na2vs0mg"},{"bike_id":"a04f52a7-12e2-4992-9e8e-50248461ff8e","system_id":"levelo_inurba_marseille","lat":43.27179,"lon":5.40998,"is_reserved":false,"is_disabled":false,"rental_uris":{"android":"levelo://app?vid=a04f52a7-12e2-4992-9e8e-50248461ff8e","ios":"levelo://app?vid=a04f52a7-12e2-4992-9e8e-50248461ff8e"},"vehicle_type_id":"4","last_reported":1725991897,"current_range_meters":10800,"station_id":"ce4bhl12rcd13ifvqgf0","pricing_plan_id":"cebpf4jnsgd1na2vs0mg"},{"bike_id":"ca217346-130b-4fd7-a716-904e327ae122","system_id":"levelo_inurba_marseille","lat":43.2816,"lon":5.42621,"is_reserved":false,"is_disabled":false,"rental_uris":{"android":"levelo://app?vid=ca217346-130b-4fd7-a716-904e327ae122","ios":"levelo://app?vid=ca217346-130b-4fd7-a716-904e327ae122"},"vehicle_type_id":"4","last_reported":1725991897,"current_range_meters":4000,"station_id":"ce4bhnh2rcd13ifvqgug","pricing_plan_id":"cebpf4jnsgd1na2vs0mg"},{"bike_id":"9aefaffc-e0e5-4792-9790-81eba75aad9a","system_id":"levelo_inurba_marseille","lat":43.29782,"lon":5.37106,"is_reserved":false,"is_disabled":false,"rental_uris":{"android":"levelo://app?vid=9aefaffc-e0e5-4792-9790-81eba75aad9a","ios":"levelo://app?vid=9aefaffc-e0e5-4792-9790-81eba75aad9a"},"vehicle_type_id":"4","last_reported":1725991897,"current_range_meters":2000,"station_id":"ce4bgop2rcd13ifvqc1g","pricing_plan_id":"cebpf4jnsgd1na2vs0mg"},{"bike_id":"824bd9fd-8edd-4864-9d22-96e0440ae2fb","system_id":"levelo_inurba_marseille","lat":43.2885,"lon":5.35861,"is_reserved":false,"is_disabled":false,"rental_uris":{"android":"levelo://app?vid=824bd9fd-8edd-4864-9d22-96e0440ae2fb","ios":"levelo://app?vid=824bd9fd-8edd-4864-9d22-96e0440ae2fb"},"vehicle_type_id":"4","last_reported":1725991897,"current_range_meters":2800,"station_id":"ce4bhb12rcd13ifvqem0","pricing_plan_id":"cebpf4jnsgd1na2vs0mg"},{"bike_id":"9aeb8370-3af8-4c74-882c-5317548f7001","system_id":"levelo_inurba_marseille","lat":43.24647,"lon":5.38893,"is_reserved":false,"is_disabled":false,"rental_uris":{"android":"levelo://app?vid=9aeb8370-3af8-4c74-882c-5317548f7001","ios":"levelo://app?vid=9aeb8370-3af8-4c74-882c-5317548f7001"},"vehicle_type_id":"4","last_reported":1725991897,"current_range_meters":3600,"station_id":"ce4bhg12rcd13ifvqf60","pricing_plan_id":"cebpf4jnsgd1na2vs0mg"},{"bike_id":"9640cf56-83da-44b0-823f-95a7ac34628f","system_id":"levelo_inurba_marseille","lat":43.32372,"lon":5.38883,"is_reserved":false,"is_disabled":false,"rental_uris":{"android":"levelo://app?vid=9640cf56-83da-44b0-823f-95a7ac34628f","ios":"levelo://app?vid=9640cf56-83da-44b0-823f-95a7ac34628f"},"vehicle_type_id":"4","last_reported":1725991897,"current_range_meters":30800,"station_id":"ce4bhqp2rcd13ifvqhog","pricing_plan_id":"cebpf4jnsgd1na2vs0mg"},{"bike_id":"40b2ff6b-31ea-46d8-8d61-ffbeeeba8549","system_id":"levelo_inurba_marseille","lat":43.31718,"lon":5.4371,"is_reserved":false,"is_disabled":false,"rental_uris":{"android":"levelo://app?vid=40b2ff6b-31ea-46d8-8d61-ffbeeeba8549","ios":"levelo://app?vid=40b2ff6b-31ea-46d8-8d61-ffbeeeba8549"},"vehicle_type_id":"4","last_reported":1725991897,"current_range_meters":32800,"station_id":"ce4bhp92rcd13ifvqhcg","pricing_plan_id":"cebpf4jnsgd1na2vs0mg"},{"bike_id":"2a46fcf8-8d67-4c0c-83a2-3680ff7ad2e0","system_id":"levelo_inurba_marseille","lat":43.28166,"lon":5.42646,"is_reserved":false,"is_disabled":false,"rental_uris":{"android":"levelo://app?vid=2a46fcf8-8d67-4c0c-83a2-3680ff7ad2e0","ios":"levelo://app?vid=2a46fcf8-8d67-4c0c-83a2-3680ff7ad2e0"},"vehicle_type_id":"4","last_reported":1725991897,"current_range_meters":2800,"station_id":"ce4bhnh2rcd13ifvqgug","pricing_plan_id":"cebpf4jnsgd1na2vs0mg"},{"bike_id":"6c4ec8e3-fa05-4a8d-a909-7a6ecf3dc86e","system_id":"levelo_inurba_marseille","lat":43.28847,"lon":5.35861,"is_reserved":false,"is_disabled":false,"rental_uris":{"android":"levelo://app?vid=6c4ec8e3-fa05-4a8d-a909-7a6ecf3dc86e","ios":"levelo://app?vid=6c4ec8e3-fa05-4a8d-a909-7a6ecf3dc86e"},"vehicle_type_id":"4","last_reported":1725991897,"current_range_meters":32800,"station_id":"ce4bhb12rcd13ifvqem0","pricing_plan_id":"cebpf4jnsgd1na2vs0mg"},{"bike_id":"849fead2-e647-4d93-b1b8-e5e700063b24","system_id":"levelo_inurba_marseille","lat":43.29307,"lon":5.37174,"is_reserved":false,"is_disabled":false,"rental_uris":{"android":"levelo://app?vid=849fead2-e647-4d93-b1b8-e5e700063b24","ios":"levelo://app?vid=849fead2-e647-4d93-b1b8-e5e700063b24"},"vehicle_type_id":"4","last_reported":1725991897,"current_range_meters":3200,"station_id":"ce4bgh92rcd13ifvqb40","pricing_plan_id":"cebpf4jnsgd1na2vs0mg"},{"bike_id":"ee393120-adaa-4141-8c66-d98b67995d9d","system_id":"levelo_inurba_marseille","lat":43.24664,"lon":5.38168,"is_reserved":false,"is_disabled":false,"rental_uris":{"android":"levelo://app?vid=ee393120-adaa-4141-8c66-d98b67995d9d","ios":"levelo://app?vid=ee393120-adaa-4141-8c66-d98b67995d9d"},"vehicle_type_id":"4","last_reported":1725991897,"current_range_meters":12400,"station_id":"ce4bhih2rcd13ifvqfr0","pricing_plan_id":"cebpf4jnsgd1na2vs0mg"},{"bike_id":"ce50e053-44e1-438a-8822-23c39609f8a7","system_id":"levelo_inurba_marseille","lat":43.28158,"lon":5.42648,"is_reserved":false,"is_disabled":false,"rental_uris":{"android":"levelo://app?vid=ce50e053-44e1-438a-8822-23c39609f8a7","ios":"levelo://app?vid=ce50e053-44e1-438a-8822-23c39609f8a7"},"vehicle_type_id":"4","last_reported":1725991897,"current_range_meters":10800,"station_id":"ce4bhnh2rcd13ifvqgug","pricing_plan_id":"cebpf4jnsgd1na2vs0mg"},{"bike_id":"8f313995-c99a-4b07-aeef-4e45476b4409","system_id":"levelo_inurba_marseille","lat":43.28471,"lon":5.359,"is_reserved":false,"is_disabled":false,"rental_uris":{"android":"levelo://app?vid=8f313995-c99a-4b07-aeef-4e45476b4409","ios":"levelo://app?vid=8f313995-c99a-4b07-aeef-4e45476b4409"},"vehicle_type_id":"4","last_reported":1725991897,"current_range_meters":36000,"station_id":"ce4bhah2rcd13ifvqei0","pricing_plan_id":"cebpf4jnsgd1na2vs0mg"},{"bike_id":"e15ea862-a2de-432b-8250-82e23a4e3b80","system_id":"levelo_inurba_marseille","lat":43.23201,"lon":5.35551,"is_reserved":false,"is_disabled":false,"rental_uris":{"android":"levelo://app?vid=e15ea862-a2de-432b-8250-82e23a4e3b80","ios":"levelo://app?vid=e15ea862-a2de-432b-8250-82e23a4e3b80"},"vehicle_type_id":"4","last_reported":1725991897,"current_range_meters":34000,"station_id":"ce4bhu92rcd13ifvqi70","pricing_plan_id":"cebpf4jnsgd1na2vs0mg"},{"bike_id":"ec00ed4c-7b8c-4264-b347-87fd87033a92","system_id":"levelo_inurba_marseille","lat":43.23194,"lon":5.39981,"is_reserved":false,"is_disabled":false,"rental_uris":{"android":"levelo://app?vid=ec00ed4c-7b8c-4264-b347-87fd87033a92","ios":"levelo://app?vid=ec00ed4c-7b8c-4264-b347-87fd87033a92"},"vehicle_type_id":"4","last_reported":1725991897,"current_range_meters":39200,"station_id":"ce4bhn12rcd13ifvqgqg","pricing_plan_id":"cebpf4jnsgd1na2vs0mg"},{"bike_id":"e59c0ef2-cb43-48ea-910c-54bce99a484f","system_id":"levelo_inurba_marseille","lat":43.290544,"lon":5.383341,"is_reserved":false,"is_disabled":false,"rental_uris":{"android":"levelo://app?vid=e59c0ef2-cb43-48ea-910c-54bce99a484f","ios":"levelo://app?vid=e59c0ef2-cb43-48ea-910c-54bce99a484f"},"vehicle_type_id":"4","last_reported":1725991897,"current_range_meters":29600,"station_id":"ce4bha92rcd13ifvqeh0","pricing_plan_id":"cebpf4jnsgd1na2vs0mg"},{"bike_id":"1180f390-616d-4d85-87f6-f5b2732e8fdc","system_id":"levelo_inurba_marseille","lat":43.29452,"lon":5.39751,"is_reserved":false,"is_disabled":false,"rental_uris":{"android":"levelo://app?vid=1180f390-616d-4d85-87f6-f5b2732e8fdc","ios":"levelo://app?vid=1180f390-616d-4d85-87f6-f5b2732e8fdc"},"vehicle_type_id":"4","last_reported":1725991897,"current_range_meters":6000,"station_id":"ce4bh3h2rcd13ifvqdo0","pricing_plan_id":"cebpf4jnsgd1na2vs0mg"},{"bike_id":"895a2a6f-e89c-4506-af92-ab8a6272f1f3","system_id":"levelo_inurba_marseille","lat":43.314695,"lon":5.402954,"is_reserved":false,"is_disabled":false,"rental_uris":{"android":"levelo://app?vid=895a2a6f-e89c-4506-af92-ab8a6272f1f3","ios":"levelo://app?vid=895a2a6f-e89c-4506-af92-ab8a6272f1f3"},"vehicle_type_id":"4","last_reported":1725991897,"current_range_meters":38800,"station_id":"","pricing_plan_id":"cebpf4jnsgd1na2vs0mg"},{"bike_id":"6ea33062-d80a-4690-80a7-1a72fb315ea9","system_id":"levelo_inurba_marseille","lat":43.29279,"lon":5.40116,"is_reserved":false,"is_disabled":false,"rental_uris":{"android":"levelo://app?vid=6ea33062-d80a-4690-80a7-1a72fb315ea9","ios":"levelo://app?vid=6ea33062-d80a-4690-80a7-1a72fb315ea9"},"vehicle_type_id":"4","last_reported":1725991897,"current_range_meters":2800,"station_id":"ce4bh312rcd13ifvqdk0","pricing_plan_id":"cebpf4jnsgd1na2vs0mg"},{"bike_id":"8a6c8525-9322-4f84-8ec6-a7c5f7be89bd","system_id":"levelo_inurba_marseille","lat":43.24663,"lon":5.38167,"is_reserved":false,"is_disabled":false,"rental_uris":{"android":"levelo://app?vid=8a6c8525-9322-4f84-8ec6-a7c5f7be89bd","ios":"levelo://app?vid=8a6c8525-9322-4f84-8ec6-a7c5f7be89bd"},"vehicle_type_id":"4","last_reported":1725991897,"current_range_meters":19600,"station_id":"ce4bhih2rcd13ifvqfr0","pricing_plan_id":"cebpf4jnsgd1na2vs0mg"},{"bike_id":"e35f1d7f-72a8-494b-9971-8db0ca424dec","system_id":"levelo_inurba_marseille","lat":43.23198,"lon":5.35553,"is_reserved":false,"is_disabled":false,"rental_uris":{"android":"levelo://app?vid=e35f1d7f-72a8-494b-9971-8db0ca424dec","ios":"levelo://app?vid=e35f1d7f-72a8-494b-9971-8db0ca424dec"},"vehicle_type_id":"4","last_reported":1725991897,"current_range_meters":14400,"station_id":"ce4bhu92rcd13ifvqi70","pricing_plan_id":"cebpf4jnsgd1na2vs0mg"},{"bike_id":"c2da83c4-1996-4921-a108-47eb1ac1f4d4","system_id":"levelo_inurba_marseille","lat":43.27814,"lon":5.40714,"is_reserved":false,"is_disabled":false,"rental_uris":{"android":"levelo://app?vid=c2da83c4-1996-4921-a108-47eb1ac1f4d4","ios":"levelo://app?vid=c2da83c4-1996-4921-a108-47eb1ac1f4d4"},"vehicle_type_id":"4","last_reported":1725991897,"current_range_meters":30000,"station_id":"ce4bhnh2rcd13ifvqgtg","pricing_plan_id":"cebpf4jnsgd1na2vs0mg"},{"bike_id":"4e5111d5-d2df-40f9-b868-4834cf70999a","system_id":"levelo_inurba_marseille","lat":43.30325,"lon":5.40438,"is_reserved":false,"is_disabled":false,"rental_uris":{"android":"levelo://app?vid=4e5111d5-d2df-40f9-b868-4834cf70999a","ios":"levelo://app?vid=4e5111d5-d2df-40f9-b868-4834cf70999a"},"vehicle_type_id":"4","last_reported":1725991897,"current_range_meters":27600,"station_id":"ce4bh012rcd13ifvqd10","pricing_plan_id":"cebpf4jnsgd1na2vs0mg"},{"bike_id":"2ac4bcea-a520-47f7-9ad7-e320bc4e29b7","system_id":"levelo_inurba_marseille","lat":43.32295,"lon":5.38265,"is_reserved":false,"is_disabled":false,"rental_uris":{"android":"levelo://app?vid=2ac4bcea-a520-47f7-9ad7-e320bc4e29b7","ios":"levelo://app?vid=2ac4bcea-a520-47f7-9ad7-e320bc4e29b7"},"vehicle_type_id":"4","last_reported":1725991897,"current_range_meters":25600,"station_id":"ce4bhr12rcd13ifvqhqg","pricing_plan_id":"cebpf4jnsgd1na2vs0mg"},