{"last_updated":1744787410,"ttl":60,"version":"2.2","data":{"bikes":[{"bike_id":"953592e4-ef81-4844-8501-9f2c7451dd14","system_id":"levelo_inurba_marseille","lat":43.30881,"lon":5.39657,"is_reserved":false,"is_disabled":false,"rental_uris":{"android":"levelo://app?vid=953592e4-ef81-4844-8501-9f2c7451dd14","ios":"levelo://app?vid=953592e4-ef81-4844-8501-9f2c7451dd14"},"vehicle_type_id":"4","last_reported":1744787410,"current_range_meters":2800,"station_id":"ce4bh012rcd13ifvqcv0","pricing_plan_id":"cebpf4jnsgd1na2vs0mg"},{"bike_id":"10cdbf73-5bfd-41b2-b110-872ed7dd46c5","system_id":"levelo_inurba_marseille","lat":43.282622,"lon":5.350722,"is_reserved":false,"is_disabled":false,"rental_uris":{"android":"levelo://app?vid=10cdbf73-5bfd-41b2-b110-872ed7dd46c5","ios":"levelo://app?vid=10cdbf73-5bfd-41b2-b110-872ed7dd46c5"},"vehicle_type_id":"4","last_reported":1744787410,"current_range_meters":2000,"station_id":"ce4bhi12rcd13ifvqfo0","pricing_plan_id":"cebpf4jnsgd1na2vs0mg"},{"bike_id":"5da6e9ca-8d0b-4134-8f15-74cf4bb9e26a","system_id":"levelo_inurba_marseille","lat":43.29188,"lon":5.35799,"is_reserved":false,"is_disabled":true,"rental_uris":{"android":"levelo://app?vid=5da6e9ca-8d0b-4134-8f15-74cf4bb9e26a","ios":"levelo://app?vid=5da6e9ca-8d0b-4134-8f15-74cf4bb9e26a"},"vehicle_type_id":"4","last_reported":1744787410,"current_range_meters":2800,"station_id":"ce4bhb12rcd13ifvqel0","pricing_plan_id":"cebpf4jnsgd1na2vs0mg"},{"bike_id":"e946c3c8-6df1-4252-99a1-1dd8141b6e5d","system_id":"levelo_inurba_marseille","lat":43.30258,"lon":5.37725,"is_reserved":false,"is_disabled":false,"rental_uris":{"android":"levelo://app?vid=e946c3c8-6df1-4252-99a1-1dd8141b6e5d","ios":"levelo://app?vid=e946c3c8-6df1-4252-99a1-1dd8141b6e5d"},"vehicle_type_id":"4","last_reported":1744787410,"current_range_meters":3200,"station_id":"ce4bguh2rcd13ifvqcj0","pricing_plan_id":"cebpf4jnsgd1na2vs0mg"},{"bike_id":"7183b1b4-07dd-4ffb-8940-6ed6812968d9","system_id":"levelo_inurba_marseille","lat":43.294183,"lon":5.374733,"is_reserved":false,"is_disabled":false,"rental_uris":{"android":"levelo://app?vid=7183b1b4-07dd-4ffb-8940-6ed6812968d9","ios":"levelo://app?vid=7183b1b4-07dd-4ffb-8940-6ed6812968d9"},"vehicle_type_id":"4","last_reported":1744787410,"current_range_meters":3200,"station_id":"ce4bgph2rcd13ifvqc2g","pricing_plan_id":"cebpf4jnsgd1na2vs0mg"},{"bike_id":"f3aa25d4-c232-41a4-87ff-546ecddfefa8","system_id":"levelo_inurba_marseille","lat":43.286975,"lon":5.39982,"is_reserved":false,"is_disabled":false,"rental_uris":{"android":"levelo://app?vid=f3aa25d4-c232-41a4-87ff-546ecddfefa8","ios":"levelo://app?vid=f3aa25d4-c232-41a4-87ff-546ecddfefa8"},"vehicle_type_id":"4","last_reported":1744787410,"current_range_meters":3200,"station_id":"ce4bho92rcd13ifvqh3g","pricing_plan_id":"cebpf4jnsgd1na2vs0mg"},{"bike_id":"8fb9e7bc-8a04-4f5d-9440-892df4b1b295","system_id":"levelo_inurba_marseille","lat":43.30957,"lon":5.39041,"is_reserved":false,"is_disabled":true,"rental_uris":{"android":"levelo://app?vid=8fb9e7bc-8a04-4f5d-9440-892df4b1b295","ios":"levelo://app?vid=8fb9e7bc-8a04-4f5d-9440-892df4b1b295"},"vehicle_type_id":"4","last_reported":1744787410,"current_range_meters":3600,"station_id":"ce4bgup2rcd13ifvqco0","pricing_plan_id":"cebpf4jnsgd1na2vs0mg"},{"bike_id":"7e1acf4f-4a65-4afb-a29b-a870f1e5b40d","system_id":"levelo_inurba_marseille","lat":43.32042,"lon":5.41542,"is_reserved":false,"is_disabled":false,"rental_uris":{"android":"levelo://app?vid=7e1acf4f-4a65-4afb-a29b-a870f1e5b40d","ios":"levelo://app?vid=7e1acf4f-4a65-4afb-a29b-a870f1e5b40d"},"vehicle_type_id":"4","last_reported":1744787410,"current_range_meters":4000,"station_id":"ce4bhq92rcd13ifvqhkg","pricing_plan_id":"cebpf4jnsgd1na2vs0mg"},{"bike_id":"c06ec9d2-723c-4cca-af4d-7e98c33373c8","system_id":"levelo_inurba_marseille","lat":43.24174,"lon":5.3973,"is_reserved":false,"is_disabled":false,"rental_uris":{"android":"levelo://app?vid=c06ec9d2-723c-4cca-af4d-7e98c33373c8","ios":"levelo://app?vid=c06ec9d2-723c-4cca-af4d-7e98c33373c8"},"vehicle_type_id":"4","last_reported":1744787410,"current_range_meters":4000,"station_id":"ce4bhn12rcd13ifvqgpg","pricing_plan_id":"cebpf4jnsgd1na2vs0mg"},{"bike_id":"78f43c0c-1a11-48d3-be7f-1d83814f2381","system_id":"levelo_inurba_marseille","lat":43.25584,"lon":5.38234,"is_reserved":false,"is_disabled":false,"rental_uris":{"android":"levelo://app?vid=78f43c0c-1a11-48d3-be7f-1d83814f2381","ios":"levelo://app?vid=78f43c0c-1a11-48d3-be7f-1d83814f2381"},"vehicle_type_id":"4","last_reported":1744787410,"current_range_meters":4000,"station_id":"ce4bhih2rcd13ifvqfs0","pricing_plan_id":"cebpf4jnsgd1na2vs0mg"},{"bike_id":"d64aa8f0-0884-41cf-84e6-ae25f8a6ae2a","system_id":"levelo_inurba_marseille","lat":43.28576,"lon":5.37764,"is_reserved":false,"is_disabled":false,"rental_uris":{"android":"levelo://app?vid=d64aa8f0-0884-41cf-84e6-ae25f8a6ae2a","ios":"levelo://app?vid=d64aa8f0-0884-41cf-84e6-ae25f8a6ae2a"},"vehicle_type_id":"4","last_reported":1744787410,"current_range_meters":4000,"station_id":"","pricing_plan_id":"cebpf4jnsgd1na2vs0mg"},{"bike_id":"c3383ecf-417d-4d00-a566-f5a2e41067a1","system_id":"levelo_inurba_marseille","lat":43.26497,"lon":5.39556,"is_reserved":false,"is_disabled":false,"rental_uris":{"android":"levelo://app?vid=c3383ecf-417d-4d00-a566-f5a2e41067a1","ios":"levelo://app?vid=c3383ecf-417d-4d00-a566-f5a2e41067a1"},"vehicle_type_id":"4","last_reported":1744787410,"current_range_meters":4800,"station_id":"ce4bhi12rcd13ifvqfq0","pricing_plan_id":"cebpf4jnsgd1na2vs0mg"},{"bike_id":"d85031d9-e2b7-48d0-8d51-0e963d6cb3aa","system_id":"levelo_inurba_marseille","lat":43.29041,"lon":5.37576,"is_reserved":false,"is_disabled":false,"rental_uris":{"android":"levelo://app?vid=d85031d9-e2b7-48d0-8d51-0e963d6cb3aa","ios":"levelo://app?vid=d85031d9-e2b7-48d0-8d51-0e963d6cb3aa"},"vehicle_type_id":"4","last_reported":1744787410,"current_range_meters":4800,"station_id":"ce4bh692rcd13ifvqe90","pricing_plan_id":"cebpf4jnsgd1na2vs0mg"},{"bike_id":"1c41dae5-02d2-4367-8a5c-5ff8a0ae456b","system_id":"levelo_inurba_marseille","lat":43.21743,"lon":5.34615,"is_reserved":false,"is_disabled":false,"rental_uris":{"android":"levelo://app?vid=1c41dae5-02d2-4367-8a5c-5ff8a0ae456b","ios":"levelo://app?vid=1c41dae5-02d2-4367-8a5c-5ff8a0ae456b"},"vehicle_type_id":"4","last_reported":1744787410,"current_range_meters":5600,"station_id":"st_cvj6r9ubvosntc0bgbag","pricing_plan_id":"cebpf4jnsgd1na2vs0mg"},{"bike_id":"95c956ea-b78e-48fc-a938-9a4a49935cf7","system_id":"levelo_inurba_marseille","lat":43.30468,"lon":5.3792,"is_reserved":false,"is_disabled":true,"rental_uris":{"android":"levelo://app?vid=95c956ea-b78e-48fc-a938-9a4a49935cf7","ios":"levelo://app?vid=95c956ea-b78e-48fc-a938-9a4a49935cf7"},"vehicle_type_id":"4","last_reported":1744787410,"current_range_meters":5600,"station_id":"ce4bgup2rcd13ifvqcn0","pricing_plan_id":"cebpf4jnsgd1na2vs0mg"},{"bike_id":"8ce62c24-20da-4f99-9f5e-f18589a9038f","system_id":"levelo_inurba_marseille","lat":43.24173,"lon":5.39725,"is_reserved":false,"is_disabled":false,"rental_uris":{"android":"levelo://app?vid=8ce62c24-20da-4f99-9f5e-f18589a9038f","ios":"levelo://app?vid=8ce62c24-20da-4f99-9f5e-f18589a9038f"},"vehicle_type_id":"4","last_reported":1744787410,"current_range_meters":5600,"station_id":"ce4bhn12rcd13ifvqgpg","pricing_plan_id":"cebpf4jnsgd1na2vs0mg"},{"bike_id":"0d83483d-8b10-4063-b925-53978d9e7414","system_id":"levelo_inurba_marseille","lat":43.29418,"lon":5.38629,"is_reserved":false,"is_disabled":false,"rental_uris":{"android":"levelo://app?vid=0d83483d-8b10-4063-b925-53978d9e7414","ios":"levelo://app?vid=0d83483d-8b10-4063-b925-53978d9e7414"},"vehicle_type_id":"4","last_reported":1744787410,"current_range_meters":5600,"station_id":"ce4bh2h2rcd13ifvqdh0","pricing_plan_id":"cebpf4jnsgd1na2vs0mg"},{"bike_id":"f469e916-a64c-4b77-8792-0f172b3c01f2","system_id":"levelo_inurba_marseille","lat":43.2418,"lon":5.3974,"is_reserved":false,"is_disabled":false,"rental_uris":{"android":"levelo://app?vid=f469e916-a64c-4b77-8792-0f172b3c01f2","ios":"levelo://app?vid=f469e916-a64c-4b77-8792-0f172b3c01f2"},"vehicle_type_id":"4","last_reported":1744787410,"current_range_meters":5600,"station_id":"ce4bhn12rcd13ifvqgpg","pricing_plan_id":"cebpf4jnsgd1na2vs0mg"},{"bike_id":"d65f0702-dee2-493c-a77c-36ac1e1ce335","system_id":"levelo_inurba_marseille","lat":43.30196,"lon":5.36628,"is_reserved":false,"is_disabled":false,"rental_uris":{"android":"levelo://app?vid=d65f0702-dee2-493c-a77c-36ac1e1ce335","ios":"levelo://app?vid=d65f0702-dee2-493c-a77c-36ac1e1ce335"},"vehicle_type_id":"4","last_reported":1744787410,"current_range_meters":4800,"station_id":"ce4bgrh2rcd13ifvqc8g","pricing_plan_id":"cebpf4jnsgd1na2vs0mg"},{"bike_id":"7ce5de6c-482c-49da-a602-b398167dac58","system_id":"levelo_inurba_marseille","lat":43.24183,"lon":5.39723,"is_reserved":false,"is_disabled":false,"rental_uris":{"android":"levelo://app?vid=7ce5de6c-482c-49da-a602-b398167dac58","ios":"levelo://app?vid=7ce5de6c-482c-49da-a602-b398167dac58"},"vehicle_type_id":"4","last_reported":1744787410,"current_range_meters":6000,"station_id":"ce4bhn12rcd13ifvqgpg","pricing_plan_id":"cebpf4jnsgd1na2vs0mg"},{"bike_id":"a7706303-ec19-4392-b1a1-2d609de82e35","system_id":"levelo_inurba_marseille","lat":43.304684,"lon":5.379132,"is_reserved":false,"is_disabled":false,"rental_uris":{"android":"levelo://app?vid=a7706303-ec19-4392-b1a1-2d609de82e35","ios":"levelo://app?vid=a7706303-ec19-4392-b1a1-2d609de82e35"},"vehicle_type_id":"4","last_reported":1744787410,"current_range_meters":6000,"station_id":"ce4bgup2rcd13ifvqcn0","pricing_plan_id":"cebpf4jnsgd1na2vs0mg"},{"bike_id":"c052c655-7051-4c11-ba74-5f7268701211","system_id":"levelo_inurba_marseille","lat":43.31487,"lon":5.37311,"is_reserved":false,"is_disabled":false,"rental_uris":{"android":"levelo://app?vid=c052c655-7051-4c11-ba74-5f7268701211","ios":"levelo://app?vid=c052c655-7051-4c11-ba74-5f7268701211"},"vehicle_type_id":"4","last_reported":1744787410,"current_range_meters":6000,"station_id":"ce4bgt12rcd13ifvqcd0","pricing_plan_id":"cebpf4jnsgd1na2vs0mg"},{"bike_id":"cae589eb-10af-4a8f-8ef6-1f6b43e97ea4","system_id":"levelo_inurba_marseille","lat":43.31078,"lon":5.38351,"is_reserved":false,"is_disabled":false,"rental_uris":{"android":"levelo://app?vid=cae589eb-10af-4a8f-8ef6-1f6b43e97ea4","ios":"levelo://app?vid=cae589eb-10af-4a8f-8ef6-1f6b43e97ea4"},"vehicle_type_id":"4","last_reported":1744787410,"current_range_meters":6400,"station_id":"ce4bgv92rcd13ifvqcr0","pricing_plan_id":"cebpf4jnsgd1na2vs0mg"},{"bike_id":"3e5cbbf1-cc29-40db-9462-aaa9b4f5b7e5","system_id":"levelo_inurba_marseille","lat":43.28357,"lon":5.38632,"is_reserved":false,"is_disabled":false,"rental_uris":{"android":"levelo://app?vid=3e5cbbf1-cc29-40db-9462-aaa9b4f5b7e5","ios":"levelo://app?vid=3e5cbbf1-cc29-40db-9462-aaa9b4f5b7e5"},"vehicle_type_id":"4","last_reported":1744787410,"current_range_meters":6400,"station_id":"ce4bh492rcd13ifvqdvg","pricing_plan_id":"cebpf4jnsgd1na2vs0mg"},{"bike_id":"a668abbc-a092-49f5-9124-b0b71b0d2e46","system_id":"levelo_inurba_marseille","lat":43.22936,"lon":5.35389,"is_reserved":false,"is_disabled":false,"rental_uris":{"android":"levelo://app?vid=a668abbc-a092-49f5-9124-b0b71b0d2e46","ios":"levelo://app?vid=a668abbc-a092-49f5-9124-b0b71b0d2e46"},"vehicle_type_id":"4","last_reported":1744787410,"current_range_meters":6400,"station_id":"cpo3532slgdg3j2ikp40","pricing_plan_id":"cebpf4jnsgd1na2vs0mg"},{"bike_id":"8ed04f84-4f60-4210-8826-66c2d615b742","system_id":"levelo_inurba_marseille","lat":43.23059,"lon":5.35491,"is_reserved":false,"is_disabled":false,"rental_uris":{"android":"levelo://app?vid=8ed04f84-4f60-4210-8826-66c2d615b742","ios":"levelo://app?vid=8ed04f84-4f60-4210-8826-66c2d615b742"},"vehicle_type_id":"4","last_reported":1744787410,"current_range_meters":6400,"station_id":"cpo3342slgdg3j2ifvpg","pricing_plan_id":"cebpf4jnsgd1na2vs0mg"},{"bike_id":"207b15a7-69f1-4c4a-a29d-f91df1564475","system_id":"levelo_inurba_marseille","lat":43.240701,"lon":5.377638,"is_reserved":false,"is_disabled":false,"rental_uris":{"android":"levelo://app?vid=207b15a7-69f1-4c4a-a29d-f91df1564475","ios":"levelo://app?vid=207b15a7-69f1-4c4a-a29d-f91df1564475"},"vehicle_type_id":"4","last_reported":1744787410,"current_range_meters":6400,"station_id":"ce4bhnp2rcd13ifvqgvg","pricing_plan_id":"cebpf4jnsgd1na2vs0mg"},{"bike_id":"0faaa645-2be6-4303-978a-41e59f6b8fbc","system_id":"levelo_inurba_marseille","lat":43.287162,"lon":5.379407,"is_reserved":false,"is_disabled":true,"rental_uris":{"android":"levelo://app?vid=0faaa645-2be6-4303-978a-41e59f6b8fbc","ios":"levelo://app?vid=0faaa645-2be6-4303-978a-41e59f6b8fbc"},"vehicle_type_id":"4","last_reported":1744787410,"current_range_meters":6400,"station_id":"ce4bh9p2rcd13ifvqec0","pricing_plan_id":"cebpf4jnsgd1na2vs0mg"},{"bike_id":"dec115e2-f7d1-40e4-9478-af5096d84b5c","system_id":"levelo_inurba_marseille","lat":43.29298,"lon":5.37447,"is_reserved":false,"is_disabled":false,"rental_uris":{"android":"levelo://app?vid=dec115e2-f7d1-40e4-9478-af5096d84b5c","ios":"levelo://app?vid=dec115e2-f7d1-40e4-9478-af5096d84b5c"},"vehicle_type_id":"4","last_reported":1744787410,"current_range_meters":6400,"station_id":"ce4bgi12rcd13ifvqb70","pricing_plan_id":"cebpf4jnsgd1na2vs0mg"},{"bike_id":"c273cedc-5337-4dec-91b4-1636fd7d09ad","system_id":"levelo_inurba_marseille","lat":43.31438,"lon":5.37609,"is_reserved":false,"is_disabled":false,"rental_uris":{"android":"levelo://app?vid=c273cedc-5337-4dec-91b4-1636fd7d09ad","ios":"levelo://app?vid=c273cedc-5337-4dec-91b4-1636fd7d09ad"},"vehicle_type_id":"4","last_reported":1744787410,"current_range_meters":6800,"station_id":"","pricing_plan_id":"cebpf4jnsgd1na2vs0mg"},{"bike_id":"ca9cc8f3-d38f-4670-9faf-2b26cf5d7a50","system_id":"levelo_inurba_marseille","lat":43.25728,"lon":5.41109,"is_reserved":false,"is_disabled":false,"rental_uris":{"android":"levelo://app?vid=ca9cc8f3-d38f-4670-9faf-2b26cf5d7a50","ios":"levelo://app?vid=ca9cc8f3-d38f-4670-9faf-2b26cf5d7a50"},"vehicle_type_id":"4","last_reported":1744787410,"current_range_meters":6800,"station_id":"ce4bhkp2rcd13ifvqgd0","pricing_plan_id":"cebpf4jnsgd1na2vs0mg"},{"bike_id":"a8bce765-48d7-4f94-907d-9b3fef87e2cf","system_id":"levelo_inurba_marseille","lat":43.27826,"lon":5.3923,"is_reserved":false,"is_disabled":true,"rental_uris":{"android":"levelo://app?vid=a8bce765-48d7-4f94-907d-9b3fef87e2cf","ios":"levelo://app?vid=a8bce765-48d7-4f94-907d-9b3fef87e2cf"},"vehicle_type_id":"4","last_reported":1744787410,"current_range_meters":6800,"station_id":"ce4bhjp2rcd13ifvqga0","pricing_plan_id":"cebpf4jnsgd1na2vs0mg"},{"bike_id":"427689a9-0cd4-4119-82a4-9e9bd7ecd185","system_id":"levelo_inurba_marseille","lat":43.28636,"lon":5.3709,"is_reserved":false,"is_disabled":false,"rental_uris":{"android":"levelo://app?vid=427689a9-0cd4-4119-82a4-9e9bd7ecd185","ios":"levelo://app?vid=427689a9-0cd4-4119-82a4-9e9bd7ecd185"},"vehicle_type_id":"4","last_reported":1744787410,"current_range_meters":6800,"station_id":"ce4bht12rcd13ifvqi60","pricing_plan_id":"cebpf4jnsgd1na2vs0mg"},{"bike_id":"4d5c9219-dab2-4a84-8f6e-9bff1ce514f0","system_id":"levelo_inurba_marseille","lat":43.27868,"lon":5.39228,"is_reserved":false,"is_disabled":false,"rental_uris":{"android":"levelo://app?vid=4d5c9219-dab2-4a84-8f6e-9bff1ce514f0","ios":"levelo://app?vid=4d5c9219-dab2-4a84-8f6e-9bff1ce514f0"},"vehicle_type_id":"4","last_reported":1744787410,"current_range_meters":6800,"station_id":"ce4bhjp2rcd13ifvqga0","pricing_plan_id":"cebpf4jnsgd1na2vs0mg"},{"bike_id":"ab40beae-ef77-4516-8a73-e9fccc0d9e5f","system_id":"levelo_inurba_marseille","lat":43.304196,"lon":5.377725,"is_reserved":false,"is_disabled":false,"rental_uris":{"android":"levelo://app?vid=ab40beae-ef77-4516-8a73-e9fccc0d9e5f","ios":"levelo://app?vid=ab40beae-ef77-4516-8a73-e9fccc0d9e5f"},"vehicle_type_id":"4","last_reported":1744787410,"current_range_meters":7200,"station_id":"ce4bgi92rcd13ifvqb90","pricing_plan_id":"cebpf4jnsgd1na2vs0mg"},{"bike_id":"4ca1fc76-01c8-4686-94a5-a46dd951837f","system_id":"levelo_inurba_marseille","lat":43.27843,"lon":5.4072,"is_reserved":false,"is_disabled":false,"rental_uris":{"android":"levelo://app?vid=4ca1fc76-01c8-4686-94a5-a46dd951837f","ios":"levelo://app?vid=4ca1fc76-01c8-4686-94a5-a46dd951837f"},"vehicle_type_id":"4","last_reported":1744787410,"current_range_meters":7200,"station_id":"ce4bhnh2rcd13ifvqgtg","pricing_plan_id":"cebpf4jnsgd1na2vs0mg"},{"bike_id":"45152fd8-c07c-4d52-b7a7-6670add35e00","system_id":"levelo_inurba_marseille","lat":43.261169,"lon":5.420595,"is_reserved":false,"is_disabled":false,"rental_uris":{"android":"levelo://app?vid=45152fd8-c07c-4d52-b7a7-6670add35e00","ios":"levelo://app?vid=45152fd8-c07c-4d52-b7a7-6670add35e00"},"vehicle_type_id":"4","last_reported":1744787410,"current_range_meters":7200,"station_id":"","pricing_plan_id":"cebpf4jnsgd1na2vs0mg"},{"bike_id":"7b9b4628-1a20-4984-8485-64a109f0d4ae","system_id":"levelo_inurba_marseille","lat":43.29253,"lon":5.37622,"is_reserved":false,"is_disabled":false,"rental_uris":{"android":"levelo://app?vid=7b9b4628-1a20-4984-8485-64a109f0d4ae","ios":"levelo://app?vid=7b9b4628-1a20-4984-8485-64a109f0d4ae"},"vehicle_type_id":"4","last_reported":1744787410,"current_range_meters":7200,"station_id":"ce4bgi12rcd13ifvqb80","pricing_plan_id":"cebpf4jnsgd1na2vs0mg"},{"bike_id":"0ee6e897-9651-4b0c-92a1-8a45e96d9917","system_id":"levelo_inurba_marseille","lat":43.31269,"lon":5.39734,"is_reserved":false,"is_disabled":false,"rental_uris":{"android":"levelo://app?vid=0ee6e897-9651-4b0c-92a1-8a45e96d9917","ios":"levelo://app?vid=0ee6e897-9651-4b0c-92a1-8a45e96d9917"},"vehicle_type_id":"4","last_reported":1744787410,"current_range_meters":7200,"station_id":"ce4bgvp2rcd13ifvqcu0","pricing_plan_id":"cebpf4jnsgd1na2vs0mg"},{"bike_id":"3b74ab54-5151-41f4-a56c-2041acf8a2e0","system_id":"levelo_inurba_marseille","lat":43.32,"lon":5.38249,"is_reserved":false,"is_disabled":false,"rental_uris":{"android":"levelo://app?vid=3b74ab54-5151-41f4-a56c-2041acf8a2e0","ios":"levelo://app?vid=3b74ab54-5151-41f4-a56c-2041acf8a2e0"},"vehicle_type_id":"4","last_reported":1744787410,"current_range_meters":7200,"station_id":"","pricing_plan_id":"cebpf4jnsgd1na2vs0mg"},{"bike_id":"27a55245-8dd2-4f1a-af63-95a9d7b71690","system_id":"levelo_inurba_marseille","lat":43.31084,"lon":5.3785,"is_reserved":false,"is_disabled":false,"rental_uris":{"android":"levelo://app?vid=27a55245-8dd2-4f1a-af63-95a9d7b71690","ios":"levelo://app?vid=27a55245-8dd2-4f1a-af63-95a9d7b71690"},"vehicle_type_id":"4","last_reported":1744787410,"current_range_meters":7200,"station_id":"","pricing_plan_id":"cebpf4jnsgd1na2vs0mg"},{"bike_id":"fedf7c4f-c9e3-4ffc-8526-d46d99681b89","system_id":"levelo_inurba_marseille","lat":43.286039,"lon":5.389488,"is_reserved":false,"is_disabled":true,"rental_uris":{"android":"levelo://app?vid=fedf7c4f-c9e3-4ffc-8526-d46d99681b89","ios":"levelo://app?vid=fedf7c4f-c9e3-4ffc-8526-d46d99681b89"},"vehicle_type_id":"4","last_reported":1744787410,"current_range_meters":7200,"station_id":"","pricing_plan_id":"cebpf4jnsgd1na2vs0mg"},{"bike_id":"019aebdb-ca21-4835-a2d5-7cb30e9a1a5c","system_id":"levelo_inurba_marseille","lat":43.21753,"lon":5.34616,"is_reserved":false,"is_disabled":false,"rental_uris":{"android":"levelo://app?vid=019aebdb-ca21-4835-a2d5-7cb30e9a1a5c","ios":"levelo://app?vid=019aebdb-ca21-4835-a2d5-7cb30e9a1a5c"},"vehicle_type_id":"4","last_reported":1744787410,"current_range_meters":8000,"station_id":"st_cvj6r9ubvosntc0bgbag","pricing_plan_id":"cebpf4jnsgd1na2vs0mg"},{"bike_id":"7585d99e-2793-4586-b58b-df3bc1883827","system_id":"levelo_inurba_marseille","lat":43.29374,"lon":5.37858,"is_reserved":false,"is_disabled":false,"rental_uris":{"android":"levelo://app?vid=7585d99e-2793-4586-b58b-df3bc1883827","ios":"levelo://app?vid=7585d99e-2793-4586-b58b-df3bc1883827"},"vehicle_type_id":"4","last_reported":1744787410,"current_range_meters":8000,"station_id":"ce4bgjh2rcd13ifvqbf0","pricing_plan_id":"cebpf4jnsgd1na2vs0mg"},{"bike_id":"f443cfdb-db2e-4f4b-a88d-615075e28818","system_id":"levelo_inurba_marseille","lat":43.30542,"lon":5.36554,"is_reserved":false,"is_disabled":false,"rental_uris":{"android":"levelo://app?vid=f443cfdb-db2e-4f4b-a88d-615075e28818","ios":"levelo://app?vid=f443cfdb-db2e-4f4b-a88d-615075e28818"},"vehicle_type_id":"4","last_reported":1744787410,"current_range_meters":8000,"station_id":"ce4bgs12rcd13ifvqcag","pricing_plan_id":"cebpf4jnsgd1na2vs0mg"},{"bike_id":"5b7df382-cf96-4aaa-b4ca-65bf5370ffa6","system_id":"levelo_inurba_marseille","lat":43.29973,"lon":5.38495,"is_reserved":false,"is_disabled":false,"rental_uris":{"android":"levelo://app?vid=5b7df382-cf96-4aaa-b4ca-65bf5370ffa6","ios":"levelo://app?vid=5b7df382-cf96-4aaa-b4ca-65bf5370ffa6"},"vehicle_type_id":"4","last_reported":1744787410,"current_range_meters":7200,"station_id":"ce4bgj92rcd13ifvqbd0","pricing_plan_id":"cebpf4jnsgd1na2vs0mg"},{"bike_id":"e1103876-639d-4bb4-8300-d22110ae76d3","system_id":"levelo_inurba_marseille","lat":43.273013,"lon":5.410963,"is_reserved":false,"is_disabled":false,"rental_uris":{"android":"levelo://app?vid=e1103876-639d-4bb4-8300-d22110ae76d3","ios":"levelo://app?vid=e1103876-639d-4bb4-8300-d22110ae76d3"},"vehicle_type_id":"4","last_reported":1744787410,"current_range_meters":8000,"station_id":"","pricing_plan_id":"cebpf4jnsgd1na2vs0mg"},{"bike_id":"a0636e31-c89e-4ae1-aea4-880988d0da0e","system_id":"levelo_inurba_marseille","lat":43.29572,"lon":5.4229,"is_reserved":false,"is_disabled":false,"rental_uris":{"android":"levelo://app?vid=a0636e31-c89e-4ae1-aea4-880988d0da0e","ios":"levelo://app?vid=a0636e31-c89e-4ae1-aea4-880988d0da0e"},"vehicle_type_id":"4","last_reported":1744787410,"current_range_meters":8000,"station_id":"ce4bhph2rcd13ifvqhdg","pricing_plan_id":"cebpf4jnsgd1na2vs0mg"},{"bike_id":"d5b3dd94-8d96-4d40-b2d5-ec0f34a0ed11","system_id":"levelo_inurba_marseille","lat":43.30551,"lon":5.3657,"is_reserved":false,"is_disabled":false,"rental_uris":{"android":"levelo://app?vid=d5b3dd94-8d96-4d40-b2d5-ec0f34a0ed11","ios":"levelo://app?vid=d5b3dd94-8d96-4d40-b2d5-ec0f34a0ed11"},"vehicle_type_id":"4","last_reported":1744787410,"current_range_meters":8000,"station_id":"ce4bgs12rcd13ifvqcag","pricing_plan_id":"cebpf4jnsgd1na2vs0mg"},{"bike_id":"441df844-6123-4253-86fe-34df7f03f540","system_id":"levelo_inurba_marseille","lat":43.27325,"lon":5.3908,"is_reserved":false,"is_disabled":false,"rental_uris":{"android":"levelo://app?vid=441df844-6123-4253-86fe-34df7f03f540","ios":"levelo://app?vid=441df844-6123-4253-86fe-34df7f03f540"},"vehicle_type_id":"4","last_reported":1744787410,"current_range_meters":8000,"station_id":"ce4bhgp2rcd13ifvqfe0","pricing_plan_id":"cebpf4jnsgd1na2vs0mg"},{"bike_id":"b7ab99ba-94bb-4274-aca7-e6131d0e5ab1","system_id":"levelo_inurba_marseille","lat":43.2419,"lon":5.36403,"is_reserved":false,"is_disabled":false,"rental_uris":{"android":"levelo://app?vid=b7ab99ba-94bb-4274-aca7-e6131d0e5ab1","ios":"levelo://app?vid=b7ab99ba-94bb-4274-aca7-e6131d0e5ab1"},"vehicle_type_id":"4","last_reported":1744787410,"current_range_meters":8400,"station_id":"cpo36qri1sfpv3e86is0","pricing_plan_id":"cebpf4jnsgd1na2vs0mg"},{"bike_id":"45c77ecd-980e-4383-ab9a-31be7a98a675","system_id":"levelo_inurba_marseille","lat":43.24054,"lon":5.37738,"is_reserved":false,"is_disabled":false,"rental_uris":{"android":"levelo://app?vid=45c77ecd-980e-4383-ab9a-31be7a98a675","ios":"levelo://app?vid=45c77ecd-980e-4383-ab9a-31be7a98a675"},"vehicle_type_id":"4","last_reported":1744787410,"current_range_meters":8400,"station_id":"ce4bhnp2rcd13ifvqgvg","pricing_plan_id":"cebpf4jnsgd1na2vs0mg"},{"bike_id":"97f3e45c-1ebe-4b9d-97b9-7baa223f6f2e","system_id":"levelo_inurba_marseille","lat":43.270294,"lon":5.386624,"is_reserved":false,"is_disabled":false,"rental_uris":{"android":"levelo://app?vid=97f3e45c-1ebe-4b9d-97b9-7baa223f6f2e","ios":"levelo://app?vid=97f3e45c-1ebe-4b9d-97b9-7baa223f6f2e"},"vehicle_type_id":"4","last_reported":1744787410,"current_range_meters":8000,"station_id":"ce4bhh92rcd13ifvqfh0","pricing_plan_id":"cebpf4jnsgd1na2vs0mg"},{"bike_id":"cc019aaa-33a8-42d2-a2d4-ef26fcdd651f","system_id":"levelo_inurba_marseille","lat":43.30802,"lon":5.37341,"is_reserved":false,"is_disabled":false,"rental_uris":{"android":"levelo://app?vid=cc019aaa-33a8-42d2-a2d4-ef26fcdd651f","ios":"levelo://app?vid=cc019aaa-33a8-42d2-a2d4-ef26fcdd651f"},"vehicle_type_id":"4","last_reported":1744787410,"current_range_meters":8800,"station_id":"","pricing_plan_id":"cebpf4jnsgd1na2vs0mg"},{"bike_id":"25e230f4-e34c-445f-87cd-877f61101b31","system_id":"levelo_inurba_marseille","lat":43.3121,"lon":5.3685,"is_reserved":false,"is_disabled":false,"rental_uris":{"android":"levelo://app?vid=25e230f4-e34c-445f-87cd-877f61101b31","ios":"levelo://app?vid=25e230f4-e34c-445f-87cd-877f61101b31"},"vehicle_type_id":"4","last_reported":1744787410,"current_range_meters":8800,"station_id":"ce4bgl92rcd13ifvqbq0","pricing_plan_id":"cebpf4jnsgd1na2vs0mg"},{"bike_id":"dddf7314-1c94-4eef-9f77-fcee7efca655","system_id":"levelo_inurba_marseille","lat":43.29988,"lon":5.3715,"is_reserved":false,"is_disabled":false,"rental_uris":{"android":"levelo://app?vid=dddf7314-1c94-4eef-9f77-fcee7efca655","ios":"levelo://app?vid=dddf7314-1c94-4eef-9f77-fcee7efca655"},"vehicle_type_id":"4","last_reported":1744787410,"current_range_meters":8400,"station_id":"ce4bgr92rcd13ifvqc7g","pricing_plan_id":"cebpf4jnsgd1na2vs0mg"},{"bike_id":"cfe682df-d0ce-4143-9cdc-c9c6578e1b0d","system_id":"levelo_inurba_marseille","lat":43.30238,"lon":5.40054,"is_reserved":false,"is_disabled":true,"rental_uris":{"android":"levelo://app?vid=cfe682df-d0ce-4143-9cdc-c9c6578e1b0d","ios":"levelo://app?vid=cfe682df-d0ce-4143-9cdc-c9c6578e1b0d"},"vehicle_type_id":"4","last_reported":1744787410,"current_range_meters":9200,"station_id":"ce4bgvh2rcd13ifvqcs0","pricing_plan_id":"cebpf4jnsgd1na2vs0mg"},{"bike_id":"e5a8463a-5b3f-4a43-961e-7322a50c6233","system_id":"levelo_inurba_marseille","lat":43.30402,"lon":5.41275,"is_reserved":false,"is_disabled":false,"rental_uris":{"android":"levelo://app?vid=e5a8463a-5b3f-4a43-961e-7322a50c6233","ios":"levelo://app?vid=e5a8463a-5b3f-4a43-961e-7322a50c6233"},"vehicle_type_id":"4","last_reported":1744787410,"current_range_meters":9200,"station_id":"ce4bhop2rcd13ifvqh8g","pricing_plan_id":"cebpf4jnsgd1na2vs0mg"},{"bike_id":"376f754b-7bba-4962-babe-b49b1468281c","system_id":"levelo_inurba_marseille","lat":43.30928,"lon":5.40154,"is_reserved":false,"is_disabled":true,"rental_uris":{"android":"levelo://app?vid=376f754b-7bba-4962-babe-b49b1468281c","ios":"levelo://app?vid=376f754b-7bba-4962-babe-b49b1468281c"},"vehicle_type_id":"4","last_reported":1744787410,"current_range_meters":9200,"station_id":"ce4bgvp2rcd13ifvqct0","pricing_plan_id":"cebpf4jnsgd1na2vs0mg"},{"bike_id":"68bb5c2f-fd19-492d-b0bb-5841e6724b4a","system_id":"levelo_inurba_marseille","lat":43.22937,"lon":5.35383,"is_reserved":false,"is_disabled":false,"rental_uris":{"android":"levelo://app?vid=68bb5c2f-fd19-492d-b0bb-5841e6724b4a","ios":"levelo://app?vid=68bb5c2f-fd19-492d-b0bb-5841e6724b4a"},"vehicle_type_id":"4","last_reported":1744787410,"current_range_meters":9600,"station_id":"cpo3532slgdg3j2ikp40","pricing_plan_id":"cebpf4jnsgd1na2vs0mg"},{"bike_id":"eba88715-c191-4584-80b2-c0e4ecec5b68","system_id":"levelo_inurba_marseille","lat":43.305488,"lon":5.365446,"is_reserved":false,"is_disabled":false,"rental_uris":{"android":"levelo://app?vid=eba88715-c191-4584-80b2-c0e4ecec5b68","ios":"levelo://app?vid=eba88715-c191-4584-80b2-c0e4ecec5b68"},"vehicle_type_id":"4","last_reported":1744787410,"current_range_meters":9600,"station_id":"ce4bgs12rcd13ifvqcag","pricing_plan_id":"cebpf4jnsgd1na2vs0mg"},{"bike_id":"615169bf-e544-4e2f-8d8e-3eb573104cd3","system_id":"levelo_inurba_marseille","lat":43.26497,"lon":5.3954,"is_reserved":false,"is_disabled":false,"rental_uris":{"android":"levelo://app?vid=615169bf-e544-4e2f-8d8e-3eb573104cd3","ios":"levelo://app?vid=615169bf-e544-4e2f-8d8e-3eb573104cd3"},"vehicle_type_id":"4","last_reported":1744787410,"current_range_meters":9600,"station_id":"ce4bhi12rcd13ifvqfq0","pricing_plan_id":"cebpf4jnsgd1na2vs0mg"},{"bike_id":"b8fc41cd-41c8-4b48-bacc-bbafb8e021c1","system_id":"levelo_inurba_marseille","lat":43.313269,"lon":5.397165,"is_reserved":false,"is_disabled":false,"rental_uris":{"android":"levelo://app?vid=b8fc41cd-41c8-4b48-bacc-bbafb8e021c1","ios":"levelo://app?vid=b8fc41cd-41c8-4b48-bacc-bbafb8e021c1"},"vehicle_type_id":"4","last_reported":1744787410,"current_range_meters":9600,"station_id":"ce4bgvp2rcd13ifvqcu0","pricing_plan_id":"cebpf4jnsgd1na2vs0mg"},{"bike_id":"2797dcdb-c4e1-48b2-82d6-5677d371fa39","system_id":"levelo_inurba_marseille","lat":43.24161,"lon":5.36401,"is_reserved":false,"is_disabled":false,"rental_uris":{"android":"levelo://app?vid=2797dcdb-c4e1-48b2-82d6-5677d371fa39","ios":"levelo://app?vid=2797dcdb-c4e1-48b2-82d6-5677d371fa39"},"vehicle_type_id":"4","last_reported":1744787410,"current_range_meters":9600,"station_id":"cpo36qri1sfpv3e86is0","pricing_plan_id":"cebpf4jnsgd1na2vs0mg"},{"bike_id":"d2d37f01-fa46-4fbc-a721-7789f4003663","system_id":"levelo_inurba_marseille","lat":43.24962,"lon":5.38973,"is_reserved":false,"is_disabled":false,"rental_uris":{"android":"levelo://app?vid=d2d37f01-fa46-4fbc-a721-7789f4003663","ios":"levelo://app?vid=d2d37f01-fa46-4fbc-a721-7789f4003663"},"vehicle_type_id":"4","last_reported":1744787410,"current_range_meters":9600,"station_id":"","pricing_plan_id":"cebpf4jnsgd1na2vs0mg"},{"bike_id":"04ccf5cd-5294-4bef-91b5-b07c993b6d28","system_id":"levelo_inurba_marseille","lat":43.24704,"lon":5.41179,"is_reserved":false,"is_disabled":false,"rental_uris":{"android":"levelo://app?vid=04ccf5cd-5294-4bef-91b5-b07c993b6d28","ios":"levelo://app?vid=04ccf5cd-5294-4bef-91b5-b07c993b6d28"},"vehicle_type_id":"4","last_reported":1744787410,"current_range_meters":9600,"station_id":"","pricing_plan_id":"cebpf4jnsgd1na2vs0mg"},{"bike_id":"b5d978c8-0bb0-45d7-be49-b92cba244dc5","system_id":"levelo_inurba_marseille","lat":43.29299,"lon":5.37445,"is_reserved":false,"is_disabled":true,"rental_uris":{"android":"levelo://app?vid=b5d978c8-0bb0-45d7-be49-b92cba244dc5","ios":"levelo://app?vid=b5d978c8-0bb0-45d7-be49-b92cba244dc5"},"vehicle_type_id":"4","last_reported":1744787410,"current_range_meters":9600,"station_id":"ce4bgi12rcd13ifvqb70","pricing_plan_id":"cebpf4jnsgd1na2vs0mg"},{"bike_id":"ecc26774-7f80-4834-883f-3a8990a5fcbe","system_id":"levelo_inurba_marseille","lat":43.2397,"lon":5.36621,"is_reserved":false,"is_disabled":false,"rental_uris":{"android":"levelo://app?vid=ecc26774-7f80-4834-883f-3a8990a5fcbe","ios":"levelo://app?vid=ecc26774-7f80-4834-883f-3a8990a5fcbe"},"vehicle_type_id":"4","last_reported":1744787410,"current_range_meters":10000,"station_id":"ce4bhi12rcd13ifvqfp0","pricing_plan_id":"cebpf4jnsgd1na2vs0mg"},{"bike_id":"dd8f0ff9-117f-4fd9-bc7c-ef5d85c7f322","system_id":"levelo_inurba_marseille","lat":43.31989,"lon":5.381416,"is_reserved":false,"is_disabled":false,"rental_uris":{"android":"levelo://app?vid=dd8f0ff9-117f-4fd9-bc7c-ef5d85c7f322","ios":"levelo://app?vid=dd8f0ff9-117f-4fd9-bc7c-ef5d85c7f322"},"vehicle_type_id":"4","last_reported":1744787410,"current_range_meters":10000,"station_id":"ce4bhr12rcd13ifvqhpg","pricing_plan_id":"cebpf4jnsgd1na2vs0mg"},{"bike_id":"726c7627-2db8-4833-af5c-40c97435ce53","system_id":"levelo_inurba_marseille","lat":43.31083,"lon":5.3837,"is_reserved":false,"is_disabled":false,"rental_uris":{"android":"levelo://app?vid=726c7627-2db8-4833-af5c-40c97435ce53","ios":"levelo://app?vid=726c7627-2db8-4833-af5c-40c97435ce53"},"vehicle_type_id":"4","last_reported":1744787410,"current_range_meters":10000,"station_id":"ce4bgv92rcd13ifvqcr0","pricing_plan_id":"cebpf4jnsgd1na2vs0mg"},{"bike_id":"03c8cee0-a6a5-48f4-b783-f14451736b24","system_id":"levelo_inurba_marseille","lat":43.27184,"lon":5.4101,"is_reserved":false,"is_disabled":false,"rental_uris":{"android":"levelo://app?vid=03c8cee0-a6a5-48f4-b783-f14451736b24","ios":"levelo://app?vid=03c8cee0-a6a5-48f4-b783-f14451736b24"},"vehicle_type_id":"4","last_reported":1744787410,"current_range_meters":10000,"station_id":"ce4bhl12rcd13ifvqgf0","pricing_plan_id":"cebpf4jnsgd1na2vs0mg"},{"bike_id":"982b1a86-cd40-472c-8020-39a4110d0e44","system_id":"levelo_inurba_marseille","lat":43.310848,"lon":5.383514,"is_reserved":false,"is_disabled":true,"rental_uris":{"android":"levelo://app?vid=982b1a86-cd40-472c-8020-39a4110d0e44","ios":"levelo://app?vid=982b1a86-cd40-472c-8020-39a4110d0e44"},"vehicle_type_id":"4","last_reported":1744787410,"current_range_meters":10000,"station_id":"ce4bgv92rcd13ifvqcr0","pricing_plan_id":"cebpf4jnsgd1na2vs0mg"},{"bike_id":"a8132d22-4ce6-4e24-9e2c-e02042e4181b","system_id":"levelo_inurba_marseille","lat":43.21734,"lon":5.34609,"is_reserved":false,"is_disabled":false,"rental_uris":{"android":"levelo://app?vid=a8132d22-4ce6-4e24-9e2c-e02042e4181b","ios":"levelo://app?vid=a8132d22-4ce6-4e24-9e2c-e02042e4181b"},"vehicle_type_id":"4","last_reported":1744787410,"current_range_meters":10800,"station_id":"st_cvj6r9ubvosntc0bgbag","pricing_plan_id":"cebpf4jnsgd1na2vs0mg"},{"bike_id":"3c6c4dbf-315a-4c66-ad0c-6887441540f4","system_id":"levelo_inurba_marseille","lat":43.27311,"lon":5.39104,"is_reserved":false,"is_disabled":false,"rental_uris":{"android":"levelo://app?vid=3c6c4dbf-315a-4c66-ad0c-6887441540f4","ios":"levelo://app?vid=3c6c4dbf-315a-4c66-ad0c-6887441540f4"},"vehicle_type_id":"4","last_reported":1744787410,"current_range_meters":10800,"station_id":"ce4bhgp2rcd13ifvqfe0","pricing_plan_id":"cebpf4jnsgd1na2vs0mg"},{"bike_id":"45c6b552-68fd-454d-84d3-cf79221aaee4","system_id":"levelo_inurba_marseille","lat":43.298677,"lon":5.40865,"is_reserved":false,"is_disabled":false,"rental_uris":{"android":"levelo://app?vid=45c6b552-68fd-454d-84d3-cf79221aaee4","ios":"levelo://app?vid=45c6b552-68fd-454d-84d3-cf79221aaee4"},"vehicle_type_id":"4","last_reported":1744787410,"current_range_meters":10800,"station_id":"","pricing_plan_id":"cebpf4jnsgd1na2vs0mg"},{"bike_id":"c929c5b3-6eea-44d1-bbe4-5aae46bb3975","system_id":"levelo_inurba_marseille","lat":43.27207,"lon":5.39183,"is_reserved":false,"is_disabled":false,"rental_uris":{"android":"levelo://app?vid=c929c5b3-6eea-44d1-bbe4-5aae46bb3975","ios":"levelo://app?vid=c929c5b3-6eea-44d1-bbe4-5aae46bb3975"},"vehicle_type_id":"4","last_reported":1744787410,"current_range_meters":10800,"station_id":"ce4bhhp2rcd13ifvqfm0","pricing_plan_id":"cebpf4jnsgd1na2vs0mg"},{"bike_id":"b04d8da2-4e58-4f17-ae53-0cc1d89b7f48","system_id":"levelo_inurba_marseille","lat":43.302126,"lon":5.394906,"is_reserved":false,"is_disabled":false,"rental_uris":{"android":"levelo://app?vid=b04d8da2-4e58-4f17-ae53-0cc1d89b7f48","ios":"levelo://app?vid=b04d8da2-4e58-4f17-ae53-0cc1d89b7f48"},"vehicle_type_id":"4","last_reported":1744787410,"current_range_meters":11200,"station_id":"ce4bh0p2rcd13ifvqd70","pricing_plan_id":"cebpf4jnsgd1na2vs0mg"},{"bike_id":"1c0c17d4-38c5-4a1c-8a19-a752fa5d90ed","system_id":"levelo_inurba_marseille","lat":43.23173,"lon":5.39986,"is_reserved":false,"is_disabled":false,"rental_uris":{"android":"levelo://app?vid=1c0c17d4-38c5-4a1c-8a19-a752fa5d90ed","ios":"levelo://app?vid=1c0c17d4-38c5-4a1c-8a19-a752fa5d90ed"},"vehicle_type_id":"4","last_reported":1744787410,"current_range_meters":11200,"station_id":"ce4bhn12rcd13ifvqgqg","pricing_plan_id":"cebpf4jnsgd1na2vs0mg"},{"bike_id":"46b9d12b-d4e5-481e-8406-452fd0e34662","system_id":"levelo_inurba_marseille","lat":43.31324,"lon":5.39697,"is_reserved":false,"is_disabled":false,"rental_uris":{"android":"levelo://app?vid=46b9d12b-d4e5-481e-8406-452fd0e34662","ios":"levelo://app?vid=46b9d12b-d4e5-481e-8406-452fd0e34662"},"vehicle_type_id":"4","last_reported":1744787410,"current_range_meters":11200,"station_id":"ce4bgvp2rcd13ifvqcu0","pricing_plan_id":"cebpf4jnsgd1na2vs0mg"},{"bike_id":"cd79eb0b-3e02-41ff-b57d-82721def35a9","system_id":"levelo_inurba_marseille","lat":43.30155,"lon":5.38094,"is_reserved":false,"is_disabled":false,"rental_uris":{"android":"levelo://app?vid=cd79eb0b-3e02-41ff-b57d-82721def35a9","ios":"levelo://app?vid=cd79eb0b-3e02-41ff-b57d-82721def35a9"},"vehicle_type_id":"4","last_reported":1744787410,"current_range_meters":11600,"station_id":"ce4bhip2rcd13ifvqft0","pricing_plan_id":"cebpf4jnsgd1na2vs0mg"},{"bike_id":"7eacb872-0584-4b06-8fad-feb612d3799a","system_id":"levelo_inurba_marseille","lat":43.2971,"lon":5.38134,"is_reserved":false,"is_disabled":false,"rental_uris":{"android":"levelo://app?vid=7eacb872-0584-4b06-8fad-feb612d3799a","ios":"levelo://app?vid=7eacb872-0584-4b06-8fad-feb612d3799a"},"vehicle_type_id":"4","last_reported":1744787410,"current_range_meters":11600,"station_id":"","pricing_plan_id":"cebpf4jnsgd1na2vs0mg"},{"bike_id":"2232fac9-9299-4d91-a50c-2c49043f1a79","system_id":"levelo_inurba_marseille","lat":43.274266,"lon":5.394275,"is_reserved":false,"is_disabled":false,"rental_uris":{"android":"levelo://app?vid=2232fac9-9299-4d91-a50c-2c49043f1a79","ios":"levelo://app?vid=2232fac9-9299-4d91-a50c-2c49043f1a79"},"vehicle_type_id":"4","last_reported":1744787410,"current_range_meters":11600,"station_id":"ce4bhdp2rcd13ifvqf20","pricing_plan_id":"cebpf4jnsgd1na2vs0mg"},{"bike_id":"a5d079ef-c3f1-42cb-9fd2-959a41d55a70","system_id":"levelo_inurba_marseille","lat":43.3248,"lon":5.36575,"is_reserved":false,"is_disabled":false,"rental_uris":{"android":"levelo://app?vid=a5d079ef-c3f1-42cb-9fd2-959a41d55a70","ios":"levelo://app?vid=a5d079ef-c3f1-42cb-9fd2-959a41d55a70"},"vehicle_type_id":"4","last_reported":1744787410,"current_range_meters":11600,"station_id":"ce4bhs12rcd13ifvqhvg","pricing_plan_id":"cebpf4jnsgd1na2vs0mg"},{"bike_id":"fc63a393-113f-4953-853e-d8cfa9db262b","system_id":"levelo_inurba_marseille","lat":43.30147,"lon":5.3809,"is_reserved":false,"is_disabled":false,"rental_uris":{"android":"levelo://app?vid=fc63a393-113f-4953-853e-d8cfa9db262b","ios":"levelo://app?vid=fc63a393-113f-4953-853e-d8cfa9db262b"},"vehicle_type_id":"4","last_reported":1744787410,"current_range_meters":12000,"station_id":"ce4bgjp2rcd13ifvqbh0","pricing_plan_id":"cebpf4jnsgd1na2vs0mg"},{"bike_id":"a4b5d8e9-a03a-42b0-80df-d51521de0235","system_id":"levelo_inurba_marseille","lat":43.31352,"lon":5.36717,"is_reserved":false,"is_disabled":false,"rental_uris":{"android":"levelo://app?vid=a4b5d8e9-a03a-42b0-80df-d51521de0235","ios":"levelo://app?vid=a4b5d8e9-a03a-42b0-80df-d51521de0235"},"vehicle_type_id":"4","last_reported":1744787410,"current_range_meters":12000,"station_id":"ce4bgr92rcd13ifvqc6g","pricing_plan_id":"cebpf4jnsgd1na2vs0mg"},{"bike_id":"ee465a00-80df-4308-a2c3-b5ea33f92667","system_id":"levelo_inurba_marseille","lat":43.32099,"lon":5.36792,"is_reserved":false,"is_disabled":false,"rental_uris":{"android":"levelo://app?vid=ee465a00-80df-4308-a2c3-b5ea33f92667","ios":"levelo://app?vid=ee465a00-80df-4308-a2c3-b5ea33f92667"},"vehicle_type_id":"4","last_reported":1744787410,"current_range_meters":12000,"station_id":"ce4bhrh2rcd13ifvqhug","pricing_plan_id":"cebpf4jnsgd1na2vs0mg"},{"bike_id":"10d1bf99-d967-4b4f-b661-ccb81fb5d24a","system_id":"levelo_inurba_marseille","lat":43.3089,"lon":5.39638,"is_reserved":false,"is_disabled":false,"rental_uris":{"android":"levelo://app?vid=10d1bf99-d967-4b4f-b661-ccb81fb5d24a","ios":"levelo://app?vid=10d1bf99-d967-4b4f-b661-ccb81fb5d24a"},"vehicle_type_id":"4","last_reported":1744787410,"current_range_meters":12400,"station_id":"ce4bh012rcd13ifvqcv0","pricing_plan_id":"cebpf4jnsgd1na2vs0mg"},{"bike_id":"eeec4aa3-87e9-4496-be2e-938ceb91cf85","system_id":"levelo_inurba_marseille","lat":43.29323,"lon":5.37202,"is_reserved":false,"is_disabled":true,"rental_uris":{"android":"levelo://app?vid=eeec4aa3-87e9-4496-be2e-938ceb91cf85","ios":"levelo://app?vid=eeec4aa3-87e9-4496-be2e-938ceb91cf85"},"vehicle_type_id":"4","last_reported":1744787410,"current_range_meters":12400,"station_id":"ce4bgh92rcd13ifvqb40","pricing_plan_id":"cebpf4jnsgd1na2vs0mg"},{"bike_id":"7f1c9f28-76eb-4766-8c3a-33992f61bbdf","system_id":"levelo_inurba_marseille","lat":43.27212,"lon":5.39187,"is_reserved":false,"is_disabled":false,"rental_uris":{"android":"levelo://app?vid=7f1c9f28-76eb-4766-8c3a-33992f61bbdf","ios":"levelo://app?vid=7f1c9f28-76eb-4766-8c3a-33992f61bbdf"},"vehicle_type_id":"4","last_reported":1744787410,"current_range_meters":12400,"station_id":"ce4bhhp2rcd13ifvqfm0","pricing_plan_id":"cebpf4jnsgd1na2vs0mg"},{"bike_id":"4aef0fa6-a0da-4fa2-9099-9fa1ba81c16a","system_id":"levelo_inurba_marseille","lat":43.28158,"lon":5.40442,"is_reserved":false,"is_disabled":false,"rental_uris":{"android":"levelo://app?vid=4aef0fa6-a0da-4fa2-9099-9fa1ba81c16a","ios":"levelo://app?vid=4aef0fa6-a0da-4fa2-9099-9fa1ba81c16a"},"vehicle_type_id":"4","last_reported":1744787410,"current_range_meters":12400,"station_id":"","pricing_plan_id":"cebpf4jnsgd1na2vs0mg"},{"bike_id":"9df4d04c-49c0-4cc9-90fb-8c204c2453c2","system_id":"levelo_inurba_marseille","lat":43.25935,"lon":5.4092,"is_reserved":false,"is_disabled":false,"rental_uris":{"android":"levelo://app?vid=9df4d04c-49c0-4cc9-90fb-8c204c2453c2","ios":"levelo://app?vid=9df4d04c-49c0-4cc9-90fb-8c204c2453c2"},"vehicle_type_id":"4","last_reported":1744787410,"current_range_meters":12400,"station_id":"ce4bhm92rcd13ifvqglg","pricing_plan_id":"cebpf4jnsgd1na2vs0mg"},{"bike_id":"561936ef-54e4-4d15-b2a7-dfd018b9e12e","system_id":"levelo_inurba_marseille","lat":43.29829,"lon":5.40273,"is_reserved":false,"is_disabled":false,"rental_uris":{"android":"levelo://app?vid=561936ef-54e4-4d15-b2a7-dfd018b9e12e","ios":"levelo://app?vid=561936ef-54e4-4d15-b2a7-dfd018b9e12e"},"vehicle_type_id":"4","last_reported":1744787410,"current_range_meters":12800,"station_id":"","pricing_plan_id":"cebpf4jnsgd1na2vs0mg"},{"bike_id":"e8412f40-a8dc-44ee-bbc2-e01b1cf2ab9a","system_id":"levelo_inurba_marseille","lat":43.27828,"lon":5.39203,"is_reserved":false,"is_disabled":false,"rental_uris":{"android":"levelo://app?vid=e8412f40-a8dc-44ee-bbc2-e01b1cf2ab9a","ios":"levelo://app?vid=e8412f40-a8dc-44ee-bbc2-e01b1cf2ab9a"},"vehicle_type_id":"4","last_reported":1744787410,"current_range_meters":13600,"station_id":"ce4bhjp2rcd13ifvqga0","pricing_plan_id":"cebpf4jnsgd1na2vs0mg"},{"bike_id":"17ba3a27-184e-4e06-a54a-401b9a187b6f","system_id":"levelo_inurba_marseille","lat":43.26785,"lon":5.39413,"is_reserved":false,"is_disabled":false,"rental_uris":{"android":"levelo://app?vid=17ba3a27-184e-4e06-a54a-401b9a187b6f","ios":"levelo://app?vid=17ba3a27-184e-4e06-a54a-401b9a187b6f"},"vehicle_type_id":"4","last_reported":1744787410,"current_range_meters":13600,"station_id":"ce4bhh12rcd13ifvqfg0","pricing_plan_id":"cebpf4jnsgd1na2vs0mg"},{"bike_id":"08665e19-be9b-4b06-a7d4-30f714f1faad","system_id":"levelo_inurba_marseille","lat":43.25717,"lon":5.41102,"is_reserved":false,"is_disabled":false,"rental_uris":{"android":"levelo://app?vid=08665e19-be9b-4b06-a7d4-30f714f1faad","ios":"levelo://app?vid=08665e19-be9b-4b06-a7d4-30f714f1faad"},"vehicle_type_id":"4","last_reported":1744787410,"current_range_meters":14000,"station_id":"ce4bhkp2rcd13ifvqgd0","pricing_plan_id":"cebpf4jnsgd1na2vs0mg"},{"bike_id":"ce86423c-7fda-4347-b51e-6014b639a5a1","system_id":"levelo_inurba_marseille","lat":43.3109,"lon":5.3837,"is_reserved":false,"is_disabled":false,"rental_uris":{"android":"levelo://app?vid=ce86423c-7fda-4347-b51e-6014b639a5a1","ios":"levelo://app?vid=ce86423c-7fda-4347-b51e-6014b639a5a1"},"vehicle_type_id":"4","last_reported":1744787410,"current_range_meters":14000,"station_id":"ce4bgv92rcd13ifvqcr0","pricing_plan_id":"cebpf4jnsgd1na2vs0mg"},{"bike_id":"4c470df7-4cbb-413f-b587-893637313088","system_id":"levelo_inurba_marseille","lat":43.25141,"lon":5.40323,"is_reserved":false,"is_disabled":false,"rental_uris":{"android":"levelo://app?vid=4c470df7-4cbb-413f-b587-893637313088","ios":"levelo://app?vid=4c470df7-4cbb-413f-b587-893637313088"},"vehicle_type_id":"4","last_reported":1744787410,"current_range_meters":14400,"station_id":"ce4bhlh2rcd13ifvqgig","pricing_plan_id":"cebpf4jnsgd1na2vs0mg"},{"bike_id":"6f23923f-fc67-460a-b0b8-5119c016d5b0","system_id":"levelo_inurba_marseille","lat":43.269385,"lon":5.389354,"is_reserved":false,"is_disabled":true,"rental_uris":{"android":"levelo://app?vid=6f23923f-fc67-460a-b0b8-5119c016d5b0","ios":"levelo://app?vid=6f23923f-fc67-460a-b0b8-5119c016d5b0"},"vehicle_type_id":"4","last_reported":1744787410,"current_range_meters":14400,"station_id":"ce4bhhh2rcd13ifvqfl0","pricing_plan_id":"cebpf4jnsgd1na2vs0mg"},{"bike_id":"90aab251-1ff9-4010-ba90-86de6b1ffc35","system_id":"levelo_inurba_marseille","lat":43.23154,"lon":5.43719,"is_reserved":false,"is_disabled":false,"rental_uris":{"android":"levelo://app?vid=90aab251-1ff9-4010-ba90-86de6b1ffc35","ios":"levelo://app?vid=90aab251-1ff9-4010-ba90-86de6b1ffc35"},"vehicle_type_id":"4","last_reported":1744787410,"current_range_meters":14400,"station_id":"ce4bhmp2rcd13ifvqgog","pricing_plan_id":"cebpf4jnsgd1na2vs0mg"},{"bike_id":"80bfb6d2-2496-4f87-9af1-7e2656b0262c","system_id":"levelo_inurba_marseille","lat":43.28487,"lon":5.38559,"is_reserved":false,"is_disabled":false,"rental_uris":{"android":"levelo://app?vid=80bfb6d2-2496-4f87-9af1-7e2656b0262c","ios":"levelo://app?vid=80bfb6d2-2496-4f87-9af1-7e2656b0262c"},"vehicle_type_id":"4","last_reported":1744787410,"current_range_meters":14800,"station_id":"ce4bh8p2rcd13ifvqeb0","pricing_plan_id":"cebpf4jnsgd1na2vs0mg"},{"bike_id":"834ec9e1-9d50-4bee-85ae-d1db335c55e5","system_id":"levelo_inurba_marseille","lat":43.31863,"lon":5.36468,"is_reserved":false,"is_disabled":false,"rental_uris":{"android":"levelo://app?vid=834ec9e1-9d50-4bee-85ae-d1db335c55e5","ios":"levelo://app?vid=834ec9e1-9d50-4bee-85ae-d1db335c55e5"},"vehicle_type_id":"4","last_reported":1744787410,"current_range_meters":14800,"station_id":"","pricing_plan_id":"cebpf4jnsgd1na2vs0mg"},{"bike_id":"7b6c1367-ec4a-4798-bcf0-f7f1adc8e59e","system_id":"levelo_inurba_marseille","lat":43.299298,"lon":5.365432,"is_reserved":false,"is_disabled":true,"rental_uris":{"android":"levelo://app?vid=7b6c1367-ec4a-4798-bcf0-f7f1adc8e59e","ios":"levelo://app?vid=7b6c1367-ec4a-4798-bcf0-f7f1adc8e59e"},"vehicle_type_id":"4","last_reported":1744787410,"current_range_meters":14800,"station_id":"ce4bgm92rcd13ifvqbr0","pricing_plan_id":"cebpf4jnsgd1na2vs0mg"},{"bike_id":"15839d76-0879-42d7-9bf8-b60f30413855","system_id":"levelo_inurba_marseille","lat":43.29273,"lon":5.368378,"is_reserved":false,"is_disabled":true,"rental_uris":{"android":"levelo://app?vid=15839d76-0879-42d7-9bf8-b60f30413855","ios":"levelo://app?vid=15839d76-0879-42d7-9bf8-b60f30413855"},"vehicle_type_id":"4","last_reported":1744787410,"current_range_meters":14800,"station_id":"ce4bhbp2rcd13ifvqesg","pricing_plan_id":"cebpf4jnsgd1na2vs0mg"},{"bike_id":"8831ddb3-1acb-45d1-9dc0-751c5236df3c","system_id":"levelo_inurba_marseille","lat":43.27598,"lon":5.3614,"is_reserved":false,"is_disabled":false,"rental_uris":{"android":"levelo://app?vid=8831ddb3-1acb-45d1-9dc0-751c5236df3c","ios":"levelo://app?vid=8831ddb3-1acb-45d1-9dc0-751c5236df3c"},"vehicle_type_id":"4","last_reported":1744787410,"current_range_meters":15200,"station_id":"ce4bgj92rcd13ifvqbe0","pricing_plan_id":"cebpf4jnsgd1na2vs0mg"},{"bike_id":"1dc86cf3-7bd1-4566-ba30-ac0f292a93cb","system_id":"levelo_inurba_marseille","lat":43.30295,"lon":5.36876,"is_reserved":false,"is_disabled":false,"rental_uris":{"android":"levelo://app?vid=1dc86cf3-7bd1-4566-ba30-ac0f292a93cb","ios":"levelo://app?vid=1dc86cf3-7bd1-4566-ba30-ac0f292a93cb"},"vehicle_type_id":"4","last_reported":1744787410,"current_range_meters":15200,"station_id":"ce4bgqh2rcd13ifvqc5g","pricing_plan_id":"cebpf4jnsgd1na2vs0mg"},{"bike_id":"cf96f9d1-5abd-4bc3-b48a-94ea5f0da8b7","system_id":"levelo_inurba_marseille","lat":43.29521,"lon":5.39043,"is_reserved":false,"is_disabled":false,"rental_uris":{"android":"levelo://app?vid=cf96f9d1-5abd-4bc3-b48a-94ea5f0da8b7","ios":"levelo://app?vid=cf96f9d1-5abd-4bc3-b48a-94ea5f0da8b7"},"vehicle_type_id":"4","last_reported":1744787410,"current_range_meters":15200,"station_id":"ce4bh3p2rcd13ifvqdp0","pricing_plan_id":"cebpf4jnsgd1na2vs0mg"},{"bike_id":"986a349a-ce2e-4c4e-9cec-cb2229ac855f","system_id":"levelo_inurba_marseille","lat":43.31294,"lon":5.37546,"is_reserved":false,"is_disabled":false,"rental_uris":{"android":"levelo://app?vid=986a349a-ce2e-4c4e-9cec-cb2229ac855f","ios":"levelo://app?vid=986a349a-ce2e-4c4e-9cec-cb2229ac855f"},"vehicle_type_id":"4","last_reported":1744787410,"current_range_meters":16000,"station_id":"","pricing_plan_id":"cebpf4jnsgd1na2vs0mg"},{"bike_id":"cd68e2a8-27dc-43e0-b15a-2d828467ffe9","system_id":"levelo_inurba_marseille","lat":43.312209,"lon":5.36862,"is_reserved":false,"is_disabled":false,"rental_uris":{"android":"levelo://app?vid=cd68e2a8-27dc-43e0-b15a-2d828467ffe9","ios":"levelo://app?vid=cd68e2a8-27dc-43e0-b15a-2d828467ffe9"},"vehicle_type_id":"4","last_reported":1744787410,"current_range_meters":15200,"station_id":"ce4bhs12rcd13ifvqhvg","pricing_plan_id":"cebpf4jnsgd1na2vs0mg"},{"bike_id":"4c0ede51-6b22-44f8-8575-b86906a20779","system_id":"levelo_inurba_marseille","lat":43.21755,"lon":5.34628,"is_reserved":false,"is_disabled":false,"rental_uris":{"android":"levelo://app?vid=4c0ede51-6b22-44f8-8575-b86906a20779","ios":"levelo://app?vid=4c0ede51-6b22-44f8-8575-b86906a20779"},"vehicle_type_id":"4","last_reported":1744787410,"current_range_meters":16000,"station_id":"st_cvj6r9ubvosntc0bgbag","pricing_plan_id":"cebpf4jnsgd1na2vs0mg"},{"bike_id":"4e0b610a-6f3a-4dda-a6be-02dd48ce4bef","system_id":"levelo_inurba_marseille","lat":43.31339,"lon":5.36678,"is_reserved":false,"is_disabled":false,"rental_uris":{"android":"levelo://app?vid=4e0b610a-6f3a-4dda-a6be-02dd48ce4bef","ios":"levelo://app?vid=4e0b610a-6f3a-4dda-a6be-02dd48ce4bef"},"vehicle_type_id":"4","last_reported":1744787410,"current_range_meters":16000,"station_id":"ce4bgr92rcd13ifvqc6g","pricing_plan_id":"cebpf4jnsgd1na2vs0mg"},{"bike_id":"6c753cfd-e2a2-46b2-a74f-cf2c42d3ccc5","system_id":"levelo_inurba_marseille","lat":43.30465,"lon":5.37912,"is_reserved":false,"is_disabled":false,"rental_uris":{"android":"levelo://app?vid=6c753cfd-e2a2-46b2-a74f-cf2c42d3ccc5","ios":"levelo://app?vid=6c753cfd-e2a2-46b2-a74f-cf2c42d3ccc5"},"vehicle_type_id":"4","last_reported":1744787410,"current_range_meters":16000,"station_id":"ce4bgup2rcd13ifvqcn0","pricing_plan_id":"cebpf4jnsgd1na2vs0mg"},{"bike_id":"dda27a58-e2ca-4fce-a851-41cf6185682c","system_id":"levelo_inurba_marseille","lat":43.30269,"lon":5.37722,"is_reserved":false,"is_disabled":false,"rental_uris":{"android":"levelo://app?vid=dda27a58-e2ca-4fce-a851-41cf6185682c","ios":"levelo://app?vid=dda27a58-e2ca-4fce-a851-41cf6185682c"},"vehicle_type_id":"4","last_reported":1744787410,"current_range_meters":16400,"station_id":"ce4bguh2rcd13ifvqcj0","pricing_plan_id":"cebpf4jnsgd1na2vs0mg"},{"bike_id":"f556879c-5c9c-404c-bfda-1bbcb0880b98","system_id":"levelo_inurba_marseille","lat":43.29566,"lon":5.375007,"is_reserved":false,"is_disabled":true,"rental_uris":{"android":"levelo://app?vid=f556879c-5c9c-404c-bfda-1bbcb0880b98","ios":"levelo://app?vid=f556879c-5c9c-404c-bfda-1bbcb0880b98"},"vehicle_type_id":"4","last_reported":1744787410,"current_range_meters":16400,"station_id":"ce4bgh92rcd13ifvqb50","pricing_plan_id":"cebpf4jnsgd1na2vs0mg"},{"bike_id":"6874d29b-84d6-4152-b789-2904516f9c12","system_id":"levelo_inurba_marseille","lat":43.287,"lon":5.39971,"is_reserved":false,"is_disabled":false,"rental_uris":{"android":"levelo://app?vid=6874d29b-84d6-4152-b789-2904516f9c12","ios":"levelo://app?vid=6874d29b-84d6-4152-b789-2904516f9c12"},"vehicle_type_id":"4","last_reported":1744787410,"current_range_meters":16400,"station_id":"ce4bho92rcd13ifvqh3g","pricing_plan_id":"cebpf4jnsgd1na2vs0mg"},{"bike_id":"6c103f9f-c959-46ad-a2e8-e44f9660c68e","system_id":"levelo_inurba_marseille","lat":43.21196,"lon":5.35066,"is_reserved":false,"is_disabled":false,"rental_uris":{"android":"levelo://app?vid=6c103f9f-c959-46ad-a2e8-e44f9660c68e","ios":"levelo://app?vid=6c103f9f-c959-46ad-a2e8-e44f9660c68e"},"vehicle_type_id":"4","last_reported":1744787410,"current_range_meters":16400,"station_id":"st_cvj6sg6p6f1abm77japg","pricing_plan_id":"cebpf4jnsgd1na2vs0mg"},{"bike_id":"803d2369-130a-42af-8d17-318b63672a19","system_id":"levelo_inurba_marseille","lat":43.30947,"lon":5.39034,"is_reserved":false,"is_disabled":false,"rental_uris":{"android":"levelo://app?vid=803d2369-130a-42af-8d17-318b63672a19","ios":"levelo://app?vid=803d2369-130a-42af-8d17-318b63672a19"},"vehicle_type_id":"4","last_reported":1744787410,"current_range_meters":16400,"station_id":"ce4bgup2rcd13ifvqco0","pricing_plan_id":"cebpf4jnsgd1na2vs0mg"},{"bike_id":"a766e3bb-3816-4f22-ba88-5d3615d6d96c","system_id":"levelo_inurba_marseille","lat":43.26565,"lon":5.39012,"is_reserved":false,"is_disabled":false,"rental_uris":{"android":"levelo://app?vid=a766e3bb-3816-4f22-ba88-5d3615d6d96c","ios":"levelo://app?vid=a766e3bb-3816-4f22-ba88-5d3615d6d96c"},"vehicle_type_id":"4","last_reported":1744787410,"current_range_meters":16400,"station_id":"ce4bhe12rcd13ifvqf30","pricing_plan_id":"cebpf4jnsgd1na2vs0mg"},{"bike_id":"4c8cbdc5-71b3-41aa-a284-85637aeb8c3e","system_id":"levelo_inurba_marseille","lat":43.25731,"lon":5.41108,"is_reserved":false,"is_disabled":false,"rental_uris":{"android":"levelo://app?vid=4c8cbdc5-71b3-41aa-a284-85637aeb8c3e","ios":"levelo://app?vid=4c8cbdc5-71b3-41aa-a284-85637aeb8c3e"},"vehicle_type_id":"4","last_reported":1744787410,"current_range_meters":16400,"station_id":"ce4bhkp2rcd13ifvqgd0","pricing_plan_id":"cebpf4jnsgd1na2vs0mg"},{"bike_id":"fa8b5d88-c56b-4501-99c1-1b5a6dfd1f66","system_id":"levelo_inurba_marseille","lat":43.211938,"lon":5.350734,"is_reserved":false,"is_disabled":false,"rental_uris":{"android":"levelo://app?vid=fa8b5d88-c56b-4501-99c1-1b5a6dfd1f66","ios":"levelo://app?vid=fa8b5d88-c56b-4501-99c1-1b5a6dfd1f66"},"vehicle_type_id":"4","last_reported":1744787410,"current_range_meters":16400,"station_id":"st_cvj6sg6p6f1abm77japg","pricing_plan_id":"cebpf4jnsgd1na2vs0mg"},{"bike_id":"4cc60183-f086-4946-9e35-7a75728daa73","system_id":"levelo_inurba_marseille","lat":43.25715,"lon":5.38673,"is_reserved":false,"is_disabled":false,"rental_uris":{"android":"levelo://app?vid=4cc60183-f086-4946-9e35-7a75728daa73","ios":"levelo://app?vid=4cc60183-f086-4946-9e35-7a75728daa73"},"vehicle_type_id":"4","last_reported":1744787410,"current_range_meters":16400,"station_id":"","pricing_plan_id":"cebpf4jnsgd1na2vs0mg"},{"bike_id":"6bf5a380-400e-4cd6-bc1e-356afac9ee45","system_id":"levelo_inurba_marseille","lat":43.24166,"lon":5.3643,"is_reserved":false,"is_disabled":false,"rental_uris":{"android":"levelo://app?vid=6bf5a380-400e-4cd6-bc1e-356afac9ee45","ios":"levelo://app?vid=6bf5a380-400e-4cd6-bc1e-356afac9ee45"},"vehicle_type_id":"4","last_reported":1744787410,"current_range_meters":16800,"station_id":"cpo36qri1sfpv3e86is0","pricing_plan_id":"cebpf4jnsgd1na2vs0mg"},{"bike_id":"e3bbf163-eadf-423b-85c5-996bf8a4e270","system_id":"levelo_inurba_marseille","lat":43.24077,"lon":5.37757,"is_reserved":false,"is_disabled":false,"rental_uris":{"android":"levelo://app?vid=e3bbf163-eadf-423b-85c5-996bf8a4e270","ios":"levelo://app?vid=e3bbf163-eadf-423b-85c5-996bf8a4e270"},"vehicle_type_id":"4","last_reported":1744787410,"current_range_meters":16800,"station_id":"ce4bhnp2rcd13ifvqgvg","pricing_plan_id":"cebpf4jnsgd1na2vs0mg"},{"bike_id":"37af77cd-da0b-4d48-87c4-b37ee2687136","system_id":"levelo_inurba_marseille","lat":43.28851,"lon":5.35938,"is_reserved":false,"is_disabled":false,"rental_uris":{"android":"levelo://app?vid=37af77cd-da0b-4d48-87c4-b37ee2687136","ios":"levelo://app?vid=37af77cd-da0b-4d48-87c4-b37ee2687136"},"vehicle_type_id":"4","last_reported":1744787410,"current_range_meters":16800,"station_id":"","pricing_plan_id":"cebpf4jnsgd1na2vs0mg"},{"bike_id":"418e5f8f-d815-4792-af01-379fdf7af9c7","system_id":"levelo_inurba_marseille","lat":43.24071,"lon":5.37766,"is_reserved":false,"is_disabled":false,"rental_uris":{"android":"levelo://app?vid=418e5f8f-d815-4792-af01-379fdf7af9c7","ios":"levelo://app?vid=418e5f8f-d815-4792-af01-379fdf7af9c7"},"vehicle_type_id":"4","last_reported":1744787410,"current_range_meters":16800,"station_id":"ce4bhnp2rcd13ifvqgvg","pricing_plan_id":"cebpf4jnsgd1na2vs0mg"},{"bike_id":"f8205049-59cf-4c67-95d9-2ae60dd41d42","system_id":"levelo_inurba_marseille","lat":43.26063,"lon":5.39389,"is_reserved":false,"is_disabled":false,"rental_uris":{"android":"levelo://app?vid=f8205049-59cf-4c67-95d9-2ae60dd41d42","ios":"levelo://app?vid=f8205049-59cf-4c67-95d9-2ae60dd41d42"},"vehicle_type_id":"4","last_reported":1744787410,"current_range_meters":16800,"station_id":"ce4bhh92rcd13ifvqfj0","pricing_plan_id":"cebpf4jnsgd1na2vs0mg"},{"bike_id":"1b124388-2365-4285-9be6-f5ddc634ba34","system_id":"levelo_inurba_marseille","lat":43.30541,"lon":5.36559,"is_reserved":false,"is_disabled":false,"rental_uris":{"android":"levelo://app?vid=1b124388-2365-4285-9be6-f5ddc634ba34","ios":"levelo://app?vid=1b124388-2365-4285-9be6-f5ddc634ba34"},"vehicle_type_id":"4","last_reported":1744787410,"current_range_meters":16800,"station_id":"ce4bgs12rcd13ifvqcag","pricing_plan_id":"cebpf4jnsgd1na2vs0mg"},{"bike_id":"2be2e8c5-ff49-4a5a-963a-4bbeabb11512","system_id":"levelo_inurba_marseille","lat":43.307334,"lon":5.424478,"is_reserved":false,"is_disabled":false,"rental_uris":{"android":"levelo://app?vid=2be2e8c5-ff49-4a5a-963a-4bbeabb11512","ios":"levelo://app?vid=2be2e8c5-ff49-4a5a-963a-4bbeabb11512"},"vehicle_type_id":"4","last_reported":1744787410,"current_range_meters":16800,"station_id":"st_cvj6ca6bvosntc0bfgr0","pricing_plan_id":"cebpf4jnsgd1na2vs0mg"},{"bike_id":"0e595d3d-cf93-49d7-9007-a4e937834013","system_id":"levelo_inurba_marseille","lat":43.29036,"lon":5.39988,"is_reserved":false,"is_disabled":false,"rental_uris":{"android":"levelo://app?vid=0e595d3d-cf93-49d7-9007-a4e937834013","ios":"levelo://app?vid=0e595d3d-cf93-49d7-9007-a4e937834013"},"vehicle_type_id":"4","last_reported":1744787410,"current_range_meters":16800,"station_id":"ce4bh392rcd13ifvqdm0","pricing_plan_id":"cebpf4jnsgd1na2vs0mg"},{"bike_id":"e3670510-219d-4ce8-90e9-deef08906868","system_id":"levelo_inurba_marseille","lat":43.32003,"lon":5.38172,"is_reserved":false,"is_disabled":false,"rental_uris":{"android":"levelo://app?vid=e3670510-219d-4ce8-90e9-deef08906868","ios":"levelo://app?vid=e3670510-219d-4ce8-90e9-deef08906868"},"vehicle_type_id":"4","last_reported":1744787410,"current_range_meters":17200,"station_id":"ce4bhr12rcd13ifvqhpg","pricing_plan_id":"cebpf4jnsgd1na2vs0mg"},{"bike_id":"f8b9d4bf-ce39-4c8f-8ede-ac8473a114a4","system_id":"levelo_inurba_marseille","lat":43.31357,"lon":5.36714,"is_reserved":false,"is_disabled":false,"rental_uris":{"android":"levelo://app?vid=f8b9d4bf-ce39-4c8f-8ede-ac8473a114a4","ios":"levelo://app?vid=f8b9d4bf-ce39-4c8f-8ede-ac8473a114a4"},"vehicle_type_id":"4","last_reported":1744787410,"current_range_meters":17200,"station_id":"ce4bgr92rcd13ifvqc6g","pricing_plan_id":"cebpf4jnsgd1na2vs0mg"},{"bike_id":"b082caf9-1aa9-41e8-8081-4da72e64e8e4","system_id":"levelo_inurba_marseille","lat":43.30933,"lon":5.40162,"is_reserved":false,"is_disabled":true,"rental_uris":{"android":"levelo://app?vid=b082caf9-1aa9-41e8-8081-4da72e64e8e4","ios":"levelo://app?vid=b082caf9-1aa9-41e8-8081-4da72e64e8e4"},"vehicle_type_id":"4","last_reported":1744787410,"current_range_meters":17200,"station_id":"ce4bgvp2rcd13ifvqct0","pricing_plan_id":"cebpf4jnsgd1na2vs0mg"},{"bike_id":"751ab49d-18f4-4320-9555-c88d2452594e","system_id":"levelo_inurba_marseille","lat":43.309021,"lon":5.368414,"is_reserved":false,"is_disabled":false,"rental_uris":{"android":"levelo://app?vid=751ab49d-18f4-4320-9555-c88d2452594e","ios":"levelo://app?vid=751ab49d-18f4-4320-9555-c88d2452594e"},"vehicle_type_id":"4","last_reported":1744787410,"current_range_meters":17200,"station_id":"ce4bgn92rcd13ifvqbvg","pricing_plan_id":"cebpf4jnsgd1na2vs0mg"},{"bike_id":"10a05b79-c3d5-4be7-a18b-8140be240501","system_id":"levelo_inurba_marseille","lat":43.29571,"lon":5.38154,"is_reserved":false,"is_disabled":true,"rental_uris":{"android":"levelo://app?vid=10a05b79-c3d5-4be7-a18b-8140be240501","ios":"levelo://app?vid=10a05b79-c3d5-4be7-a18b-8140be240501"},"vehicle_type_id":"4","last_reported":1744787410,"current_range_meters":17600,"station_id":"","pricing_plan_id":"cebpf4jnsgd1na2vs0mg"},{"bike_id":"f3a17301-f4cd-4211-8c74-a7b1a492d742","system_id":"levelo_inurba_marseille","lat":43.280769,"lon":5.40775,"is_reserved":false,"is_disabled":false,"rental_uris":{"android":"levelo://app?vid=f3a17301-f4cd-4211-8c74-a7b1a492d742","ios":"levelo://app?vid=f3a17301-f4cd-4211-8c74-a7b1a492d742"},"vehicle_type_id":"4","last_reported":1744787410,"current_range_meters":17600,"station_id":"","pricing_plan_id":"cebpf4jnsgd1na2vs0mg"},{"bike_id":"c31c0ecc-e896-4522-8f59-f94ab8194ac3","system_id":"levelo_inurba_marseille","lat":43.31733,"lon":5.40419,"is_reserved":false,"is_disabled":false,"rental_uris":{"android":"levelo://app?vid=c31c0ecc-e896-4522-8f59-f94ab8194ac3","ios":"levelo://app?vid=c31c0ecc-e896-4522-8f59-f94ab8194ac3"},"vehicle_type_id":"4","last_reported":1744787410,"current_range_meters":17600,"station_id":"ce4bh012rcd13ifvqd00","pricing_plan_id":"cebpf4jnsgd1na2vs0mg"},{"bike_id":"ed97a721-7aee-47b1-b49b-a65ade99fd09","system_id":"levelo_inurba_marseille","lat":43.34305,"lon":5.37803,"is_reserved":false,"is_disabled":false,"rental_uris":{"android":"levelo://app?vid=ed97a721-7aee-47b1-b49b-a65ade99fd09","ios":"levelo://app?vid=ed97a721-7aee-47b1-b49b-a65ade99fd09"},"vehicle_type_id":"4","last_reported":1744787410,"current_range_meters":17600,"station_id":"","pricing_plan_id":"cebpf4jnsgd1na2vs0mg"},{"bike_id":"7fcc1271-7200-4fda-a838-060f83266864","system_id":"levelo_inurba_marseille","lat":43.2468,"lon":5.3816,"is_reserved":false,"is_disabled":false,"rental_uris":{"android":"levelo://app?vid=7fcc1271-7200-4fda-a838-060f83266864","ios":"levelo://app?vid=7fcc1271-7200-4fda-a838-060f83266864"},"vehicle_type_id":"4","last_reported":1744787410,"current_range_meters":17600,"station_id":"ce4bhih2rcd13ifvqfr0","pricing_plan_id":"cebpf4jnsgd1na2vs0mg"},{"bike_id":"67bec80b-3af2-4acd-9daa-4500c6ed3654","system_id":"levelo_inurba_marseille","lat":43.24147,"lon":5.3641,"is_reserved":false,"is_disabled":false,"rental_uris":{"android":"levelo://app?vid=67bec80b-3af2-4acd-9daa-4500c6ed3654","ios":"levelo://app?vid=67bec80b-3af2-4acd-9daa-4500c6ed3654"},"vehicle_type_id":"4","last_reported":1744787410,"current_range_meters":17600,"station_id":"cpo36qri1sfpv3e86is0","pricing_plan_id":"cebpf4jnsgd1na2vs0mg"},{"bike_id":"d6fee597-3293-47ae-914e-c48760e9f772","system_id":"levelo_inurba_marseille","lat":43.24069,"lon":5.37774,"is_reserved":false,"is_disabled":false,"rental_uris":{"android":"levelo://app?vid=d6fee597-3293-47ae-914e-c48760e9f772","ios":"levelo://app?vid=d6fee597-3293-47ae-914e-c48760e9f772"},"vehicle_type_id":"4","last_reported":1744787410,"current_range_meters":17600,"station_id":"ce4bhnp2rcd13ifvqgvg","pricing_plan_id":"cebpf4jnsgd1na2vs0mg"},{"bike_id":"e563cec3-5ef6-4520-be15-e8848a75180a","system_id":"levelo_inurba_marseille","lat":43.28566,"lon":5.39513,"is_reserved":false,"is_disabled":false,"rental_uris":{"android":"levelo://app?vid=e563cec3-5ef6-4520-be15-e8848a75180a","ios":"levelo://app?vid=e563cec3-5ef6-4520-be15-e8848a75180a"},"vehicle_type_id":"4","last_reported":1744787410,"current_range_meters":18000,"station_id":"ce4bh292rcd13ifvqdg0","pricing_plan_id":"cebpf4jnsgd1na2vs0mg"},{"bike_id":"b6b4fba7-65bd-4354-9ef8-9be346fbbc8a","system_id":"levelo_inurba_marseille","lat":43.30301,"lon":5.37699,"is_reserved":false,"is_disabled":false,"rental_uris":{"android":"levelo://app?vid=b6b4fba7-65bd-4354-9ef8-9be346fbbc8a","ios":"levelo://app?vid=b6b4fba7-65bd-4354-9ef8-9be346fbbc8a"},"vehicle_type_id":"4","last_reported":1744787410,"current_range_meters":18000,"station_id":"ce4bguh2rcd13ifvqcj0","pricing_plan_id":"cebpf4jnsgd1na2vs0mg"},{"bike_id":"caf95fbe-91e5-4fba-82dd-b8178d499b94","system_id":"levelo_inurba_marseille","lat":43.27948,"lon":5.38707,"is_reserved":false,"is_disabled":false,"rental_uris":{"android":"levelo://app?vid=caf95fbe-91e5-4fba-82dd-b8178d499b94","ios":"levelo://app?vid=caf95fbe-91e5-4fba-82dd-b8178d499b94"},"vehicle_type_id":"4","last_reported":1744787410,"current_range_meters":18000,"station_id":"ce4bhg12rcd13ifvqf80","pricing_plan_id":"cebpf4jnsgd1na2vs0mg"},{"bike_id":"73a84c74-2656-4be6-9e84-cc4393c345be","system_id":"levelo_inurba_marseille","lat":43.30329,"lon":5.4043,"is_reserved":false,"is_disabled":false,"rental_uris":{"android":"levelo://app?vid=73a84c74-2656-4be6-9e84-cc4393c345be","ios":"levelo://app?vid=73a84c74-2656-4be6-9e84-cc4393c345be"},"vehicle_type_id":"4","last_reported":1744787410,"current_range_meters":18000,"station_id":"ce4bh012rcd13ifvqd10","pricing_plan_id":"cebpf4jnsgd1na2vs0mg"},{"bike_id":"972a7368-238e-4778-9e6d-0d81e5f8e3d9","system_id":"levelo_inurba_marseille","lat":43.24995,"lon":5.38933,"is_reserved":false,"is_disabled":false,"rental_uris":{"android":"levelo://app?vid=972a7368-238e-4778-9e6d-0d81e5f8e3d9","ios":"levelo://app?vid=972a7368-238e-4778-9e6d-0d81e5f8e3d9"},"vehicle_type_id":"4","last_reported":1744787410,"current_range_meters":18000,"station_id":"ce4bhgp2rcd13ifvqfd0","pricing_plan_id":"cebpf4jnsgd1na2vs0mg"},{"bike_id":"0f197072-e66d-4711-a6fc-f246d86a4204","system_id":"levelo_inurba_marseille","lat":43.29018,"lon":5.39996,"is_reserved":false,"is_disabled":false,"rental_uris":{"android":"levelo://app?vid=0f197072-e66d-4711-a6fc-f246d86a4204","ios":"levelo://app?vid=0f197072-e66d-4711-a6fc-f246d86a4204"},"vehicle_type_id":"4","last_reported":1744787410,"current_range_meters":18000,"station_id":"ce4bh392rcd13ifvqdm0","pricing_plan_id":"cebpf4jnsgd1na2vs0mg"},{"bike_id":"b9a748c8-ad7f-4419-91c1-91b2eb364326","system_id":"levelo_inurba_marseille","lat":43.26202,"lon":5.37931,"is_reserved":false,"is_disabled":false,"rental_uris":{"android":"levelo://app?vid=b9a748c8-ad7f-4419-91c1-91b2eb364326","ios":"levelo://app?vid=b9a748c8-ad7f-4419-91c1-91b2eb364326"},"vehicle_type_id":"4","last_reported":1744787410,"current_range_meters":18000,"station_id":"ce4bhjp2rcd13ifvqg90","pricing_plan_id":"cebpf4jnsgd1na2vs0mg"},{"bike_id":"57406be6-c0b4-4691-8abf-3f6842e4ec81","system_id":"levelo_inurba_marseille","lat":43.28451,"lon":5.39171,"is_reserved":false,"is_disabled":true,"rental_uris":{"android":"levelo://app?vid=57406be6-c0b4-4691-8abf-3f6842e4ec81","ios":"levelo://app?vid=57406be6-c0b4-4691-8abf-3f6842e4ec81"},"vehicle_type_id":"4","last_reported":1744787410,"current_range_meters":18000,"station_id":"ce4bhoh2rcd13ifvqh5g","pricing_plan_id":"cebpf4jnsgd1na2vs0mg"},{"bike_id":"a0ddb0a5-f7f0-4281-aa27-9e82747cc573","system_id":"levelo_inurba_marseille","lat":43.33755,"lon":5.37493,"is_reserved":false,"is_disabled":false,"rental_uris":{"android":"levelo://app?vid=a0ddb0a5-f7f0-4281-aa27-9e82747cc573","ios":"levelo://app?vid=a0ddb0a5-f7f0-4281-aa27-9e82747cc573"},"vehicle_type_id":"4","last_reported":1744787410,"current_range_meters":18000,"station_id":"","pricing_plan_id":"cebpf4jnsgd1na2vs0mg"},{"bike_id":"6a8e9068-2a8d-4c93-8c2d-e30f03079545","system_id":"levelo_inurba_marseille","lat":43.25695,"lon":5.41082,"is_reserved":false,"is_disabled":true,"rental_uris":{"android":"levelo://app?vid=6a8e9068-2a8d-4c93-8c2d-e30f03079545","ios":"levelo://app?vid=6a8e9068-2a8d-4c93-8c2d-e30f03079545"},"vehicle_type_id":"4","last_reported":1744787410,"current_range_meters":18000,"station_id":"ce4bhkp2rcd13ifvqgd0","pricing_plan_id":"cebpf4jnsgd1na2vs0mg"},{"bike_id":"73c748f5-d34c-4696-bbd1-e96fdf17278a","system_id":"levelo_inurba_marseille","lat":43.291456,"lon":5.379506,"is_reserved":false,"is_disabled":false,"rental_uris":{"android":"levelo://app?vid=73c748f5-d34c-4696-bbd1-e96fdf17278a","ios":"levelo://app?vid=73c748f5-d34c-4696-bbd1-e96fdf17278a"},"vehicle_type_id":"4","last_reported":1744787410,"current_range_meters":18000,"station_id":"","pricing_plan_id":"cebpf4jnsgd1na2vs0mg"},{"bike_id":"bac8cada-45d8-42a0-871d-8bfddf55dd77","system_id":"levelo_inurba_marseille","lat":43.284667,"lon":5.35891,"is_reserved":false,"is_disabled":true,"rental_uris":{"android":"levelo://app?vid=bac8cada-45d8-42a0-871d-8bfddf55dd77","ios":"levelo://app?vid=bac8cada-45d8-42a0-871d-8bfddf55dd77"},"vehicle_type_id":"4","last_reported":1744787410,"current_range_meters":18800,"station_id":"ce4bhah2rcd13ifvqei0","pricing_plan_id":"cebpf4jnsgd1na2vs0mg"},{"bike_id":"3d3e85b3-b957-4512-ade2-580297bfc019","system_id":"levelo_inurba_marseille","lat":43.27164,"lon":5.39168,"is_reserved":false,"is_disabled":true,"rental_uris":{"android":"levelo://app?vid=3d3e85b3-b957-4512-ade2-580297bfc019","ios":"levelo://app?vid=3d3e85b3-b957-4512-ade2-580297bfc019"},"vehicle_type_id":"4","last_reported":1744787410,"current_range_meters":18800,"station_id":"ce4bhhp2rcd13ifvqfm0","pricing_plan_id":"cebpf4jnsgd1na2vs0mg"},{"bike_id":"ef372a5e-4fde-4cce-a6b9-36c336b8ff05","system_id":"levelo_inurba_marseille","lat":43.27091,"lon":5.40331,"is_reserved":false,"is_disabled":false,"rental_uris":{"android":"levelo://app?vid=ef372a5e-4fde-4cce-a6b9-36c336b8ff05","ios":"levelo://app?vid=ef372a5e-4fde-4cce-a6b9-36c336b8ff05"},"vehicle_type_id":"4","last_reported":1744787410,"current_range_meters":18800,"station_id":"","pricing_plan_id":"cebpf4jnsgd1na2vs0mg"},{"bike_id":"633e09c0-95d2-47f9-b4bf-0feb1e273e77","system_id":"levelo_inurba_marseille","lat":43.290293,"lon":5.399688,"is_reserved":false,"is_disabled":false,"rental_uris":{"android":"levelo://app?vid=633e09c0-95d2-47f9-b4bf-0feb1e273e77","ios":"levelo://app?vid=633e09c0-95d2-47f9-b4bf-0feb1e273e77"},"vehicle_type_id":"4","last_reported":1744787410,"current_range_meters":18800,"station_id":"ce4bh392rcd13ifvqdm0","pricing_plan_id":"cebpf4jnsgd1na2vs0mg"},{"bike_id":"253cb408-1292-4456-8381-70bdc9615886","system_id":"levelo_inurba_marseille","lat":43.24999,"lon":5.38926,"is_reserved":false,"is_disabled":false,"rental_uris":{"android":"levelo://app?vid=253cb408-1292-4456-8381-70bdc9615886","ios":"levelo://app?vid=253cb408-1292-4456-8381-70bdc9615886"},"vehicle_type_id":"4","last_reported":1744787410,"current_range_meters":18800,"station_id":"ce4bhgp2rcd13ifvqfd0","pricing_plan_id":"cebpf4jnsgd1na2vs0mg"},{"bike_id":"c79bde92-bd75-4604-a802-86260817080b","system_id":"levelo_inurba_marseille","lat":43.31485,"lon":5.3731,"is_reserved":false,"is_disabled":false,"rental_uris":{"android":"levelo://app?vid=c79bde92-bd75-4604-a802-86260817080b","ios":"levelo://app?vid=c79bde92-bd75-4604-a802-86260817080b"},"vehicle_type_id":"4","last_reported":1744787410,"current_range_meters":18800,"station_id":"ce4bgt12rcd13ifvqcd0","pricing_plan_id":"cebpf4jnsgd1na2vs0mg"},{"bike_id":"799506e0-56ff-4a06-9c2d-2ade65cc57c9","system_id":"levelo_inurba_marseille","lat":43.28043,"lon":5.36946,"is_reserved":false,"is_disabled":false,"rental_uris":{"android":"levelo://app?vid=799506e0-56ff-4a06-9c2d-2ade65cc57c9","ios":"levelo://app?vid=799506e0-56ff-4a06-9c2d-2ade65cc57c9"},"vehicle_type_id":"4","last_reported":1744787410,"current_range_meters":18000,"station_id":"ce4bha12rcd13ifvqef0","pricing_plan_id":"cebpf4jnsgd1na2vs0mg"},{"bike_id":"9c4400f9-c535-44cb-a651-e085d8272f88","system_id":"levelo_inurba_marseille","lat":43.30292,"lon":5.36882,"is_reserved":false,"is_disabled":false,"rental_uris":{"android":"levelo://app?vid=9c4400f9-c535-44cb-a651-e085d8272f88","ios":"levelo://app?vid=9c4400f9-c535-44cb-a651-e085d8272f88"},"vehicle_type_id":"4","last_reported":1744787410,"current_range_meters":19200,"station_id":"ce4bgqh2rcd13ifvqc5g","pricing_plan_id":"cebpf4jnsgd1na2vs0mg"},{"bike_id":"71e94148-75c9-4d56-b41d-f80df28d87b0","system_id":"levelo_inurba_marseille","lat":43.3199,"lon":5.38149,"is_reserved":false,"is_disabled":false,"rental_uris":{"android":"levelo://app?vid=71e94148-75c9-4d56-b41d-f80df28d87b0","ios":"levelo://app?vid=71e94148-75c9-4d56-b41d-f80df28d87b0"},"vehicle_type_id":"4","last_reported":1744787410,"current_range_meters":19200,"station_id":"ce4bhr12rcd13ifvqhpg","pricing_plan_id":"cebpf4jnsgd1na2vs0mg"},{"bike_id":"38dbf9a5-ca67-4d58-a0cd-4cfb543fe6c0","system_id":"levelo_inurba_marseille","lat":43.3092,"lon":5.40155,"is_reserved":false,"is_disabled":false,"rental_uris":{"android":"levelo://app?vid=38dbf9a5-ca67-4d58-a0cd-4cfb543fe6c0","ios":"levelo://app?vid=38dbf9a5-ca67-4d58-a0cd-4cfb543fe6c0"},"vehicle_type_id":"4","last_reported":1744787410,"current_range_meters":19200,"station_id":"ce4bgvp2rcd13ifvqct0","pricing_plan_id":"cebpf4jnsgd1na2vs0mg"},{"bike_id":"d07f3575-c570-4366-9138-201949d4b627","system_id":"levelo_inurba_marseille","lat":43.22931,"lon":5.35382,"is_reserved":false,"is_disabled":false,"rental_uris":{"android":"levelo://app?vid=d07f3575-c570-4366-9138-201949d4b627","ios":"levelo://app?vid=d07f3575-c570-4366-9138-201949d4b627"},"vehicle_type_id":"4","last_reported":1744787410,"current_range_meters":19600,"station_id":"cpo3532slgdg3j2ikp40","pricing_plan_id":"cebpf4jnsgd1na2vs0mg"},{"bike_id":"c89c08f1-5871-4194-be21-fc0e3aa52661","system_id":"levelo_inurba_marseille","lat":43.298,"lon":5.40399,"is_reserved":false,"is_disabled":false,"rental_uris":{"android":"levelo://app?vid=c89c08f1-5871-4194-be21-fc0e3aa52661","ios":"levelo://app?vid=c89c08f1-5871-4194-be21-fc0e3aa52661"},"vehicle_type_id":"4","last_reported":1744787410,"current_range_meters":19600,"station_id":"ce4bh112rcd13ifvqd90","pricing_plan_id":"cebpf4jnsgd1na2vs0mg"},{"bike_id":"2d03e3c2-09e4-4978-8dbc-31228f7e9fd5","system_id":"levelo_inurba_marseille","lat":43.25571,"lon":5.38247,"is_reserved":false,"is_disabled":false,"rental_uris":{"android":"levelo://app?vid=2d03e3c2-09e4-4978-8dbc-31228f7e9fd5","ios":"levelo://app?vid=2d03e3c2-09e4-4978-8dbc-31228f7e9fd5"},"vehicle_type_id":"4","last_reported":1744787410,"current_range_meters":19600,"station_id":"ce4bhih2rcd13ifvqfs0","pricing_plan_id":"cebpf4jnsgd1na2vs0mg"},{"bike_id":"09651454-ba98-489f-84d4-7c0b820526b4","system_id":"levelo_inurba_marseille","lat":43.311993,"lon":5.368757,"is_reserved":false,"is_disabled":false,"rental_uris":{"android":"levelo://app?vid=09651454-ba98-489f-84d4-7c0b820526b4","ios":"levelo://app?vid=09651454-ba98-489f-84d4-7c0b820526b4"},"vehicle_type_id":"4","last_reported":1744787410,"current_range_meters":19600,"station_id":"ce4bgl92rcd13ifvqbq0","pricing_plan_id":"cebpf4jnsgd1na2vs0mg"},{"bike_id":"4328369a-71e3-42f0-af9b-b3d103933d00","system_id":"levelo_inurba_marseille","lat":43.33604,"lon":5.41033,"is_reserved":false,"is_disabled":false,"rental_uris":{"android":"levelo://app?vid=4328369a-71e3-42f0-af9b-b3d103933d00","ios":"levelo://app?vid=4328369a-71e3-42f0-af9b-b3d103933d00"},"vehicle_type_id":"4","last_reported":1744787410,"current_range_meters":19600,"station_id":"ce4bhqh2rcd13ifvqhmg","pricing_plan_id":"cebpf4jnsgd1na2vs0mg"},{"bike_id":"479d5a5f-271f-4ac2-a568-4c71926ce846","system_id":"levelo_inurba_marseille","lat":43.26213,"lon":5.374408,"is_reserved":false,"is_disabled":false,"rental_uris":{"android":"levelo://app?vid=479d5a5f-271f-4ac2-a568-4c71926ce846","ios":"levelo://app?vid=479d5a5f-271f-4ac2-a568-4c71926ce846"},"vehicle_type_id":"4","last_reported":1744787410,"current_range_meters":19600,"station_id":"ce4bhgp2rcd13ifvqfc0","pricing_plan_id":"cebpf4jnsgd1na2vs0mg"},{"bike_id":"d55c55b0-51de-4280-a623-5ebf8562de0a","system_id":"levelo_inurba_marseille","lat":43.25009,"lon":5.38971,"is_reserved":false,"is_disabled":false,"rental_uris":{"android":"levelo://app?vid=d55c55b0-51de-4280-a623-5ebf8562de0a","ios":"levelo://app?vid=d55c55b0-51de-4280-a623-5ebf8562de0a"},"vehicle_type_id":"4","last_reported":1744787410,"current_range_meters":19600,"station_id":"ce4bhgp2rcd13ifvqfd0","pricing_plan_id":"cebpf4jnsgd1na2vs0mg"},{"bike_id":"58a6c056-c4c9-496e-9a01-a9dc486c603a","system_id":"levelo_inurba_marseille","lat":43.314839,"lon":5.373105,"is_reserved":false,"is_disabled":false,"rental_uris":{"android":"levelo://app?vid=58a6c056-c4c9-496e-9a01-a9dc486c603a","ios":"levelo://app?vid=58a6c056-c4c9-496e-9a01-a9dc486c603a"},"vehicle_type_id":"4","last_reported":1744787410,"current_range_meters":20000,"station_id":"ce4bgt12rcd13ifvqcd0","pricing_plan_id":"cebpf4jnsgd1na2vs0mg"},{"bike_id":"bfdfe21a-2e8f-4801-9ad8-0ed08b27981a","system_id":"levelo_inurba_marseille","lat":43.284869,"lon":5.385652,"is_reserved":false,"is_disabled":false,"rental_uris":{"android":"levelo://app?vid=bfdfe21a-2e8f-4801-9ad8-0ed08b27981a","ios":"levelo://app?vid=bfdfe21a-2e8f-4801-9ad8-0ed08b27981a"},"vehicle_type_id":"4","last_reported":1744787410,"current_range_meters":20000,"station_id":"ce4bh8p2rcd13ifvqeb0","pricing_plan_id":"cebpf4jnsgd1na2vs0mg"},{"bike_id":"ffff3535-bcf2-4045-bca6-b8af80dccf50","system_id":"levelo_inurba_marseille","lat":43.292145,"lon":5.401524,"is_reserved":false,"is_disabled":false,"rental_uris":{"android":"levelo://app?vid=ffff3535-bcf2-4045-bca6-b8af80dccf50","ios":"levelo://app?vid=ffff3535-bcf2-4045-bca6-b8af80dccf50"},"vehicle_type_id":"4","last_reported":1744787410,"current_range_meters":20000,"station_id":"ce4bh192rcd13ifvqdc0","pricing_plan_id":"cebpf4jnsgd1na2vs0mg"},{"bike_id":"bf4659ae-1e1e-46e0-aae0-87527cd1ccd6","system_id":"levelo_inurba_marseille","lat":43.281558,"lon":5.426491,"is_reserved":false,"is_disabled":false,"rental_uris":{"android":"levelo://app?vid=bf4659ae-1e1e-46e0-aae0-87527cd1ccd6","ios":"levelo://app?vid=bf4659ae-1e1e-46e0-aae0-87527cd1ccd6"},"vehicle_type_id":"4","last_reported":1744787410,"current_range_meters":20000,"station_id":"ce4bhnh2rcd13ifvqgug","pricing_plan_id":"cebpf4jnsgd1na2vs0mg"},{"bike_id":"af728f62-f78f-437a-97b4-22e126fcb0c2","system_id":"levelo_inurba_marseille","lat":43.265255,"lon":5.373524,"is_reserved":false,"is_disabled":false,"rental_uris":{"android":"levelo://app?vid=af728f62-f78f-437a-97b4-22e126fcb0c2","ios":"levelo://app?vid=af728f62-f78f-437a-97b4-22e126fcb0c2"},"vehicle_type_id":"4","last_reported":1744787410,"current_range_meters":20000,"station_id":"ce4bhhh2rcd13ifvqfk0","pricing_plan_id":"cebpf4jnsgd1na2vs0mg"},{"bike_id":"88f3759b-2c1f-4762-b11a-067d1d7bb035","system_id":"levelo_inurba_marseille","lat":43.24179,"lon":5.39735,"is_reserved":false,"is_disabled":false,"rental_uris":{"android":"levelo://app?vid=88f3759b-2c1f-4762-b11a-067d1d7bb035","ios":"levelo://app?vid=88f3759b-2c1f-4762-b11a-067d1d7bb035"},"vehicle_type_id":"4","last_reported":1744787410,"current_range_meters":20000,"station_id":"ce4bhn12rcd13ifvqgpg","pricing_plan_id":"cebpf4jnsgd1na2vs0mg"},{"bike_id":"afebeb02-22ff-43cc-9c0b-24db03f74efa","system_id":"levelo_inurba_marseille","lat":43.25942,"lon":5.409038,"is_reserved":false,"is_disabled":false,"rental_uris":{"android":"levelo://app?vid=afebeb02-22ff-43cc-9c0b-24db03f74efa","ios":"levelo://app?vid=afebeb02-22ff-43cc-9c0b-24db03f74efa"},"vehicle_type_id":"4","last_reported":1744787410,"current_range_meters":20000,"station_id":"ce4bhm92rcd13ifvqglg","pricing_plan_id":"cebpf4jnsgd1na2vs0mg"},{"bike_id":"f0dc8035-92fe-403c-9e0c-922ffb105b34","system_id":"levelo_inurba_marseille","lat":43.259363,"lon":5.408934,"is_reserved":false,"is_disabled":true,"rental_uris":{"android":"levelo://app?vid=f0dc8035-92fe-403c-9e0c-922ffb105b34","ios":"levelo://app?vid=f0dc8035-92fe-403c-9e0c-922ffb105b34"},"vehicle_type_id":"4","last_reported":1744787410,"current_range_meters":20000,"station_id":"ce4bhm92rcd13ifvqglg","pricing_plan_id":"cebpf4jnsgd1na2vs0mg"},{"bike_id":"2a71fee8-5a96-40c5-80bd-bfcdf6324d7a","system_id":"levelo_inurba_marseille","lat":43.28494,"lon":5.38414,"is_reserved":false,"is_disabled":false,"rental_uris":{"android":"levelo://app?vid=2a71fee8-5a96-40c5-80bd-bfcdf6324d7a","ios":"levelo://app?vid=2a71fee8-5a96-40c5-80bd-bfcdf6324d7a"},"vehicle_type_id":"4","last_reported":1744787410,"current_range_meters":20400,"station_id":"ce4bh512rcd13ifvqe3g","pricing_plan_id":"cebpf4jnsgd1na2vs0mg"},{"bike_id":"67a56d67-eb57-422c-b852-2e0c9e0dfd7d","system_id":"levelo_inurba_marseille","lat":43.28374,"lon":5.37315,"is_reserved":false,"is_disabled":false,"rental_uris":{"android":"levelo://app?vid=67a56d67-eb57-422c-b852-2e0c9e0dfd7d","ios":"levelo://app?vid=67a56d67-eb57-422c-b852-2e0c9e0dfd7d"},"vehicle_type_id":"4","last_reported":1744787410,"current_range_meters":20400,"station_id":"","pricing_plan_id":"cebpf4jnsgd1na2vs0mg"},{"bike_id":"f4f2a3c2-2e88-42f2-a842-4b821963dedc","system_id":"levelo_inurba_marseille","lat":43.22929,"lon":5.35378,"is_reserved":false,"is_disabled":false,"rental_uris":{"android":"levelo://app?vid=f4f2a3c2-2e88-42f2-a842-4b821963dedc","ios":"levelo://app?vid=f4f2a3c2-2e88-42f2-a842-4b821963dedc"},"vehicle_type_id":"4","last_reported":1744787410,"current_range_meters":20400,"station_id":"cpo3532slgdg3j2ikp40","pricing_plan_id":"cebpf4jnsgd1na2vs0mg"},{"bike_id":"3ebbd8d1-9b0f-4ed2-9560-e66bdaffdb20","system_id":"levelo_inurba_marseille","lat":43.25937,"lon":5.40906,"is_reserved":false,"is_disabled":false,"rental_uris":{"android":"levelo://app?vid=3ebbd8d1-9b0f-4ed2-9560-e66bdaffdb20","ios":"levelo://app?vid=3ebbd8d1-9b0f-4ed2-9560-e66bdaffdb20"},"vehicle_type_id":"4","last_reported":1744787410,"current_range_meters":20400,"station_id":"ce4bhm92rcd13ifvqglg","pricing_plan_id":"cebpf4jnsgd1na2vs0mg"},{"bike_id":"f9294aff-5b6f-4d62-9db7-b7bdca4ffaf5","system_id":"levelo_inurba_marseille","lat":43.32547,"lon":5.41438,"is_reserved":false,"is_disabled":false,"rental_uris":{"android":"levelo://app?vid=f9294aff-5b6f-4d62-9db7-b7bdca4ffaf5","ios":"levelo://app?vid=f9294aff-5b6f-4d62-9db7-b7bdca4ffaf5"},"vehicle_type_id":"4","last_reported":1744787410,"current_range_meters":20400,"station_id":"ce4bhq12rcd13ifvqhhg","pricing_plan_id":"cebpf4jnsgd1na2vs0mg"},{"bike_id":"fab5cd6a-61b6-4d16-aad7-01dc9fa23b11","system_id":"levelo_inurba_marseille","lat":43.30539,"lon":5.36559,"is_reserved":false,"is_disabled":false,"rental_uris":{"android":"levelo://app?vid=fab5cd6a-61b6-4d16-aad7-01dc9fa23b11","ios":"levelo://app?vid=fab5cd6a-61b6-4d16-aad7-01dc9fa23b11"},"vehicle_type_id":"4","last_reported":1744787410,"current_range_meters":20800,"station_id":"ce4bgs12rcd13ifvqcag","pricing_plan_id":"cebpf4jnsgd1na2vs0mg"},{"bike_id":"cb2339f4-0371-4078-a89b-835123189f9a","system_id":"levelo_inurba_marseille","lat":43.2571,"lon":5.41108,"is_reserved":false,"is_disabled":false,"rental_uris":{"android":"levelo://app?vid=cb2339f4-0371-4078-a89b-835123189f9a","ios":"levelo://app?vid=cb2339f4-0371-4078-a89b-835123189f9a"},"vehicle_type_id":"4","last_reported":1744787410,"current_range_meters":20800,"station_id":"ce4bhkp2rcd13ifvqgd0","pricing_plan_id":"cebpf4jnsgd1na2vs0mg"},{"bike_id":"eb2c19a1-62aa-4899-868a-04e9d024bfdd","system_id":"levelo_inurba_marseille","lat":43.27989,"lon":5.41647,"is_reserved":false,"is_disabled":false,"rental_uris":{"android":"levelo://app?vid=eb2c19a1-62aa-4899-868a-04e9d024bfdd","ios":"levelo://app?vid=eb2c19a1-62aa-4899-868a-04e9d024bfdd"},"vehicle_type_id":"4","last_reported":1744787410,"current_range_meters":20800,"station_id":"ce4bho12rcd13ifvqh1g","pricing_plan_id":"cebpf4jnsgd1na2vs0mg"},{"bike_id":"321a594e-9865-4255-9901-b70802b398cb","system_id":"levelo_inurba_marseille","lat":43.26502,"lon":5.39536,"is_reserved":false,"is_disabled":false,"rental_uris":{"android":"levelo://app?vid=321a594e-9865-4255-9901-b70802b398cb","ios":"levelo://app?vid=321a594e-9865-4255-9901-b70802b398cb"},"vehicle_type_id":"4","last_reported":1744787410,"current_range_meters":20800,"station_id":"ce4bhi12rcd13ifvqfq0","pricing_plan_id":"cebpf4jnsgd1na2vs0mg"},{"bike_id":"802d27e8-c662-4683-b8e7-9a16cf13341a","system_id":"levelo_inurba_marseille","lat":43.2781,"lon":5.39219,"is_reserved":false,"is_disabled":false,"rental_uris":{"android":"levelo://app?vid=802d27e8-c662-4683-b8e7-9a16cf13341a","ios":"levelo://app?vid=802d27e8-c662-4683-b8e7-9a16cf13341a"},"vehicle_type_id":"4","last_reported":1744787410,"current_range_meters":20400,"station_id":"ce4bhjp2rcd13ifvqga0","pricing_plan_id":"cebpf4jnsgd1na2vs0mg"},{"bike_id":"f43ee2ef-323b-4592-9300-6e35081a5ef8","system_id":"levelo_inurba_marseille","lat":43.24808,"lon":5.37465,"is_reserved":false,"is_disabled":false,"rental_uris":{"android":"levelo://app?vid=f43ee2ef-323b-4592-9300-6e35081a5ef8","ios":"levelo://app?vid=f43ee2ef-323b-4592-9300-6e35081a5ef8"},"vehicle_type_id":"4","last_reported":1744787410,"current_range_meters":20400,"station_id":"ce4bhgh2rcd13ifvqfb0","pricing_plan_id":"cebpf4jnsgd1na2vs0mg"},{"bike_id":"f7140e3e-af12-499a-8760-c60f19a46755","system_id":"levelo_inurba_marseille","lat":43.297,"lon":5.37696,"is_reserved":false,"is_disabled":false,"rental_uris":{"android":"levelo://app?vid=f7140e3e-af12-499a-8760-c60f19a46755","ios":"levelo://app?vid=f7140e3e-af12-499a-8760-c60f19a46755"},"vehicle_type_id":"4","last_reported":1744787410,"current_range_meters":21600,"station_id":"ce4bgkh2rcd13ifvqbl0","pricing_plan_id":"cebpf4jnsgd1na2vs0mg"},{"bike_id":"bc0837a1-279f-4396-af1b-42270f8cd9b7","system_id":"levelo_inurba_marseille","lat":43.2623,"lon":5.40474,"is_reserved":false,"is_disabled":false,"rental_uris":{"android":"levelo://app?vid=bc0837a1-279f-4396-af1b-42270f8cd9b7","ios":"levelo://app?vid=bc0837a1-279f-4396-af1b-42270f8cd9b7"},"vehicle_type_id":"4","last_reported":1744787410,"current_range_meters":21600,"station_id":"ce4bhmh2rcd13ifvqgmg","pricing_plan_id":"cebpf4jnsgd1na2vs0mg"},{"bike_id":"a891258b-e104-427a-ac0c-dfcdf700d9fa","system_id":"levelo_inurba_marseille","lat":43.31352,"lon":5.38498,"is_reserved":false,"is_disabled":false,"rental_uris":{"android":"levelo://app?vid=a891258b-e104-427a-ac0c-dfcdf700d9fa","ios":"levelo://app?vid=a891258b-e104-427a-ac0c-dfcdf700d9fa"},"vehicle_type_id":"4","last_reported":1744787410,"current_range_meters":21600,"station_id":"ce4bgt92rcd13ifvqcf0","pricing_plan_id":"cebpf4jnsgd1na2vs0mg"},{"bike_id":"a3e5d7aa-c595-425d-ac36-8770e48450a3","system_id":"levelo_inurba_marseille","lat":43.310693,"lon":5.383637,"is_reserved":false,"is_disabled":true,"rental_uris":{"android":"levelo://app?vid=a3e5d7aa-c595-425d-ac36-8770e48450a3","ios":"levelo://app?vid=a3e5d7aa-c595-425d-ac36-8770e48450a3"},"vehicle_type_id":"4","last_reported":1744787410,"current_range_meters":22000,"station_id":"ce4bgv92rcd13ifvqcr0","pricing_plan_id":"cebpf4jnsgd1na2vs0mg"},{"bike_id":"6302be56-5818-46b5-8b3b-542d3ce6a98b","system_id":"levelo_inurba_marseille","lat":43.29174,"lon":5.37158,"is_reserved":false,"is_disabled":false,"rental_uris":{"android":"levelo://app?vid=6302be56-5818-46b5-8b3b-542d3ce6a98b","ios":"levelo://app?vid=6302be56-5818-46b5-8b3b-542d3ce6a98b"},"vehicle_type_id":"4","last_reported":1744787410,"current_range_meters":22000,"station_id":"ce4bha92rcd13ifvqeh0","pricing_plan_id":"cebpf4jnsgd1na2vs0mg"},{"bike_id":"f8c485d0-2bf1-4401-9529-65b5821968c8","system_id":"levelo_inurba_marseille","lat":43.259389,"lon":5.409067,"is_reserved":false,"is_disabled":false,"rental_uris":{"android":"levelo://app?vid=f8c485d0-2bf1-4401-9529-65b5821968c8","ios":"levelo://app?vid=f8c485d0-2bf1-4401-9529-65b5821968c8"},"vehicle_type_id":"4","last_reported":1744787410,"current_range_meters":19600,"station_id":"ce4bhm92rcd13ifvqglg","pricing_plan_id":"cebpf4jnsgd1na2vs0mg"},{"bike_id":"3919f6ba-dd52-4187-8c7f-45f33213c7fa","system_id":"levelo_inurba_marseille","lat":43.30814,"lon":5.37367,"is_reserved":false,"is_disabled":false,"rental_uris":{"android":"levelo://app?vid=3919f6ba-dd52-4187-8c7f-45f33213c7fa","ios":"levelo://app?vid=3919f6ba-dd52-4187-8c7f-45f33213c7fa"},"vehicle_type_id":"4","last_reported":1744787410,"current_range_meters":22000,"station_id":"","pricing_plan_id":"cebpf4jnsgd1na2vs0mg"},{"bike_id":"0909c557-60cf-4d6b-9b97-6752a5725ed4","system_id":"levelo_inurba_marseille","lat":43.25939,"lon":5.40905,"is_reserved":false,"is_disabled":false,"rental_uris":{"android":"levelo://app?vid=0909c557-60cf-4d6b-9b97-6752a5725ed4","ios":"levelo://app?vid=0909c557-60cf-4d6b-9b97-6752a5725ed4"},"vehicle_type_id":"4","last_reported":1744787410,"current_range_meters":22000,"station_id":"ce4bhm92rcd13ifvqglg","pricing_plan_id":"cebpf4jnsgd1na2vs0mg"},{"bike_id":"d77aed70-8441-481a-a7f0-ae633a8d4519","system_id":"levelo_inurba_marseille","lat":43.30922,"lon":5.36846,"is_reserved":false,"is_disabled":false,"rental_uris":{"android":"levelo://app?vid=d77aed70-8441-481a-a7f0-ae633a8d4519","ios":"levelo://app?vid=d77aed70-8441-481a-a7f0-ae633a8d4519"},"vehicle_type_id":"4","last_reported":1744787410,"current_range_meters":22000,"station_id":"ce4bgn92rcd13ifvqbvg","pricing_plan_id":"cebpf4jnsgd1na2vs0mg"},{"bike_id":"27f0eca1-1481-405d-ae35-fd3b6e928ea1","system_id":"levelo_inurba_marseille","lat":43.29928,"lon":5.37496,"is_reserved":false,"is_disabled":false,"rental_uris":{"android":"levelo://app?vid=27f0eca1-1481-405d-ae35-fd3b6e928ea1","ios":"levelo://app?vid=27f0eca1-1481-405d-ae35-fd3b6e928ea1"},"vehicle_type_id":"4","last_reported":1744787410,"current_range_meters":22000,"station_id":"ce4bgjh2rcd13ifvqbg0","pricing_plan_id":"cebpf4jnsgd1na2vs0mg"},{"bike_id":"fea98b0b-ade0-432d-9d0c-9cebd4cf6312","system_id":"levelo_inurba_marseille","lat":43.29035,"lon":5.3996,"is_reserved":false,"is_disabled":false,"rental_uris":{"android":"levelo://app?vid=fea98b0b-ade0-432d-9d0c-9cebd4cf6312","ios":"levelo://app?vid=fea98b0b-ade0-432d-9d0c-9cebd4cf6312"},"vehicle_type_id":"4","last_reported":1744787410,"current_range_meters":22400,"station_id":"ce4bh392rcd13ifvqdm0","pricing_plan_id":"cebpf4jnsgd1na2vs0mg"},{"bike_id":"221415bd-9c9e-49b9-9d9d-685af1ddf6c5","system_id":"levelo_inurba_marseille","lat":43.30533,"lon":5.36536,"is_reserved":false,"is_disabled":false,"rental_uris":{"android":"levelo://app?vid=221415bd-9c9e-49b9-9d9d-685af1ddf6c5","ios":"levelo://app?vid=221415bd-9c9e-49b9-9d9d-685af1ddf6c5"},"vehicle_type_id":"4","last_reported":1744787410,"current_range_meters":22400,"station_id":"ce4bgs12rcd13ifvqcag","pricing_plan_id":"cebpf4jnsgd1na2vs0mg"},{"bike_id":"d750596a-6ac6-4755-84cc-45acd4464f3d","system_id":"levelo_inurba_marseille","lat":43.243931,"lon":5.370702,"is_reserved":false,"is_disabled":false,"rental_uris":{"android":"levelo://app?vid=d750596a-6ac6-4755-84cc-45acd4464f3d","ios":"levelo://app?vid=d750596a-6ac6-4755-84cc-45acd4464f3d"},"vehicle_type_id":"4","last_reported":1744787410,"current_range_meters":22400,"station_id":"ce4bhhh2rcd13ifvqfk0","pricing_plan_id":"cebpf4jnsgd1na2vs0mg"},{"bike_id":"08f4dcee-7656-4957-9022-f13783bb2667","system_id":"levelo_inurba_marseille","lat":43.29692,"lon":5.37235,"is_reserved":false,"is_disabled":false,"rental_uris":{"android":"levelo://app?vid=08f4dcee-7656-4957-9022-f13783bb2667","ios":"levelo://app?vid=08f4dcee-7656-4957-9022-f13783bb2667"},"vehicle_type_id":"4","last_reported":1744787410,"current_range_meters":22400,"station_id":"ce4bgk12rcd13ifvqbj0","pricing_plan_id":"cebpf4jnsgd1na2vs0mg"},{"bike_id":"d39e5537-c00a-4bf8-9f22-53966b448679","system_id":"levelo_inurba_marseille","lat":43.29545,"lon":5.4229,"is_reserved":false,"is_disabled":false,"rental_uris":{"android":"levelo://app?vid=d39e5537-c00a-4bf8-9f22-53966b448679","ios":"levelo://app?vid=d39e5537-c00a-4bf8-9f22-53966b448679"},"vehicle_type_id":"4","last_reported":1744787410,"current_range_meters":22400,"station_id":"ce4bhph2rcd13ifvqhdg","pricing_plan_id":"cebpf4jnsgd1na2vs0mg"},{"bike_id":"d0d01deb-85a7-47d3-bfb8-887fe34b7008","system_id":"levelo_inurba_marseille","lat":43.31346,"lon":5.36725,"is_reserved":false,"is_disabled":true,"rental_uris":{"android":"levelo://app?vid=d0d01deb-85a7-47d3-bfb8-887fe34b7008","ios":"levelo://app?vid=d0d01deb-85a7-47d3-bfb8-887fe34b7008"},"vehicle_type_id":"4","last_reported":1744787410,"current_range_meters":22400,"station_id":"ce4bgr92rcd13ifvqc6g","pricing_plan_id":"cebpf4jnsgd1na2vs0mg"},{"bike_id":"cb5883c7-af51-4072-b2a8-d84747bea176","system_id":"levelo_inurba_marseille","lat":43.26493,"lon":5.39544,"is_reserved":false,"is_disabled":false,"rental_uris":{"android":"levelo://app?vid=cb5883c7-af51-4072-b2a8-d84747bea176","ios":"levelo://app?vid=cb5883c7-af51-4072-b2a8-d84747bea176"},"vehicle_type_id":"4","last_reported":1744787410,"current_range_meters":22000,"station_id":"ce4bhi12rcd13ifvqfq0","pricing_plan_id":"cebpf4jnsgd1na2vs0mg"},{"bike_id":"64b3f138-087a-41d5-a77e-252f1a29cc8e","system_id":"levelo_inurba_marseille","lat":43.30189,"lon":5.36627,"is_reserved":false,"is_disabled":false,"rental_uris":{"android":"levelo://app?vid=64b3f138-087a-41d5-a77e-252f1a29cc8e","ios":"levelo://app?vid=64b3f138-087a-41d5-a77e-252f1a29cc8e"},"vehicle_type_id":"4","last_reported":1744787410,"current_range_meters":22800,"station_id":"ce4bgrh2rcd13ifvqc8g","pricing_plan_id":"cebpf4jnsgd1na2vs0mg"},{"bike_id":"fd2e9bd5-6aa2-47a2-a5d1-9e4a436a0b5f","system_id":"levelo_inurba_marseille","lat":43.32009,"lon":5.38147,"is_reserved":false,"is_disabled":false,"rental_uris":{"android":"levelo://app?vid=fd2e9bd5-6aa2-47a2-a5d1-9e4a436a0b5f","ios":"levelo://app?vid=fd2e9bd5-6aa2-47a2-a5d1-9e4a436a0b5f"},"vehicle_type_id":"4","last_reported":1744787410,"current_range_meters":22800,"station_id":"ce4bhr12rcd13ifvqhpg","pricing_plan_id":"cebpf4jnsgd1na2vs0mg"},{"bike_id":"2fc9e5e2-00cc-4181-8cc1-446084911363","system_id":"levelo_inurba_marseille","lat":43.266894,"lon":5.394773,"is_reserved":false,"is_disabled":false,"rental_uris":{"android":"levelo://app?vid=2fc9e5e2-00cc-4181-8cc1-446084911363","ios":"levelo://app?vid=2fc9e5e2-00cc-4181-8cc1-446084911363"},"vehicle_type_id":"4","last_reported":1744787410,"current_range_meters":22800,"station_id":"ce4bhh12rcd13ifvqfg0","pricing_plan_id":"cebpf4jnsgd1na2vs0mg"},{"bike_id":"d173482c-33fe-4e3f-b3dc-50194ba6dd74","system_id":"levelo_inurba_marseille","lat":43.2418,"lon":5.39729,"is_reserved":false,"is_disabled":false,"rental_uris":{"android":"levelo://app?vid=d173482c-33fe-4e3f-b3dc-50194ba6dd74","ios":"levelo://app?vid=d173482c-33fe-4e3f-b3dc-50194ba6dd74"},"vehicle_type_id":"4","last_reported":1744787410,"current_range_meters":22800,"station_id":"ce4bhn12rcd13ifvqgpg","pricing_plan_id":"cebpf4jnsgd1na2vs0mg"},{"bike_id":"b9b48096-6f65-415a-82b9-00a996326309","system_id":"levelo_inurba_marseille","lat":43.30919,"lon":5.36857,"is_reserved":false,"is_disabled":false,"rental_uris":{"android":"levelo://app?vid=b9b48096-6f65-415a-82b9-00a996326309","ios":"levelo://app?vid=b9b48096-6f65-415a-82b9-00a996326309"},"vehicle_type_id":"4","last_reported":1744787410,"current_range_meters":22800,"station_id":"ce4bgn92rcd13ifvqbvg","pricing_plan_id":"cebpf4jnsgd1na2vs0mg"},{"bike_id":"c2bf19b4-fd4a-4959-9ae3-bbf8d0169649","system_id":"levelo_inurba_marseille","lat":43.29095,"lon":5.3813,"is_reserved":false,"is_disabled":true,"rental_uris":{"android":"levelo://app?vid=c2bf19b4-fd4a-4959-9ae3-bbf8d0169649","ios":"levelo://app?vid=c2bf19b4-fd4a-4959-9ae3-bbf8d0169649"},"vehicle_type_id":"4","last_reported":1744787410,"current_range_meters":22800,"station_id":"ce4bh512rcd13ifvqe2g","pricing_plan_id":"cebpf4jnsgd1na2vs0mg"},{"bike_id":"6f2360da-5688-4f6a-8ebd-9e32ee7c678f","system_id":"levelo_inurba_marseille","lat":43.31687,"lon":5.4048,"is_reserved":false,"is_disabled":false,"rental_uris":{"android":"levelo://app?vid=6f2360da-5688-4f6a-8ebd-9e32ee7c678f","ios":"levelo://app?vid=6f2360da-5688-4f6a-8ebd-9e32ee7c678f"},"vehicle_type_id":"4","last_reported":1744787410,"current_range_meters":22800,"station_id":"ce4bh012rcd13ifvqd00","pricing_plan_id":"cebpf4jnsgd1na2vs0mg"},{"bike_id":"24ef9013-661c-491a-8b0b-8eaa9118c06a","system_id":"levelo_inurba_marseille","lat":43.246674,"lon":5.434833,"is_reserved":false,"is_disabled":false,"rental_uris":{"android":"levelo://app?vid=24ef9013-661c-491a-8b0b-8eaa9118c06a","ios":"levelo://app?vid=24ef9013-661c-491a-8b0b-8eaa9118c06a"},"vehicle_type_id":"4","last_reported":1744787410,"current_range_meters":22800,"station_id":"ce4bhmp2rcd13ifvqgog","pricing_plan_id":"cebpf4jnsgd1na2vs0mg"},{"bike_id":"3f761246-0d21-4df1-9aa1-2fe452c29abd","system_id":"levelo_inurba_marseille","lat":43.21733,"lon":5.34621,"is_reserved":false,"is_disabled":false,"rental_uris":{"android":"levelo://app?vid=3f761246-0d21-4df1-9aa1-2fe452c29abd","ios":"levelo://app?vid=3f761246-0d21-4df1-9aa1-2fe452c29abd"},"vehicle_type_id":"4","last_reported":1744787410,"current_range_meters":22800,"station_id":"st_cvj6r9ubvosntc0bgbag","pricing_plan_id":"cebpf4jnsgd1na2vs0mg"},{"bike_id":"113813ce-15c7-4eb4-bc8c-a83f979fccc0","system_id":"levelo_inurba_marseille","lat":43.21765,"lon":5.34601,"is_reserved":false,"is_disabled":false,"rental_uris":{"android":"levelo://app?vid=113813ce-15c7-4eb4-bc8c-a83f979fccc0","ios":"levelo://app?vid=113813ce-15c7-4eb4-bc8c-a83f979fccc0"},"vehicle_type_id":"4","last_reported":1744787410,"current_range_meters":23200,"station_id":"st_cvj6r9ubvosntc0bgbag","pricing_plan_id":"cebpf4jnsgd1na2vs0mg"},{"bike_id":"714b5d52-0c40-45e3-8e81-9ebd8c1251e6","system_id":"levelo_inurba_marseille","lat":43.26554,"lon":5.37281,"is_reserved":false,"is_disabled":false,"rental_uris":{"android":"levelo://app?vid=714b5d52-0c40-45e3-8e81-9ebd8c1251e6","ios":"levelo://app?vid=714b5d52-0c40-45e3-8e81-9ebd8c1251e6"},"vehicle_type_id":"4","last_reported":1744787410,"current_range_meters":23200,"station_id":"ce4bhg12rcd13ifvqf70","pricing_plan_id":"cebpf4jnsgd1na2vs0mg"},{"bike_id":"7ed9a81a-169b-437d-a718-7d28a51c26a5","system_id":"levelo_inurba_marseille","lat":43.26702,"lon":5.38296,"is_reserved":false,"is_disabled":false,"rental_uris":{"android":"levelo://app?vid=7ed9a81a-169b-437d-a718-7d28a51c26a5","ios":"levelo://app?vid=7ed9a81a-169b-437d-a718-7d28a51c26a5"},"vehicle_type_id":"4","last_reported":1744787410,"current_range_meters":23200,"station_id":"ce4bhg92rcd13ifvqf90","pricing_plan_id":"cebpf4jnsgd1na2vs0mg"},{"bike_id":"76b4064c-3a17-43e0-96bb-05aa942e255d","system_id":"levelo_inurba_marseille","lat":43.30148,"lon":5.38784,"is_reserved":false,"is_disabled":true,"rental_uris":{"android":"levelo://app?vid=76b4064c-3a17-43e0-96bb-05aa942e255d","ios":"levelo://app?vid=76b4064c-3a17-43e0-96bb-05aa942e255d"},"vehicle_type_id":"4","last_reported":1744787410,"current_range_meters":23200,"station_id":"ce4bghh2rcd13ifvqb60","pricing_plan_id":"cebpf4jnsgd1na2vs0mg"},{"bike_id":"9ad838e9-56fc-4271-b9cb-fd804cb49111","system_id":"levelo_inurba_marseille","lat":43.29285,"lon":5.40123,"is_reserved":false,"is_disabled":false,"rental_uris":{"android":"levelo://app?vid=9ad838e9-56fc-4271-b9cb-fd804cb49111","ios":"levelo://app?vid=9ad838e9-56fc-4271-b9cb-fd804cb49111"},"vehicle_type_id":"4","last_reported":1744787410,"current_range_meters":23200,"station_id":"ce4bh312rcd13ifvqdk0","pricing_plan_id":"cebpf4jnsgd1na2vs0mg"},{"bike_id":"f49c4e21-3368-4dd3-b8d1-f136aaf28dbc","system_id":"levelo_inurba_marseille","lat":43.31226,"lon":5.36858,"is_reserved":false,"is_disabled":false,"rental_uris":{"android":"levelo://app?vid=f49c4e21-3368-4dd3-b8d1-f136aaf28dbc","ios":"levelo://app?vid=f49c4e21-3368-4dd3-b8d1-f136aaf28dbc"},"vehicle_type_id":"4","last_reported":1744787410,"current_range_meters":23200,"station_id":"ce4bgl92rcd13ifvqbq0","pricing_plan_id":"cebpf4jnsgd1na2vs0mg"},{"bike_id":"94c8b160-29dd-45c4-9d5f-86d40f79a61c","system_id":"levelo_inurba_marseille","lat":43.261923,"lon":5.404806,"is_reserved":false,"is_disabled":false,"rental_uris":{"android":"levelo://app?vid=94c8b160-29dd-45c4-9d5f-86d40f79a61c","ios":"levelo://app?vid=94c8b160-29dd-45c4-9d5f-86d40f79a61c"},"vehicle_type_id":"4","last_reported":1744787410,"current_range_meters":23200,"station_id":"ce4bhmh2rcd13ifvqgmg","pricing_plan_id":"cebpf4jnsgd1na2vs0mg"},{"bike_id":"869edd1f-7bee-4e4f-a9b1-205528a70840","system_id":"levelo_inurba_marseille","lat":43.32,"lon":5.38173,"is_reserved":false,"is_disabled":false,"rental_uris":{"android":"levelo://app?vid=869edd1f-7bee-4e4f-a9b1-205528a70840","ios":"levelo://app?vid=869edd1f-7bee-4e4f-a9b1-205528a70840"},