{"last_updated":1744974495,"ttl":60,"version":"2.2","data":{"bikes":[{"bike_id":"23d280c8-7c4e-44d1-8702-0aa337f488cd","system_id":"levelo_inurba_marseille","lat":43.29362,"lon":5.37853,"is_reserved":false,"is_disabled":false,"rental_uris":{"android":"levelo://app?vid=23d280c8-7c4e-44d1-8702-0aa337f488cd","ios":"levelo://app?vid=23d280c8-7c4e-44d1-8702-0aa337f488cd"},"vehicle_type_id":"4","last_reported":1744974495,"current_range_meters":2800,"station_id":"ce4bgjh2rcd13ifvqbf0","pricing_plan_id":"cebpf4jnsgd1na2vs0mg"},{"bike_id":"c028cd54-65d9-403d-b29a-b55a170a6cea","system_id":"levelo_inurba_marseille","lat":43.23139,"lon":5.43712,"is_reserved":false,"is_disabled":false,"rental_uris":{"android":"levelo://app?vid=c028cd54-65d9-403d-b29a-b55a170a6cea","ios":"levelo://app?vid=c028cd54-65d9-403d-b29a-b55a170a6cea"},"vehicle_type_id":"4","last_reported":1744974495,"current_range_meters":2800,"station_id":"ce4bhmp2rcd13ifvqgog","pricing_plan_id":"cebpf4jnsgd1na2vs0mg"},{"bike_id":"88ce086b-91b3-4da1-a45f-e9ca4f83e1d2","system_id":"levelo_inurba_marseille","lat":43.284668,"lon":5.384033,"is_reserved":false,"is_disabled":true,"rental_uris":{"android":"levelo://app?vid=88ce086b-91b3-4da1-a45f-e9ca4f83e1d2","ios":"levelo://app?vid=88ce086b-91b3-4da1-a45f-e9ca4f83e1d2"},"vehicle_type_id":"4","last_reported":1744974495,"current_range_meters":3200,"station_id":"","pricing_plan_id":"cebpf4jnsgd1na2vs0mg"},{"bike_id":"e15c1cc4-356c-4a3f-a6bd-52ba91468352","system_id":"levelo_inurba_marseille","lat":43.29271,"lon":5.37617,"is_reserved":false,"is_disabled":false,"rental_uris":{"android":"levelo://app?vid=e15c1cc4-356c-4a3f-a6bd-52ba91468352","ios":"levelo://app?vid=e15c1cc4-356c-4a3f-a6bd-52ba91468352"},"vehicle_type_id":"4","last_reported":1744974495,"current_range_meters":3200,"station_id":"ce4bgi12rcd13ifvqb80","pricing_plan_id":"cebpf4jnsgd1na2vs0mg"},{"bike_id":"d3744e1b-ca16-41da-a8b6-44d1754475a0","system_id":"levelo_inurba_marseille","lat":43.31233,"lon":5.36863,"is_reserved":false,"is_disabled":false,"rental_uris":{"android":"levelo://app?vid=d3744e1b-ca16-41da-a8b6-44d1754475a0","ios":"levelo://app?vid=d3744e1b-ca16-41da-a8b6-44d1754475a0"},"vehicle_type_id":"4","last_reported":1744974495,"current_range_meters":3600,"station_id":"ce4bgl92rcd13ifvqbq0","pricing_plan_id":"cebpf4jnsgd1na2vs0mg"},{"bike_id":"00392957-84ac-4f9c-996a-10faf15f0280","system_id":"levelo_inurba_marseille","lat":43.29039,"lon":5.37566,"is_reserved":false,"is_disabled":false,"rental_uris":{"android":"levelo://app?vid=00392957-84ac-4f9c-996a-10faf15f0280","ios":"levelo://app?vid=00392957-84ac-4f9c-996a-10faf15f0280"},"vehicle_type_id":"4","last_reported":1744974495,"current_range_meters":4000,"station_id":"ce4bh692rcd13ifvqe90","pricing_plan_id":"cebpf4jnsgd1na2vs0mg"},{"bike_id":"593f200f-acc6-4515-9b2c-377663e6c433","system_id":"levelo_inurba_marseille","lat":43.21721,"lon":5.34623,"is_reserved":false,"is_disabled":true,"rental_uris":{"android":"levelo://app?vid=593f200f-acc6-4515-9b2c-377663e6c433","ios":"levelo://app?vid=593f200f-acc6-4515-9b2c-377663e6c433"},"vehicle_type_id":"4","last_reported":1744974495,"current_range_meters":4000,"station_id":"st_cvj6r9ubvosntc0bgbag","pricing_plan_id":"cebpf4jnsgd1na2vs0mg"},{"bike_id":"96ef36ca-13b2-408e-aad1-7c019ab73965","system_id":"levelo_inurba_marseille","lat":43.28616,"lon":5.35107,"is_reserved":false,"is_disabled":false,"rental_uris":{"android":"levelo://app?vid=96ef36ca-13b2-408e-aad1-7c019ab73965","ios":"levelo://app?vid=96ef36ca-13b2-408e-aad1-7c019ab73965"},"vehicle_type_id":"4","last_reported":1744974495,"current_range_meters":4400,"station_id":"ce4bhch2rcd13ifvqeug","pricing_plan_id":"cebpf4jnsgd1na2vs0mg"},{"bike_id":"3d4d4d49-5dee-4694-9227-474d7329a03e","system_id":"levelo_inurba_marseille","lat":43.26207,"lon":5.37928,"is_reserved":false,"is_disabled":true,"rental_uris":{"android":"levelo://app?vid=3d4d4d49-5dee-4694-9227-474d7329a03e","ios":"levelo://app?vid=3d4d4d49-5dee-4694-9227-474d7329a03e"},"vehicle_type_id":"4","last_reported":1744974495,"current_range_meters":4400,"station_id":"ce4bhjp2rcd13ifvqg90","pricing_plan_id":"cebpf4jnsgd1na2vs0mg"},{"bike_id":"50dc23ed-5e19-46ee-92cf-f2ca4c445852","system_id":"levelo_inurba_marseille","lat":43.33737,"lon":5.39174,"is_reserved":false,"is_disabled":false,"rental_uris":{"android":"levelo://app?vid=50dc23ed-5e19-46ee-92cf-f2ca4c445852","ios":"levelo://app?vid=50dc23ed-5e19-46ee-92cf-f2ca4c445852"},"vehicle_type_id":"4","last_reported":1744974495,"current_range_meters":4400,"station_id":"ce4bhr92rcd13ifvqhsg","pricing_plan_id":"cebpf4jnsgd1na2vs0mg"},{"bike_id":"206e6eed-90ee-4177-ab5a-4bcb1810ce02","system_id":"levelo_inurba_marseille","lat":43.3235,"lon":5.36751,"is_reserved":false,"is_disabled":false,"rental_uris":{"android":"levelo://app?vid=206e6eed-90ee-4177-ab5a-4bcb1810ce02","ios":"levelo://app?vid=206e6eed-90ee-4177-ab5a-4bcb1810ce02"},"vehicle_type_id":"4","last_reported":1744974495,"current_range_meters":4800,"station_id":"ce4bhsh2rcd13ifvqi2g","pricing_plan_id":"cebpf4jnsgd1na2vs0mg"},{"bike_id":"2e93ca96-4d48-4800-ba61-feaf760b88c5","system_id":"levelo_inurba_marseille","lat":43.217439,"lon":5.346005,"is_reserved":false,"is_disabled":false,"rental_uris":{"android":"levelo://app?vid=2e93ca96-4d48-4800-ba61-feaf760b88c5","ios":"levelo://app?vid=2e93ca96-4d48-4800-ba61-feaf760b88c5"},"vehicle_type_id":"4","last_reported":1744974495,"current_range_meters":4800,"station_id":"st_cvj6r9ubvosntc0bgbag","pricing_plan_id":"cebpf4jnsgd1na2vs0mg"},{"bike_id":"691fc563-2043-48e3-bcb0-0c950507c3af","system_id":"levelo_inurba_marseille","lat":43.27645,"lon":5.36134,"is_reserved":false,"is_disabled":false,"rental_uris":{"android":"levelo://app?vid=691fc563-2043-48e3-bcb0-0c950507c3af","ios":"levelo://app?vid=691fc563-2043-48e3-bcb0-0c950507c3af"},"vehicle_type_id":"4","last_reported":1744974495,"current_range_meters":4800,"station_id":"ce4bgj92rcd13ifvqbe0","pricing_plan_id":"cebpf4jnsgd1na2vs0mg"},{"bike_id":"42045253-f554-461d-b54d-e99d851a43b3","system_id":"levelo_inurba_marseille","lat":43.225092,"lon":5.347853,"is_reserved":false,"is_disabled":false,"rental_uris":{"android":"levelo://app?vid=42045253-f554-461d-b54d-e99d851a43b3","ios":"levelo://app?vid=42045253-f554-461d-b54d-e99d851a43b3"},"vehicle_type_id":"4","last_reported":1744974495,"current_range_meters":5600,"station_id":"","pricing_plan_id":"cebpf4jnsgd1na2vs0mg"},{"bike_id":"b5e16c44-c6cc-4253-b466-143426aa0017","system_id":"levelo_inurba_marseille","lat":43.31319,"lon":5.36751,"is_reserved":false,"is_disabled":false,"rental_uris":{"android":"levelo://app?vid=b5e16c44-c6cc-4253-b466-143426aa0017","ios":"levelo://app?vid=b5e16c44-c6cc-4253-b466-143426aa0017"},"vehicle_type_id":"4","last_reported":1744974495,"current_range_meters":5600,"station_id":"ce4bgr92rcd13ifvqc6g","pricing_plan_id":"cebpf4jnsgd1na2vs0mg"},{"bike_id":"04ce42ee-7478-45db-a6f4-ecab8001f803","system_id":"levelo_inurba_marseille","lat":43.30603,"lon":5.39368,"is_reserved":false,"is_disabled":false,"rental_uris":{"android":"levelo://app?vid=04ce42ee-7478-45db-a6f4-ecab8001f803","ios":"levelo://app?vid=04ce42ee-7478-45db-a6f4-ecab8001f803"},"vehicle_type_id":"4","last_reported":1744974495,"current_range_meters":5600,"station_id":"ce4bh0p2rcd13ifvqd80","pricing_plan_id":"cebpf4jnsgd1na2vs0mg"},{"bike_id":"feb647ca-7a8f-4f1a-b97c-2b80e6d0277d","system_id":"levelo_inurba_marseille","lat":43.30363,"lon":5.42482,"is_reserved":false,"is_disabled":false,"rental_uris":{"android":"levelo://app?vid=feb647ca-7a8f-4f1a-b97c-2b80e6d0277d","ios":"levelo://app?vid=feb647ca-7a8f-4f1a-b97c-2b80e6d0277d"},"vehicle_type_id":"4","last_reported":1744974495,"current_range_meters":5600,"station_id":"ce4bhoh2rcd13ifvqh6g","pricing_plan_id":"cebpf4jnsgd1na2vs0mg"},{"bike_id":"0be6b91e-6a0b-4b6b-a361-3eef79826ece","system_id":"levelo_inurba_marseille","lat":43.27804,"lon":5.40704,"is_reserved":false,"is_disabled":false,"rental_uris":{"android":"levelo://app?vid=0be6b91e-6a0b-4b6b-a361-3eef79826ece","ios":"levelo://app?vid=0be6b91e-6a0b-4b6b-a361-3eef79826ece"},"vehicle_type_id":"4","last_reported":1744974495,"current_range_meters":5600,"station_id":"ce4bhnh2rcd13ifvqgtg","pricing_plan_id":"cebpf4jnsgd1na2vs0mg"},{"bike_id":"a05a5730-0bf5-456c-84f3-b9e8385c2830","system_id":"levelo_inurba_marseille","lat":43.24168,"lon":5.36399,"is_reserved":false,"is_disabled":false,"rental_uris":{"android":"levelo://app?vid=a05a5730-0bf5-456c-84f3-b9e8385c2830","ios":"levelo://app?vid=a05a5730-0bf5-456c-84f3-b9e8385c2830"},"vehicle_type_id":"4","last_reported":1744974495,"current_range_meters":5600,"station_id":"cpo36qri1sfpv3e86is0","pricing_plan_id":"cebpf4jnsgd1na2vs0mg"},{"bike_id":"d3455303-ad12-477a-98fb-6b1ea11029e4","system_id":"levelo_inurba_marseille","lat":43.30372,"lon":5.42482,"is_reserved":false,"is_disabled":false,"rental_uris":{"android":"levelo://app?vid=d3455303-ad12-477a-98fb-6b1ea11029e4","ios":"levelo://app?vid=d3455303-ad12-477a-98fb-6b1ea11029e4"},"vehicle_type_id":"4","last_reported":1744974495,"current_range_meters":6000,"station_id":"ce4bhoh2rcd13ifvqh6g","pricing_plan_id":"cebpf4jnsgd1na2vs0mg"},{"bike_id":"e76672c6-c6b2-46e2-9da9-d51fcefc6261","system_id":"levelo_inurba_marseille","lat":43.24073,"lon":5.37752,"is_reserved":false,"is_disabled":false,"rental_uris":{"android":"levelo://app?vid=e76672c6-c6b2-46e2-9da9-d51fcefc6261","ios":"levelo://app?vid=e76672c6-c6b2-46e2-9da9-d51fcefc6261"},"vehicle_type_id":"4","last_reported":1744974495,"current_range_meters":6000,"station_id":"ce4bhnp2rcd13ifvqgvg","pricing_plan_id":"cebpf4jnsgd1na2vs0mg"},{"bike_id":"2df22311-bac1-4b8f-abff-11893969de63","system_id":"levelo_inurba_marseille","lat":43.310693,"lon":5.378287,"is_reserved":false,"is_disabled":false,"rental_uris":{"android":"levelo://app?vid=2df22311-bac1-4b8f-abff-11893969de63","ios":"levelo://app?vid=2df22311-bac1-4b8f-abff-11893969de63"},"vehicle_type_id":"4","last_reported":1744974495,"current_range_meters":6400,"station_id":"ce4bgt92rcd13ifvqcg0","pricing_plan_id":"cebpf4jnsgd1na2vs0mg"},{"bike_id":"efe2c559-3f1f-4eae-8f0d-9b098103009d","system_id":"levelo_inurba_marseille","lat":43.30951,"lon":5.39032,"is_reserved":false,"is_disabled":true,"rental_uris":{"android":"levelo://app?vid=efe2c559-3f1f-4eae-8f0d-9b098103009d","ios":"levelo://app?vid=efe2c559-3f1f-4eae-8f0d-9b098103009d"},"vehicle_type_id":"4","last_reported":1744974495,"current_range_meters":6400,"station_id":"ce4bgup2rcd13ifvqco0","pricing_plan_id":"cebpf4jnsgd1na2vs0mg"},{"bike_id":"683727aa-af5c-4a30-b620-923da0da034b","system_id":"levelo_inurba_marseille","lat":43.26838,"lon":5.40477,"is_reserved":false,"is_disabled":false,"rental_uris":{"android":"levelo://app?vid=683727aa-af5c-4a30-b620-923da0da034b","ios":"levelo://app?vid=683727aa-af5c-4a30-b620-923da0da034b"},"vehicle_type_id":"4","last_reported":1744974495,"current_range_meters":6400,"station_id":"cjm6bp8fraef2m0cb0m0","pricing_plan_id":"cebpf4jnsgd1na2vs0mg"},{"bike_id":"2a297b53-e6c9-4a44-8832-a1535085da75","system_id":"levelo_inurba_marseille","lat":43.31971,"lon":5.38226,"is_reserved":false,"is_disabled":true,"rental_uris":{"android":"levelo://app?vid=2a297b53-e6c9-4a44-8832-a1535085da75","ios":"levelo://app?vid=2a297b53-e6c9-4a44-8832-a1535085da75"},"vehicle_type_id":"4","last_reported":1744974495,"current_range_meters":6800,"station_id":"ce4bhr12rcd13ifvqhpg","pricing_plan_id":"cebpf4jnsgd1na2vs0mg"},{"bike_id":"875aa746-9da9-4769-990b-463510bc6916","system_id":"levelo_inurba_marseille","lat":43.21193,"lon":5.35073,"is_reserved":false,"is_disabled":false,"rental_uris":{"android":"levelo://app?vid=875aa746-9da9-4769-990b-463510bc6916","ios":"levelo://app?vid=875aa746-9da9-4769-990b-463510bc6916"},"vehicle_type_id":"4","last_reported":1744974495,"current_range_meters":7200,"station_id":"st_cvj6sg6p6f1abm77japg","pricing_plan_id":"cebpf4jnsgd1na2vs0mg"},{"bike_id":"d1b07dd8-31ad-448d-b752-eeead6dab027","system_id":"levelo_inurba_marseille","lat":43.291979,"lon":5.393319,"is_reserved":false,"is_disabled":false,"rental_uris":{"android":"levelo://app?vid=d1b07dd8-31ad-448d-b752-eeead6dab027","ios":"levelo://app?vid=d1b07dd8-31ad-448d-b752-eeead6dab027"},"vehicle_type_id":"4","last_reported":1744974495,"current_range_meters":7200,"station_id":"ce4bgjp2rcd13ifvqbh0","pricing_plan_id":"cebpf4jnsgd1na2vs0mg"},{"bike_id":"36e83f15-92d4-463b-9926-ed085ef91dcb","system_id":"levelo_inurba_marseille","lat":43.29277,"lon":5.36841,"is_reserved":false,"is_disabled":false,"rental_uris":{"android":"levelo://app?vid=36e83f15-92d4-463b-9926-ed085ef91dcb","ios":"levelo://app?vid=36e83f15-92d4-463b-9926-ed085ef91dcb"},"vehicle_type_id":"4","last_reported":1744974495,"current_range_meters":7200,"station_id":"ce4bhbp2rcd13ifvqesg","pricing_plan_id":"cebpf4jnsgd1na2vs0mg"},{"bike_id":"25e59276-234c-4a11-b734-292e871fbab1","system_id":"levelo_inurba_marseille","lat":43.235388,"lon":5.43618,"is_reserved":false,"is_disabled":false,"rental_uris":{"android":"levelo://app?vid=25e59276-234c-4a11-b734-292e871fbab1","ios":"levelo://app?vid=25e59276-234c-4a11-b734-292e871fbab1"},"vehicle_type_id":"4","last_reported":1744974495,"current_range_meters":7200,"station_id":"","pricing_plan_id":"cebpf4jnsgd1na2vs0mg"},{"bike_id":"79590eca-7d6f-414e-8732-96ddc9516ec2","system_id":"levelo_inurba_marseille","lat":43.23058,"lon":5.35494,"is_reserved":false,"is_disabled":false,"rental_uris":{"android":"levelo://app?vid=79590eca-7d6f-414e-8732-96ddc9516ec2","ios":"levelo://app?vid=79590eca-7d6f-414e-8732-96ddc9516ec2"},"vehicle_type_id":"4","last_reported":1744974495,"current_range_meters":7200,"station_id":"cpo3342slgdg3j2ifvpg","pricing_plan_id":"cebpf4jnsgd1na2vs0mg"},{"bike_id":"fd347819-bc5f-40e0-aad7-813fd717a636","system_id":"levelo_inurba_marseille","lat":43.23202,"lon":5.39983,"is_reserved":false,"is_disabled":false,"rental_uris":{"android":"levelo://app?vid=fd347819-bc5f-40e0-aad7-813fd717a636","ios":"levelo://app?vid=fd347819-bc5f-40e0-aad7-813fd717a636"},"vehicle_type_id":"4","last_reported":1744974495,"current_range_meters":8000,"station_id":"ce4bhn12rcd13ifvqgqg","pricing_plan_id":"cebpf4jnsgd1na2vs0mg"},{"bike_id":"937f6ffc-64e7-4a6b-9ed4-a0df5c33130a","system_id":"levelo_inurba_marseille","lat":43.26606,"lon":5.39049,"is_reserved":false,"is_disabled":false,"rental_uris":{"android":"levelo://app?vid=937f6ffc-64e7-4a6b-9ed4-a0df5c33130a","ios":"levelo://app?vid=937f6ffc-64e7-4a6b-9ed4-a0df5c33130a"},"vehicle_type_id":"4","last_reported":1744974495,"current_range_meters":8000,"station_id":"","pricing_plan_id":"cebpf4jnsgd1na2vs0mg"},{"bike_id":"fb21fee8-ef5d-40ee-9ca2-eb9f6d92c65d","system_id":"levelo_inurba_marseille","lat":43.225056,"lon":5.347825,"is_reserved":false,"is_disabled":false,"rental_uris":{"android":"levelo://app?vid=fb21fee8-ef5d-40ee-9ca2-eb9f6d92c65d","ios":"levelo://app?vid=fb21fee8-ef5d-40ee-9ca2-eb9f6d92c65d"},"vehicle_type_id":"4","last_reported":1744974495,"current_range_meters":8400,"station_id":"ce4bh2h2rcd13ifvqdh0","pricing_plan_id":"cebpf4jnsgd1na2vs0mg"},{"bike_id":"e3061286-add2-4bc6-a803-66a4d7d63e42","system_id":"levelo_inurba_marseille","lat":43.286224,"lon":5.350971,"is_reserved":false,"is_disabled":false,"rental_uris":{"android":"levelo://app?vid=e3061286-add2-4bc6-a803-66a4d7d63e42","ios":"levelo://app?vid=e3061286-add2-4bc6-a803-66a4d7d63e42"},"vehicle_type_id":"4","last_reported":1744974495,"current_range_meters":8400,"station_id":"ce4bhch2rcd13ifvqeug","pricing_plan_id":"cebpf4jnsgd1na2vs0mg"},{"bike_id":"b6018ae7-9041-4df5-a158-df6522193634","system_id":"levelo_inurba_marseille","lat":43.30555,"lon":5.36537,"is_reserved":false,"is_disabled":false,"rental_uris":{"android":"levelo://app?vid=b6018ae7-9041-4df5-a158-df6522193634","ios":"levelo://app?vid=b6018ae7-9041-4df5-a158-df6522193634"},"vehicle_type_id":"4","last_reported":1744974495,"current_range_meters":8800,"station_id":"ce4bgs12rcd13ifvqcag","pricing_plan_id":"cebpf4jnsgd1na2vs0mg"},{"bike_id":"140da54e-159a-44b8-b6ed-2b7143b9bcad","system_id":"levelo_inurba_marseille","lat":43.28428,"lon":5.349825,"is_reserved":false,"is_disabled":false,"rental_uris":{"android":"levelo://app?vid=140da54e-159a-44b8-b6ed-2b7143b9bcad","ios":"levelo://app?vid=140da54e-159a-44b8-b6ed-2b7143b9bcad"},"vehicle_type_id":"4","last_reported":1744974495,"current_range_meters":9200,"station_id":"ce4bhbh2rcd13ifvqepg","pricing_plan_id":"cebpf4jnsgd1na2vs0mg"},{"bike_id":"41fb0398-f2fe-4abb-ae37-a38f47615ea9","system_id":"levelo_inurba_marseille","lat":43.32355,"lon":5.3676,"is_reserved":false,"is_disabled":true,"rental_uris":{"android":"levelo://app?vid=41fb0398-f2fe-4abb-ae37-a38f47615ea9","ios":"levelo://app?vid=41fb0398-f2fe-4abb-ae37-a38f47615ea9"},"vehicle_type_id":"4","last_reported":1744974495,"current_range_meters":9200,"station_id":"ce4bhsh2rcd13ifvqi2g","pricing_plan_id":"cebpf4jnsgd1na2vs0mg"},{"bike_id":"083432d3-cf08-4185-a762-6c7b460be089","system_id":"levelo_inurba_marseille","lat":43.23151,"lon":5.43723,"is_reserved":false,"is_disabled":false,"rental_uris":{"android":"levelo://app?vid=083432d3-cf08-4185-a762-6c7b460be089","ios":"levelo://app?vid=083432d3-cf08-4185-a762-6c7b460be089"},"vehicle_type_id":"4","last_reported":1744974495,"current_range_meters":9200,"station_id":"ce4bhmp2rcd13ifvqgog","pricing_plan_id":"cebpf4jnsgd1na2vs0mg"},{"bike_id":"d1149058-1d8e-4ecc-a2a9-f1837203df84","system_id":"levelo_inurba_marseille","lat":43.21192,"lon":5.35076,"is_reserved":false,"is_disabled":false,"rental_uris":{"android":"levelo://app?vid=d1149058-1d8e-4ecc-a2a9-f1837203df84","ios":"levelo://app?vid=d1149058-1d8e-4ecc-a2a9-f1837203df84"},"vehicle_type_id":"4","last_reported":1744974495,"current_range_meters":9200,"station_id":"st_cvj6sg6p6f1abm77japg","pricing_plan_id":"cebpf4jnsgd1na2vs0mg"},{"bike_id":"c5ad34a5-de23-413d-9e8b-ec61ed7009c1","system_id":"levelo_inurba_marseille","lat":43.2862,"lon":5.351,"is_reserved":false,"is_disabled":false,"rental_uris":{"android":"levelo://app?vid=c5ad34a5-de23-413d-9e8b-ec61ed7009c1","ios":"levelo://app?vid=c5ad34a5-de23-413d-9e8b-ec61ed7009c1"},"vehicle_type_id":"4","last_reported":1744974495,"current_range_meters":9200,"station_id":"ce4bhch2rcd13ifvqeug","pricing_plan_id":"cebpf4jnsgd1na2vs0mg"},{"bike_id":"c96f4b9b-c79b-4988-9f53-4218046306f2","system_id":"levelo_inurba_marseille","lat":43.274118,"lon":5.400136,"is_reserved":false,"is_disabled":false,"rental_uris":{"android":"levelo://app?vid=c96f4b9b-c79b-4988-9f53-4218046306f2","ios":"levelo://app?vid=c96f4b9b-c79b-4988-9f53-4218046306f2"},"vehicle_type_id":"4","last_reported":1744974495,"current_range_meters":9200,"station_id":"ce4bho92rcd13ifvqh3g","pricing_plan_id":"cebpf4jnsgd1na2vs0mg"},{"bike_id":"946a8743-e004-4a0e-a2e9-575a70cd9d37","system_id":"levelo_inurba_marseille","lat":43.25121,"lon":5.4033,"is_reserved":false,"is_disabled":false,"rental_uris":{"android":"levelo://app?vid=946a8743-e004-4a0e-a2e9-575a70cd9d37","ios":"levelo://app?vid=946a8743-e004-4a0e-a2e9-575a70cd9d37"},"vehicle_type_id":"4","last_reported":1744974495,"current_range_meters":9200,"station_id":"ce4bhlh2rcd13ifvqgig","pricing_plan_id":"cebpf4jnsgd1na2vs0mg"},{"bike_id":"76483e71-7d28-401c-8e0b-de284cbe4cb8","system_id":"levelo_inurba_marseille","lat":43.25498,"lon":5.37649,"is_reserved":false,"is_disabled":false,"rental_uris":{"android":"levelo://app?vid=76483e71-7d28-401c-8e0b-de284cbe4cb8","ios":"levelo://app?vid=76483e71-7d28-401c-8e0b-de284cbe4cb8"},"vehicle_type_id":"4","last_reported":1744974495,"current_range_meters":9600,"station_id":"ce4bhh12rcd13ifvqff0","pricing_plan_id":"cebpf4jnsgd1na2vs0mg"},{"bike_id":"1ec381a3-471e-4b07-913a-615ea34927e0","system_id":"levelo_inurba_marseille","lat":43.24543,"lon":5.39528,"is_reserved":false,"is_disabled":false,"rental_uris":{"android":"levelo://app?vid=1ec381a3-471e-4b07-913a-615ea34927e0","ios":"levelo://app?vid=1ec381a3-471e-4b07-913a-615ea34927e0"},"vehicle_type_id":"4","last_reported":1744974495,"current_range_meters":9600,"station_id":"ce4bhlp2rcd13ifvqgjg","pricing_plan_id":"cebpf4jnsgd1na2vs0mg"},{"bike_id":"4a17a27b-4979-4133-9ae1-996785f8fee4","system_id":"levelo_inurba_marseille","lat":43.230703,"lon":5.355013,"is_reserved":false,"is_disabled":false,"rental_uris":{"android":"levelo://app?vid=4a17a27b-4979-4133-9ae1-996785f8fee4","ios":"levelo://app?vid=4a17a27b-4979-4133-9ae1-996785f8fee4"},"vehicle_type_id":"4","last_reported":1744974495,"current_range_meters":9600,"station_id":"cpo3342slgdg3j2ifvpg","pricing_plan_id":"cebpf4jnsgd1na2vs0mg"},{"bike_id":"6387e09f-fcc6-4c9c-9bdb-85a23b06c2df","system_id":"levelo_inurba_marseille","lat":43.311728,"lon":5.387204,"is_reserved":false,"is_disabled":false,"rental_uris":{"android":"levelo://app?vid=6387e09f-fcc6-4c9c-9bdb-85a23b06c2df","ios":"levelo://app?vid=6387e09f-fcc6-4c9c-9bdb-85a23b06c2df"},"vehicle_type_id":"4","last_reported":1744974495,"current_range_meters":9600,"station_id":"ce4bhq12rcd13ifvqhig","pricing_plan_id":"cebpf4jnsgd1na2vs0mg"},{"bike_id":"ec8c9ac7-1e95-4171-97f3-226ce1e3c951","system_id":"levelo_inurba_marseille","lat":43.32105,"lon":5.36772,"is_reserved":false,"is_disabled":false,"rental_uris":{"android":"levelo://app?vid=ec8c9ac7-1e95-4171-97f3-226ce1e3c951","ios":"levelo://app?vid=ec8c9ac7-1e95-4171-97f3-226ce1e3c951"},"vehicle_type_id":"4","last_reported":1744974495,"current_range_meters":10000,"station_id":"ce4bhrh2rcd13ifvqhug","pricing_plan_id":"cebpf4jnsgd1na2vs0mg"},{"bike_id":"849f403e-ec44-44d8-beab-c3b0509871af","system_id":"levelo_inurba_marseille","lat":43.312305,"lon":5.368505,"is_reserved":false,"is_disabled":true,"rental_uris":{"android":"levelo://app?vid=849f403e-ec44-44d8-beab-c3b0509871af","ios":"levelo://app?vid=849f403e-ec44-44d8-beab-c3b0509871af"},"vehicle_type_id":"4","last_reported":1744974495,"current_range_meters":10000,"station_id":"ce4bgl92rcd13ifvqbq0","pricing_plan_id":"cebpf4jnsgd1na2vs0mg"},{"bike_id":"70b6b133-6705-4dfd-b4a7-6e88067904e8","system_id":"levelo_inurba_marseille","lat":43.24159,"lon":5.36423,"is_reserved":false,"is_disabled":false,"rental_uris":{"android":"levelo://app?vid=70b6b133-6705-4dfd-b4a7-6e88067904e8","ios":"levelo://app?vid=70b6b133-6705-4dfd-b4a7-6e88067904e8"},"vehicle_type_id":"4","last_reported":1744974495,"current_range_meters":10000,"station_id":"cpo36qri1sfpv3e86is0","pricing_plan_id":"cebpf4jnsgd1na2vs0mg"},{"bike_id":"5fddd535-ab4d-402f-9080-0ad0b96c0735","system_id":"levelo_inurba_marseille","lat":43.3094,"lon":5.36741,"is_reserved":false,"is_disabled":false,"rental_uris":{"android":"levelo://app?vid=5fddd535-ab4d-402f-9080-0ad0b96c0735","ios":"levelo://app?vid=5fddd535-ab4d-402f-9080-0ad0b96c0735"},"vehicle_type_id":"4","last_reported":1744974495,"current_range_meters":10000,"station_id":"","pricing_plan_id":"cebpf4jnsgd1na2vs0mg"},{"bike_id":"f5ac6b19-453f-4cd6-9691-c9324fc03e14","system_id":"levelo_inurba_marseille","lat":43.24177,"lon":5.39737,"is_reserved":false,"is_disabled":false,"rental_uris":{"android":"levelo://app?vid=f5ac6b19-453f-4cd6-9691-c9324fc03e14","ios":"levelo://app?vid=f5ac6b19-453f-4cd6-9691-c9324fc03e14"},"vehicle_type_id":"4","last_reported":1744974495,"current_range_meters":10000,"station_id":"ce4bhn12rcd13ifvqgpg","pricing_plan_id":"cebpf4jnsgd1na2vs0mg"},{"bike_id":"99c63e7a-6375-42aa-85f6-ba4f1eca470d","system_id":"levelo_inurba_marseille","lat":43.30938,"lon":5.40145,"is_reserved":false,"is_disabled":false,"rental_uris":{"android":"levelo://app?vid=99c63e7a-6375-42aa-85f6-ba4f1eca470d","ios":"levelo://app?vid=99c63e7a-6375-42aa-85f6-ba4f1eca470d"},"vehicle_type_id":"4","last_reported":1744974495,"current_range_meters":10000,"station_id":"ce4bgvp2rcd13ifvqct0","pricing_plan_id":"cebpf4jnsgd1na2vs0mg"},{"bike_id":"5e08de35-3e0c-4d5f-b69b-a662212c4dac","system_id":"levelo_inurba_marseille","lat":43.24192,"lon":5.39708,"is_reserved":false,"is_disabled":false,"rental_uris":{"android":"levelo://app?vid=5e08de35-3e0c-4d5f-b69b-a662212c4dac","ios":"levelo://app?vid=5e08de35-3e0c-4d5f-b69b-a662212c4dac"},"vehicle_type_id":"4","last_reported":1744974495,"current_range_meters":10000,"station_id":"ce4bhn12rcd13ifvqgpg","pricing_plan_id":"cebpf4jnsgd1na2vs0mg"},{"bike_id":"d7e9d8be-e49c-45a8-80f8-1f65bfb83645","system_id":"levelo_inurba_marseille","lat":43.235866,"lon":5.403456,"is_reserved":false,"is_disabled":false,"rental_uris":{"android":"levelo://app?vid=d7e9d8be-e49c-45a8-80f8-1f65bfb83645","ios":"levelo://app?vid=d7e9d8be-e49c-45a8-80f8-1f65bfb83645"},"vehicle_type_id":"4","last_reported":1744974495,"current_range_meters":10000,"station_id":"","pricing_plan_id":"cebpf4jnsgd1na2vs0mg"},{"bike_id":"6edae6e8-68d1-447b-bc9a-f33f449be267","system_id":"levelo_inurba_marseille","lat":43.2395,"lon":5.36641,"is_reserved":false,"is_disabled":false,"rental_uris":{"android":"levelo://app?vid=6edae6e8-68d1-447b-bc9a-f33f449be267","ios":"levelo://app?vid=6edae6e8-68d1-447b-bc9a-f33f449be267"},"vehicle_type_id":"4","last_reported":1744974495,"current_range_meters":10000,"station_id":"ce4bhi12rcd13ifvqfp0","pricing_plan_id":"cebpf4jnsgd1na2vs0mg"},{"bike_id":"faf6f6f9-3884-46b8-87cd-5a5e53e99bef","system_id":"levelo_inurba_marseille","lat":43.21198,"lon":5.35063,"is_reserved":false,"is_disabled":false,"rental_uris":{"android":"levelo://app?vid=faf6f6f9-3884-46b8-87cd-5a5e53e99bef","ios":"levelo://app?vid=faf6f6f9-3884-46b8-87cd-5a5e53e99bef"},"vehicle_type_id":"4","last_reported":1744974495,"current_range_meters":10800,"station_id":"st_cvj6sg6p6f1abm77japg","pricing_plan_id":"cebpf4jnsgd1na2vs0mg"},{"bike_id":"1e954ebd-6f87-4cd4-8c0c-e1f08423f7c4","system_id":"levelo_inurba_marseille","lat":43.2993,"lon":5.36504,"is_reserved":false,"is_disabled":false,"rental_uris":{"android":"levelo://app?vid=1e954ebd-6f87-4cd4-8c0c-e1f08423f7c4","ios":"levelo://app?vid=1e954ebd-6f87-4cd4-8c0c-e1f08423f7c4"},"vehicle_type_id":"4","last_reported":1744974495,"current_range_meters":10800,"station_id":"ce4bgm92rcd13ifvqbr0","pricing_plan_id":"cebpf4jnsgd1na2vs0mg"},{"bike_id":"3d6ad01f-e233-4ed4-bd4b-9dd88ce78cb3","system_id":"levelo_inurba_marseille","lat":43.29771,"lon":5.36452,"is_reserved":false,"is_disabled":false,"rental_uris":{"android":"levelo://app?vid=3d6ad01f-e233-4ed4-bd4b-9dd88ce78cb3","ios":"levelo://app?vid=3d6ad01f-e233-4ed4-bd4b-9dd88ce78cb3"},"vehicle_type_id":"4","last_reported":1744974495,"current_range_meters":10800,"station_id":"","pricing_plan_id":"cebpf4jnsgd1na2vs0mg"},{"bike_id":"bcf86aa7-e774-4696-a56d-4b71ad15ff33","system_id":"levelo_inurba_marseille","lat":43.301318,"lon":5.398655,"is_reserved":false,"is_disabled":false,"rental_uris":{"android":"levelo://app?vid=bcf86aa7-e774-4696-a56d-4b71ad15ff33","ios":"levelo://app?vid=bcf86aa7-e774-4696-a56d-4b71ad15ff33"},"vehicle_type_id":"4","last_reported":1744974495,"current_range_meters":11200,"station_id":"ce4bho92rcd13ifvqh3g","pricing_plan_id":"cebpf4jnsgd1na2vs0mg"},{"bike_id":"1210dc72-37b8-49f7-b249-6faa54daba28","system_id":"levelo_inurba_marseille","lat":43.32366,"lon":5.36766,"is_reserved":false,"is_disabled":false,"rental_uris":{"android":"levelo://app?vid=1210dc72-37b8-49f7-b249-6faa54daba28","ios":"levelo://app?vid=1210dc72-37b8-49f7-b249-6faa54daba28"},"vehicle_type_id":"4","last_reported":1744974495,"current_range_meters":11200,"station_id":"ce4bhsh2rcd13ifvqi2g","pricing_plan_id":"cebpf4jnsgd1na2vs0mg"},{"bike_id":"0bfb7c26-7f4b-4e0f-874c-f80bb459c57d","system_id":"levelo_inurba_marseille","lat":43.29197,"lon":5.35804,"is_reserved":false,"is_disabled":false,"rental_uris":{"android":"levelo://app?vid=0bfb7c26-7f4b-4e0f-874c-f80bb459c57d","ios":"levelo://app?vid=0bfb7c26-7f4b-4e0f-874c-f80bb459c57d"},"vehicle_type_id":"4","last_reported":1744974495,"current_range_meters":11200,"station_id":"ce4bhb12rcd13ifvqel0","pricing_plan_id":"cebpf4jnsgd1na2vs0mg"},{"bike_id":"55898e26-4af3-4d7e-82ec-e55b9aeeb563","system_id":"levelo_inurba_marseille","lat":43.30469,"lon":5.37912,"is_reserved":false,"is_disabled":false,"rental_uris":{"android":"levelo://app?vid=55898e26-4af3-4d7e-82ec-e55b9aeeb563","ios":"levelo://app?vid=55898e26-4af3-4d7e-82ec-e55b9aeeb563"},"vehicle_type_id":"4","last_reported":1744974495,"current_range_meters":11200,"station_id":"ce4bgup2rcd13ifvqcn0","pricing_plan_id":"cebpf4jnsgd1na2vs0mg"},{"bike_id":"80e897ed-764d-4553-8a10-27cd3972481d","system_id":"levelo_inurba_marseille","lat":43.30952,"lon":5.39028,"is_reserved":false,"is_disabled":true,"rental_uris":{"android":"levelo://app?vid=80e897ed-764d-4553-8a10-27cd3972481d","ios":"levelo://app?vid=80e897ed-764d-4553-8a10-27cd3972481d"},"vehicle_type_id":"4","last_reported":1744974495,"current_range_meters":11600,"station_id":"ce4bgup2rcd13ifvqco0","pricing_plan_id":"cebpf4jnsgd1na2vs0mg"},{"bike_id":"91b0f96d-1a6e-4e28-98b9-2c86f2485aee","system_id":"levelo_inurba_marseille","lat":43.32416,"lon":5.39048,"is_reserved":false,"is_disabled":false,"rental_uris":{"android":"levelo://app?vid=91b0f96d-1a6e-4e28-98b9-2c86f2485aee","ios":"levelo://app?vid=91b0f96d-1a6e-4e28-98b9-2c86f2485aee"},"vehicle_type_id":"4","last_reported":1744974495,"current_range_meters":11600,"station_id":"","pricing_plan_id":"cebpf4jnsgd1na2vs0mg"},{"bike_id":"b0b19541-bb2e-410a-a22e-c4cc9d1a462f","system_id":"levelo_inurba_marseille","lat":43.29006,"lon":5.35618,"is_reserved":false,"is_disabled":false,"rental_uris":{"android":"levelo://app?vid=b0b19541-bb2e-410a-a22e-c4cc9d1a462f","ios":"levelo://app?vid=b0b19541-bb2e-410a-a22e-c4cc9d1a462f"},"vehicle_type_id":"4","last_reported":1744974495,"current_range_meters":11600,"station_id":"ce4bhb92rcd13ifvqen0","pricing_plan_id":"cebpf4jnsgd1na2vs0mg"},{"bike_id":"f720e68a-58c8-440f-bcbc-822e9ccaaecb","system_id":"levelo_inurba_marseille","lat":43.29936,"lon":5.36557,"is_reserved":false,"is_disabled":false,"rental_uris":{"android":"levelo://app?vid=f720e68a-58c8-440f-bcbc-822e9ccaaecb","ios":"levelo://app?vid=f720e68a-58c8-440f-bcbc-822e9ccaaecb"},"vehicle_type_id":"4","last_reported":1744974495,"current_range_meters":11600,"station_id":"ce4bgm92rcd13ifvqbr0","pricing_plan_id":"cebpf4jnsgd1na2vs0mg"},{"bike_id":"f13299ce-b43b-4d68-ad51-6d4ce23fa80d","system_id":"levelo_inurba_marseille","lat":43.29623,"lon":5.37174,"is_reserved":false,"is_disabled":false,"rental_uris":{"android":"levelo://app?vid=f13299ce-b43b-4d68-ad51-6d4ce23fa80d","ios":"levelo://app?vid=f13299ce-b43b-4d68-ad51-6d4ce23fa80d"},"vehicle_type_id":"4","last_reported":1744974495,"current_range_meters":11600,"station_id":"ce4bgnh2rcd13ifvqc0g","pricing_plan_id":"cebpf4jnsgd1na2vs0mg"},{"bike_id":"f04e0bd7-7688-45f4-ba37-031ddbc032b2","system_id":"levelo_inurba_marseille","lat":43.30309,"lon":5.36883,"is_reserved":false,"is_disabled":false,"rental_uris":{"android":"levelo://app?vid=f04e0bd7-7688-45f4-ba37-031ddbc032b2","ios":"levelo://app?vid=f04e0bd7-7688-45f4-ba37-031ddbc032b2"},"vehicle_type_id":"4","last_reported":1744974495,"current_range_meters":12000,"station_id":"ce4bgqh2rcd13ifvqc5g","pricing_plan_id":"cebpf4jnsgd1na2vs0mg"},{"bike_id":"7ed91d22-3d5b-4254-83bf-64eb2a7d5481","system_id":"levelo_inurba_marseille","lat":43.22499,"lon":5.34781,"is_reserved":false,"is_disabled":false,"rental_uris":{"android":"levelo://app?vid=7ed91d22-3d5b-4254-83bf-64eb2a7d5481","ios":"levelo://app?vid=7ed91d22-3d5b-4254-83bf-64eb2a7d5481"},"vehicle_type_id":"4","last_reported":1744974495,"current_range_meters":12000,"station_id":"","pricing_plan_id":"cebpf4jnsgd1na2vs0mg"},{"bike_id":"9ccc1250-0ff6-4acc-bd2f-67431ef76582","system_id":"levelo_inurba_marseille","lat":43.28423,"lon":5.34991,"is_reserved":false,"is_disabled":false,"rental_uris":{"android":"levelo://app?vid=9ccc1250-0ff6-4acc-bd2f-67431ef76582","ios":"levelo://app?vid=9ccc1250-0ff6-4acc-bd2f-67431ef76582"},"vehicle_type_id":"4","last_reported":1744974495,"current_range_meters":12000,"station_id":"ce4bhbh2rcd13ifvqepg","pricing_plan_id":"cebpf4jnsgd1na2vs0mg"},{"bike_id":"5af3b7a4-5b09-4721-b0a4-0223a8a9dda6","system_id":"levelo_inurba_marseille","lat":43.29046,"lon":5.3998,"is_reserved":false,"is_disabled":false,"rental_uris":{"android":"levelo://app?vid=5af3b7a4-5b09-4721-b0a4-0223a8a9dda6","ios":"levelo://app?vid=5af3b7a4-5b09-4721-b0a4-0223a8a9dda6"},"vehicle_type_id":"4","last_reported":1744974495,"current_range_meters":12000,"station_id":"ce4bh392rcd13ifvqdm0","pricing_plan_id":"cebpf4jnsgd1na2vs0mg"},{"bike_id":"397aa98a-9e95-44d5-b872-9acc43faf340","system_id":"levelo_inurba_marseille","lat":43.28617,"lon":5.35103,"is_reserved":false,"is_disabled":false,"rental_uris":{"android":"levelo://app?vid=397aa98a-9e95-44d5-b872-9acc43faf340","ios":"levelo://app?vid=397aa98a-9e95-44d5-b872-9acc43faf340"},"vehicle_type_id":"4","last_reported":1744974495,"current_range_meters":12000,"station_id":"ce4bhch2rcd13ifvqeug","pricing_plan_id":"cebpf4jnsgd1na2vs0mg"},{"bike_id":"b4eb4f44-6353-4e2f-bd19-a56fb2932091","system_id":"levelo_inurba_marseille","lat":43.32043,"lon":5.41543,"is_reserved":false,"is_disabled":false,"rental_uris":{"android":"levelo://app?vid=b4eb4f44-6353-4e2f-bd19-a56fb2932091","ios":"levelo://app?vid=b4eb4f44-6353-4e2f-bd19-a56fb2932091"},"vehicle_type_id":"4","last_reported":1744974495,"current_range_meters":12000,"station_id":"ce4bhq92rcd13ifvqhkg","pricing_plan_id":"cebpf4jnsgd1na2vs0mg"},{"bike_id":"4f634c41-0a80-4b8a-af51-b34d5bf8bce1","system_id":"levelo_inurba_marseille","lat":43.30796,"lon":5.38163,"is_reserved":false,"is_disabled":false,"rental_uris":{"android":"levelo://app?vid=4f634c41-0a80-4b8a-af51-b34d5bf8bce1","ios":"levelo://app?vid=4f634c41-0a80-4b8a-af51-b34d5bf8bce1"},"vehicle_type_id":"4","last_reported":1744974495,"current_range_meters":12400,"station_id":"ce4bgt12rcd13ifvqce0","pricing_plan_id":"cebpf4jnsgd1na2vs0mg"},{"bike_id":"fdb736b6-d23f-4fa0-8b91-7424bf67be26","system_id":"levelo_inurba_marseille","lat":43.341353,"lon":5.409246,"is_reserved":false,"is_disabled":false,"rental_uris":{"android":"levelo://app?vid=fdb736b6-d23f-4fa0-8b91-7424bf67be26","ios":"levelo://app?vid=fdb736b6-d23f-4fa0-8b91-7424bf67be26"},"vehicle_type_id":"4","last_reported":1744974495,"current_range_meters":12400,"station_id":"ce4bhqh2rcd13ifvqhlg","pricing_plan_id":"cebpf4jnsgd1na2vs0mg"},{"bike_id":"bfbca0f6-45b6-4e61-9eef-e0bd9331a0e7","system_id":"levelo_inurba_marseille","lat":43.254968,"lon":5.376461,"is_reserved":false,"is_disabled":false,"rental_uris":{"android":"levelo://app?vid=bfbca0f6-45b6-4e61-9eef-e0bd9331a0e7","ios":"levelo://app?vid=bfbca0f6-45b6-4e61-9eef-e0bd9331a0e7"},"vehicle_type_id":"4","last_reported":1744974495,"current_range_meters":12800,"station_id":"ce4bhh12rcd13ifvqff0","pricing_plan_id":"cebpf4jnsgd1na2vs0mg"},{"bike_id":"1eaca8f5-0017-418a-9bfc-52185bf67513","system_id":"levelo_inurba_marseille","lat":43.33728,"lon":5.39185,"is_reserved":false,"is_disabled":false,"rental_uris":{"android":"levelo://app?vid=1eaca8f5-0017-418a-9bfc-52185bf67513","ios":"levelo://app?vid=1eaca8f5-0017-418a-9bfc-52185bf67513"},"vehicle_type_id":"4","last_reported":1744974495,"current_range_meters":12800,"station_id":"ce4bhr92rcd13ifvqhsg","pricing_plan_id":"cebpf4jnsgd1na2vs0mg"},{"bike_id":"db5baf35-1447-43e6-b731-621ceb299a4f","system_id":"levelo_inurba_marseille","lat":43.262134,"lon":5.374412,"is_reserved":false,"is_disabled":false,"rental_uris":{"android":"levelo://app?vid=db5baf35-1447-43e6-b731-621ceb299a4f","ios":"levelo://app?vid=db5baf35-1447-43e6-b731-621ceb299a4f"},"vehicle_type_id":"4","last_reported":1744974495,"current_range_meters":12800,"station_id":"ce4bgnh2rcd13ifvqc0g","pricing_plan_id":"cebpf4jnsgd1na2vs0mg"},{"bike_id":"db32341c-a97d-477a-b109-905fc0f79284","system_id":"levelo_inurba_marseille","lat":43.278736,"lon":5.407382,"is_reserved":false,"is_disabled":false,"rental_uris":{"android":"levelo://app?vid=db32341c-a97d-477a-b109-905fc0f79284","ios":"levelo://app?vid=db32341c-a97d-477a-b109-905fc0f79284"},"vehicle_type_id":"4","last_reported":1744974495,"current_range_meters":12800,"station_id":"ce4bho92rcd13ifvqh3g","pricing_plan_id":"cebpf4jnsgd1na2vs0mg"},{"bike_id":"8c9cb089-ecfb-4b82-a678-09b0f352f9b9","system_id":"levelo_inurba_marseille","lat":43.2315,"lon":5.43709,"is_reserved":false,"is_disabled":false,"rental_uris":{"android":"levelo://app?vid=8c9cb089-ecfb-4b82-a678-09b0f352f9b9","ios":"levelo://app?vid=8c9cb089-ecfb-4b82-a678-09b0f352f9b9"},"vehicle_type_id":"4","last_reported":1744974495,"current_range_meters":12800,"station_id":"ce4bhmp2rcd13ifvqgog","pricing_plan_id":"cebpf4jnsgd1na2vs0mg"},{"bike_id":"322cd8c1-4afd-4444-8756-d81641ac0274","system_id":"levelo_inurba_marseille","lat":43.23196,"lon":5.35555,"is_reserved":false,"is_disabled":false,"rental_uris":{"android":"levelo://app?vid=322cd8c1-4afd-4444-8756-d81641ac0274","ios":"levelo://app?vid=322cd8c1-4afd-4444-8756-d81641ac0274"},"vehicle_type_id":"4","last_reported":1744974495,"current_range_meters":13600,"station_id":"ce4bhu92rcd13ifvqi70","pricing_plan_id":"cebpf4jnsgd1na2vs0mg"},{"bike_id":"bbb1c662-cc65-4c72-8489-de78d2f0f12f","system_id":"levelo_inurba_marseille","lat":43.23058,"lon":5.35492,"is_reserved":false,"is_disabled":false,"rental_uris":{"android":"levelo://app?vid=bbb1c662-cc65-4c72-8489-de78d2f0f12f","ios":"levelo://app?vid=bbb1c662-cc65-4c72-8489-de78d2f0f12f"},"vehicle_type_id":"4","last_reported":1744974495,"current_range_meters":13600,"station_id":"cpo3342slgdg3j2ifvpg","pricing_plan_id":"cebpf4jnsgd1na2vs0mg"},{"bike_id":"3a232255-511f-4f3c-b595-6e6cc7385819","system_id":"levelo_inurba_marseille","lat":43.29795,"lon":5.40402,"is_reserved":false,"is_disabled":false,"rental_uris":{"android":"levelo://app?vid=3a232255-511f-4f3c-b595-6e6cc7385819","ios":"levelo://app?vid=3a232255-511f-4f3c-b595-6e6cc7385819"},"vehicle_type_id":"4","last_reported":1744974495,"current_range_meters":13600,"station_id":"ce4bh112rcd13ifvqd90","pricing_plan_id":"cebpf4jnsgd1na2vs0mg"},{"bike_id":"0d5d7404-98dd-4d53-8fde-1b51985dd2d0","system_id":"levelo_inurba_marseille","lat":43.21749,"lon":5.34602,"is_reserved":false,"is_disabled":false,"rental_uris":{"android":"levelo://app?vid=0d5d7404-98dd-4d53-8fde-1b51985dd2d0","ios":"levelo://app?vid=0d5d7404-98dd-4d53-8fde-1b51985dd2d0"},"vehicle_type_id":"4","last_reported":1744974495,"current_range_meters":13600,"station_id":"st_cvj6r9ubvosntc0bgbag","pricing_plan_id":"cebpf4jnsgd1na2vs0mg"},{"bike_id":"934a8fc0-98f8-4aaf-a145-d485dee937c7","system_id":"levelo_inurba_marseille","lat":43.32368,"lon":5.36759,"is_reserved":false,"is_disabled":false,"rental_uris":{"android":"levelo://app?vid=934a8fc0-98f8-4aaf-a145-d485dee937c7","ios":"levelo://app?vid=934a8fc0-98f8-4aaf-a145-d485dee937c7"},"vehicle_type_id":"4","last_reported":1744974495,"current_range_meters":13600,"station_id":"ce4bhsh2rcd13ifvqi2g","pricing_plan_id":"cebpf4jnsgd1na2vs0mg"},{"bike_id":"a0ddb0a5-f7f0-4281-aa27-9e82747cc573","system_id":"levelo_inurba_marseille","lat":43.33754,"lon":5.37491,"is_reserved":false,"is_disabled":false,"rental_uris":{"android":"levelo://app?vid=a0ddb0a5-f7f0-4281-aa27-9e82747cc573","ios":"levelo://app?vid=a0ddb0a5-f7f0-4281-aa27-9e82747cc573"},"vehicle_type_id":"4","last_reported":1744974495,"current_range_meters":13600,"station_id":"","pricing_plan_id":"cebpf4jnsgd1na2vs0mg"},{"bike_id":"3c609c1b-1545-4ce9-9426-3f1acf7c0731","system_id":"levelo_inurba_marseille","lat":43.25005,"lon":5.3891,"is_reserved":false,"is_disabled":false,"rental_uris":{"android":"levelo://app?vid=3c609c1b-1545-4ce9-9426-3f1acf7c0731","ios":"levelo://app?vid=3c609c1b-1545-4ce9-9426-3f1acf7c0731"},"vehicle_type_id":"4","last_reported":1744974495,"current_range_meters":14000,"station_id":"ce4bhgp2rcd13ifvqfd0","pricing_plan_id":"cebpf4jnsgd1na2vs0mg"},{"bike_id":"9fe6b68c-b08e-4d81-8c7d-760938ace4d6","system_id":"levelo_inurba_marseille","lat":43.29216,"lon":5.36066,"is_reserved":false,"is_disabled":false,"rental_uris":{"android":"levelo://app?vid=9fe6b68c-b08e-4d81-8c7d-760938ace4d6","ios":"levelo://app?vid=9fe6b68c-b08e-4d81-8c7d-760938ace4d6"},"vehicle_type_id":"4","last_reported":1744974495,"current_range_meters":14000,"station_id":"ce4bhbh2rcd13ifvqeqg","pricing_plan_id":"cebpf4jnsgd1na2vs0mg"},{"bike_id":"e6f0e97c-8c16-4c71-9180-3356dda12dd6","system_id":"levelo_inurba_marseille","lat":43.28462,"lon":5.35898,"is_reserved":false,"is_disabled":false,"rental_uris":{"android":"levelo://app?vid=e6f0e97c-8c16-4c71-9180-3356dda12dd6","ios":"levelo://app?vid=e6f0e97c-8c16-4c71-9180-3356dda12dd6"},"vehicle_type_id":"4","last_reported":1744974495,"current_range_meters":14000,"station_id":"ce4bhah2rcd13ifvqei0","pricing_plan_id":"cebpf4jnsgd1na2vs0mg"},{"bike_id":"bd492354-2d79-4427-82ee-84e4a12dea30","system_id":"levelo_inurba_marseille","lat":43.21207,"lon":5.35078,"is_reserved":false,"is_disabled":false,"rental_uris":{"android":"levelo://app?vid=bd492354-2d79-4427-82ee-84e4a12dea30","ios":"levelo://app?vid=bd492354-2d79-4427-82ee-84e4a12dea30"},"vehicle_type_id":"4","last_reported":1744974495,"current_range_meters":14000,"station_id":"st_cvj6sg6p6f1abm77japg","pricing_plan_id":"cebpf4jnsgd1na2vs0mg"},{"bike_id":"0412a1ca-4def-4ac7-bfaa-effc8cbb5510","system_id":"levelo_inurba_marseille","lat":43.22925,"lon":5.35385,"is_reserved":false,"is_disabled":false,"rental_uris":{"android":"levelo://app?vid=0412a1ca-4def-4ac7-bfaa-effc8cbb5510","ios":"levelo://app?vid=0412a1ca-4def-4ac7-bfaa-effc8cbb5510"},"vehicle_type_id":"4","last_reported":1744974495,"current_range_meters":14000,"station_id":"cpo3532slgdg3j2ikp40","pricing_plan_id":"cebpf4jnsgd1na2vs0mg"},{"bike_id":"4dbdb663-6ae9-4416-abee-6e1482cfda69","system_id":"levelo_inurba_marseille","lat":43.29849,"lon":5.36278,"is_reserved":false,"is_disabled":false,"rental_uris":{"android":"levelo://app?vid=4dbdb663-6ae9-4416-abee-6e1482cfda69","ios":"levelo://app?vid=4dbdb663-6ae9-4416-abee-6e1482cfda69"},"vehicle_type_id":"4","last_reported":1744974495,"current_range_meters":14000,"station_id":"ce4bgpp2rcd13ifvqc3g","pricing_plan_id":"cebpf4jnsgd1na2vs0mg"},{"bike_id":"e63623aa-352b-40c7-9217-7f007fbc26b2","system_id":"levelo_inurba_marseille","lat":43.29968,"lon":5.37184,"is_reserved":false,"is_disabled":false,"rental_uris":{"android":"levelo://app?vid=e63623aa-352b-40c7-9217-7f007fbc26b2","ios":"levelo://app?vid=e63623aa-352b-40c7-9217-7f007fbc26b2"},"vehicle_type_id":"4","last_reported":1744974495,"current_range_meters":14400,"station_id":"ce4bgr92rcd13ifvqc7g","pricing_plan_id":"cebpf4jnsgd1na2vs0mg"},{"bike_id":"470a599c-c83a-4c95-820f-e9905bae4791","system_id":"levelo_inurba_marseille","lat":43.225087,"lon":5.347908,"is_reserved":false,"is_disabled":false,"rental_uris":{"android":"levelo://app?vid=470a599c-c83a-4c95-820f-e9905bae4791","ios":"levelo://app?vid=470a599c-c83a-4c95-820f-e9905bae4791"},"vehicle_type_id":"4","last_reported":1744974495,"current_range_meters":14400,"station_id":"","pricing_plan_id":"cebpf4jnsgd1na2vs0mg"},{"bike_id":"a5576019-43e7-4c3f-9b3f-bda5c803876a","system_id":"levelo_inurba_marseille","lat":43.2418,"lon":5.39721,"is_reserved":false,"is_disabled":false,"rental_uris":{"android":"levelo://app?vid=a5576019-43e7-4c3f-9b3f-bda5c803876a","ios":"levelo://app?vid=a5576019-43e7-4c3f-9b3f-bda5c803876a"},"vehicle_type_id":"4","last_reported":1744974495,"current_range_meters":14400,"station_id":"ce4bhn12rcd13ifvqgpg","pricing_plan_id":"cebpf4jnsgd1na2vs0mg"},{"bike_id":"1cea5ba0-6958-4cd2-bd38-e64cc3131a08","system_id":"levelo_inurba_marseille","lat":43.29589,"lon":5.36733,"is_reserved":false,"is_disabled":false,"rental_uris":{"android":"levelo://app?vid=1cea5ba0-6958-4cd2-bd38-e64cc3131a08","ios":"levelo://app?vid=1cea5ba0-6958-4cd2-bd38-e64cc3131a08"},"vehicle_type_id":"4","last_reported":1744974495,"current_range_meters":14400,"station_id":"ce4bgph2rcd13ifvqc2g","pricing_plan_id":"cebpf4jnsgd1na2vs0mg"},{"bike_id":"ef9ac9d9-1f83-4fdd-a750-ab6df6cbc90e","system_id":"levelo_inurba_marseille","lat":43.30556,"lon":5.36539,"is_reserved":false,"is_disabled":false,"rental_uris":{"android":"levelo://app?vid=ef9ac9d9-1f83-4fdd-a750-ab6df6cbc90e","ios":"levelo://app?vid=ef9ac9d9-1f83-4fdd-a750-ab6df6cbc90e"},"vehicle_type_id":"4","last_reported":1744974495,"current_range_meters":14400,"station_id":"ce4bgs12rcd13ifvqcag","pricing_plan_id":"cebpf4jnsgd1na2vs0mg"},{"bike_id":"5ea3100f-c34b-4bbd-b4ea-bf9621895fc6","system_id":"levelo_inurba_marseille","lat":43.2955,"lon":5.4228,"is_reserved":false,"is_disabled":false,"rental_uris":{"android":"levelo://app?vid=5ea3100f-c34b-4bbd-b4ea-bf9621895fc6","ios":"levelo://app?vid=5ea3100f-c34b-4bbd-b4ea-bf9621895fc6"},"vehicle_type_id":"4","last_reported":1744974495,"current_range_meters":14800,"station_id":"ce4bhph2rcd13ifvqhdg","pricing_plan_id":"cebpf4jnsgd1na2vs0mg"},{"bike_id":"4becf1cb-3eb7-496f-875e-073c9c5f6cd1","system_id":"levelo_inurba_marseille","lat":43.29895,"lon":5.43669,"is_reserved":false,"is_disabled":false,"rental_uris":{"android":"levelo://app?vid=4becf1cb-3eb7-496f-875e-073c9c5f6cd1","ios":"levelo://app?vid=4becf1cb-3eb7-496f-875e-073c9c5f6cd1"},"vehicle_type_id":"4","last_reported":1744974495,"current_range_meters":14800,"station_id":"ce4bhpp2rcd13ifvqhfg","pricing_plan_id":"cebpf4jnsgd1na2vs0mg"},{"bike_id":"50d4a2c6-4a96-473e-8d34-d513024f852d","system_id":"levelo_inurba_marseille","lat":43.23963,"lon":5.3666,"is_reserved":false,"is_disabled":false,"rental_uris":{"android":"levelo://app?vid=50d4a2c6-4a96-473e-8d34-d513024f852d","ios":"levelo://app?vid=50d4a2c6-4a96-473e-8d34-d513024f852d"},"vehicle_type_id":"4","last_reported":1744974495,"current_range_meters":14800,"station_id":"ce4bhi12rcd13ifvqfp0","pricing_plan_id":"cebpf4jnsgd1na2vs0mg"},{"bike_id":"ef6e9c6f-8f69-4fcf-9727-b556a001e5bc","system_id":"levelo_inurba_marseille","lat":43.29555,"lon":5.42271,"is_reserved":false,"is_disabled":false,"rental_uris":{"android":"levelo://app?vid=ef6e9c6f-8f69-4fcf-9727-b556a001e5bc","ios":"levelo://app?vid=ef6e9c6f-8f69-4fcf-9727-b556a001e5bc"},"vehicle_type_id":"4","last_reported":1744974495,"current_range_meters":14800,"station_id":"ce4bhph2rcd13ifvqhdg","pricing_plan_id":"cebpf4jnsgd1na2vs0mg"},{"bike_id":"33efbe4e-e642-4271-be29-4926b421ca5b","system_id":"levelo_inurba_marseille","lat":43.242,"lon":5.36379,"is_reserved":false,"is_disabled":false,"rental_uris":{"android":"levelo://app?vid=33efbe4e-e642-4271-be29-4926b421ca5b","ios":"levelo://app?vid=33efbe4e-e642-4271-be29-4926b421ca5b"},"vehicle_type_id":"4","last_reported":1744974495,"current_range_meters":14800,"station_id":"cpo36qri1sfpv3e86is0","pricing_plan_id":"cebpf4jnsgd1na2vs0mg"},{"bike_id":"1df07e3f-3e36-47f8-87dc-ffc7a192995a","system_id":"levelo_inurba_marseille","lat":43.2175,"lon":5.34608,"is_reserved":false,"is_disabled":false,"rental_uris":{"android":"levelo://app?vid=1df07e3f-3e36-47f8-87dc-ffc7a192995a","ios":"levelo://app?vid=1df07e3f-3e36-47f8-87dc-ffc7a192995a"},"vehicle_type_id":"4","last_reported":1744974495,"current_range_meters":15200,"station_id":"st_cvj6r9ubvosntc0bgbag","pricing_plan_id":"cebpf4jnsgd1na2vs0mg"},{"bike_id":"ea2a52ec-6278-4db2-9d32-19def1f84a0c","system_id":"levelo_inurba_marseille","lat":43.292262,"lon":5.360546,"is_reserved":false,"is_disabled":false,"rental_uris":{"android":"levelo://app?vid=ea2a52ec-6278-4db2-9d32-19def1f84a0c","ios":"levelo://app?vid=ea2a52ec-6278-4db2-9d32-19def1f84a0c"},"vehicle_type_id":"4","last_reported":1744974495,"current_range_meters":15200,"station_id":"ce4bhbh2rcd13ifvqeqg","pricing_plan_id":"cebpf4jnsgd1na2vs0mg"},{"bike_id":"d0e2cda6-d2c6-4b7b-80aa-bb30d69233ed","system_id":"levelo_inurba_marseille","lat":43.23151,"lon":5.43712,"is_reserved":false,"is_disabled":false,"rental_uris":{"android":"levelo://app?vid=d0e2cda6-d2c6-4b7b-80aa-bb30d69233ed","ios":"levelo://app?vid=d0e2cda6-d2c6-4b7b-80aa-bb30d69233ed"},"vehicle_type_id":"4","last_reported":1744974495,"current_range_meters":15200,"station_id":"ce4bhmp2rcd13ifvqgog","pricing_plan_id":"cebpf4jnsgd1na2vs0mg"},{"bike_id":"7eb8853e-3665-40f5-8308-1299f0674652","system_id":"levelo_inurba_marseille","lat":43.3038,"lon":5.42479,"is_reserved":false,"is_disabled":false,"rental_uris":{"android":"levelo://app?vid=7eb8853e-3665-40f5-8308-1299f0674652","ios":"levelo://app?vid=7eb8853e-3665-40f5-8308-1299f0674652"},"vehicle_type_id":"4","last_reported":1744974495,"current_range_meters":15200,"station_id":"ce4bhoh2rcd13ifvqh6g","pricing_plan_id":"cebpf4jnsgd1na2vs0mg"},{"bike_id":"f9d3fbe6-73e5-424e-af02-f446d5b07152","system_id":"levelo_inurba_marseille","lat":43.21753,"lon":5.34608,"is_reserved":false,"is_disabled":false,"rental_uris":{"android":"levelo://app?vid=f9d3fbe6-73e5-424e-af02-f446d5b07152","ios":"levelo://app?vid=f9d3fbe6-73e5-424e-af02-f446d5b07152"},"vehicle_type_id":"4","last_reported":1744974495,"current_range_meters":15200,"station_id":"st_cvj6r9ubvosntc0bgbag","pricing_plan_id":"cebpf4jnsgd1na2vs0mg"},{"bike_id":"c6525b00-a980-408d-a69e-4561d1c1c9eb","system_id":"levelo_inurba_marseille","lat":43.28156,"lon":5.42648,"is_reserved":false,"is_disabled":false,"rental_uris":{"android":"levelo://app?vid=c6525b00-a980-408d-a69e-4561d1c1c9eb","ios":"levelo://app?vid=c6525b00-a980-408d-a69e-4561d1c1c9eb"},"vehicle_type_id":"4","last_reported":1744974495,"current_range_meters":15200,"station_id":"ce4bhnh2rcd13ifvqgug","pricing_plan_id":"cebpf4jnsgd1na2vs0mg"},{"bike_id":"e06aea4b-d6b2-43f4-9519-38646c2b25aa","system_id":"levelo_inurba_marseille","lat":43.29416,"lon":5.386199,"is_reserved":false,"is_disabled":false,"rental_uris":{"android":"levelo://app?vid=e06aea4b-d6b2-43f4-9519-38646c2b25aa","ios":"levelo://app?vid=e06aea4b-d6b2-43f4-9519-38646c2b25aa"},"vehicle_type_id":"4","last_reported":1744974495,"current_range_meters":16000,"station_id":"ce4bh0h2rcd13ifvqd50","pricing_plan_id":"cebpf4jnsgd1na2vs0mg"},{"bike_id":"68342d9f-f0b6-47e7-b690-b27078e67a77","system_id":"levelo_inurba_marseille","lat":43.24164,"lon":5.36395,"is_reserved":false,"is_disabled":false,"rental_uris":{"android":"levelo://app?vid=68342d9f-f0b6-47e7-b690-b27078e67a77","ios":"levelo://app?vid=68342d9f-f0b6-47e7-b690-b27078e67a77"},"vehicle_type_id":"4","last_reported":1744974495,"current_range_meters":16000,"station_id":"cpo36qri1sfpv3e86is0","pricing_plan_id":"cebpf4jnsgd1na2vs0mg"},{"bike_id":"60b035ab-83a8-4843-b9b8-dd9d055d847d","system_id":"levelo_inurba_marseille","lat":43.229292,"lon":5.353763,"is_reserved":false,"is_disabled":false,"rental_uris":{"android":"levelo://app?vid=60b035ab-83a8-4843-b9b8-dd9d055d847d","ios":"levelo://app?vid=60b035ab-83a8-4843-b9b8-dd9d055d847d"},"vehicle_type_id":"4","last_reported":1744974495,"current_range_meters":16000,"station_id":"cpo3532slgdg3j2ikp40","pricing_plan_id":"cebpf4jnsgd1na2vs0mg"},{"bike_id":"7741b88d-d69e-415f-a640-c5adf5320f19","system_id":"levelo_inurba_marseille","lat":43.27316,"lon":5.39084,"is_reserved":false,"is_disabled":false,"rental_uris":{"android":"levelo://app?vid=7741b88d-d69e-415f-a640-c5adf5320f19","ios":"levelo://app?vid=7741b88d-d69e-415f-a640-c5adf5320f19"},"vehicle_type_id":"4","last_reported":1744974495,"current_range_meters":16000,"station_id":"ce4bhgp2rcd13ifvqfe0","pricing_plan_id":"cebpf4jnsgd1na2vs0mg"},{"bike_id":"030978cd-eddc-40be-b582-b7fe69c6a341","system_id":"levelo_inurba_marseille","lat":43.30473,"lon":5.37888,"is_reserved":false,"is_disabled":false,"rental_uris":{"android":"levelo://app?vid=030978cd-eddc-40be-b582-b7fe69c6a341","ios":"levelo://app?vid=030978cd-eddc-40be-b582-b7fe69c6a341"},"vehicle_type_id":"4","last_reported":1744974495,"current_range_meters":16000,"station_id":"ce4bgup2rcd13ifvqcn0","pricing_plan_id":"cebpf4jnsgd1na2vs0mg"},{"bike_id":"54c18ae4-fb9e-4f9c-8e98-a792665bc160","system_id":"levelo_inurba_marseille","lat":43.32097,"lon":5.36786,"is_reserved":false,"is_disabled":false,"rental_uris":{"android":"levelo://app?vid=54c18ae4-fb9e-4f9c-8e98-a792665bc160","ios":"levelo://app?vid=54c18ae4-fb9e-4f9c-8e98-a792665bc160"},"vehicle_type_id":"4","last_reported":1744974495,"current_range_meters":16000,"station_id":"ce4bhrh2rcd13ifvqhug","pricing_plan_id":"cebpf4jnsgd1na2vs0mg"},{"bike_id":"03650c45-0174-4b91-8587-2d45b43f952f","system_id":"levelo_inurba_marseille","lat":43.23958,"lon":5.36617,"is_reserved":false,"is_disabled":false,"rental_uris":{"android":"levelo://app?vid=03650c45-0174-4b91-8587-2d45b43f952f","ios":"levelo://app?vid=03650c45-0174-4b91-8587-2d45b43f952f"},"vehicle_type_id":"4","last_reported":1744974495,"current_range_meters":16400,"station_id":"ce4bhi12rcd13ifvqfp0","pricing_plan_id":"cebpf4jnsgd1na2vs0mg"},{"bike_id":"bfcf2105-e64e-4d38-ae8d-3fcb9ea13d74","system_id":"levelo_inurba_marseille","lat":43.28272,"lon":5.35068,"is_reserved":false,"is_disabled":false,"rental_uris":{"android":"levelo://app?vid=bfcf2105-e64e-4d38-ae8d-3fcb9ea13d74","ios":"levelo://app?vid=bfcf2105-e64e-4d38-ae8d-3fcb9ea13d74"},"vehicle_type_id":"4","last_reported":1744974495,"current_range_meters":16400,"station_id":"ce4bhbp2rcd13ifvqerg","pricing_plan_id":"cebpf4jnsgd1na2vs0mg"},{"bike_id":"bb3f1354-5aab-422c-80fb-9edf88b809aa","system_id":"levelo_inurba_marseille","lat":43.225042,"lon":5.347815,"is_reserved":false,"is_disabled":false,"rental_uris":{"android":"levelo://app?vid=bb3f1354-5aab-422c-80fb-9edf88b809aa","ios":"levelo://app?vid=bb3f1354-5aab-422c-80fb-9edf88b809aa"},"vehicle_type_id":"4","last_reported":1744974495,"current_range_meters":16400,"station_id":"","pricing_plan_id":"cebpf4jnsgd1na2vs0mg"},{"bike_id":"789c3822-56ca-4769-bcd4-8845bdea2fda","system_id":"levelo_inurba_marseille","lat":43.24185,"lon":5.36383,"is_reserved":false,"is_disabled":false,"rental_uris":{"android":"levelo://app?vid=789c3822-56ca-4769-bcd4-8845bdea2fda","ios":"levelo://app?vid=789c3822-56ca-4769-bcd4-8845bdea2fda"},"vehicle_type_id":"4","last_reported":1744974495,"current_range_meters":16400,"station_id":"cpo36qri1sfpv3e86is0","pricing_plan_id":"cebpf4jnsgd1na2vs0mg"},{"bike_id":"51b95633-670a-4c09-bc14-2b0f1e6f6a22","system_id":"levelo_inurba_marseille","lat":43.28858,"lon":5.358452,"is_reserved":false,"is_disabled":false,"rental_uris":{"android":"levelo://app?vid=51b95633-670a-4c09-bc14-2b0f1e6f6a22","ios":"levelo://app?vid=51b95633-670a-4c09-bc14-2b0f1e6f6a22"},"vehicle_type_id":"4","last_reported":1744974495,"current_range_meters":16400,"station_id":"ce4bhb12rcd13ifvqem0","pricing_plan_id":"cebpf4jnsgd1na2vs0mg"},{"bike_id":"07006dad-1eac-4c5b-8e9f-977d282a6f86","system_id":"levelo_inurba_marseille","lat":43.3073,"lon":5.4243,"is_reserved":false,"is_disabled":false,"rental_uris":{"android":"levelo://app?vid=07006dad-1eac-4c5b-8e9f-977d282a6f86","ios":"levelo://app?vid=07006dad-1eac-4c5b-8e9f-977d282a6f86"},"vehicle_type_id":"4","last_reported":1744974495,"current_range_meters":16400,"station_id":"st_cvj6ca6bvosntc0bfgr0","pricing_plan_id":"cebpf4jnsgd1na2vs0mg"},{"bike_id":"a1183122-2c11-405c-8c55-e035bd8761a2","system_id":"levelo_inurba_marseille","lat":43.27372,"lon":5.36254,"is_reserved":false,"is_disabled":false,"rental_uris":{"android":"levelo://app?vid=a1183122-2c11-405c-8c55-e035bd8761a2","ios":"levelo://app?vid=a1183122-2c11-405c-8c55-e035bd8761a2"},"vehicle_type_id":"4","last_reported":1744974495,"current_range_meters":16400,"station_id":"ce4bhbh2rcd13ifvqeo0","pricing_plan_id":"cebpf4jnsgd1na2vs0mg"},{"bike_id":"782db3f8-bdab-4544-8575-27ef42251d0b","system_id":"levelo_inurba_marseille","lat":43.24168,"lon":5.36405,"is_reserved":false,"is_disabled":false,"rental_uris":{"android":"levelo://app?vid=782db3f8-bdab-4544-8575-27ef42251d0b","ios":"levelo://app?vid=782db3f8-bdab-4544-8575-27ef42251d0b"},"vehicle_type_id":"4","last_reported":1744974495,"current_range_meters":16400,"station_id":"cpo36qri1sfpv3e86is0","pricing_plan_id":"cebpf4jnsgd1na2vs0mg"},{"bike_id":"d53ba0f2-e088-4512-933a-7e4bc731ac91","system_id":"levelo_inurba_marseille","lat":43.28459,"lon":5.35893,"is_reserved":false,"is_disabled":false,"rental_uris":{"android":"levelo://app?vid=d53ba0f2-e088-4512-933a-7e4bc731ac91","ios":"levelo://app?vid=d53ba0f2-e088-4512-933a-7e4bc731ac91"},"vehicle_type_id":"4","last_reported":1744974495,"current_range_meters":16400,"station_id":"ce4bhah2rcd13ifvqei0","pricing_plan_id":"cebpf4jnsgd1na2vs0mg"},{"bike_id":"f22f6be7-4114-48e2-aa7a-e2058e4ebd6a","system_id":"levelo_inurba_marseille","lat":43.2318,"lon":5.39987,"is_reserved":false,"is_disabled":false,"rental_uris":{"android":"levelo://app?vid=f22f6be7-4114-48e2-aa7a-e2058e4ebd6a","ios":"levelo://app?vid=f22f6be7-4114-48e2-aa7a-e2058e4ebd6a"},"vehicle_type_id":"4","last_reported":1744974495,"current_range_meters":16800,"station_id":"ce4bhn12rcd13ifvqgqg","pricing_plan_id":"cebpf4jnsgd1na2vs0mg"},{"bike_id":"f11c1877-2531-4187-8a4e-82f9bf9c66d8","system_id":"levelo_inurba_marseille","lat":43.25012,"lon":5.38922,"is_reserved":false,"is_disabled":false,"rental_uris":{"android":"levelo://app?vid=f11c1877-2531-4187-8a4e-82f9bf9c66d8","ios":"levelo://app?vid=f11c1877-2531-4187-8a4e-82f9bf9c66d8"},"vehicle_type_id":"4","last_reported":1744974495,"current_range_meters":16800,"station_id":"ce4bhgp2rcd13ifvqfd0","pricing_plan_id":"cebpf4jnsgd1na2vs0mg"},{"bike_id":"9f45b2bf-53d1-4e39-9a64-fb391bdbd395","system_id":"levelo_inurba_marseille","lat":43.3373,"lon":5.3918,"is_reserved":false,"is_disabled":false,"rental_uris":{"android":"levelo://app?vid=9f45b2bf-53d1-4e39-9a64-fb391bdbd395","ios":"levelo://app?vid=9f45b2bf-53d1-4e39-9a64-fb391bdbd395"},"vehicle_type_id":"4","last_reported":1744974495,"current_range_meters":16800,"station_id":"ce4bhr92rcd13ifvqhsg","pricing_plan_id":"cebpf4jnsgd1na2vs0mg"},{"bike_id":"d1d39195-7105-40ac-9e9f-412e283490af","system_id":"levelo_inurba_marseille","lat":43.26194,"lon":5.37456,"is_reserved":false,"is_disabled":false,"rental_uris":{"android":"levelo://app?vid=d1d39195-7105-40ac-9e9f-412e283490af","ios":"levelo://app?vid=d1d39195-7105-40ac-9e9f-412e283490af"},"vehicle_type_id":"4","last_reported":1744974495,"current_range_meters":16800,"station_id":"ce4bhgp2rcd13ifvqfc0","pricing_plan_id":"cebpf4jnsgd1na2vs0mg"},{"bike_id":"afea4d74-6121-4cb8-be45-46b55c958cc0","system_id":"levelo_inurba_marseille","lat":43.285,"lon":5.38588,"is_reserved":false,"is_disabled":false,"rental_uris":{"android":"levelo://app?vid=afea4d74-6121-4cb8-be45-46b55c958cc0","ios":"levelo://app?vid=afea4d74-6121-4cb8-be45-46b55c958cc0"},"vehicle_type_id":"4","last_reported":1744974495,"current_range_meters":16800,"station_id":"ce4bh8p2rcd13ifvqeb0","pricing_plan_id":"cebpf4jnsgd1na2vs0mg"},{"bike_id":"6f868d52-4010-4181-82b9-bbdba3aa75f7","system_id":"levelo_inurba_marseille","lat":43.28618,"lon":5.35107,"is_reserved":false,"is_disabled":false,"rental_uris":{"android":"levelo://app?vid=6f868d52-4010-4181-82b9-bbdba3aa75f7","ios":"levelo://app?vid=6f868d52-4010-4181-82b9-bbdba3aa75f7"},"vehicle_type_id":"4","last_reported":1744974495,"current_range_meters":16800,"station_id":"ce4bhch2rcd13ifvqeug","pricing_plan_id":"cebpf4jnsgd1na2vs0mg"},{"bike_id":"8bffca6c-7751-4f66-ab59-ab6c8e60b419","system_id":"levelo_inurba_marseille","lat":43.21193,"lon":5.35073,"is_reserved":false,"is_disabled":false,"rental_uris":{"android":"levelo://app?vid=8bffca6c-7751-4f66-ab59-ab6c8e60b419","ios":"levelo://app?vid=8bffca6c-7751-4f66-ab59-ab6c8e60b419"},"vehicle_type_id":"4","last_reported":1744974495,"current_range_meters":17200,"station_id":"st_cvj6sg6p6f1abm77japg","pricing_plan_id":"cebpf4jnsgd1na2vs0mg"},{"bike_id":"e1e3e6bc-b01c-4956-9cee-5d40831d6ec1","system_id":"levelo_inurba_marseille","lat":43.26199,"lon":5.3793,"is_reserved":false,"is_disabled":false,"rental_uris":{"android":"levelo://app?vid=e1e3e6bc-b01c-4956-9cee-5d40831d6ec1","ios":"levelo://app?vid=e1e3e6bc-b01c-4956-9cee-5d40831d6ec1"},"vehicle_type_id":"4","last_reported":1744974495,"current_range_meters":17200,"station_id":"ce4bhjp2rcd13ifvqg90","pricing_plan_id":"cebpf4jnsgd1na2vs0mg"},{"bike_id":"9d8d8db6-8000-4daf-92e7-c37ba5b66391","system_id":"levelo_inurba_marseille","lat":43.24124,"lon":5.36325,"is_reserved":false,"is_disabled":false,"rental_uris":{"android":"levelo://app?vid=9d8d8db6-8000-4daf-92e7-c37ba5b66391","ios":"levelo://app?vid=9d8d8db6-8000-4daf-92e7-c37ba5b66391"},"vehicle_type_id":"4","last_reported":1744974495,"current_range_meters":17200,"station_id":"","pricing_plan_id":"cebpf4jnsgd1na2vs0mg"},{"bike_id":"f1d513e7-93f2-472b-b840-4c42490aad95","system_id":"levelo_inurba_marseille","lat":43.24165,"lon":5.36394,"is_reserved":false,"is_disabled":false,"rental_uris":{"android":"levelo://app?vid=f1d513e7-93f2-472b-b840-4c42490aad95","ios":"levelo://app?vid=f1d513e7-93f2-472b-b840-4c42490aad95"},"vehicle_type_id":"4","last_reported":1744974495,"current_range_meters":17200,"station_id":"cpo36qri1sfpv3e86is0","pricing_plan_id":"cebpf4jnsgd1na2vs0mg"},{"bike_id":"b3db7714-dbf3-4bc4-a6f1-64ff1086c08f","system_id":"levelo_inurba_marseille","lat":43.21763,"lon":5.34591,"is_reserved":false,"is_disabled":false,"rental_uris":{"android":"levelo://app?vid=b3db7714-dbf3-4bc4-a6f1-64ff1086c08f","ios":"levelo://app?vid=b3db7714-dbf3-4bc4-a6f1-64ff1086c08f"},"vehicle_type_id":"4","last_reported":1744974495,"current_range_meters":17200,"station_id":"st_cvj6r9ubvosntc0bgbag","pricing_plan_id":"cebpf4jnsgd1na2vs0mg"},{"bike_id":"23cc3c21-39d5-401a-998d-6365ef24751a","system_id":"levelo_inurba_marseille","lat":43.22936,"lon":5.35379,"is_reserved":false,"is_disabled":false,"rental_uris":{"android":"levelo://app?vid=23cc3c21-39d5-401a-998d-6365ef24751a","ios":"levelo://app?vid=23cc3c21-39d5-401a-998d-6365ef24751a"},"vehicle_type_id":"4","last_reported":1744974495,"current_range_meters":17200,"station_id":"cpo3532slgdg3j2ikp40","pricing_plan_id":"cebpf4jnsgd1na2vs0mg"},{"bike_id":"93b9782e-4342-471d-a1c1-8468aa50c1e6","system_id":"levelo_inurba_marseille","lat":43.23153,"lon":5.4371,"is_reserved":false,"is_disabled":false,"rental_uris":{"android":"levelo://app?vid=93b9782e-4342-471d-a1c1-8468aa50c1e6","ios":"levelo://app?vid=93b9782e-4342-471d-a1c1-8468aa50c1e6"},"vehicle_type_id":"4","last_reported":1744974495,"current_range_meters":17600,"station_id":"ce4bhmp2rcd13ifvqgog","pricing_plan_id":"cebpf4jnsgd1na2vs0mg"},{"bike_id":"246793c0-3fe4-486c-a048-42d6ed9575be","system_id":"levelo_inurba_marseille","lat":43.28271,"lon":5.35109,"is_reserved":false,"is_disabled":false,"rental_uris":{"android":"levelo://app?vid=246793c0-3fe4-486c-a048-42d6ed9575be","ios":"levelo://app?vid=246793c0-3fe4-486c-a048-42d6ed9575be"},"vehicle_type_id":"4","last_reported":1744974495,"current_range_meters":17600,"station_id":"ce4bhbp2rcd13ifvqerg","pricing_plan_id":"cebpf4jnsgd1na2vs0mg"},{"bike_id":"91aa591a-3e56-4092-a295-ecb6aebe69eb","system_id":"levelo_inurba_marseille","lat":43.22498,"lon":5.34799,"is_reserved":false,"is_disabled":false,"rental_uris":{"android":"levelo://app?vid=91aa591a-3e56-4092-a295-ecb6aebe69eb","ios":"levelo://app?vid=91aa591a-3e56-4092-a295-ecb6aebe69eb"},"vehicle_type_id":"4","last_reported":1744974495,"current_range_meters":17600,"station_id":"st_cvj5dfep6f1abm77gieg","pricing_plan_id":"cebpf4jnsgd1na2vs0mg"},{"bike_id":"9021abae-9dc3-4a9b-bcfb-1e8340421c1f","system_id":"levelo_inurba_marseille","lat":43.28612,"lon":5.3511,"is_reserved":false,"is_disabled":false,"rental_uris":{"android":"levelo://app?vid=9021abae-9dc3-4a9b-bcfb-1e8340421c1f","ios":"levelo://app?vid=9021abae-9dc3-4a9b-bcfb-1e8340421c1f"},"vehicle_type_id":"4","last_reported":1744974495,"current_range_meters":17600,"station_id":"ce4bhch2rcd13ifvqeug","pricing_plan_id":"cebpf4jnsgd1na2vs0mg"},{"bike_id":"0f10c153-fda5-4b41-a7dc-65a759630a57","system_id":"levelo_inurba_marseille","lat":43.27374,"lon":5.36258,"is_reserved":false,"is_disabled":false,"rental_uris":{"android":"levelo://app?vid=0f10c153-fda5-4b41-a7dc-65a759630a57","ios":"levelo://app?vid=0f10c153-fda5-4b41-a7dc-65a759630a57"},"vehicle_type_id":"4","last_reported":1744974495,"current_range_meters":17600,"station_id":"ce4bhbh2rcd13ifvqeo0","pricing_plan_id":"cebpf4jnsgd1na2vs0mg"},{"bike_id":"beae55ab-1a39-49d3-9e51-9498979f641f","system_id":"levelo_inurba_marseille","lat":43.29947,"lon":5.36525,"is_reserved":false,"is_disabled":false,"rental_uris":{"android":"levelo://app?vid=beae55ab-1a39-49d3-9e51-9498979f641f","ios":"levelo://app?vid=beae55ab-1a39-49d3-9e51-9498979f641f"},"vehicle_type_id":"4","last_reported":1744974495,"current_range_meters":17600,"station_id":"ce4bgm92rcd13ifvqbr0","pricing_plan_id":"cebpf4jnsgd1na2vs0mg"},{"bike_id":"9eb6738d-486c-4d0a-88f4-70b8d81983d1","system_id":"levelo_inurba_marseille","lat":43.21773,"lon":5.34607,"is_reserved":false,"is_disabled":false,"rental_uris":{"android":"levelo://app?vid=9eb6738d-486c-4d0a-88f4-70b8d81983d1","ios":"levelo://app?vid=9eb6738d-486c-4d0a-88f4-70b8d81983d1"},"vehicle_type_id":"4","last_reported":1744974495,"current_range_meters":17600,"station_id":"st_cvj6r9ubvosntc0bgbag","pricing_plan_id":"cebpf4jnsgd1na2vs0mg"},{"bike_id":"80bac1fe-218c-4068-937c-4aa733df023f","system_id":"levelo_inurba_marseille","lat":43.28604,"lon":5.37072,"is_reserved":false,"is_disabled":true,"rental_uris":{"android":"levelo://app?vid=80bac1fe-218c-4068-937c-4aa733df023f","ios":"levelo://app?vid=80bac1fe-218c-4068-937c-4aa733df023f"},"vehicle_type_id":"4","last_reported":1744974495,"current_range_meters":17600,"station_id":"ce4bht12rcd13ifvqi60","pricing_plan_id":"cebpf4jnsgd1na2vs0mg"},{"bike_id":"a706e1dc-b679-416e-9fa5-21970a430d4d","system_id":"levelo_inurba_marseille","lat":43.29202,"lon":5.3581,"is_reserved":false,"is_disabled":false,"rental_uris":{"android":"levelo://app?vid=a706e1dc-b679-416e-9fa5-21970a430d4d","ios":"levelo://app?vid=a706e1dc-b679-416e-9fa5-21970a430d4d"},"vehicle_type_id":"4","last_reported":1744974495,"current_range_meters":17600,"station_id":"ce4bhb12rcd13ifvqel0","pricing_plan_id":"cebpf4jnsgd1na2vs0mg"},{"bike_id":"0513d50a-d6e4-4093-a8cf-4d32d2c45b4c","system_id":"levelo_inurba_marseille","lat":43.32477,"lon":5.36585,"is_reserved":false,"is_disabled":false,"rental_uris":{"android":"levelo://app?vid=0513d50a-d6e4-4093-a8cf-4d32d2c45b4c","ios":"levelo://app?vid=0513d50a-d6e4-4093-a8cf-4d32d2c45b4c"},"vehicle_type_id":"4","last_reported":1744974495,"current_range_meters":17600,"station_id":"ce4bhs12rcd13ifvqhvg","pricing_plan_id":"cebpf4jnsgd1na2vs0mg"},{"bike_id":"ef4536c2-b444-4411-84ee-a3b2ea84bb28","system_id":"levelo_inurba_marseille","lat":43.270806,"lon":5.422649,"is_reserved":false,"is_disabled":false,"rental_uris":{"android":"levelo://app?vid=ef4536c2-b444-4411-84ee-a3b2ea84bb28","ios":"levelo://app?vid=ef4536c2-b444-4411-84ee-a3b2ea84bb28"},"vehicle_type_id":"4","last_reported":1744974495,"current_range_meters":17600,"station_id":"ce4bhk92rcd13ifvqgb0","pricing_plan_id":"cebpf4jnsgd1na2vs0mg"},{"bike_id":"aea2afb6-112e-4c3a-968a-5eb5aa77e9be","system_id":"levelo_inurba_marseille","lat":43.21194,"lon":5.35074,"is_reserved":false,"is_disabled":false,"rental_uris":{"android":"levelo://app?vid=aea2afb6-112e-4c3a-968a-5eb5aa77e9be","ios":"levelo://app?vid=aea2afb6-112e-4c3a-968a-5eb5aa77e9be"},"vehicle_type_id":"4","last_reported":1744974495,"current_range_meters":18000,"station_id":"st_cvj6sg6p6f1abm77japg","pricing_plan_id":"cebpf4jnsgd1na2vs0mg"},{"bike_id":"82a001e1-327f-4a58-b355-bcf2e1a86bf6","system_id":"levelo_inurba_marseille","lat":43.30875,"lon":5.36777,"is_reserved":false,"is_disabled":false,"rental_uris":{"android":"levelo://app?vid=82a001e1-327f-4a58-b355-bcf2e1a86bf6","ios":"levelo://app?vid=82a001e1-327f-4a58-b355-bcf2e1a86bf6"},"vehicle_type_id":"4","last_reported":1744974495,"current_range_meters":18000,"station_id":"","pricing_plan_id":"cebpf4jnsgd1na2vs0mg"},{"bike_id":"fb66076f-d107-48bf-8d6b-b922749290ad","system_id":"levelo_inurba_marseille","lat":43.26202,"lon":5.37928,"is_reserved":false,"is_disabled":false,"rental_uris":{"android":"levelo://app?vid=fb66076f-d107-48bf-8d6b-b922749290ad","ios":"levelo://app?vid=fb66076f-d107-48bf-8d6b-b922749290ad"},"vehicle_type_id":"4","last_reported":1744974495,"current_range_meters":18000,"station_id":"ce4bhjp2rcd13ifvqg90","pricing_plan_id":"cebpf4jnsgd1na2vs0mg"},{"bike_id":"9895229e-53ad-4e9c-a190-cf34d6c0dc00","system_id":"levelo_inurba_marseille","lat":43.29566,"lon":5.36763,"is_reserved":false,"is_disabled":false,"rental_uris":{"android":"levelo://app?vid=9895229e-53ad-4e9c-a190-cf34d6c0dc00","ios":"levelo://app?vid=9895229e-53ad-4e9c-a190-cf34d6c0dc00"},"vehicle_type_id":"4","last_reported":1744974495,"current_range_meters":18000,"station_id":"ce4bgph2rcd13ifvqc2g","pricing_plan_id":"cebpf4jnsgd1na2vs0mg"},{"bike_id":"846231f6-6953-4ff8-b8a5-3a085f1dbb55","system_id":"levelo_inurba_marseille","lat":43.29902,"lon":5.43672,"is_reserved":false,"is_disabled":false,"rental_uris":{"android":"levelo://app?vid=846231f6-6953-4ff8-b8a5-3a085f1dbb55","ios":"levelo://app?vid=846231f6-6953-4ff8-b8a5-3a085f1dbb55"},"vehicle_type_id":"4","last_reported":1744974495,"current_range_meters":18000,"station_id":"ce4bhpp2rcd13ifvqhfg","pricing_plan_id":"cebpf4jnsgd1na2vs0mg"},{"bike_id":"bb9cc5b6-0c7a-4871-8383-15ba04455dec","system_id":"levelo_inurba_marseille","lat":43.29903,"lon":5.43667,"is_reserved":false,"is_disabled":false,"rental_uris":{"android":"levelo://app?vid=bb9cc5b6-0c7a-4871-8383-15ba04455dec","ios":"levelo://app?vid=bb9cc5b6-0c7a-4871-8383-15ba04455dec"},"vehicle_type_id":"4","last_reported":1744974495,"current_range_meters":18800,"station_id":"ce4bhpp2rcd13ifvqhfg","pricing_plan_id":"cebpf4jnsgd1na2vs0mg"},{"bike_id":"fba57ab6-1513-424c-82d1-02949a465d4a","system_id":"levelo_inurba_marseille","lat":43.28425,"lon":5.34984,"is_reserved":false,"is_disabled":false,"rental_uris":{"android":"levelo://app?vid=fba57ab6-1513-424c-82d1-02949a465d4a","ios":"levelo://app?vid=fba57ab6-1513-424c-82d1-02949a465d4a"},"vehicle_type_id":"4","last_reported":1744974495,"current_range_meters":18800,"station_id":"ce4bhbh2rcd13ifvqepg","pricing_plan_id":"cebpf4jnsgd1na2vs0mg"},{"bike_id":"addbbe39-aa0d-4899-ac26-a436a72f2d32","system_id":"levelo_inurba_marseille","lat":43.21748,"lon":5.34603,"is_reserved":false,"is_disabled":false,"rental_uris":{"android":"levelo://app?vid=addbbe39-aa0d-4899-ac26-a436a72f2d32","ios":"levelo://app?vid=addbbe39-aa0d-4899-ac26-a436a72f2d32"},"vehicle_type_id":"4","last_reported":1744974495,"current_range_meters":18800,"station_id":"st_cvj6r9ubvosntc0bgbag","pricing_plan_id":"cebpf4jnsgd1na2vs0mg"},{"bike_id":"8e3a627a-3446-48ab-b116-d405a8a4f38e","system_id":"levelo_inurba_marseille","lat":43.28425,"lon":5.34985,"is_reserved":false,"is_disabled":false,"rental_uris":{"android":"levelo://app?vid=8e3a627a-3446-48ab-b116-d405a8a4f38e","ios":"levelo://app?vid=8e3a627a-3446-48ab-b116-d405a8a4f38e"},"vehicle_type_id":"4","last_reported":1744974495,"current_range_meters":18800,"station_id":"ce4bhbh2rcd13ifvqepg","pricing_plan_id":"cebpf4jnsgd1na2vs0mg"},{"bike_id":"056beed3-732b-4c15-871c-8c4749c0b234","system_id":"levelo_inurba_marseille","lat":43.265617,"lon":5.390141,"is_reserved":false,"is_disabled":false,"rental_uris":{"android":"levelo://app?vid=056beed3-732b-4c15-871c-8c4749c0b234","ios":"levelo://app?vid=056beed3-732b-4c15-871c-8c4749c0b234"},"vehicle_type_id":"4","last_reported":1744974495,"current_range_meters":18800,"station_id":"ce4bhe12rcd13ifvqf30","pricing_plan_id":"cebpf4jnsgd1na2vs0mg"},{"bike_id":"24213b37-b766-4d9c-a174-f6bf34920497","system_id":"levelo_inurba_marseille","lat":43.28469,"lon":5.384178,"is_reserved":false,"is_disabled":false,"rental_uris":{"android":"levelo://app?vid=24213b37-b766-4d9c-a174-f6bf34920497","ios":"levelo://app?vid=24213b37-b766-4d9c-a174-f6bf34920497"},"vehicle_type_id":"4","last_reported":1744974495,"current_range_meters":18800,"station_id":"ce4bh512rcd13ifvqe3g","pricing_plan_id":"cebpf4jnsgd1na2vs0mg"},{"bike_id":"17de6571-3c1c-4621-995b-d445cb9c6f14","system_id":"levelo_inurba_marseille","lat":43.21197,"lon":5.35062,"is_reserved":false,"is_disabled":false,"rental_uris":{"android":"levelo://app?vid=17de6571-3c1c-4621-995b-d445cb9c6f14","ios":"levelo://app?vid=17de6571-3c1c-4621-995b-d445cb9c6f14"},"vehicle_type_id":"4","last_reported":1744974495,"current_range_meters":18800,"station_id":"st_cvj6sg6p6f1abm77japg","pricing_plan_id":"cebpf4jnsgd1na2vs0mg"},{"bike_id":"5c87a66e-a468-4c06-bf6a-016059f2b476","system_id":"levelo_inurba_marseille","lat":43.22928,"lon":5.35379,"is_reserved":false,"is_disabled":false,"rental_uris":{"android":"levelo://app?vid=5c87a66e-a468-4c06-bf6a-016059f2b476","ios":"levelo://app?vid=5c87a66e-a468-4c06-bf6a-016059f2b476"},"vehicle_type_id":"4","last_reported":1744974495,"current_range_meters":18800,"station_id":"cpo3532slgdg3j2ikp40","pricing_plan_id":"cebpf4jnsgd1na2vs0mg"},{"bike_id":"47ac335a-36e2-49e7-abe4-1428c8083e35","system_id":"levelo_inurba_marseille","lat":43.22927,"lon":5.35379,"is_reserved":false,"is_disabled":false,"rental_uris":{"android":"levelo://app?vid=47ac335a-36e2-49e7-abe4-1428c8083e35","ios":"levelo://app?vid=47ac335a-36e2-49e7-abe4-1428c8083e35"},"vehicle_type_id":"4","last_reported":1744974495,"current_range_meters":18800,"station_id":"cpo3532slgdg3j2ikp40","pricing_plan_id":"cebpf4jnsgd1na2vs0mg"},{"bike_id":"d05b7cc4-f88b-4d02-ae6c-c344f22c0e5c","system_id":"levelo_inurba_marseille","lat":43.298,"lon":5.36509,"is_reserved":false,"is_disabled":false,"rental_uris":{"android":"levelo://app?vid=d05b7cc4-f88b-4d02-ae6c-c344f22c0e5c","ios":"levelo://app?vid=d05b7cc4-f88b-4d02-ae6c-c344f22c0e5c"},"vehicle_type_id":"4","last_reported":1744974495,"current_range_meters":19200,"station_id":"","pricing_plan_id":"cebpf4jnsgd1na2vs0mg"},{"bike_id":"7e7b6a3b-6380-44f3-badd-7f3bd7b34001","system_id":"levelo_inurba_marseille","lat":43.29597,"lon":5.38112,"is_reserved":false,"is_disabled":false,"rental_uris":{"android":"levelo://app?vid=7e7b6a3b-6380-44f3-badd-7f3bd7b34001","ios":"levelo://app?vid=7e7b6a3b-6380-44f3-badd-7f3bd7b34001"},"vehicle_type_id":"4","last_reported":1744974495,"current_range_meters":19200,"station_id":"ce4bgl12rcd13ifvqbo0","pricing_plan_id":"cebpf4jnsgd1na2vs0mg"},{"bike_id":"efad763c-5ba9-4eee-a69c-dfbb136427d4","system_id":"levelo_inurba_marseille","lat":43.23155,"lon":5.43724,"is_reserved":false,"is_disabled":false,"rental_uris":{"android":"levelo://app?vid=efad763c-5ba9-4eee-a69c-dfbb136427d4","ios":"levelo://app?vid=efad763c-5ba9-4eee-a69c-dfbb136427d4"},"vehicle_type_id":"4","last_reported":1744974495,"current_range_meters":19200,"station_id":"ce4bhmp2rcd13ifvqgog","pricing_plan_id":"cebpf4jnsgd1na2vs0mg"},{"bike_id":"38661a6f-f347-47f9-b622-62c4dcd6e0f3","system_id":"levelo_inurba_marseille","lat":43.31708,"lon":5.43706,"is_reserved":false,"is_disabled":false,"rental_uris":{"android":"levelo://app?vid=38661a6f-f347-47f9-b622-62c4dcd6e0f3","ios":"levelo://app?vid=38661a6f-f347-47f9-b622-62c4dcd6e0f3"},"vehicle_type_id":"4","last_reported":1744974495,"current_range_meters":19200,"station_id":"ce4bhp92rcd13ifvqhcg","pricing_plan_id":"cebpf4jnsgd1na2vs0mg"},{"bike_id":"e8c35f53-33e9-4cc6-90e3-4f5913565f51","system_id":"levelo_inurba_marseille","lat":43.23186,"lon":5.43728,"is_reserved":false,"is_disabled":false,"rental_uris":{"android":"levelo://app?vid=e8c35f53-33e9-4cc6-90e3-4f5913565f51","ios":"levelo://app?vid=e8c35f53-33e9-4cc6-90e3-4f5913565f51"},"vehicle_type_id":"4","last_reported":1744974495,"current_range_meters":19600,"station_id":"ce4bhmp2rcd13ifvqgog","pricing_plan_id":"cebpf4jnsgd1na2vs0mg"},{"bike_id":"57e4bf49-afd3-40be-be28-f9c625a8dbad","system_id":"levelo_inurba_marseille","lat":43.273546,"lon":5.362418,"is_reserved":false,"is_disabled":true,"rental_uris":{"android":"levelo://app?vid=57e4bf49-afd3-40be-be28-f9c625a8dbad","ios":"levelo://app?vid=57e4bf49-afd3-40be-be28-f9c625a8dbad"},"vehicle_type_id":"4","last_reported":1744974495,"current_range_meters":19600,"station_id":"ce4bhbh2rcd13ifvqeo0","pricing_plan_id":"cebpf4jnsgd1na2vs0mg"},{"bike_id":"4d43fa23-f7db-4e36-b743-b0b96888746f","system_id":"levelo_inurba_marseille","lat":43.25498,"lon":5.37649,"is_reserved":false,"is_disabled":false,"rental_uris":{"android":"levelo://app?vid=4d43fa23-f7db-4e36-b743-b0b96888746f","ios":"levelo://app?vid=4d43fa23-f7db-4e36-b743-b0b96888746f"},"vehicle_type_id":"4","last_reported":1744974495,"current_range_meters":19600,"station_id":"ce4bhh12rcd13ifvqff0","pricing_plan_id":"cebpf4jnsgd1na2vs0mg"},{"bike_id":"a93ccae5-f35e-48ca-9dcb-7c0ab08242b0","system_id":"levelo_inurba_marseille","lat":43.30935,"lon":5.40142,"is_reserved":false,"is_disabled":false,"rental_uris":{"android":"levelo://app?vid=a93ccae5-f35e-48ca-9dcb-7c0ab08242b0","ios":"levelo://app?vid=a93ccae5-f35e-48ca-9dcb-7c0ab08242b0"},"vehicle_type_id":"4","last_reported":1744974495,"current_range_meters":19600,"station_id":"ce4bgvp2rcd13ifvqct0","pricing_plan_id":"cebpf4jnsgd1na2vs0mg"},{"bike_id":"7de48f14-7797-4b06-ac93-3d5cdc757db4","system_id":"levelo_inurba_marseille","lat":43.30471,"lon":5.37915,"is_reserved":false,"is_disabled":false,"rental_uris":{"android":"levelo://app?vid=7de48f14-7797-4b06-ac93-3d5cdc757db4","ios":"levelo://app?vid=7de48f14-7797-4b06-ac93-3d5cdc757db4"},"vehicle_type_id":"4","last_reported":1744974495,"current_range_meters":19600,"station_id":"ce4bgup2rcd13ifvqcn0","pricing_plan_id":"cebpf4jnsgd1na2vs0mg"},{"bike_id":"ce02d5f0-6da3-49fd-98f5-0a7ac8ed6787","system_id":"levelo_inurba_marseille","lat":43.21201,"lon":5.3507,"is_reserved":false,"is_disabled":false,"rental_uris":{"android":"levelo://app?vid=ce02d5f0-6da3-49fd-98f5-0a7ac8ed6787","ios":"levelo://app?vid=ce02d5f0-6da3-49fd-98f5-0a7ac8ed6787"},"vehicle_type_id":"4","last_reported":1744974495,"current_range_meters":19600,"station_id":"st_cvj6sg6p6f1abm77japg","pricing_plan_id":"cebpf4jnsgd1na2vs0mg"},{"bike_id":"d52be970-ec48-4545-bc59-de81d161700d","system_id":"levelo_inurba_marseille","lat":43.25587,"lon":5.38228,"is_reserved":false,"is_disabled":false,"rental_uris":{"android":"levelo://app?vid=d52be970-ec48-4545-bc59-de81d161700d","ios":"levelo://app?vid=d52be970-ec48-4545-bc59-de81d161700d"},"vehicle_type_id":"4","last_reported":1744974495,"current_range_meters":19600,"station_id":"ce4bhih2rcd13ifvqfs0","pricing_plan_id":"cebpf4jnsgd1na2vs0mg"},{"bike_id":"32e1baf6-f2a8-4876-8b0a-9cc13511ff65","system_id":"levelo_inurba_marseille","lat":43.24149,"lon":5.3972,"is_reserved":false,"is_disabled":false,"rental_uris":{"android":"levelo://app?vid=32e1baf6-f2a8-4876-8b0a-9cc13511ff65","ios":"levelo://app?vid=32e1baf6-f2a8-4876-8b0a-9cc13511ff65"},"vehicle_type_id":"4","last_reported":1744974495,"current_range_meters":19600,"station_id":"ce4bhn12rcd13ifvqgpg","pricing_plan_id":"cebpf4jnsgd1na2vs0mg"},{"bike_id":"937450ae-c12c-4fb3-903e-6c76624c5610","system_id":"levelo_inurba_marseille","lat":43.28427,"lon":5.34997,"is_reserved":false,"is_disabled":false,"rental_uris":{"android":"levelo://app?vid=937450ae-c12c-4fb3-903e-6c76624c5610","ios":"levelo://app?vid=937450ae-c12c-4fb3-903e-6c76624c5610"},"vehicle_type_id":"4","last_reported":1744974495,"current_range_meters":19600,"station_id":"ce4bhbh2rcd13ifvqepg","pricing_plan_id":"cebpf4jnsgd1na2vs0mg"},{"bike_id":"2cd6ed0b-2488-4c43-9368-bd29b803b55e","system_id":"levelo_inurba_marseille","lat":43.29985,"lon":5.37183,"is_reserved":false,"is_disabled":false,"rental_uris":{"android":"levelo://app?vid=2cd6ed0b-2488-4c43-9368-bd29b803b55e","ios":"levelo://app?vid=2cd6ed0b-2488-4c43-9368-bd29b803b55e"},"vehicle_type_id":"4","last_reported":1744974495,"current_range_meters":19600,"station_id":"ce4bgr92rcd13ifvqc7g","pricing_plan_id":"cebpf4jnsgd1na2vs0mg"},{"bike_id":"af05fb46-ceb8-4dee-a73d-e210f0c7c57b","system_id":"levelo_inurba_marseille","lat":43.29032,"lon":5.38649,"is_reserved":false,"is_disabled":false,"rental_uris":{"android":"levelo://app?vid=af05fb46-ceb8-4dee-a73d-e210f0c7c57b","ios":"levelo://app?vid=af05fb46-ceb8-4dee-a73d-e210f0c7c57b"},"vehicle_type_id":"4","last_reported":1744974495,"current_range_meters":20000,"station_id":"ce4bh4p2rcd13ifvqe0g","pricing_plan_id":"cebpf4jnsgd1na2vs0mg"},{"bike_id":"7d25e0d5-c6a7-4354-b78a-f8f882aeece6","system_id":"levelo_inurba_marseille","lat":43.282665,"lon":5.350602,"is_reserved":false,"is_disabled":false,"rental_uris":{"android":"levelo://app?vid=7d25e0d5-c6a7-4354-b78a-f8f882aeece6","ios":"levelo://app?vid=7d25e0d5-c6a7-4354-b78a-f8f882aeece6"},"vehicle_type_id":"4","last_reported":1744974495,"current_range_meters":19600,"station_id":"ce4bgj92rcd13ifvqbd0","pricing_plan_id":"cebpf4jnsgd1na2vs0mg"},{"bike_id":"a54ea8a9-fcb7-4331-9084-ac0d83107283","system_id":"levelo_inurba_marseille","lat":43.26806,"lon":5.40272,"is_reserved":false,"is_disabled":false,"rental_uris":{"android":"levelo://app?vid=a54ea8a9-fcb7-4331-9084-ac0d83107283","ios":"levelo://app?vid=a54ea8a9-fcb7-4331-9084-ac0d83107283"},"vehicle_type_id":"4","last_reported":1744974495,"current_range_meters":20000,"station_id":"ce501612rcd8frsf0b60","pricing_plan_id":"cebpf4jnsgd1na2vs0mg"},{"bike_id":"2147c0f4-32eb-45b5-8939-dd6bd82c3fad","system_id":"levelo_inurba_marseille","lat":43.23153,"lon":5.43709,"is_reserved":false,"is_disabled":false,"rental_uris":{"android":"levelo://app?vid=2147c0f4-32eb-45b5-8939-dd6bd82c3fad","ios":"levelo://app?vid=2147c0f4-32eb-45b5-8939-dd6bd82c3fad"},"vehicle_type_id":"4","last_reported":1744974495,"current_range_meters":20000,"station_id":"ce4bhmp2rcd13ifvqgog","pricing_plan_id":"cebpf4jnsgd1na2vs0mg"},{"bike_id":"1fad1949-da2d-4b93-9386-de1f3dc78d1f","system_id":"levelo_inurba_marseille","lat":43.30593,"lon":5.39361,"is_reserved":false,"is_disabled":true,"rental_uris":{"android":"levelo://app?vid=1fad1949-da2d-4b93-9386-de1f3dc78d1f","ios":"levelo://app?vid=1fad1949-da2d-4b93-9386-de1f3dc78d1f"},"vehicle_type_id":"4","last_reported":1744974495,"current_range_meters":20000,"station_id":"ce4bh0p2rcd13ifvqd80","pricing_plan_id":"cebpf4jnsgd1na2vs0mg"},{"bike_id":"bbeb5cd8-8578-49c0-b3df-3af6ea88f078","system_id":"levelo_inurba_marseille","lat":43.24171,"lon":5.36417,"is_reserved":false,"is_disabled":false,"rental_uris":{"android":"levelo://app?vid=bbeb5cd8-8578-49c0-b3df-3af6ea88f078","ios":"levelo://app?vid=bbeb5cd8-8578-49c0-b3df-3af6ea88f078"},"vehicle_type_id":"4","last_reported":1744974495,"current_range_meters":19600,"station_id":"cpo36qri1sfpv3e86is0","pricing_plan_id":"cebpf4jnsgd1na2vs0mg"},{"bike_id":"3ab0fb41-bbe3-4216-8e79-8beee916d912","system_id":"levelo_inurba_marseille","lat":43.21744,"lon":5.34599,"is_reserved":false,"is_disabled":true,"rental_uris":{"android":"levelo://app?vid=3ab0fb41-bbe3-4216-8e79-8beee916d912","ios":"levelo://app?vid=3ab0fb41-bbe3-4216-8e79-8beee916d912"},"vehicle_type_id":"4","last_reported":1744974495,"current_range_meters":20400,"station_id":"st_cvj6r9ubvosntc0bgbag","pricing_plan_id":"cebpf4jnsgd1na2vs0mg"},{"bike_id":"da2c8d6d-3235-41ee-8003-1a8755a6a3e2","system_id":"levelo_inurba_marseille","lat":43.28068,"lon":5.34776,"is_reserved":false,"is_disabled":false,"rental_uris":{"android":"levelo://app?vid=da2c8d6d-3235-41ee-8003-1a8755a6a3e2","ios":"levelo://app?vid=da2c8d6d-3235-41ee-8003-1a8755a6a3e2"},"vehicle_type_id":"4","last_reported":1744974495,"current_range_meters":20400,"station_id":"","pricing_plan_id":"cebpf4jnsgd1na2vs0mg"},{"bike_id":"3eab262d-44bd-47f2-8450-1e74c612cfc9","system_id":"levelo_inurba_marseille","lat":43.24392,"lon":5.37065,"is_reserved":false,"is_disabled":false,"rental_uris":{"android":"levelo://app?vid=3eab262d-44bd-47f2-8450-1e74c612cfc9","ios":"levelo://app?vid=3eab262d-44bd-47f2-8450-1e74c612cfc9"},"vehicle_type_id":"4","last_reported":1744974495,"current_range_meters":20400,"station_id":"ce4bhhh2rcd13ifvqfk0","pricing_plan_id":"cebpf4jnsgd1na2vs0mg"},{"bike_id":"0005f62c-2df5-446f-aab7-ff1e42693db8","system_id":"levelo_inurba_marseille","lat":43.26198,"lon":5.37932,"is_reserved":false,"is_disabled":false,"rental_uris":{"android":"levelo://app?vid=0005f62c-2df5-446f-aab7-ff1e42693db8","ios":"levelo://app?vid=0005f62c-2df5-446f-aab7-ff1e42693db8"},"vehicle_type_id":"4","last_reported":1744974495,"current_range_meters":20400,"station_id":"ce4bhjp2rcd13ifvqg90","pricing_plan_id":"cebpf4jnsgd1na2vs0mg"},{"bike_id":"635af77e-d6c2-42bb-9e0f-09d421bc1c78","system_id":"levelo_inurba_marseille","lat":43.2849,"lon":5.38567,"is_reserved":false,"is_disabled":false,"rental_uris":{"android":"levelo://app?vid=635af77e-d6c2-42bb-9e0f-09d421bc1c78","ios":"levelo://app?vid=635af77e-d6c2-42bb-9e0f-09d421bc1c78"},"vehicle_type_id":"4","last_reported":1744974495,"current_range_meters":20400,"station_id":"ce4bh8p2rcd13ifvqeb0","pricing_plan_id":"cebpf4jnsgd1na2vs0mg"},{"bike_id":"154def0d-0d4f-486e-8308-5952a9e62ef1","system_id":"levelo_inurba_marseille","lat":43.22929,"lon":5.35385,"is_reserved":false,"is_disabled":false,"rental_uris":{"android":"levelo://app?vid=154def0d-0d4f-486e-8308-5952a9e62ef1","ios":"levelo://app?vid=154def0d-0d4f-486e-8308-5952a9e62ef1"},"vehicle_type_id":"4","last_reported":1744974495,"current_range_meters":20400,"station_id":"cpo3532slgdg3j2ikp40","pricing_plan_id":"cebpf4jnsgd1na2vs0mg"},{"bike_id":"09f95fea-c6da-4763-8600-a88272da027a","system_id":"levelo_inurba_marseille","lat":43.29769,"lon":5.36436,"is_reserved":false,"is_disabled":false,"rental_uris":{"android":"levelo://app?vid=09f95fea-c6da-4763-8600-a88272da027a","ios":"levelo://app?vid=09f95fea-c6da-4763-8600-a88272da027a"},"vehicle_type_id":"4","last_reported":1744974495,"current_range_meters":20400,"station_id":"","pricing_plan_id":"cebpf4jnsgd1na2vs0mg"},{"bike_id":"2c7763c2-4820-4121-ba08-c10f56dcd64f","system_id":"levelo_inurba_marseille","lat":43.325,"lon":5.3662,"is_reserved":false,"is_disabled":false,"rental_uris":{"android":"levelo://app?vid=2c7763c2-4820-4121-ba08-c10f56dcd64f","ios":"levelo://app?vid=2c7763c2-4820-4121-ba08-c10f56dcd64f"},"vehicle_type_id":"4","last_reported":1744974495,"current_range_meters":20800,"station_id":"","pricing_plan_id":"cebpf4jnsgd1na2vs0mg"},{"bike_id":"625caf8d-0c30-4178-b98b-e24b4a4fa9d0","system_id":"levelo_inurba_marseille","lat":43.27374,"lon":5.36255,"is_reserved":false,"is_disabled":false,"rental_uris":{"android":"levelo://app?vid=625caf8d-0c30-4178-b98b-e24b4a4fa9d0","ios":"levelo://app?vid=625caf8d-0c30-4178-b98b-e24b4a4fa9d0"},"vehicle_type_id":"4","last_reported":1744974495,"current_range_meters":20800,"station_id":"ce4bhbh2rcd13ifvqeo0","pricing_plan_id":"cebpf4jnsgd1na2vs0mg"},{"bike_id":"8cc9cb0d-7515-44b6-b515-32085aa3cef1","system_id":"levelo_inurba_marseille","lat":43.26023,"lon":5.41751,"is_reserved":false,"is_disabled":false,"rental_uris":{"android":"levelo://app?vid=8cc9cb0d-7515-44b6-b515-32085aa3cef1","ios":"levelo://app?vid=8cc9cb0d-7515-44b6-b515-32085aa3cef1"},"vehicle_type_id":"4","last_reported":1744974495,"current_range_meters":20800,"station_id":"","pricing_plan_id":"cebpf4jnsgd1na2vs0mg"},{"bike_id":"7caea720-a621-434a-8738-29ceb5283d93","system_id":"levelo_inurba_marseille","lat":43.27373,"lon":5.36255,"is_reserved":false,"is_disabled":false,"rental_uris":{"android":"levelo://app?vid=7caea720-a621-434a-8738-29ceb5283d93","ios":"levelo://app?vid=7caea720-a621-434a-8738-29ceb5283d93"},"vehicle_type_id":"4","last_reported":1744974495,"current_range_meters":20800,"station_id":"ce4bhbh2rcd13ifvqeo0","pricing_plan_id":"cebpf4jnsgd1na2vs0mg"},{"bike_id":"d8f1732e-ba2e-406d-bec0-064b925341e0","system_id":"levelo_inurba_marseille","lat":43.24803,"lon":5.37459,"is_reserved":false,"is_disabled":false,"rental_uris":{"android":"levelo://app?vid=d8f1732e-ba2e-406d-bec0-064b925341e0","ios":"levelo://app?vid=d8f1732e-ba2e-406d-bec0-064b925341e0"},"vehicle_type_id":"4","last_reported":1744974495,"current_range_meters":20800,"station_id":"ce4bhgh2rcd13ifvqfb0","pricing_plan_id":"cebpf4jnsgd1na2vs0mg"},{"bike_id":"bf11a46d-f4da-4fd5-880e-ca73ef535e39","system_id":"levelo_inurba_marseille","lat":43.23161,"lon":5.437,"is_reserved":false,"is_disabled":false,"rental_uris":{"android":"levelo://app?vid=bf11a46d-f4da-4fd5-880e-ca73ef535e39","ios":"levelo://app?vid=bf11a46d-f4da-4fd5-880e-ca73ef535e39"},"vehicle_type_id":"4","last_reported":1744974495,"current_range_meters":20800,"station_id":"ce4bhmp2rcd13ifvqgog","pricing_plan_id":"cebpf4jnsgd1na2vs0mg"},{"bike_id":"4151051b-cba5-4517-9e63-4081e6bec2ee","system_id":"levelo_inurba_marseille","lat":43.27374,"lon":5.36259,"is_reserved":false,"is_disabled":false,"rental_uris":{"android":"levelo://app?vid=4151051b-cba5-4517-9e63-4081e6bec2ee","ios":"levelo://app?vid=4151051b-cba5-4517-9e63-4081e6bec2ee"},"vehicle_type_id":"4","last_reported":1744974495,"current_range_meters":20800,"station_id":"ce4bhbh2rcd13ifvqeo0","pricing_plan_id":"cebpf4jnsgd1na2vs0mg"},{"bike_id":"75058f79-fd92-4715-b376-0b45c900c400","system_id":"levelo_inurba_marseille","lat":43.24386,"lon":5.37055,"is_reserved":false,"is_disabled":false,"rental_uris":{"android":"levelo://app?vid=75058f79-fd92-4715-b376-0b45c900c400","ios":"levelo://app?vid=75058f79-fd92-4715-b376-0b45c900c400"},"vehicle_type_id":"4","last_reported":1744974495,"current_range_meters":21600,"station_id":"ce4bhhh2rcd13ifvqfk0","pricing_plan_id":"cebpf4jnsgd1na2vs0mg"},{"bike_id":"d1898970-bbae-42d2-b16a-5602b26d240a","system_id":"levelo_inurba_marseille","lat":43.23149,"lon":5.43705,"is_reserved":false,"is_disabled":false,"rental_uris":{"android":"levelo://app?vid=d1898970-bbae-42d2-b16a-5602b26d240a","ios":"levelo://app?vid=d1898970-bbae-42d2-b16a-5602b26d240a"},"vehicle_type_id":"4","last_reported":1744974495,"current_range_meters":21600,"station_id":"ce4bhmp2rcd13ifvqgog","pricing_plan_id":"cebpf4jnsgd1na2vs0mg"},{"bike_id":"b7d32383-d048-4c9d-84b1-422009fd7854","system_id":"levelo_inurba_marseille","lat":43.30649,"lon":5.40107,"is_reserved":false,"is_disabled":false,"rental_uris":{"android":"levelo://app?vid=b7d32383-d048-4c9d-84b1-422009fd7854","ios":"levelo://app?vid=b7d32383-d048-4c9d-84b1-422009fd7854"},"vehicle_type_id":"4","last_reported":1744974495,"current_range_meters":21600,"station_id":"ce4bh112rcd13ifvqda0","pricing_plan_id":"cebpf4jnsgd1na2vs0mg"},{"bike_id":"bb458923-e410-4fa4-8ca1-e7af04c03086","system_id":"levelo_inurba_marseille","lat":43.28854,"lon":5.35872,"is_reserved":false,"is_disabled":true,"rental_uris":{"android":"levelo://app?vid=bb458923-e410-4fa4-8ca1-e7af04c03086","ios":"levelo://app?vid=bb458923-e410-4fa4-8ca1-e7af04c03086"},"vehicle_type_id":"4","last_reported":1744974495,"current_range_meters":21600,"station_id":"ce4bhb12rcd13ifvqem0","pricing_plan_id":"cebpf4jnsgd1na2vs0mg"},{"bike_id":"273e4341-d5d1-4d14-84aa-b903cea93ff0","system_id":"levelo_inurba_marseille","lat":43.27372,"lon":5.36258,"is_reserved":false,"is_disabled":false,"rental_uris":{"android":"levelo://app?vid=273e4341-d5d1-4d14-84aa-b903cea93ff0","ios":"levelo://app?vid=273e4341-d5d1-4d14-84aa-b903cea93ff0"},"vehicle_type_id":"4","last_reported":1744974495,"current_range_meters":21600,"station_id":"ce4bhbh2rcd13ifvqeo0","pricing_plan_id":"cebpf4jnsgd1na2vs0mg"},{"bike_id":"ce880216-3d5c-4f9b-acbd-0765c15ded74","system_id":"levelo_inurba_marseille","lat":43.29896,"lon":5.43669,"is_reserved":false,"is_disabled":false,"rental_uris":{"android":"levelo://app?vid=ce880216-3d5c-4f9b-acbd-0765c15ded74","ios":"levelo://app?vid=ce880216-3d5c-4f9b-acbd-0765c15ded74"},"vehicle_type_id":"4","last_reported":1744974495,"current_range_meters":21600,"station_id":"ce4bhpp2rcd13ifvqhfg","pricing_plan_id":"cebpf4jnsgd1na2vs0mg"},{"bike_id":"c0591a27-cac0-448f-81e1-85c1613fa735","system_id":"levelo_inurba_marseille","lat":43.27211,"lon":5.39186,"is_reserved":false,"is_disabled":true,"rental_uris":{"android":"levelo://app?vid=c0591a27-cac0-448f-81e1-85c1613fa735","ios":"levelo://app?vid=c0591a27-cac0-448f-81e1-85c1613fa735"},"vehicle_type_id":"4","last_reported":1744974495,"current_range_meters":21600,"station_id":"ce4bhhp2rcd13ifvqfm0","pricing_plan_id":"cebpf4jnsgd1na2vs0mg"},{"bike_id":"c6af8e20-0757-49a7-9e90-4ab9254669fc","system_id":"levelo_inurba_marseille","lat":43.23963,"lon":5.36635,"is_reserved":false,"is_disabled":false,"rental_uris":{"android":"levelo://app?vid=c6af8e20-0757-49a7-9e90-4ab9254669fc","ios":"levelo://app?vid=c6af8e20-0757-49a7-9e90-4ab9254669fc"},"vehicle_type_id":"4","last_reported":1744974495,"current_range_meters":21600,"station_id":"ce4bhi12rcd13ifvqfp0","pricing_plan_id":"cebpf4jnsgd1na2vs0mg"},{"bike_id":"9e0fa519-8c7d-45a0-bee0-af55ec953c6c","system_id":"levelo_inurba_marseille","lat":43.24193,"lon":5.36373,"is_reserved":false,"is_disabled":false,"rental_uris":{"android":"levelo://app?vid=9e0fa519-8c7d-45a0-bee0-af55ec953c6c","ios":"levelo://app?vid=9e0fa519-8c7d-45a0-bee0-af55ec953c6c"},"vehicle_type_id":"4","last_reported":1744974495,"current_range_meters":21600,"station_id":"cpo36qri1sfpv3e86is0","pricing_plan_id":"cebpf4jnsgd1na2vs0mg"},{"bike_id":"9fe5a21c-f0f8-4aa0-9923-0647cf95e2c8","system_id":"levelo_inurba_marseille","lat":43.29035,"lon":5.3865,"is_reserved":false,"is_disabled":false,"rental_uris":{"android":"levelo://app?vid=9fe5a21c-f0f8-4aa0-9923-0647cf95e2c8","ios":"levelo://app?vid=9fe5a21c-f0f8-4aa0-9923-0647cf95e2c8"},"vehicle_type_id":"4","last_reported":1744974495,"current_range_meters":21600,"station_id":"ce4bh4p2rcd13ifvqe0g","pricing_plan_id":"cebpf4jnsgd1na2vs0mg"},{"bike_id":"da9abe66-4660-4bde-b4fa-9e8443b45120","system_id":"levelo_inurba_marseille","lat":43.21748,"lon":5.34595,"is_reserved":false,"is_disabled":false,"rental_uris":{"android":"levelo://app?vid=da9abe66-4660-4bde-b4fa-9e8443b45120","ios":"levelo://app?vid=da9abe66-4660-4bde-b4fa-9e8443b45120"},"vehicle_type_id":"4","last_reported":1744974495,"current_range_meters":21600,"station_id":"st_cvj6r9ubvosntc0bgbag","pricing_plan_id":"cebpf4jnsgd1na2vs0mg"},{"bike_id":"72fe9364-a7e5-48fd-9f5c-0aa3b9b66c58","system_id":"levelo_inurba_marseille","lat":43.27985,"lon":5.41635,"is_reserved":false,"is_disabled":false,"rental_uris":{"android":"levelo://app?vid=72fe9364-a7e5-48fd-9f5c-0aa3b9b66c58","ios":"levelo://app?vid=72fe9364-a7e5-48fd-9f5c-0aa3b9b66c58"},"vehicle_type_id":"4","last_reported":1744974495,"current_range_meters":21600,"station_id":"ce4bho12rcd13ifvqh1g","pricing_plan_id":"cebpf4jnsgd1na2vs0mg"},{"bike_id":"4195f33d-c004-4975-934b-d7b237db32f5","system_id":"levelo_inurba_marseille","lat":43.21192,"lon":5.35072,"is_reserved":false,"is_disabled":false,"rental_uris":{"android":"levelo://app?vid=4195f33d-c004-4975-934b-d7b237db32f5","ios":"levelo://app?vid=4195f33d-c004-4975-934b-d7b237db32f5"},"vehicle_type_id":"4","last_reported":1744974495,"current_range_meters":21600,"station_id":"st_cvj6sg6p6f1abm77japg","pricing_plan_id":"cebpf4jnsgd1na2vs0mg"},{"bike_id":"d775a69a-2038-4c31-b285-96fb9d926a56","system_id":"levelo_inurba_marseille","lat":43.29772,"lon":5.36442,"is_reserved":false,"is_disabled":false,"rental_uris":{"android":"levelo://app?vid=d775a69a-2038-4c31-b285-96fb9d926a56","ios":"levelo://app?vid=d775a69a-2038-4c31-b285-96fb9d926a56"},"vehicle_type_id":"4","last_reported":1744974495,"current_range_meters":22000,"station_id":"","pricing_plan_id":"cebpf4jnsgd1na2vs0mg"},{"bike_id":"c943bf95-69f3-4d3d-9818-7ef3675dcaf1","system_id":"levelo_inurba_marseille","lat":43.23059,"lon":5.35493,"is_reserved":false,"is_disabled":false,"rental_uris":{"android":"levelo://app?vid=c943bf95-69f3-4d3d-9818-7ef3675dcaf1","ios":"levelo://app?vid=c943bf95-69f3-4d3d-9818-7ef3675dcaf1"},"vehicle_type_id":"4","last_reported":1744974495,"current_range_meters":22000,"station_id":"cpo3342slgdg3j2ifvpg","pricing_plan_id":"cebpf4jnsgd1na2vs0mg"},{"bike_id":"8973ca62-a1f8-40e8-bbff-eea663a44ede","system_id":"levelo_inurba_marseille","lat":43.28699,"lon":5.39992,"is_reserved":false,"is_disabled":false,"rental_uris":{"android":"levelo://app?vid=8973ca62-a1f8-40e8-bbff-eea663a44ede","ios":"levelo://app?vid=8973ca62-a1f8-40e8-bbff-eea663a44ede"},"vehicle_type_id":"4","last_reported":1744974495,"current_range_meters":22000,"station_id":"ce4bho92rcd13ifvqh3g","pricing_plan_id":"cebpf4jnsgd1na2vs0mg"},{"bike_id":"b9256e4c-9f36-4e1a-b77a-1a381867ca37","system_id":"levelo_inurba_marseille","lat":43.26565,"lon":5.39028,"is_reserved":false,"is_disabled":false,"rental_uris":{"android":"levelo://app?vid=b9256e4c-9f36-4e1a-b77a-1a381867ca37","ios":"levelo://app?vid=b9256e4c-9f36-4e1a-b77a-1a381867ca37"},"vehicle_type_id":"4","last_reported":1744974495,"current_range_meters":22000,"station_id":"ce4bhe12rcd13ifvqf30","pricing_plan_id":"cebpf4jnsgd1na2vs0mg"},{"bike_id":"88937861-50a4-439b-8182-27a08df297bd","system_id":"levelo_inurba_marseille","lat":43.23961,"lon":5.36632,"is_reserved":false,"is_disabled":false,"rental_uris":{"android":"levelo://app?vid=88937861-50a4-439b-8182-27a08df297bd","ios":"levelo://app?vid=88937861-50a4-439b-8182-27a08df297bd"},"vehicle_type_id":"4","last_reported":1744974495,"current_range_meters":22000,"station_id":"ce4bhi12rcd13ifvqfp0","pricing_plan_id":"cebpf4jnsgd1na2vs0mg"},{"bike_id":"b1ac05fc-7a9e-4d53-8434-ea2c7c5106f5","system_id":"levelo_inurba_marseille","lat":43.28614,"lon":5.35103,"is_reserved":false,"is_disabled":false,"rental_uris":{"android":"levelo://app?vid=b1ac05fc-7a9e-4d53-8434-ea2c7c5106f5","ios":"levelo://app?vid=b1ac05fc-7a9e-4d53-8434-ea2c7c5106f5"},"vehicle_type_id":"4","last_reported":1744974495,"current_range_meters":22000,"station_id":"ce4bhch2rcd13ifvqeug","pricing_plan_id":"cebpf4jnsgd1na2vs0mg"},{"bike_id":"99062e51-0348-47f0-b002-ff3974ccfd47","system_id":"levelo_inurba_marseille","lat":43.21208,"lon":5.35071,"is_reserved":false,"is_disabled":false,"rental_uris":{"android":"levelo://app?vid=99062e51-0348-47f0-b002-ff3974ccfd47","ios":"levelo://app?vid=99062e51-0348-47f0-b002-ff3974ccfd47"},"vehicle_type_id":"4","last_reported":1744974495,"current_range_meters":22400,"station_id":"st_cvj6sg6p6f1abm77japg","pricing_plan_id":"cebpf4jnsgd1na2vs0mg"},{"bike_id":"56b8b8b2-fe25-4bd6-b8ee-89ebffa2b48b","system_id":"levelo_inurba_marseille","lat":43.27376,"lon":5.36253,"is_reserved":false,"is_disabled":false,"rental_uris":{"android":"levelo://app?vid=56b8b8b2-fe25-4bd6-b8ee-89ebffa2b48b","ios":"levelo://app?vid=56b8b8b2-fe25-4bd6-b8ee-89ebffa2b48b"},"vehicle_type_id":"4","last_reported":1744974495,"current_range_meters":22400,"station_id":"ce4bhbh2rcd13ifvqeo0","pricing_plan_id":"cebpf4jnsgd1na2vs0mg"},{"bike_id":"b22472bb-fa13-4f8a-abc7-0a20813a4a24","system_id":"levelo_inurba_marseille","lat":43.28427,"lon":5.34993,"is_reserved":false,"is_disabled":false,"rental_uris":{"android":"levelo://app?vid=b22472bb-fa13-4f8a-abc7-0a20813a4a24","ios":"levelo://app?vid=b22472bb-fa13-4f8a-abc7-0a20813a4a24"},"vehicle_type_id":"4","last_reported":1744974495,"current_range_meters":22400,"station_id":"ce4bhbh2rcd13ifvqepg","pricing_plan_id":"cebpf4jnsgd1na2vs0mg"},{"bike_id":"17794197-9eb4-400b-8aa9-0f6bafb80137","system_id":"levelo_inurba_marseille","lat":43.23967,"lon":5.36633,"is_reserved":false,"is_disabled":false,"rental_uris":{"android":"levelo://app?vid=17794197-9eb4-400b-8aa9-0f6bafb80137","ios":"levelo://app?vid=17794197-9eb4-400b-8aa9-0f6bafb80137"},"vehicle_type_id":"4","last_reported":1744974495,"current_range_meters":22400,"station_id":"ce4bhi12rcd13ifvqfp0","pricing_plan_id":"cebpf4jnsgd1na2vs0mg"},{"bike_id":"e5dad19a-f286-4cf8-abaf-12d23435c095","system_id":"levelo_inurba_marseille","lat":43.30146,"lon":5.3742,"is_reserved":false,"is_disabled":false,"rental_uris":{"android":"levelo://app?vid=e5dad19a-f286-4cf8-abaf-12d23435c095","ios":"levelo://app?vid=e5dad19a-f286-4cf8-abaf-12d23435c095"},"vehicle_type_id":"4","last_reported":1744974495,"current_range_meters":22400,"station_id":"ce4bgs92rcd13ifvqcc0","pricing_plan_id":"cebpf4jnsgd1na2vs0mg"},{"bike_id":"35cb5da7-3797-428c-bac7-3d7fc0226f7f","system_id":"levelo_inurba_marseille","lat":43.2408,"lon":5.37751,"is_reserved":false,"is_disabled":false,"rental_uris":{"android":"levelo://app?vid=35cb5da7-3797-428c-bac7-3d7fc0226f7f","ios":"levelo://app?vid=35cb5da7-3797-428c-bac7-3d7fc0226f7f"},"vehicle_type_id":"4","last_reported":1744974495,"current_range_meters":22400,"station_id":"ce4bhnp2rcd13ifvqgvg","pricing_plan_id":"cebpf4jnsgd1na2vs0mg"},