{"last_updated":1731773394,"ttl":60,"version":"2.2","data":{"bikes":[{"bike_id":"8e5ff47f-462a-4fda-8b14-c61f3ac1a6ad","system_id":"levelo_inurba_marseille","lat":43.29308,"lon":5.37173,"is_reserved":false,"is_disabled":false,"rental_uris":{"android":"levelo://app?vid=8e5ff47f-462a-4fda-8b14-c61f3ac1a6ad","ios":"levelo://app?vid=8e5ff47f-462a-4fda-8b14-c61f3ac1a6ad"},"vehicle_type_id":"4","last_reported":1731773394,"current_range_meters":3200,"station_id":"ce4bgh92rcd13ifvqb40","pricing_plan_id":"cebpf4jnsgd1na2vs0mg"},{"bike_id":"91b8182b-5335-4b93-9267-3c96c19bc443","system_id":"levelo_inurba_marseille","lat":43.28447,"lon":5.39199,"is_reserved":false,"is_disabled":false,"rental_uris":{"android":"levelo://app?vid=91b8182b-5335-4b93-9267-3c96c19bc443","ios":"levelo://app?vid=91b8182b-5335-4b93-9267-3c96c19bc443"},"vehicle_type_id":"4","last_reported":1731773394,"current_range_meters":11200,"station_id":"ce4bhoh2rcd13ifvqh5g","pricing_plan_id":"cebpf4jnsgd1na2vs0mg"},{"bike_id":"53fcb587-38fb-4fdd-afe2-048396fb0a6b","system_id":"levelo_inurba_marseille","lat":43.30542,"lon":5.36558,"is_reserved":false,"is_disabled":false,"rental_uris":{"android":"levelo://app?vid=53fcb587-38fb-4fdd-afe2-048396fb0a6b","ios":"levelo://app?vid=53fcb587-38fb-4fdd-afe2-048396fb0a6b"},"vehicle_type_id":"4","last_reported":1731773394,"current_range_meters":22400,"station_id":"ce4bgs12rcd13ifvqcag","pricing_plan_id":"cebpf4jnsgd1na2vs0mg"},{"bike_id":"3463bcc2-8185-4fdd-bdbc-e97c0c9326a9","system_id":"levelo_inurba_marseille","lat":43.291107,"lon":5.380778,"is_reserved":false,"is_disabled":false,"rental_uris":{"android":"levelo://app?vid=3463bcc2-8185-4fdd-bdbc-e97c0c9326a9","ios":"levelo://app?vid=3463bcc2-8185-4fdd-bdbc-e97c0c9326a9"},"vehicle_type_id":"4","last_reported":1731773394,"current_range_meters":27200,"station_id":"ce4bh292rcd13ifvqdg0","pricing_plan_id":"cebpf4jnsgd1na2vs0mg"},{"bike_id":"58826a0e-8225-48c9-b4f4-62695c07707d","system_id":"levelo_inurba_marseille","lat":43.26935,"lon":5.38923,"is_reserved":false,"is_disabled":false,"rental_uris":{"android":"levelo://app?vid=58826a0e-8225-48c9-b4f4-62695c07707d","ios":"levelo://app?vid=58826a0e-8225-48c9-b4f4-62695c07707d"},"vehicle_type_id":"4","last_reported":1731773394,"current_range_meters":8400,"station_id":"ce4bhhh2rcd13ifvqfl0","pricing_plan_id":"cebpf4jnsgd1na2vs0mg"},{"bike_id":"12aa5ede-a12c-4041-ba8d-292720f85568","system_id":"levelo_inurba_marseille","lat":43.28939,"lon":5.38405,"is_reserved":false,"is_disabled":false,"rental_uris":{"android":"levelo://app?vid=12aa5ede-a12c-4041-ba8d-292720f85568","ios":"levelo://app?vid=12aa5ede-a12c-4041-ba8d-292720f85568"},"vehicle_type_id":"4","last_reported":1731773394,"current_range_meters":18800,"station_id":"ce4bh612rcd13ifvqe6g","pricing_plan_id":"cebpf4jnsgd1na2vs0mg"},{"bike_id":"b19e3b82-3ef7-4ef9-92d1-ebdc8fc23327","system_id":"levelo_inurba_marseille","lat":43.25014,"lon":5.38915,"is_reserved":false,"is_disabled":false,"rental_uris":{"android":"levelo://app?vid=b19e3b82-3ef7-4ef9-92d1-ebdc8fc23327","ios":"levelo://app?vid=b19e3b82-3ef7-4ef9-92d1-ebdc8fc23327"},"vehicle_type_id":"4","last_reported":1731773394,"current_range_meters":30400,"station_id":"ce4bhgp2rcd13ifvqfd0","pricing_plan_id":"cebpf4jnsgd1na2vs0mg"},{"bike_id":"075a53da-9394-4c31-a08c-6bbe2811953b","system_id":"levelo_inurba_marseille","lat":43.29808,"lon":5.38105,"is_reserved":false,"is_disabled":false,"rental_uris":{"android":"levelo://app?vid=075a53da-9394-4c31-a08c-6bbe2811953b","ios":"levelo://app?vid=075a53da-9394-4c31-a08c-6bbe2811953b"},"vehicle_type_id":"4","last_reported":1731773394,"current_range_meters":12400,"station_id":"ce4bgip2rcd13ifvqbb0","pricing_plan_id":"cebpf4jnsgd1na2vs0mg"},{"bike_id":"ab6dc4ee-6007-4de0-8391-e0c3a471920a","system_id":"levelo_inurba_marseille","lat":43.29612,"lon":5.37713,"is_reserved":false,"is_disabled":false,"rental_uris":{"android":"levelo://app?vid=ab6dc4ee-6007-4de0-8391-e0c3a471920a","ios":"levelo://app?vid=ab6dc4ee-6007-4de0-8391-e0c3a471920a"},"vehicle_type_id":"4","last_reported":1731773394,"current_range_meters":25600,"station_id":"ce4bgi92rcd13ifvqb90","pricing_plan_id":"cebpf4jnsgd1na2vs0mg"},{"bike_id":"d9d8a7d9-cde4-4fab-ab69-fcee8fe6a6da","system_id":"levelo_inurba_marseille","lat":43.25022,"lon":5.38925,"is_reserved":false,"is_disabled":false,"rental_uris":{"android":"levelo://app?vid=d9d8a7d9-cde4-4fab-ab69-fcee8fe6a6da","ios":"levelo://app?vid=d9d8a7d9-cde4-4fab-ab69-fcee8fe6a6da"},"vehicle_type_id":"4","last_reported":1731773394,"current_range_meters":12400,"station_id":"ce4bhgp2rcd13ifvqfd0","pricing_plan_id":"cebpf4jnsgd1na2vs0mg"},{"bike_id":"083dbee0-0e04-4a5e-93ff-4f8789a778b7","system_id":"levelo_inurba_marseille","lat":43.22929,"lon":5.35379,"is_reserved":false,"is_disabled":false,"rental_uris":{"android":"levelo://app?vid=083dbee0-0e04-4a5e-93ff-4f8789a778b7","ios":"levelo://app?vid=083dbee0-0e04-4a5e-93ff-4f8789a778b7"},"vehicle_type_id":"4","last_reported":1731773394,"current_range_meters":38000,"station_id":"cpo3532slgdg3j2ikp40","pricing_plan_id":"cebpf4jnsgd1na2vs0mg"},{"bike_id":"83ebfceb-c5ca-436a-888a-dae5ff01d4aa","system_id":"levelo_inurba_marseille","lat":43.28152,"lon":5.42649,"is_reserved":false,"is_disabled":false,"rental_uris":{"android":"levelo://app?vid=83ebfceb-c5ca-436a-888a-dae5ff01d4aa","ios":"levelo://app?vid=83ebfceb-c5ca-436a-888a-dae5ff01d4aa"},"vehicle_type_id":"4","last_reported":1731773394,"current_range_meters":22000,"station_id":"ce4bhnh2rcd13ifvqgug","pricing_plan_id":"cebpf4jnsgd1na2vs0mg"},{"bike_id":"df6ac28b-42fe-42de-92af-df1e117841f5","system_id":"levelo_inurba_marseille","lat":43.28699,"lon":5.37396,"is_reserved":false,"is_disabled":false,"rental_uris":{"android":"levelo://app?vid=df6ac28b-42fe-42de-92af-df1e117841f5","ios":"levelo://app?vid=df6ac28b-42fe-42de-92af-df1e117841f5"},"vehicle_type_id":"4","last_reported":1731773394,"current_range_meters":38800,"station_id":"ce4bh3p2rcd13ifvqdq0","pricing_plan_id":"cebpf4jnsgd1na2vs0mg"},{"bike_id":"236ef31b-0d6c-4260-8635-d2eb0dc28c50","system_id":"levelo_inurba_marseille","lat":43.25872,"lon":5.39896,"is_reserved":false,"is_disabled":false,"rental_uris":{"android":"levelo://app?vid=236ef31b-0d6c-4260-8635-d2eb0dc28c50","ios":"levelo://app?vid=236ef31b-0d6c-4260-8635-d2eb0dc28c50"},"vehicle_type_id":"4","last_reported":1731773394,"current_range_meters":3200,"station_id":"ce4bhl92rcd13ifvqghg","pricing_plan_id":"cebpf4jnsgd1na2vs0mg"},{"bike_id":"c38446fc-9e04-49eb-a7a6-dc33ea4f4ed8","system_id":"levelo_inurba_marseille","lat":43.29724,"lon":5.37688,"is_reserved":false,"is_disabled":false,"rental_uris":{"android":"levelo://app?vid=c38446fc-9e04-49eb-a7a6-dc33ea4f4ed8","ios":"levelo://app?vid=c38446fc-9e04-49eb-a7a6-dc33ea4f4ed8"},"vehicle_type_id":"4","last_reported":1731773394,"current_range_meters":38000,"station_id":"ce4bgkh2rcd13ifvqbl0","pricing_plan_id":"cebpf4jnsgd1na2vs0mg"},{"bike_id":"5c8f882d-7a6f-41f6-8199-3c87df3d20ef","system_id":"levelo_inurba_marseille","lat":43.34141,"lon":5.40905,"is_reserved":false,"is_disabled":false,"rental_uris":{"android":"levelo://app?vid=5c8f882d-7a6f-41f6-8199-3c87df3d20ef","ios":"levelo://app?vid=5c8f882d-7a6f-41f6-8199-3c87df3d20ef"},"vehicle_type_id":"4","last_reported":1731773394,"current_range_meters":22400,"station_id":"ce4bhqh2rcd13ifvqhlg","pricing_plan_id":"cebpf4jnsgd1na2vs0mg"},{"bike_id":"6b0ea79e-cb12-4a50-9845-e4686b3cacc8","system_id":"levelo_inurba_marseille","lat":43.295751,"lon":5.399791,"is_reserved":false,"is_disabled":false,"rental_uris":{"android":"levelo://app?vid=6b0ea79e-cb12-4a50-9845-e4686b3cacc8","ios":"levelo://app?vid=6b0ea79e-cb12-4a50-9845-e4686b3cacc8"},"vehicle_type_id":"4","last_reported":1731773394,"current_range_meters":13600,"station_id":"","pricing_plan_id":"cebpf4jnsgd1na2vs0mg"},{"bike_id":"5f04684e-4480-4e4c-b5db-f562148db1e7","system_id":"levelo_inurba_marseille","lat":43.2993,"lon":5.36554,"is_reserved":false,"is_disabled":false,"rental_uris":{"android":"levelo://app?vid=5f04684e-4480-4e4c-b5db-f562148db1e7","ios":"levelo://app?vid=5f04684e-4480-4e4c-b5db-f562148db1e7"},"vehicle_type_id":"4","last_reported":1731773394,"current_range_meters":22400,"station_id":"ce4bgm92rcd13ifvqbr0","pricing_plan_id":"cebpf4jnsgd1na2vs0mg"},{"bike_id":"72499688-a320-4333-843e-c093213a74e4","system_id":"levelo_inurba_marseille","lat":43.23061,"lon":5.35493,"is_reserved":false,"is_disabled":false,"rental_uris":{"android":"levelo://app?vid=72499688-a320-4333-843e-c093213a74e4","ios":"levelo://app?vid=72499688-a320-4333-843e-c093213a74e4"},"vehicle_type_id":"4","last_reported":1731773394,"current_range_meters":8800,"station_id":"cpo3342slgdg3j2ifvpg","pricing_plan_id":"cebpf4jnsgd1na2vs0mg"},{"bike_id":"76f237c0-ae62-4179-a4cb-5f216f2eebdf","system_id":"levelo_inurba_marseille","lat":43.24072,"lon":5.37767,"is_reserved":false,"is_disabled":false,"rental_uris":{"android":"levelo://app?vid=76f237c0-ae62-4179-a4cb-5f216f2eebdf","ios":"levelo://app?vid=76f237c0-ae62-4179-a4cb-5f216f2eebdf"},"vehicle_type_id":"4","last_reported":1731773394,"current_range_meters":36800,"station_id":"ce4bhnp2rcd13ifvqgvg","pricing_plan_id":"cebpf4jnsgd1na2vs0mg"},{"bike_id":"a5787d64-e0a5-42d7-ad57-539def37c7f7","system_id":"levelo_inurba_marseille","lat":43.28154,"lon":5.42641,"is_reserved":false,"is_disabled":false,"rental_uris":{"android":"levelo://app?vid=a5787d64-e0a5-42d7-ad57-539def37c7f7","ios":"levelo://app?vid=a5787d64-e0a5-42d7-ad57-539def37c7f7"},"vehicle_type_id":"4","last_reported":1731773394,"current_range_meters":6000,"station_id":"ce4bhnh2rcd13ifvqgug","pricing_plan_id":"cebpf4jnsgd1na2vs0mg"},{"bike_id":"0567e2e5-fc3e-4106-8c9f-08f76f204fb6","system_id":"levelo_inurba_marseille","lat":43.29649,"lon":5.3774,"is_reserved":false,"is_disabled":false,"rental_uris":{"android":"levelo://app?vid=0567e2e5-fc3e-4106-8c9f-08f76f204fb6","ios":"levelo://app?vid=0567e2e5-fc3e-4106-8c9f-08f76f204fb6"},"vehicle_type_id":"4","last_reported":1731773394,"current_range_meters":25200,"station_id":"ce4bgi92rcd13ifvqb90","pricing_plan_id":"cebpf4jnsgd1na2vs0mg"},{"bike_id":"0e1d2e7a-8318-45fe-af1b-31857eb1aac8","system_id":"levelo_inurba_marseille","lat":43.23965,"lon":5.36631,"is_reserved":false,"is_disabled":false,"rental_uris":{"android":"levelo://app?vid=0e1d2e7a-8318-45fe-af1b-31857eb1aac8","ios":"levelo://app?vid=0e1d2e7a-8318-45fe-af1b-31857eb1aac8"},"vehicle_type_id":"4","last_reported":1731773394,"current_range_meters":28800,"station_id":"ce4bhi12rcd13ifvqfp0","pricing_plan_id":"cebpf4jnsgd1na2vs0mg"},{"bike_id":"0f745b9e-a432-414a-b0d5-cf65f2cfcf9b","system_id":"levelo_inurba_marseille","lat":43.34153,"lon":5.409,"is_reserved":false,"is_disabled":false,"rental_uris":{"android":"levelo://app?vid=0f745b9e-a432-414a-b0d5-cf65f2cfcf9b","ios":"levelo://app?vid=0f745b9e-a432-414a-b0d5-cf65f2cfcf9b"},"vehicle_type_id":"4","last_reported":1731773394,"current_range_meters":33200,"station_id":"ce4bhqh2rcd13ifvqhlg","pricing_plan_id":"cebpf4jnsgd1na2vs0mg"},{"bike_id":"cf2b71d3-e247-4fa9-939f-9177c93093ca","system_id":"levelo_inurba_marseille","lat":43.25205,"lon":5.37578,"is_reserved":false,"is_disabled":false,"rental_uris":{"android":"levelo://app?vid=cf2b71d3-e247-4fa9-939f-9177c93093ca","ios":"levelo://app?vid=cf2b71d3-e247-4fa9-939f-9177c93093ca"},"vehicle_type_id":"4","last_reported":1731773394,"current_range_meters":4000,"station_id":"ce4bh692rcd13ifvqea0","pricing_plan_id":"cebpf4jnsgd1na2vs0mg"},{"bike_id":"39fe9b69-44e6-404f-a8ae-63e08256a6a7","system_id":"levelo_inurba_marseille","lat":43.2908,"lon":5.37221,"is_reserved":false,"is_disabled":false,"rental_uris":{"android":"levelo://app?vid=39fe9b69-44e6-404f-a8ae-63e08256a6a7","ios":"levelo://app?vid=39fe9b69-44e6-404f-a8ae-63e08256a6a7"},"vehicle_type_id":"4","last_reported":1731773394,"current_range_meters":6000,"station_id":"cki0cbj6b192h4jlfktg","pricing_plan_id":"cebpf4jnsgd1na2vs0mg"},{"bike_id":"9755b561-dd8a-4bb5-8c69-4b72c8be9722","system_id":"levelo_inurba_marseille","lat":43.312297,"lon":5.368563,"is_reserved":false,"is_disabled":false,"rental_uris":{"android":"levelo://app?vid=9755b561-dd8a-4bb5-8c69-4b72c8be9722","ios":"levelo://app?vid=9755b561-dd8a-4bb5-8c69-4b72c8be9722"},"vehicle_type_id":"4","last_reported":1731773394,"current_range_meters":12800,"station_id":"ce4bgl92rcd13ifvqbq0","pricing_plan_id":"cebpf4jnsgd1na2vs0mg"},{"bike_id":"da00f42f-fd67-432b-a7b5-07027fd5399a","system_id":"levelo_inurba_marseille","lat":43.29583,"lon":5.37502,"is_reserved":false,"is_disabled":false,"rental_uris":{"android":"levelo://app?vid=da00f42f-fd67-432b-a7b5-07027fd5399a","ios":"levelo://app?vid=da00f42f-fd67-432b-a7b5-07027fd5399a"},"vehicle_type_id":"4","last_reported":1731773394,"current_range_meters":28400,"station_id":"ce4bgh92rcd13ifvqb50","pricing_plan_id":"cebpf4jnsgd1na2vs0mg"},{"bike_id":"76ca72a1-435c-411e-bf52-917b59f81334","system_id":"levelo_inurba_marseille","lat":43.29043,"lon":5.37568,"is_reserved":false,"is_disabled":false,"rental_uris":{"android":"levelo://app?vid=76ca72a1-435c-411e-bf52-917b59f81334","ios":"levelo://app?vid=76ca72a1-435c-411e-bf52-917b59f81334"},"vehicle_type_id":"4","last_reported":1731773394,"current_range_meters":30000,"station_id":"ce4bh692rcd13ifvqe90","pricing_plan_id":"cebpf4jnsgd1na2vs0mg"},{"bike_id":"9285810a-20e7-4d99-a229-aafe61f891bd","system_id":"levelo_inurba_marseille","lat":43.29898,"lon":5.38529,"is_reserved":false,"is_disabled":false,"rental_uris":{"android":"levelo://app?vid=9285810a-20e7-4d99-a229-aafe61f891bd","ios":"levelo://app?vid=9285810a-20e7-4d99-a229-aafe61f891bd"},"vehicle_type_id":"4","last_reported":1731773394,"current_range_meters":23200,"station_id":"","pricing_plan_id":"cebpf4jnsgd1na2vs0mg"},{"bike_id":"321e6aad-65ac-4aba-a3fa-32f2f9ff7149","system_id":"levelo_inurba_marseille","lat":43.23969,"lon":5.36633,"is_reserved":false,"is_disabled":false,"rental_uris":{"android":"levelo://app?vid=321e6aad-65ac-4aba-a3fa-32f2f9ff7149","ios":"levelo://app?vid=321e6aad-65ac-4aba-a3fa-32f2f9ff7149"},"vehicle_type_id":"4","last_reported":1731773394,"current_range_meters":22800,"station_id":"ce4bhi12rcd13ifvqfp0","pricing_plan_id":"cebpf4jnsgd1na2vs0mg"},{"bike_id":"6875c373-3a3e-464e-8826-15cf173d3295","system_id":"levelo_inurba_marseille","lat":43.24174,"lon":5.36392,"is_reserved":false,"is_disabled":false,"rental_uris":{"android":"levelo://app?vid=6875c373-3a3e-464e-8826-15cf173d3295","ios":"levelo://app?vid=6875c373-3a3e-464e-8826-15cf173d3295"},"vehicle_type_id":"4","last_reported":1731773394,"current_range_meters":37600,"station_id":"cpo36qri1sfpv3e86is0","pricing_plan_id":"cebpf4jnsgd1na2vs0mg"},{"bike_id":"c5783388-38e2-4a51-b737-2f038d73693f","system_id":"levelo_inurba_marseille","lat":43.300959,"lon":5.391113,"is_reserved":false,"is_disabled":false,"rental_uris":{"android":"levelo://app?vid=c5783388-38e2-4a51-b737-2f038d73693f","ios":"levelo://app?vid=c5783388-38e2-4a51-b737-2f038d73693f"},"vehicle_type_id":"4","last_reported":1731773394,"current_range_meters":36800,"station_id":"ce4bh192rcd13ifvqdb0","pricing_plan_id":"cebpf4jnsgd1na2vs0mg"},{"bike_id":"3fcbe528-45e3-439d-80db-ce667e24fe73","system_id":"levelo_inurba_marseille","lat":43.23066,"lon":5.35485,"is_reserved":false,"is_disabled":false,"rental_uris":{"android":"levelo://app?vid=3fcbe528-45e3-439d-80db-ce667e24fe73","ios":"levelo://app?vid=3fcbe528-45e3-439d-80db-ce667e24fe73"},"vehicle_type_id":"4","last_reported":1731773394,"current_range_meters":21600,"station_id":"cpo3342slgdg3j2ifvpg","pricing_plan_id":"cebpf4jnsgd1na2vs0mg"},{"bike_id":"b2f45d15-d036-4f36-a361-a492e289342e","system_id":"levelo_inurba_marseille","lat":43.22933,"lon":5.35374,"is_reserved":false,"is_disabled":false,"rental_uris":{"android":"levelo://app?vid=b2f45d15-d036-4f36-a361-a492e289342e","ios":"levelo://app?vid=b2f45d15-d036-4f36-a361-a492e289342e"},"vehicle_type_id":"4","last_reported":1731773394,"current_range_meters":38800,"station_id":"cpo3532slgdg3j2ikp40","pricing_plan_id":"cebpf4jnsgd1na2vs0mg"},{"bike_id":"c0c6273e-298a-45a8-9dd4-a4c5984d82de","system_id":"levelo_inurba_marseille","lat":43.28154,"lon":5.42644,"is_reserved":false,"is_disabled":false,"rental_uris":{"android":"levelo://app?vid=c0c6273e-298a-45a8-9dd4-a4c5984d82de","ios":"levelo://app?vid=c0c6273e-298a-45a8-9dd4-a4c5984d82de"},"vehicle_type_id":"4","last_reported":1731773394,"current_range_meters":25200,"station_id":"ce4bhnh2rcd13ifvqgug","pricing_plan_id":"cebpf4jnsgd1na2vs0mg"},{"bike_id":"24210425-c533-4193-8405-f2acbe2afb05","system_id":"levelo_inurba_marseille","lat":43.26214,"lon":5.37444,"is_reserved":false,"is_disabled":false,"rental_uris":{"android":"levelo://app?vid=24210425-c533-4193-8405-f2acbe2afb05","ios":"levelo://app?vid=24210425-c533-4193-8405-f2acbe2afb05"},"vehicle_type_id":"4","last_reported":1731773394,"current_range_meters":30400,"station_id":"ce4bhgp2rcd13ifvqfc0","pricing_plan_id":"cebpf4jnsgd1na2vs0mg"},{"bike_id":"9c8e7976-5f8d-43c5-8bc4-45f4f434d984","system_id":"levelo_inurba_marseille","lat":43.25862,"lon":5.39893,"is_reserved":false,"is_disabled":false,"rental_uris":{"android":"levelo://app?vid=9c8e7976-5f8d-43c5-8bc4-45f4f434d984","ios":"levelo://app?vid=9c8e7976-5f8d-43c5-8bc4-45f4f434d984"},"vehicle_type_id":"4","last_reported":1731773394,"current_range_meters":16000,"station_id":"ce4bhl92rcd13ifvqghg","pricing_plan_id":"cebpf4jnsgd1na2vs0mg"},{"bike_id":"d8b239c6-e11e-44a3-99c7-58028b6e5991","system_id":"levelo_inurba_marseille","lat":43.31069,"lon":5.38357,"is_reserved":false,"is_disabled":false,"rental_uris":{"android":"levelo://app?vid=d8b239c6-e11e-44a3-99c7-58028b6e5991","ios":"levelo://app?vid=d8b239c6-e11e-44a3-99c7-58028b6e5991"},"vehicle_type_id":"4","last_reported":1731773394,"current_range_meters":28800,"station_id":"ce4bgv92rcd13ifvqcr0","pricing_plan_id":"cebpf4jnsgd1na2vs0mg"},{"bike_id":"3b4d1d36-ba15-4eb6-a7c5-a9a111c5f1e6","system_id":"levelo_inurba_marseille","lat":43.2849,"lon":5.38418,"is_reserved":false,"is_disabled":false,"rental_uris":{"android":"levelo://app?vid=3b4d1d36-ba15-4eb6-a7c5-a9a111c5f1e6","ios":"levelo://app?vid=3b4d1d36-ba15-4eb6-a7c5-a9a111c5f1e6"},"vehicle_type_id":"4","last_reported":1731773394,"current_range_meters":38400,"station_id":"ce4bh512rcd13ifvqe3g","pricing_plan_id":"cebpf4jnsgd1na2vs0mg"},{"bike_id":"93d2c10d-2e1b-442f-8e24-c26cca547612","system_id":"levelo_inurba_marseille","lat":43.337444,"lon":5.374475,"is_reserved":false,"is_disabled":false,"rental_uris":{"android":"levelo://app?vid=93d2c10d-2e1b-442f-8e24-c26cca547612","ios":"levelo://app?vid=93d2c10d-2e1b-442f-8e24-c26cca547612"},"vehicle_type_id":"4","last_reported":1731773394,"current_range_meters":36400,"station_id":"","pricing_plan_id":"cebpf4jnsgd1na2vs0mg"},{"bike_id":"1731fa73-723a-45c8-878b-c2f4c9647a97","system_id":"levelo_inurba_marseille","lat":43.29538,"lon":5.39406,"is_reserved":false,"is_disabled":false,"rental_uris":{"android":"levelo://app?vid=1731fa73-723a-45c8-878b-c2f4c9647a97","ios":"levelo://app?vid=1731fa73-723a-45c8-878b-c2f4c9647a97"},"vehicle_type_id":"4","last_reported":1731773394,"current_range_meters":21600,"station_id":"ce4bh292rcd13ifvqdf0","pricing_plan_id":"cebpf4jnsgd1na2vs0mg"},{"bike_id":"6d6a0dde-c067-4493-bad2-5ee0d9b9474d","system_id":"levelo_inurba_marseille","lat":43.293,"lon":5.37478,"is_reserved":false,"is_disabled":false,"rental_uris":{"android":"levelo://app?vid=6d6a0dde-c067-4493-bad2-5ee0d9b9474d","ios":"levelo://app?vid=6d6a0dde-c067-4493-bad2-5ee0d9b9474d"},"vehicle_type_id":"4","last_reported":1731773394,"current_range_meters":36000,"station_id":"ce4bgi12rcd13ifvqb70","pricing_plan_id":"cebpf4jnsgd1na2vs0mg"},{"bike_id":"31885d01-d6d9-469b-850c-9f5eb6fb47fe","system_id":"levelo_inurba_marseille","lat":43.24084,"lon":5.37752,"is_reserved":false,"is_disabled":false,"rental_uris":{"android":"levelo://app?vid=31885d01-d6d9-469b-850c-9f5eb6fb47fe","ios":"levelo://app?vid=31885d01-d6d9-469b-850c-9f5eb6fb47fe"},"vehicle_type_id":"4","last_reported":1731773394,"current_range_meters":22400,"station_id":"ce4bhnp2rcd13ifvqgvg","pricing_plan_id":"cebpf4jnsgd1na2vs0mg"},{"bike_id":"9f517b98-b68d-4d6d-9fc3-aedb2693f4b3","system_id":"levelo_inurba_marseille","lat":43.29973,"lon":5.38498,"is_reserved":false,"is_disabled":false,"rental_uris":{"android":"levelo://app?vid=9f517b98-b68d-4d6d-9fc3-aedb2693f4b3","ios":"levelo://app?vid=9f517b98-b68d-4d6d-9fc3-aedb2693f4b3"},"vehicle_type_id":"4","last_reported":1731773394,"current_range_meters":20800,"station_id":"ce4bgj92rcd13ifvqbd0","pricing_plan_id":"cebpf4jnsgd1na2vs0mg"},{"bike_id":"24a6b1ad-bf4a-42a5-96f1-3c49192eecd1","system_id":"levelo_inurba_marseille","lat":43.28672,"lon":5.38666,"is_reserved":false,"is_disabled":false,"rental_uris":{"android":"levelo://app?vid=24a6b1ad-bf4a-42a5-96f1-3c49192eecd1","ios":"levelo://app?vid=24a6b1ad-bf4a-42a5-96f1-3c49192eecd1"},"vehicle_type_id":"4","last_reported":1731773394,"current_range_meters":2000,"station_id":"ce4bh492rcd13ifvqdug","pricing_plan_id":"cebpf4jnsgd1na2vs0mg"},{"bike_id":"2423f2a9-c81e-48f6-8baa-d86e2049c321","system_id":"levelo_inurba_marseille","lat":43.29264,"lon":5.40909,"is_reserved":false,"is_disabled":false,"rental_uris":{"android":"levelo://app?vid=2423f2a9-c81e-48f6-8baa-d86e2049c321","ios":"levelo://app?vid=2423f2a9-c81e-48f6-8baa-d86e2049c321"},"vehicle_type_id":"4","last_reported":1731773394,"current_range_meters":27200,"station_id":"ce4bh192rcd13ifvqdc0","pricing_plan_id":"cebpf4jnsgd1na2vs0mg"},{"bike_id":"42d4c0af-680a-4dbd-8451-bfbe5fd822d8","system_id":"levelo_inurba_marseille","lat":43.30143,"lon":5.37421,"is_reserved":false,"is_disabled":false,"rental_uris":{"android":"levelo://app?vid=42d4c0af-680a-4dbd-8451-bfbe5fd822d8","ios":"levelo://app?vid=42d4c0af-680a-4dbd-8451-bfbe5fd822d8"},"vehicle_type_id":"4","last_reported":1731773394,"current_range_meters":23200,"station_id":"ce4bgs92rcd13ifvqcc0","pricing_plan_id":"cebpf4jnsgd1na2vs0mg"},{"bike_id":"1db0409f-d730-45d7-a04e-e66981943b72","system_id":"levelo_inurba_marseille","lat":43.27055,"lon":5.4026,"is_reserved":false,"is_disabled":false,"rental_uris":{"android":"levelo://app?vid=1db0409f-d730-45d7-a04e-e66981943b72","ios":"levelo://app?vid=1db0409f-d730-45d7-a04e-e66981943b72"},"vehicle_type_id":"4","last_reported":1731773394,"current_range_meters":17200,"station_id":"ce4bhk92rcd13ifvqgc0","pricing_plan_id":"cebpf4jnsgd1na2vs0mg"},{"bike_id":"8837a3e4-6bea-4dc3-94fd-fa4b095e11bf","system_id":"levelo_inurba_marseille","lat":43.229309,"lon":5.353746,"is_reserved":false,"is_disabled":false,"rental_uris":{"android":"levelo://app?vid=8837a3e4-6bea-4dc3-94fd-fa4b095e11bf","ios":"levelo://app?vid=8837a3e4-6bea-4dc3-94fd-fa4b095e11bf"},"vehicle_type_id":"4","last_reported":1731773394,"current_range_meters":38800,"station_id":"cpo3532slgdg3j2ikp40","pricing_plan_id":"cebpf4jnsgd1na2vs0mg"},{"bike_id":"82a12c65-2249-4b60-a776-5faef6388b36","system_id":"levelo_inurba_marseille","lat":43.28927,"lon":5.38407,"is_reserved":false,"is_disabled":false,"rental_uris":{"android":"levelo://app?vid=82a12c65-2249-4b60-a776-5faef6388b36","ios":"levelo://app?vid=82a12c65-2249-4b60-a776-5faef6388b36"},"vehicle_type_id":"4","last_reported":1731773394,"current_range_meters":36800,"station_id":"ce4bh612rcd13ifvqe6g","pricing_plan_id":"cebpf4jnsgd1na2vs0mg"},{"bike_id":"3b5ffd49-69e5-4555-9089-3a36594bd252","system_id":"levelo_inurba_marseille","lat":43.29855,"lon":5.36292,"is_reserved":false,"is_disabled":false,"rental_uris":{"android":"levelo://app?vid=3b5ffd49-69e5-4555-9089-3a36594bd252","ios":"levelo://app?vid=3b5ffd49-69e5-4555-9089-3a36594bd252"},"vehicle_type_id":"4","last_reported":1731773394,"current_range_meters":32800,"station_id":"ce4bgpp2rcd13ifvqc3g","pricing_plan_id":"cebpf4jnsgd1na2vs0mg"},{"bike_id":"9e80fa8f-f0eb-4404-9b0d-a93074af700f","system_id":"levelo_inurba_marseille","lat":43.24172,"lon":5.36397,"is_reserved":false,"is_disabled":false,"rental_uris":{"android":"levelo://app?vid=9e80fa8f-f0eb-4404-9b0d-a93074af700f","ios":"levelo://app?vid=9e80fa8f-f0eb-4404-9b0d-a93074af700f"},"vehicle_type_id":"4","last_reported":1731773394,"current_range_meters":29600,"station_id":"cpo36qri1sfpv3e86is0","pricing_plan_id":"cebpf4jnsgd1na2vs0mg"},{"bike_id":"4138345b-cc1d-40b0-8916-e8013770729a","system_id":"levelo_inurba_marseille","lat":43.24645,"lon":5.38894,"is_reserved":false,"is_disabled":false,"rental_uris":{"android":"levelo://app?vid=4138345b-cc1d-40b0-8916-e8013770729a","ios":"levelo://app?vid=4138345b-cc1d-40b0-8916-e8013770729a"},"vehicle_type_id":"4","last_reported":1731773394,"current_range_meters":39200,"station_id":"ce4bhg12rcd13ifvqf60","pricing_plan_id":"cebpf4jnsgd1na2vs0mg"},{"bike_id":"9614104b-89c9-47e9-a2a1-c2fc3750493b","system_id":"levelo_inurba_marseille","lat":43.31538,"lon":5.38031,"is_reserved":false,"is_disabled":false,"rental_uris":{"android":"levelo://app?vid=9614104b-89c9-47e9-a2a1-c2fc3750493b","ios":"levelo://app?vid=9614104b-89c9-47e9-a2a1-c2fc3750493b"},"vehicle_type_id":"4","last_reported":1731773394,"current_range_meters":39200,"station_id":"ce4bhsp2rcd13ifvqi50","pricing_plan_id":"cebpf4jnsgd1na2vs0mg"},{"bike_id":"89c7f0b5-420b-46aa-b8b1-97a7a0871666","system_id":"levelo_inurba_marseille","lat":43.32335,"lon":5.38418,"is_reserved":false,"is_disabled":false,"rental_uris":{"android":"levelo://app?vid=89c7f0b5-420b-46aa-b8b1-97a7a0871666","ios":"levelo://app?vid=89c7f0b5-420b-46aa-b8b1-97a7a0871666"},"vehicle_type_id":"4","last_reported":1731773394,"current_range_meters":14000,"station_id":"ce4bhr12rcd13ifvqhqg","pricing_plan_id":"cebpf4jnsgd1na2vs0mg"},{"bike_id":"ca8542a7-392d-4521-8203-879c6d07ae3f","system_id":"levelo_inurba_marseille","lat":43.29984,"lon":5.37145,"is_reserved":false,"is_disabled":false,"rental_uris":{"android":"levelo://app?vid=ca8542a7-392d-4521-8203-879c6d07ae3f","ios":"levelo://app?vid=ca8542a7-392d-4521-8203-879c6d07ae3f"},"vehicle_type_id":"4","last_reported":1731773394,"current_range_meters":39200,"station_id":"","pricing_plan_id":"cebpf4jnsgd1na2vs0mg"},{"bike_id":"46632805-d598-46ca-8978-4f5e71b702c6","system_id":"levelo_inurba_marseille","lat":43.28156,"lon":5.42636,"is_reserved":false,"is_disabled":false,"rental_uris":{"android":"levelo://app?vid=46632805-d598-46ca-8978-4f5e71b702c6","ios":"levelo://app?vid=46632805-d598-46ca-8978-4f5e71b702c6"},"vehicle_type_id":"4","last_reported":1731773394,"current_range_meters":37600,"station_id":"ce4bhnh2rcd13ifvqgug","pricing_plan_id":"cebpf4jnsgd1na2vs0mg"},{"bike_id":"328b03f6-cb56-40ba-adb9-9b7acac37b5d","system_id":"levelo_inurba_marseille","lat":43.29587,"lon":5.38114,"is_reserved":false,"is_disabled":false,"rental_uris":{"android":"levelo://app?vid=328b03f6-cb56-40ba-adb9-9b7acac37b5d","ios":"levelo://app?vid=328b03f6-cb56-40ba-adb9-9b7acac37b5d"},"vehicle_type_id":"4","last_reported":1731773394,"current_range_meters":38800,"station_id":"ce4bgl12rcd13ifvqbo0","pricing_plan_id":"cebpf4jnsgd1na2vs0mg"},{"bike_id":"350285a3-31bb-44a2-b15f-10d93ff59324","system_id":"levelo_inurba_marseille","lat":43.30638,"lon":5.4009,"is_reserved":false,"is_disabled":false,"rental_uris":{"android":"levelo://app?vid=350285a3-31bb-44a2-b15f-10d93ff59324","ios":"levelo://app?vid=350285a3-31bb-44a2-b15f-10d93ff59324"},"vehicle_type_id":"4","last_reported":1731773394,"current_range_meters":3600,"station_id":"ce4bh112rcd13ifvqda0","pricing_plan_id":"cebpf4jnsgd1na2vs0mg"},{"bike_id":"1d7f2ff0-22f0-4520-bcdd-1d42f588e57c","system_id":"levelo_inurba_marseille","lat":43.28103,"lon":5.37842,"is_reserved":false,"is_disabled":false,"rental_uris":{"android":"levelo://app?vid=1d7f2ff0-22f0-4520-bcdd-1d42f588e57c","ios":"levelo://app?vid=1d7f2ff0-22f0-4520-bcdd-1d42f588e57c"},"vehicle_type_id":"4","last_reported":1731773394,"current_range_meters":8000,"station_id":"ce4bha12rcd13ifvqee0","pricing_plan_id":"cebpf4jnsgd1na2vs0mg"},{"bike_id":"2c7da520-bf3f-4579-bbaf-d8bed38515fb","system_id":"levelo_inurba_marseille","lat":43.24656,"lon":5.38898,"is_reserved":false,"is_disabled":false,"rental_uris":{"android":"levelo://app?vid=2c7da520-bf3f-4579-bbaf-d8bed38515fb","ios":"levelo://app?vid=2c7da520-bf3f-4579-bbaf-d8bed38515fb"},"vehicle_type_id":"4","last_reported":1731773394,"current_range_meters":38800,"station_id":"ce4bhg12rcd13ifvqf60","pricing_plan_id":"cebpf4jnsgd1na2vs0mg"},{"bike_id":"b3da92dd-dae5-48d9-bca5-2dba91598721","system_id":"levelo_inurba_marseille","lat":43.29602,"lon":5.38101,"is_reserved":false,"is_disabled":false,"rental_uris":{"android":"levelo://app?vid=b3da92dd-dae5-48d9-bca5-2dba91598721","ios":"levelo://app?vid=b3da92dd-dae5-48d9-bca5-2dba91598721"},"vehicle_type_id":"4","last_reported":1731773394,"current_range_meters":32400,"station_id":"ce4bgl12rcd13ifvqbo0","pricing_plan_id":"cebpf4jnsgd1na2vs0mg"},{"bike_id":"09cb9798-9ffd-4b95-9c1a-c7da8c3efec9","system_id":"levelo_inurba_marseille","lat":43.2707,"lon":5.42278,"is_reserved":false,"is_disabled":false,"rental_uris":{"android":"levelo://app?vid=09cb9798-9ffd-4b95-9c1a-c7da8c3efec9","ios":"levelo://app?vid=09cb9798-9ffd-4b95-9c1a-c7da8c3efec9"},"vehicle_type_id":"4","last_reported":1731773394,"current_range_meters":38800,"station_id":"ce4bhk92rcd13ifvqgb0","pricing_plan_id":"cebpf4jnsgd1na2vs0mg"},{"bike_id":"d318ba96-12b9-4a31-9441-48e98b3d3c41","system_id":"levelo_inurba_marseille","lat":43.29717,"lon":5.37698,"is_reserved":false,"is_disabled":false,"rental_uris":{"android":"levelo://app?vid=d318ba96-12b9-4a31-9441-48e98b3d3c41","ios":"levelo://app?vid=d318ba96-12b9-4a31-9441-48e98b3d3c41"},"vehicle_type_id":"4","last_reported":1731773394,"current_range_meters":30000,"station_id":"ce4bgj92rcd13ifvqbd0","pricing_plan_id":"cebpf4jnsgd1na2vs0mg"},{"bike_id":"ce0db61f-d86a-43f1-9bfb-ef64def850ca","system_id":"levelo_inurba_marseille","lat":43.30219,"lon":5.39475,"is_reserved":false,"is_disabled":false,"rental_uris":{"android":"levelo://app?vid=ce0db61f-d86a-43f1-9bfb-ef64def850ca","ios":"levelo://app?vid=ce0db61f-d86a-43f1-9bfb-ef64def850ca"},"vehicle_type_id":"4","last_reported":1731773394,"current_range_meters":3600,"station_id":"ce4bh0p2rcd13ifvqd70","pricing_plan_id":"cebpf4jnsgd1na2vs0mg"},{"bike_id":"12867844-fa2a-41b2-8d74-706d4ef15909","system_id":"levelo_inurba_marseille","lat":43.3377,"lon":5.37442,"is_reserved":false,"is_disabled":false,"rental_uris":{"android":"levelo://app?vid=12867844-fa2a-41b2-8d74-706d4ef15909","ios":"levelo://app?vid=12867844-fa2a-41b2-8d74-706d4ef15909"},"vehicle_type_id":"4","last_reported":1731773394,"current_range_meters":38400,"station_id":"","pricing_plan_id":"cebpf4jnsgd1na2vs0mg"},{"bike_id":"069db03c-4a8a-4285-b130-bded008b94ae","system_id":"levelo_inurba_marseille","lat":43.31703,"lon":5.37747,"is_reserved":false,"is_disabled":false,"rental_uris":{"android":"levelo://app?vid=069db03c-4a8a-4285-b130-bded008b94ae","ios":"levelo://app?vid=069db03c-4a8a-4285-b130-bded008b94ae"},"vehicle_type_id":"4","last_reported":1731773394,"current_range_meters":38400,"station_id":"ce4bgth2rcd13ifvqch0","pricing_plan_id":"cebpf4jnsgd1na2vs0mg"},{"bike_id":"d206d41a-8ea1-48b7-8dea-76f005b54e28","system_id":"levelo_inurba_marseille","lat":43.33764,"lon":5.37435,"is_reserved":false,"is_disabled":false,"rental_uris":{"android":"levelo://app?vid=d206d41a-8ea1-48b7-8dea-76f005b54e28","ios":"levelo://app?vid=d206d41a-8ea1-48b7-8dea-76f005b54e28"},"vehicle_type_id":"4","last_reported":1731773394,"current_range_meters":25600,"station_id":"","pricing_plan_id":"cebpf4jnsgd1na2vs0mg"},{"bike_id":"0f173c08-deae-4d25-9d1a-ebfcc54bbb20","system_id":"levelo_inurba_marseille","lat":43.27941,"lon":5.41052,"is_reserved":false,"is_disabled":false,"rental_uris":{"android":"levelo://app?vid=0f173c08-deae-4d25-9d1a-ebfcc54bbb20","ios":"levelo://app?vid=0f173c08-deae-4d25-9d1a-ebfcc54bbb20"},"vehicle_type_id":"4","last_reported":1731773394,"current_range_meters":8000,"station_id":"ce4bhnp2rcd13ifvqh0g","pricing_plan_id":"cebpf4jnsgd1na2vs0mg"},{"bike_id":"321d2504-7fb8-4709-a3b2-03e3516dc3ef","system_id":"levelo_inurba_marseille","lat":43.26946,"lon":5.40246,"is_reserved":false,"is_disabled":false,"rental_uris":{"android":"levelo://app?vid=321d2504-7fb8-4709-a3b2-03e3516dc3ef","ios":"levelo://app?vid=321d2504-7fb8-4709-a3b2-03e3516dc3ef"},"vehicle_type_id":"4","last_reported":1731773394,"current_range_meters":38800,"station_id":"cjm6bp8fraef2m0cb0m0","pricing_plan_id":"cebpf4jnsgd1na2vs0mg"},{"bike_id":"5d5505be-3a03-4d64-8ce2-797d9a3b3a5b","system_id":"levelo_inurba_marseille","lat":43.27814,"lon":5.40715,"is_reserved":false,"is_disabled":false,"rental_uris":{"android":"levelo://app?vid=5d5505be-3a03-4d64-8ce2-797d9a3b3a5b","ios":"levelo://app?vid=5d5505be-3a03-4d64-8ce2-797d9a3b3a5b"},"vehicle_type_id":"4","last_reported":1731773394,"current_range_meters":21600,"station_id":"ce4bhnh2rcd13ifvqgtg","pricing_plan_id":"cebpf4jnsgd1na2vs0mg"},{"bike_id":"6b76da8b-8346-4b5f-a49b-cdde5bffd08b","system_id":"levelo_inurba_marseille","lat":43.27819,"lon":5.40712,"is_reserved":false,"is_disabled":false,"rental_uris":{"android":"levelo://app?vid=6b76da8b-8346-4b5f-a49b-cdde5bffd08b","ios":"levelo://app?vid=6b76da8b-8346-4b5f-a49b-cdde5bffd08b"},"vehicle_type_id":"4","last_reported":1731773394,"current_range_meters":22800,"station_id":"ce4bhnh2rcd13ifvqgtg","pricing_plan_id":"cebpf4jnsgd1na2vs0mg"},{"bike_id":"6e55ead8-8594-46df-98af-383720aa8e50","system_id":"levelo_inurba_marseille","lat":43.29267,"lon":5.38439,"is_reserved":false,"is_disabled":false,"rental_uris":{"android":"levelo://app?vid=6e55ead8-8594-46df-98af-383720aa8e50","ios":"levelo://app?vid=6e55ead8-8594-46df-98af-383720aa8e50"},"vehicle_type_id":"4","last_reported":1731773394,"current_range_meters":2000,"station_id":"ce4bh692rcd13ifvqea0","pricing_plan_id":"cebpf4jnsgd1na2vs0mg"},{"bike_id":"9750b0d3-76d3-45ae-83a9-165fea7815cd","system_id":"levelo_inurba_marseille","lat":43.3248,"lon":5.36566,"is_reserved":false,"is_disabled":false,"rental_uris":{"android":"levelo://app?vid=9750b0d3-76d3-45ae-83a9-165fea7815cd","ios":"levelo://app?vid=9750b0d3-76d3-45ae-83a9-165fea7815cd"},"vehicle_type_id":"4","last_reported":1731773394,"current_range_meters":30000,"station_id":"ce4bhs12rcd13ifvqhvg","pricing_plan_id":"cebpf4jnsgd1na2vs0mg"},{"bike_id":"fd02edfd-95d4-4434-9bb2-ee2be7f16d6b","system_id":"levelo_inurba_marseille","lat":43.30306,"lon":5.3921,"is_reserved":false,"is_disabled":false,"rental_uris":{"android":"levelo://app?vid=fd02edfd-95d4-4434-9bb2-ee2be7f16d6b","ios":"levelo://app?vid=fd02edfd-95d4-4434-9bb2-ee2be7f16d6b"},"vehicle_type_id":"4","last_reported":1731773394,"current_range_meters":38800,"station_id":"ce4bgkh2rcd13ifvqbk0","pricing_plan_id":"cebpf4jnsgd1na2vs0mg"},{"bike_id":"215a0aa9-acd7-42f3-8afe-70d9e0de7df6","system_id":"levelo_inurba_marseille","lat":43.28435,"lon":5.39196,"is_reserved":false,"is_disabled":false,"rental_uris":{"android":"levelo://app?vid=215a0aa9-acd7-42f3-8afe-70d9e0de7df6","ios":"levelo://app?vid=215a0aa9-acd7-42f3-8afe-70d9e0de7df6"},"vehicle_type_id":"4","last_reported":1731773394,"current_range_meters":38400,"station_id":"ce4bhoh2rcd13ifvqh5g","pricing_plan_id":"cebpf4jnsgd1na2vs0mg"},{"bike_id":"d4981e77-edb5-4ecd-98c3-9096f2186b05","system_id":"levelo_inurba_marseille","lat":43.27057,"lon":5.40258,"is_reserved":false,"is_disabled":false,"rental_uris":{"android":"levelo://app?vid=d4981e77-edb5-4ecd-98c3-9096f2186b05","ios":"levelo://app?vid=d4981e77-edb5-4ecd-98c3-9096f2186b05"},"vehicle_type_id":"4","last_reported":1731773394,"current_range_meters":24000,"station_id":"ce4bhk92rcd13ifvqgc0","pricing_plan_id":"cebpf4jnsgd1na2vs0mg"},{"bike_id":"bf7d5811-6202-4e61-999c-8c2978242977","system_id":"levelo_inurba_marseille","lat":43.27499,"lon":5.42448,"is_reserved":false,"is_disabled":false,"rental_uris":{"android":"levelo://app?vid=bf7d5811-6202-4e61-999c-8c2978242977","ios":"levelo://app?vid=bf7d5811-6202-4e61-999c-8c2978242977"},"vehicle_type_id":"4","last_reported":1731773394,"current_range_meters":24400,"station_id":"ce4bhn92rcd13ifvqgrg","pricing_plan_id":"cebpf4jnsgd1na2vs0mg"},{"bike_id":"d9dc66f7-a823-40a1-ad05-02355f2665cb","system_id":"levelo_inurba_marseille","lat":43.28152,"lon":5.42639,"is_reserved":false,"is_disabled":false,"rental_uris":{"android":"levelo://app?vid=d9dc66f7-a823-40a1-ad05-02355f2665cb","ios":"levelo://app?vid=d9dc66f7-a823-40a1-ad05-02355f2665cb"},"vehicle_type_id":"4","last_reported":1731773394,"current_range_meters":9200,"station_id":"ce4bhnh2rcd13ifvqgug","pricing_plan_id":"cebpf4jnsgd1na2vs0mg"},{"bike_id":"133038ef-2853-491f-8c55-48ccc495061c","system_id":"levelo_inurba_marseille","lat":43.28103,"lon":5.37834,"is_reserved":false,"is_disabled":false,"rental_uris":{"android":"levelo://app?vid=133038ef-2853-491f-8c55-48ccc495061c","ios":"levelo://app?vid=133038ef-2853-491f-8c55-48ccc495061c"},"vehicle_type_id":"4","last_reported":1731773394,"current_range_meters":8400,"station_id":"ce4bha12rcd13ifvqee0","pricing_plan_id":"cebpf4jnsgd1na2vs0mg"},{"bike_id":"5930ec6b-f849-4128-994f-c35684fd09e2","system_id":"levelo_inurba_marseille","lat":43.28618,"lon":5.35103,"is_reserved":false,"is_disabled":false,"rental_uris":{"android":"levelo://app?vid=5930ec6b-f849-4128-994f-c35684fd09e2","ios":"levelo://app?vid=5930ec6b-f849-4128-994f-c35684fd09e2"},"vehicle_type_id":"4","last_reported":1731773394,"current_range_meters":14800,"station_id":"ce4bhch2rcd13ifvqeug","pricing_plan_id":"cebpf4jnsgd1na2vs0mg"},{"bike_id":"bce218e0-ae30-4251-8a3f-830003784424","system_id":"levelo_inurba_marseille","lat":43.28152,"lon":5.42647,"is_reserved":false,"is_disabled":false,"rental_uris":{"android":"levelo://app?vid=bce218e0-ae30-4251-8a3f-830003784424","ios":"levelo://app?vid=bce218e0-ae30-4251-8a3f-830003784424"},"vehicle_type_id":"4","last_reported":1731773394,"current_range_meters":12400,"station_id":"ce4bhnh2rcd13ifvqgug","pricing_plan_id":"cebpf4jnsgd1na2vs0mg"},{"bike_id":"797f9e9e-20ee-4fb4-bee0-b0ede6609ed3","system_id":"levelo_inurba_marseille","lat":43.30305,"lon":5.36889,"is_reserved":false,"is_disabled":false,"rental_uris":{"android":"levelo://app?vid=797f9e9e-20ee-4fb4-bee0-b0ede6609ed3","ios":"levelo://app?vid=797f9e9e-20ee-4fb4-bee0-b0ede6609ed3"},"vehicle_type_id":"4","last_reported":1731773394,"current_range_meters":10800,"station_id":"ce4bgqh2rcd13ifvqc5g","pricing_plan_id":"cebpf4jnsgd1na2vs0mg"},{"bike_id":"b72312a3-0c53-4c51-b2ac-82510a00c53e","system_id":"levelo_inurba_marseille","lat":43.28486,"lon":5.38555,"is_reserved":false,"is_disabled":false,"rental_uris":{"android":"levelo://app?vid=b72312a3-0c53-4c51-b2ac-82510a00c53e","ios":"levelo://app?vid=b72312a3-0c53-4c51-b2ac-82510a00c53e"},"vehicle_type_id":"4","last_reported":1731773394,"current_range_meters":35600,"station_id":"ce4bh8p2rcd13ifvqeb0","pricing_plan_id":"cebpf4jnsgd1na2vs0mg"},{"bike_id":"740c3635-37fe-4f72-925d-a0ab0e3c2435","system_id":"levelo_inurba_marseille","lat":43.27565,"lon":5.38424,"is_reserved":false,"is_disabled":false,"rental_uris":{"android":"levelo://app?vid=740c3635-37fe-4f72-925d-a0ab0e3c2435","ios":"levelo://app?vid=740c3635-37fe-4f72-925d-a0ab0e3c2435"},"vehicle_type_id":"4","last_reported":1731773394,"current_range_meters":2800,"station_id":"ce4bhh92rcd13ifvqfi0","pricing_plan_id":"cebpf4jnsgd1na2vs0mg"},{"bike_id":"3f37f7d7-cfd0-46ff-ad64-e239f9c03c2e","system_id":"levelo_inurba_marseille","lat":43.33025,"lon":5.39045,"is_reserved":false,"is_disabled":false,"rental_uris":{"android":"levelo://app?vid=3f37f7d7-cfd0-46ff-ad64-e239f9c03c2e","ios":"levelo://app?vid=3f37f7d7-cfd0-46ff-ad64-e239f9c03c2e"},"vehicle_type_id":"4","last_reported":1731773394,"current_range_meters":38800,"station_id":"ce4bhr92rcd13ifvqhrg","pricing_plan_id":"cebpf4jnsgd1na2vs0mg"},{"bike_id":"8822fe75-3ee7-4cb1-959b-342246231898","system_id":"levelo_inurba_marseille","lat":43.2996,"lon":5.38506,"is_reserved":false,"is_disabled":false,"rental_uris":{"android":"levelo://app?vid=8822fe75-3ee7-4cb1-959b-342246231898","ios":"levelo://app?vid=8822fe75-3ee7-4cb1-959b-342246231898"},"vehicle_type_id":"4","last_reported":1731773394,"current_range_meters":18800,"station_id":"ce4bgj92rcd13ifvqbd0","pricing_plan_id":"cebpf4jnsgd1na2vs0mg"},{"bike_id":"c753cb5e-61a3-4071-856d-98ae913d505b","system_id":"levelo_inurba_marseille","lat":43.27214,"lon":5.39182,"is_reserved":false,"is_disabled":false,"rental_uris":{"android":"levelo://app?vid=c753cb5e-61a3-4071-856d-98ae913d505b","ios":"levelo://app?vid=c753cb5e-61a3-4071-856d-98ae913d505b"},"vehicle_type_id":"4","last_reported":1731773394,"current_range_meters":3200,"station_id":"ce4bhhp2rcd13ifvqfm0","pricing_plan_id":"cebpf4jnsgd1na2vs0mg"},{"bike_id":"d6029a07-4312-42af-9590-5c6b5c606e61","system_id":"levelo_inurba_marseille","lat":43.25573,"lon":5.38229,"is_reserved":false,"is_disabled":false,"rental_uris":{"android":"levelo://app?vid=d6029a07-4312-42af-9590-5c6b5c606e61","ios":"levelo://app?vid=d6029a07-4312-42af-9590-5c6b5c606e61"},"vehicle_type_id":"4","last_reported":1731773394,"current_range_meters":37600,"station_id":"ce4bhih2rcd13ifvqfs0","pricing_plan_id":"cebpf4jnsgd1na2vs0mg"},{"bike_id":"a97da6eb-5476-4f2f-97f3-7d4a5607fb25","system_id":"levelo_inurba_marseille","lat":43.24073,"lon":5.37763,"is_reserved":false,"is_disabled":false,"rental_uris":{"android":"levelo://app?vid=a97da6eb-5476-4f2f-97f3-7d4a5607fb25","ios":"levelo://app?vid=a97da6eb-5476-4f2f-97f3-7d4a5607fb25"},"vehicle_type_id":"4","last_reported":1731773394,"current_range_meters":6400,"station_id":"ce4bhnp2rcd13ifvqgvg","pricing_plan_id":"cebpf4jnsgd1na2vs0mg"},{"bike_id":"8f47ed7e-b810-4ee4-91cc-435a588febd0","system_id":"levelo_inurba_marseille","lat":43.27564,"lon":5.38417,"is_reserved":false,"is_disabled":false,"rental_uris":{"android":"levelo://app?vid=8f47ed7e-b810-4ee4-91cc-435a588febd0","ios":"levelo://app?vid=8f47ed7e-b810-4ee4-91cc-435a588febd0"},"vehicle_type_id":"4","last_reported":1731773394,"current_range_meters":8400,"station_id":"ce4bhh92rcd13ifvqfi0","pricing_plan_id":"cebpf4jnsgd1na2vs0mg"},{"bike_id":"932b5bdf-132d-4eb3-8dcf-44cd70ec6bcb","system_id":"levelo_inurba_marseille","lat":43.29586,"lon":5.3674,"is_reserved":false,"is_disabled":false,"rental_uris":{"android":"levelo://app?vid=932b5bdf-132d-4eb3-8dcf-44cd70ec6bcb","ios":"levelo://app?vid=932b5bdf-132d-4eb3-8dcf-44cd70ec6bcb"},"vehicle_type_id":"4","last_reported":1731773394,"current_range_meters":38000,"station_id":"ce4bgph2rcd13ifvqc2g","pricing_plan_id":"cebpf4jnsgd1na2vs0mg"},{"bike_id":"9fd7a1f3-a23b-430f-a46e-07797ec16f5d","system_id":"levelo_inurba_marseille","lat":43.33723,"lon":5.37453,"is_reserved":false,"is_disabled":false,"rental_uris":{"android":"levelo://app?vid=9fd7a1f3-a23b-430f-a46e-07797ec16f5d","ios":"levelo://app?vid=9fd7a1f3-a23b-430f-a46e-07797ec16f5d"},"vehicle_type_id":"4","last_reported":1731773394,"current_range_meters":37600,"station_id":"","pricing_plan_id":"cebpf4jnsgd1na2vs0mg"},{"bike_id":"c832d0fd-c6d5-4c50-8690-1986a6e371f7","system_id":"levelo_inurba_marseille","lat":43.32655,"lon":5.41,"is_reserved":false,"is_disabled":false,"rental_uris":{"android":"levelo://app?vid=c832d0fd-c6d5-4c50-8690-1986a6e371f7","ios":"levelo://app?vid=c832d0fd-c6d5-4c50-8690-1986a6e371f7"},"vehicle_type_id":"4","last_reported":1731773394,"current_range_meters":38800,"station_id":"ce4bhpp2rcd13ifvqhgg","pricing_plan_id":"cebpf4jnsgd1na2vs0mg"},{"bike_id":"420ac8e3-d580-4bcb-8ba4-48738772d9f0","system_id":"levelo_inurba_marseille","lat":43.23063,"lon":5.35493,"is_reserved":false,"is_disabled":false,"rental_uris":{"android":"levelo://app?vid=420ac8e3-d580-4bcb-8ba4-48738772d9f0","ios":"levelo://app?vid=420ac8e3-d580-4bcb-8ba4-48738772d9f0"},"vehicle_type_id":"4","last_reported":1731773394,"current_range_meters":38800,"station_id":"cpo3342slgdg3j2ifvpg","pricing_plan_id":"cebpf4jnsgd1na2vs0mg"},{"bike_id":"ca2bbb70-180a-4b6e-b02c-96c338944da2","system_id":"levelo_inurba_marseille","lat":43.29984,"lon":5.38489,"is_reserved":false,"is_disabled":false,"rental_uris":{"android":"levelo://app?vid=ca2bbb70-180a-4b6e-b02c-96c338944da2","ios":"levelo://app?vid=ca2bbb70-180a-4b6e-b02c-96c338944da2"},"vehicle_type_id":"4","last_reported":1731773394,"current_range_meters":6800,"station_id":"ce4bgj92rcd13ifvqbd0","pricing_plan_id":"cebpf4jnsgd1na2vs0mg"},{"bike_id":"d54f2dfa-2ad2-469a-8720-163ef98eb87d","system_id":"levelo_inurba_marseille","lat":43.25089,"lon":5.3951,"is_reserved":false,"is_disabled":false,"rental_uris":{"android":"levelo://app?vid=d54f2dfa-2ad2-469a-8720-163ef98eb87d","ios":"levelo://app?vid=d54f2dfa-2ad2-469a-8720-163ef98eb87d"},"vehicle_type_id":"4","last_reported":1731773394,"current_range_meters":22800,"station_id":"ce4bhm12rcd13ifvqgkg","pricing_plan_id":"cebpf4jnsgd1na2vs0mg"},{"bike_id":"40ef8929-036f-4b33-96b9-b96ff3a2cfe8","system_id":"levelo_inurba_marseille","lat":43.28666,"lon":5.36361,"is_reserved":false,"is_disabled":false,"rental_uris":{"android":"levelo://app?vid=40ef8929-036f-4b33-96b9-b96ff3a2cfe8","ios":"levelo://app?vid=40ef8929-036f-4b33-96b9-b96ff3a2cfe8"},"vehicle_type_id":"4","last_reported":1731773394,"current_range_meters":39200,"station_id":"ce4bhah2rcd13ifvqej0","pricing_plan_id":"cebpf4jnsgd1na2vs0mg"},{"bike_id":"d16ea3b1-b4e7-46c2-8565-92abf3883864","system_id":"levelo_inurba_marseille","lat":43.29975,"lon":5.3849,"is_reserved":false,"is_disabled":false,"rental_uris":{"android":"levelo://app?vid=d16ea3b1-b4e7-46c2-8565-92abf3883864","ios":"levelo://app?vid=d16ea3b1-b4e7-46c2-8565-92abf3883864"},"vehicle_type_id":"4","last_reported":1731773394,"current_range_meters":9600,"station_id":"ce4bgj92rcd13ifvqbd0","pricing_plan_id":"cebpf4jnsgd1na2vs0mg"},{"bike_id":"b02c36ba-0659-4ccd-8e4a-228122f495fd","system_id":"levelo_inurba_marseille","lat":43.31084,"lon":5.42429,"is_reserved":false,"is_disabled":false,"rental_uris":{"android":"levelo://app?vid=b02c36ba-0659-4ccd-8e4a-228122f495fd","ios":"levelo://app?vid=b02c36ba-0659-4ccd-8e4a-228122f495fd"},"vehicle_type_id":"4","last_reported":1731773394,"current_range_meters":16400,"station_id":"ce4bhp92rcd13ifvqhag","pricing_plan_id":"cebpf4jnsgd1na2vs0mg"},{"bike_id":"6d757fef-4f26-43f9-ac2c-ffab39bf7dae","system_id":"levelo_inurba_marseille","lat":43.32249,"lon":5.36901,"is_reserved":false,"is_disabled":false,"rental_uris":{"android":"levelo://app?vid=6d757fef-4f26-43f9-ac2c-ffab39bf7dae","ios":"levelo://app?vid=6d757fef-4f26-43f9-ac2c-ffab39bf7dae"},"vehicle_type_id":"4","last_reported":1731773394,"current_range_meters":19200,"station_id":"","pricing_plan_id":"cebpf4jnsgd1na2vs0mg"},{"bike_id":"245625cb-28d3-4546-9a0e-6bee225a6e8b","system_id":"levelo_inurba_marseille","lat":43.29553,"lon":5.42285,"is_reserved":false,"is_disabled":false,"rental_uris":{"android":"levelo://app?vid=245625cb-28d3-4546-9a0e-6bee225a6e8b","ios":"levelo://app?vid=245625cb-28d3-4546-9a0e-6bee225a6e8b"},"vehicle_type_id":"4","last_reported":1731773394,"current_range_meters":38000,"station_id":"ce4bhph2rcd13ifvqhdg","pricing_plan_id":"cebpf4jnsgd1na2vs0mg"},{"bike_id":"d8298b90-5108-47fc-867d-8c112ca67275","system_id":"levelo_inurba_marseille","lat":43.307887,"lon":5.376517,"is_reserved":false,"is_disabled":false,"rental_uris":{"android":"levelo://app?vid=d8298b90-5108-47fc-867d-8c112ca67275","ios":"levelo://app?vid=d8298b90-5108-47fc-867d-8c112ca67275"},"vehicle_type_id":"4","last_reported":1731773394,"current_range_meters":36000,"station_id":"ce4bgv92rcd13ifvqcq0","pricing_plan_id":"cebpf4jnsgd1na2vs0mg"},{"bike_id":"25fa1bce-a871-45b5-938d-08e3402ae84a","system_id":"levelo_inurba_marseille","lat":43.28442,"lon":5.39191,"is_reserved":false,"is_disabled":false,"rental_uris":{"android":"levelo://app?vid=25fa1bce-a871-45b5-938d-08e3402ae84a","ios":"levelo://app?vid=25fa1bce-a871-45b5-938d-08e3402ae84a"},"vehicle_type_id":"4","last_reported":1731773394,"current_range_meters":38400,"station_id":"ce4bhoh2rcd13ifvqh5g","pricing_plan_id":"cebpf4jnsgd1na2vs0mg"},{"bike_id":"39c93cb7-c64d-428c-ab5d-3f606c504fe5","system_id":"levelo_inurba_marseille","lat":43.29978,"lon":5.38496,"is_reserved":false,"is_disabled":false,"rental_uris":{"android":"levelo://app?vid=39c93cb7-c64d-428c-ab5d-3f606c504fe5","ios":"levelo://app?vid=39c93cb7-c64d-428c-ab5d-3f606c504fe5"},"vehicle_type_id":"4","last_reported":1731773394,"current_range_meters":30000,"station_id":"ce4bgj92rcd13ifvqbd0","pricing_plan_id":"cebpf4jnsgd1na2vs0mg"},{"bike_id":"8189fb6c-b4e6-4556-ac2e-641f318b9d23","system_id":"levelo_inurba_marseille","lat":43.284124,"lon":5.349735,"is_reserved":false,"is_disabled":false,"rental_uris":{"android":"levelo://app?vid=8189fb6c-b4e6-4556-ac2e-641f318b9d23","ios":"levelo://app?vid=8189fb6c-b4e6-4556-ac2e-641f318b9d23"},"vehicle_type_id":"4","last_reported":1731773394,"current_range_meters":18000,"station_id":"ce4bhh92rcd13ifvqfi0","pricing_plan_id":"cebpf4jnsgd1na2vs0mg"},{"bike_id":"3ffc9856-e732-4645-bd19-3a4e8b0838d3","system_id":"levelo_inurba_marseille","lat":43.2742,"lon":5.39416,"is_reserved":false,"is_disabled":false,"rental_uris":{"android":"levelo://app?vid=3ffc9856-e732-4645-bd19-3a4e8b0838d3","ios":"levelo://app?vid=3ffc9856-e732-4645-bd19-3a4e8b0838d3"},"vehicle_type_id":"4","last_reported":1731773394,"current_range_meters":20800,"station_id":"ce4bhdp2rcd13ifvqf20","pricing_plan_id":"cebpf4jnsgd1na2vs0mg"},{"bike_id":"3cb028b2-e9b4-4b5d-869e-e3723400af16","system_id":"levelo_inurba_marseille","lat":43.33024,"lon":5.39042,"is_reserved":false,"is_disabled":false,"rental_uris":{"android":"levelo://app?vid=3cb028b2-e9b4-4b5d-869e-e3723400af16","ios":"levelo://app?vid=3cb028b2-e9b4-4b5d-869e-e3723400af16"},"vehicle_type_id":"4","last_reported":1731773394,"current_range_meters":36800,"station_id":"ce4bhr92rcd13ifvqhrg","pricing_plan_id":"cebpf4jnsgd1na2vs0mg"},{"bike_id":"6693bd1f-8bb1-4a20-895a-a9d83aefbea6","system_id":"levelo_inurba_marseille","lat":43.24389,"lon":5.37065,"is_reserved":false,"is_disabled":false,"rental_uris":{"android":"levelo://app?vid=6693bd1f-8bb1-4a20-895a-a9d83aefbea6","ios":"levelo://app?vid=6693bd1f-8bb1-4a20-895a-a9d83aefbea6"},"vehicle_type_id":"4","last_reported":1731773394,"current_range_meters":24000,"station_id":"ce4bhhh2rcd13ifvqfk0","pricing_plan_id":"cebpf4jnsgd1na2vs0mg"},{"bike_id":"59c83a73-aab2-4819-89a2-d3697497a7c9","system_id":"levelo_inurba_marseille","lat":43.24176,"lon":5.39734,"is_reserved":false,"is_disabled":false,"rental_uris":{"android":"levelo://app?vid=59c83a73-aab2-4819-89a2-d3697497a7c9","ios":"levelo://app?vid=59c83a73-aab2-4819-89a2-d3697497a7c9"},"vehicle_type_id":"4","last_reported":1731773394,"current_range_meters":24000,"station_id":"ce4bhn12rcd13ifvqgpg","pricing_plan_id":"cebpf4jnsgd1na2vs0mg"},{"bike_id":"7add9429-376d-4b29-84fa-470ecb8794ee","system_id":"levelo_inurba_marseille","lat":43.29448,"lon":5.39745,"is_reserved":false,"is_disabled":false,"rental_uris":{"android":"levelo://app?vid=7add9429-376d-4b29-84fa-470ecb8794ee","ios":"levelo://app?vid=7add9429-376d-4b29-84fa-470ecb8794ee"},"vehicle_type_id":"4","last_reported":1731773394,"current_range_meters":27200,"station_id":"ce4bh3h2rcd13ifvqdo0","pricing_plan_id":"cebpf4jnsgd1na2vs0mg"},{"bike_id":"c76c8b1d-2676-43ac-9d27-2b38030f26af","system_id":"levelo_inurba_marseille","lat":43.27541,"lon":5.40936,"is_reserved":false,"is_disabled":false,"rental_uris":{"android":"levelo://app?vid=c76c8b1d-2676-43ac-9d27-2b38030f26af","ios":"levelo://app?vid=c76c8b1d-2676-43ac-9d27-2b38030f26af"},"vehicle_type_id":"4","last_reported":1731773394,"current_range_meters":26800,"station_id":"","pricing_plan_id":"cebpf4jnsgd1na2vs0mg"},{"bike_id":"a4e8e96c-867e-4521-9861-087b3f6c78bd","system_id":"levelo_inurba_marseille","lat":43.25006,"lon":5.38928,"is_reserved":false,"is_disabled":false,"rental_uris":{"android":"levelo://app?vid=a4e8e96c-867e-4521-9861-087b3f6c78bd","ios":"levelo://app?vid=a4e8e96c-867e-4521-9861-087b3f6c78bd"},"vehicle_type_id":"4","last_reported":1731773394,"current_range_meters":38800,"station_id":"ce4bhgp2rcd13ifvqfd0","pricing_plan_id":"cebpf4jnsgd1na2vs0mg"},{"bike_id":"dcbf46d4-3a96-4091-b51c-f597848c3f90","system_id":"levelo_inurba_marseille","lat":43.27182,"lon":5.40995,"is_reserved":false,"is_disabled":false,"rental_uris":{"android":"levelo://app?vid=dcbf46d4-3a96-4091-b51c-f597848c3f90","ios":"levelo://app?vid=dcbf46d4-3a96-4091-b51c-f597848c3f90"},"vehicle_type_id":"4","last_reported":1731773394,"current_range_meters":38000,"station_id":"ce4bhl12rcd13ifvqgf0","pricing_plan_id":"cebpf4jnsgd1na2vs0mg"},{"bike_id":"a464922d-611d-477d-a428-c12c2f5ef982","system_id":"levelo_inurba_marseille","lat":43.27056,"lon":5.40263,"is_reserved":false,"is_disabled":false,"rental_uris":{"android":"levelo://app?vid=a464922d-611d-477d-a428-c12c2f5ef982","ios":"levelo://app?vid=a464922d-611d-477d-a428-c12c2f5ef982"},"vehicle_type_id":"4","last_reported":1731773394,"current_range_meters":14000,"station_id":"ce4bhk92rcd13ifvqgc0","pricing_plan_id":"cebpf4jnsgd1na2vs0mg"},{"bike_id":"1c452735-cbd4-48fd-9515-7fba0f1a1cb8","system_id":"levelo_inurba_marseille","lat":43.30895,"lon":5.37188,"is_reserved":false,"is_disabled":false,"rental_uris":{"android":"levelo://app?vid=1c452735-cbd4-48fd-9515-7fba0f1a1cb8","ios":"levelo://app?vid=1c452735-cbd4-48fd-9515-7fba0f1a1cb8"},"vehicle_type_id":"4","last_reported":1731773394,"current_range_meters":14800,"station_id":"ce4bguh2rcd13ifvqckg","pricing_plan_id":"cebpf4jnsgd1na2vs0mg"},{"bike_id":"9b99e18b-1cfb-49eb-9130-93a7c80e7907","system_id":"levelo_inurba_marseille","lat":43.25009,"lon":5.38929,"is_reserved":false,"is_disabled":false,"rental_uris":{"android":"levelo://app?vid=9b99e18b-1cfb-49eb-9130-93a7c80e7907","ios":"levelo://app?vid=9b99e18b-1cfb-49eb-9130-93a7c80e7907"},"vehicle_type_id":"4","last_reported":1731773394,"current_range_meters":38800,"station_id":"ce4bhgp2rcd13ifvqfd0","pricing_plan_id":"cebpf4jnsgd1na2vs0mg"},{"bike_id":"d76b6642-64fb-413e-85c5-4ec663e1e1ba","system_id":"levelo_inurba_marseille","lat":43.2694,"lon":5.38924,"is_reserved":false,"is_disabled":false,"rental_uris":{"android":"levelo://app?vid=d76b6642-64fb-413e-85c5-4ec663e1e1ba","ios":"levelo://app?vid=d76b6642-64fb-413e-85c5-4ec663e1e1ba"},"vehicle_type_id":"4","last_reported":1731773394,"current_range_meters":30800,"station_id":"ce4bhhh2rcd13ifvqfl0","pricing_plan_id":"cebpf4jnsgd1na2vs0mg"},{"bike_id":"f45d43a4-2070-4d91-9465-1fd89f5ab0f1","system_id":"levelo_inurba_marseille","lat":43.309496,"lon":5.382455,"is_reserved":false,"is_disabled":false,"rental_uris":{"android":"levelo://app?vid=f45d43a4-2070-4d91-9465-1fd89f5ab0f1","ios":"levelo://app?vid=f45d43a4-2070-4d91-9465-1fd89f5ab0f1"},"vehicle_type_id":"4","last_reported":1731773394,"current_range_meters":32400,"station_id":"","pricing_plan_id":"cebpf4jnsgd1na2vs0mg"},{"bike_id":"c667ba2b-3296-4da8-810d-5eb0694fdfad","system_id":"levelo_inurba_marseille","lat":43.30109,"lon":5.3909,"is_reserved":false,"is_disabled":false,"rental_uris":{"android":"levelo://app?vid=c667ba2b-3296-4da8-810d-5eb0694fdfad","ios":"levelo://app?vid=c667ba2b-3296-4da8-810d-5eb0694fdfad"},"vehicle_type_id":"4","last_reported":1731773394,"current_range_meters":38800,"station_id":"ce4bh192rcd13ifvqdb0","pricing_plan_id":"cebpf4jnsgd1na2vs0mg"},{"bike_id":"c2e7f1d8-9694-4808-af4a-77b59f34eef4","system_id":"levelo_inurba_marseille","lat":43.28003,"lon":5.40005,"is_reserved":false,"is_disabled":false,"rental_uris":{"android":"levelo://app?vid=c2e7f1d8-9694-4808-af4a-77b59f34eef4","ios":"levelo://app?vid=c2e7f1d8-9694-4808-af4a-77b59f34eef4"},"vehicle_type_id":"4","last_reported":1731773394,"current_range_meters":36800,"station_id":"ce4bho92rcd13ifvqh4g","pricing_plan_id":"cebpf4jnsgd1na2vs0mg"},{"bike_id":"a31c74e5-3b47-4984-a338-a6ccf895d31c","system_id":"levelo_inurba_marseille","lat":43.30532,"lon":5.3672,"is_reserved":false,"is_disabled":false,"rental_uris":{"android":"levelo://app?vid=a31c74e5-3b47-4984-a338-a6ccf895d31c","ios":"levelo://app?vid=a31c74e5-3b47-4984-a338-a6ccf895d31c"},"vehicle_type_id":"4","last_reported":1731773394,"current_range_meters":6400,"station_id":"ce4bgrp2rcd13ifvqc9g","pricing_plan_id":"cebpf4jnsgd1na2vs0mg"},{"bike_id":"0150af8c-ea23-4d80-9149-97c26f623e7a","system_id":"levelo_inurba_marseille","lat":43.311698,"lon":5.387151,"is_reserved":false,"is_disabled":false,"rental_uris":{"android":"levelo://app?vid=0150af8c-ea23-4d80-9149-97c26f623e7a","ios":"levelo://app?vid=0150af8c-ea23-4d80-9149-97c26f623e7a"},"vehicle_type_id":"4","last_reported":1731773394,"current_range_meters":18800,"station_id":"ce4bgv12rcd13ifvqcp0","pricing_plan_id":"cebpf4jnsgd1na2vs0mg"},{"bike_id":"9f900b2c-2d1b-474f-bfc9-5b2995097c0a","system_id":"levelo_inurba_marseille","lat":43.283674,"lon":5.384632,"is_reserved":false,"is_disabled":false,"rental_uris":{"android":"levelo://app?vid=9f900b2c-2d1b-474f-bfc9-5b2995097c0a","ios":"levelo://app?vid=9f900b2c-2d1b-474f-bfc9-5b2995097c0a"},"vehicle_type_id":"4","last_reported":1731773394,"current_range_meters":8800,"station_id":"ce4bhm12rcd13ifvqgkg","pricing_plan_id":"cebpf4jnsgd1na2vs0mg"},{"bike_id":"8d301176-4cb5-4482-a703-16429e01f95e","system_id":"levelo_inurba_marseille","lat":43.231631,"lon":5.356175,"is_reserved":false,"is_disabled":false,"rental_uris":{"android":"levelo://app?vid=8d301176-4cb5-4482-a703-16429e01f95e","ios":"levelo://app?vid=8d301176-4cb5-4482-a703-16429e01f95e"},"vehicle_type_id":"4","last_reported":1731773394,"current_range_meters":38800,"station_id":"ce4bhu92rcd13ifvqi70","pricing_plan_id":"cebpf4jnsgd1na2vs0mg"},{"bike_id":"54eac412-edc8-4bbc-a122-ab051855a298","system_id":"levelo_inurba_marseille","lat":43.301638,"lon":5.380903,"is_reserved":false,"is_disabled":false,"rental_uris":{"android":"levelo://app?vid=54eac412-edc8-4bbc-a122-ab051855a298","ios":"levelo://app?vid=54eac412-edc8-4bbc-a122-ab051855a298"},"vehicle_type_id":"4","last_reported":1731773394,"current_range_meters":8400,"station_id":"ce4bgjp2rcd13ifvqbh0","pricing_plan_id":"cebpf4jnsgd1na2vs0mg"},{"bike_id":"ea7992b1-b9b1-4db6-b30e-f8a949143da5","system_id":"levelo_inurba_marseille","lat":43.299165,"lon":5.374672,"is_reserved":false,"is_disabled":false,"rental_uris":{"android":"levelo://app?vid=ea7992b1-b9b1-4db6-b30e-f8a949143da5","ios":"levelo://app?vid=ea7992b1-b9b1-4db6-b30e-f8a949143da5"},"vehicle_type_id":"4","last_reported":1731773394,"current_range_meters":20000,"station_id":"ce4bgjh2rcd13ifvqbg0","pricing_plan_id":"cebpf4jnsgd1na2vs0mg"},{"bike_id":"b372b582-7ca4-4b9d-b676-452966994e30","system_id":"levelo_inurba_marseille","lat":43.30462,"lon":5.37903,"is_reserved":false,"is_disabled":false,"rental_uris":{"android":"levelo://app?vid=b372b582-7ca4-4b9d-b676-452966994e30","ios":"levelo://app?vid=b372b582-7ca4-4b9d-b676-452966994e30"},"vehicle_type_id":"4","last_reported":1731773394,"current_range_meters":25600,"station_id":"ce4bgup2rcd13ifvqcn0","pricing_plan_id":"cebpf4jnsgd1na2vs0mg"},{"bike_id":"6de7550c-a035-4db6-b2c3-9c7ef570314e","system_id":"levelo_inurba_marseille","lat":43.26961,"lon":5.3863,"is_reserved":false,"is_disabled":false,"rental_uris":{"android":"levelo://app?vid=6de7550c-a035-4db6-b2c3-9c7ef570314e","ios":"levelo://app?vid=6de7550c-a035-4db6-b2c3-9c7ef570314e"},"vehicle_type_id":"4","last_reported":1731773394,"current_range_meters":28000,"station_id":"ce4bhh92rcd13ifvqfh0","pricing_plan_id":"cebpf4jnsgd1na2vs0mg"},{"bike_id":"eb9a84f5-6092-4dc4-a3c0-a07efb437c77","system_id":"levelo_inurba_marseille","lat":43.33775,"lon":5.37443,"is_reserved":false,"is_disabled":false,"rental_uris":{"android":"levelo://app?vid=eb9a84f5-6092-4dc4-a3c0-a07efb437c77","ios":"levelo://app?vid=eb9a84f5-6092-4dc4-a3c0-a07efb437c77"},"vehicle_type_id":"4","last_reported":1731773394,"current_range_meters":11200,"station_id":"","pricing_plan_id":"cebpf4jnsgd1na2vs0mg"},{"bike_id":"31dcbb9d-789d-4a9f-8092-823632bd9ad2","system_id":"levelo_inurba_marseille","lat":43.29256,"lon":5.38441,"is_reserved":false,"is_disabled":false,"rental_uris":{"android":"levelo://app?vid=31dcbb9d-789d-4a9f-8092-823632bd9ad2","ios":"levelo://app?vid=31dcbb9d-789d-4a9f-8092-823632bd9ad2"},"vehicle_type_id":"4","last_reported":1731773394,"current_range_meters":2000,"station_id":"ce4bh692rcd13ifvqea0","pricing_plan_id":"cebpf4jnsgd1na2vs0mg"},{"bike_id":"00728212-9e4c-483f-b565-693fbb0b6ce4","system_id":"levelo_inurba_marseille","lat":43.30595,"lon":5.39359,"is_reserved":false,"is_disabled":false,"rental_uris":{"android":"levelo://app?vid=00728212-9e4c-483f-b565-693fbb0b6ce4","ios":"levelo://app?vid=00728212-9e4c-483f-b565-693fbb0b6ce4"},"vehicle_type_id":"4","last_reported":1731773394,"current_range_meters":10800,"station_id":"ce4bh0p2rcd13ifvqd80","pricing_plan_id":"cebpf4jnsgd1na2vs0mg"},{"bike_id":"417133a1-2200-4403-9da9-4790bc5cc00a","system_id":"levelo_inurba_marseille","lat":43.24181,"lon":5.39727,"is_reserved":false,"is_disabled":false,"rental_uris":{"android":"levelo://app?vid=417133a1-2200-4403-9da9-4790bc5cc00a","ios":"levelo://app?vid=417133a1-2200-4403-9da9-4790bc5cc00a"},"vehicle_type_id":"4","last_reported":1731773394,"current_range_meters":24000,"station_id":"ce4bhn12rcd13ifvqgpg","pricing_plan_id":"cebpf4jnsgd1na2vs0mg"},{"bike_id":"03fff82a-e494-4645-9dd5-4a513db56fbd","system_id":"levelo_inurba_marseille","lat":43.337444,"lon":5.374475,"is_reserved":false,"is_disabled":false,"rental_uris":{"android":"levelo://app?vid=03fff82a-e494-4645-9dd5-4a513db56fbd","ios":"levelo://app?vid=03fff82a-e494-4645-9dd5-4a513db56fbd"},"vehicle_type_id":"4","last_reported":1731773394,"current_range_meters":35200,"station_id":"","pricing_plan_id":"cebpf4jnsgd1na2vs0mg"},{"bike_id":"22ea48db-755d-43c3-a7d2-0beff01815d8","system_id":"levelo_inurba_marseille","lat":43.33765,"lon":5.37436,"is_reserved":false,"is_disabled":false,"rental_uris":{"android":"levelo://app?vid=22ea48db-755d-43c3-a7d2-0beff01815d8","ios":"levelo://app?vid=22ea48db-755d-43c3-a7d2-0beff01815d8"},"vehicle_type_id":"4","last_reported":1731773394,"current_range_meters":15200,"station_id":"","pricing_plan_id":"cebpf4jnsgd1na2vs0mg"},{"bike_id":"1db9f667-8ff5-472e-81c0-a26ff233988b","system_id":"levelo_inurba_marseille","lat":43.25503,"lon":5.37651,"is_reserved":false,"is_disabled":false,"rental_uris":{"android":"levelo://app?vid=1db9f667-8ff5-472e-81c0-a26ff233988b","ios":"levelo://app?vid=1db9f667-8ff5-472e-81c0-a26ff233988b"},"vehicle_type_id":"4","last_reported":1731773394,"current_range_meters":4800,"station_id":"ce4bhh12rcd13ifvqff0","pricing_plan_id":"cebpf4jnsgd1na2vs0mg"},{"bike_id":"ef094887-f471-495f-9178-827cc8194c7f","system_id":"levelo_inurba_marseille","lat":43.32481,"lon":5.36568,"is_reserved":false,"is_disabled":false,"rental_uris":{"android":"levelo://app?vid=ef094887-f471-495f-9178-827cc8194c7f","ios":"levelo://app?vid=ef094887-f471-495f-9178-827cc8194c7f"},"vehicle_type_id":"4","last_reported":1731773394,"current_range_meters":18800,"station_id":"ce4bhs12rcd13ifvqhvg","pricing_plan_id":"cebpf4jnsgd1na2vs0mg"},{"bike_id":"be719b89-06e6-43f0-adc8-e075cf3dcab3","system_id":"levelo_inurba_marseille","lat":43.2732,"lon":5.39086,"is_reserved":false,"is_disabled":false,"rental_uris":{"android":"levelo://app?vid=be719b89-06e6-43f0-adc8-e075cf3dcab3","ios":"levelo://app?vid=be719b89-06e6-43f0-adc8-e075cf3dcab3"},"vehicle_type_id":"4","last_reported":1731773394,"current_range_meters":19200,"station_id":"ce4bhgp2rcd13ifvqfe0","pricing_plan_id":"cebpf4jnsgd1na2vs0mg"},{"bike_id":"93d2376b-d24b-4c4a-bf7c-d9d7da5c25f0","system_id":"levelo_inurba_marseille","lat":43.23055,"lon":5.35493,"is_reserved":false,"is_disabled":false,"rental_uris":{"android":"levelo://app?vid=93d2376b-d24b-4c4a-bf7c-d9d7da5c25f0","ios":"levelo://app?vid=93d2376b-d24b-4c4a-bf7c-d9d7da5c25f0"},"vehicle_type_id":"4","last_reported":1731773394,"current_range_meters":15200,"station_id":"cpo3342slgdg3j2ifvpg","pricing_plan_id":"cebpf4jnsgd1na2vs0mg"},{"bike_id":"2960b544-210f-4048-ab5c-a4d2be5ded03","system_id":"levelo_inurba_marseille","lat":43.25826,"lon":5.39438,"is_reserved":false,"is_disabled":false,"rental_uris":{"android":"levelo://app?vid=2960b544-210f-4048-ab5c-a4d2be5ded03","ios":"levelo://app?vid=2960b544-210f-4048-ab5c-a4d2be5ded03"},"vehicle_type_id":"4","last_reported":1731773394,"current_range_meters":22000,"station_id":"ce4bhip2rcd13ifvqft0","pricing_plan_id":"cebpf4jnsgd1na2vs0mg"},{"bike_id":"eb0b6258-25b5-4174-825d-16bccd206154","system_id":"levelo_inurba_marseille","lat":43.330297,"lon":5.390463,"is_reserved":false,"is_disabled":false,"rental_uris":{"android":"levelo://app?vid=eb0b6258-25b5-4174-825d-16bccd206154","ios":"levelo://app?vid=eb0b6258-25b5-4174-825d-16bccd206154"},"vehicle_type_id":"4","last_reported":1731773394,"current_range_meters":8800,"station_id":"ce4bhr92rcd13ifvqhrg","pricing_plan_id":"cebpf4jnsgd1na2vs0mg"},{"bike_id":"ca655f3b-8380-4045-b3f8-8acaa0e83ede","system_id":"levelo_inurba_marseille","lat":43.33739,"lon":5.37423,"is_reserved":false,"is_disabled":false,"rental_uris":{"android":"levelo://app?vid=ca655f3b-8380-4045-b3f8-8acaa0e83ede","ios":"levelo://app?vid=ca655f3b-8380-4045-b3f8-8acaa0e83ede"},"vehicle_type_id":"4","last_reported":1731773394,"current_range_meters":36800,"station_id":"","pricing_plan_id":"cebpf4jnsgd1na2vs0mg"},{"bike_id":"5014fbfa-bad7-4021-9ce1-84cdb1dd00c0","system_id":"levelo_inurba_marseille","lat":43.26555,"lon":5.37288,"is_reserved":false,"is_disabled":false,"rental_uris":{"android":"levelo://app?vid=5014fbfa-bad7-4021-9ce1-84cdb1dd00c0","ios":"levelo://app?vid=5014fbfa-bad7-4021-9ce1-84cdb1dd00c0"},"vehicle_type_id":"4","last_reported":1731773394,"current_range_meters":17200,"station_id":"ce4bhg12rcd13ifvqf70","pricing_plan_id":"cebpf4jnsgd1na2vs0mg"},{"bike_id":"3bec9701-1266-4cd8-9789-f238163e8695","system_id":"levelo_inurba_marseille","lat":43.32473,"lon":5.36566,"is_reserved":false,"is_disabled":false,"rental_uris":{"android":"levelo://app?vid=3bec9701-1266-4cd8-9789-f238163e8695","ios":"levelo://app?vid=3bec9701-1266-4cd8-9789-f238163e8695"},"vehicle_type_id":"4","last_reported":1731773394,"current_range_meters":38800,"station_id":"ce4bhs12rcd13ifvqhvg","pricing_plan_id":"cebpf4jnsgd1na2vs0mg"},{"bike_id":"a6b8c285-acc9-4039-9531-1aae39136a33","system_id":"levelo_inurba_marseille","lat":43.312042,"lon":5.367348,"is_reserved":false,"is_disabled":false,"rental_uris":{"android":"levelo://app?vid=a6b8c285-acc9-4039-9531-1aae39136a33","ios":"levelo://app?vid=a6b8c285-acc9-4039-9531-1aae39136a33"},"vehicle_type_id":"4","last_reported":1731773394,"current_range_meters":14400,"station_id":"","pricing_plan_id":"cebpf4jnsgd1na2vs0mg"},{"bike_id":"9bcfed07-c3a6-4c68-8e2e-1c76df283863","system_id":"levelo_inurba_marseille","lat":43.24807,"lon":5.37463,"is_reserved":false,"is_disabled":false,"rental_uris":{"android":"levelo://app?vid=9bcfed07-c3a6-4c68-8e2e-1c76df283863","ios":"levelo://app?vid=9bcfed07-c3a6-4c68-8e2e-1c76df283863"},"vehicle_type_id":"4","last_reported":1731773394,"current_range_meters":28800,"station_id":"ce4bhgh2rcd13ifvqfb0","pricing_plan_id":"cebpf4jnsgd1na2vs0mg"},{"bike_id":"5c254126-8805-4ed8-9520-9f63561143b3","system_id":"levelo_inurba_marseille","lat":43.24167,"lon":5.36401,"is_reserved":false,"is_disabled":false,"rental_uris":{"android":"levelo://app?vid=5c254126-8805-4ed8-9520-9f63561143b3","ios":"levelo://app?vid=5c254126-8805-4ed8-9520-9f63561143b3"},"vehicle_type_id":"4","last_reported":1731773394,"current_range_meters":20400,"station_id":"cpo36qri1sfpv3e86is0","pricing_plan_id":"cebpf4jnsgd1na2vs0mg"},{"bike_id":"7a11dce3-cf2e-46c1-be5d-29df74c75f1d","system_id":"levelo_inurba_marseille","lat":43.29306,"lon":5.37457,"is_reserved":false,"is_disabled":false,"rental_uris":{"android":"levelo://app?vid=7a11dce3-cf2e-46c1-be5d-29df74c75f1d","ios":"levelo://app?vid=7a11dce3-cf2e-46c1-be5d-29df74c75f1d"},"vehicle_type_id":"4","last_reported":1731773394,"current_range_meters":14800,"station_id":"ce4bgi12rcd13ifvqb70","pricing_plan_id":"cebpf4jnsgd1na2vs0mg"},{"bike_id":"54e785d7-2aa6-4106-bc9c-492a43b8bc60","system_id":"levelo_inurba_marseille","lat":43.29977,"lon":5.38486,"is_reserved":false,"is_disabled":false,"rental_uris":{"android":"levelo://app?vid=54e785d7-2aa6-4106-bc9c-492a43b8bc60","ios":"levelo://app?vid=54e785d7-2aa6-4106-bc9c-492a43b8bc60"},"vehicle_type_id":"4","last_reported":1731773394,"current_range_meters":22800,"station_id":"ce4bgj92rcd13ifvqbd0","pricing_plan_id":"cebpf4jnsgd1na2vs0mg"},{"bike_id":"604467e3-fc88-4613-ad36-1a03d21df4b0","system_id":"levelo_inurba_marseille","lat":43.27065,"lon":5.40257,"is_reserved":false,"is_disabled":false,"rental_uris":{"android":"levelo://app?vid=604467e3-fc88-4613-ad36-1a03d21df4b0","ios":"levelo://app?vid=604467e3-fc88-4613-ad36-1a03d21df4b0"},"vehicle_type_id":"4","last_reported":1731773394,"current_range_meters":33200,"station_id":"ce4bhk92rcd13ifvqgc0","pricing_plan_id":"cebpf4jnsgd1na2vs0mg"},{"bike_id":"89000436-b3ad-423b-9dd3-33fc91d93b5f","system_id":"levelo_inurba_marseille","lat":43.30465,"lon":5.37902,"is_reserved":false,"is_disabled":false,"rental_uris":{"android":"levelo://app?vid=89000436-b3ad-423b-9dd3-33fc91d93b5f","ios":"levelo://app?vid=89000436-b3ad-423b-9dd3-33fc91d93b5f"},"vehicle_type_id":"4","last_reported":1731773394,"current_range_meters":36800,"station_id":"ce4bgup2rcd13ifvqcn0","pricing_plan_id":"cebpf4jnsgd1na2vs0mg"},{"bike_id":"be59cd8a-3fba-4cbc-8691-2eb7ffe65fa5","system_id":"levelo_inurba_marseille","lat":43.30437,"lon":5.38894,"is_reserved":false,"is_disabled":false,"rental_uris":{"android":"levelo://app?vid=be59cd8a-3fba-4cbc-8691-2eb7ffe65fa5","ios":"levelo://app?vid=be59cd8a-3fba-4cbc-8691-2eb7ffe65fa5"},"vehicle_type_id":"4","last_reported":1731773394,"current_range_meters":37600,"station_id":"ce4bgk12rcd13ifvqbi0","pricing_plan_id":"cebpf4jnsgd1na2vs0mg"},{"bike_id":"dc494747-56f0-4d13-a09d-c245e2b01245","system_id":"levelo_inurba_marseille","lat":43.231967,"lon":5.355533,"is_reserved":false,"is_disabled":false,"rental_uris":{"android":"levelo://app?vid=dc494747-56f0-4d13-a09d-c245e2b01245","ios":"levelo://app?vid=dc494747-56f0-4d13-a09d-c245e2b01245"},"vehicle_type_id":"4","last_reported":1731773394,"current_range_meters":38800,"station_id":"ce4bhu92rcd13ifvqi70","pricing_plan_id":"cebpf4jnsgd1na2vs0mg"},{"bike_id":"3731846e-2218-45f1-ac96-76a41185ff9d","system_id":"levelo_inurba_marseille","lat":43.241667,"lon":5.363907,"is_reserved":false,"is_disabled":false,"rental_uris":{"android":"levelo://app?vid=3731846e-2218-45f1-ac96-76a41185ff9d","ios":"levelo://app?vid=3731846e-2218-45f1-ac96-76a41185ff9d"},"vehicle_type_id":"4","last_reported":1731773394,"current_range_meters":38800,"station_id":"cpo36qri1sfpv3e86is0","pricing_plan_id":"cebpf4jnsgd1na2vs0mg"},{"bike_id":"ce98a48e-359c-4d5d-94e6-4fbea5b7b849","system_id":"levelo_inurba_marseille","lat":43.30328,"lon":5.40433,"is_reserved":false,"is_disabled":false,"rental_uris":{"android":"levelo://app?vid=ce98a48e-359c-4d5d-94e6-4fbea5b7b849","ios":"levelo://app?vid=ce98a48e-359c-4d5d-94e6-4fbea5b7b849"},"vehicle_type_id":"4","last_reported":1731773394,"current_range_meters":6800,"station_id":"ce4bh012rcd13ifvqd10","pricing_plan_id":"cebpf4jnsgd1na2vs0mg"},{"bike_id":"b497c4c1-47c5-46df-89b4-3a0f01d4aeca","system_id":"levelo_inurba_marseille","lat":43.32112,"lon":5.36781,"is_reserved":false,"is_disabled":false,"rental_uris":{"android":"levelo://app?vid=b497c4c1-47c5-46df-89b4-3a0f01d4aeca","ios":"levelo://app?vid=b497c4c1-47c5-46df-89b4-3a0f01d4aeca"},"vehicle_type_id":"4","last_reported":1731773394,"current_range_meters":28000,"station_id":"ce4bhrh2rcd13ifvqhug","pricing_plan_id":"cebpf4jnsgd1na2vs0mg"},{"bike_id":"92ac4858-87d6-4ceb-8f6e-004635a816a8","system_id":"levelo_inurba_marseille","lat":43.27792,"lon":5.40724,"is_reserved":false,"is_disabled":false,"rental_uris":{"android":"levelo://app?vid=92ac4858-87d6-4ceb-8f6e-004635a816a8","ios":"levelo://app?vid=92ac4858-87d6-4ceb-8f6e-004635a816a8"},"vehicle_type_id":"4","last_reported":1731773394,"current_range_meters":30800,"station_id":"ce4bhnh2rcd13ifvqgtg","pricing_plan_id":"cebpf4jnsgd1na2vs0mg"},{"bike_id":"80b88a0e-5665-4988-be61-abd2813bf356","system_id":"levelo_inurba_marseille","lat":43.284771,"lon":5.384139,"is_reserved":false,"is_disabled":false,"rental_uris":{"android":"levelo://app?vid=80b88a0e-5665-4988-be61-abd2813bf356","ios":"levelo://app?vid=80b88a0e-5665-4988-be61-abd2813bf356"},"vehicle_type_id":"4","last_reported":1731773394,"current_range_meters":6800,"station_id":"ce4bh512rcd13ifvqe3g","pricing_plan_id":"cebpf4jnsgd1na2vs0mg"},{"bike_id":"5837896b-5dca-4d49-b05e-cc1583710155","system_id":"levelo_inurba_marseille","lat":43.24994,"lon":5.38932,"is_reserved":false,"is_disabled":false,"rental_uris":{"android":"levelo://app?vid=5837896b-5dca-4d49-b05e-cc1583710155","ios":"levelo://app?vid=5837896b-5dca-4d49-b05e-cc1583710155"},"vehicle_type_id":"4","last_reported":1731773394,"current_range_meters":36000,"station_id":"ce4bhgp2rcd13ifvqfd0","pricing_plan_id":"cebpf4jnsgd1na2vs0mg"},{"bike_id":"41b56539-4f7d-46d8-9fa9-3498d0d1f67f","system_id":"levelo_inurba_marseille","lat":43.24171,"lon":5.36402,"is_reserved":false,"is_disabled":false,"rental_uris":{"android":"levelo://app?vid=41b56539-4f7d-46d8-9fa9-3498d0d1f67f","ios":"levelo://app?vid=41b56539-4f7d-46d8-9fa9-3498d0d1f67f"},"vehicle_type_id":"4","last_reported":1731773394,"current_range_meters":19200,"station_id":"cpo36qri1sfpv3e86is0","pricing_plan_id":"cebpf4jnsgd1na2vs0mg"},{"bike_id":"4f072872-5e38-4a4b-9811-1d9e60a837c4","system_id":"levelo_inurba_marseille","lat":43.23072,"lon":5.35495,"is_reserved":false,"is_disabled":false,"rental_uris":{"android":"levelo://app?vid=4f072872-5e38-4a4b-9811-1d9e60a837c4","ios":"levelo://app?vid=4f072872-5e38-4a4b-9811-1d9e60a837c4"},"vehicle_type_id":"4","last_reported":1731773394,"current_range_meters":10800,"station_id":"cpo3342slgdg3j2ifvpg","pricing_plan_id":"cebpf4jnsgd1na2vs0mg"},{"bike_id":"056e85d8-67f6-480c-a847-90deb6634bc6","system_id":"levelo_inurba_marseille","lat":43.29796,"lon":5.371,"is_reserved":false,"is_disabled":false,"rental_uris":{"android":"levelo://app?vid=056e85d8-67f6-480c-a847-90deb6634bc6","ios":"levelo://app?vid=056e85d8-67f6-480c-a847-90deb6634bc6"},"vehicle_type_id":"4","last_reported":1731773394,"current_range_meters":38800,"station_id":"ce4bgop2rcd13ifvqc1g","pricing_plan_id":"cebpf4jnsgd1na2vs0mg"},{"bike_id":"e79c1d71-1ce6-4d60-8fff-1fc1acef8ee4","system_id":"levelo_inurba_marseille","lat":43.23959,"lon":5.3663,"is_reserved":false,"is_disabled":false,"rental_uris":{"android":"levelo://app?vid=e79c1d71-1ce6-4d60-8fff-1fc1acef8ee4","ios":"levelo://app?vid=e79c1d71-1ce6-4d60-8fff-1fc1acef8ee4"},"vehicle_type_id":"4","last_reported":1731773394,"current_range_meters":23200,"station_id":"ce4bhi12rcd13ifvqfp0","pricing_plan_id":"cebpf4jnsgd1na2vs0mg"},{"bike_id":"892adb6d-c134-4f63-a947-4eee2b92b71d","system_id":"levelo_inurba_marseille","lat":43.23065,"lon":5.35493,"is_reserved":false,"is_disabled":false,"rental_uris":{"android":"levelo://app?vid=892adb6d-c134-4f63-a947-4eee2b92b71d","ios":"levelo://app?vid=892adb6d-c134-4f63-a947-4eee2b92b71d"},"vehicle_type_id":"4","last_reported":1731773394,"current_range_meters":38800,"station_id":"cpo3342slgdg3j2ifvpg","pricing_plan_id":"cebpf4jnsgd1na2vs0mg"},{"bike_id":"a84f5389-258d-4508-9c0f-32ee5d326b43","system_id":"levelo_inurba_marseille","lat":43.33767,"lon":5.37475,"is_reserved":false,"is_disabled":false,"rental_uris":{"android":"levelo://app?vid=a84f5389-258d-4508-9c0f-32ee5d326b43","ios":"levelo://app?vid=a84f5389-258d-4508-9c0f-32ee5d326b43"},"vehicle_type_id":"4","last_reported":1731773394,"current_range_meters":33600,"station_id":"","pricing_plan_id":"cebpf4jnsgd1na2vs0mg"},{"bike_id":"677b1346-6b24-4862-a336-1a90171c8f18","system_id":"levelo_inurba_marseille","lat":43.25091,"lon":5.39521,"is_reserved":false,"is_disabled":false,"rental_uris":{"android":"levelo://app?vid=677b1346-6b24-4862-a336-1a90171c8f18","ios":"levelo://app?vid=677b1346-6b24-4862-a336-1a90171c8f18"},"vehicle_type_id":"4","last_reported":1731773394,"current_range_meters":30800,"station_id":"ce4bhm12rcd13ifvqgkg","pricing_plan_id":"cebpf4jnsgd1na2vs0mg"},{"bike_id":"8930ef7c-ea7a-4b2e-88bd-b612f32b5d5d","system_id":"levelo_inurba_marseille","lat":43.24997,"lon":5.38934,"is_reserved":false,"is_disabled":false,"rental_uris":{"android":"levelo://app?vid=8930ef7c-ea7a-4b2e-88bd-b612f32b5d5d","ios":"levelo://app?vid=8930ef7c-ea7a-4b2e-88bd-b612f32b5d5d"},"vehicle_type_id":"4","last_reported":1731773394,"current_range_meters":18800,"station_id":"ce4bhgp2rcd13ifvqfd0","pricing_plan_id":"cebpf4jnsgd1na2vs0mg"},{"bike_id":"b5ce9235-4ffb-4d40-a9ab-7ab7ce5a79f6","system_id":"levelo_inurba_marseille","lat":43.24813,"lon":5.37465,"is_reserved":false,"is_disabled":false,"rental_uris":{"android":"levelo://app?vid=b5ce9235-4ffb-4d40-a9ab-7ab7ce5a79f6","ios":"levelo://app?vid=b5ce9235-4ffb-4d40-a9ab-7ab7ce5a79f6"},"vehicle_type_id":"4","last_reported":1731773394,"current_range_meters":38800,"station_id":"ce4bhgh2rcd13ifvqfb0","pricing_plan_id":"cebpf4jnsgd1na2vs0mg"},{"bike_id":"3c253a46-ffe2-4207-99ee-781a7e174fbc","system_id":"levelo_inurba_marseille","lat":43.28103,"lon":5.37833,"is_reserved":false,"is_disabled":false,"rental_uris":{"android":"levelo://app?vid=3c253a46-ffe2-4207-99ee-781a7e174fbc","ios":"levelo://app?vid=3c253a46-ffe2-4207-99ee-781a7e174fbc"},"vehicle_type_id":"4","last_reported":1731773394,"current_range_meters":38800,"station_id":"ce4bha12rcd13ifvqee0","pricing_plan_id":"cebpf4jnsgd1na2vs0mg"},{"bike_id":"6d6992bf-ade3-4a22-a168-306dafdc4544","system_id":"levelo_inurba_marseille","lat":43.2417,"lon":5.36406,"is_reserved":false,"is_disabled":false,"rental_uris":{"android":"levelo://app?vid=6d6992bf-ade3-4a22-a168-306dafdc4544","ios":"levelo://app?vid=6d6992bf-ade3-4a22-a168-306dafdc4544"},"vehicle_type_id":"4","last_reported":1731773394,"current_range_meters":33200,"station_id":"cpo36qri1sfpv3e86is0","pricing_plan_id":"cebpf4jnsgd1na2vs0mg"},{"bike_id":"4fbc023c-2d87-4b86-af62-95acaf1bfc89","system_id":"levelo_inurba_marseille","lat":43.337444,"lon":5.374475,"is_reserved":false,"is_disabled":false,"rental_uris":{"android":"levelo://app?vid=4fbc023c-2d87-4b86-af62-95acaf1bfc89","ios":"levelo://app?vid=4fbc023c-2d87-4b86-af62-95acaf1bfc89"},"vehicle_type_id":"4","last_reported":1731773394,"current_range_meters":36800,"station_id":"","pricing_plan_id":"cebpf4jnsgd1na2vs0mg"},{"bike_id":"074c6971-4ae7-4906-8673-1607af29a7e1","system_id":"levelo_inurba_marseille","lat":43.25085,"lon":5.39515,"is_reserved":false,"is_disabled":false,"rental_uris":{"android":"levelo://app?vid=074c6971-4ae7-4906-8673-1607af29a7e1","ios":"levelo://app?vid=074c6971-4ae7-4906-8673-1607af29a7e1"},"vehicle_type_id":"4","last_reported":1731773394,"current_range_meters":32400,"station_id":"ce4bhm12rcd13ifvqgkg","pricing_plan_id":"cebpf4jnsgd1na2vs0mg"},{"bike_id":"f83b530c-e5d6-4807-aa61-45c64110e4eb","system_id":"levelo_inurba_marseille","lat":43.32662,"lon":5.40985,"is_reserved":false,"is_disabled":false,"rental_uris":{"android":"levelo://app?vid=f83b530c-e5d6-4807-aa61-45c64110e4eb","ios":"levelo://app?vid=f83b530c-e5d6-4807-aa61-45c64110e4eb"},"vehicle_type_id":"4","last_reported":1731773394,"current_range_meters":14000,"station_id":"ce4bhpp2rcd13ifvqhgg","pricing_plan_id":"cebpf4jnsgd1na2vs0mg"},{"bike_id":"f7612cb9-64e6-456e-b407-47173cb6e342","system_id":"levelo_inurba_marseille","lat":43.28608,"lon":5.37074,"is_reserved":false,"is_disabled":false,"rental_uris":{"android":"levelo://app?vid=f7612cb9-64e6-456e-b407-47173cb6e342","ios":"levelo://app?vid=f7612cb9-64e6-456e-b407-47173cb6e342"},"vehicle_type_id":"4","last_reported":1731773394,"current_range_meters":8800,"station_id":"ce4bht12rcd13ifvqi60","pricing_plan_id":"cebpf4jnsgd1na2vs0mg"},{"bike_id":"bf467757-7a80-4d34-8f77-3c676ac6c4fd","system_id":"levelo_inurba_marseille","lat":43.292633,"lon":5.384364,"is_reserved":false,"is_disabled":false,"rental_uris":{"android":"levelo://app?vid=bf467757-7a80-4d34-8f77-3c676ac6c4fd","ios":"levelo://app?vid=bf467757-7a80-4d34-8f77-3c676ac6c4fd"},"vehicle_type_id":"4","last_reported":1731773394,"current_range_meters":12000,"station_id":"ce4bh692rcd13ifvqea0","pricing_plan_id":"cebpf4jnsgd1na2vs0mg"},{"bike_id":"f977d484-43b9-4a08-9f25-946507f2ea63","system_id":"levelo_inurba_marseille","lat":43.31428,"lon":5.37385,"is_reserved":false,"is_disabled":false,"rental_uris":{"android":"levelo://app?vid=f977d484-43b9-4a08-9f25-946507f2ea63","ios":"levelo://app?vid=f977d484-43b9-4a08-9f25-946507f2ea63"},"vehicle_type_id":"4","last_reported":1731773394,"current_range_meters":24000,"station_id":"","pricing_plan_id":"cebpf4jnsgd1na2vs0mg"},{"bike_id":"a0939463-029d-4697-b86e-b6006615d044","system_id":"levelo_inurba_marseille","lat":43.31236,"lon":5.36858,"is_reserved":false,"is_disabled":false,"rental_uris":{"android":"levelo://app?vid=a0939463-029d-4697-b86e-b6006615d044","ios":"levelo://app?vid=a0939463-029d-4697-b86e-b6006615d044"},"vehicle_type_id":"4","last_reported":1731773394,"current_range_meters":6000,"station_id":"ce4bgl92rcd13ifvqbq0","pricing_plan_id":"cebpf4jnsgd1na2vs0mg"},{"bike_id":"20f256c9-a4c1-486d-83bc-b5fc0afa0d8f","system_id":"levelo_inurba_marseille","lat":43.308031,"lon":5.435244,"is_reserved":false,"is_disabled":false,"rental_uris":{"android":"levelo://app?vid=20f256c9-a4c1-486d-83bc-b5fc0afa0d8f","ios":"levelo://app?vid=20f256c9-a4c1-486d-83bc-b5fc0afa0d8f"},"vehicle_type_id":"4","last_reported":1731773394,"current_range_meters":38800,"station_id":"ce4bhph2rcd13ifvqheg","pricing_plan_id":"cebpf4jnsgd1na2vs0mg"},{"bike_id":"4ee4605c-22f2-4532-b44d-f5fb03fd5142","system_id":"levelo_inurba_marseille","lat":43.30804,"lon":5.43526,"is_reserved":false,"is_disabled":false,"rental_uris":{"android":"levelo://app?vid=4ee4605c-22f2-4532-b44d-f5fb03fd5142","ios":"levelo://app?vid=4ee4605c-22f2-4532-b44d-f5fb03fd5142"},"vehicle_type_id":"4","last_reported":1731773394,"current_range_meters":14400,"station_id":"ce4bhph2rcd13ifvqheg","pricing_plan_id":"cebpf4jnsgd1na2vs0mg"},{"bike_id":"5b705911-af8f-4b2e-890b-2bc5ccbad2c9","system_id":"levelo_inurba_marseille","lat":43.29287,"lon":5.40123,"is_reserved":false,"is_disabled":false,"rental_uris":{"android":"levelo://app?vid=5b705911-af8f-4b2e-890b-2bc5ccbad2c9","ios":"levelo://app?vid=5b705911-af8f-4b2e-890b-2bc5ccbad2c9"},"vehicle_type_id":"4","last_reported":1731773394,"current_range_meters":8000,"station_id":"ce4bh312rcd13ifvqdk0","pricing_plan_id":"cebpf4jnsgd1na2vs0mg"},{"bike_id":"9a4cb551-9cbc-4054-85c0-0c9d7bfe03e9","system_id":"levelo_inurba_marseille","lat":43.30892,"lon":5.37194,"is_reserved":false,"is_disabled":false,"rental_uris":{"android":"levelo://app?vid=9a4cb551-9cbc-4054-85c0-0c9d7bfe03e9","ios":"levelo://app?vid=9a4cb551-9cbc-4054-85c0-0c9d7bfe03e9"},"vehicle_type_id":"4","last_reported":1731773394,"current_range_meters":8400,"station_id":"ce4bguh2rcd13ifvqckg","pricing_plan_id":"cebpf4jnsgd1na2vs0mg"},{"bike_id":"adf600bb-5cf0-4788-b9bb-3ba6b9c1e712","system_id":"levelo_inurba_marseille","lat":43.32552,"lon":5.41423,"is_reserved":false,"is_disabled":false,"rental_uris":{"android":"levelo://app?vid=adf600bb-5cf0-4788-b9bb-3ba6b9c1e712","ios":"levelo://app?vid=adf600bb-5cf0-4788-b9bb-3ba6b9c1e712"},"vehicle_type_id":"4","last_reported":1731773394,"current_range_meters":36400,"station_id":"ce4bhq12rcd13ifvqhhg","pricing_plan_id":"cebpf4jnsgd1na2vs0mg"},{"bike_id":"022f478e-da93-4eda-9d1b-2d0e36905c07","system_id":"levelo_inurba_marseille","lat":43.33766,"lon":5.37437,"is_reserved":false,"is_disabled":false,"rental_uris":{"android":"levelo://app?vid=022f478e-da93-4eda-9d1b-2d0e36905c07","ios":"levelo://app?vid=022f478e-da93-4eda-9d1b-2d0e36905c07"},"vehicle_type_id":"4","last_reported":1731773394,"current_range_meters":16800,"station_id":"","pricing_plan_id":"cebpf4jnsgd1na2vs0mg"},{"bike_id":"3c7108fb-85fe-43b6-95ce-e6a5e6d34b1a","system_id":"levelo_inurba_marseille","lat":43.33731,"lon":5.39187,"is_reserved":false,"is_disabled":false,"rental_uris":{"android":"levelo://app?vid=3c7108fb-85fe-43b6-95ce-e6a5e6d34b1a","ios":"levelo://app?vid=3c7108fb-85fe-43b6-95ce-e6a5e6d34b1a"},"vehicle_type_id":"4","last_reported":1731773394,"current_range_meters":32400,"station_id":"ce4bhr92rcd13ifvqhsg","pricing_plan_id":"cebpf4jnsgd1na2vs0mg"},{"bike_id":"b12fdca1-48e2-4692-b7d1-5f2bb82b01ca","system_id":"levelo_inurba_marseille","lat":43.30939,"lon":5.40138,"is_reserved":false,"is_disabled":false,"rental_uris":{"android":"levelo://app?vid=b12fdca1-48e2-4692-b7d1-5f2bb82b01ca","ios":"levelo://app?vid=b12fdca1-48e2-4692-b7d1-5f2bb82b01ca"},"vehicle_type_id":"4","last_reported":1731773394,"current_range_meters":8000,"station_id":"ce4bgvp2rcd13ifvqct0","pricing_plan_id":"cebpf4jnsgd1na2vs0mg"},{"bike_id":"f22306f5-4242-4bb1-a328-6afd242dde89","system_id":"levelo_inurba_marseille","lat":43.29308,"lon":5.37177,"is_reserved":false,"is_disabled":false,"rental_uris":{"android":"levelo://app?vid=f22306f5-4242-4bb1-a328-6afd242dde89","ios":"levelo://app?vid=f22306f5-4242-4bb1-a328-6afd242dde89"},"vehicle_type_id":"4","last_reported":1731773394,"current_range_meters":35200,"station_id":"ce4bgh92rcd13ifvqb40","pricing_plan_id":"cebpf4jnsgd1na2vs0mg"},{"bike_id":"251d8918-1250-4853-9293-89ee39d3be92","system_id":"levelo_inurba_marseille","lat":43.33022,"lon":5.39038,"is_reserved":false,"is_disabled":false,"rental_uris":{"android":"levelo://app?vid=251d8918-1250-4853-9293-89ee39d3be92","ios":"levelo://app?vid=251d8918-1250-4853-9293-89ee39d3be92"},"vehicle_type_id":"4","last_reported":1731773394,"current_range_meters":36400,"station_id":"ce4bhr92rcd13ifvqhrg","pricing_plan_id":"cebpf4jnsgd1na2vs0mg"},{"bike_id":"16de26e5-bd34-4390-b1d0-cb23785c2892","system_id":"levelo_inurba_marseille","lat":43.32059,"lon":5.4159,"is_reserved":false,"is_disabled":false,"rental_uris":{"android":"levelo://app?vid=16de26e5-bd34-4390-b1d0-cb23785c2892","ios":"levelo://app?vid=16de26e5-bd34-4390-b1d0-cb23785c2892"},"vehicle_type_id":"4","last_reported":1731773394,"current_range_meters":8400,"station_id":"ce4bhq92rcd13ifvqhkg","pricing_plan_id":"cebpf4jnsgd1na2vs0mg"},{"bike_id":"809471e3-ec39-4f2b-b271-49c8263623d6","system_id":"levelo_inurba_marseille","lat":43.25012,"lon":5.38936,"is_reserved":false,"is_disabled":false,"rental_uris":{"android":"levelo://app?vid=809471e3-ec39-4f2b-b271-49c8263623d6","ios":"levelo://app?vid=809471e3-ec39-4f2b-b271-49c8263623d6"},"vehicle_type_id":"4","last_reported":1731773394,"current_range_meters":38800,"station_id":"ce4bhgp2rcd13ifvqfd0","pricing_plan_id":"cebpf4jnsgd1na2vs0mg"},{"bike_id":"bcceeb5b-f05c-4071-9e51-dfc40da45414","system_id":"levelo_inurba_marseille","lat":43.299774,"lon":5.384828,"is_reserved":false,"is_disabled":false,"rental_uris":{"android":"levelo://app?vid=bcceeb5b-f05c-4071-9e51-dfc40da45414","ios":"levelo://app?vid=bcceeb5b-f05c-4071-9e51-dfc40da45414"},"vehicle_type_id":"4","last_reported":1731773394,"current_range_meters":8000,"station_id":"ce4bgj92rcd13ifvqbd0","pricing_plan_id":"cebpf4jnsgd1na2vs0mg"},{"bike_id":"c69ef930-ea94-42c7-959e-85dc127d87d1","system_id":"levelo_inurba_marseille","lat":43.26959,"lon":5.38639,"is_reserved":false,"is_disabled":false,"rental_uris":{"android":"levelo://app?vid=c69ef930-ea94-42c7-959e-85dc127d87d1","ios":"levelo://app?vid=c69ef930-ea94-42c7-959e-85dc127d87d1"},"vehicle_type_id":"4","last_reported":1731773394,"current_range_meters":37600,"station_id":"ce4bhh92rcd13ifvqfh0","pricing_plan_id":"cebpf4jnsgd1na2vs0mg"},{"bike_id":"6c59550e-6020-44ab-ada6-b7d13e5f7f8c","system_id":"levelo_inurba_marseille","lat":43.26505,"lon":5.39538,"is_reserved":false,"is_disabled":false,"rental_uris":{"android":"levelo://app?vid=6c59550e-6020-44ab-ada6-b7d13e5f7f8c","ios":"levelo://app?vid=6c59550e-6020-44ab-ada6-b7d13e5f7f8c"},"vehicle_type_id":"4","last_reported":1731773394,"current_range_meters":30000,"station_id":"ce4bhi12rcd13ifvqfq0","pricing_plan_id":"cebpf4jnsgd1na2vs0mg"},{"bike_id":"e05ed463-3534-4fec-bf69-3626d174144e","system_id":"levelo_inurba_marseille","lat":43.29899,"lon":5.43664,"is_reserved":false,"is_disabled":false,"rental_uris":{"android":"levelo://app?vid=e05ed463-3534-4fec-bf69-3626d174144e","ios":"levelo://app?vid=e05ed463-3534-4fec-bf69-3626d174144e"},"vehicle_type_id":"4","last_reported":1731773394,"current_range_meters":6800,"station_id":"ce4bhpp2rcd13ifvqhfg","pricing_plan_id":"cebpf4jnsgd1na2vs0mg"},{"bike_id":"ff00f73b-a79e-42c6-acbe-193949fdcfc6","system_id":"levelo_inurba_marseille","lat":43.2834,"lon":5.38118,"is_reserved":false,"is_disabled":false,"rental_uris":{"android":"levelo://app?vid=ff00f73b-a79e-42c6-acbe-193949fdcfc6","ios":"levelo://app?vid=ff00f73b-a79e-42c6-acbe-193949fdcfc6"},"vehicle_type_id":"4","last_reported":1731773394,"current_range_meters":18000,"station_id":"ce4bh412rcd13ifvqdr0","pricing_plan_id":"cebpf4jnsgd1na2vs0mg"},{"bike_id":"0defbaaf-820c-412e-8e18-87120d39f4b3","system_id":"levelo_inurba_marseille","lat":43.31998,"lon":5.38151,"is_reserved":false,"is_disabled":false,"rental_uris":{"android":"levelo://app?vid=0defbaaf-820c-412e-8e18-87120d39f4b3","ios":"levelo://app?vid=0defbaaf-820c-412e-8e18-87120d39f4b3"},"vehicle_type_id":"4","last_reported":1731773394,"current_range_meters":37600,"station_id":"ce4bhr12rcd13ifvqhpg","pricing_plan_id":"cebpf4jnsgd1na2vs0mg"},{"bike_id":"b9a0692f-1f3a-4fe8-bf07-b346390bcd78","system_id":"levelo_inurba_marseille","lat":43.32327,"lon":5.38529,"is_reserved":false,"is_disabled":false,"rental_uris":{"android":"levelo://app?vid=b9a0692f-1f3a-4fe8-bf07-b346390bcd78","ios":"levelo://app?vid=b9a0692f-1f3a-4fe8-bf07-b346390bcd78"},"vehicle_type_id":"4","last_reported":1731773394,"current_range_meters":30800,"station_id":"","pricing_plan_id":"cebpf4jnsgd1na2vs0mg"},{"bike_id":"686ce40f-19c7-4c9d-8226-2742e6f7d974","system_id":"levelo_inurba_marseille","lat":43.26939,"lon":5.40258,"is_reserved":false,"is_disabled":false,"rental_uris":{"android":"levelo://app?vid=686ce40f-19c7-4c9d-8226-2742e6f7d974","ios":"levelo://app?vid=686ce40f-19c7-4c9d-8226-2742e6f7d974"},"vehicle_type_id":"4","last_reported":1731773394,"current_range_meters":35600,"station_id":"cjm6bp8fraef2m0cb0m0","pricing_plan_id":"cebpf4jnsgd1na2vs0mg"},{"bike_id":"47690970-7a32-4a1c-9b5e-af3e800d96cd","system_id":"levelo_inurba_marseille","lat":43.30187,"lon":5.36634,"is_reserved":false,"is_disabled":false,"rental_uris":{"android":"levelo://app?vid=47690970-7a32-4a1c-9b5e-af3e800d96cd","ios":"levelo://app?vid=47690970-7a32-4a1c-9b5e-af3e800d96cd"},"vehicle_type_id":"4","last_reported":1731773394,"current_range_meters":26000,"station_id":"ce4bgrh2rcd13ifvqc8g","pricing_plan_id":"cebpf4jnsgd1na2vs0mg"},{"bike_id":"5cf61122-4769-467d-9f80-d9094f3518b0","system_id":"levelo_inurba_marseille","lat":43.28152,"lon":5.42645,"is_reserved":false,"is_disabled":false,"rental_uris":{"android":"levelo://app?vid=5cf61122-4769-467d-9f80-d9094f3518b0","ios":"levelo://app?vid=5cf61122-4769-467d-9f80-d9094f3518b0"},"vehicle_type_id":"4","last_reported":1731773394,"current_range_meters":24800,"station_id":"ce4bhnh2rcd13ifvqgug","pricing_plan_id":"cebpf4jnsgd1na2vs0mg"},{"bike_id":"a4d1184f-c020-44ab-8240-72f7391fe612","system_id":"levelo_inurba_marseille","lat":43.30441,"lon":5.38892,"is_reserved":false,"is_disabled":false,"rental_uris":{"android":"levelo://app?vid=a4d1184f-c020-44ab-8240-72f7391fe612","ios":"levelo://app?vid=a4d1184f-c020-44ab-8240-72f7391fe612"},"vehicle_type_id":"4","last_reported":1731773394,"current_range_meters":12000,"station_id":"ce4bgk12rcd13ifvqbi0","pricing_plan_id":"cebpf4jnsgd1na2vs0mg"},{"bike_id":"1c4774a7-a2d4-4020-9a1a-c36e307e75d8","system_id":"levelo_inurba_marseille","lat":43.32365,"lon":5.38885,"is_reserved":false,"is_disabled":false,"rental_uris":{"android":"levelo://app?vid=1c4774a7-a2d4-4020-9a1a-c36e307e75d8","ios":"levelo://app?vid=1c4774a7-a2d4-4020-9a1a-c36e307e75d8"},"vehicle_type_id":"4","last_reported":1731773394,"current_range_meters":26000,"station_id":"ce4bhqp2rcd13ifvqhog","pricing_plan_id":"cebpf4jnsgd1na2vs0mg"},{"bike_id":"fe044a61-f10d-4bd7-84b9-a7a5b6d86113","system_id":"levelo_inurba_marseille","lat":43.308018,"lon":5.435281,"is_reserved":false,"is_disabled":false,"rental_uris":{"android":"levelo://app?vid=fe044a61-f10d-4bd7-84b9-a7a5b6d86113","ios":"levelo://app?vid=fe044a61-f10d-4bd7-84b9-a7a5b6d86113"},"vehicle_type_id":"4","last_reported":1731773394,"current_range_meters":38800,"station_id":"ce4bhph2rcd13ifvqheg","pricing_plan_id":"cebpf4jnsgd1na2vs0mg"},{"bike_id":"596f75b7-a1ee-43e2-a784-cfc357496adc","system_id":"levelo_inurba_marseille","lat":43.27843,"lon":5.39211,"is_reserved":false,"is_disabled":false,"rental_uris":{"android":"levelo://app?vid=596f75b7-a1ee-43e2-a784-cfc357496adc","ios":"levelo://app?vid=596f75b7-a1ee-43e2-a784-cfc357496adc"},"vehicle_type_id":"4","last_reported":1731773394,"current_range_meters":19600,"station_id":"ce4bhjp2rcd13ifvqga0","pricing_plan_id":"cebpf4jnsgd1na2vs0mg"},{"bike_id":"d6e992ed-a886-42df-9e34-6ddc6c32f68d","system_id":"levelo_inurba_marseille","lat":43.29858,"lon":5.36287,"is_reserved":false,"is_disabled":false,"rental_uris":{"android":"levelo://app?vid=d6e992ed-a886-42df-9e34-6ddc6c32f68d","ios":"levelo://app?vid=d6e992ed-a886-42df-9e34-6ddc6c32f68d"},"vehicle_type_id":"4","last_reported":1731773394,"current_range_meters":36400,"station_id":"ce4bgpp2rcd13ifvqc3g","pricing_plan_id":"cebpf4jnsgd1na2vs0mg"},{"bike_id":"6912934e-e97d-4b3a-813e-d852959a5a6c","system_id":"levelo_inurba_marseille","lat":43.29935,"lon":5.36553,"is_reserved":false,"is_disabled":false,"rental_uris":{"android":"levelo://app?vid=6912934e-e97d-4b3a-813e-d852959a5a6c","ios":"levelo://app?vid=6912934e-e97d-4b3a-813e-d852959a5a6c"},"vehicle_type_id":"4","last_reported":1731773394,"current_range_meters":21600,"station_id":"ce4bgm92rcd13ifvqbr0","pricing_plan_id":"cebpf4jnsgd1na2vs0mg"},{"bike_id":"a53c34da-0cae-47e8-984d-fd89ae39013d","system_id":"levelo_inurba_marseille","lat":43.29797,"lon":5.37106,"is_reserved":false,"is_disabled":false,"rental_uris":{"android":"levelo://app?vid=a53c34da-0cae-47e8-984d-fd89ae39013d","ios":"levelo://app?vid=a53c34da-0cae-47e8-984d-fd89ae39013d"},"vehicle_type_id":"4","last_reported":1731773394,"current_range_meters":38800,"station_id":"ce4bgop2rcd13ifvqc1g","pricing_plan_id":"cebpf4jnsgd1na2vs0mg"},{"bike_id":"6e621260-9d26-446b-af05-6b441e749c01","system_id":"levelo_inurba_marseille","lat":43.24667,"lon":5.38163,"is_reserved":false,"is_disabled":false,"rental_uris":{"android":"levelo://app?vid=6e621260-9d26-446b-af05-6b441e749c01","ios":"levelo://app?vid=6e621260-9d26-446b-af05-6b441e749c01"},"vehicle_type_id":"4","last_reported":1731773394,"current_range_meters":38400,"station_id":"ce4bhih2rcd13ifvqfr0","pricing_plan_id":"cebpf4jnsgd1na2vs0mg"},{"bike_id":"21ab8158-0182-445c-a269-5ffbcee7b1be","system_id":"levelo_inurba_marseille","lat":43.24181,"lon":5.39731,"is_reserved":false,"is_disabled":false,"rental_uris":{"android":"levelo://app?vid=21ab8158-0182-445c-a269-5ffbcee7b1be","ios":"levelo://app?vid=21ab8158-0182-445c-a269-5ffbcee7b1be"},"vehicle_type_id":"4","last_reported":1731773394,"current_range_meters":38800,"station_id":"ce4bhn12rcd13ifvqgpg","pricing_plan_id":"cebpf4jnsgd1na2vs0mg"},{"bike_id":"43a3ed8f-38f1-471d-ab51-64921b1b165e","system_id":"levelo_inurba_marseille","lat":43.295244,"lon":5.385299,"is_reserved":false,"is_disabled":false,"rental_uris":{"android":"levelo://app?vid=43a3ed8f-38f1-471d-ab51-64921b1b165e","ios":"levelo://app?vid=43a3ed8f-38f1-471d-ab51-64921b1b165e"},"vehicle_type_id":"4","last_reported":1731773394,"current_range_meters":8400,"station_id":"ce4bgih2rcd13ifvqba0","pricing_plan_id":"cebpf4jnsgd1na2vs0mg"},{"bike_id":"fb8185a2-06d7-4321-a392-e0f1d14ebdc6","system_id":"levelo_inurba_marseille","lat":43.28151,"lon":5.42636,"is_reserved":false,"is_disabled":false,"rental_uris":{"android":"levelo://app?vid=fb8185a2-06d7-4321-a392-e0f1d14ebdc6","ios":"levelo://app?vid=fb8185a2-06d7-4321-a392-e0f1d14ebdc6"},"vehicle_type_id":"4","last_reported":1731773394,"current_range_meters":38800,"station_id":"ce4bhnh2rcd13ifvqgug","pricing_plan_id":"cebpf4jnsgd1na2vs0mg"},{"bike_id":"9228381d-2a90-4fd7-b470-28eac72d615b","system_id":"levelo_inurba_marseille","lat":43.31233,"lon":5.36859,"is_reserved":false,"is_disabled":false,"rental_uris":{"android":"levelo://app?vid=9228381d-2a90-4fd7-b470-28eac72d615b","ios":"levelo://app?vid=9228381d-2a90-4fd7-b470-28eac72d615b"},"vehicle_type_id":"4","last_reported":1731773394,"current_range_meters":9200,"station_id":"ce4bgl92rcd13ifvqbq0","pricing_plan_id":"cebpf4jnsgd1na2vs0mg"},{"bike_id":"21d98bf0-03c3-4a4e-bc00-2daa40e0d68e","system_id":"levelo_inurba_marseille","lat":43.27809,"lon":5.40712,"is_reserved":false,"is_disabled":false,"rental_uris":{"android":"levelo://app?vid=21d98bf0-03c3-4a4e-bc00-2daa40e0d68e","ios":"levelo://app?vid=21d98bf0-03c3-4a4e-bc00-2daa40e0d68e"},"vehicle_type_id":"4","last_reported":1731773394,"current_range_meters":14000,"station_id":"ce4bhnh2rcd13ifvqgtg","pricing_plan_id":"cebpf4jnsgd1na2vs0mg"},{"bike_id":"34c5d7c2-7a0f-4042-9ac8-7b1dc69c8d34","system_id":"levelo_inurba_marseille","lat":43.29876,"lon":5.3972,"is_reserved":false,"is_disabled":false,"rental_uris":{"android":"levelo://app?vid=34c5d7c2-7a0f-4042-9ac8-7b1dc69c8d34","ios":"levelo://app?vid=34c5d7c2-7a0f-4042-9ac8-7b1dc69c8d34"},"vehicle_type_id":"4","last_reported":1731773394,"current_range_meters":22800,"station_id":"ce4bh0h2rcd13ifvqd50","pricing_plan_id":"cebpf4jnsgd1na2vs0mg"},{"bike_id":"939d6a68-25f1-4737-a1ea-254b19b37fd9","system_id":"levelo_inurba_marseille","lat":43.25583,"lon":5.38209,"is_reserved":false,"is_disabled":false,"rental_uris":{"android":"levelo://app?vid=939d6a68-25f1-4737-a1ea-254b19b37fd9","ios":"levelo://app?vid=939d6a68-25f1-4737-a1ea-254b19b37fd9"},"vehicle_type_id":"4","last_reported":1731773394,"current_range_meters":27200,"station_id":"ce4bhih2rcd13ifvqfs0","pricing_plan_id":"cebpf4jnsgd1na2vs0mg"},{"bike_id":"20b92481-0981-4990-a1cf-4ccfcf377c2f","system_id":"levelo_inurba_marseille","lat":43.28356,"lon":5.38103,"is_reserved":false,"is_disabled":false,"rental_uris":{"android":"levelo://app?vid=20b92481-0981-4990-a1cf-4ccfcf377c2f","ios":"levelo://app?vid=20b92481-0981-4990-a1cf-4ccfcf377c2f"},"vehicle_type_id":"4","last_reported":1731773394,"current_range_meters":22400,"station_id":"ce4bh412rcd13ifvqdr0","pricing_plan_id":"cebpf4jnsgd1na2vs0mg"},{"bike_id":"be1f2ef1-275c-409e-bf3d-4c8ad113e009","system_id":"levelo_inurba_marseille","lat":43.29559,"lon":5.42282,"is_reserved":false,"is_disabled":false,"rental_uris":{"android":"levelo://app?vid=be1f2ef1-275c-409e-bf3d-4c8ad113e009","ios":"levelo://app?vid=be1f2ef1-275c-409e-bf3d-4c8ad113e009"},"vehicle_type_id":"4","last_reported":1731773394,"current_range_meters":39200,"station_id":"ce4bhph2rcd13ifvqhdg","pricing_plan_id":"cebpf4jnsgd1na2vs0mg"},{"bike_id":"243b84ec-89cc-404c-a4f4-84557d95d478","system_id":"levelo_inurba_marseille","lat":43.25088,"lon":5.39522,"is_reserved":false,"is_disabled":false,"rental_uris":{"android":"levelo://app?vid=243b84ec-89cc-404c-a4f4-84557d95d478","ios":"levelo://app?vid=243b84ec-89cc-404c-a4f4-84557d95d478"},"vehicle_type_id":"4","last_reported":1731773394,"current_range_meters":39200,"station_id":"ce4bhm12rcd13ifvqgkg","pricing_plan_id":"cebpf4jnsgd1na2vs0mg"},{"bike_id":"75bc6927-fea1-40ab-90b4-6bbc9aae7c2c","system_id":"levelo_inurba_marseille","lat":43.31533,"lon":5.38029,"is_reserved":false,"is_disabled":false,"rental_uris":{"android":"levelo://app?vid=75bc6927-fea1-40ab-90b4-6bbc9aae7c2c","ios":"levelo://app?vid=75bc6927-fea1-40ab-90b4-6bbc9aae7c2c"},"vehicle_type_id":"4","last_reported":1731773394,"current_range_meters":29600,"station_id":"ce4bhsp2rcd13ifvqi50","pricing_plan_id":"cebpf4jnsgd1na2vs0mg"},