{"last_updated":1765959471,"ttl":60,"version":"2.2","data":{"bikes":[{"bike_id":"fd9665ae-4c09-4a0b-8f35-0e2ee18fdf4d","system_id":"levelo_inurba_marseille","lat":43.337538,"lon":5.374581,"is_reserved":false,"is_disabled":false,"rental_uris":{"android":"levelo://app?vid=fd9665ae-4c09-4a0b-8f35-0e2ee18fdf4d","ios":"levelo://app?vid=fd9665ae-4c09-4a0b-8f35-0e2ee18fdf4d"},"vehicle_type_id":"4","last_reported":1765959472,"current_range_meters":2800,"station_id":"","pricing_plan_id":"cebpf4jnsgd1na2vs0mg"},{"bike_id":"1059fade-febc-4443-a6ad-24267d513c52","system_id":"levelo_inurba_marseille","lat":43.29935,"lon":5.36537,"is_reserved":false,"is_disabled":false,"rental_uris":{"android":"levelo://app?vid=1059fade-febc-4443-a6ad-24267d513c52","ios":"levelo://app?vid=1059fade-febc-4443-a6ad-24267d513c52"},"vehicle_type_id":"4","last_reported":1765959472,"current_range_meters":2800,"station_id":"ce4bgm92rcd13ifvqbr0","pricing_plan_id":"cebpf4jnsgd1na2vs0mg"},{"bike_id":"c6aacb22-9ce7-452c-840a-f65f53ee3918","system_id":"levelo_inurba_marseille","lat":43.32108,"lon":5.36768,"is_reserved":false,"is_disabled":false,"rental_uris":{"android":"levelo://app?vid=c6aacb22-9ce7-452c-840a-f65f53ee3918","ios":"levelo://app?vid=c6aacb22-9ce7-452c-840a-f65f53ee3918"},"vehicle_type_id":"4","last_reported":1765959472,"current_range_meters":2800,"station_id":"ce4bhrh2rcd13ifvqhug","pricing_plan_id":"cebpf4jnsgd1na2vs0mg"},{"bike_id":"74318dd8-1691-4b91-b1e4-1899d7815c78","system_id":"levelo_inurba_marseille","lat":43.211913,"lon":5.350766,"is_reserved":false,"is_disabled":false,"rental_uris":{"android":"levelo://app?vid=74318dd8-1691-4b91-b1e4-1899d7815c78","ios":"levelo://app?vid=74318dd8-1691-4b91-b1e4-1899d7815c78"},"vehicle_type_id":"4","last_reported":1765959472,"current_range_meters":3200,"station_id":"st_cvj6sg6p6f1abm77japg","pricing_plan_id":"cebpf4jnsgd1na2vs0mg"},{"bike_id":"63c89666-f741-4942-8029-84c61f600e5d","system_id":"levelo_inurba_marseille","lat":43.30148,"lon":5.37422,"is_reserved":false,"is_disabled":false,"rental_uris":{"android":"levelo://app?vid=63c89666-f741-4942-8029-84c61f600e5d","ios":"levelo://app?vid=63c89666-f741-4942-8029-84c61f600e5d"},"vehicle_type_id":"4","last_reported":1765959472,"current_range_meters":3200,"station_id":"ce4bgs92rcd13ifvqcc0","pricing_plan_id":"cebpf4jnsgd1na2vs0mg"},{"bike_id":"22faa5b8-b4e4-4364-aaf4-9daec6d17af3","system_id":"levelo_inurba_marseille","lat":43.30278,"lon":5.37709,"is_reserved":false,"is_disabled":false,"rental_uris":{"android":"levelo://app?vid=22faa5b8-b4e4-4364-aaf4-9daec6d17af3","ios":"levelo://app?vid=22faa5b8-b4e4-4364-aaf4-9daec6d17af3"},"vehicle_type_id":"4","last_reported":1765959472,"current_range_meters":3200,"station_id":"ce4bguh2rcd13ifvqcj0","pricing_plan_id":"cebpf4jnsgd1na2vs0mg"},{"bike_id":"bee5f29c-17ec-4d6a-b731-2c856acb548f","system_id":"levelo_inurba_marseille","lat":43.337538,"lon":5.374581,"is_reserved":false,"is_disabled":false,"rental_uris":{"android":"levelo://app?vid=bee5f29c-17ec-4d6a-b731-2c856acb548f","ios":"levelo://app?vid=bee5f29c-17ec-4d6a-b731-2c856acb548f"},"vehicle_type_id":"4","last_reported":1765959472,"current_range_meters":3200,"station_id":"","pricing_plan_id":"cebpf4jnsgd1na2vs0mg"},{"bike_id":"94b83b1e-c265-4b07-a031-89c7e69fba47","system_id":"levelo_inurba_marseille","lat":43.30946,"lon":5.39029,"is_reserved":false,"is_disabled":false,"rental_uris":{"android":"levelo://app?vid=94b83b1e-c265-4b07-a031-89c7e69fba47","ios":"levelo://app?vid=94b83b1e-c265-4b07-a031-89c7e69fba47"},"vehicle_type_id":"4","last_reported":1765959472,"current_range_meters":3200,"station_id":"ce4bgup2rcd13ifvqco0","pricing_plan_id":"cebpf4jnsgd1na2vs0mg"},{"bike_id":"d71e49d1-302b-4ad0-bafe-4ed4ceaa7d96","system_id":"levelo_inurba_marseille","lat":43.3127,"lon":5.40171,"is_reserved":false,"is_disabled":false,"rental_uris":{"android":"levelo://app?vid=d71e49d1-302b-4ad0-bafe-4ed4ceaa7d96","ios":"levelo://app?vid=d71e49d1-302b-4ad0-bafe-4ed4ceaa7d96"},"vehicle_type_id":"4","last_reported":1765959472,"current_range_meters":3600,"station_id":"ce4bh092rcd13ifvqd30","pricing_plan_id":"cebpf4jnsgd1na2vs0mg"},{"bike_id":"74f7e254-6b78-4a5d-877c-e78df9c3b0d8","system_id":"levelo_inurba_marseille","lat":43.30143,"lon":5.38056,"is_reserved":false,"is_disabled":false,"rental_uris":{"android":"levelo://app?vid=74f7e254-6b78-4a5d-877c-e78df9c3b0d8","ios":"levelo://app?vid=74f7e254-6b78-4a5d-877c-e78df9c3b0d8"},"vehicle_type_id":"4","last_reported":1765959472,"current_range_meters":3600,"station_id":"ce4bgjp2rcd13ifvqbh0","pricing_plan_id":"cebpf4jnsgd1na2vs0mg"},{"bike_id":"23298b60-7930-466d-a323-09d38d496d9c","system_id":"levelo_inurba_marseille","lat":43.31363,"lon":5.36699,"is_reserved":false,"is_disabled":false,"rental_uris":{"android":"levelo://app?vid=23298b60-7930-466d-a323-09d38d496d9c","ios":"levelo://app?vid=23298b60-7930-466d-a323-09d38d496d9c"},"vehicle_type_id":"4","last_reported":1765959472,"current_range_meters":3600,"station_id":"ce4bgr92rcd13ifvqc6g","pricing_plan_id":"cebpf4jnsgd1na2vs0mg"},{"bike_id":"0d04367a-2738-41fb-8bc5-77b89893b507","system_id":"levelo_inurba_marseille","lat":43.2119,"lon":5.35071,"is_reserved":false,"is_disabled":false,"rental_uris":{"android":"levelo://app?vid=0d04367a-2738-41fb-8bc5-77b89893b507","ios":"levelo://app?vid=0d04367a-2738-41fb-8bc5-77b89893b507"},"vehicle_type_id":"4","last_reported":1765959472,"current_range_meters":3600,"station_id":"","pricing_plan_id":"cebpf4jnsgd1na2vs0mg"},{"bike_id":"d3eb1a28-60f7-4eab-a9be-915a03b25c99","system_id":"levelo_inurba_marseille","lat":43.337444,"lon":5.374475,"is_reserved":false,"is_disabled":false,"rental_uris":{"android":"levelo://app?vid=d3eb1a28-60f7-4eab-a9be-915a03b25c99","ios":"levelo://app?vid=d3eb1a28-60f7-4eab-a9be-915a03b25c99"},"vehicle_type_id":"4","last_reported":1765959472,"current_range_meters":3600,"station_id":"","pricing_plan_id":"cebpf4jnsgd1na2vs0mg"},{"bike_id":"9366b54d-3d5e-4e2f-a20d-49d0ce57f0ef","system_id":"levelo_inurba_marseille","lat":43.31077,"lon":5.42419,"is_reserved":false,"is_disabled":false,"rental_uris":{"android":"levelo://app?vid=9366b54d-3d5e-4e2f-a20d-49d0ce57f0ef","ios":"levelo://app?vid=9366b54d-3d5e-4e2f-a20d-49d0ce57f0ef"},"vehicle_type_id":"4","last_reported":1765959472,"current_range_meters":4000,"station_id":"ce4bhp92rcd13ifvqhag","pricing_plan_id":"cebpf4jnsgd1na2vs0mg"},{"bike_id":"f3b1554f-0261-4b59-a2cd-b09f95257b9d","system_id":"levelo_inurba_marseille","lat":43.3089,"lon":5.36846,"is_reserved":false,"is_disabled":false,"rental_uris":{"android":"levelo://app?vid=f3b1554f-0261-4b59-a2cd-b09f95257b9d","ios":"levelo://app?vid=f3b1554f-0261-4b59-a2cd-b09f95257b9d"},"vehicle_type_id":"4","last_reported":1765959472,"current_range_meters":4000,"station_id":"ce4bgn92rcd13ifvqbvg","pricing_plan_id":"cebpf4jnsgd1na2vs0mg"},{"bike_id":"f2edf430-318e-44d8-b38f-2a63a999fa3e","system_id":"levelo_inurba_marseille","lat":43.30904,"lon":5.36855,"is_reserved":false,"is_disabled":false,"rental_uris":{"android":"levelo://app?vid=f2edf430-318e-44d8-b38f-2a63a999fa3e","ios":"levelo://app?vid=f2edf430-318e-44d8-b38f-2a63a999fa3e"},"vehicle_type_id":"4","last_reported":1765959472,"current_range_meters":4000,"station_id":"ce4bgn92rcd13ifvqbvg","pricing_plan_id":"cebpf4jnsgd1na2vs0mg"},{"bike_id":"3595869a-7d99-4b0d-b9e2-1113d90d6818","system_id":"levelo_inurba_marseille","lat":43.26549,"lon":5.37284,"is_reserved":false,"is_disabled":false,"rental_uris":{"android":"levelo://app?vid=3595869a-7d99-4b0d-b9e2-1113d90d6818","ios":"levelo://app?vid=3595869a-7d99-4b0d-b9e2-1113d90d6818"},"vehicle_type_id":"4","last_reported":1765959472,"current_range_meters":4000,"station_id":"ce4bhg12rcd13ifvqf70","pricing_plan_id":"cebpf4jnsgd1na2vs0mg"},{"bike_id":"cac22966-e330-4431-8cf8-aad2b421f2a8","system_id":"levelo_inurba_marseille","lat":43.30275,"lon":5.37696,"is_reserved":false,"is_disabled":false,"rental_uris":{"android":"levelo://app?vid=cac22966-e330-4431-8cf8-aad2b421f2a8","ios":"levelo://app?vid=cac22966-e330-4431-8cf8-aad2b421f2a8"},"vehicle_type_id":"4","last_reported":1765959472,"current_range_meters":4000,"station_id":"ce4bguh2rcd13ifvqcj0","pricing_plan_id":"cebpf4jnsgd1na2vs0mg"},{"bike_id":"58fe3c41-c31c-418f-8b03-ed2ed0f7c8fd","system_id":"levelo_inurba_marseille","lat":43.30114,"lon":5.36497,"is_reserved":false,"is_disabled":false,"rental_uris":{"android":"levelo://app?vid=58fe3c41-c31c-418f-8b03-ed2ed0f7c8fd","ios":"levelo://app?vid=58fe3c41-c31c-418f-8b03-ed2ed0f7c8fd"},"vehicle_type_id":"4","last_reported":1765959472,"current_range_meters":4000,"station_id":"","pricing_plan_id":"cebpf4jnsgd1na2vs0mg"},{"bike_id":"b07813cf-1eac-4f2d-8817-f18110b90615","system_id":"levelo_inurba_marseille","lat":43.23773,"lon":5.36627,"is_reserved":false,"is_disabled":false,"rental_uris":{"android":"levelo://app?vid=b07813cf-1eac-4f2d-8817-f18110b90615","ios":"levelo://app?vid=b07813cf-1eac-4f2d-8817-f18110b90615"},"vehicle_type_id":"4","last_reported":1765959472,"current_range_meters":4000,"station_id":"st_d3nk18o9ro0c73en2l3g","pricing_plan_id":"cebpf4jnsgd1na2vs0mg"},{"bike_id":"48210db7-aa64-4c91-8309-8e94867d8e72","system_id":"levelo_inurba_marseille","lat":43.30138,"lon":5.37412,"is_reserved":false,"is_disabled":false,"rental_uris":{"android":"levelo://app?vid=48210db7-aa64-4c91-8309-8e94867d8e72","ios":"levelo://app?vid=48210db7-aa64-4c91-8309-8e94867d8e72"},"vehicle_type_id":"4","last_reported":1765959472,"current_range_meters":4000,"station_id":"ce4bgs92rcd13ifvqcc0","pricing_plan_id":"cebpf4jnsgd1na2vs0mg"},{"bike_id":"0c2c5140-af06-486a-a322-d624aecbcc21","system_id":"levelo_inurba_marseille","lat":43.24534,"lon":5.40007,"is_reserved":false,"is_disabled":false,"rental_uris":{"android":"levelo://app?vid=0c2c5140-af06-486a-a322-d624aecbcc21","ios":"levelo://app?vid=0c2c5140-af06-486a-a322-d624aecbcc21"},"vehicle_type_id":"4","last_reported":1765959472,"current_range_meters":4400,"station_id":"","pricing_plan_id":"cebpf4jnsgd1na2vs0mg"},{"bike_id":"3464140a-fa4d-4baa-a277-f0b733016dfb","system_id":"levelo_inurba_marseille","lat":43.316035,"lon":5.379218,"is_reserved":false,"is_disabled":false,"rental_uris":{"android":"levelo://app?vid=3464140a-fa4d-4baa-a277-f0b733016dfb","ios":"levelo://app?vid=3464140a-fa4d-4baa-a277-f0b733016dfb"},"vehicle_type_id":"4","last_reported":1765959472,"current_range_meters":4400,"station_id":"","pricing_plan_id":"cebpf4jnsgd1na2vs0mg"},{"bike_id":"704a91ae-02dd-44e5-b095-a595f7473b4a","system_id":"levelo_inurba_marseille","lat":43.305524,"lon":5.365556,"is_reserved":false,"is_disabled":false,"rental_uris":{"android":"levelo://app?vid=704a91ae-02dd-44e5-b095-a595f7473b4a","ios":"levelo://app?vid=704a91ae-02dd-44e5-b095-a595f7473b4a"},"vehicle_type_id":"4","last_reported":1765959472,"current_range_meters":4400,"station_id":"ce4bgs12rcd13ifvqcag","pricing_plan_id":"cebpf4jnsgd1na2vs0mg"},{"bike_id":"6807924e-12cc-4894-a0b3-1a752802dd00","system_id":"levelo_inurba_marseille","lat":43.28452,"lon":5.35903,"is_reserved":false,"is_disabled":false,"rental_uris":{"android":"levelo://app?vid=6807924e-12cc-4894-a0b3-1a752802dd00","ios":"levelo://app?vid=6807924e-12cc-4894-a0b3-1a752802dd00"},"vehicle_type_id":"4","last_reported":1765959472,"current_range_meters":4400,"station_id":"ce4bhah2rcd13ifvqei0","pricing_plan_id":"cebpf4jnsgd1na2vs0mg"},{"bike_id":"29103bce-ec77-474c-898e-4c922ee9f579","system_id":"levelo_inurba_marseille","lat":43.30133,"lon":5.37417,"is_reserved":false,"is_disabled":false,"rental_uris":{"android":"levelo://app?vid=29103bce-ec77-474c-898e-4c922ee9f579","ios":"levelo://app?vid=29103bce-ec77-474c-898e-4c922ee9f579"},"vehicle_type_id":"4","last_reported":1765959472,"current_range_meters":4400,"station_id":"ce4bgs92rcd13ifvqcc0","pricing_plan_id":"cebpf4jnsgd1na2vs0mg"},{"bike_id":"64c16106-99a4-4d51-a1ba-527e15cccc1b","system_id":"levelo_inurba_marseille","lat":43.287018,"lon":5.373782,"is_reserved":false,"is_disabled":false,"rental_uris":{"android":"levelo://app?vid=64c16106-99a4-4d51-a1ba-527e15cccc1b","ios":"levelo://app?vid=64c16106-99a4-4d51-a1ba-527e15cccc1b"},"vehicle_type_id":"4","last_reported":1765959472,"current_range_meters":4400,"station_id":"ce4bh3p2rcd13ifvqdq0","pricing_plan_id":"cebpf4jnsgd1na2vs0mg"},{"bike_id":"049fb26a-0810-4c2a-954e-6efb4d9c0e47","system_id":"levelo_inurba_marseille","lat":43.29567,"lon":5.39972,"is_reserved":false,"is_disabled":false,"rental_uris":{"android":"levelo://app?vid=049fb26a-0810-4c2a-954e-6efb4d9c0e47","ios":"levelo://app?vid=049fb26a-0810-4c2a-954e-6efb4d9c0e47"},"vehicle_type_id":"4","last_reported":1765959472,"current_range_meters":4400,"station_id":"ce4bh312rcd13ifvqdj0","pricing_plan_id":"cebpf4jnsgd1na2vs0mg"},{"bike_id":"ce318607-bf0d-4093-b167-6ba44e555a56","system_id":"levelo_inurba_marseille","lat":43.286032,"lon":5.379927,"is_reserved":false,"is_disabled":false,"rental_uris":{"android":"levelo://app?vid=ce318607-bf0d-4093-b167-6ba44e555a56","ios":"levelo://app?vid=ce318607-bf0d-4093-b167-6ba44e555a56"},"vehicle_type_id":"4","last_reported":1765959472,"current_range_meters":4800,"station_id":"ce4bh9p2rcd13ifvqec0","pricing_plan_id":"cebpf4jnsgd1na2vs0mg"},{"bike_id":"85299ce6-7d31-4779-8540-b094a53082ba","system_id":"levelo_inurba_marseille","lat":43.2481,"lon":5.37456,"is_reserved":false,"is_disabled":false,"rental_uris":{"android":"levelo://app?vid=85299ce6-7d31-4779-8540-b094a53082ba","ios":"levelo://app?vid=85299ce6-7d31-4779-8540-b094a53082ba"},"vehicle_type_id":"4","last_reported":1765959472,"current_range_meters":4800,"station_id":"ce4bhgh2rcd13ifvqfb0","pricing_plan_id":"cebpf4jnsgd1na2vs0mg"},{"bike_id":"35ef7f1a-2355-4fb5-bb9b-a6dda0e2ec8d","system_id":"levelo_inurba_marseille","lat":43.31387,"lon":5.36716,"is_reserved":false,"is_disabled":false,"rental_uris":{"android":"levelo://app?vid=35ef7f1a-2355-4fb5-bb9b-a6dda0e2ec8d","ios":"levelo://app?vid=35ef7f1a-2355-4fb5-bb9b-a6dda0e2ec8d"},"vehicle_type_id":"4","last_reported":1765959472,"current_range_meters":4800,"station_id":"ce4bgr92rcd13ifvqc6g","pricing_plan_id":"cebpf4jnsgd1na2vs0mg"},{"bike_id":"6c4d514d-f969-4ac8-9933-42f04018cb6a","system_id":"levelo_inurba_marseille","lat":43.337538,"lon":5.374581,"is_reserved":false,"is_disabled":false,"rental_uris":{"android":"levelo://app?vid=6c4d514d-f969-4ac8-9933-42f04018cb6a","ios":"levelo://app?vid=6c4d514d-f969-4ac8-9933-42f04018cb6a"},"vehicle_type_id":"4","last_reported":1765959472,"current_range_meters":4800,"station_id":"","pricing_plan_id":"cebpf4jnsgd1na2vs0mg"},{"bike_id":"4b99d57b-8002-4480-96d2-206f6dbbd291","system_id":"levelo_inurba_marseille","lat":43.28484,"lon":5.38407,"is_reserved":false,"is_disabled":false,"rental_uris":{"android":"levelo://app?vid=4b99d57b-8002-4480-96d2-206f6dbbd291","ios":"levelo://app?vid=4b99d57b-8002-4480-96d2-206f6dbbd291"},"vehicle_type_id":"4","last_reported":1765959472,"current_range_meters":4800,"station_id":"ce4bh512rcd13ifvqe3g","pricing_plan_id":"cebpf4jnsgd1na2vs0mg"},{"bike_id":"f8ecb5c2-2946-439a-80be-58b3d8fd2235","system_id":"levelo_inurba_marseille","lat":43.33021,"lon":5.39044,"is_reserved":false,"is_disabled":false,"rental_uris":{"android":"levelo://app?vid=f8ecb5c2-2946-439a-80be-58b3d8fd2235","ios":"levelo://app?vid=f8ecb5c2-2946-439a-80be-58b3d8fd2235"},"vehicle_type_id":"4","last_reported":1765959472,"current_range_meters":4800,"station_id":"ce4bhr92rcd13ifvqhrg","pricing_plan_id":"cebpf4jnsgd1na2vs0mg"},{"bike_id":"3c17efaa-fc6c-433e-bf2f-b57e6010284c","system_id":"levelo_inurba_marseille","lat":43.25941,"lon":5.40901,"is_reserved":false,"is_disabled":false,"rental_uris":{"android":"levelo://app?vid=3c17efaa-fc6c-433e-bf2f-b57e6010284c","ios":"levelo://app?vid=3c17efaa-fc6c-433e-bf2f-b57e6010284c"},"vehicle_type_id":"4","last_reported":1765959472,"current_range_meters":4800,"station_id":"ce4bhm92rcd13ifvqglg","pricing_plan_id":"cebpf4jnsgd1na2vs0mg"},{"bike_id":"2e139fa7-2f1a-48d6-bc86-e50f334bc792","system_id":"levelo_inurba_marseille","lat":43.31166,"lon":5.38715,"is_reserved":false,"is_disabled":false,"rental_uris":{"android":"levelo://app?vid=2e139fa7-2f1a-48d6-bc86-e50f334bc792","ios":"levelo://app?vid=2e139fa7-2f1a-48d6-bc86-e50f334bc792"},"vehicle_type_id":"4","last_reported":1765959472,"current_range_meters":4800,"station_id":"ce4bgv12rcd13ifvqcp0","pricing_plan_id":"cebpf4jnsgd1na2vs0mg"},{"bike_id":"21f30a98-1b28-49c8-9bf6-efaaae87bb5c","system_id":"levelo_inurba_marseille","lat":43.295765,"lon":5.375106,"is_reserved":false,"is_disabled":false,"rental_uris":{"android":"levelo://app?vid=21f30a98-1b28-49c8-9bf6-efaaae87bb5c","ios":"levelo://app?vid=21f30a98-1b28-49c8-9bf6-efaaae87bb5c"},"vehicle_type_id":"4","last_reported":1765959472,"current_range_meters":4800,"station_id":"ce4bh692rcd13ifvqe90","pricing_plan_id":"cebpf4jnsgd1na2vs0mg"},{"bike_id":"6b6275aa-197d-4bea-bf05-20890c08f386","system_id":"levelo_inurba_marseille","lat":43.32104,"lon":5.36766,"is_reserved":false,"is_disabled":false,"rental_uris":{"android":"levelo://app?vid=6b6275aa-197d-4bea-bf05-20890c08f386","ios":"levelo://app?vid=6b6275aa-197d-4bea-bf05-20890c08f386"},"vehicle_type_id":"4","last_reported":1765959472,"current_range_meters":4800,"station_id":"ce4bhrh2rcd13ifvqhug","pricing_plan_id":"cebpf4jnsgd1na2vs0mg"},{"bike_id":"ebc12bab-a43c-4fd1-b838-0d1456a77a20","system_id":"levelo_inurba_marseille","lat":43.2721,"lon":5.39179,"is_reserved":false,"is_disabled":false,"rental_uris":{"android":"levelo://app?vid=ebc12bab-a43c-4fd1-b838-0d1456a77a20","ios":"levelo://app?vid=ebc12bab-a43c-4fd1-b838-0d1456a77a20"},"vehicle_type_id":"4","last_reported":1765959472,"current_range_meters":4800,"station_id":"ce4bhhp2rcd13ifvqfm0","pricing_plan_id":"cebpf4jnsgd1na2vs0mg"},{"bike_id":"abfd134e-a251-44a5-b32f-6db7c3f3cdfa","system_id":"levelo_inurba_marseille","lat":43.308005,"lon":5.381487,"is_reserved":false,"is_disabled":false,"rental_uris":{"android":"levelo://app?vid=abfd134e-a251-44a5-b32f-6db7c3f3cdfa","ios":"levelo://app?vid=abfd134e-a251-44a5-b32f-6db7c3f3cdfa"},"vehicle_type_id":"4","last_reported":1765959472,"current_range_meters":5600,"station_id":"ce4bgt12rcd13ifvqce0","pricing_plan_id":"cebpf4jnsgd1na2vs0mg"},{"bike_id":"d6808b6f-5df2-4878-a1e8-910e03305a8b","system_id":"levelo_inurba_marseille","lat":43.29089,"lon":5.38121,"is_reserved":false,"is_disabled":false,"rental_uris":{"android":"levelo://app?vid=d6808b6f-5df2-4878-a1e8-910e03305a8b","ios":"levelo://app?vid=d6808b6f-5df2-4878-a1e8-910e03305a8b"},"vehicle_type_id":"4","last_reported":1765959472,"current_range_meters":5600,"station_id":"","pricing_plan_id":"cebpf4jnsgd1na2vs0mg"},{"bike_id":"5d150475-3238-4cd2-9535-55042535b07d","system_id":"levelo_inurba_marseille","lat":43.28155,"lon":5.42639,"is_reserved":false,"is_disabled":false,"rental_uris":{"android":"levelo://app?vid=5d150475-3238-4cd2-9535-55042535b07d","ios":"levelo://app?vid=5d150475-3238-4cd2-9535-55042535b07d"},"vehicle_type_id":"4","last_reported":1765959472,"current_range_meters":5600,"station_id":"ce4bhnh2rcd13ifvqgug","pricing_plan_id":"cebpf4jnsgd1na2vs0mg"},{"bike_id":"69a3439b-5a0a-4db8-9c43-89e3464bc8fd","system_id":"levelo_inurba_marseille","lat":43.293233,"lon":5.376814,"is_reserved":false,"is_disabled":false,"rental_uris":{"android":"levelo://app?vid=69a3439b-5a0a-4db8-9c43-89e3464bc8fd","ios":"levelo://app?vid=69a3439b-5a0a-4db8-9c43-89e3464bc8fd"},"vehicle_type_id":"4","last_reported":1765959472,"current_range_meters":5600,"station_id":"ce4bh512rcd13ifvqe3g","pricing_plan_id":"cebpf4jnsgd1na2vs0mg"},{"bike_id":"2427b3e7-0b26-4bba-a18b-459bc11f8eff","system_id":"levelo_inurba_marseille","lat":43.27205,"lon":5.39185,"is_reserved":false,"is_disabled":false,"rental_uris":{"android":"levelo://app?vid=2427b3e7-0b26-4bba-a18b-459bc11f8eff","ios":"levelo://app?vid=2427b3e7-0b26-4bba-a18b-459bc11f8eff"},"vehicle_type_id":"4","last_reported":1765959472,"current_range_meters":6000,"station_id":"ce4bhhp2rcd13ifvqfm0","pricing_plan_id":"cebpf4jnsgd1na2vs0mg"},{"bike_id":"2f9df9a3-914e-45ed-b116-fe968e727c69","system_id":"levelo_inurba_marseille","lat":43.2917,"lon":5.37151,"is_reserved":false,"is_disabled":false,"rental_uris":{"android":"levelo://app?vid=2f9df9a3-914e-45ed-b116-fe968e727c69","ios":"levelo://app?vid=2f9df9a3-914e-45ed-b116-fe968e727c69"},"vehicle_type_id":"4","last_reported":1765959472,"current_range_meters":6000,"station_id":"ce4bha92rcd13ifvqeh0","pricing_plan_id":"cebpf4jnsgd1na2vs0mg"},{"bike_id":"404fe945-0720-4c24-bab5-cbf684a02c70","system_id":"levelo_inurba_marseille","lat":43.29936,"lon":5.36551,"is_reserved":false,"is_disabled":false,"rental_uris":{"android":"levelo://app?vid=404fe945-0720-4c24-bab5-cbf684a02c70","ios":"levelo://app?vid=404fe945-0720-4c24-bab5-cbf684a02c70"},"vehicle_type_id":"4","last_reported":1765959472,"current_range_meters":6000,"station_id":"ce4bgm92rcd13ifvqbr0","pricing_plan_id":"cebpf4jnsgd1na2vs0mg"},{"bike_id":"3ca60de7-a1f7-4000-9cbe-4bf96a1cfcde","system_id":"levelo_inurba_marseille","lat":43.26211,"lon":5.37439,"is_reserved":false,"is_disabled":false,"rental_uris":{"android":"levelo://app?vid=3ca60de7-a1f7-4000-9cbe-4bf96a1cfcde","ios":"levelo://app?vid=3ca60de7-a1f7-4000-9cbe-4bf96a1cfcde"},"vehicle_type_id":"4","last_reported":1765959472,"current_range_meters":6000,"station_id":"ce4bhgp2rcd13ifvqfc0","pricing_plan_id":"cebpf4jnsgd1na2vs0mg"},{"bike_id":"91f86acd-5cb0-4a50-b5e7-cba7f74a6726","system_id":"levelo_inurba_marseille","lat":43.24074,"lon":5.37757,"is_reserved":false,"is_disabled":false,"rental_uris":{"android":"levelo://app?vid=91f86acd-5cb0-4a50-b5e7-cba7f74a6726","ios":"levelo://app?vid=91f86acd-5cb0-4a50-b5e7-cba7f74a6726"},"vehicle_type_id":"4","last_reported":1765959472,"current_range_meters":6000,"station_id":"ce4bhnp2rcd13ifvqgvg","pricing_plan_id":"cebpf4jnsgd1na2vs0mg"},{"bike_id":"5c0fc8b2-84e8-4bce-8e57-bd09c8636e66","system_id":"levelo_inurba_marseille","lat":43.2415,"lon":5.39737,"is_reserved":false,"is_disabled":false,"rental_uris":{"android":"levelo://app?vid=5c0fc8b2-84e8-4bce-8e57-bd09c8636e66","ios":"levelo://app?vid=5c0fc8b2-84e8-4bce-8e57-bd09c8636e66"},"vehicle_type_id":"4","last_reported":1765959472,"current_range_meters":6000,"station_id":"ce4bhn12rcd13ifvqgpg","pricing_plan_id":"cebpf4jnsgd1na2vs0mg"},{"bike_id":"4f5869eb-279a-4b38-a8da-c32437cbf077","system_id":"levelo_inurba_marseille","lat":43.290283,"lon":5.381172,"is_reserved":false,"is_disabled":false,"rental_uris":{"android":"levelo://app?vid=4f5869eb-279a-4b38-a8da-c32437cbf077","ios":"levelo://app?vid=4f5869eb-279a-4b38-a8da-c32437cbf077"},"vehicle_type_id":"4","last_reported":1765959472,"current_range_meters":6000,"station_id":"ce4bh4p2rcd13ifvqe1g","pricing_plan_id":"cebpf4jnsgd1na2vs0mg"},{"bike_id":"f317c76e-2749-441b-a320-afc7ac3672e0","system_id":"levelo_inurba_marseille","lat":43.32467,"lon":5.36567,"is_reserved":false,"is_disabled":false,"rental_uris":{"android":"levelo://app?vid=f317c76e-2749-441b-a320-afc7ac3672e0","ios":"levelo://app?vid=f317c76e-2749-441b-a320-afc7ac3672e0"},"vehicle_type_id":"4","last_reported":1765959472,"current_range_meters":6000,"station_id":"ce4bhs12rcd13ifvqhvg","pricing_plan_id":"cebpf4jnsgd1na2vs0mg"},{"bike_id":"82d80227-c187-4abe-93b9-8bb5493943ff","system_id":"levelo_inurba_marseille","lat":43.29079,"lon":5.37178,"is_reserved":false,"is_disabled":false,"rental_uris":{"android":"levelo://app?vid=82d80227-c187-4abe-93b9-8bb5493943ff","ios":"levelo://app?vid=82d80227-c187-4abe-93b9-8bb5493943ff"},"vehicle_type_id":"4","last_reported":1765959472,"current_range_meters":6400,"station_id":"ce4bh5p2rcd13ifvqe4g","pricing_plan_id":"cebpf4jnsgd1na2vs0mg"},{"bike_id":"9bc554b7-05ed-4f5d-95c0-dda0488af3b2","system_id":"levelo_inurba_marseille","lat":43.27206,"lon":5.39186,"is_reserved":false,"is_disabled":false,"rental_uris":{"android":"levelo://app?vid=9bc554b7-05ed-4f5d-95c0-dda0488af3b2","ios":"levelo://app?vid=9bc554b7-05ed-4f5d-95c0-dda0488af3b2"},"vehicle_type_id":"4","last_reported":1765959472,"current_range_meters":6400,"station_id":"ce4bhhp2rcd13ifvqfm0","pricing_plan_id":"cebpf4jnsgd1na2vs0mg"},{"bike_id":"1d3879da-21e4-498b-bccd-3d94b45e8429","system_id":"levelo_inurba_marseille","lat":43.245503,"lon":5.395272,"is_reserved":false,"is_disabled":true,"rental_uris":{"android":"levelo://app?vid=1d3879da-21e4-498b-bccd-3d94b45e8429","ios":"levelo://app?vid=1d3879da-21e4-498b-bccd-3d94b45e8429"},"vehicle_type_id":"4","last_reported":1765959472,"current_range_meters":6400,"station_id":"ce4bhlp2rcd13ifvqgjg","pricing_plan_id":"cebpf4jnsgd1na2vs0mg"},{"bike_id":"0b8e6af9-4ff1-41b3-a36d-258004e93bb7","system_id":"levelo_inurba_marseille","lat":43.25932,"lon":5.40909,"is_reserved":false,"is_disabled":false,"rental_uris":{"android":"levelo://app?vid=0b8e6af9-4ff1-41b3-a36d-258004e93bb7","ios":"levelo://app?vid=0b8e6af9-4ff1-41b3-a36d-258004e93bb7"},"vehicle_type_id":"4","last_reported":1765959472,"current_range_meters":6800,"station_id":"ce4bhm92rcd13ifvqglg","pricing_plan_id":"cebpf4jnsgd1na2vs0mg"},{"bike_id":"8b9ce434-0725-4628-ac4c-0c32e1f2f337","system_id":"levelo_inurba_marseille","lat":43.28928,"lon":5.36641,"is_reserved":false,"is_disabled":false,"rental_uris":{"android":"levelo://app?vid=8b9ce434-0725-4628-ac4c-0c32e1f2f337","ios":"levelo://app?vid=8b9ce434-0725-4628-ac4c-0c32e1f2f337"},"vehicle_type_id":"4","last_reported":1765959472,"current_range_meters":6800,"station_id":"ce4bhap2rcd13ifvqek0","pricing_plan_id":"cebpf4jnsgd1na2vs0mg"},{"bike_id":"343fe7d0-3d78-4db3-9459-a24be8980043","system_id":"levelo_inurba_marseille","lat":43.294198,"lon":5.383728,"is_reserved":false,"is_disabled":false,"rental_uris":{"android":"levelo://app?vid=343fe7d0-3d78-4db3-9459-a24be8980043","ios":"levelo://app?vid=343fe7d0-3d78-4db3-9459-a24be8980043"},"vehicle_type_id":"4","last_reported":1765959472,"current_range_meters":6800,"station_id":"","pricing_plan_id":"cebpf4jnsgd1na2vs0mg"},{"bike_id":"144a6e30-c774-4594-a93b-a21fccdc4d0e","system_id":"levelo_inurba_marseille","lat":43.301449,"lon":5.380906,"is_reserved":false,"is_disabled":false,"rental_uris":{"android":"levelo://app?vid=144a6e30-c774-4594-a93b-a21fccdc4d0e","ios":"levelo://app?vid=144a6e30-c774-4594-a93b-a21fccdc4d0e"},"vehicle_type_id":"4","last_reported":1765959472,"current_range_meters":6800,"station_id":"ce4bgjp2rcd13ifvqbh0","pricing_plan_id":"cebpf4jnsgd1na2vs0mg"},{"bike_id":"f78d83b2-e46c-424a-b560-1f11ed327790","system_id":"levelo_inurba_marseille","lat":43.27365,"lon":5.36244,"is_reserved":false,"is_disabled":false,"rental_uris":{"android":"levelo://app?vid=f78d83b2-e46c-424a-b560-1f11ed327790","ios":"levelo://app?vid=f78d83b2-e46c-424a-b560-1f11ed327790"},"vehicle_type_id":"4","last_reported":1765959472,"current_range_meters":7200,"station_id":"ce4bhbh2rcd13ifvqeo0","pricing_plan_id":"cebpf4jnsgd1na2vs0mg"},{"bike_id":"0b822507-6ace-48b7-9c21-795900f040b2","system_id":"levelo_inurba_marseille","lat":43.29014,"lon":5.38131,"is_reserved":false,"is_disabled":false,"rental_uris":{"android":"levelo://app?vid=0b822507-6ace-48b7-9c21-795900f040b2","ios":"levelo://app?vid=0b822507-6ace-48b7-9c21-795900f040b2"},"vehicle_type_id":"4","last_reported":1765959472,"current_range_meters":7200,"station_id":"ce4bh4p2rcd13ifvqe1g","pricing_plan_id":"cebpf4jnsgd1na2vs0mg"},{"bike_id":"8079e450-26c6-4df2-8eb6-e00b7285eb1b","system_id":"levelo_inurba_marseille","lat":43.248103,"lon":5.374608,"is_reserved":false,"is_disabled":false,"rental_uris":{"android":"levelo://app?vid=8079e450-26c6-4df2-8eb6-e00b7285eb1b","ios":"levelo://app?vid=8079e450-26c6-4df2-8eb6-e00b7285eb1b"},"vehicle_type_id":"4","last_reported":1765959472,"current_range_meters":7200,"station_id":"ce4bhgh2rcd13ifvqfb0","pricing_plan_id":"cebpf4jnsgd1na2vs0mg"},{"bike_id":"6dabfbb0-317d-4cf4-8df1-95247ed7bdd9","system_id":"levelo_inurba_marseille","lat":43.28035,"lon":5.36952,"is_reserved":false,"is_disabled":false,"rental_uris":{"android":"levelo://app?vid=6dabfbb0-317d-4cf4-8df1-95247ed7bdd9","ios":"levelo://app?vid=6dabfbb0-317d-4cf4-8df1-95247ed7bdd9"},"vehicle_type_id":"4","last_reported":1765959472,"current_range_meters":7200,"station_id":"ce4bha12rcd13ifvqef0","pricing_plan_id":"cebpf4jnsgd1na2vs0mg"},{"bike_id":"67be8c3b-4400-403c-b56e-31f2a51931e7","system_id":"levelo_inurba_marseille","lat":43.23192,"lon":5.35535,"is_reserved":false,"is_disabled":true,"rental_uris":{"android":"levelo://app?vid=67be8c3b-4400-403c-b56e-31f2a51931e7","ios":"levelo://app?vid=67be8c3b-4400-403c-b56e-31f2a51931e7"},"vehicle_type_id":"4","last_reported":1765959472,"current_range_meters":8000,"station_id":"ce4bhu92rcd13ifvqi70","pricing_plan_id":"cebpf4jnsgd1na2vs0mg"},{"bike_id":"2f523e04-c15a-4716-9da9-06bb965c9db4","system_id":"levelo_inurba_marseille","lat":43.30951,"lon":5.39037,"is_reserved":false,"is_disabled":false,"rental_uris":{"android":"levelo://app?vid=2f523e04-c15a-4716-9da9-06bb965c9db4","ios":"levelo://app?vid=2f523e04-c15a-4716-9da9-06bb965c9db4"},"vehicle_type_id":"4","last_reported":1765959472,"current_range_meters":8000,"station_id":"ce4bgup2rcd13ifvqco0","pricing_plan_id":"cebpf4jnsgd1na2vs0mg"},{"bike_id":"af850f80-bba0-4b92-baaf-774807ed9213","system_id":"levelo_inurba_marseille","lat":43.25817,"lon":5.39424,"is_reserved":false,"is_disabled":false,"rental_uris":{"android":"levelo://app?vid=af850f80-bba0-4b92-baaf-774807ed9213","ios":"levelo://app?vid=af850f80-bba0-4b92-baaf-774807ed9213"},"vehicle_type_id":"4","last_reported":1765959472,"current_range_meters":8000,"station_id":"ce4bhip2rcd13ifvqft0","pricing_plan_id":"cebpf4jnsgd1na2vs0mg"},{"bike_id":"62319f52-bb5a-47c6-bf63-d8b31ecb59b3","system_id":"levelo_inurba_marseille","lat":43.26455,"lon":5.37364,"is_reserved":false,"is_disabled":false,"rental_uris":{"android":"levelo://app?vid=62319f52-bb5a-47c6-bf63-d8b31ecb59b3","ios":"levelo://app?vid=62319f52-bb5a-47c6-bf63-d8b31ecb59b3"},"vehicle_type_id":"4","last_reported":1765959472,"current_range_meters":8000,"station_id":"","pricing_plan_id":"cebpf4jnsgd1na2vs0mg"},{"bike_id":"53f0825c-6f0b-49a7-b3f3-1d274ca7ccd5","system_id":"levelo_inurba_marseille","lat":43.29199,"lon":5.35815,"is_reserved":false,"is_disabled":false,"rental_uris":{"android":"levelo://app?vid=53f0825c-6f0b-49a7-b3f3-1d274ca7ccd5","ios":"levelo://app?vid=53f0825c-6f0b-49a7-b3f3-1d274ca7ccd5"},"vehicle_type_id":"4","last_reported":1765959472,"current_range_meters":8000,"station_id":"ce4bhb12rcd13ifvqel0","pricing_plan_id":"cebpf4jnsgd1na2vs0mg"},{"bike_id":"b296fdce-bc4e-4615-b7a9-989d9472d975","system_id":"levelo_inurba_marseille","lat":43.25575,"lon":5.38234,"is_reserved":false,"is_disabled":false,"rental_uris":{"android":"levelo://app?vid=b296fdce-bc4e-4615-b7a9-989d9472d975","ios":"levelo://app?vid=b296fdce-bc4e-4615-b7a9-989d9472d975"},"vehicle_type_id":"4","last_reported":1765959472,"current_range_meters":8000,"station_id":"ce4bhih2rcd13ifvqfs0","pricing_plan_id":"cebpf4jnsgd1na2vs0mg"},{"bike_id":"f9ba0bc8-1678-4550-8ab9-06ec3e215e8d","system_id":"levelo_inurba_marseille","lat":43.337444,"lon":5.374475,"is_reserved":false,"is_disabled":false,"rental_uris":{"android":"levelo://app?vid=f9ba0bc8-1678-4550-8ab9-06ec3e215e8d","ios":"levelo://app?vid=f9ba0bc8-1678-4550-8ab9-06ec3e215e8d"},"vehicle_type_id":"4","last_reported":1765959472,"current_range_meters":8000,"station_id":"","pricing_plan_id":"cebpf4jnsgd1na2vs0mg"},{"bike_id":"283c734a-9c39-4452-9b72-a1d1c4eb8c50","system_id":"levelo_inurba_marseille","lat":43.302099,"lon":5.394564,"is_reserved":false,"is_disabled":true,"rental_uris":{"android":"levelo://app?vid=283c734a-9c39-4452-9b72-a1d1c4eb8c50","ios":"levelo://app?vid=283c734a-9c39-4452-9b72-a1d1c4eb8c50"},"vehicle_type_id":"4","last_reported":1765959472,"current_range_meters":8000,"station_id":"","pricing_plan_id":"cebpf4jnsgd1na2vs0mg"},{"bike_id":"168944bc-143d-4235-a87c-58523f4f4dd7","system_id":"levelo_inurba_marseille","lat":43.29638,"lon":5.38081,"is_reserved":false,"is_disabled":true,"rental_uris":{"android":"levelo://app?vid=168944bc-143d-4235-a87c-58523f4f4dd7","ios":"levelo://app?vid=168944bc-143d-4235-a87c-58523f4f4dd7"},"vehicle_type_id":"4","last_reported":1765959472,"current_range_meters":8000,"station_id":"","pricing_plan_id":"cebpf4jnsgd1na2vs0mg"},{"bike_id":"77e0d0eb-6af8-474d-83a5-2b5e4ff0d935","system_id":"levelo_inurba_marseille","lat":43.246443,"lon":5.431383,"is_reserved":false,"is_disabled":true,"rental_uris":{"android":"levelo://app?vid=77e0d0eb-6af8-474d-83a5-2b5e4ff0d935","ios":"levelo://app?vid=77e0d0eb-6af8-474d-83a5-2b5e4ff0d935"},"vehicle_type_id":"4","last_reported":1765959472,"current_range_meters":8000,"station_id":"st_d2m6c4gdas8pm72e190g","pricing_plan_id":"cebpf4jnsgd1na2vs0mg"},{"bike_id":"3844521e-7c9a-4cb4-9cf1-ec8c42abed06","system_id":"levelo_inurba_marseille","lat":43.25933,"lon":5.40914,"is_reserved":false,"is_disabled":false,"rental_uris":{"android":"levelo://app?vid=3844521e-7c9a-4cb4-9cf1-ec8c42abed06","ios":"levelo://app?vid=3844521e-7c9a-4cb4-9cf1-ec8c42abed06"},"vehicle_type_id":"4","last_reported":1765959472,"current_range_meters":8000,"station_id":"ce4bhm92rcd13ifvqglg","pricing_plan_id":"cebpf4jnsgd1na2vs0mg"},{"bike_id":"fdb90802-2ecc-44f2-8524-65484a891ee9","system_id":"levelo_inurba_marseille","lat":43.260881,"lon":5.393783,"is_reserved":false,"is_disabled":false,"rental_uris":{"android":"levelo://app?vid=fdb90802-2ecc-44f2-8524-65484a891ee9","ios":"levelo://app?vid=fdb90802-2ecc-44f2-8524-65484a891ee9"},"vehicle_type_id":"4","last_reported":1765959472,"current_range_meters":8000,"station_id":"ce4bhh92rcd13ifvqfj0","pricing_plan_id":"cebpf4jnsgd1na2vs0mg"},{"bike_id":"b5de3dc8-191d-41f1-a993-dd1eca7db6fc","system_id":"levelo_inurba_marseille","lat":43.31027,"lon":5.3935,"is_reserved":false,"is_disabled":false,"rental_uris":{"android":"levelo://app?vid=b5de3dc8-191d-41f1-a993-dd1eca7db6fc","ios":"levelo://app?vid=b5de3dc8-191d-41f1-a993-dd1eca7db6fc"},"vehicle_type_id":"4","last_reported":1765959472,"current_range_meters":8000,"station_id":"","pricing_plan_id":"cebpf4jnsgd1na2vs0mg"},{"bike_id":"b85e7c1d-8d2c-4b07-83c8-c5272ce33ca0","system_id":"levelo_inurba_marseille","lat":43.27814,"lon":5.4071,"is_reserved":false,"is_disabled":true,"rental_uris":{"android":"levelo://app?vid=b85e7c1d-8d2c-4b07-83c8-c5272ce33ca0","ios":"levelo://app?vid=b85e7c1d-8d2c-4b07-83c8-c5272ce33ca0"},"vehicle_type_id":"4","last_reported":1765959472,"current_range_meters":8000,"station_id":"ce4bhnh2rcd13ifvqgtg","pricing_plan_id":"cebpf4jnsgd1na2vs0mg"},{"bike_id":"43642bae-3ea3-40d5-b685-75639072eb17","system_id":"levelo_inurba_marseille","lat":43.307325,"lon":5.424331,"is_reserved":false,"is_disabled":false,"rental_uris":{"android":"levelo://app?vid=43642bae-3ea3-40d5-b685-75639072eb17","ios":"levelo://app?vid=43642bae-3ea3-40d5-b685-75639072eb17"},"vehicle_type_id":"4","last_reported":1765959472,"current_range_meters":8000,"station_id":"st_cvj6ca6bvosntc0bfgr0","pricing_plan_id":"cebpf4jnsgd1na2vs0mg"},{"bike_id":"661bcc35-b2a5-486f-a0f0-77f5b81a0d0d","system_id":"levelo_inurba_marseille","lat":43.30372,"lon":5.42497,"is_reserved":false,"is_disabled":false,"rental_uris":{"android":"levelo://app?vid=661bcc35-b2a5-486f-a0f0-77f5b81a0d0d","ios":"levelo://app?vid=661bcc35-b2a5-486f-a0f0-77f5b81a0d0d"},"vehicle_type_id":"4","last_reported":1765959472,"current_range_meters":8000,"station_id":"ce4bhoh2rcd13ifvqh6g","pricing_plan_id":"cebpf4jnsgd1na2vs0mg"},{"bike_id":"bfae7ad9-0be6-400c-9401-6605e8971a7e","system_id":"levelo_inurba_marseille","lat":43.286877,"lon":5.37955,"is_reserved":false,"is_disabled":false,"rental_uris":{"android":"levelo://app?vid=bfae7ad9-0be6-400c-9401-6605e8971a7e","ios":"levelo://app?vid=bfae7ad9-0be6-400c-9401-6605e8971a7e"},"vehicle_type_id":"4","last_reported":1765959472,"current_range_meters":8000,"station_id":"ce4bh9p2rcd13ifvqec0","pricing_plan_id":"cebpf4jnsgd1na2vs0mg"},{"bike_id":"0f954251-5e55-4f5f-9747-36a09fff8a56","system_id":"levelo_inurba_marseille","lat":43.27314,"lon":5.39071,"is_reserved":false,"is_disabled":false,"rental_uris":{"android":"levelo://app?vid=0f954251-5e55-4f5f-9747-36a09fff8a56","ios":"levelo://app?vid=0f954251-5e55-4f5f-9747-36a09fff8a56"},"vehicle_type_id":"4","last_reported":1765959472,"current_range_meters":8000,"station_id":"ce4bhgp2rcd13ifvqfe0","pricing_plan_id":"cebpf4jnsgd1na2vs0mg"},{"bike_id":"0c9678c4-02f1-47aa-8be5-1ec84a08a81b","system_id":"levelo_inurba_marseille","lat":43.26771,"lon":5.39424,"is_reserved":false,"is_disabled":false,"rental_uris":{"android":"levelo://app?vid=0c9678c4-02f1-47aa-8be5-1ec84a08a81b","ios":"levelo://app?vid=0c9678c4-02f1-47aa-8be5-1ec84a08a81b"},"vehicle_type_id":"4","last_reported":1765959472,"current_range_meters":8000,"station_id":"ce4bhh12rcd13ifvqfg0","pricing_plan_id":"cebpf4jnsgd1na2vs0mg"},{"bike_id":"90f357fd-4c0f-4c8b-96c8-9cf3e3651b28","system_id":"levelo_inurba_marseille","lat":43.28278,"lon":5.35067,"is_reserved":false,"is_disabled":false,"rental_uris":{"android":"levelo://app?vid=90f357fd-4c0f-4c8b-96c8-9cf3e3651b28","ios":"levelo://app?vid=90f357fd-4c0f-4c8b-96c8-9cf3e3651b28"},"vehicle_type_id":"4","last_reported":1765959472,"current_range_meters":8400,"station_id":"ce4bhbp2rcd13ifvqerg","pricing_plan_id":"cebpf4jnsgd1na2vs0mg"},{"bike_id":"860586bd-84d4-43ba-af58-7f526b0205ca","system_id":"levelo_inurba_marseille","lat":43.31429,"lon":5.37412,"is_reserved":false,"is_disabled":false,"rental_uris":{"android":"levelo://app?vid=860586bd-84d4-43ba-af58-7f526b0205ca","ios":"levelo://app?vid=860586bd-84d4-43ba-af58-7f526b0205ca"},"vehicle_type_id":"4","last_reported":1765959472,"current_range_meters":8400,"station_id":"","pricing_plan_id":"cebpf4jnsgd1na2vs0mg"},{"bike_id":"929cf538-0f17-44b1-998a-c48280fa525c","system_id":"levelo_inurba_marseille","lat":43.27491,"lon":5.42438,"is_reserved":false,"is_disabled":true,"rental_uris":{"android":"levelo://app?vid=929cf538-0f17-44b1-998a-c48280fa525c","ios":"levelo://app?vid=929cf538-0f17-44b1-998a-c48280fa525c"},"vehicle_type_id":"4","last_reported":1765959472,"current_range_meters":8400,"station_id":"ce4bhn92rcd13ifvqgrg","pricing_plan_id":"cebpf4jnsgd1na2vs0mg"},{"bike_id":"e70bca03-b790-4942-9e87-552f261a9e48","system_id":"levelo_inurba_marseille","lat":43.270539,"lon":5.383122,"is_reserved":false,"is_disabled":false,"rental_uris":{"android":"levelo://app?vid=e70bca03-b790-4942-9e87-552f261a9e48","ios":"levelo://app?vid=e70bca03-b790-4942-9e87-552f261a9e48"},"vehicle_type_id":"4","last_reported":1765959472,"current_range_meters":8400,"station_id":"st_d3n2fo6cfp8s73cte1j0","pricing_plan_id":"cebpf4jnsgd1na2vs0mg"},{"bike_id":"ab4ef196-e8fa-4fab-81e9-8ad3ad4973f7","system_id":"levelo_inurba_marseille","lat":43.27078,"lon":5.4227,"is_reserved":false,"is_disabled":true,"rental_uris":{"android":"levelo://app?vid=ab4ef196-e8fa-4fab-81e9-8ad3ad4973f7","ios":"levelo://app?vid=ab4ef196-e8fa-4fab-81e9-8ad3ad4973f7"},"vehicle_type_id":"4","last_reported":1765959472,"current_range_meters":8400,"station_id":"ce4bhk92rcd13ifvqgb0","pricing_plan_id":"cebpf4jnsgd1na2vs0mg"},{"bike_id":"4d48063d-7043-48ed-9926-f9fbf99121d3","system_id":"levelo_inurba_marseille","lat":43.31224,"lon":5.36854,"is_reserved":false,"is_disabled":false,"rental_uris":{"android":"levelo://app?vid=4d48063d-7043-48ed-9926-f9fbf99121d3","ios":"levelo://app?vid=4d48063d-7043-48ed-9926-f9fbf99121d3"},"vehicle_type_id":"4","last_reported":1765959472,"current_range_meters":8400,"station_id":"ce4bgl92rcd13ifvqbq0","pricing_plan_id":"cebpf4jnsgd1na2vs0mg"},{"bike_id":"2184704c-73b2-4743-9e2a-b31ec45aee69","system_id":"levelo_inurba_marseille","lat":43.31321,"lon":5.39689,"is_reserved":false,"is_disabled":false,"rental_uris":{"android":"levelo://app?vid=2184704c-73b2-4743-9e2a-b31ec45aee69","ios":"levelo://app?vid=2184704c-73b2-4743-9e2a-b31ec45aee69"},"vehicle_type_id":"4","last_reported":1765959472,"current_range_meters":8400,"station_id":"ce4bgvp2rcd13ifvqcu0","pricing_plan_id":"cebpf4jnsgd1na2vs0mg"},{"bike_id":"5f9115dc-47d2-4bdb-be36-56ac4d2294b3","system_id":"levelo_inurba_marseille","lat":43.30708,"lon":5.42447,"is_reserved":false,"is_disabled":false,"rental_uris":{"android":"levelo://app?vid=5f9115dc-47d2-4bdb-be36-56ac4d2294b3","ios":"levelo://app?vid=5f9115dc-47d2-4bdb-be36-56ac4d2294b3"},"vehicle_type_id":"4","last_reported":1765959472,"current_range_meters":8400,"station_id":"st_cvj6ca6bvosntc0bfgr0","pricing_plan_id":"cebpf4jnsgd1na2vs0mg"},{"bike_id":"572fd032-f62a-46e0-ab46-89098c0755dc","system_id":"levelo_inurba_marseille","lat":43.2979,"lon":5.38093,"is_reserved":false,"is_disabled":true,"rental_uris":{"android":"levelo://app?vid=572fd032-f62a-46e0-ab46-89098c0755dc","ios":"levelo://app?vid=572fd032-f62a-46e0-ab46-89098c0755dc"},"vehicle_type_id":"4","last_reported":1765959472,"current_range_meters":8800,"station_id":"","pricing_plan_id":"cebpf4jnsgd1na2vs0mg"},{"bike_id":"f5c06492-8ff7-4eb9-a21d-99dd280e7db4","system_id":"levelo_inurba_marseille","lat":43.29813,"lon":5.44062,"is_reserved":false,"is_disabled":false,"rental_uris":{"android":"levelo://app?vid=f5c06492-8ff7-4eb9-a21d-99dd280e7db4","ios":"levelo://app?vid=f5c06492-8ff7-4eb9-a21d-99dd280e7db4"},"vehicle_type_id":"4","last_reported":1765959472,"current_range_meters":8800,"station_id":"st_d3jp68qikq2c7381ktn0","pricing_plan_id":"cebpf4jnsgd1na2vs0mg"},{"bike_id":"4c0adb54-e09e-48f3-baae-3a20f0af4e72","system_id":"levelo_inurba_marseille","lat":43.33606,"lon":5.41039,"is_reserved":false,"is_disabled":false,"rental_uris":{"android":"levelo://app?vid=4c0adb54-e09e-48f3-baae-3a20f0af4e72","ios":"levelo://app?vid=4c0adb54-e09e-48f3-baae-3a20f0af4e72"},"vehicle_type_id":"4","last_reported":1765959472,"current_range_meters":8800,"station_id":"ce4bhqh2rcd13ifvqhmg","pricing_plan_id":"cebpf4jnsgd1na2vs0mg"},{"bike_id":"7b9bd5de-20ee-492a-91cc-3964972326b2","system_id":"levelo_inurba_marseille","lat":43.29474,"lon":5.382874,"is_reserved":false,"is_disabled":false,"rental_uris":{"android":"levelo://app?vid=7b9bd5de-20ee-492a-91cc-3964972326b2","ios":"levelo://app?vid=7b9bd5de-20ee-492a-91cc-3964972326b2"},"vehicle_type_id":"4","last_reported":1765959472,"current_range_meters":8800,"station_id":"","pricing_plan_id":"cebpf4jnsgd1na2vs0mg"},{"bike_id":"71eb1a16-88e0-457c-a111-7bb97e3f4d31","system_id":"levelo_inurba_marseille","lat":43.28535,"lon":5.44098,"is_reserved":false,"is_disabled":false,"rental_uris":{"android":"levelo://app?vid=71eb1a16-88e0-457c-a111-7bb97e3f4d31","ios":"levelo://app?vid=71eb1a16-88e0-457c-a111-7bb97e3f4d31"},"vehicle_type_id":"4","last_reported":1765959472,"current_range_meters":9200,"station_id":"st_d3j3df2ikq2c7380ej80","pricing_plan_id":"cebpf4jnsgd1na2vs0mg"},{"bike_id":"b2d0bee3-8553-4527-a831-d1e903999f00","system_id":"levelo_inurba_marseille","lat":43.316791,"lon":5.375612,"is_reserved":false,"is_disabled":false,"rental_uris":{"android":"levelo://app?vid=b2d0bee3-8553-4527-a831-d1e903999f00","ios":"levelo://app?vid=b2d0bee3-8553-4527-a831-d1e903999f00"},"vehicle_type_id":"4","last_reported":1765959472,"current_range_meters":9200,"station_id":"","pricing_plan_id":"cebpf4jnsgd1na2vs0mg"},{"bike_id":"d0c81cd9-bcb1-46de-85cc-999523e8d872","system_id":"levelo_inurba_marseille","lat":43.30439,"lon":5.37099,"is_reserved":false,"is_disabled":false,"rental_uris":{"android":"levelo://app?vid=d0c81cd9-bcb1-46de-85cc-999523e8d872","ios":"levelo://app?vid=d0c81cd9-bcb1-46de-85cc-999523e8d872"},"vehicle_type_id":"4","last_reported":1765959472,"current_range_meters":9200,"station_id":"","pricing_plan_id":"cebpf4jnsgd1na2vs0mg"},{"bike_id":"21bcd810-1303-43db-a3fe-409b08319e8a","system_id":"levelo_inurba_marseille","lat":43.253316,"lon":5.421666,"is_reserved":false,"is_disabled":false,"rental_uris":{"android":"levelo://app?vid=21bcd810-1303-43db-a3fe-409b08319e8a","ios":"levelo://app?vid=21bcd810-1303-43db-a3fe-409b08319e8a"},"vehicle_type_id":"4","last_reported":1765959472,"current_range_meters":9200,"station_id":"st_d2m65c5bi1j21697t3ng","pricing_plan_id":"cebpf4jnsgd1na2vs0mg"},{"bike_id":"7eaed911-52ff-45ed-b3ff-cd17f37407d1","system_id":"levelo_inurba_marseille","lat":43.28229,"lon":5.34896,"is_reserved":false,"is_disabled":false,"rental_uris":{"android":"levelo://app?vid=7eaed911-52ff-45ed-b3ff-cd17f37407d1","ios":"levelo://app?vid=7eaed911-52ff-45ed-b3ff-cd17f37407d1"},"vehicle_type_id":"4","last_reported":1765959472,"current_range_meters":9200,"station_id":"","pricing_plan_id":"cebpf4jnsgd1na2vs0mg"},{"bike_id":"fae22fbf-f972-4375-a6a6-42de28a7662b","system_id":"levelo_inurba_marseille","lat":43.24626,"lon":5.4315,"is_reserved":false,"is_disabled":false,"rental_uris":{"android":"levelo://app?vid=fae22fbf-f972-4375-a6a6-42de28a7662b","ios":"levelo://app?vid=fae22fbf-f972-4375-a6a6-42de28a7662b"},"vehicle_type_id":"4","last_reported":1765959472,"current_range_meters":9200,"station_id":"st_d2m6c4gdas8pm72e190g","pricing_plan_id":"cebpf4jnsgd1na2vs0mg"},{"bike_id":"43f1e5b6-6733-49f3-afee-4b272067dec8","system_id":"levelo_inurba_marseille","lat":43.24159,"lon":5.36408,"is_reserved":false,"is_disabled":false,"rental_uris":{"android":"levelo://app?vid=43f1e5b6-6733-49f3-afee-4b272067dec8","ios":"levelo://app?vid=43f1e5b6-6733-49f3-afee-4b272067dec8"},"vehicle_type_id":"4","last_reported":1765959472,"current_range_meters":9200,"station_id":"cpo36qri1sfpv3e86is0","pricing_plan_id":"cebpf4jnsgd1na2vs0mg"},{"bike_id":"15d813ba-27fd-4382-ad14-89afa4b8c8d7","system_id":"levelo_inurba_marseille","lat":43.259313,"lon":5.40913,"is_reserved":false,"is_disabled":false,"rental_uris":{"android":"levelo://app?vid=15d813ba-27fd-4382-ad14-89afa4b8c8d7","ios":"levelo://app?vid=15d813ba-27fd-4382-ad14-89afa4b8c8d7"},"vehicle_type_id":"4","last_reported":1765959472,"current_range_meters":9200,"station_id":"ce4bhm92rcd13ifvqglg","pricing_plan_id":"cebpf4jnsgd1na2vs0mg"},{"bike_id":"c207d154-2a6e-4f87-9688-1e794e636894","system_id":"levelo_inurba_marseille","lat":43.2292,"lon":5.35379,"is_reserved":false,"is_disabled":false,"rental_uris":{"android":"levelo://app?vid=c207d154-2a6e-4f87-9688-1e794e636894","ios":"levelo://app?vid=c207d154-2a6e-4f87-9688-1e794e636894"},"vehicle_type_id":"4","last_reported":1765959472,"current_range_meters":9200,"station_id":"cpo3532slgdg3j2ikp40","pricing_plan_id":"cebpf4jnsgd1na2vs0mg"},{"bike_id":"b92261be-6900-4567-aa63-24791d9bd78b","system_id":"levelo_inurba_marseille","lat":43.28929,"lon":5.36645,"is_reserved":false,"is_disabled":false,"rental_uris":{"android":"levelo://app?vid=b92261be-6900-4567-aa63-24791d9bd78b","ios":"levelo://app?vid=b92261be-6900-4567-aa63-24791d9bd78b"},"vehicle_type_id":"4","last_reported":1765959472,"current_range_meters":9200,"station_id":"ce4bhap2rcd13ifvqek0","pricing_plan_id":"cebpf4jnsgd1na2vs0mg"},{"bike_id":"df20d05e-e26e-477a-9695-db8a5c35a593","system_id":"levelo_inurba_marseille","lat":43.24178,"lon":5.39732,"is_reserved":false,"is_disabled":false,"rental_uris":{"android":"levelo://app?vid=df20d05e-e26e-477a-9695-db8a5c35a593","ios":"levelo://app?vid=df20d05e-e26e-477a-9695-db8a5c35a593"},"vehicle_type_id":"4","last_reported":1765959472,"current_range_meters":9600,"station_id":"ce4bhn12rcd13ifvqgpg","pricing_plan_id":"cebpf4jnsgd1na2vs0mg"},{"bike_id":"0f9e6f74-c72d-458b-b50f-68130f3f5b68","system_id":"levelo_inurba_marseille","lat":43.24948,"lon":5.40483,"is_reserved":false,"is_disabled":false,"rental_uris":{"android":"levelo://app?vid=0f9e6f74-c72d-458b-b50f-68130f3f5b68","ios":"levelo://app?vid=0f9e6f74-c72d-458b-b50f-68130f3f5b68"},"vehicle_type_id":"4","last_reported":1765959472,"current_range_meters":9600,"station_id":"st_d2ngiaodas8pm72gd1h0","pricing_plan_id":"cebpf4jnsgd1na2vs0mg"},{"bike_id":"d2602dea-79d7-4ad6-8f7e-002fb6cdbba6","system_id":"levelo_inurba_marseille","lat":43.28377,"lon":5.38641,"is_reserved":false,"is_disabled":false,"rental_uris":{"android":"levelo://app?vid=d2602dea-79d7-4ad6-8f7e-002fb6cdbba6","ios":"levelo://app?vid=d2602dea-79d7-4ad6-8f7e-002fb6cdbba6"},"vehicle_type_id":"4","last_reported":1765959472,"current_range_meters":9600,"station_id":"ce4bh492rcd13ifvqdvg","pricing_plan_id":"cebpf4jnsgd1na2vs0mg"},{"bike_id":"38501bf0-54df-4a62-ac12-c02bb3eaa666","system_id":"levelo_inurba_marseille","lat":43.31347,"lon":5.36741,"is_reserved":false,"is_disabled":false,"rental_uris":{"android":"levelo://app?vid=38501bf0-54df-4a62-ac12-c02bb3eaa666","ios":"levelo://app?vid=38501bf0-54df-4a62-ac12-c02bb3eaa666"},"vehicle_type_id":"4","last_reported":1765959472,"current_range_meters":9600,"station_id":"ce4bgr92rcd13ifvqc6g","pricing_plan_id":"cebpf4jnsgd1na2vs0mg"},{"bike_id":"36ca5b20-ca80-4cb2-bcd1-60ad71c55028","system_id":"levelo_inurba_marseille","lat":43.2668,"lon":5.38271,"is_reserved":false,"is_disabled":false,"rental_uris":{"android":"levelo://app?vid=36ca5b20-ca80-4cb2-bcd1-60ad71c55028","ios":"levelo://app?vid=36ca5b20-ca80-4cb2-bcd1-60ad71c55028"},"vehicle_type_id":"4","last_reported":1765959472,"current_range_meters":9600,"station_id":"ce4bhg92rcd13ifvqf90","pricing_plan_id":"cebpf4jnsgd1na2vs0mg"},{"bike_id":"67de44ef-95b5-48d2-8a39-63b779b21e4f","system_id":"levelo_inurba_marseille","lat":43.31346,"lon":5.36717,"is_reserved":false,"is_disabled":false,"rental_uris":{"android":"levelo://app?vid=67de44ef-95b5-48d2-8a39-63b779b21e4f","ios":"levelo://app?vid=67de44ef-95b5-48d2-8a39-63b779b21e4f"},"vehicle_type_id":"4","last_reported":1765959472,"current_range_meters":9600,"station_id":"ce4bgr92rcd13ifvqc6g","pricing_plan_id":"cebpf4jnsgd1na2vs0mg"},{"bike_id":"7af4246b-f080-424d-adcf-e9ce217c5a28","system_id":"levelo_inurba_marseille","lat":43.279706,"lon":5.387241,"is_reserved":false,"is_disabled":false,"rental_uris":{"android":"levelo://app?vid=7af4246b-f080-424d-adcf-e9ce217c5a28","ios":"levelo://app?vid=7af4246b-f080-424d-adcf-e9ce217c5a28"},"vehicle_type_id":"4","last_reported":1765959472,"current_range_meters":9600,"station_id":"ce4bhg12rcd13ifvqf80","pricing_plan_id":"cebpf4jnsgd1na2vs0mg"},{"bike_id":"c8095063-b9e0-42f6-b007-712c4b134160","system_id":"levelo_inurba_marseille","lat":43.32113,"lon":5.3678,"is_reserved":false,"is_disabled":false,"rental_uris":{"android":"levelo://app?vid=c8095063-b9e0-42f6-b007-712c4b134160","ios":"levelo://app?vid=c8095063-b9e0-42f6-b007-712c4b134160"},"vehicle_type_id":"4","last_reported":1765959472,"current_range_meters":9600,"station_id":"ce4bhrh2rcd13ifvqhug","pricing_plan_id":"cebpf4jnsgd1na2vs0mg"},{"bike_id":"b83f4d2c-5349-4333-b9a9-95c155b2591e","system_id":"levelo_inurba_marseille","lat":43.26939,"lon":5.38632,"is_reserved":false,"is_disabled":false,"rental_uris":{"android":"levelo://app?vid=b83f4d2c-5349-4333-b9a9-95c155b2591e","ios":"levelo://app?vid=b83f4d2c-5349-4333-b9a9-95c155b2591e"},"vehicle_type_id":"4","last_reported":1765959472,"current_range_meters":9600,"station_id":"ce4bhh92rcd13ifvqfh0","pricing_plan_id":"cebpf4jnsgd1na2vs0mg"},{"bike_id":"a7cc7377-8cb2-4837-9a47-27c45eab233a","system_id":"levelo_inurba_marseille","lat":43.3058,"lon":5.39344,"is_reserved":false,"is_disabled":false,"rental_uris":{"android":"levelo://app?vid=a7cc7377-8cb2-4837-9a47-27c45eab233a","ios":"levelo://app?vid=a7cc7377-8cb2-4837-9a47-27c45eab233a"},"vehicle_type_id":"4","last_reported":1765959472,"current_range_meters":10000,"station_id":"ce4bh0p2rcd13ifvqd80","pricing_plan_id":"cebpf4jnsgd1na2vs0mg"},{"bike_id":"cb5fb5c4-3bd8-4960-9377-b1a41b4ca74b","system_id":"levelo_inurba_marseille","lat":43.23151,"lon":5.43699,"is_reserved":false,"is_disabled":true,"rental_uris":{"android":"levelo://app?vid=cb5fb5c4-3bd8-4960-9377-b1a41b4ca74b","ios":"levelo://app?vid=cb5fb5c4-3bd8-4960-9377-b1a41b4ca74b"},"vehicle_type_id":"4","last_reported":1765959472,"current_range_meters":10000,"station_id":"ce4bhmp2rcd13ifvqgog","pricing_plan_id":"cebpf4jnsgd1na2vs0mg"},{"bike_id":"0757412c-3a83-462e-90dd-86301f3f0506","system_id":"levelo_inurba_marseille","lat":43.3015,"lon":5.380674,"is_reserved":false,"is_disabled":false,"rental_uris":{"android":"levelo://app?vid=0757412c-3a83-462e-90dd-86301f3f0506","ios":"levelo://app?vid=0757412c-3a83-462e-90dd-86301f3f0506"},"vehicle_type_id":"4","last_reported":1765959472,"current_range_meters":10000,"station_id":"","pricing_plan_id":"cebpf4jnsgd1na2vs0mg"},{"bike_id":"89f5a425-6334-463b-8fab-6805660c96eb","system_id":"levelo_inurba_marseille","lat":43.31285,"lon":5.36831,"is_reserved":false,"is_disabled":false,"rental_uris":{"android":"levelo://app?vid=89f5a425-6334-463b-8fab-6805660c96eb","ios":"levelo://app?vid=89f5a425-6334-463b-8fab-6805660c96eb"},"vehicle_type_id":"4","last_reported":1765959472,"current_range_meters":10000,"station_id":"","pricing_plan_id":"cebpf4jnsgd1na2vs0mg"},{"bike_id":"ad5077e7-adfd-4460-ab6e-dc27206627c9","system_id":"levelo_inurba_marseille","lat":43.237829,"lon":5.366317,"is_reserved":false,"is_disabled":false,"rental_uris":{"android":"levelo://app?vid=ad5077e7-adfd-4460-ab6e-dc27206627c9","ios":"levelo://app?vid=ad5077e7-adfd-4460-ab6e-dc27206627c9"},"vehicle_type_id":"4","last_reported":1765959472,"current_range_meters":10000,"station_id":"st_d3nk18o9ro0c73en2l3g","pricing_plan_id":"cebpf4jnsgd1na2vs0mg"},{"bike_id":"54f8fe26-ad2a-40ba-8e6d-e7235d52405d","system_id":"levelo_inurba_marseille","lat":43.2535,"lon":5.42171,"is_reserved":false,"is_disabled":true,"rental_uris":{"android":"levelo://app?vid=54f8fe26-ad2a-40ba-8e6d-e7235d52405d","ios":"levelo://app?vid=54f8fe26-ad2a-40ba-8e6d-e7235d52405d"},"vehicle_type_id":"4","last_reported":1765959472,"current_range_meters":10000,"station_id":"st_d2m65c5bi1j21697t3ng","pricing_plan_id":"cebpf4jnsgd1na2vs0mg"},{"bike_id":"15c757bc-97dd-4fce-b499-42d9f825680b","system_id":"levelo_inurba_marseille","lat":43.30128,"lon":5.4313,"is_reserved":false,"is_disabled":false,"rental_uris":{"android":"levelo://app?vid=15c757bc-97dd-4fce-b499-42d9f825680b","ios":"levelo://app?vid=15c757bc-97dd-4fce-b499-42d9f825680b"},"vehicle_type_id":"4","last_reported":1765959472,"current_range_meters":10000,"station_id":"st_d3js3co5814s73ftftug","pricing_plan_id":"cebpf4jnsgd1na2vs0mg"},{"bike_id":"79774207-e718-4713-aff9-e4ed58b624c9","system_id":"levelo_inurba_marseille","lat":43.30143,"lon":5.37423,"is_reserved":false,"is_disabled":false,"rental_uris":{"android":"levelo://app?vid=79774207-e718-4713-aff9-e4ed58b624c9","ios":"levelo://app?vid=79774207-e718-4713-aff9-e4ed58b624c9"},"vehicle_type_id":"4","last_reported":1765959472,"current_range_meters":10000,"station_id":"ce4bgs92rcd13ifvqcc0","pricing_plan_id":"cebpf4jnsgd1na2vs0mg"},{"bike_id":"9382eb17-0241-464d-b2ca-2b51087600a0","system_id":"levelo_inurba_marseille","lat":43.30949,"lon":5.39033,"is_reserved":false,"is_disabled":false,"rental_uris":{"android":"levelo://app?vid=9382eb17-0241-464d-b2ca-2b51087600a0","ios":"levelo://app?vid=9382eb17-0241-464d-b2ca-2b51087600a0"},"vehicle_type_id":"4","last_reported":1765959472,"current_range_meters":10000,"station_id":"ce4bgup2rcd13ifvqco0","pricing_plan_id":"cebpf4jnsgd1na2vs0mg"},{"bike_id":"ce4f78ce-191c-4147-9cd8-b18111113313","system_id":"levelo_inurba_marseille","lat":43.31213,"lon":5.36859,"is_reserved":false,"is_disabled":false,"rental_uris":{"android":"levelo://app?vid=ce4f78ce-191c-4147-9cd8-b18111113313","ios":"levelo://app?vid=ce4f78ce-191c-4147-9cd8-b18111113313"},"vehicle_type_id":"4","last_reported":1765959472,"current_range_meters":10000,"station_id":"ce4bgl92rcd13ifvqbq0","pricing_plan_id":"cebpf4jnsgd1na2vs0mg"},{"bike_id":"d41a21d4-827e-499c-91c6-deff6eb783e7","system_id":"levelo_inurba_marseille","lat":43.2464,"lon":5.43141,"is_reserved":false,"is_disabled":true,"rental_uris":{"android":"levelo://app?vid=d41a21d4-827e-499c-91c6-deff6eb783e7","ios":"levelo://app?vid=d41a21d4-827e-499c-91c6-deff6eb783e7"},"vehicle_type_id":"4","last_reported":1765959472,"current_range_meters":10800,"station_id":"st_d2m6c4gdas8pm72e190g","pricing_plan_id":"cebpf4jnsgd1na2vs0mg"},{"bike_id":"bdec3b25-1ef1-4f5b-bb7c-5dba5dbc125f","system_id":"levelo_inurba_marseille","lat":43.31943,"lon":5.37285,"is_reserved":false,"is_disabled":false,"rental_uris":{"android":"levelo://app?vid=bdec3b25-1ef1-4f5b-bb7c-5dba5dbc125f","ios":"levelo://app?vid=bdec3b25-1ef1-4f5b-bb7c-5dba5dbc125f"},"vehicle_type_id":"4","last_reported":1765959472,"current_range_meters":10800,"station_id":"","pricing_plan_id":"cebpf4jnsgd1na2vs0mg"},{"bike_id":"5cde72fc-6b41-4764-bcbf-9fc9dff4199e","system_id":"levelo_inurba_marseille","lat":43.337538,"lon":5.374581,"is_reserved":false,"is_disabled":false,"rental_uris":{"android":"levelo://app?vid=5cde72fc-6b41-4764-bcbf-9fc9dff4199e","ios":"levelo://app?vid=5cde72fc-6b41-4764-bcbf-9fc9dff4199e"},"vehicle_type_id":"4","last_reported":1765959472,"current_range_meters":10800,"station_id":"","pricing_plan_id":"cebpf4jnsgd1na2vs0mg"},{"bike_id":"886c4777-c3a8-404d-8b7e-98f6e45dfc80","system_id":"levelo_inurba_marseille","lat":43.28932,"lon":5.36629,"is_reserved":false,"is_disabled":false,"rental_uris":{"android":"levelo://app?vid=886c4777-c3a8-404d-8b7e-98f6e45dfc80","ios":"levelo://app?vid=886c4777-c3a8-404d-8b7e-98f6e45dfc80"},"vehicle_type_id":"4","last_reported":1765959472,"current_range_meters":10800,"station_id":"ce4bhap2rcd13ifvqek0","pricing_plan_id":"cebpf4jnsgd1na2vs0mg"},{"bike_id":"69f89f72-387d-4fe9-8317-e1abd4e78e0f","system_id":"levelo_inurba_marseille","lat":43.24549,"lon":5.39529,"is_reserved":false,"is_disabled":false,"rental_uris":{"android":"levelo://app?vid=69f89f72-387d-4fe9-8317-e1abd4e78e0f","ios":"levelo://app?vid=69f89f72-387d-4fe9-8317-e1abd4e78e0f"},"vehicle_type_id":"4","last_reported":1765959472,"current_range_meters":10800,"station_id":"ce4bhlp2rcd13ifvqgjg","pricing_plan_id":"cebpf4jnsgd1na2vs0mg"},{"bike_id":"6d7d1950-bc29-4bf7-9682-31cddb68e5c2","system_id":"levelo_inurba_marseille","lat":43.30141,"lon":5.38058,"is_reserved":false,"is_disabled":false,"rental_uris":{"android":"levelo://app?vid=6d7d1950-bc29-4bf7-9682-31cddb68e5c2","ios":"levelo://app?vid=6d7d1950-bc29-4bf7-9682-31cddb68e5c2"},"vehicle_type_id":"4","last_reported":1765959472,"current_range_meters":10800,"station_id":"ce4bgjp2rcd13ifvqbh0","pricing_plan_id":"cebpf4jnsgd1na2vs0mg"},{"bike_id":"027ddd89-1c7c-4899-92a1-8c53dba3b80e","system_id":"levelo_inurba_marseille","lat":43.2408,"lon":5.37746,"is_reserved":false,"is_disabled":false,"rental_uris":{"android":"levelo://app?vid=027ddd89-1c7c-4899-92a1-8c53dba3b80e","ios":"levelo://app?vid=027ddd89-1c7c-4899-92a1-8c53dba3b80e"},"vehicle_type_id":"4","last_reported":1765959472,"current_range_meters":10800,"station_id":"ce4bhnp2rcd13ifvqgvg","pricing_plan_id":"cebpf4jnsgd1na2vs0mg"},{"bike_id":"6a26ef33-8204-4bf8-bbbb-122b1a4410f3","system_id":"levelo_inurba_marseille","lat":43.27294,"lon":5.41088,"is_reserved":false,"is_disabled":false,"rental_uris":{"android":"levelo://app?vid=6a26ef33-8204-4bf8-bbbb-122b1a4410f3","ios":"levelo://app?vid=6a26ef33-8204-4bf8-bbbb-122b1a4410f3"},"vehicle_type_id":"4","last_reported":1765959472,"current_range_meters":10800,"station_id":"","pricing_plan_id":"cebpf4jnsgd1na2vs0mg"},{"bike_id":"c4640e4c-04db-4488-9b72-36331244d61e","system_id":"levelo_inurba_marseille","lat":43.22564,"lon":5.41622,"is_reserved":false,"is_disabled":false,"rental_uris":{"android":"levelo://app?vid=c4640e4c-04db-4488-9b72-36331244d61e","ios":"levelo://app?vid=c4640e4c-04db-4488-9b72-36331244d61e"},"vehicle_type_id":"4","last_reported":1765959472,"current_range_meters":10800,"station_id":"st_d2o4gvlbi1j2169b742g","pricing_plan_id":"cebpf4jnsgd1na2vs0mg"},{"bike_id":"415df15e-36dc-4feb-be33-51b23a016e5a","system_id":"levelo_inurba_marseille","lat":43.24071,"lon":5.37758,"is_reserved":false,"is_disabled":false,"rental_uris":{"android":"levelo://app?vid=415df15e-36dc-4feb-be33-51b23a016e5a","ios":"levelo://app?vid=415df15e-36dc-4feb-be33-51b23a016e5a"},"vehicle_type_id":"4","last_reported":1765959472,"current_range_meters":10800,"station_id":"ce4bhnp2rcd13ifvqgvg","pricing_plan_id":"cebpf4jnsgd1na2vs0mg"},{"bike_id":"889b5538-5518-43d3-98c5-0df486ced8da","system_id":"levelo_inurba_marseille","lat":43.29367,"lon":5.37851,"is_reserved":false,"is_disabled":true,"rental_uris":{"android":"levelo://app?vid=889b5538-5518-43d3-98c5-0df486ced8da","ios":"levelo://app?vid=889b5538-5518-43d3-98c5-0df486ced8da"},"vehicle_type_id":"4","last_reported":1765959472,"current_range_meters":11200,"station_id":"ce4bgjh2rcd13ifvqbf0","pricing_plan_id":"cebpf4jnsgd1na2vs0mg"},{"bike_id":"a9b5a2c0-a4d1-44f0-a982-4db744f803ce","system_id":"levelo_inurba_marseille","lat":43.25828,"lon":5.39434,"is_reserved":false,"is_disabled":false,"rental_uris":{"android":"levelo://app?vid=a9b5a2c0-a4d1-44f0-a982-4db744f803ce","ios":"levelo://app?vid=a9b5a2c0-a4d1-44f0-a982-4db744f803ce"},"vehicle_type_id":"4","last_reported":1765959472,"current_range_meters":11200,"station_id":"ce4bhip2rcd13ifvqft0","pricing_plan_id":"cebpf4jnsgd1na2vs0mg"},{"bike_id":"776e2e24-9fb1-4185-9b12-c4ef3069e51c","system_id":"levelo_inurba_marseille","lat":43.2903,"lon":5.37558,"is_reserved":false,"is_disabled":false,"rental_uris":{"android":"levelo://app?vid=776e2e24-9fb1-4185-9b12-c4ef3069e51c","ios":"levelo://app?vid=776e2e24-9fb1-4185-9b12-c4ef3069e51c"},"vehicle_type_id":"4","last_reported":1765959472,"current_range_meters":11200,"station_id":"ce4bh692rcd13ifvqe90","pricing_plan_id":"cebpf4jnsgd1na2vs0mg"},{"bike_id":"a871de1e-c565-4e25-8616-7e2406059526","system_id":"levelo_inurba_marseille","lat":43.28689,"lon":5.37401,"is_reserved":false,"is_disabled":true,"rental_uris":{"android":"levelo://app?vid=a871de1e-c565-4e25-8616-7e2406059526","ios":"levelo://app?vid=a871de1e-c565-4e25-8616-7e2406059526"},"vehicle_type_id":"4","last_reported":1765959472,"current_range_meters":11200,"station_id":"ce4bh3p2rcd13ifvqdq0","pricing_plan_id":"cebpf4jnsgd1na2vs0mg"},{"bike_id":"d6e72738-4273-4ffc-a51f-6275f36eb1ea","system_id":"levelo_inurba_marseille","lat":43.29625,"lon":5.37161,"is_reserved":false,"is_disabled":false,"rental_uris":{"android":"levelo://app?vid=d6e72738-4273-4ffc-a51f-6275f36eb1ea","ios":"levelo://app?vid=d6e72738-4273-4ffc-a51f-6275f36eb1ea"},"vehicle_type_id":"4","last_reported":1765959472,"current_range_meters":11200,"station_id":"ce4bgnh2rcd13ifvqc0g","pricing_plan_id":"cebpf4jnsgd1na2vs0mg"},{"bike_id":"819f1872-dcdb-49ac-a725-54d9a30d1d50","system_id":"levelo_inurba_marseille","lat":43.29837,"lon":5.36261,"is_reserved":false,"is_disabled":false,"rental_uris":{"android":"levelo://app?vid=819f1872-dcdb-49ac-a725-54d9a30d1d50","ios":"levelo://app?vid=819f1872-dcdb-49ac-a725-54d9a30d1d50"},"vehicle_type_id":"4","last_reported":1765959472,"current_range_meters":11200,"station_id":"ce4bgpp2rcd13ifvqc3g","pricing_plan_id":"cebpf4jnsgd1na2vs0mg"},{"bike_id":"bb30194d-85ce-4ca8-b46d-788238ef96a9","system_id":"levelo_inurba_marseille","lat":43.323569,"lon":5.384919,"is_reserved":false,"is_disabled":false,"rental_uris":{"android":"levelo://app?vid=bb30194d-85ce-4ca8-b46d-788238ef96a9","ios":"levelo://app?vid=bb30194d-85ce-4ca8-b46d-788238ef96a9"},"vehicle_type_id":"4","last_reported":1765959472,"current_range_meters":11200,"station_id":"st_d45171o9ee8s73djdqug","pricing_plan_id":"cebpf4jnsgd1na2vs0mg"},{"bike_id":"45a5efb5-5f16-4abc-9e12-3d72dc74ccd5","system_id":"levelo_inurba_marseille","lat":43.313938,"lon":5.366686,"is_reserved":false,"is_disabled":false,"rental_uris":{"android":"levelo://app?vid=45a5efb5-5f16-4abc-9e12-3d72dc74ccd5","ios":"levelo://app?vid=45a5efb5-5f16-4abc-9e12-3d72dc74ccd5"},"vehicle_type_id":"4","last_reported":1765959472,"current_range_meters":11600,"station_id":"ce4bgr92rcd13ifvqc6g","pricing_plan_id":"cebpf4jnsgd1na2vs0mg"},{"bike_id":"fcddb508-236d-428b-9038-c3ba4ac2e194","system_id":"levelo_inurba_marseille","lat":43.31737,"lon":5.37624,"is_reserved":false,"is_disabled":false,"rental_uris":{"android":"levelo://app?vid=fcddb508-236d-428b-9038-c3ba4ac2e194","ios":"levelo://app?vid=fcddb508-236d-428b-9038-c3ba4ac2e194"},"vehicle_type_id":"4","last_reported":1765959472,"current_range_meters":11600,"station_id":"","pricing_plan_id":"cebpf4jnsgd1na2vs0mg"},{"bike_id":"ca73f246-d8a8-4527-9529-f26b3dba3b7a","system_id":"levelo_inurba_marseille","lat":43.28468,"lon":5.38421,"is_reserved":false,"is_disabled":false,"rental_uris":{"android":"levelo://app?vid=ca73f246-d8a8-4527-9529-f26b3dba3b7a","ios":"levelo://app?vid=ca73f246-d8a8-4527-9529-f26b3dba3b7a"},"vehicle_type_id":"4","last_reported":1765959472,"current_range_meters":11600,"station_id":"ce4bh512rcd13ifvqe3g","pricing_plan_id":"cebpf4jnsgd1na2vs0mg"},{"bike_id":"83ae917c-7fe4-47bf-a2eb-2d59c3f51a7e","system_id":"levelo_inurba_marseille","lat":43.265576,"lon":5.372854,"is_reserved":false,"is_disabled":false,"rental_uris":{"android":"levelo://app?vid=83ae917c-7fe4-47bf-a2eb-2d59c3f51a7e","ios":"levelo://app?vid=83ae917c-7fe4-47bf-a2eb-2d59c3f51a7e"},"vehicle_type_id":"4","last_reported":1765959472,"current_range_meters":11600,"station_id":"ce4bhih2rcd13ifvqfr0","pricing_plan_id":"cebpf4jnsgd1na2vs0mg"},{"bike_id":"f1eeea0b-38e5-48bf-9351-feda8c5b99e9","system_id":"levelo_inurba_marseille","lat":43.24176,"lon":5.39727,"is_reserved":false,"is_disabled":false,"rental_uris":{"android":"levelo://app?vid=f1eeea0b-38e5-48bf-9351-feda8c5b99e9","ios":"levelo://app?vid=f1eeea0b-38e5-48bf-9351-feda8c5b99e9"},"vehicle_type_id":"4","last_reported":1765959472,"current_range_meters":11600,"station_id":"ce4bhn12rcd13ifvqgpg","pricing_plan_id":"cebpf4jnsgd1na2vs0mg"},{"bike_id":"366a78f7-c47b-4947-8571-9176e2fa80b5","system_id":"levelo_inurba_marseille","lat":43.32501,"lon":5.38299,"is_reserved":false,"is_disabled":false,"rental_uris":{"android":"levelo://app?vid=366a78f7-c47b-4947-8571-9176e2fa80b5","ios":"levelo://app?vid=366a78f7-c47b-4947-8571-9176e2fa80b5"},"vehicle_type_id":"4","last_reported":1765959472,"current_range_meters":11600,"station_id":"st_d4asgbiv49dc73anf9m0","pricing_plan_id":"cebpf4jnsgd1na2vs0mg"},{"bike_id":"8dc0f41d-9492-4bf7-82ec-ac2860636811","system_id":"levelo_inurba_marseille","lat":43.241667,"lon":5.364052,"is_reserved":false,"is_disabled":false,"rental_uris":{"android":"levelo://app?vid=8dc0f41d-9492-4bf7-82ec-ac2860636811","ios":"levelo://app?vid=8dc0f41d-9492-4bf7-82ec-ac2860636811"},"vehicle_type_id":"4","last_reported":1765959472,"current_range_meters":11600,"station_id":"cpo36qri1sfpv3e86is0","pricing_plan_id":"cebpf4jnsgd1na2vs0mg"},{"bike_id":"9b44a221-f6d7-4572-bedc-1c17e6b131d2","system_id":"levelo_inurba_marseille","lat":43.24647,"lon":5.38896,"is_reserved":false,"is_disabled":false,"rental_uris":{"android":"levelo://app?vid=9b44a221-f6d7-4572-bedc-1c17e6b131d2","ios":"levelo://app?vid=9b44a221-f6d7-4572-bedc-1c17e6b131d2"},"vehicle_type_id":"4","last_reported":1765959472,"current_range_meters":11600,"station_id":"ce4bhg12rcd13ifvqf60","pricing_plan_id":"cebpf4jnsgd1na2vs0mg"},{"bike_id":"2767f57f-39fa-4688-8cd5-1803c9b01059","system_id":"levelo_inurba_marseille","lat":43.281455,"lon":5.42633,"is_reserved":false,"is_disabled":false,"rental_uris":{"android":"levelo://app?vid=2767f57f-39fa-4688-8cd5-1803c9b01059","ios":"levelo://app?vid=2767f57f-39fa-4688-8cd5-1803c9b01059"},"vehicle_type_id":"4","last_reported":1765959472,"current_range_meters":11600,"station_id":"ce4bhnh2rcd13ifvqgug","pricing_plan_id":"cebpf4jnsgd1na2vs0mg"},{"bike_id":"8839159b-cd8b-467a-8cc5-876167b8995e","system_id":"levelo_inurba_marseille","lat":43.25938,"lon":5.40903,"is_reserved":false,"is_disabled":false,"rental_uris":{"android":"levelo://app?vid=8839159b-cd8b-467a-8cc5-876167b8995e","ios":"levelo://app?vid=8839159b-cd8b-467a-8cc5-876167b8995e"},"vehicle_type_id":"4","last_reported":1765959472,"current_range_meters":11600,"station_id":"ce4bhm92rcd13ifvqglg","pricing_plan_id":"cebpf4jnsgd1na2vs0mg"},{"bike_id":"dd29fc37-7e8d-46d7-bea2-6ec460d496da","system_id":"levelo_inurba_marseille","lat":43.33539,"lon":5.37473,"is_reserved":false,"is_disabled":false,"rental_uris":{"android":"levelo://app?vid=dd29fc37-7e8d-46d7-bea2-6ec460d496da","ios":"levelo://app?vid=dd29fc37-7e8d-46d7-bea2-6ec460d496da"},"vehicle_type_id":"4","last_reported":1765959472,"current_range_meters":11600,"station_id":"st_d46tts09ee8s73dlu43g","pricing_plan_id":"cebpf4jnsgd1na2vs0mg"},{"bike_id":"ea92ee08-4c09-4185-8b04-f598b482cc4e","system_id":"levelo_inurba_marseille","lat":43.28937,"lon":5.36639,"is_reserved":false,"is_disabled":true,"rental_uris":{"android":"levelo://app?vid=ea92ee08-4c09-4185-8b04-f598b482cc4e","ios":"levelo://app?vid=ea92ee08-4c09-4185-8b04-f598b482cc4e"},"vehicle_type_id":"4","last_reported":1765959472,"current_range_meters":11600,"station_id":"ce4bhap2rcd13ifvqek0","pricing_plan_id":"cebpf4jnsgd1na2vs0mg"},{"bike_id":"5c770126-be0f-4320-9b77-8c906c744b81","system_id":"levelo_inurba_marseille","lat":43.267947,"lon":5.393969,"is_reserved":false,"is_disabled":false,"rental_uris":{"android":"levelo://app?vid=5c770126-be0f-4320-9b77-8c906c744b81","ios":"levelo://app?vid=5c770126-be0f-4320-9b77-8c906c744b81"},"vehicle_type_id":"4","last_reported":1765959472,"current_range_meters":11600,"station_id":"ce4bhh12rcd13ifvqfg0","pricing_plan_id":"cebpf4jnsgd1na2vs0mg"},{"bike_id":"ef1b7ebd-307f-4305-88c9-4f48fc52bf62","system_id":"levelo_inurba_marseille","lat":43.27947,"lon":5.41038,"is_reserved":false,"is_disabled":false,"rental_uris":{"android":"levelo://app?vid=ef1b7ebd-307f-4305-88c9-4f48fc52bf62","ios":"levelo://app?vid=ef1b7ebd-307f-4305-88c9-4f48fc52bf62"},"vehicle_type_id":"4","last_reported":1765959472,"current_range_meters":11600,"station_id":"ce4bhnp2rcd13ifvqh0g","pricing_plan_id":"cebpf4jnsgd1na2vs0mg"},{"bike_id":"7d00fcfa-cbf8-4fa7-8c60-1829dce33a24","system_id":"levelo_inurba_marseille","lat":43.28343,"lon":5.38594,"is_reserved":false,"is_disabled":false,"rental_uris":{"android":"levelo://app?vid=7d00fcfa-cbf8-4fa7-8c60-1829dce33a24","ios":"levelo://app?vid=7d00fcfa-cbf8-4fa7-8c60-1829dce33a24"},"vehicle_type_id":"4","last_reported":1765959472,"current_range_meters":11600,"station_id":"ce4bh492rcd13ifvqdvg","pricing_plan_id":"cebpf4jnsgd1na2vs0mg"},{"bike_id":"051f7c4d-7c1a-46cf-bf55-40b2c4034d9d","system_id":"levelo_inurba_marseille","lat":43.325,"lon":5.38262,"is_reserved":false,"is_disabled":false,"rental_uris":{"android":"levelo://app?vid=051f7c4d-7c1a-46cf-bf55-40b2c4034d9d","ios":"levelo://app?vid=051f7c4d-7c1a-46cf-bf55-40b2c4034d9d"},"vehicle_type_id":"4","last_reported":1765959472,"current_range_meters":11600,"station_id":"st_d4asgbiv49dc73anf9m0","pricing_plan_id":"cebpf4jnsgd1na2vs0mg"},{"bike_id":"a6a2b2eb-9fac-4a15-8bbe-853cd503e49d","system_id":"levelo_inurba_marseille","lat":43.31709,"lon":5.43708,"is_reserved":false,"is_disabled":false,"rental_uris":{"android":"levelo://app?vid=a6a2b2eb-9fac-4a15-8bbe-853cd503e49d","ios":"levelo://app?vid=a6a2b2eb-9fac-4a15-8bbe-853cd503e49d"},"vehicle_type_id":"4","last_reported":1765959472,"current_range_meters":11600,"station_id":"ce4bhp92rcd13ifvqhcg","pricing_plan_id":"cebpf4jnsgd1na2vs0mg"},{"bike_id":"69ff78d1-d763-4b38-aedd-1516d7b4b052","system_id":"levelo_inurba_marseille","lat":43.317317,"lon":5.423994,"is_reserved":false,"is_disabled":false,"rental_uris":{"android":"levelo://app?vid=69ff78d1-d763-4b38-aedd-1516d7b4b052","ios":"levelo://app?vid=69ff78d1-d763-4b38-aedd-1516d7b4b052"},"vehicle_type_id":"4","last_reported":1765959472,"current_range_meters":12000,"station_id":"ce4bhp92rcd13ifvqhbg","pricing_plan_id":"cebpf4jnsgd1na2vs0mg"},{"bike_id":"57302666-735e-4e19-aa29-73533601bc6f","system_id":"levelo_inurba_marseille","lat":43.29262,"lon":5.37629,"is_reserved":false,"is_disabled":false,"rental_uris":{"android":"levelo://app?vid=57302666-735e-4e19-aa29-73533601bc6f","ios":"levelo://app?vid=57302666-735e-4e19-aa29-73533601bc6f"},"vehicle_type_id":"4","last_reported":1765959472,"current_range_meters":12000,"station_id":"ce4bgi12rcd13ifvqb80","pricing_plan_id":"cebpf4jnsgd1na2vs0mg"},{"bike_id":"a7fb6309-2b67-48fd-a604-7555499decdb","system_id":"levelo_inurba_marseille","lat":43.24156,"lon":5.36403,"is_reserved":false,"is_disabled":false,"rental_uris":{"android":"levelo://app?vid=a7fb6309-2b67-48fd-a604-7555499decdb","ios":"levelo://app?vid=a7fb6309-2b67-48fd-a604-7555499decdb"},"vehicle_type_id":"4","last_reported":1765959472,"current_range_meters":12000,"station_id":"cpo36qri1sfpv3e86is0","pricing_plan_id":"cebpf4jnsgd1na2vs0mg"},{"bike_id":"0f28b80e-ee7f-47f3-9eea-fe09714ef2c4","system_id":"levelo_inurba_marseille","lat":43.337538,"lon":5.374581,"is_reserved":false,"is_disabled":false,"rental_uris":{"android":"levelo://app?vid=0f28b80e-ee7f-47f3-9eea-fe09714ef2c4","ios":"levelo://app?vid=0f28b80e-ee7f-47f3-9eea-fe09714ef2c4"},"vehicle_type_id":"4","last_reported":1765959472,"current_range_meters":12000,"station_id":"","pricing_plan_id":"cebpf4jnsgd1na2vs0mg"},{"bike_id":"f9afe7a0-7065-4bea-825b-e0840ac6359f","system_id":"levelo_inurba_marseille","lat":43.31692,"lon":5.40457,"is_reserved":false,"is_disabled":false,"rental_uris":{"android":"levelo://app?vid=f9afe7a0-7065-4bea-825b-e0840ac6359f","ios":"levelo://app?vid=f9afe7a0-7065-4bea-825b-e0840ac6359f"},"vehicle_type_id":"4","last_reported":1765959472,"current_range_meters":12000,"station_id":"ce4bh012rcd13ifvqd00","pricing_plan_id":"cebpf4jnsgd1na2vs0mg"},{"bike_id":"8ca958d6-e836-4b15-a7df-caf2f10dfae8","system_id":"levelo_inurba_marseille","lat":43.24387,"lon":5.37054,"is_reserved":false,"is_disabled":false,"rental_uris":{"android":"levelo://app?vid=8ca958d6-e836-4b15-a7df-caf2f10dfae8","ios":"levelo://app?vid=8ca958d6-e836-4b15-a7df-caf2f10dfae8"},"vehicle_type_id":"4","last_reported":1765959472,"current_range_meters":12000,"station_id":"ce4bhhh2rcd13ifvqfk0","pricing_plan_id":"cebpf4jnsgd1na2vs0mg"},{"bike_id":"9f2f990e-a17c-4f6c-a4a5-29e0700c6330","system_id":"levelo_inurba_marseille","lat":43.305419,"lon":5.366975,"is_reserved":false,"is_disabled":false,"rental_uris":{"android":"levelo://app?vid=9f2f990e-a17c-4f6c-a4a5-29e0700c6330","ios":"levelo://app?vid=9f2f990e-a17c-4f6c-a4a5-29e0700c6330"},"vehicle_type_id":"4","last_reported":1765959472,"current_range_meters":12000,"station_id":"ce4bgrp2rcd13ifvqc9g","pricing_plan_id":"cebpf4jnsgd1na2vs0mg"},{"bike_id":"3d317ca5-a272-4f93-9659-2870a09a79ff","system_id":"levelo_inurba_marseille","lat":43.30139,"lon":5.37423,"is_reserved":false,"is_disabled":false,"rental_uris":{"android":"levelo://app?vid=3d317ca5-a272-4f93-9659-2870a09a79ff","ios":"levelo://app?vid=3d317ca5-a272-4f93-9659-2870a09a79ff"},"vehicle_type_id":"4","last_reported":1765959472,"current_range_meters":12000,"station_id":"ce4bgs92rcd13ifvqcc0","pricing_plan_id":"cebpf4jnsgd1na2vs0mg"},{"bike_id":"89014143-3ff9-4cae-9af6-55b1a19dd5e6","system_id":"levelo_inurba_marseille","lat":43.295878,"lon":5.380985,"is_reserved":false,"is_disabled":false,"rental_uris":{"android":"levelo://app?vid=89014143-3ff9-4cae-9af6-55b1a19dd5e6","ios":"levelo://app?vid=89014143-3ff9-4cae-9af6-55b1a19dd5e6"},"vehicle_type_id":"4","last_reported":1765959472,"current_range_meters":12000,"station_id":"ce4bgl12rcd13ifvqbo0","pricing_plan_id":"cebpf4jnsgd1na2vs0mg"},{"bike_id":"1f825f20-8f06-4ed8-8eb4-0e4a8ab8b02f","system_id":"levelo_inurba_marseille","lat":43.3053,"lon":5.38361,"is_reserved":false,"is_disabled":true,"rental_uris":{"android":"levelo://app?vid=1f825f20-8f06-4ed8-8eb4-0e4a8ab8b02f","ios":"levelo://app?vid=1f825f20-8f06-4ed8-8eb4-0e4a8ab8b02f"},"vehicle_type_id":"4","last_reported":1765959472,"current_range_meters":12000,"station_id":"ce4bgg92rcd13ifvqb30","pricing_plan_id":"cebpf4jnsgd1na2vs0mg"},{"bike_id":"6b2073a2-5df3-44d3-9b01-4b8173586f34","system_id":"levelo_inurba_marseille","lat":43.263667,"lon":5.410857,"is_reserved":false,"is_disabled":false,"rental_uris":{"android":"levelo://app?vid=6b2073a2-5df3-44d3-9b01-4b8173586f34","ios":"levelo://app?vid=6b2073a2-5df3-44d3-9b01-4b8173586f34"},"vehicle_type_id":"4","last_reported":1765959472,"current_range_meters":12400,"station_id":"st_d4e5ca6na9uc73bfl5fg","pricing_plan_id":"cebpf4jnsgd1na2vs0mg"},{"bike_id":"cdc4d00c-a13d-411f-a8f3-dbaeb7f3d475","system_id":"levelo_inurba_marseille","lat":43.317571,"lon":5.390129,"is_reserved":false,"is_disabled":false,"rental_uris":{"android":"levelo://app?vid=cdc4d00c-a13d-411f-a8f3-dbaeb7f3d475","ios":"levelo://app?vid=cdc4d00c-a13d-411f-a8f3-dbaeb7f3d475"},"vehicle_type_id":"4","last_reported":1765959472,"current_range_meters":12400,"station_id":"ce4bhqp2rcd13ifvqhng","pricing_plan_id":"cebpf4jnsgd1na2vs0mg"},{"bike_id":"998cd9fe-3721-44c5-a5a3-2b7b38823677","system_id":"levelo_inurba_marseille","lat":43.29025,"lon":5.399886,"is_reserved":false,"is_disabled":false,"rental_uris":{"android":"levelo://app?vid=998cd9fe-3721-44c5-a5a3-2b7b38823677","ios":"levelo://app?vid=998cd9fe-3721-44c5-a5a3-2b7b38823677"},"vehicle_type_id":"4","last_reported":1765959472,"current_range_meters":12400,"station_id":"ce4bh392rcd13ifvqdm0","pricing_plan_id":"cebpf4jnsgd1na2vs0mg"},{"bike_id":"4651291d-dd37-44b8-91ca-f4fe7c9a4167","system_id":"levelo_inurba_marseille","lat":43.28861,"lon":5.42513,"is_reserved":false,"is_disabled":false,"rental_uris":{"android":"levelo://app?vid=4651291d-dd37-44b8-91ca-f4fe7c9a4167","ios":"levelo://app?vid=4651291d-dd37-44b8-91ca-f4fe7c9a4167"},"vehicle_type_id":"4","last_reported":1765959472,"current_range_meters":12400,"station_id":"st_d3b462108ojc7389ooeg","pricing_plan_id":"cebpf4jnsgd1na2vs0mg"},{"bike_id":"e52f4ad0-f100-40eb-810c-c2bfb55704c4","system_id":"levelo_inurba_marseille","lat":43.32107,"lon":5.36779,"is_reserved":false,"is_disabled":false,"rental_uris":{"android":"levelo://app?vid=e52f4ad0-f100-40eb-810c-c2bfb55704c4","ios":"levelo://app?vid=e52f4ad0-f100-40eb-810c-c2bfb55704c4"},"vehicle_type_id":"4","last_reported":1765959472,"current_range_meters":12400,"station_id":"ce4bhrh2rcd13ifvqhug","pricing_plan_id":"cebpf4jnsgd1na2vs0mg"},{"bike_id":"eed18767-05c9-4c1e-a884-f815f273a381","system_id":"levelo_inurba_marseille","lat":43.292026,"lon":5.393303,"is_reserved":false,"is_disabled":true,"rental_uris":{"android":"levelo://app?vid=eed18767-05c9-4c1e-a884-f815f273a381","ios":"levelo://app?vid=eed18767-05c9-4c1e-a884-f815f273a381"},"vehicle_type_id":"4","last_reported":1765959472,"current_range_meters":12400,"station_id":"ce4bh192rcd13ifvqdd0","pricing_plan_id":"cebpf4jnsgd1na2vs0mg"},{"bike_id":"e6d5f16d-c280-4811-b827-dfb5aa334746","system_id":"levelo_inurba_marseille","lat":43.32545,"lon":5.41449,"is_reserved":false,"is_disabled":false,"rental_uris":{"android":"levelo://app?vid=e6d5f16d-c280-4811-b827-dfb5aa334746","ios":"levelo://app?vid=e6d5f16d-c280-4811-b827-dfb5aa334746"},"vehicle_type_id":"4","last_reported":1765959472,"current_range_meters":12400,"station_id":"ce4bhq12rcd13ifvqhhg","pricing_plan_id":"cebpf4jnsgd1na2vs0mg"},{"bike_id":"7470f7ec-7c1d-489b-a8f1-7507a064b9c8","system_id":"levelo_inurba_marseille","lat":43.28475,"lon":5.48387,"is_reserved":false,"is_disabled":false,"rental_uris":{"android":"levelo://app?vid=7470f7ec-7c1d-489b-a8f1-7507a064b9c8","ios":"levelo://app?vid=7470f7ec-7c1d-489b-a8f1-7507a064b9c8"},"vehicle_type_id":"4","last_reported":1765959472,"current_range_meters":12800,"station_id":"st_d3svhcjqgbts73a3dn0g","pricing_plan_id":"cebpf4jnsgd1na2vs0mg"},{"bike_id":"6e071e61-9d6e-4a02-8914-eba8c7f9027d","system_id":"levelo_inurba_marseille","lat":43.284739,"lon":5.38428,"is_reserved":false,"is_disabled":false,"rental_uris":{"android":"levelo://app?vid=6e071e61-9d6e-4a02-8914-eba8c7f9027d","ios":"levelo://app?vid=6e071e61-9d6e-4a02-8914-eba8c7f9027d"},"vehicle_type_id":"4","last_reported":1765959472,"current_range_meters":12800,"station_id":"ce4bh512rcd13ifvqe3g","pricing_plan_id":"cebpf4jnsgd1na2vs0mg"},{"bike_id":"23c77aab-e0a6-42f5-b7a1-3bd6707fe7ea","system_id":"levelo_inurba_marseille","lat":43.30567,"lon":5.36514,"is_reserved":false,"is_disabled":false,"rental_uris":{"android":"levelo://app?vid=23c77aab-e0a6-42f5-b7a1-3bd6707fe7ea","ios":"levelo://app?vid=23c77aab-e0a6-42f5-b7a1-3bd6707fe7ea"},"vehicle_type_id":"4","last_reported":1765959472,"current_range_meters":12800,"station_id":"ce4bgs12rcd13ifvqcag","pricing_plan_id":"cebpf4jnsgd1na2vs0mg"},{"bike_id":"b0738893-45e6-4138-9c9e-9acdf9a10b24","system_id":"levelo_inurba_marseille","lat":43.29837,"lon":5.36263,"is_reserved":false,"is_disabled":false,"rental_uris":{"android":"levelo://app?vid=b0738893-45e6-4138-9c9e-9acdf9a10b24","ios":"levelo://app?vid=b0738893-45e6-4138-9c9e-9acdf9a10b24"},"vehicle_type_id":"4","last_reported":1765959472,"current_range_meters":12800,"station_id":"ce4bgpp2rcd13ifvqc3g","pricing_plan_id":"cebpf4jnsgd1na2vs0mg"},{"bike_id":"4b01f8a6-209f-46c8-9a08-4b43bc02774a","system_id":"levelo_inurba_marseille","lat":43.30901,"lon":5.36844,"is_reserved":false,"is_disabled":false,"rental_uris":{"android":"levelo://app?vid=4b01f8a6-209f-46c8-9a08-4b43bc02774a","ios":"levelo://app?vid=4b01f8a6-209f-46c8-9a08-4b43bc02774a"},"vehicle_type_id":"4","last_reported":1765959472,"current_range_meters":12800,"station_id":"ce4bgn92rcd13ifvqbvg","pricing_plan_id":"cebpf4jnsgd1na2vs0mg"},{"bike_id":"6eaf6cc4-b10f-435b-a4c3-93e897f6c344","system_id":"levelo_inurba_marseille","lat":43.2982,"lon":5.44065,"is_reserved":false,"is_disabled":false,"rental_uris":{"android":"levelo://app?vid=6eaf6cc4-b10f-435b-a4c3-93e897f6c344","ios":"levelo://app?vid=6eaf6cc4-b10f-435b-a4c3-93e897f6c344"},"vehicle_type_id":"4","last_reported":1765959472,"current_range_meters":13600,"station_id":"st_d3jp68qikq2c7381ktn0","pricing_plan_id":"cebpf4jnsgd1na2vs0mg"},{"bike_id":"418be939-71be-454b-b89c-cdd1f6cb17fc","system_id":"levelo_inurba_marseille","lat":43.29622,"lon":5.37172,"is_reserved":false,"is_disabled":false,"rental_uris":{"android":"levelo://app?vid=418be939-71be-454b-b89c-cdd1f6cb17fc","ios":"levelo://app?vid=418be939-71be-454b-b89c-cdd1f6cb17fc"},"vehicle_type_id":"4","last_reported":1765959472,"current_range_meters":13600,"station_id":"","pricing_plan_id":"cebpf4jnsgd1na2vs0mg"},{"bike_id":"901b3a8b-f4b8-43e9-b2c3-ef7ef69f1ad6","system_id":"levelo_inurba_marseille","lat":43.241824,"lon":5.397301,"is_reserved":false,"is_disabled":false,"rental_uris":{"android":"levelo://app?vid=901b3a8b-f4b8-43e9-b2c3-ef7ef69f1ad6","ios":"levelo://app?vid=901b3a8b-f4b8-43e9-b2c3-ef7ef69f1ad6"},"vehicle_type_id":"4","last_reported":1765959472,"current_range_meters":13600,"station_id":"ce4bhn12rcd13ifvqgpg","pricing_plan_id":"cebpf4jnsgd1na2vs0mg"},{"bike_id":"0a2d81af-c789-4426-af29-b843e405024e","system_id":"levelo_inurba_marseille","lat":43.26934,"lon":5.38657,"is_reserved":false,"is_disabled":false,"rental_uris":{"android":"levelo://app?vid=0a2d81af-c789-4426-af29-b843e405024e","ios":"levelo://app?vid=0a2d81af-c789-4426-af29-b843e405024e"},"vehicle_type_id":"4","last_reported":1765959472,"current_range_meters":13600,"station_id":"ce4bhh92rcd13ifvqfh0","pricing_plan_id":"cebpf4jnsgd1na2vs0mg"},{"bike_id":"9d239f71-7c5e-46d5-aa4b-e725c5b1437c","system_id":"levelo_inurba_marseille","lat":43.30554,"lon":5.36532,"is_reserved":false,"is_disabled":false,"rental_uris":{"android":"levelo://app?vid=9d239f71-7c5e-46d5-aa4b-e725c5b1437c","ios":"levelo://app?vid=9d239f71-7c5e-46d5-aa4b-e725c5b1437c"},"vehicle_type_id":"4","last_reported":1765959472,"current_range_meters":13600,"station_id":"ce4bgs12rcd13ifvqcag","pricing_plan_id":"cebpf4jnsgd1na2vs0mg"},{"bike_id":"2432f99d-27f2-42ef-b3e6-f7e71f39a4f6","system_id":"levelo_inurba_marseille","lat":43.30118,"lon":5.3684,"is_reserved":false,"is_disabled":false,"rental_uris":{"android":"levelo://app?vid=2432f99d-27f2-42ef-b3e6-f7e71f39a4f6","ios":"levelo://app?vid=2432f99d-27f2-42ef-b3e6-f7e71f39a4f6"},"vehicle_type_id":"4","last_reported":1765959472,"current_range_meters":13600,"station_id":"","pricing_plan_id":"cebpf4jnsgd1na2vs0mg"},{"bike_id":"35573f86-d1e8-4bbf-9beb-4d5bcab06d39","system_id":"levelo_inurba_marseille","lat":43.30558,"lon":5.3653,"is_reserved":false,"is_disabled":false,"rental_uris":{"android":"levelo://app?vid=35573f86-d1e8-4bbf-9beb-4d5bcab06d39","ios":"levelo://app?vid=35573f86-d1e8-4bbf-9beb-4d5bcab06d39"},"vehicle_type_id":"4","last_reported":1765959472,"current_range_meters":13600,"station_id":"ce4bgs12rcd13ifvqcag","pricing_plan_id":"cebpf4jnsgd1na2vs0mg"},{"bike_id":"34b27023-7f14-40c8-9c12-e20e4c4d6301","system_id":"levelo_inurba_marseille","lat":43.27619,"lon":5.36104,"is_reserved":false,"is_disabled":false,"rental_uris":{"android":"levelo://app?vid=34b27023-7f14-40c8-9c12-e20e4c4d6301","ios":"levelo://app?vid=34b27023-7f14-40c8-9c12-e20e4c4d6301"},"vehicle_type_id":"4","last_reported":1765959472,"current_range_meters":14000,"station_id":"ce4bgj92rcd13ifvqbe0","pricing_plan_id":"cebpf4jnsgd1na2vs0mg"},{"bike_id":"cae1478d-1268-4134-aa1e-c58d3eaf9d38","system_id":"levelo_inurba_marseille","lat":43.319243,"lon":5.400782,"is_reserved":false,"is_disabled":false,"rental_uris":{"android":"levelo://app?vid=cae1478d-1268-4134-aa1e-c58d3eaf9d38","ios":"levelo://app?vid=cae1478d-1268-4134-aa1e-c58d3eaf9d38"},"vehicle_type_id":"4","last_reported":1765959472,"current_range_meters":14000,"station_id":"","pricing_plan_id":"cebpf4jnsgd1na2vs0mg"},{"bike_id":"e83afe53-3337-4912-ab64-57122f432691","system_id":"levelo_inurba_marseille","lat":43.2439,"lon":5.37069,"is_reserved":false,"is_disabled":false,"rental_uris":{"android":"levelo://app?vid=e83afe53-3337-4912-ab64-57122f432691","ios":"levelo://app?vid=e83afe53-3337-4912-ab64-57122f432691"},"vehicle_type_id":"4","last_reported":1765959472,"current_range_meters":14000,"station_id":"ce4bhhh2rcd13ifvqfk0","pricing_plan_id":"cebpf4jnsgd1na2vs0mg"},{"bike_id":"82903da7-2cad-4a09-9e3b-db80a73433e1","system_id":"levelo_inurba_marseille","lat":43.28463,"lon":5.35892,"is_reserved":false,"is_disabled":true,"rental_uris":{"android":"levelo://app?vid=82903da7-2cad-4a09-9e3b-db80a73433e1","ios":"levelo://app?vid=82903da7-2cad-4a09-9e3b-db80a73433e1"},"vehicle_type_id":"4","last_reported":1765959472,"current_range_meters":14000,"station_id":"ce4bhah2rcd13ifvqei0","pricing_plan_id":"cebpf4jnsgd1na2vs0mg"},{"bike_id":"72393a95-42a5-49b8-b7d7-bab87b9932e6","system_id":"levelo_inurba_marseille","lat":43.3146,"lon":5.45371,"is_reserved":false,"is_disabled":false,"rental_uris":{"android":"levelo://app?vid=72393a95-42a5-49b8-b7d7-bab87b9932e6","ios":"levelo://app?vid=72393a95-42a5-49b8-b7d7-bab87b9932e6"},"vehicle_type_id":"4","last_reported":1765959472,"current_range_meters":14000,"station_id":"","pricing_plan_id":"cebpf4jnsgd1na2vs0mg"},{"bike_id":"735ff95f-d860-4da9-832b-460f44ce9ef6","system_id":"levelo_inurba_marseille","lat":43.30595,"lon":5.39368,"is_reserved":false,"is_disabled":false,"rental_uris":{"android":"levelo://app?vid=735ff95f-d860-4da9-832b-460f44ce9ef6","ios":"levelo://app?vid=735ff95f-d860-4da9-832b-460f44ce9ef6"},"vehicle_type_id":"4","last_reported":1765959472,"current_range_meters":14400,"station_id":"ce4bh0p2rcd13ifvqd80","pricing_plan_id":"cebpf4jnsgd1na2vs0mg"},{"bike_id":"f8a860be-9af5-4c9d-882d-9b730e70a7f7","system_id":"levelo_inurba_marseille","lat":43.299135,"lon":5.38137,"is_reserved":false,"is_disabled":true,"rental_uris":{"android":"levelo://app?vid=f8a860be-9af5-4c9d-882d-9b730e70a7f7","ios":"levelo://app?vid=f8a860be-9af5-4c9d-882d-9b730e70a7f7"},"vehicle_type_id":"4","last_reported":1765959472,"current_range_meters":14400,"station_id":"","pricing_plan_id":"cebpf4jnsgd1na2vs0mg"},{"bike_id":"053ef116-e694-4c46-9e9f-8b237e9c1313","system_id":"levelo_inurba_marseille","lat":43.24068,"lon":5.37753,"is_reserved":false,"is_disabled":false,"rental_uris":{"android":"levelo://app?vid=053ef116-e694-4c46-9e9f-8b237e9c1313","ios":"levelo://app?vid=053ef116-e694-4c46-9e9f-8b237e9c1313"},"vehicle_type_id":"4","last_reported":1765959472,"current_range_meters":14400,"station_id":"ce4bhnp2rcd13ifvqgvg","pricing_plan_id":"cebpf4jnsgd1na2vs0mg"},{"bike_id":"65b84533-8741-46b9-bb0d-285d5fc69333","system_id":"levelo_inurba_marseille","lat":43.29727,"lon":5.37699,"is_reserved":false,"is_disabled":false,"rental_uris":{"android":"levelo://app?vid=65b84533-8741-46b9-bb0d-285d5fc69333","ios":"levelo://app?vid=65b84533-8741-46b9-bb0d-285d5fc69333"},"vehicle_type_id":"4","last_reported":1765959472,"current_range_meters":14400,"station_id":"ce4bgkh2rcd13ifvqbl0","pricing_plan_id":"cebpf4jnsgd1na2vs0mg"},{"bike_id":"147a030a-a3ef-4cc1-8c9c-eba4bbe58a59","system_id":"levelo_inurba_marseille","lat":43.28862,"lon":5.39336,"is_reserved":false,"is_disabled":true,"rental_uris":{"android":"levelo://app?vid=147a030a-a3ef-4cc1-8c9c-eba4bbe58a59","ios":"levelo://app?vid=147a030a-a3ef-4cc1-8c9c-eba4bbe58a59"},"vehicle_type_id":"4","last_reported":1765959472,"current_range_meters":14400,"station_id":"ce4bh2p2rcd13ifvqdi0","pricing_plan_id":"cebpf4jnsgd1na2vs0mg"},{"bike_id":"540065f4-b9cc-492a-8ee2-e6cfe606f95e","system_id":"levelo_inurba_marseille","lat":43.33723,"lon":5.3748,"is_reserved":false,"is_disabled":false,"rental_uris":{"android":"levelo://app?vid=540065f4-b9cc-492a-8ee2-e6cfe606f95e","ios":"levelo://app?vid=540065f4-b9cc-492a-8ee2-e6cfe606f95e"},"vehicle_type_id":"4","last_reported":1765959472,"current_range_meters":14400,"station_id":"","pricing_plan_id":"cebpf4jnsgd1na2vs0mg"},{"bike_id":"c502cf50-8d9e-41ab-80d9-f09f0b489eb1","system_id":"levelo_inurba_marseille","lat":43.262082,"lon":5.374402,"is_reserved":false,"is_disabled":false,"rental_uris":{"android":"levelo://app?vid=c502cf50-8d9e-41ab-80d9-f09f0b489eb1","ios":"levelo://app?vid=c502cf50-8d9e-41ab-80d9-f09f0b489eb1"},"vehicle_type_id":"4","last_reported":1765959472,"current_range_meters":14800,"station_id":"","pricing_plan_id":"cebpf4jnsgd1na2vs0mg"},{"bike_id":"74cd885d-8c6b-484c-b1d9-ac81def21afc","system_id":"levelo_inurba_marseille","lat":43.28937,"lon":5.39629,"is_reserved":false,"is_disabled":false,"rental_uris":{"android":"levelo://app?vid=74cd885d-8c6b-484c-b1d9-ac81def21afc","ios":"levelo://app?vid=74cd885d-8c6b-484c-b1d9-ac81def21afc"},"vehicle_type_id":"4","last_reported":1765959472,"current_range_meters":14800,"station_id":"ce4bh3h2rcd13ifvqdn0","pricing_plan_id":"cebpf4jnsgd1na2vs0mg"},{"bike_id":"e6b60d36-cd4b-4ffe-802a-c9d6bd349be2","system_id":"levelo_inurba_marseille","lat":43.290584,"lon":5.371616,"is_reserved":false,"is_disabled":false,"rental_uris":{"android":"levelo://app?vid=e6b60d36-cd4b-4ffe-802a-c9d6bd349be2","ios":"levelo://app?vid=e6b60d36-cd4b-4ffe-802a-c9d6bd349be2"},"vehicle_type_id":"4","last_reported":1765959472,"current_range_meters":14800,"station_id":"ce4bh5p2rcd13ifvqe4g","pricing_plan_id":"cebpf4jnsgd1na2vs0mg"},{"bike_id":"c42cb838-06e1-489e-9fd0-0c3e226398cb","system_id":"levelo_inurba_marseille","lat":43.22563,"lon":5.41636,"is_reserved":false,"is_disabled":false,"rental_uris":{"android":"levelo://app?vid=c42cb838-06e1-489e-9fd0-0c3e226398cb","ios":"levelo://app?vid=c42cb838-06e1-489e-9fd0-0c3e226398cb"},"vehicle_type_id":"4","last_reported":1765959472,"current_range_meters":14800,"station_id":"st_d2o4gvlbi1j2169b742g","pricing_plan_id":"cebpf4jnsgd1na2vs0mg"},{"bike_id":"fe8b4597-b860-43e8-b7a3-80a16126a1b9","system_id":"levelo_inurba_marseille","lat":43.31357,"lon":5.36706,"is_reserved":false,"is_disabled":false,"rental_uris":{"android":"levelo://app?vid=fe8b4597-b860-43e8-b7a3-80a16126a1b9","ios":"levelo://app?vid=fe8b4597-b860-43e8-b7a3-80a16126a1b9"},"vehicle_type_id":"4","last_reported":1765959472,"current_range_meters":15200,"station_id":"ce4bgr92rcd13ifvqc6g","pricing_plan_id":"cebpf4jnsgd1na2vs0mg"},{"bike_id":"06479f1a-4795-4536-b2e0-ee1e0220aafe","system_id":"levelo_inurba_marseille","lat":43.30793,"lon":5.38123,"is_reserved":false,"is_disabled":false,"rental_uris":{"android":"levelo://app?vid=06479f1a-4795-4536-b2e0-ee1e0220aafe","ios":"levelo://app?vid=06479f1a-4795-4536-b2e0-ee1e0220aafe"},"vehicle_type_id":"4","last_reported":1765959472,"current_range_meters":15200,"station_id":"ce4bgt12rcd13ifvqce0","pricing_plan_id":"cebpf4jnsgd1na2vs0mg"},{"bike_id":"f71a1f1b-61c3-4937-b8ae-ba9d31ea3cd4","system_id":"levelo_inurba_marseille","lat":43.3121,"lon":5.36586,"is_reserved":false,"is_disabled":false,"rental_uris":{"android":"levelo://app?vid=f71a1f1b-61c3-4937-b8ae-ba9d31ea3cd4","ios":"levelo://app?vid=f71a1f1b-61c3-4937-b8ae-ba9d31ea3cd4"},"vehicle_type_id":"4","last_reported":1765959472,"current_range_meters":15200,"station_id":"","pricing_plan_id":"cebpf4jnsgd1na2vs0mg"},{"bike_id":"eea538cb-a33c-4d44-b728-d965ec2c0585","system_id":"levelo_inurba_marseille","lat":43.25003,"lon":5.38916,"is_reserved":false,"is_disabled":false,"rental_uris":{"android":"levelo://app?vid=eea538cb-a33c-4d44-b728-d965ec2c0585","ios":"levelo://app?vid=eea538cb-a33c-4d44-b728-d965ec2c0585"},"vehicle_type_id":"4","last_reported":1765959472,"current_range_meters":15200,"station_id":"ce4bhgp2rcd13ifvqfd0","pricing_plan_id":"cebpf4jnsgd1na2vs0mg"},{"bike_id":"e9d5c8fd-011f-4aa0-b95a-a78c8e676e23","system_id":"levelo_inurba_marseille","lat":43.33605,"lon":5.41023,"is_reserved":false,"is_disabled":false,"rental_uris":{"android":"levelo://app?vid=e9d5c8fd-011f-4aa0-b95a-a78c8e676e23","ios":"levelo://app?vid=e9d5c8fd-011f-4aa0-b95a-a78c8e676e23"},"vehicle_type_id":"4","last_reported":1765959472,"current_range_meters":15200,"station_id":"ce4bhqh2rcd13ifvqhmg","pricing_plan_id":"cebpf4jnsgd1na2vs0mg"},{"bike_id":"0eaebf46-1bd1-4aaf-b805-fb25a3bcd61e","system_id":"levelo_inurba_marseille","lat":43.29811,"lon":5.44073,"is_reserved":false,"is_disabled":false,"rental_uris":{"android":"levelo://app?vid=0eaebf46-1bd1-4aaf-b805-fb25a3bcd61e","ios":"levelo://app?vid=0eaebf46-1bd1-4aaf-b805-fb25a3bcd61e"},"vehicle_type_id":"4","last_reported":1765959472,"current_range_meters":15200,"station_id":"st_d3jp68qikq2c7381ktn0","pricing_plan_id":"cebpf4jnsgd1na2vs0mg"},{"bike_id":"babcbf2f-3149-4397-bed0-fc9fb158d7ef","system_id":"levelo_inurba_marseille","lat":43.27807,"lon":5.40709,"is_reserved":false,"is_disabled":false,"rental_uris":{"android":"levelo://app?vid=babcbf2f-3149-4397-bed0-fc9fb158d7ef","ios":"levelo://app?vid=babcbf2f-3149-4397-bed0-fc9fb158d7ef"},"vehicle_type_id":"4","last_reported":1765959472,"current_range_meters":15200,"station_id":"ce4bhnh2rcd13ifvqgtg","pricing_plan_id":"cebpf4jnsgd1na2vs0mg"},{"bike_id":"6e665bbf-ec69-475a-9fbb-e3987aa8c67f","system_id":"levelo_inurba_marseille","lat":43.3028,"lon":5.37695,"is_reserved":false,"is_disabled":false,"rental_uris":{"android":"levelo://app?vid=6e665bbf-ec69-475a-9fbb-e3987aa8c67f","ios":"levelo://app?vid=6e665bbf-ec69-475a-9fbb-e3987aa8c67f"},"vehicle_type_id":"4","last_reported":1765959472,"current_range_meters":15200,"station_id":"ce4bguh2rcd13ifvqcj0","pricing_plan_id":"cebpf4jnsgd1na2vs0mg"},{"bike_id":"577e8dfa-855d-43ff-8683-4513a6d95873","system_id":"levelo_inurba_marseille","lat":43.24059,"lon":5.37739,"is_reserved":false,"is_disabled":false,"rental_uris":{"android":"levelo://app?vid=577e8dfa-855d-43ff-8683-4513a6d95873","ios":"levelo://app?vid=577e8dfa-855d-43ff-8683-4513a6d95873"},"vehicle_type_id":"4","last_reported":1765959472,"current_range_meters":15200,"station_id":"ce4bhnp2rcd13ifvqgvg","pricing_plan_id":"cebpf4jnsgd1na2vs0mg"},{"bike_id":"8d483768-adea-4cdf-aef8-e32bc413d2f4","system_id":"levelo_inurba_marseille","lat":43.31342,"lon":5.36724,"is_reserved":false,"is_disabled":false,"rental_uris":{"android":"levelo://app?vid=8d483768-adea-4cdf-aef8-e32bc413d2f4","ios":"levelo://app?vid=8d483768-adea-4cdf-aef8-e32bc413d2f4"},"vehicle_type_id":"4","last_reported":1765959472,"current_range_meters":15200,"station_id":"ce4bgr92rcd13ifvqc6g","pricing_plan_id":"cebpf4jnsgd1na2vs0mg"},{"bike_id":"3f85392e-7751-4fbe-9206-afff2b3033e2","system_id":"levelo_inurba_marseille","lat":43.30379,"lon":5.42481,"is_reserved":false,"is_disabled":false,"rental_uris":{"android":"levelo://app?vid=3f85392e-7751-4fbe-9206-afff2b3033e2","ios":"levelo://app?vid=3f85392e-7751-4fbe-9206-afff2b3033e2"},"vehicle_type_id":"4","last_reported":1765959472,"current_range_meters":15200,"station_id":"ce4bhoh2rcd13ifvqh6g","pricing_plan_id":"cebpf4jnsgd1na2vs0mg"},{"bike_id":"65c15a30-f223-4762-aca1-eb2d75fcef70","system_id":"levelo_inurba_marseille","lat":43.28734,"lon":5.3793,"is_reserved":false,"is_disabled":false,"rental_uris":{"android":"levelo://app?vid=65c15a30-f223-4762-aca1-eb2d75fcef70","ios":"levelo://app?vid=65c15a30-f223-4762-aca1-eb2d75fcef70"},"vehicle_type_id":"4","last_reported":1765959472,"current_range_meters":15200,"station_id":"ce4bh9p2rcd13ifvqec0","pricing_plan_id":"cebpf4jnsgd1na2vs0mg"},{"bike_id":"459ef7f7-0be2-4a4f-a865-5a1e9069693b","system_id":"levelo_inurba_marseille","lat":43.28339,"lon":5.41295,"is_reserved":false,"is_disabled":false,"rental_uris":{"android":"levelo://app?vid=459ef7f7-0be2-4a4f-a865-5a1e9069693b","ios":"levelo://app?vid=459ef7f7-0be2-4a4f-a865-5a1e9069693b"},"vehicle_type_id":"4","last_reported":1765959472,"current_range_meters":16000,"station_id":"","pricing_plan_id":"cebpf4jnsgd1na2vs0mg"},{"bike_id":"026e8651-2767-4fc0-b1c3-2f40b04d4561","system_id":"levelo_inurba_marseille","lat":43.2849,"lon":5.48371,"is_reserved":false,"is_disabled":false,"rental_uris":{"android":"levelo://app?vid=026e8651-2767-4fc0-b1c3-2f40b04d4561","ios":"levelo://app?vid=026e8651-2767-4fc0-b1c3-2f40b04d4561"},"vehicle_type_id":"4","last_reported":1765959472,"current_range_meters":16000,"station_id":"st_d3svhcjqgbts73a3dn0g","pricing_plan_id":"cebpf4jnsgd1na2vs0mg"},{"bike_id":"b3a49f36-a258-40ec-9242-2443096e5bd7","system_id":"levelo_inurba_marseille","lat":43.30909,"lon":5.36843,"is_reserved":false,"is_disabled":false,"rental_uris":{"android":"levelo://app?vid=b3a49f36-a258-40ec-9242-2443096e5bd7","ios":"levelo://app?vid=b3a49f36-a258-40ec-9242-2443096e5bd7"},"vehicle_type_id":"4","last_reported":1765959472,"current_range_meters":16000,"station_id":"ce4bgn92rcd13ifvqbvg","pricing_plan_id":"cebpf4jnsgd1na2vs0mg"},{"bike_id":"52d7192a-2abe-45ef-aea5-cb8b46ad2637","system_id":"levelo_inurba_marseille","lat":43.336086,"lon":5.410357,"is_reserved":false,"is_disabled":false,"rental_uris":{"android":"levelo://app?vid=52d7192a-2abe-45ef-aea5-cb8b46ad2637","ios":"levelo://app?vid=52d7192a-2abe-45ef-aea5-cb8b46ad2637"},"vehicle_type_id":"4","last_reported":1765959472,"current_range_meters":16000,"station_id":"ce4bhqh2rcd13ifvqhmg","pricing_plan_id":"cebpf4jnsgd1na2vs0mg"},{"bike_id":"ead11a55-f4b0-44f1-9f1d-5981fe3c4e4a","system_id":"levelo_inurba_marseille","lat":43.25107,"lon":5.40322,"is_reserved":false,"is_disabled":true,"rental_uris":{"android":"levelo://app?vid=ead11a55-f4b0-44f1-9f1d-5981fe3c4e4a","ios":"levelo://app?vid=ead11a55-f4b0-44f1-9f1d-5981fe3c4e4a"},"vehicle_type_id":"4","last_reported":1765959472,"current_range_meters":16000,"station_id":"ce4bhlh2rcd13ifvqgig","pricing_plan_id":"cebpf4jnsgd1na2vs0mg"},{"bike_id":"50d33456-bf1c-4376-ba8b-e3d3d2f0e44a","system_id":"levelo_inurba_marseille","lat":43.29031,"lon":5.39966,"is_reserved":false,"is_disabled":false,"rental_uris":{"android":"levelo://app?vid=50d33456-bf1c-4376-ba8b-e3d3d2f0e44a","ios":"levelo://app?vid=50d33456-bf1c-4376-ba8b-e3d3d2f0e44a"},"vehicle_type_id":"4","last_reported":1765959472,"current_range_meters":16000,"station_id":"ce4bh392rcd13ifvqdm0","pricing_plan_id":"cebpf4jnsgd1na2vs0mg"},{"bike_id":"6b16acc7-a80b-4f96-ae73-b1410de5081b","system_id":"levelo_inurba_marseille","lat":43.28616,"lon":5.35104,"is_reserved":false,"is_disabled":true,"rental_uris":{"android":"levelo://app?vid=6b16acc7-a80b-4f96-ae73-b1410de5081b","ios":"levelo://app?vid=6b16acc7-a80b-4f96-ae73-b1410de5081b"},"vehicle_type_id":"4","last_reported":1765959472,"current_range_meters":16000,"station_id":"ce4bhch2rcd13ifvqeug","pricing_plan_id":"cebpf4jnsgd1na2vs0mg"},{"bike_id":"fedcd8c6-9dd1-49f7-a439-c3d118a3a7ba","system_id":"levelo_inurba_marseille","lat":43.32101,"lon":5.36769,"is_reserved":false,"is_disabled":false,"rental_uris":{"android":"levelo://app?vid=fedcd8c6-9dd1-49f7-a439-c3d118a3a7ba","ios":"levelo://app?vid=fedcd8c6-9dd1-49f7-a439-c3d118a3a7ba"},"vehicle_type_id":"4","last_reported":1765959472,"current_range_meters":16000,"station_id":"ce4bhrh2rcd13ifvqhug","pricing_plan_id":"cebpf4jnsgd1na2vs0mg"},