{"last_updated":1773184648,"ttl":60,"version":"2.2","data":{"bikes":[{"bike_id":"bd334b99-1100-447f-a433-39bd3e02f36e","system_id":"levelo_inurba_marseille","lat":43.24144,"lon":5.36413,"is_reserved":false,"is_disabled":false,"rental_uris":{"android":"levelo://app?vid=bd334b99-1100-447f-a433-39bd3e02f36e","ios":"levelo://app?vid=bd334b99-1100-447f-a433-39bd3e02f36e"},"vehicle_type_id":"4","last_reported":1773184649,"current_range_meters":8800,"station_id":"cpo36qri1sfpv3e86is0","pricing_plan_id":"cebpf4jnsgd1na2vs0mg"},{"bike_id":"c58e631c-2aa0-4562-9b1d-9233b8f93e38","system_id":"levelo_inurba_marseille","lat":43.25889,"lon":5.39878,"is_reserved":false,"is_disabled":false,"rental_uris":{"android":"levelo://app?vid=c58e631c-2aa0-4562-9b1d-9233b8f93e38","ios":"levelo://app?vid=c58e631c-2aa0-4562-9b1d-9233b8f93e38"},"vehicle_type_id":"4","last_reported":1773184649,"current_range_meters":39200,"station_id":"ce4bhl92rcd13ifvqghg","pricing_plan_id":"cebpf4jnsgd1na2vs0mg"},{"bike_id":"5bfd5e8b-0863-471b-997b-ec125c70364c","system_id":"levelo_inurba_marseille","lat":43.29445,"lon":5.39758,"is_reserved":false,"is_disabled":false,"rental_uris":{"android":"levelo://app?vid=5bfd5e8b-0863-471b-997b-ec125c70364c","ios":"levelo://app?vid=5bfd5e8b-0863-471b-997b-ec125c70364c"},"vehicle_type_id":"4","last_reported":1773184649,"current_range_meters":37600,"station_id":"ce4bh3h2rcd13ifvqdo0","pricing_plan_id":"cebpf4jnsgd1na2vs0mg"},{"bike_id":"278f3d9d-943c-4371-9b6c-9b8a4f55ad98","system_id":"levelo_inurba_marseille","lat":43.28726,"lon":5.36086,"is_reserved":false,"is_disabled":false,"rental_uris":{"android":"levelo://app?vid=278f3d9d-943c-4371-9b6c-9b8a4f55ad98","ios":"levelo://app?vid=278f3d9d-943c-4371-9b6c-9b8a4f55ad98"},"vehicle_type_id":"4","last_reported":1773184649,"current_range_meters":10800,"station_id":"cki0cbj6b192h4jlfktg","pricing_plan_id":"cebpf4jnsgd1na2vs0mg"},{"bike_id":"52f6420f-0eb9-4b9f-9fde-0d25053348cb","system_id":"levelo_inurba_marseille","lat":43.30889,"lon":5.39645,"is_reserved":false,"is_disabled":false,"rental_uris":{"android":"levelo://app?vid=52f6420f-0eb9-4b9f-9fde-0d25053348cb","ios":"levelo://app?vid=52f6420f-0eb9-4b9f-9fde-0d25053348cb"},"vehicle_type_id":"4","last_reported":1773184649,"current_range_meters":39200,"station_id":"ce4bh012rcd13ifvqcv0","pricing_plan_id":"cebpf4jnsgd1na2vs0mg"},{"bike_id":"c702fd9a-cb30-4a24-9245-d1979d224534","system_id":"levelo_inurba_marseille","lat":43.2962,"lon":5.37736,"is_reserved":false,"is_disabled":false,"rental_uris":{"android":"levelo://app?vid=c702fd9a-cb30-4a24-9245-d1979d224534","ios":"levelo://app?vid=c702fd9a-cb30-4a24-9245-d1979d224534"},"vehicle_type_id":"4","last_reported":1773184649,"current_range_meters":36800,"station_id":"ce4bgi92rcd13ifvqb90","pricing_plan_id":"cebpf4jnsgd1na2vs0mg"},{"bike_id":"3dd345f6-1dc2-4713-883c-b3d71d8a59c7","system_id":"levelo_inurba_marseille","lat":43.29274,"lon":5.40117,"is_reserved":false,"is_disabled":false,"rental_uris":{"android":"levelo://app?vid=3dd345f6-1dc2-4713-883c-b3d71d8a59c7","ios":"levelo://app?vid=3dd345f6-1dc2-4713-883c-b3d71d8a59c7"},"vehicle_type_id":"4","last_reported":1773184649,"current_range_meters":18000,"station_id":"ce4bh312rcd13ifvqdk0","pricing_plan_id":"cebpf4jnsgd1na2vs0mg"},{"bike_id":"beb344ca-4534-4ba9-9c05-5bf124c258c5","system_id":"levelo_inurba_marseille","lat":43.29285,"lon":5.40111,"is_reserved":false,"is_disabled":false,"rental_uris":{"android":"levelo://app?vid=beb344ca-4534-4ba9-9c05-5bf124c258c5","ios":"levelo://app?vid=beb344ca-4534-4ba9-9c05-5bf124c258c5"},"vehicle_type_id":"4","last_reported":1773184649,"current_range_meters":14800,"station_id":"ce4bh312rcd13ifvqdk0","pricing_plan_id":"cebpf4jnsgd1na2vs0mg"},{"bike_id":"ce46e04a-4db4-4147-b9e0-da78a10d576b","system_id":"levelo_inurba_marseille","lat":43.29204,"lon":5.39318,"is_reserved":false,"is_disabled":false,"rental_uris":{"android":"levelo://app?vid=ce46e04a-4db4-4147-b9e0-da78a10d576b","ios":"levelo://app?vid=ce46e04a-4db4-4147-b9e0-da78a10d576b"},"vehicle_type_id":"4","last_reported":1773184649,"current_range_meters":39200,"station_id":"ce4bh192rcd13ifvqdd0","pricing_plan_id":"cebpf4jnsgd1na2vs0mg"},{"bike_id":"5061e64b-7a6f-416d-95f6-434ea56b6a99","system_id":"levelo_inurba_marseille","lat":43.3464,"lon":5.36722,"is_reserved":false,"is_disabled":false,"rental_uris":{"android":"levelo://app?vid=5061e64b-7a6f-416d-95f6-434ea56b6a99","ios":"levelo://app?vid=5061e64b-7a6f-416d-95f6-434ea56b6a99"},"vehicle_type_id":"4","last_reported":1773184649,"current_range_meters":32000,"station_id":"","pricing_plan_id":"cebpf4jnsgd1na2vs0mg"},{"bike_id":"5fa59ccf-77d0-45df-afe7-54550a0fd2d4","system_id":"levelo_inurba_marseille","lat":43.27432,"lon":5.39395,"is_reserved":false,"is_disabled":false,"rental_uris":{"android":"levelo://app?vid=5fa59ccf-77d0-45df-afe7-54550a0fd2d4","ios":"levelo://app?vid=5fa59ccf-77d0-45df-afe7-54550a0fd2d4"},"vehicle_type_id":"4","last_reported":1773184649,"current_range_meters":32800,"station_id":"ce4bhdp2rcd13ifvqf20","pricing_plan_id":"cebpf4jnsgd1na2vs0mg"},{"bike_id":"9faea34b-1c48-4a1b-8f51-2bafe5184a50","system_id":"levelo_inurba_marseille","lat":43.28479,"lon":5.48393,"is_reserved":false,"is_disabled":false,"rental_uris":{"android":"levelo://app?vid=9faea34b-1c48-4a1b-8f51-2bafe5184a50","ios":"levelo://app?vid=9faea34b-1c48-4a1b-8f51-2bafe5184a50"},"vehicle_type_id":"4","last_reported":1773184649,"current_range_meters":36800,"station_id":"st_d3svhcjqgbts73a3dn0g","pricing_plan_id":"cebpf4jnsgd1na2vs0mg"},{"bike_id":"3ed7cc46-dfe0-48b3-b403-50ad5ae704c8","system_id":"levelo_inurba_marseille","lat":43.29939,"lon":5.3654,"is_reserved":false,"is_disabled":false,"rental_uris":{"android":"levelo://app?vid=3ed7cc46-dfe0-48b3-b403-50ad5ae704c8","ios":"levelo://app?vid=3ed7cc46-dfe0-48b3-b403-50ad5ae704c8"},"vehicle_type_id":"4","last_reported":1773184649,"current_range_meters":38000,"station_id":"ce4bgm92rcd13ifvqbr0","pricing_plan_id":"cebpf4jnsgd1na2vs0mg"},{"bike_id":"d427d34d-e739-4c0f-a843-74b85111544b","system_id":"levelo_inurba_marseille","lat":43.33153,"lon":5.37698,"is_reserved":false,"is_disabled":false,"rental_uris":{"android":"levelo://app?vid=d427d34d-e739-4c0f-a843-74b85111544b","ios":"levelo://app?vid=d427d34d-e739-4c0f-a843-74b85111544b"},"vehicle_type_id":"4","last_reported":1773184649,"current_range_meters":31200,"station_id":"st_d46cu089ee8s73dldbu0","pricing_plan_id":"cebpf4jnsgd1na2vs0mg"},{"bike_id":"573d947c-41cc-4f73-b77c-370cb9447a2f","system_id":"levelo_inurba_marseille","lat":43.30532,"lon":5.3672,"is_reserved":false,"is_disabled":false,"rental_uris":{"android":"levelo://app?vid=573d947c-41cc-4f73-b77c-370cb9447a2f","ios":"levelo://app?vid=573d947c-41cc-4f73-b77c-370cb9447a2f"},"vehicle_type_id":"4","last_reported":1773184649,"current_range_meters":36000,"station_id":"ce4bgrp2rcd13ifvqc9g","pricing_plan_id":"cebpf4jnsgd1na2vs0mg"},{"bike_id":"76f2eca3-ac84-438d-878d-901d76cba811","system_id":"levelo_inurba_marseille","lat":43.279905,"lon":5.4001,"is_reserved":false,"is_disabled":false,"rental_uris":{"android":"levelo://app?vid=76f2eca3-ac84-438d-878d-901d76cba811","ios":"levelo://app?vid=76f2eca3-ac84-438d-878d-901d76cba811"},"vehicle_type_id":"4","last_reported":1773184649,"current_range_meters":19600,"station_id":"ce4bho92rcd13ifvqh4g","pricing_plan_id":"cebpf4jnsgd1na2vs0mg"},{"bike_id":"7f4d7548-ba98-4932-82cf-ac8fae815834","system_id":"levelo_inurba_marseille","lat":43.27848,"lon":5.39201,"is_reserved":false,"is_disabled":false,"rental_uris":{"android":"levelo://app?vid=7f4d7548-ba98-4932-82cf-ac8fae815834","ios":"levelo://app?vid=7f4d7548-ba98-4932-82cf-ac8fae815834"},"vehicle_type_id":"4","last_reported":1773184649,"current_range_meters":38000,"station_id":"ce4bhjp2rcd13ifvqga0","pricing_plan_id":"cebpf4jnsgd1na2vs0mg"},{"bike_id":"c943c8f2-fd97-497f-b02c-47e60712859d","system_id":"levelo_inurba_marseille","lat":43.25828,"lon":5.39433,"is_reserved":false,"is_disabled":false,"rental_uris":{"android":"levelo://app?vid=c943c8f2-fd97-497f-b02c-47e60712859d","ios":"levelo://app?vid=c943c8f2-fd97-497f-b02c-47e60712859d"},"vehicle_type_id":"4","last_reported":1773184649,"current_range_meters":28800,"station_id":"ce4bhip2rcd13ifvqft0","pricing_plan_id":"cebpf4jnsgd1na2vs0mg"},{"bike_id":"0f675a24-6d19-4cf2-bb59-e88ca9061d3a","system_id":"levelo_inurba_marseille","lat":43.29508,"lon":5.39417,"is_reserved":false,"is_disabled":false,"rental_uris":{"android":"levelo://app?vid=0f675a24-6d19-4cf2-bb59-e88ca9061d3a","ios":"levelo://app?vid=0f675a24-6d19-4cf2-bb59-e88ca9061d3a"},"vehicle_type_id":"4","last_reported":1773184649,"current_range_meters":16800,"station_id":"ce4bh292rcd13ifvqdf0","pricing_plan_id":"cebpf4jnsgd1na2vs0mg"},{"bike_id":"88450bb4-cd8a-4cf4-942e-60848487f806","system_id":"levelo_inurba_marseille","lat":43.28267,"lon":5.35084,"is_reserved":false,"is_disabled":false,"rental_uris":{"android":"levelo://app?vid=88450bb4-cd8a-4cf4-942e-60848487f806","ios":"levelo://app?vid=88450bb4-cd8a-4cf4-942e-60848487f806"},"vehicle_type_id":"4","last_reported":1773184649,"current_range_meters":33600,"station_id":"ce4bhbp2rcd13ifvqerg","pricing_plan_id":"cebpf4jnsgd1na2vs0mg"},{"bike_id":"913fb0ac-86ae-420a-9f83-517ee9c2fc7a","system_id":"levelo_inurba_marseille","lat":43.24811,"lon":5.37455,"is_reserved":false,"is_disabled":false,"rental_uris":{"android":"levelo://app?vid=913fb0ac-86ae-420a-9f83-517ee9c2fc7a","ios":"levelo://app?vid=913fb0ac-86ae-420a-9f83-517ee9c2fc7a"},"vehicle_type_id":"4","last_reported":1773184649,"current_range_meters":29600,"station_id":"ce4bhgh2rcd13ifvqfb0","pricing_plan_id":"cebpf4jnsgd1na2vs0mg"},{"bike_id":"5cfc603b-29fb-4936-93b0-d2cfd02c0ab1","system_id":"levelo_inurba_marseille","lat":43.24819,"lon":5.37451,"is_reserved":false,"is_disabled":false,"rental_uris":{"android":"levelo://app?vid=5cfc603b-29fb-4936-93b0-d2cfd02c0ab1","ios":"levelo://app?vid=5cfc603b-29fb-4936-93b0-d2cfd02c0ab1"},"vehicle_type_id":"4","last_reported":1773184649,"current_range_meters":34000,"station_id":"ce4bhgh2rcd13ifvqfb0","pricing_plan_id":"cebpf4jnsgd1na2vs0mg"},{"bike_id":"4be35303-a285-477a-a9f7-112d75dc7eb6","system_id":"levelo_inurba_marseille","lat":43.3094,"lon":5.39056,"is_reserved":false,"is_disabled":false,"rental_uris":{"android":"levelo://app?vid=4be35303-a285-477a-a9f7-112d75dc7eb6","ios":"levelo://app?vid=4be35303-a285-477a-a9f7-112d75dc7eb6"},"vehicle_type_id":"4","last_reported":1773184649,"current_range_meters":27200,"station_id":"ce4bgup2rcd13ifvqco0","pricing_plan_id":"cebpf4jnsgd1na2vs0mg"},{"bike_id":"69937d6b-0ad4-476f-a55d-d6a587fba769","system_id":"levelo_inurba_marseille","lat":43.28455,"lon":5.35892,"is_reserved":false,"is_disabled":false,"rental_uris":{"android":"levelo://app?vid=69937d6b-0ad4-476f-a55d-d6a587fba769","ios":"levelo://app?vid=69937d6b-0ad4-476f-a55d-d6a587fba769"},"vehicle_type_id":"4","last_reported":1773184649,"current_range_meters":25200,"station_id":"ce4bhah2rcd13ifvqei0","pricing_plan_id":"cebpf4jnsgd1na2vs0mg"},{"bike_id":"9f750502-900e-4298-a083-f138285ae7a6","system_id":"levelo_inurba_marseille","lat":43.30627,"lon":5.40073,"is_reserved":false,"is_disabled":false,"rental_uris":{"android":"levelo://app?vid=9f750502-900e-4298-a083-f138285ae7a6","ios":"levelo://app?vid=9f750502-900e-4298-a083-f138285ae7a6"},"vehicle_type_id":"4","last_reported":1773184649,"current_range_meters":26800,"station_id":"ce4bh112rcd13ifvqda0","pricing_plan_id":"cebpf4jnsgd1na2vs0mg"},{"bike_id":"80d9c585-717b-48ff-bcbe-ef475313aca3","system_id":"levelo_inurba_marseille","lat":43.28078,"lon":5.39643,"is_reserved":false,"is_disabled":false,"rental_uris":{"android":"levelo://app?vid=80d9c585-717b-48ff-bcbe-ef475313aca3","ios":"levelo://app?vid=80d9c585-717b-48ff-bcbe-ef475313aca3"},"vehicle_type_id":"4","last_reported":1773184649,"current_range_meters":36800,"station_id":"ce4bho12rcd13ifvqh2g","pricing_plan_id":"cebpf4jnsgd1na2vs0mg"},{"bike_id":"5a595904-25a5-4fb8-b8dd-531cb59359d8","system_id":"levelo_inurba_marseille","lat":43.32008,"lon":5.38156,"is_reserved":false,"is_disabled":false,"rental_uris":{"android":"levelo://app?vid=5a595904-25a5-4fb8-b8dd-531cb59359d8","ios":"levelo://app?vid=5a595904-25a5-4fb8-b8dd-531cb59359d8"},"vehicle_type_id":"4","last_reported":1773184649,"current_range_meters":40000,"station_id":"ce4bhr12rcd13ifvqhpg","pricing_plan_id":"cebpf4jnsgd1na2vs0mg"},{"bike_id":"ff30073f-a631-474f-8c5b-fcb761d3b229","system_id":"levelo_inurba_marseille","lat":43.28941,"lon":5.39625,"is_reserved":false,"is_disabled":false,"rental_uris":{"android":"levelo://app?vid=ff30073f-a631-474f-8c5b-fcb761d3b229","ios":"levelo://app?vid=ff30073f-a631-474f-8c5b-fcb761d3b229"},"vehicle_type_id":"4","last_reported":1773184649,"current_range_meters":32000,"station_id":"ce4bh3h2rcd13ifvqdn0","pricing_plan_id":"cebpf4jnsgd1na2vs0mg"},{"bike_id":"de489262-d353-4529-a718-c34e1bdeed67","system_id":"levelo_inurba_marseille","lat":43.27492,"lon":5.41572,"is_reserved":false,"is_disabled":false,"rental_uris":{"android":"levelo://app?vid=de489262-d353-4529-a718-c34e1bdeed67","ios":"levelo://app?vid=de489262-d353-4529-a718-c34e1bdeed67"},"vehicle_type_id":"4","last_reported":1773184649,"current_range_meters":4400,"station_id":"st_d6im8g6chgec73a5pndg","pricing_plan_id":"cebpf4jnsgd1na2vs0mg"},{"bike_id":"f41cfb42-0ff7-49c2-9aeb-0d17a0584783","system_id":"levelo_inurba_marseille","lat":43.32293,"lon":5.38287,"is_reserved":false,"is_disabled":false,"rental_uris":{"android":"levelo://app?vid=f41cfb42-0ff7-49c2-9aeb-0d17a0584783","ios":"levelo://app?vid=f41cfb42-0ff7-49c2-9aeb-0d17a0584783"},"vehicle_type_id":"4","last_reported":1773184649,"current_range_meters":39200,"station_id":"ce4bhr12rcd13ifvqhqg","pricing_plan_id":"cebpf4jnsgd1na2vs0mg"},{"bike_id":"d758fa9c-0dda-48b5-aa13-54ef9f268249","system_id":"levelo_inurba_marseille","lat":43.28726,"lon":5.36086,"is_reserved":false,"is_disabled":false,"rental_uris":{"android":"levelo://app?vid=d758fa9c-0dda-48b5-aa13-54ef9f268249","ios":"levelo://app?vid=d758fa9c-0dda-48b5-aa13-54ef9f268249"},"vehicle_type_id":"4","last_reported":1773184649,"current_range_meters":38800,"station_id":"cki0cbj6b192h4jlfktg","pricing_plan_id":"cebpf4jnsgd1na2vs0mg"},{"bike_id":"66796482-b4de-4f94-b605-12681c60b721","system_id":"levelo_inurba_marseille","lat":43.325,"lon":5.41476,"is_reserved":false,"is_disabled":false,"rental_uris":{"android":"levelo://app?vid=66796482-b4de-4f94-b605-12681c60b721","ios":"levelo://app?vid=66796482-b4de-4f94-b605-12681c60b721"},"vehicle_type_id":"4","last_reported":1773184649,"current_range_meters":4000,"station_id":"ce4bhq12rcd13ifvqhhg","pricing_plan_id":"cebpf4jnsgd1na2vs0mg"},{"bike_id":"d460b25f-6966-4f7a-9001-1f7215b67b27","system_id":"levelo_inurba_marseille","lat":43.22565,"lon":5.41634,"is_reserved":false,"is_disabled":false,"rental_uris":{"android":"levelo://app?vid=d460b25f-6966-4f7a-9001-1f7215b67b27","ios":"levelo://app?vid=d460b25f-6966-4f7a-9001-1f7215b67b27"},"vehicle_type_id":"4","last_reported":1773184649,"current_range_meters":38400,"station_id":"st_d2o4gvlbi1j2169b742g","pricing_plan_id":"cebpf4jnsgd1na2vs0mg"},{"bike_id":"d0e204b5-6dd1-4f52-88bc-3b2bdf1cb73b","system_id":"levelo_inurba_marseille","lat":43.28408,"lon":5.34992,"is_reserved":false,"is_disabled":false,"rental_uris":{"android":"levelo://app?vid=d0e204b5-6dd1-4f52-88bc-3b2bdf1cb73b","ios":"levelo://app?vid=d0e204b5-6dd1-4f52-88bc-3b2bdf1cb73b"},"vehicle_type_id":"4","last_reported":1773184649,"current_range_meters":36800,"station_id":"ce4bhbh2rcd13ifvqepg","pricing_plan_id":"cebpf4jnsgd1na2vs0mg"},{"bike_id":"4035076b-e1f7-4550-ba18-40b5d2e4f17a","system_id":"levelo_inurba_marseille","lat":43.25822,"lon":5.39432,"is_reserved":false,"is_disabled":false,"rental_uris":{"android":"levelo://app?vid=4035076b-e1f7-4550-ba18-40b5d2e4f17a","ios":"levelo://app?vid=4035076b-e1f7-4550-ba18-40b5d2e4f17a"},"vehicle_type_id":"4","last_reported":1773184649,"current_range_meters":10000,"station_id":"ce4bhip2rcd13ifvqft0","pricing_plan_id":"cebpf4jnsgd1na2vs0mg"},{"bike_id":"182a33c2-192b-4c16-af77-c32682d4109b","system_id":"levelo_inurba_marseille","lat":43.2419,"lon":5.3973,"is_reserved":false,"is_disabled":true,"rental_uris":{"android":"levelo://app?vid=182a33c2-192b-4c16-af77-c32682d4109b","ios":"levelo://app?vid=182a33c2-192b-4c16-af77-c32682d4109b"},"vehicle_type_id":"4","last_reported":1773184649,"current_range_meters":37600,"station_id":"ce4bhn12rcd13ifvqgpg","pricing_plan_id":"cebpf4jnsgd1na2vs0mg"},{"bike_id":"1a3a5560-3e07-4e54-8aa7-c954adec59b1","system_id":"levelo_inurba_marseille","lat":43.28852,"lon":5.35855,"is_reserved":false,"is_disabled":false,"rental_uris":{"android":"levelo://app?vid=1a3a5560-3e07-4e54-8aa7-c954adec59b1","ios":"levelo://app?vid=1a3a5560-3e07-4e54-8aa7-c954adec59b1"},"vehicle_type_id":"4","last_reported":1773184649,"current_range_meters":36000,"station_id":"ce4bhb12rcd13ifvqem0","pricing_plan_id":"cebpf4jnsgd1na2vs0mg"},{"bike_id":"539fd7c5-5646-434a-9078-e9a8e1b4bd94","system_id":"levelo_inurba_marseille","lat":43.28511,"lon":5.38412,"is_reserved":false,"is_disabled":true,"rental_uris":{"android":"levelo://app?vid=539fd7c5-5646-434a-9078-e9a8e1b4bd94","ios":"levelo://app?vid=539fd7c5-5646-434a-9078-e9a8e1b4bd94"},"vehicle_type_id":"4","last_reported":1773184649,"current_range_meters":34800,"station_id":"ce4bh512rcd13ifvqe3g","pricing_plan_id":"cebpf4jnsgd1na2vs0mg"},{"bike_id":"fb73e492-0f02-46ee-892f-91bb433bfacd","system_id":"levelo_inurba_marseille","lat":43.25577,"lon":5.38237,"is_reserved":false,"is_disabled":false,"rental_uris":{"android":"levelo://app?vid=fb73e492-0f02-46ee-892f-91bb433bfacd","ios":"levelo://app?vid=fb73e492-0f02-46ee-892f-91bb433bfacd"},"vehicle_type_id":"4","last_reported":1773184649,"current_range_meters":35600,"station_id":"ce4bhih2rcd13ifvqfs0","pricing_plan_id":"cebpf4jnsgd1na2vs0mg"},{"bike_id":"709f70b1-797d-40ab-b049-eb1448f2fea7","system_id":"levelo_inurba_marseille","lat":43.28848,"lon":5.393,"is_reserved":false,"is_disabled":false,"rental_uris":{"android":"levelo://app?vid=709f70b1-797d-40ab-b049-eb1448f2fea7","ios":"levelo://app?vid=709f70b1-797d-40ab-b049-eb1448f2fea7"},"vehicle_type_id":"4","last_reported":1773184649,"current_range_meters":9600,"station_id":"ce4bh2p2rcd13ifvqdi0","pricing_plan_id":"cebpf4jnsgd1na2vs0mg"},{"bike_id":"2d9557bc-b82b-4086-a1ef-6c48ec23e940","system_id":"levelo_inurba_marseille","lat":43.29681,"lon":5.37302,"is_reserved":false,"is_disabled":false,"rental_uris":{"android":"levelo://app?vid=2d9557bc-b82b-4086-a1ef-6c48ec23e940","ios":"levelo://app?vid=2d9557bc-b82b-4086-a1ef-6c48ec23e940"},"vehicle_type_id":"4","last_reported":1773184649,"current_range_meters":39200,"station_id":"ce4bgk12rcd13ifvqbj0","pricing_plan_id":"cebpf4jnsgd1na2vs0mg"},{"bike_id":"faa6004d-cd41-4008-8bcc-b182163123b5","system_id":"levelo_inurba_marseille","lat":43.24175,"lon":5.36405,"is_reserved":false,"is_disabled":false,"rental_uris":{"android":"levelo://app?vid=faa6004d-cd41-4008-8bcc-b182163123b5","ios":"levelo://app?vid=faa6004d-cd41-4008-8bcc-b182163123b5"},"vehicle_type_id":"4","last_reported":1773184649,"current_range_meters":14000,"station_id":"cpo36qri1sfpv3e86is0","pricing_plan_id":"cebpf4jnsgd1na2vs0mg"},{"bike_id":"643a041d-3faf-4dc4-a3ad-d2cb17d6236c","system_id":"levelo_inurba_marseille","lat":43.29902,"lon":5.37469,"is_reserved":false,"is_disabled":false,"rental_uris":{"android":"levelo://app?vid=643a041d-3faf-4dc4-a3ad-d2cb17d6236c","ios":"levelo://app?vid=643a041d-3faf-4dc4-a3ad-d2cb17d6236c"},"vehicle_type_id":"4","last_reported":1773184649,"current_range_meters":38400,"station_id":"ce4bgjh2rcd13ifvqbg0","pricing_plan_id":"cebpf4jnsgd1na2vs0mg"},{"bike_id":"f93178fc-35ef-40b4-bf7c-cf72d287e4f7","system_id":"levelo_inurba_marseille","lat":43.30305,"lon":5.39201,"is_reserved":false,"is_disabled":false,"rental_uris":{"android":"levelo://app?vid=f93178fc-35ef-40b4-bf7c-cf72d287e4f7","ios":"levelo://app?vid=f93178fc-35ef-40b4-bf7c-cf72d287e4f7"},"vehicle_type_id":"4","last_reported":1773184649,"current_range_meters":23200,"station_id":"ce4bgkh2rcd13ifvqbk0","pricing_plan_id":"cebpf4jnsgd1na2vs0mg"},{"bike_id":"a98a2ffa-f3fb-4c8b-86b7-609f1d5345a7","system_id":"levelo_inurba_marseille","lat":43.30322,"lon":5.36882,"is_reserved":false,"is_disabled":false,"rental_uris":{"android":"levelo://app?vid=a98a2ffa-f3fb-4c8b-86b7-609f1d5345a7","ios":"levelo://app?vid=a98a2ffa-f3fb-4c8b-86b7-609f1d5345a7"},"vehicle_type_id":"4","last_reported":1773184649,"current_range_meters":30800,"station_id":"ce4bgqh2rcd13ifvqc5g","pricing_plan_id":"cebpf4jnsgd1na2vs0mg"},{"bike_id":"90c21d76-cccc-4252-975d-3a89242c8302","system_id":"levelo_inurba_marseille","lat":43.30612,"lon":5.37219,"is_reserved":false,"is_disabled":false,"rental_uris":{"android":"levelo://app?vid=90c21d76-cccc-4252-975d-3a89242c8302","ios":"levelo://app?vid=90c21d76-cccc-4252-975d-3a89242c8302"},"vehicle_type_id":"4","last_reported":1773184649,"current_range_meters":40000,"station_id":"ce4bgqh2rcd13ifvqc4g","pricing_plan_id":"cebpf4jnsgd1na2vs0mg"},{"bike_id":"17ce7070-d813-4eaf-a544-6259968aa271","system_id":"levelo_inurba_marseille","lat":43.31132,"lon":5.36892,"is_reserved":false,"is_disabled":false,"rental_uris":{"android":"levelo://app?vid=17ce7070-d813-4eaf-a544-6259968aa271","ios":"levelo://app?vid=17ce7070-d813-4eaf-a544-6259968aa271"},"vehicle_type_id":"4","last_reported":1773184649,"current_range_meters":10000,"station_id":"","pricing_plan_id":"cebpf4jnsgd1na2vs0mg"},{"bike_id":"05dc5503-93fd-4015-baaf-7cc076794efb","system_id":"levelo_inurba_marseille","lat":43.25091,"lon":5.39506,"is_reserved":false,"is_disabled":false,"rental_uris":{"android":"levelo://app?vid=05dc5503-93fd-4015-baaf-7cc076794efb","ios":"levelo://app?vid=05dc5503-93fd-4015-baaf-7cc076794efb"},"vehicle_type_id":"4","last_reported":1773184649,"current_range_meters":35200,"station_id":"ce4bhm12rcd13ifvqgkg","pricing_plan_id":"cebpf4jnsgd1na2vs0mg"},{"bike_id":"54d0c267-d590-405d-b954-9c16a2093635","system_id":"levelo_inurba_marseille","lat":43.251625,"lon":5.403793,"is_reserved":false,"is_disabled":false,"rental_uris":{"android":"levelo://app?vid=54d0c267-d590-405d-b954-9c16a2093635","ios":"levelo://app?vid=54d0c267-d590-405d-b954-9c16a2093635"},"vehicle_type_id":"4","last_reported":1773184649,"current_range_meters":18800,"station_id":"ce4bhlh2rcd13ifvqgig","pricing_plan_id":"cebpf4jnsgd1na2vs0mg"},{"bike_id":"16ced00d-b75b-480f-bfe3-587817c52078","system_id":"levelo_inurba_marseille","lat":43.2468,"lon":5.38973,"is_reserved":false,"is_disabled":false,"rental_uris":{"android":"levelo://app?vid=16ced00d-b75b-480f-bfe3-587817c52078","ios":"levelo://app?vid=16ced00d-b75b-480f-bfe3-587817c52078"},"vehicle_type_id":"4","last_reported":1773184649,"current_range_meters":38400,"station_id":"ce4bhg12rcd13ifvqf60","pricing_plan_id":"cebpf4jnsgd1na2vs0mg"},{"bike_id":"095740f3-4e12-4adb-8a1a-03aa33c9cd08","system_id":"levelo_inurba_marseille","lat":43.26564,"lon":5.37302,"is_reserved":false,"is_disabled":false,"rental_uris":{"android":"levelo://app?vid=095740f3-4e12-4adb-8a1a-03aa33c9cd08","ios":"levelo://app?vid=095740f3-4e12-4adb-8a1a-03aa33c9cd08"},"vehicle_type_id":"4","last_reported":1773184649,"current_range_meters":15200,"station_id":"ce4bhg12rcd13ifvqf70","pricing_plan_id":"cebpf4jnsgd1na2vs0mg"},{"bike_id":"07d667a1-20cd-44c6-a08f-d51c851309d8","system_id":"levelo_inurba_marseille","lat":43.29785,"lon":5.37107,"is_reserved":false,"is_disabled":false,"rental_uris":{"android":"levelo://app?vid=07d667a1-20cd-44c6-a08f-d51c851309d8","ios":"levelo://app?vid=07d667a1-20cd-44c6-a08f-d51c851309d8"},"vehicle_type_id":"4","last_reported":1773184649,"current_range_meters":27200,"station_id":"ce4bgop2rcd13ifvqc1g","pricing_plan_id":"cebpf4jnsgd1na2vs0mg"},{"bike_id":"566d1d1a-0852-4e0d-907b-e1334e0d6bf9","system_id":"levelo_inurba_marseille","lat":43.23808,"lon":5.36653,"is_reserved":false,"is_disabled":false,"rental_uris":{"android":"levelo://app?vid=566d1d1a-0852-4e0d-907b-e1334e0d6bf9","ios":"levelo://app?vid=566d1d1a-0852-4e0d-907b-e1334e0d6bf9"},"vehicle_type_id":"4","last_reported":1773184649,"current_range_meters":16400,"station_id":"st_d3nk18o9ro0c73en2l3g","pricing_plan_id":"cebpf4jnsgd1na2vs0mg"},{"bike_id":"3cf11ba7-9b31-4e74-8681-d388cd19aab7","system_id":"levelo_inurba_marseille","lat":43.29526,"lon":5.38553,"is_reserved":false,"is_disabled":false,"rental_uris":{"android":"levelo://app?vid=3cf11ba7-9b31-4e74-8681-d388cd19aab7","ios":"levelo://app?vid=3cf11ba7-9b31-4e74-8681-d388cd19aab7"},"vehicle_type_id":"4","last_reported":1773184649,"current_range_meters":24000,"station_id":"ce4bgih2rcd13ifvqba0","pricing_plan_id":"cebpf4jnsgd1na2vs0mg"},{"bike_id":"ba34bd48-11bd-4658-ae56-c47f9185d4e6","system_id":"levelo_inurba_marseille","lat":43.27881,"lon":5.40816,"is_reserved":false,"is_disabled":false,"rental_uris":{"android":"levelo://app?vid=ba34bd48-11bd-4658-ae56-c47f9185d4e6","ios":"levelo://app?vid=ba34bd48-11bd-4658-ae56-c47f9185d4e6"},"vehicle_type_id":"4","last_reported":1773184649,"current_range_meters":38400,"station_id":"ce4bhnh2rcd13ifvqgtg","pricing_plan_id":"cebpf4jnsgd1na2vs0mg"},{"bike_id":"1f22164f-3f62-4aa1-b979-623a5f5ae5b4","system_id":"levelo_inurba_marseille","lat":43.28265,"lon":5.35066,"is_reserved":false,"is_disabled":false,"rental_uris":{"android":"levelo://app?vid=1f22164f-3f62-4aa1-b979-623a5f5ae5b4","ios":"levelo://app?vid=1f22164f-3f62-4aa1-b979-623a5f5ae5b4"},"vehicle_type_id":"4","last_reported":1773184649,"current_range_meters":39200,"station_id":"ce4bhbp2rcd13ifvqerg","pricing_plan_id":"cebpf4jnsgd1na2vs0mg"},{"bike_id":"13f5d6ee-b5b6-4f72-86db-f808654551b8","system_id":"levelo_inurba_marseille","lat":43.29892,"lon":5.43693,"is_reserved":false,"is_disabled":false,"rental_uris":{"android":"levelo://app?vid=13f5d6ee-b5b6-4f72-86db-f808654551b8","ios":"levelo://app?vid=13f5d6ee-b5b6-4f72-86db-f808654551b8"},"vehicle_type_id":"4","last_reported":1773184649,"current_range_meters":30800,"station_id":"ce4bhpp2rcd13ifvqhfg","pricing_plan_id":"cebpf4jnsgd1na2vs0mg"},{"bike_id":"4237657a-7cdc-4967-86ba-cfba955c0ea9","system_id":"levelo_inurba_marseille","lat":43.27177,"lon":5.40989,"is_reserved":false,"is_disabled":false,"rental_uris":{"android":"levelo://app?vid=4237657a-7cdc-4967-86ba-cfba955c0ea9","ios":"levelo://app?vid=4237657a-7cdc-4967-86ba-cfba955c0ea9"},"vehicle_type_id":"4","last_reported":1773184649,"current_range_meters":39200,"station_id":"ce4bhl12rcd13ifvqgf0","pricing_plan_id":"cebpf4jnsgd1na2vs0mg"},{"bike_id":"c79bec2b-2f38-46cc-8a35-98ea2a36d591","system_id":"levelo_inurba_marseille","lat":43.30868,"lon":5.39661,"is_reserved":false,"is_disabled":false,"rental_uris":{"android":"levelo://app?vid=c79bec2b-2f38-46cc-8a35-98ea2a36d591","ios":"levelo://app?vid=c79bec2b-2f38-46cc-8a35-98ea2a36d591"},"vehicle_type_id":"4","last_reported":1773184649,"current_range_meters":27600,"station_id":"ce4bh012rcd13ifvqcv0","pricing_plan_id":"cebpf4jnsgd1na2vs0mg"},{"bike_id":"d9ae451b-394d-4600-bc8e-250781c8b682","system_id":"levelo_inurba_marseille","lat":43.26587,"lon":5.37342,"is_reserved":false,"is_disabled":false,"rental_uris":{"android":"levelo://app?vid=d9ae451b-394d-4600-bc8e-250781c8b682","ios":"levelo://app?vid=d9ae451b-394d-4600-bc8e-250781c8b682"},"vehicle_type_id":"4","last_reported":1773184649,"current_range_meters":17200,"station_id":"ce4bhg12rcd13ifvqf70","pricing_plan_id":"cebpf4jnsgd1na2vs0mg"},{"bike_id":"c33732c3-34b3-43cf-9550-258c10091c04","system_id":"levelo_inurba_marseille","lat":43.29925,"lon":5.4214,"is_reserved":false,"is_disabled":false,"rental_uris":{"android":"levelo://app?vid=c33732c3-34b3-43cf-9550-258c10091c04","ios":"levelo://app?vid=c33732c3-34b3-43cf-9550-258c10091c04"},"vehicle_type_id":"4","last_reported":1773184649,"current_range_meters":36800,"station_id":"","pricing_plan_id":"cebpf4jnsgd1na2vs0mg"},{"bike_id":"5e71fadf-3d46-4d3f-8258-74b7144134d8","system_id":"levelo_inurba_marseille","lat":43.27502,"lon":5.41591,"is_reserved":false,"is_disabled":false,"rental_uris":{"android":"levelo://app?vid=5e71fadf-3d46-4d3f-8258-74b7144134d8","ios":"levelo://app?vid=5e71fadf-3d46-4d3f-8258-74b7144134d8"},"vehicle_type_id":"4","last_reported":1773184649,"current_range_meters":22800,"station_id":"st_d6im8g6chgec73a5pndg","pricing_plan_id":"cebpf4jnsgd1na2vs0mg"},{"bike_id":"741e3ec7-cec0-4e99-bcaf-44517a159255","system_id":"levelo_inurba_marseille","lat":43.29465,"lon":5.37414,"is_reserved":false,"is_disabled":false,"rental_uris":{"android":"levelo://app?vid=741e3ec7-cec0-4e99-bcaf-44517a159255","ios":"levelo://app?vid=741e3ec7-cec0-4e99-bcaf-44517a159255"},"vehicle_type_id":"4","last_reported":1773184649,"current_range_meters":28000,"station_id":"","pricing_plan_id":"cebpf4jnsgd1na2vs0mg"},{"bike_id":"c0f5bd4a-cbc2-427a-92f0-0be45de4abfd","system_id":"levelo_inurba_marseille","lat":43.28538,"lon":5.44103,"is_reserved":false,"is_disabled":false,"rental_uris":{"android":"levelo://app?vid=c0f5bd4a-cbc2-427a-92f0-0be45de4abfd","ios":"levelo://app?vid=c0f5bd4a-cbc2-427a-92f0-0be45de4abfd"},"vehicle_type_id":"4","last_reported":1773184649,"current_range_meters":8400,"station_id":"st_d3j3df2ikq2c7380ej80","pricing_plan_id":"cebpf4jnsgd1na2vs0mg"},{"bike_id":"d404ae44-b78a-4ba8-8f9c-6c43e62ef6b2","system_id":"levelo_inurba_marseille","lat":43.30355,"lon":5.41878,"is_reserved":false,"is_disabled":false,"rental_uris":{"android":"levelo://app?vid=d404ae44-b78a-4ba8-8f9c-6c43e62ef6b2","ios":"levelo://app?vid=d404ae44-b78a-4ba8-8f9c-6c43e62ef6b2"},"vehicle_type_id":"4","last_reported":1773184649,"current_range_meters":18000,"station_id":"ce4bhop2rcd13ifvqh7g","pricing_plan_id":"cebpf4jnsgd1na2vs0mg"},{"bike_id":"251e2fa3-9cee-4a07-883b-96d86c803c28","system_id":"levelo_inurba_marseille","lat":43.23176,"lon":5.39993,"is_reserved":false,"is_disabled":false,"rental_uris":{"android":"levelo://app?vid=251e2fa3-9cee-4a07-883b-96d86c803c28","ios":"levelo://app?vid=251e2fa3-9cee-4a07-883b-96d86c803c28"},"vehicle_type_id":"4","last_reported":1773184649,"current_range_meters":40000,"station_id":"ce4bhn12rcd13ifvqgqg","pricing_plan_id":"cebpf4jnsgd1na2vs0mg"},{"bike_id":"6eaf328c-de35-4b3f-8c0e-4c90d9499b4b","system_id":"levelo_inurba_marseille","lat":43.32125,"lon":5.36765,"is_reserved":false,"is_disabled":false,"rental_uris":{"android":"levelo://app?vid=6eaf328c-de35-4b3f-8c0e-4c90d9499b4b","ios":"levelo://app?vid=6eaf328c-de35-4b3f-8c0e-4c90d9499b4b"},"vehicle_type_id":"4","last_reported":1773184649,"current_range_meters":38400,"station_id":"ce4bhrh2rcd13ifvqhug","pricing_plan_id":"cebpf4jnsgd1na2vs0mg"},{"bike_id":"a5eb7e2e-f45f-42c7-8ba3-bf76c2472338","system_id":"levelo_inurba_marseille","lat":43.30207,"lon":5.39438,"is_reserved":false,"is_disabled":false,"rental_uris":{"android":"levelo://app?vid=a5eb7e2e-f45f-42c7-8ba3-bf76c2472338","ios":"levelo://app?vid=a5eb7e2e-f45f-42c7-8ba3-bf76c2472338"},"vehicle_type_id":"4","last_reported":1773184649,"current_range_meters":26800,"station_id":"ce4bh0p2rcd13ifvqd70","pricing_plan_id":"cebpf4jnsgd1na2vs0mg"},{"bike_id":"bb4d2406-b5bc-49be-9f7c-f47fcdbe593b","system_id":"levelo_inurba_marseille","lat":43.30549,"lon":5.36744,"is_reserved":false,"is_disabled":false,"rental_uris":{"android":"levelo://app?vid=bb4d2406-b5bc-49be-9f7c-f47fcdbe593b","ios":"levelo://app?vid=bb4d2406-b5bc-49be-9f7c-f47fcdbe593b"},"vehicle_type_id":"4","last_reported":1773184649,"current_range_meters":39200,"station_id":"ce4bgrp2rcd13ifvqc9g","pricing_plan_id":"cebpf4jnsgd1na2vs0mg"},{"bike_id":"5f72350b-2c43-4ae3-97f1-1beffc338161","system_id":"levelo_inurba_marseille","lat":43.23963,"lon":5.3664,"is_reserved":false,"is_disabled":false,"rental_uris":{"android":"levelo://app?vid=5f72350b-2c43-4ae3-97f1-1beffc338161","ios":"levelo://app?vid=5f72350b-2c43-4ae3-97f1-1beffc338161"},"vehicle_type_id":"4","last_reported":1773184649,"current_range_meters":38000,"station_id":"ce4bhi12rcd13ifvqfp0","pricing_plan_id":"cebpf4jnsgd1na2vs0mg"},{"bike_id":"00adc013-06bc-44f0-92b9-114da8a17fc8","system_id":"levelo_inurba_marseille","lat":43.2959,"lon":5.39485,"is_reserved":false,"is_disabled":false,"rental_uris":{"android":"levelo://app?vid=00adc013-06bc-44f0-92b9-114da8a17fc8","ios":"levelo://app?vid=00adc013-06bc-44f0-92b9-114da8a17fc8"},"vehicle_type_id":"4","last_reported":1773184649,"current_range_meters":10800,"station_id":"","pricing_plan_id":"cebpf4jnsgd1na2vs0mg"},{"bike_id":"a3cfe904-18fb-4467-b355-b56cd107d238","system_id":"levelo_inurba_marseille","lat":43.28602,"lon":5.37085,"is_reserved":false,"is_disabled":false,"rental_uris":{"android":"levelo://app?vid=a3cfe904-18fb-4467-b355-b56cd107d238","ios":"levelo://app?vid=a3cfe904-18fb-4467-b355-b56cd107d238"},"vehicle_type_id":"4","last_reported":1773184649,"current_range_meters":28800,"station_id":"ce4bht12rcd13ifvqi60","pricing_plan_id":"cebpf4jnsgd1na2vs0mg"},{"bike_id":"070cd0a6-749d-436a-bec4-797f07440630","system_id":"levelo_inurba_marseille","lat":43.28844,"lon":5.35866,"is_reserved":false,"is_disabled":false,"rental_uris":{"android":"levelo://app?vid=070cd0a6-749d-436a-bec4-797f07440630","ios":"levelo://app?vid=070cd0a6-749d-436a-bec4-797f07440630"},"vehicle_type_id":"4","last_reported":1773184649,"current_range_meters":30400,"station_id":"ce4bhb12rcd13ifvqem0","pricing_plan_id":"cebpf4jnsgd1na2vs0mg"},{"bike_id":"f27be3cb-d5fc-4498-8e52-861d9b4aac8e","system_id":"levelo_inurba_marseille","lat":43.24808,"lon":5.37453,"is_reserved":false,"is_disabled":false,"rental_uris":{"android":"levelo://app?vid=f27be3cb-d5fc-4498-8e52-861d9b4aac8e","ios":"levelo://app?vid=f27be3cb-d5fc-4498-8e52-861d9b4aac8e"},"vehicle_type_id":"4","last_reported":1773184649,"current_range_meters":38000,"station_id":"ce4bhgh2rcd13ifvqfb0","pricing_plan_id":"cebpf4jnsgd1na2vs0mg"},{"bike_id":"3d7b1bec-2a06-47da-a7d0-796cda99d14f","system_id":"levelo_inurba_marseille","lat":43.27077,"lon":5.38305,"is_reserved":false,"is_disabled":false,"rental_uris":{"android":"levelo://app?vid=3d7b1bec-2a06-47da-a7d0-796cda99d14f","ios":"levelo://app?vid=3d7b1bec-2a06-47da-a7d0-796cda99d14f"},"vehicle_type_id":"4","last_reported":1773184649,"current_range_meters":22000,"station_id":"st_d3n2fo6cfp8s73cte1j0","pricing_plan_id":"cebpf4jnsgd1na2vs0mg"},{"bike_id":"cd68cf1b-5d45-4efe-ae46-93cc692f1578","system_id":"levelo_inurba_marseille","lat":43.28661,"lon":5.36367,"is_reserved":false,"is_disabled":false,"rental_uris":{"android":"levelo://app?vid=cd68cf1b-5d45-4efe-ae46-93cc692f1578","ios":"levelo://app?vid=cd68cf1b-5d45-4efe-ae46-93cc692f1578"},"vehicle_type_id":"4","last_reported":1773184649,"current_range_meters":40000,"station_id":"ce4bhah2rcd13ifvqej0","pricing_plan_id":"cebpf4jnsgd1na2vs0mg"},{"bike_id":"b7ff98bd-9d8c-43f7-a95e-37511af3a427","system_id":"levelo_inurba_marseille","lat":43.29244,"lon":5.38434,"is_reserved":false,"is_disabled":true,"rental_uris":{"android":"levelo://app?vid=b7ff98bd-9d8c-43f7-a95e-37511af3a427","ios":"levelo://app?vid=b7ff98bd-9d8c-43f7-a95e-37511af3a427"},"vehicle_type_id":"4","last_reported":1773184649,"current_range_meters":25600,"station_id":"ce4bh692rcd13ifvqea0","pricing_plan_id":"cebpf4jnsgd1na2vs0mg"},{"bike_id":"2386054f-29f0-4bbb-b4c5-1b35b953f1c0","system_id":"levelo_inurba_marseille","lat":43.25006,"lon":5.38928,"is_reserved":false,"is_disabled":false,"rental_uris":{"android":"levelo://app?vid=2386054f-29f0-4bbb-b4c5-1b35b953f1c0","ios":"levelo://app?vid=2386054f-29f0-4bbb-b4c5-1b35b953f1c0"},"vehicle_type_id":"4","last_reported":1773184649,"current_range_meters":31200,"station_id":"ce4bhgp2rcd13ifvqfd0","pricing_plan_id":"cebpf4jnsgd1na2vs0mg"},{"bike_id":"def9d016-b4f1-4551-9bca-72f9a3613739","system_id":"levelo_inurba_marseille","lat":43.27504,"lon":5.41615,"is_reserved":false,"is_disabled":false,"rental_uris":{"android":"levelo://app?vid=def9d016-b4f1-4551-9bca-72f9a3613739","ios":"levelo://app?vid=def9d016-b4f1-4551-9bca-72f9a3613739"},"vehicle_type_id":"4","last_reported":1773184649,"current_range_meters":17600,"station_id":"st_d6im8g6chgec73a5pndg","pricing_plan_id":"cebpf4jnsgd1na2vs0mg"},{"bike_id":"dd854777-f378-4132-94e6-63027cc18b82","system_id":"levelo_inurba_marseille","lat":43.29727,"lon":5.41059,"is_reserved":false,"is_disabled":false,"rental_uris":{"android":"levelo://app?vid=dd854777-f378-4132-94e6-63027cc18b82","ios":"levelo://app?vid=dd854777-f378-4132-94e6-63027cc18b82"},"vehicle_type_id":"4","last_reported":1773184649,"current_range_meters":31200,"station_id":"","pricing_plan_id":"cebpf4jnsgd1na2vs0mg"},{"bike_id":"eeb95d63-3fcf-48fa-bb7b-25f62607e05c","system_id":"levelo_inurba_marseille","lat":43.28404,"lon":5.37529,"is_reserved":false,"is_disabled":false,"rental_uris":{"android":"levelo://app?vid=eeb95d63-3fcf-48fa-bb7b-25f62607e05c","ios":"levelo://app?vid=eeb95d63-3fcf-48fa-bb7b-25f62607e05c"},"vehicle_type_id":"4","last_reported":1773184649,"current_range_meters":37600,"station_id":"ce4bh412rcd13ifvqds0","pricing_plan_id":"cebpf4jnsgd1na2vs0mg"},{"bike_id":"40141969-dfd4-45e9-9ebe-42eab44b2dc3","system_id":"levelo_inurba_marseille","lat":43.25516,"lon":5.37662,"is_reserved":false,"is_disabled":false,"rental_uris":{"android":"levelo://app?vid=40141969-dfd4-45e9-9ebe-42eab44b2dc3","ios":"levelo://app?vid=40141969-dfd4-45e9-9ebe-42eab44b2dc3"},"vehicle_type_id":"4","last_reported":1773184649,"current_range_meters":11600,"station_id":"ce4bhh12rcd13ifvqff0","pricing_plan_id":"cebpf4jnsgd1na2vs0mg"},{"bike_id":"2e910ef9-0271-4310-a7d7-263e34eb7980","system_id":"levelo_inurba_marseille","lat":43.32021,"lon":5.38157,"is_reserved":false,"is_disabled":false,"rental_uris":{"android":"levelo://app?vid=2e910ef9-0271-4310-a7d7-263e34eb7980","ios":"levelo://app?vid=2e910ef9-0271-4310-a7d7-263e34eb7980"},"vehicle_type_id":"4","last_reported":1773184649,"current_range_meters":36400,"station_id":"ce4bhr12rcd13ifvqhpg","pricing_plan_id":"cebpf4jnsgd1na2vs0mg"},{"bike_id":"003d1d08-fcf1-4e48-b79d-cd47497b0244","system_id":"levelo_inurba_marseille","lat":43.29591,"lon":5.37509,"is_reserved":false,"is_disabled":true,"rental_uris":{"android":"levelo://app?vid=003d1d08-fcf1-4e48-b79d-cd47497b0244","ios":"levelo://app?vid=003d1d08-fcf1-4e48-b79d-cd47497b0244"},"vehicle_type_id":"4","last_reported":1773184649,"current_range_meters":37600,"station_id":"ce4bgh92rcd13ifvqb50","pricing_plan_id":"cebpf4jnsgd1na2vs0mg"},{"bike_id":"532f1fe9-6384-4056-88f3-ddfdd084688a","system_id":"levelo_inurba_marseille","lat":43.29811,"lon":5.4188,"is_reserved":false,"is_disabled":false,"rental_uris":{"android":"levelo://app?vid=532f1fe9-6384-4056-88f3-ddfdd084688a","ios":"levelo://app?vid=532f1fe9-6384-4056-88f3-ddfdd084688a"},"vehicle_type_id":"4","last_reported":1773184649,"current_range_meters":32400,"station_id":"","pricing_plan_id":"cebpf4jnsgd1na2vs0mg"},{"bike_id":"955c54e3-e7ad-4355-8ec0-7be239d34285","system_id":"levelo_inurba_marseille","lat":43.28095,"lon":5.3784,"is_reserved":false,"is_disabled":false,"rental_uris":{"android":"levelo://app?vid=955c54e3-e7ad-4355-8ec0-7be239d34285","ios":"levelo://app?vid=955c54e3-e7ad-4355-8ec0-7be239d34285"},"vehicle_type_id":"4","last_reported":1773184649,"current_range_meters":38400,"station_id":"ce4bha12rcd13ifvqee0","pricing_plan_id":"cebpf4jnsgd1na2vs0mg"},{"bike_id":"3c8d6bce-d9c4-4269-82c6-7e6f35ffe4b3","system_id":"levelo_inurba_marseille","lat":43.29616,"lon":5.37461,"is_reserved":false,"is_disabled":false,"rental_uris":{"android":"levelo://app?vid=3c8d6bce-d9c4-4269-82c6-7e6f35ffe4b3","ios":"levelo://app?vid=3c8d6bce-d9c4-4269-82c6-7e6f35ffe4b3"},"vehicle_type_id":"4","last_reported":1773184649,"current_range_meters":11600,"station_id":"","pricing_plan_id":"cebpf4jnsgd1na2vs0mg"},{"bike_id":"e0c6d53f-d556-4f3c-9be6-809ce4aebd6e","system_id":"levelo_inurba_marseille","lat":43.28595,"lon":5.38685,"is_reserved":false,"is_disabled":false,"rental_uris":{"android":"levelo://app?vid=e0c6d53f-d556-4f3c-9be6-809ce4aebd6e","ios":"levelo://app?vid=e0c6d53f-d556-4f3c-9be6-809ce4aebd6e"},"vehicle_type_id":"4","last_reported":1773184649,"current_range_meters":35200,"station_id":"","pricing_plan_id":"cebpf4jnsgd1na2vs0mg"},{"bike_id":"e5980185-ec26-4b37-ab2d-3a97dcedfd87","system_id":"levelo_inurba_marseille","lat":43.26071,"lon":5.39401,"is_reserved":false,"is_disabled":false,"rental_uris":{"android":"levelo://app?vid=e5980185-ec26-4b37-ab2d-3a97dcedfd87","ios":"levelo://app?vid=e5980185-ec26-4b37-ab2d-3a97dcedfd87"},"vehicle_type_id":"4","last_reported":1773184649,"current_range_meters":19600,"station_id":"ce4bhh92rcd13ifvqfj0","pricing_plan_id":"cebpf4jnsgd1na2vs0mg"},{"bike_id":"c127c5d1-f3ab-44a6-b0be-0d7b280137c1","system_id":"levelo_inurba_marseille","lat":43.28446,"lon":5.35886,"is_reserved":false,"is_disabled":false,"rental_uris":{"android":"levelo://app?vid=c127c5d1-f3ab-44a6-b0be-0d7b280137c1","ios":"levelo://app?vid=c127c5d1-f3ab-44a6-b0be-0d7b280137c1"},"vehicle_type_id":"4","last_reported":1773184649,"current_range_meters":8000,"station_id":"ce4bhah2rcd13ifvqei0","pricing_plan_id":"cebpf4jnsgd1na2vs0mg"},{"bike_id":"5ff4eed9-cc94-417e-b8b0-f370f495b41d","system_id":"levelo_inurba_marseille","lat":43.28168,"lon":5.42664,"is_reserved":false,"is_disabled":false,"rental_uris":{"android":"levelo://app?vid=5ff4eed9-cc94-417e-b8b0-f370f495b41d","ios":"levelo://app?vid=5ff4eed9-cc94-417e-b8b0-f370f495b41d"},"vehicle_type_id":"4","last_reported":1773184649,"current_range_meters":24800,"station_id":"ce4bhnh2rcd13ifvqgug","pricing_plan_id":"cebpf4jnsgd1na2vs0mg"},{"bike_id":"d64551ee-697a-4ebb-9b15-61b4f07f9484","system_id":"levelo_inurba_marseille","lat":43.3087,"lon":5.39658,"is_reserved":false,"is_disabled":false,"rental_uris":{"android":"levelo://app?vid=d64551ee-697a-4ebb-9b15-61b4f07f9484","ios":"levelo://app?vid=d64551ee-697a-4ebb-9b15-61b4f07f9484"},"vehicle_type_id":"4","last_reported":1773184649,"current_range_meters":29600,"station_id":"ce4bh012rcd13ifvqcv0","pricing_plan_id":"cebpf4jnsgd1na2vs0mg"},{"bike_id":"b94c3b6d-7912-4bb7-bd16-b874ff101a3d","system_id":"levelo_inurba_marseille","lat":43.24808,"lon":5.37438,"is_reserved":false,"is_disabled":false,"rental_uris":{"android":"levelo://app?vid=b94c3b6d-7912-4bb7-bd16-b874ff101a3d","ios":"levelo://app?vid=b94c3b6d-7912-4bb7-bd16-b874ff101a3d"},"vehicle_type_id":"4","last_reported":1773184649,"current_range_meters":30400,"station_id":"ce4bhgh2rcd13ifvqfb0","pricing_plan_id":"cebpf4jnsgd1na2vs0mg"},{"bike_id":"4c16535f-45b7-4219-854d-c74170118360","system_id":"levelo_inurba_marseille","lat":43.24952,"lon":5.40511,"is_reserved":false,"is_disabled":false,"rental_uris":{"android":"levelo://app?vid=4c16535f-45b7-4219-854d-c74170118360","ios":"levelo://app?vid=4c16535f-45b7-4219-854d-c74170118360"},"vehicle_type_id":"4","last_reported":1773184649,"current_range_meters":8800,"station_id":"st_d2ngiaodas8pm72gd1h0","pricing_plan_id":"cebpf4jnsgd1na2vs0mg"},{"bike_id":"75093d5d-7c75-43f4-b526-91360dcb1bc6","system_id":"levelo_inurba_marseille","lat":43.28427,"lon":5.34995,"is_reserved":false,"is_disabled":false,"rental_uris":{"android":"levelo://app?vid=75093d5d-7c75-43f4-b526-91360dcb1bc6","ios":"levelo://app?vid=75093d5d-7c75-43f4-b526-91360dcb1bc6"},"vehicle_type_id":"4","last_reported":1773184649,"current_range_meters":38800,"station_id":"ce4bhbh2rcd13ifvqepg","pricing_plan_id":"cebpf4jnsgd1na2vs0mg"},{"bike_id":"7de6ca69-27cb-4f01-b0b4-5059a464752e","system_id":"levelo_inurba_marseille","lat":43.26705,"lon":5.38263,"is_reserved":false,"is_disabled":false,"rental_uris":{"android":"levelo://app?vid=7de6ca69-27cb-4f01-b0b4-5059a464752e","ios":"levelo://app?vid=7de6ca69-27cb-4f01-b0b4-5059a464752e"},"vehicle_type_id":"4","last_reported":1773184649,"current_range_meters":39200,"station_id":"ce4bhg92rcd13ifvqf90","pricing_plan_id":"cebpf4jnsgd1na2vs0mg"},{"bike_id":"a653cb16-eb56-4d3d-9547-661074c0647c","system_id":"levelo_inurba_marseille","lat":43.33799,"lon":5.37471,"is_reserved":false,"is_disabled":true,"rental_uris":{"android":"levelo://app?vid=a653cb16-eb56-4d3d-9547-661074c0647c","ios":"levelo://app?vid=a653cb16-eb56-4d3d-9547-661074c0647c"},"vehicle_type_id":"4","last_reported":1773184649,"current_range_meters":38000,"station_id":"","pricing_plan_id":"cebpf4jnsgd1na2vs0mg"},{"bike_id":"02c50f3f-0ebe-4c78-a0f1-5485749df61c","system_id":"levelo_inurba_marseille","lat":43.24811,"lon":5.37457,"is_reserved":false,"is_disabled":false,"rental_uris":{"android":"levelo://app?vid=02c50f3f-0ebe-4c78-a0f1-5485749df61c","ios":"levelo://app?vid=02c50f3f-0ebe-4c78-a0f1-5485749df61c"},"vehicle_type_id":"4","last_reported":1773184649,"current_range_meters":23200,"station_id":"ce4bhgh2rcd13ifvqfb0","pricing_plan_id":"cebpf4jnsgd1na2vs0mg"},{"bike_id":"806c6d99-fe07-427b-b22c-677fd8ec4aff","system_id":"levelo_inurba_marseille","lat":43.29967,"lon":5.3849,"is_reserved":false,"is_disabled":false,"rental_uris":{"android":"levelo://app?vid=806c6d99-fe07-427b-b22c-677fd8ec4aff","ios":"levelo://app?vid=806c6d99-fe07-427b-b22c-677fd8ec4aff"},"vehicle_type_id":"4","last_reported":1773184649,"current_range_meters":39200,"station_id":"ce4bgj92rcd13ifvqbd0","pricing_plan_id":"cebpf4jnsgd1na2vs0mg"},{"bike_id":"2cc84e15-68c0-4e5a-99ac-8f7ccf840430","system_id":"levelo_inurba_marseille","lat":43.22569,"lon":5.41623,"is_reserved":false,"is_disabled":false,"rental_uris":{"android":"levelo://app?vid=2cc84e15-68c0-4e5a-99ac-8f7ccf840430","ios":"levelo://app?vid=2cc84e15-68c0-4e5a-99ac-8f7ccf840430"},"vehicle_type_id":"4","last_reported":1773184649,"current_range_meters":38000,"station_id":"st_d2o4gvlbi1j2169b742g","pricing_plan_id":"cebpf4jnsgd1na2vs0mg"},{"bike_id":"712d2224-9001-4f6f-bfdc-af9c778b9081","system_id":"levelo_inurba_marseille","lat":43.2256,"lon":5.41662,"is_reserved":false,"is_disabled":false,"rental_uris":{"android":"levelo://app?vid=712d2224-9001-4f6f-bfdc-af9c778b9081","ios":"levelo://app?vid=712d2224-9001-4f6f-bfdc-af9c778b9081"},"vehicle_type_id":"4","last_reported":1773184649,"current_range_meters":4000,"station_id":"st_d2o4gvlbi1j2169b742g","pricing_plan_id":"cebpf4jnsgd1na2vs0mg"},{"bike_id":"2301d092-fcd2-45f3-804a-bf87c6aa69a3","system_id":"levelo_inurba_marseille","lat":43.29614,"lon":5.37601,"is_reserved":false,"is_disabled":false,"rental_uris":{"android":"levelo://app?vid=2301d092-fcd2-45f3-804a-bf87c6aa69a3","ios":"levelo://app?vid=2301d092-fcd2-45f3-804a-bf87c6aa69a3"},"vehicle_type_id":"4","last_reported":1773184649,"current_range_meters":22400,"station_id":"","pricing_plan_id":"cebpf4jnsgd1na2vs0mg"},{"bike_id":"e1fcee2b-0a2f-425b-90e6-63c8f4b304c7","system_id":"levelo_inurba_marseille","lat":43.25337,"lon":5.4218,"is_reserved":false,"is_disabled":false,"rental_uris":{"android":"levelo://app?vid=e1fcee2b-0a2f-425b-90e6-63c8f4b304c7","ios":"levelo://app?vid=e1fcee2b-0a2f-425b-90e6-63c8f4b304c7"},"vehicle_type_id":"4","last_reported":1773184649,"current_range_meters":32800,"station_id":"st_d2m65c5bi1j21697t3ng","pricing_plan_id":"cebpf4jnsgd1na2vs0mg"},{"bike_id":"3cb4118e-249f-4f7f-8bd1-0ddb85d3d47f","system_id":"levelo_inurba_marseille","lat":43.29807,"lon":5.41417,"is_reserved":false,"is_disabled":false,"rental_uris":{"android":"levelo://app?vid=3cb4118e-249f-4f7f-8bd1-0ddb85d3d47f","ios":"levelo://app?vid=3cb4118e-249f-4f7f-8bd1-0ddb85d3d47f"},"vehicle_type_id":"4","last_reported":1773184649,"current_range_meters":37600,"station_id":"","pricing_plan_id":"cebpf4jnsgd1na2vs0mg"},{"bike_id":"251e7265-6da3-486f-9540-4813a6799da8","system_id":"levelo_inurba_marseille","lat":43.29121,"lon":5.35586,"is_reserved":false,"is_disabled":false,"rental_uris":{"android":"levelo://app?vid=251e7265-6da3-486f-9540-4813a6799da8","ios":"levelo://app?vid=251e7265-6da3-486f-9540-4813a6799da8"},"vehicle_type_id":"4","last_reported":1773184649,"current_range_meters":11600,"station_id":"ce4bhb92rcd13ifvqen0","pricing_plan_id":"cebpf4jnsgd1na2vs0mg"},{"bike_id":"d2f8800f-30c1-4c21-b8e2-ba5c5b2f20f8","system_id":"levelo_inurba_marseille","lat":43.27175,"lon":5.40998,"is_reserved":false,"is_disabled":false,"rental_uris":{"android":"levelo://app?vid=d2f8800f-30c1-4c21-b8e2-ba5c5b2f20f8","ios":"levelo://app?vid=d2f8800f-30c1-4c21-b8e2-ba5c5b2f20f8"},"vehicle_type_id":"4","last_reported":1773184649,"current_range_meters":38000,"station_id":"ce4bhl12rcd13ifvqgf0","pricing_plan_id":"cebpf4jnsgd1na2vs0mg"},{"bike_id":"896440e6-cef8-4268-bb86-ac2c6e2de747","system_id":"levelo_inurba_marseille","lat":43.28486,"lon":5.484,"is_reserved":false,"is_disabled":false,"rental_uris":{"android":"levelo://app?vid=896440e6-cef8-4268-bb86-ac2c6e2de747","ios":"levelo://app?vid=896440e6-cef8-4268-bb86-ac2c6e2de747"},"vehicle_type_id":"4","last_reported":1773184649,"current_range_meters":32400,"station_id":"","pricing_plan_id":"cebpf4jnsgd1na2vs0mg"},{"bike_id":"0f222d34-3b69-4939-afcf-3b3e64fb5180","system_id":"levelo_inurba_marseille","lat":43.2508,"lon":5.39518,"is_reserved":false,"is_disabled":false,"rental_uris":{"android":"levelo://app?vid=0f222d34-3b69-4939-afcf-3b3e64fb5180","ios":"levelo://app?vid=0f222d34-3b69-4939-afcf-3b3e64fb5180"},"vehicle_type_id":"4","last_reported":1773184649,"current_range_meters":17200,"station_id":"ce4bhm12rcd13ifvqgkg","pricing_plan_id":"cebpf4jnsgd1na2vs0mg"},{"bike_id":"bdff13f0-0040-42f8-a042-90efed8054cb","system_id":"levelo_inurba_marseille","lat":43.27828,"lon":5.39212,"is_reserved":false,"is_disabled":false,"rental_uris":{"android":"levelo://app?vid=bdff13f0-0040-42f8-a042-90efed8054cb","ios":"levelo://app?vid=bdff13f0-0040-42f8-a042-90efed8054cb"},"vehicle_type_id":"4","last_reported":1773184649,"current_range_meters":40000,"station_id":"ce4bhjp2rcd13ifvqga0","pricing_plan_id":"cebpf4jnsgd1na2vs0mg"},{"bike_id":"2c1215f2-9624-4e50-bbbb-a53264cdd31e","system_id":"levelo_inurba_marseille","lat":43.28477,"lon":5.48407,"is_reserved":false,"is_disabled":false,"rental_uris":{"android":"levelo://app?vid=2c1215f2-9624-4e50-bbbb-a53264cdd31e","ios":"levelo://app?vid=2c1215f2-9624-4e50-bbbb-a53264cdd31e"},"vehicle_type_id":"4","last_reported":1773184649,"current_range_meters":32000,"station_id":"","pricing_plan_id":"cebpf4jnsgd1na2vs0mg"},{"bike_id":"1a207468-e47b-4f76-96da-6b3403b02150","system_id":"levelo_inurba_marseille","lat":43.28456,"lon":5.35885,"is_reserved":false,"is_disabled":false,"rental_uris":{"android":"levelo://app?vid=1a207468-e47b-4f76-96da-6b3403b02150","ios":"levelo://app?vid=1a207468-e47b-4f76-96da-6b3403b02150"},"vehicle_type_id":"4","last_reported":1773184649,"current_range_meters":38800,"station_id":"ce4bhah2rcd13ifvqei0","pricing_plan_id":"cebpf4jnsgd1na2vs0mg"},{"bike_id":"b20e784e-83e8-4171-8c29-5aa2de2d6861","system_id":"levelo_inurba_marseille","lat":43.32135,"lon":5.3679,"is_reserved":false,"is_disabled":false,"rental_uris":{"android":"levelo://app?vid=b20e784e-83e8-4171-8c29-5aa2de2d6861","ios":"levelo://app?vid=b20e784e-83e8-4171-8c29-5aa2de2d6861"},"vehicle_type_id":"4","last_reported":1773184649,"current_range_meters":24000,"station_id":"ce4bhrh2rcd13ifvqhug","pricing_plan_id":"cebpf4jnsgd1na2vs0mg"},{"bike_id":"a0ab89fd-d4e3-4039-8377-577b0acf001d","system_id":"levelo_inurba_marseille","lat":43.24372,"lon":5.44112,"is_reserved":false,"is_disabled":false,"rental_uris":{"android":"levelo://app?vid=a0ab89fd-d4e3-4039-8377-577b0acf001d","ios":"levelo://app?vid=a0ab89fd-d4e3-4039-8377-577b0acf001d"},"vehicle_type_id":"4","last_reported":1773184649,"current_range_meters":11200,"station_id":"","pricing_plan_id":"cebpf4jnsgd1na2vs0mg"},{"bike_id":"b9a3a995-b001-4d18-9713-749fdc308856","system_id":"levelo_inurba_marseille","lat":43.2501,"lon":5.38956,"is_reserved":false,"is_disabled":false,"rental_uris":{"android":"levelo://app?vid=b9a3a995-b001-4d18-9713-749fdc308856","ios":"levelo://app?vid=b9a3a995-b001-4d18-9713-749fdc308856"},"vehicle_type_id":"4","last_reported":1773184649,"current_range_meters":14000,"station_id":"ce4bhgp2rcd13ifvqfd0","pricing_plan_id":"cebpf4jnsgd1na2vs0mg"},{"bike_id":"b26247bf-908f-4999-b7ca-59637406829a","system_id":"levelo_inurba_marseille","lat":43.2937,"lon":5.37846,"is_reserved":false,"is_disabled":false,"rental_uris":{"android":"levelo://app?vid=b26247bf-908f-4999-b7ca-59637406829a","ios":"levelo://app?vid=b26247bf-908f-4999-b7ca-59637406829a"},"vehicle_type_id":"4","last_reported":1773184649,"current_range_meters":32000,"station_id":"ce4bgjh2rcd13ifvqbf0","pricing_plan_id":"cebpf4jnsgd1na2vs0mg"},{"bike_id":"688dce1c-cf53-43aa-b22e-8f6ee99a6467","system_id":"levelo_inurba_marseille","lat":43.22915,"lon":5.35364,"is_reserved":false,"is_disabled":false,"rental_uris":{"android":"levelo://app?vid=688dce1c-cf53-43aa-b22e-8f6ee99a6467","ios":"levelo://app?vid=688dce1c-cf53-43aa-b22e-8f6ee99a6467"},"vehicle_type_id":"4","last_reported":1773184649,"current_range_meters":17600,"station_id":"cpo3532slgdg3j2ikp40","pricing_plan_id":"cebpf4jnsgd1na2vs0mg"},{"bike_id":"c9fdec63-7232-4c40-8487-75579466936b","system_id":"levelo_inurba_marseille","lat":43.26692,"lon":5.38271,"is_reserved":false,"is_disabled":false,"rental_uris":{"android":"levelo://app?vid=c9fdec63-7232-4c40-8487-75579466936b","ios":"levelo://app?vid=c9fdec63-7232-4c40-8487-75579466936b"},"vehicle_type_id":"4","last_reported":1773184649,"current_range_meters":29600,"station_id":"ce4bhg92rcd13ifvqf90","pricing_plan_id":"cebpf4jnsgd1na2vs0mg"},{"bike_id":"5c377f38-fc97-4b2e-93a0-0d6e429565ea","system_id":"levelo_inurba_marseille","lat":43.26944,"lon":5.40269,"is_reserved":false,"is_disabled":false,"rental_uris":{"android":"levelo://app?vid=5c377f38-fc97-4b2e-93a0-0d6e429565ea","ios":"levelo://app?vid=5c377f38-fc97-4b2e-93a0-0d6e429565ea"},"vehicle_type_id":"4","last_reported":1773184649,"current_range_meters":39200,"station_id":"cjm6bp8fraef2m0cb0m0","pricing_plan_id":"cebpf4jnsgd1na2vs0mg"},{"bike_id":"e8b7d766-9ece-4870-a1b8-5b316a1b8e67","system_id":"levelo_inurba_marseille","lat":43.22568,"lon":5.41622,"is_reserved":false,"is_disabled":false,"rental_uris":{"android":"levelo://app?vid=e8b7d766-9ece-4870-a1b8-5b316a1b8e67","ios":"levelo://app?vid=e8b7d766-9ece-4870-a1b8-5b316a1b8e67"},"vehicle_type_id":"4","last_reported":1773184649,"current_range_meters":20800,"station_id":"st_d2o4gvlbi1j2169b742g","pricing_plan_id":"cebpf4jnsgd1na2vs0mg"},{"bike_id":"73445b64-da31-4c00-a6bd-a3b91e6f5eb4","system_id":"levelo_inurba_marseille","lat":43.27874,"lon":5.39235,"is_reserved":false,"is_disabled":false,"rental_uris":{"android":"levelo://app?vid=73445b64-da31-4c00-a6bd-a3b91e6f5eb4","ios":"levelo://app?vid=73445b64-da31-4c00-a6bd-a3b91e6f5eb4"},"vehicle_type_id":"4","last_reported":1773184649,"current_range_meters":40000,"station_id":"ce4bhjp2rcd13ifvqga0","pricing_plan_id":"cebpf4jnsgd1na2vs0mg"},{"bike_id":"7fec08d5-ee68-460a-ac18-925555054430","system_id":"levelo_inurba_marseille","lat":43.24152,"lon":5.36396,"is_reserved":false,"is_disabled":false,"rental_uris":{"android":"levelo://app?vid=7fec08d5-ee68-460a-ac18-925555054430","ios":"levelo://app?vid=7fec08d5-ee68-460a-ac18-925555054430"},"vehicle_type_id":"4","last_reported":1773184649,"current_range_meters":18800,"station_id":"cpo36qri1sfpv3e86is0","pricing_plan_id":"cebpf4jnsgd1na2vs0mg"},{"bike_id":"5710dcd1-e745-41ec-96c6-e4d758bdbfca","system_id":"levelo_inurba_marseille","lat":43.29507,"lon":5.39043,"is_reserved":false,"is_disabled":false,"rental_uris":{"android":"levelo://app?vid=5710dcd1-e745-41ec-96c6-e4d758bdbfca","ios":"levelo://app?vid=5710dcd1-e745-41ec-96c6-e4d758bdbfca"},"vehicle_type_id":"4","last_reported":1773184649,"current_range_meters":40000,"station_id":"ce4bh3p2rcd13ifvqdp0","pricing_plan_id":"cebpf4jnsgd1na2vs0mg"},{"bike_id":"3479940f-0567-47ce-9910-7c01560a0ef1","system_id":"levelo_inurba_marseille","lat":43.30881,"lon":5.39632,"is_reserved":false,"is_disabled":false,"rental_uris":{"android":"levelo://app?vid=3479940f-0567-47ce-9910-7c01560a0ef1","ios":"levelo://app?vid=3479940f-0567-47ce-9910-7c01560a0ef1"},"vehicle_type_id":"4","last_reported":1773184649,"current_range_meters":26800,"station_id":"ce4bh012rcd13ifvqcv0","pricing_plan_id":"cebpf4jnsgd1na2vs0mg"},{"bike_id":"fbacc4e2-20d2-440b-8334-f840b8c13084","system_id":"levelo_inurba_marseille","lat":43.23202,"lon":5.43805,"is_reserved":false,"is_disabled":false,"rental_uris":{"android":"levelo://app?vid=fbacc4e2-20d2-440b-8334-f840b8c13084","ios":"levelo://app?vid=fbacc4e2-20d2-440b-8334-f840b8c13084"},"vehicle_type_id":"4","last_reported":1773184649,"current_range_meters":24800,"station_id":"ce4bhmp2rcd13ifvqgog","pricing_plan_id":"cebpf4jnsgd1na2vs0mg"},{"bike_id":"3e5376d1-74e0-493d-8800-a1ee648fb8c9","system_id":"levelo_inurba_marseille","lat":43.30374,"lon":5.42486,"is_reserved":false,"is_disabled":false,"rental_uris":{"android":"levelo://app?vid=3e5376d1-74e0-493d-8800-a1ee648fb8c9","ios":"levelo://app?vid=3e5376d1-74e0-493d-8800-a1ee648fb8c9"},"vehicle_type_id":"4","last_reported":1773184649,"current_range_meters":35600,"station_id":"ce4bhoh2rcd13ifvqh6g","pricing_plan_id":"cebpf4jnsgd1na2vs0mg"},{"bike_id":"c95c98b4-d4f4-48f2-b9c6-eaacb07d9cdb","system_id":"levelo_inurba_marseille","lat":43.30262,"lon":5.40055,"is_reserved":false,"is_disabled":false,"rental_uris":{"android":"levelo://app?vid=c95c98b4-d4f4-48f2-b9c6-eaacb07d9cdb","ios":"levelo://app?vid=c95c98b4-d4f4-48f2-b9c6-eaacb07d9cdb"},"vehicle_type_id":"4","last_reported":1773184649,"current_range_meters":39200,"station_id":"ce4bgvh2rcd13ifvqcs0","pricing_plan_id":"cebpf4jnsgd1na2vs0mg"},{"bike_id":"19c585cb-b516-45ee-aa09-cf34d5e1db9f","system_id":"levelo_inurba_marseille","lat":43.31196,"lon":5.37676,"is_reserved":false,"is_disabled":false,"rental_uris":{"android":"levelo://app?vid=19c585cb-b516-45ee-aa09-cf34d5e1db9f","ios":"levelo://app?vid=19c585cb-b516-45ee-aa09-cf34d5e1db9f"},"vehicle_type_id":"4","last_reported":1773184649,"current_range_meters":34000,"station_id":"","pricing_plan_id":"cebpf4jnsgd1na2vs0mg"},{"bike_id":"64db144a-07de-49ea-9432-4bcd2298dea1","system_id":"levelo_inurba_marseille","lat":43.26687,"lon":5.38277,"is_reserved":false,"is_disabled":false,"rental_uris":{"android":"levelo://app?vid=64db144a-07de-49ea-9432-4bcd2298dea1","ios":"levelo://app?vid=64db144a-07de-49ea-9432-4bcd2298dea1"},"vehicle_type_id":"4","last_reported":1773184649,"current_range_meters":20400,"station_id":"ce4bhg92rcd13ifvqf90","pricing_plan_id":"cebpf4jnsgd1na2vs0mg"},{"bike_id":"6c4cf459-9d91-4f06-98a0-e2caa263890b","system_id":"levelo_inurba_marseille","lat":43.29377,"lon":5.37863,"is_reserved":false,"is_disabled":true,"rental_uris":{"android":"levelo://app?vid=6c4cf459-9d91-4f06-98a0-e2caa263890b","ios":"levelo://app?vid=6c4cf459-9d91-4f06-98a0-e2caa263890b"},"vehicle_type_id":"4","last_reported":1773184649,"current_range_meters":26800,"station_id":"ce4bgjh2rcd13ifvqbf0","pricing_plan_id":"cebpf4jnsgd1na2vs0mg"},{"bike_id":"5f535282-3087-43da-aac9-b72a2da83281","system_id":"levelo_inurba_marseille","lat":43.25488,"lon":5.37664,"is_reserved":false,"is_disabled":false,"rental_uris":{"android":"levelo://app?vid=5f535282-3087-43da-aac9-b72a2da83281","ios":"levelo://app?vid=5f535282-3087-43da-aac9-b72a2da83281"},"vehicle_type_id":"4","last_reported":1773184649,"current_range_meters":39200,"station_id":"ce4bhh12rcd13ifvqff0","pricing_plan_id":"cebpf4jnsgd1na2vs0mg"},{"bike_id":"ac9c6184-0173-4088-80bd-ad4bbe1b6da2","system_id":"levelo_inurba_marseille","lat":43.29531,"lon":5.39031,"is_reserved":false,"is_disabled":false,"rental_uris":{"android":"levelo://app?vid=ac9c6184-0173-4088-80bd-ad4bbe1b6da2","ios":"levelo://app?vid=ac9c6184-0173-4088-80bd-ad4bbe1b6da2"},"vehicle_type_id":"4","last_reported":1773184649,"current_range_meters":17200,"station_id":"ce4bh3p2rcd13ifvqdp0","pricing_plan_id":"cebpf4jnsgd1na2vs0mg"},{"bike_id":"e8c4e347-ab07-4c9c-ae8d-bc529eaae694","system_id":"levelo_inurba_marseille","lat":43.28449,"lon":5.35891,"is_reserved":false,"is_disabled":false,"rental_uris":{"android":"levelo://app?vid=e8c4e347-ab07-4c9c-ae8d-bc529eaae694","ios":"levelo://app?vid=e8c4e347-ab07-4c9c-ae8d-bc529eaae694"},"vehicle_type_id":"4","last_reported":1773184649,"current_range_meters":27600,"station_id":"ce4bhah2rcd13ifvqei0","pricing_plan_id":"cebpf4jnsgd1na2vs0mg"},{"bike_id":"0f2c85aa-5e6e-4d7d-9d50-584fced52287","system_id":"levelo_inurba_marseille","lat":43.2468,"lon":5.38947,"is_reserved":false,"is_disabled":false,"rental_uris":{"android":"levelo://app?vid=0f2c85aa-5e6e-4d7d-9d50-584fced52287","ios":"levelo://app?vid=0f2c85aa-5e6e-4d7d-9d50-584fced52287"},"vehicle_type_id":"4","last_reported":1773184649,"current_range_meters":39200,"station_id":"ce4bhg12rcd13ifvqf60","pricing_plan_id":"cebpf4jnsgd1na2vs0mg"},{"bike_id":"176c6830-1c3d-49b1-bfc6-95cd2289370a","system_id":"levelo_inurba_marseille","lat":43.31122,"lon":5.37764,"is_reserved":false,"is_disabled":false,"rental_uris":{"android":"levelo://app?vid=176c6830-1c3d-49b1-bfc6-95cd2289370a","ios":"levelo://app?vid=176c6830-1c3d-49b1-bfc6-95cd2289370a"},"vehicle_type_id":"4","last_reported":1773184649,"current_range_meters":14800,"station_id":"ce4bgt92rcd13ifvqcg0","pricing_plan_id":"cebpf4jnsgd1na2vs0mg"},{"bike_id":"f62cbee2-12e5-4cdd-bfbc-04088f9f32fa","system_id":"levelo_inurba_marseille","lat":43.28478,"lon":5.48389,"is_reserved":false,"is_disabled":false,"rental_uris":{"android":"levelo://app?vid=f62cbee2-12e5-4cdd-bfbc-04088f9f32fa","ios":"levelo://app?vid=f62cbee2-12e5-4cdd-bfbc-04088f9f32fa"},"vehicle_type_id":"4","last_reported":1773184649,"current_range_meters":24400,"station_id":"","pricing_plan_id":"cebpf4jnsgd1na2vs0mg"},{"bike_id":"437d2766-9c51-4f54-9666-0267af7d5934","system_id":"levelo_inurba_marseille","lat":43.29569,"lon":5.39986,"is_reserved":false,"is_disabled":false,"rental_uris":{"android":"levelo://app?vid=437d2766-9c51-4f54-9666-0267af7d5934","ios":"levelo://app?vid=437d2766-9c51-4f54-9666-0267af7d5934"},"vehicle_type_id":"4","last_reported":1773184649,"current_range_meters":34800,"station_id":"ce4bh312rcd13ifvqdj0","pricing_plan_id":"cebpf4jnsgd1na2vs0mg"},{"bike_id":"4765d188-4566-4930-842e-1b26707669ea","system_id":"levelo_inurba_marseille","lat":43.28854,"lon":5.3584,"is_reserved":false,"is_disabled":false,"rental_uris":{"android":"levelo://app?vid=4765d188-4566-4930-842e-1b26707669ea","ios":"levelo://app?vid=4765d188-4566-4930-842e-1b26707669ea"},"vehicle_type_id":"4","last_reported":1773184649,"current_range_meters":6400,"station_id":"ce4bhb12rcd13ifvqem0","pricing_plan_id":"cebpf4jnsgd1na2vs0mg"},{"bike_id":"1172ebc8-1241-4960-9b1c-678a2677a210","system_id":"levelo_inurba_marseille","lat":43.28862,"lon":5.42526,"is_reserved":false,"is_disabled":false,"rental_uris":{"android":"levelo://app?vid=1172ebc8-1241-4960-9b1c-678a2677a210","ios":"levelo://app?vid=1172ebc8-1241-4960-9b1c-678a2677a210"},"vehicle_type_id":"4","last_reported":1773184649,"current_range_meters":16800,"station_id":"st_d3b462108ojc7389ooeg","pricing_plan_id":"cebpf4jnsgd1na2vs0mg"},{"bike_id":"4ddf6107-bd9d-4d60-bbe1-44b17ca01c09","system_id":"levelo_inurba_marseille","lat":43.3015,"lon":5.37402,"is_reserved":false,"is_disabled":true,"rental_uris":{"android":"levelo://app?vid=4ddf6107-bd9d-4d60-bbe1-44b17ca01c09","ios":"levelo://app?vid=4ddf6107-bd9d-4d60-bbe1-44b17ca01c09"},"vehicle_type_id":"4","last_reported":1773184649,"current_range_meters":28000,"station_id":"ce4bgs92rcd13ifvqcc0","pricing_plan_id":"cebpf4jnsgd1na2vs0mg"},{"bike_id":"ba3a231f-10a0-4302-b0e7-08f11861cd04","system_id":"levelo_inurba_marseille","lat":43.28477,"lon":5.48383,"is_reserved":false,"is_disabled":false,"rental_uris":{"android":"levelo://app?vid=ba3a231f-10a0-4302-b0e7-08f11861cd04","ios":"levelo://app?vid=ba3a231f-10a0-4302-b0e7-08f11861cd04"},"vehicle_type_id":"4","last_reported":1773184649,"current_range_meters":39200,"station_id":"","pricing_plan_id":"cebpf4jnsgd1na2vs0mg"},{"bike_id":"0b3a6178-c659-4afa-a1c1-935435363474","system_id":"levelo_inurba_marseille","lat":43.23958,"lon":5.36676,"is_reserved":false,"is_disabled":false,"rental_uris":{"android":"levelo://app?vid=0b3a6178-c659-4afa-a1c1-935435363474","ios":"levelo://app?vid=0b3a6178-c659-4afa-a1c1-935435363474"},"vehicle_type_id":"4","last_reported":1773184649,"current_range_meters":40000,"station_id":"ce4bhi12rcd13ifvqfp0","pricing_plan_id":"cebpf4jnsgd1na2vs0mg"},{"bike_id":"c4127bf1-754a-4c52-a275-55f16ba90528","system_id":"levelo_inurba_marseille","lat":43.27952,"lon":5.41056,"is_reserved":false,"is_disabled":false,"rental_uris":{"android":"levelo://app?vid=c4127bf1-754a-4c52-a275-55f16ba90528","ios":"levelo://app?vid=c4127bf1-754a-4c52-a275-55f16ba90528"},"vehicle_type_id":"4","last_reported":1773184649,"current_range_meters":32000,"station_id":"ce4bhnp2rcd13ifvqh0g","pricing_plan_id":"cebpf4jnsgd1na2vs0mg"},{"bike_id":"352c9f7d-89b4-42e5-9e2e-76d972a274bd","system_id":"levelo_inurba_marseille","lat":43.29704,"lon":5.4255,"is_reserved":false,"is_disabled":false,"rental_uris":{"android":"levelo://app?vid=352c9f7d-89b4-42e5-9e2e-76d972a274bd","ios":"levelo://app?vid=352c9f7d-89b4-42e5-9e2e-76d972a274bd"},"vehicle_type_id":"4","last_reported":1773184649,"current_range_meters":12800,"station_id":"","pricing_plan_id":"cebpf4jnsgd1na2vs0mg"},{"bike_id":"1e1fce75-dd21-476c-bee4-4f0a92ad9fe3","system_id":"levelo_inurba_marseille","lat":43.29689,"lon":5.36631,"is_reserved":false,"is_disabled":false,"rental_uris":{"android":"levelo://app?vid=1e1fce75-dd21-476c-bee4-4f0a92ad9fe3","ios":"levelo://app?vid=1e1fce75-dd21-476c-bee4-4f0a92ad9fe3"},"vehicle_type_id":"4","last_reported":1773184649,"current_range_meters":36000,"station_id":"ce4bgn12rcd13ifvqbt0","pricing_plan_id":"cebpf4jnsgd1na2vs0mg"},{"bike_id":"bfee60c3-8b74-4c9f-aef3-67f690ec877a","system_id":"levelo_inurba_marseille","lat":43.30321,"lon":5.36879,"is_reserved":false,"is_disabled":false,"rental_uris":{"android":"levelo://app?vid=bfee60c3-8b74-4c9f-aef3-67f690ec877a","ios":"levelo://app?vid=bfee60c3-8b74-4c9f-aef3-67f690ec877a"},"vehicle_type_id":"4","last_reported":1773184649,"current_range_meters":16400,"station_id":"ce4bgqh2rcd13ifvqc5g","pricing_plan_id":"cebpf4jnsgd1na2vs0mg"},{"bike_id":"c59a5209-1b70-42df-8250-859beecf23e1","system_id":"levelo_inurba_marseille","lat":43.23195,"lon":5.35538,"is_reserved":false,"is_disabled":false,"rental_uris":{"android":"levelo://app?vid=c59a5209-1b70-42df-8250-859beecf23e1","ios":"levelo://app?vid=c59a5209-1b70-42df-8250-859beecf23e1"},"vehicle_type_id":"4","last_reported":1773184649,"current_range_meters":38000,"station_id":"ce4bhu92rcd13ifvqi70","pricing_plan_id":"cebpf4jnsgd1na2vs0mg"},{"bike_id":"e309c0de-c44d-4d33-8dac-96754e8fa3cc","system_id":"levelo_inurba_marseille","lat":43.31321,"lon":5.39696,"is_reserved":false,"is_disabled":false,"rental_uris":{"android":"levelo://app?vid=e309c0de-c44d-4d33-8dac-96754e8fa3cc","ios":"levelo://app?vid=e309c0de-c44d-4d33-8dac-96754e8fa3cc"},"vehicle_type_id":"4","last_reported":1773184649,"current_range_meters":40000,"station_id":"ce4bgvp2rcd13ifvqcu0","pricing_plan_id":"cebpf4jnsgd1na2vs0mg"},{"bike_id":"fed428a6-a508-4132-94d7-783075e10fe3","system_id":"levelo_inurba_marseille","lat":43.32363,"lon":5.36743,"is_reserved":false,"is_disabled":false,"rental_uris":{"android":"levelo://app?vid=fed428a6-a508-4132-94d7-783075e10fe3","ios":"levelo://app?vid=fed428a6-a508-4132-94d7-783075e10fe3"},"vehicle_type_id":"4","last_reported":1773184649,"current_range_meters":37600,"station_id":"ce4bhsh2rcd13ifvqi2g","pricing_plan_id":"cebpf4jnsgd1na2vs0mg"},{"bike_id":"906d13d2-107e-403c-827b-672c816f5f28","system_id":"levelo_inurba_marseille","lat":43.31276,"lon":5.40157,"is_reserved":false,"is_disabled":false,"rental_uris":{"android":"levelo://app?vid=906d13d2-107e-403c-827b-672c816f5f28","ios":"levelo://app?vid=906d13d2-107e-403c-827b-672c816f5f28"},"vehicle_type_id":"4","last_reported":1773184649,"current_range_meters":20400,"station_id":"ce4bh092rcd13ifvqd30","pricing_plan_id":"cebpf4jnsgd1na2vs0mg"},{"bike_id":"b77fb604-0801-47d9-99a2-3844aa44df9a","system_id":"levelo_inurba_marseille","lat":43.25331,"lon":5.4217,"is_reserved":false,"is_disabled":false,"rental_uris":{"android":"levelo://app?vid=b77fb604-0801-47d9-99a2-3844aa44df9a","ios":"levelo://app?vid=b77fb604-0801-47d9-99a2-3844aa44df9a"},"vehicle_type_id":"4","last_reported":1773184649,"current_range_meters":30000,"station_id":"st_d2m65c5bi1j21697t3ng","pricing_plan_id":"cebpf4jnsgd1na2vs0mg"},{"bike_id":"dcad9259-a4d3-4cc7-94fc-0c8a7321317d","system_id":"levelo_inurba_marseille","lat":43.27068,"lon":5.38309,"is_reserved":false,"is_disabled":false,"rental_uris":{"android":"levelo://app?vid=dcad9259-a4d3-4cc7-94fc-0c8a7321317d","ios":"levelo://app?vid=dcad9259-a4d3-4cc7-94fc-0c8a7321317d"},"vehicle_type_id":"4","last_reported":1773184649,"current_range_meters":32400,"station_id":"st_d3n2fo6cfp8s73cte1j0","pricing_plan_id":"cebpf4jnsgd1na2vs0mg"},{"bike_id":"54dedf02-9946-4658-9e75-e2e8b7cf4198","system_id":"levelo_inurba_marseille","lat":43.24163,"lon":5.36389,"is_reserved":false,"is_disabled":false,"rental_uris":{"android":"levelo://app?vid=54dedf02-9946-4658-9e75-e2e8b7cf4198","ios":"levelo://app?vid=54dedf02-9946-4658-9e75-e2e8b7cf4198"},"vehicle_type_id":"4","last_reported":1773184649,"current_range_meters":19600,"station_id":"cpo36qri1sfpv3e86is0","pricing_plan_id":"cebpf4jnsgd1na2vs0mg"},{"bike_id":"22fe3511-cf31-4996-85b4-48da9351a84c","system_id":"levelo_inurba_marseille","lat":43.27203,"lon":5.3916,"is_reserved":false,"is_disabled":false,"rental_uris":{"android":"levelo://app?vid=22fe3511-cf31-4996-85b4-48da9351a84c","ios":"levelo://app?vid=22fe3511-cf31-4996-85b4-48da9351a84c"},"vehicle_type_id":"4","last_reported":1773184649,"current_range_meters":33600,"station_id":"ce4bhhp2rcd13ifvqfm0","pricing_plan_id":"cebpf4jnsgd1na2vs0mg"},{"bike_id":"853d54ba-396f-4604-bb19-6d260a4870cf","system_id":"levelo_inurba_marseille","lat":43.244,"lon":5.37059,"is_reserved":false,"is_disabled":false,"rental_uris":{"android":"levelo://app?vid=853d54ba-396f-4604-bb19-6d260a4870cf","ios":"levelo://app?vid=853d54ba-396f-4604-bb19-6d260a4870cf"},"vehicle_type_id":"4","last_reported":1773184649,"current_range_meters":11200,"station_id":"ce4bhhh2rcd13ifvqfk0","pricing_plan_id":"cebpf4jnsgd1na2vs0mg"},{"bike_id":"0bd65bd6-432d-4f03-9bc1-a502b4962690","system_id":"levelo_inurba_marseille","lat":43.29288,"lon":5.37427,"is_reserved":false,"is_disabled":false,"rental_uris":{"android":"levelo://app?vid=0bd65bd6-432d-4f03-9bc1-a502b4962690","ios":"levelo://app?vid=0bd65bd6-432d-4f03-9bc1-a502b4962690"},"vehicle_type_id":"4","last_reported":1773184649,"current_range_meters":27600,"station_id":"ce4bgi12rcd13ifvqb70","pricing_plan_id":"cebpf4jnsgd1na2vs0mg"},{"bike_id":"b6942993-6967-4f6c-b7e8-d4ca854e4d0e","system_id":"levelo_inurba_marseille","lat":43.25008,"lon":5.38946,"is_reserved":false,"is_disabled":false,"rental_uris":{"android":"levelo://app?vid=b6942993-6967-4f6c-b7e8-d4ca854e4d0e","ios":"levelo://app?vid=b6942993-6967-4f6c-b7e8-d4ca854e4d0e"},"vehicle_type_id":"4","last_reported":1773184649,"current_range_meters":40000,"station_id":"ce4bhgp2rcd13ifvqfd0","pricing_plan_id":"cebpf4jnsgd1na2vs0mg"},{"bike_id":"a3f661a0-e0b9-4cb0-b14e-dcaf0d7cced4","system_id":"levelo_inurba_marseille","lat":43.30548,"lon":5.36697,"is_reserved":false,"is_disabled":false,"rental_uris":{"android":"levelo://app?vid=a3f661a0-e0b9-4cb0-b14e-dcaf0d7cced4","ios":"levelo://app?vid=a3f661a0-e0b9-4cb0-b14e-dcaf0d7cced4"},"vehicle_type_id":"4","last_reported":1773184649,"current_range_meters":11200,"station_id":"ce4bgrp2rcd13ifvqc9g","pricing_plan_id":"cebpf4jnsgd1na2vs0mg"},{"bike_id":"a540b441-3928-4042-84dc-78cbd8de6fd0","system_id":"levelo_inurba_marseille","lat":43.24393,"lon":5.37094,"is_reserved":false,"is_disabled":false,"rental_uris":{"android":"levelo://app?vid=a540b441-3928-4042-84dc-78cbd8de6fd0","ios":"levelo://app?vid=a540b441-3928-4042-84dc-78cbd8de6fd0"},"vehicle_type_id":"4","last_reported":1773184649,"current_range_meters":36400,"station_id":"ce4bhhh2rcd13ifvqfk0","pricing_plan_id":"cebpf4jnsgd1na2vs0mg"},{"bike_id":"6cfdbc08-aee4-4c12-a1c3-a07efd50da2b","system_id":"levelo_inurba_marseille","lat":43.27935,"lon":5.41055,"is_reserved":false,"is_disabled":false,"rental_uris":{"android":"levelo://app?vid=6cfdbc08-aee4-4c12-a1c3-a07efd50da2b","ios":"levelo://app?vid=6cfdbc08-aee4-4c12-a1c3-a07efd50da2b"},"vehicle_type_id":"4","last_reported":1773184649,"current_range_meters":4000,"station_id":"ce4bhnp2rcd13ifvqh0g","pricing_plan_id":"cebpf4jnsgd1na2vs0mg"},{"bike_id":"d2a1bddb-abc2-4ccc-9c5f-dc2c9be0a497","system_id":"levelo_inurba_marseille","lat":43.29764,"lon":5.42724,"is_reserved":false,"is_disabled":false,"rental_uris":{"android":"levelo://app?vid=d2a1bddb-abc2-4ccc-9c5f-dc2c9be0a497","ios":"levelo://app?vid=d2a1bddb-abc2-4ccc-9c5f-dc2c9be0a497"},"vehicle_type_id":"4","last_reported":1773184649,"current_range_meters":3200,"station_id":"st_d3md5207bmas73dh9klg","pricing_plan_id":"cebpf4jnsgd1na2vs0mg"},{"bike_id":"dab334e7-a2a6-4a95-aea0-00ba8c9b639d","system_id":"levelo_inurba_marseille","lat":43.28425,"lon":5.34993,"is_reserved":false,"is_disabled":true,"rental_uris":{"android":"levelo://app?vid=dab334e7-a2a6-4a95-aea0-00ba8c9b639d","ios":"levelo://app?vid=dab334e7-a2a6-4a95-aea0-00ba8c9b639d"},"vehicle_type_id":"4","last_reported":1773184649,"current_range_meters":8800,"station_id":"ce4bhbh2rcd13ifvqepg","pricing_plan_id":"cebpf4jnsgd1na2vs0mg"},{"bike_id":"d8c6e0f3-6a1d-4b44-ab46-83b2eab81619","system_id":"levelo_inurba_marseille","lat":43.32356,"lon":5.36734,"is_reserved":false,"is_disabled":false,"rental_uris":{"android":"levelo://app?vid=d8c6e0f3-6a1d-4b44-ab46-83b2eab81619","ios":"levelo://app?vid=d8c6e0f3-6a1d-4b44-ab46-83b2eab81619"},"vehicle_type_id":"4","last_reported":1773184649,"current_range_meters":3200,"station_id":"ce4bhsh2rcd13ifvqi2g","pricing_plan_id":"cebpf4jnsgd1na2vs0mg"},{"bike_id":"e0553987-86c9-48db-9bc0-f9ec0cbe7005","system_id":"levelo_inurba_marseille","lat":43.28837,"lon":5.3589,"is_reserved":false,"is_disabled":false,"rental_uris":{"android":"levelo://app?vid=e0553987-86c9-48db-9bc0-f9ec0cbe7005","ios":"levelo://app?vid=e0553987-86c9-48db-9bc0-f9ec0cbe7005"},"vehicle_type_id":"4","last_reported":1773184649,"current_range_meters":35600,"station_id":"ce4bhb12rcd13ifvqem0","pricing_plan_id":"cebpf4jnsgd1na2vs0mg"},{"bike_id":"2ac129ef-0500-4e15-8179-6818cd0eb7ac","system_id":"levelo_inurba_marseille","lat":43.27074,"lon":5.42276,"is_reserved":false,"is_disabled":false,"rental_uris":{"android":"levelo://app?vid=2ac129ef-0500-4e15-8179-6818cd0eb7ac","ios":"levelo://app?vid=2ac129ef-0500-4e15-8179-6818cd0eb7ac"},"vehicle_type_id":"4","last_reported":1773184649,"current_range_meters":9600,"station_id":"ce4bhk92rcd13ifvqgb0","pricing_plan_id":"cebpf4jnsgd1na2vs0mg"},{"bike_id":"09b51f1e-4608-4273-bc57-8753e2939ff2","system_id":"levelo_inurba_marseille","lat":43.29929,"lon":5.36529,"is_reserved":false,"is_disabled":false,"rental_uris":{"android":"levelo://app?vid=09b51f1e-4608-4273-bc57-8753e2939ff2","ios":"levelo://app?vid=09b51f1e-4608-4273-bc57-8753e2939ff2"},"vehicle_type_id":"4","last_reported":1773184649,"current_range_meters":35600,"station_id":"ce4bgm92rcd13ifvqbr0","pricing_plan_id":"cebpf4jnsgd1na2vs0mg"},{"bike_id":"d798d12f-1e6e-4b08-81f3-29a3ae0dfee0","system_id":"levelo_inurba_marseille","lat":43.29701,"lon":5.37289,"is_reserved":false,"is_disabled":false,"rental_uris":{"android":"levelo://app?vid=d798d12f-1e6e-4b08-81f3-29a3ae0dfee0","ios":"levelo://app?vid=d798d12f-1e6e-4b08-81f3-29a3ae0dfee0"},"vehicle_type_id":"4","last_reported":1773184649,"current_range_meters":39200,"station_id":"ce4bgk12rcd13ifvqbj0","pricing_plan_id":"cebpf4jnsgd1na2vs0mg"},{"bike_id":"5d270c1f-ad62-4560-a99d-0b02259edd52","system_id":"levelo_inurba_marseille","lat":43.29869,"lon":5.39736,"is_reserved":false,"is_disabled":false,"rental_uris":{"android":"levelo://app?vid=5d270c1f-ad62-4560-a99d-0b02259edd52","ios":"levelo://app?vid=5d270c1f-ad62-4560-a99d-0b02259edd52"},"vehicle_type_id":"4","last_reported":1773184649,"current_range_meters":14800,"station_id":"ce4bh0h2rcd13ifvqd50","pricing_plan_id":"cebpf4jnsgd1na2vs0mg"},{"bike_id":"ea2b5425-627c-410f-8b17-3b8ea575ed82","system_id":"levelo_inurba_marseille","lat":43.23192,"lon":5.39982,"is_reserved":false,"is_disabled":false,"rental_uris":{"android":"levelo://app?vid=ea2b5425-627c-410f-8b17-3b8ea575ed82","ios":"levelo://app?vid=ea2b5425-627c-410f-8b17-3b8ea575ed82"},"vehicle_type_id":"4","last_reported":1773184649,"current_range_meters":36800,"station_id":"ce4bhn12rcd13ifvqgqg","pricing_plan_id":"cebpf4jnsgd1na2vs0mg"},{"bike_id":"a8ea74be-ed16-4688-baa8-29a77a5d63a7","system_id":"levelo_inurba_marseille","lat":43.24691,"lon":5.38159,"is_reserved":false,"is_disabled":false,"rental_uris":{"android":"levelo://app?vid=a8ea74be-ed16-4688-baa8-29a77a5d63a7","ios":"levelo://app?vid=a8ea74be-ed16-4688-baa8-29a77a5d63a7"},"vehicle_type_id":"4","last_reported":1773184649,"current_range_meters":7200,"station_id":"ce4bhih2rcd13ifvqfr0","pricing_plan_id":"cebpf4jnsgd1na2vs0mg"},{"bike_id":"d8cd4453-c6e6-4a38-b87d-a28fdc1f93a6","system_id":"levelo_inurba_marseille","lat":43.2951,"lon":5.39404,"is_reserved":false,"is_disabled":false,"rental_uris":{"android":"levelo://app?vid=d8cd4453-c6e6-4a38-b87d-a28fdc1f93a6","ios":"levelo://app?vid=d8cd4453-c6e6-4a38-b87d-a28fdc1f93a6"},"vehicle_type_id":"4","last_reported":1773184649,"current_range_meters":19600,"station_id":"ce4bh292rcd13ifvqdf0","pricing_plan_id":"cebpf4jnsgd1na2vs0mg"},{"bike_id":"4ecdb169-55e8-48b9-a791-c5eff5aa3f9e","system_id":"levelo_inurba_marseille","lat":43.24393,"lon":5.3706,"is_reserved":false,"is_disabled":false,"rental_uris":{"android":"levelo://app?vid=4ecdb169-55e8-48b9-a791-c5eff5aa3f9e","ios":"levelo://app?vid=4ecdb169-55e8-48b9-a791-c5eff5aa3f9e"},"vehicle_type_id":"4","last_reported":1773184649,"current_range_meters":12800,"station_id":"ce4bhhh2rcd13ifvqfk0","pricing_plan_id":"cebpf4jnsgd1na2vs0mg"},{"bike_id":"0a2f9b28-6219-4106-b011-3026133a767c","system_id":"levelo_inurba_marseille","lat":43.29613,"lon":5.38101,"is_reserved":false,"is_disabled":true,"rental_uris":{"android":"levelo://app?vid=0a2f9b28-6219-4106-b011-3026133a767c","ios":"levelo://app?vid=0a2f9b28-6219-4106-b011-3026133a767c"},"vehicle_type_id":"4","last_reported":1773184649,"current_range_meters":24000,"station_id":"ce4bgl12rcd13ifvqbo0","pricing_plan_id":"cebpf4jnsgd1na2vs0mg"},{"bike_id":"a3d84ca1-bdd2-40b3-81e8-c9df3d12f6c1","system_id":"levelo_inurba_marseille","lat":43.29522,"lon":5.39041,"is_reserved":false,"is_disabled":false,"rental_uris":{"android":"levelo://app?vid=a3d84ca1-bdd2-40b3-81e8-c9df3d12f6c1","ios":"levelo://app?vid=a3d84ca1-bdd2-40b3-81e8-c9df3d12f6c1"},"vehicle_type_id":"4","last_reported":1773184649,"current_range_meters":25600,"station_id":"ce4bh3p2rcd13ifvqdp0","pricing_plan_id":"cebpf4jnsgd1na2vs0mg"},{"bike_id":"333c1115-21ab-4cac-9273-ad709bdfe532","system_id":"levelo_inurba_marseille","lat":43.27492,"lon":5.42446,"is_reserved":false,"is_disabled":false,"rental_uris":{"android":"levelo://app?vid=333c1115-21ab-4cac-9273-ad709bdfe532","ios":"levelo://app?vid=333c1115-21ab-4cac-9273-ad709bdfe532"},"vehicle_type_id":"4","last_reported":1773184649,"current_range_meters":39200,"station_id":"ce4bhn92rcd13ifvqgrg","pricing_plan_id":"cebpf4jnsgd1na2vs0mg"},{"bike_id":"474db209-38e8-4330-b23e-0b51d90d5f0a","system_id":"levelo_inurba_marseille","lat":43.29548,"lon":5.4229,"is_reserved":false,"is_disabled":false,"rental_uris":{"android":"levelo://app?vid=474db209-38e8-4330-b23e-0b51d90d5f0a","ios":"levelo://app?vid=474db209-38e8-4330-b23e-0b51d90d5f0a"},"vehicle_type_id":"4","last_reported":1773184649,"current_range_meters":38800,"station_id":"ce4bhph2rcd13ifvqhdg","pricing_plan_id":"cebpf4jnsgd1na2vs0mg"},{"bike_id":"53ac44cb-67bd-4fe8-b47b-110b609c7a81","system_id":"levelo_inurba_marseille","lat":43.25103,"lon":5.39512,"is_reserved":false,"is_disabled":false,"rental_uris":{"android":"levelo://app?vid=53ac44cb-67bd-4fe8-b47b-110b609c7a81","ios":"levelo://app?vid=53ac44cb-67bd-4fe8-b47b-110b609c7a81"},"vehicle_type_id":"4","last_reported":1773184649,"current_range_meters":39200,"station_id":"ce4bhm12rcd13ifvqgkg","pricing_plan_id":"cebpf4jnsgd1na2vs0mg"},{"bike_id":"de41fd44-36e4-4949-a72f-8ebd158d5853","system_id":"levelo_inurba_marseille","lat":43.28473,"lon":5.35878,"is_reserved":false,"is_disabled":false,"rental_uris":{"android":"levelo://app?vid=de41fd44-36e4-4949-a72f-8ebd158d5853","ios":"levelo://app?vid=de41fd44-36e4-4949-a72f-8ebd158d5853"},"vehicle_type_id":"4","last_reported":1773184649,"current_range_meters":16400,"station_id":"ce4bhah2rcd13ifvqei0","pricing_plan_id":"cebpf4jnsgd1na2vs0mg"},{"bike_id":"7c18f0e4-d362-4e80-b231-56179e94cd0a","system_id":"levelo_inurba_marseille","lat":43.27806,"lon":5.40707,"is_reserved":false,"is_disabled":false,"rental_uris":{"android":"levelo://app?vid=7c18f0e4-d362-4e80-b231-56179e94cd0a","ios":"levelo://app?vid=7c18f0e4-d362-4e80-b231-56179e94cd0a"},"vehicle_type_id":"4","last_reported":1773184649,"current_range_meters":10800,"station_id":"ce4bhnh2rcd13ifvqgtg","pricing_plan_id":"cebpf4jnsgd1na2vs0mg"},{"bike_id":"db6c5e44-badd-4aab-bfd1-70d9c79ea856","system_id":"levelo_inurba_marseille","lat":43.23768,"lon":5.36632,"is_reserved":false,"is_disabled":false,"rental_uris":{"android":"levelo://app?vid=db6c5e44-badd-4aab-bfd1-70d9c79ea856","ios":"levelo://app?vid=db6c5e44-badd-4aab-bfd1-70d9c79ea856"},"vehicle_type_id":"4","last_reported":1773184649,"current_range_meters":33600,"station_id":"st_d3nk18o9ro0c73en2l3g","pricing_plan_id":"cebpf4jnsgd1na2vs0mg"},{"bike_id":"692ca284-cf18-4ca4-a976-0b53d47ab127","system_id":"levelo_inurba_marseille","lat":43.28403,"lon":5.37521,"is_reserved":false,"is_disabled":false,"rental_uris":{"android":"levelo://app?vid=692ca284-cf18-4ca4-a976-0b53d47ab127","ios":"levelo://app?vid=692ca284-cf18-4ca4-a976-0b53d47ab127"},"vehicle_type_id":"4","last_reported":1773184649,"current_range_meters":33200,"station_id":"ce4bh412rcd13ifvqds0","pricing_plan_id":"cebpf4jnsgd1na2vs0mg"},{"bike_id":"7567ece7-d0eb-41af-8836-79be3883e346","system_id":"levelo_inurba_marseille","lat":43.27197,"lon":5.39189,"is_reserved":false,"is_disabled":false,"rental_uris":{"android":"levelo://app?vid=7567ece7-d0eb-41af-8836-79be3883e346","ios":"levelo://app?vid=7567ece7-d0eb-41af-8836-79be3883e346"},"vehicle_type_id":"4","last_reported":1773184649,"current_range_meters":28400,"station_id":"ce4bhhp2rcd13ifvqfm0","pricing_plan_id":"cebpf4jnsgd1na2vs0mg"},{"bike_id":"ebd6088d-ab52-4b6d-b6be-62de3fd47906","system_id":"levelo_inurba_marseille","lat":43.30055,"lon":5.39883,"is_reserved":false,"is_disabled":true,"rental_uris":{"android":"levelo://app?vid=ebd6088d-ab52-4b6d-b6be-62de3fd47906","ios":"levelo://app?vid=ebd6088d-ab52-4b6d-b6be-62de3fd47906"},"vehicle_type_id":"4","last_reported":1773184649,"current_range_meters":22400,"station_id":"","pricing_plan_id":"cebpf4jnsgd1na2vs0mg"},{"bike_id":"a8cec461-37aa-4545-98e4-ad56cc5c20a4","system_id":"levelo_inurba_marseille","lat":43.30607,"lon":5.37212,"is_reserved":false,"is_disabled":false,"rental_uris":{"android":"levelo://app?vid=a8cec461-37aa-4545-98e4-ad56cc5c20a4","ios":"levelo://app?vid=a8cec461-37aa-4545-98e4-ad56cc5c20a4"},"vehicle_type_id":"4","last_reported":1773184649,"current_range_meters":22000,"station_id":"ce4bgqh2rcd13ifvqc4g","pricing_plan_id":"cebpf4jnsgd1na2vs0mg"},{"bike_id":"80f23b02-aa1a-4857-bb85-23ed1fef238a","system_id":"levelo_inurba_marseille","lat":43.286285,"lon":5.383541,"is_reserved":false,"is_disabled":false,"rental_uris":{"android":"levelo://app?vid=80f23b02-aa1a-4857-bb85-23ed1fef238a","ios":"levelo://app?vid=80f23b02-aa1a-4857-bb85-23ed1fef238a"},"vehicle_type_id":"4","last_reported":1773184649,"current_range_meters":33200,"station_id":"ce4bhc92rcd13ifvqetg","pricing_plan_id":"cebpf4jnsgd1na2vs0mg"},{"bike_id":"552527b2-3992-442f-8023-61651bb7b9e6","system_id":"levelo_inurba_marseille","lat":43.2453,"lon":5.39541,"is_reserved":false,"is_disabled":true,"rental_uris":{"android":"levelo://app?vid=552527b2-3992-442f-8023-61651bb7b9e6","ios":"levelo://app?vid=552527b2-3992-442f-8023-61651bb7b9e6"},"vehicle_type_id":"4","last_reported":1773184649,"current_range_meters":30000,"station_id":"ce4bhlp2rcd13ifvqgjg","pricing_plan_id":"cebpf4jnsgd1na2vs0mg"},{"bike_id":"12a1c2b6-4e2d-4189-811b-5f8bfe1b37c4","system_id":"levelo_inurba_marseille","lat":43.27974,"lon":5.38707,"is_reserved":false,"is_disabled":false,"rental_uris":{"android":"levelo://app?vid=12a1c2b6-4e2d-4189-811b-5f8bfe1b37c4","ios":"levelo://app?vid=12a1c2b6-4e2d-4189-811b-5f8bfe1b37c4"},"vehicle_type_id":"4","last_reported":1773184649,"current_range_meters":24400,"station_id":"ce4bhg12rcd13ifvqf80","pricing_plan_id":"cebpf4jnsgd1na2vs0mg"},{"bike_id":"138d701b-4f88-4348-91ce-225d2f57e3bc","system_id":"levelo_inurba_marseille","lat":43.24065,"lon":5.37752,"is_reserved":false,"is_disabled":false,"rental_uris":{"android":"levelo://app?vid=138d701b-4f88-4348-91ce-225d2f57e3bc","ios":"levelo://app?vid=138d701b-4f88-4348-91ce-225d2f57e3bc"},"vehicle_type_id":"4","last_reported":1773184649,"current_range_meters":3600,"station_id":"ce4bhnp2rcd13ifvqgvg","pricing_plan_id":"cebpf4jnsgd1na2vs0mg"},{"bike_id":"3bb30847-837b-4c44-9e3e-b9ace5e9b620","system_id":"levelo_inurba_marseille","lat":43.29661,"lon":5.37552,"is_reserved":false,"is_disabled":true,"rental_uris":{"android":"levelo://app?vid=3bb30847-837b-4c44-9e3e-b9ace5e9b620","ios":"levelo://app?vid=3bb30847-837b-4c44-9e3e-b9ace5e9b620"},"vehicle_type_id":"4","last_reported":1773184649,"current_range_meters":4000,"station_id":"","pricing_plan_id":"cebpf4jnsgd1na2vs0mg"},{"bike_id":"4198a94b-b036-48d2-a0ce-1c96a42b9197","system_id":"levelo_inurba_marseille","lat":43.28419,"lon":5.34988,"is_reserved":false,"is_disabled":false,"rental_uris":{"android":"levelo://app?vid=4198a94b-b036-48d2-a0ce-1c96a42b9197","ios":"levelo://app?vid=4198a94b-b036-48d2-a0ce-1c96a42b9197"},"vehicle_type_id":"4","last_reported":1773184649,"current_range_meters":32400,"station_id":"ce4bhbh2rcd13ifvqepg","pricing_plan_id":"cebpf4jnsgd1na2vs0mg"},{"bike_id":"116884d9-4a07-439b-9337-8d3d77ac1c8e","system_id":"levelo_inurba_marseille","lat":43.26058,"lon":5.39388,"is_reserved":false,"is_disabled":false,"rental_uris":{"android":"levelo://app?vid=116884d9-4a07-439b-9337-8d3d77ac1c8e","ios":"levelo://app?vid=116884d9-4a07-439b-9337-8d3d77ac1c8e"},"vehicle_type_id":"4","last_reported":1773184649,"current_range_meters":39200,"station_id":"ce4bhh92rcd13ifvqfj0","pricing_plan_id":"cebpf4jnsgd1na2vs0mg"},{"bike_id":"e50d48ed-53b5-42aa-8d06-2635f15d8cc9","system_id":"levelo_inurba_marseille","lat":43.28447,"lon":5.35916,"is_reserved":false,"is_disabled":true,"rental_uris":{"android":"levelo://app?vid=e50d48ed-53b5-42aa-8d06-2635f15d8cc9","ios":"levelo://app?vid=e50d48ed-53b5-42aa-8d06-2635f15d8cc9"},"vehicle_type_id":"4","last_reported":1773184649,"current_range_meters":3600,"station_id":"ce4bhah2rcd13ifvqei0","pricing_plan_id":"cebpf4jnsgd1na2vs0mg"},{"bike_id":"8617eb9a-d411-493c-b1fc-2b5d158e9757","system_id":"levelo_inurba_marseille","lat":43.26239,"lon":5.4046,"is_reserved":false,"is_disabled":false,"rental_uris":{"android":"levelo://app?vid=8617eb9a-d411-493c-b1fc-2b5d158e9757","ios":"levelo://app?vid=8617eb9a-d411-493c-b1fc-2b5d158e9757"},"vehicle_type_id":"4","last_reported":1773184649,"current_range_meters":10000,"station_id":"ce4bhmh2rcd13ifvqgmg","pricing_plan_id":"cebpf4jnsgd1na2vs0mg"},{"bike_id":"23abd777-1ea1-4551-9cdb-9e7c7fae5c18","system_id":"levelo_inurba_marseille","lat":43.30803,"lon":5.38148,"is_reserved":false,"is_disabled":false,"rental_uris":{"android":"levelo://app?vid=23abd777-1ea1-4551-9cdb-9e7c7fae5c18","ios":"levelo://app?vid=23abd777-1ea1-4551-9cdb-9e7c7fae5c18"},"vehicle_type_id":"4","last_reported":1773184649,"current_range_meters":40000,"station_id":"ce4bgt12rcd13ifvqce0","pricing_plan_id":"cebpf4jnsgd1na2vs0mg"},{"bike_id":"a63d22a1-9803-47da-97c5-9eb5069b8019","system_id":"levelo_inurba_marseille","lat":43.25846,"lon":5.39414,"is_reserved":false,"is_disabled":false,"rental_uris":{"android":"levelo://app?vid=a63d22a1-9803-47da-97c5-9eb5069b8019","ios":"levelo://app?vid=a63d22a1-9803-47da-97c5-9eb5069b8019"},"vehicle_type_id":"4","last_reported":1773184649,"current_range_meters":39200,"station_id":"ce4bhip2rcd13ifvqft0","pricing_plan_id":"cebpf4jnsgd1na2vs0mg"},{"bike_id":"2a742de9-c952-4962-9f6a-5c6c22c800ed","system_id":"levelo_inurba_marseille","lat":43.31521,"lon":5.37315,"is_reserved":false,"is_disabled":false,"rental_uris":{"android":"levelo://app?vid=2a742de9-c952-4962-9f6a-5c6c22c800ed","ios":"levelo://app?vid=2a742de9-c952-4962-9f6a-5c6c22c800ed"},"vehicle_type_id":"4","last_reported":1773184649,"current_range_meters":30400,"station_id":"ce4bgt12rcd13ifvqcd0","pricing_plan_id":"cebpf4jnsgd1na2vs0mg"},{"bike_id":"66bcaef7-970d-40e2-9705-c85f3aeb11c5","system_id":"levelo_inurba_marseille","lat":43.30597,"lon":5.39366,"is_reserved":false,"is_disabled":false,"rental_uris":{"android":"levelo://app?vid=66bcaef7-970d-40e2-9705-c85f3aeb11c5","ios":"levelo://app?vid=66bcaef7-970d-40e2-9705-c85f3aeb11c5"},"vehicle_type_id":"4","last_reported":1773184649,"current_range_meters":8000,"station_id":"ce4bh0p2rcd13ifvqd80","pricing_plan_id":"cebpf4jnsgd1na2vs0mg"},{"bike_id":"8f55006e-4935-41c3-901b-3a71809b7777","system_id":"levelo_inurba_marseille","lat":43.28852,"lon":5.35864,"is_reserved":false,"is_disabled":false,"rental_uris":{"android":"levelo://app?vid=8f55006e-4935-41c3-901b-3a71809b7777","ios":"levelo://app?vid=8f55006e-4935-41c3-901b-3a71809b7777"},"vehicle_type_id":"4","last_reported":1773184649,"current_range_meters":18800,"station_id":"ce4bhb12rcd13ifvqem0","pricing_plan_id":"cebpf4jnsgd1na2vs0mg"},{"bike_id":"319a08d8-a4cc-49c2-ad6a-203b9461b567","system_id":"levelo_inurba_marseille","lat":43.29281,"lon":5.37179,"is_reserved":false,"is_disabled":false,"rental_uris":{"android":"levelo://app?vid=319a08d8-a4cc-49c2-ad6a-203b9461b567","ios":"levelo://app?vid=319a08d8-a4cc-49c2-ad6a-203b9461b567"},"vehicle_type_id":"4","last_reported":1773184649,"current_range_meters":39200,"station_id":"ce4bgh92rcd13ifvqb40","pricing_plan_id":"cebpf4jnsgd1na2vs0mg"},{"bike_id":"8b2e521b-1101-44fe-9d4a-0344f080c81c","system_id":"levelo_inurba_marseille","lat":43.28466,"lon":5.48389,"is_reserved":false,"is_disabled":false,"rental_uris":{"android":"levelo://app?vid=8b2e521b-1101-44fe-9d4a-0344f080c81c","ios":"levelo://app?vid=8b2e521b-1101-44fe-9d4a-0344f080c81c"},"vehicle_type_id":"4","last_reported":1773184649,"current_range_meters":38000,"station_id":"","pricing_plan_id":"cebpf4jnsgd1na2vs0mg"},{"bike_id":"f83b01a4-2d1c-4875-acf0-cf79725805a2","system_id":"levelo_inurba_marseille","lat":43.28706,"lon":5.37384,"is_reserved":false,"is_disabled":false,"rental_uris":{"android":"levelo://app?vid=f83b01a4-2d1c-4875-acf0-cf79725805a2","ios":"levelo://app?vid=f83b01a4-2d1c-4875-acf0-cf79725805a2"},"vehicle_type_id":"4","last_reported":1773184649,"current_range_meters":39200,"station_id":"ce4bh3p2rcd13ifvqdq0","pricing_plan_id":"cebpf4jnsgd1na2vs0mg"},{"bike_id":"1697678c-c8a4-4c47-ade7-901915c540a8","system_id":"levelo_inurba_marseille","lat":43.29579,"lon":5.38123,"is_reserved":false,"is_disabled":true,"rental_uris":{"android":"levelo://app?vid=1697678c-c8a4-4c47-ade7-901915c540a8","ios":"levelo://app?vid=1697678c-c8a4-4c47-ade7-901915c540a8"},"vehicle_type_id":"4","last_reported":1773184649,"current_range_meters":8400,"station_id":"ce4bgl12rcd13ifvqbo0","pricing_plan_id":"cebpf4jnsgd1na2vs0mg"},{"bike_id":"67f46bf7-bdd0-4a4b-a8fa-3ce501504e47","system_id":"levelo_inurba_marseille","lat":43.31365,"lon":5.38507,"is_reserved":false,"is_disabled":false,"rental_uris":{"android":"levelo://app?vid=67f46bf7-bdd0-4a4b-a8fa-3ce501504e47","ios":"levelo://app?vid=67f46bf7-bdd0-4a4b-a8fa-3ce501504e47"},"vehicle_type_id":"4","last_reported":1773184649,"current_range_meters":37600,"station_id":"ce4bgt92rcd13ifvqcf0","pricing_plan_id":"cebpf4jnsgd1na2vs0mg"},{"bike_id":"cdda2338-2208-404b-81bf-2fc8f9a077ea","system_id":"levelo_inurba_marseille","lat":43.28607,"lon":5.39892,"is_reserved":false,"is_disabled":false,"rental_uris":{"android":"levelo://app?vid=cdda2338-2208-404b-81bf-2fc8f9a077ea","ios":"levelo://app?vid=cdda2338-2208-404b-81bf-2fc8f9a077ea"},"vehicle_type_id":"4","last_reported":1773184649,"current_range_meters":28000,"station_id":"st_d4a7ka997mjs738ck50g","pricing_plan_id":"cebpf4jnsgd1na2vs0mg"},{"bike_id":"ffbacc37-ba5c-44cc-b5a6-4ebb97c9859b","system_id":"levelo_inurba_marseille","lat":43.29767,"lon":5.39378,"is_reserved":false,"is_disabled":false,"rental_uris":{"android":"levelo://app?vid=ffbacc37-ba5c-44cc-b5a6-4ebb97c9859b","ios":"levelo://app?vid=ffbacc37-ba5c-44cc-b5a6-4ebb97c9859b"},"vehicle_type_id":"4","last_reported":1773184649,"current_range_meters":30000,"station_id":"chh1huq6cuj3fo74tm60","pricing_plan_id":"cebpf4jnsgd1na2vs0mg"},{"bike_id":"db8d078e-42eb-4ad3-93fc-b2a69084043d","system_id":"levelo_inurba_marseille","lat":43.2782,"lon":5.4073,"is_reserved":false,"is_disabled":false,"rental_uris":{"android":"levelo://app?vid=db8d078e-42eb-4ad3-93fc-b2a69084043d","ios":"levelo://app?vid=db8d078e-42eb-4ad3-93fc-b2a69084043d"},"vehicle_type_id":"4","last_reported":1773184649,"current_range_meters":39200,"station_id":"ce4bhnh2rcd13ifvqgtg","pricing_plan_id":"cebpf4jnsgd1na2vs0mg"},{"bike_id":"be4426c2-fb33-4b5a-8caa-178b5432d9e0","system_id":"levelo_inurba_marseille","lat":43.29985,"lon":5.38494,"is_reserved":false,"is_disabled":false,"rental_uris":{"android":"levelo://app?vid=be4426c2-fb33-4b5a-8caa-178b5432d9e0","ios":"levelo://app?vid=be4426c2-fb33-4b5a-8caa-178b5432d9e0"},"vehicle_type_id":"4","last_reported":1773184649,"current_range_meters":8000,"station_id":"ce4bgj92rcd13ifvqbd0","pricing_plan_id":"cebpf4jnsgd1na2vs0mg"},{"bike_id":"b5d9d350-fef4-4aa5-a3ec-0bcf4fca99ef","system_id":"levelo_inurba_marseille","lat":43.24809,"lon":5.37452,"is_reserved":false,"is_disabled":false,"rental_uris":{"android":"levelo://app?vid=b5d9d350-fef4-4aa5-a3ec-0bcf4fca99ef","ios":"levelo://app?vid=b5d9d350-fef4-4aa5-a3ec-0bcf4fca99ef"},"vehicle_type_id":"4","last_reported":1773184649,"current_range_meters":15200,"station_id":"ce4bhgh2rcd13ifvqfb0","pricing_plan_id":"cebpf4jnsgd1na2vs0mg"},{"bike_id":"2436638b-fa42-4103-b807-af930e438fa3","system_id":"levelo_inurba_marseille","lat":43.24637,"lon":5.38901,"is_reserved":false,"is_disabled":false,"rental_uris":{"android":"levelo://app?vid=2436638b-fa42-4103-b807-af930e438fa3","ios":"levelo://app?vid=2436638b-fa42-4103-b807-af930e438fa3"},"vehicle_type_id":"4","last_reported":1773184649,"current_range_meters":16400,"station_id":"ce4bhg12rcd13ifvqf60","pricing_plan_id":"cebpf4jnsgd1na2vs0mg"},{"bike_id":"80cf3021-c1be-4c41-aa02-3b8231bccaa8","system_id":"levelo_inurba_marseille","lat":43.30643,"lon":5.40098,"is_reserved":false,"is_disabled":false,"rental_uris":{"android":"levelo://app?vid=80cf3021-c1be-4c41-aa02-3b8231bccaa8","ios":"levelo://app?vid=80cf3021-c1be-4c41-aa02-3b8231bccaa8"},"vehicle_type_id":"4","last_reported":1773184649,"current_range_meters":24000,"station_id":"ce4bh112rcd13ifvqda0","pricing_plan_id":"cebpf4jnsgd1na2vs0mg"},{"bike_id":"4100fb04-b5e7-4103-ae43-8af40bfa6185","system_id":"levelo_inurba_marseille","lat":43.31522,"lon":5.38048,"is_reserved":false,"is_disabled":false,"rental_uris":{"android":"levelo://app?vid=4100fb04-b5e7-4103-ae43-8af40bfa6185","ios":"levelo://app?vid=4100fb04-b5e7-4103-ae43-8af40bfa6185"},"vehicle_type_id":"4","last_reported":1773184649,"current_range_meters":38000,"station_id":"ce4bhsp2rcd13ifvqi50","pricing_plan_id":"cebpf4jnsgd1na2vs0mg"},{"bike_id":"0023be4a-f8d7-4119-9902-9d840f983567","system_id":"levelo_inurba_marseille","lat":43.30957,"lon":5.39041,"is_reserved":false,"is_disabled":false,"rental_uris":{"android":"levelo://app?vid=0023be4a-f8d7-4119-9902-9d840f983567","ios":"levelo://app?vid=0023be4a-f8d7-4119-9902-9d840f983567"},"vehicle_type_id":"4","last_reported":1773184649,"current_range_meters":21600,"station_id":"ce4bgup2rcd13ifvqco0","pricing_plan_id":"cebpf4jnsgd1na2vs0mg"},{"bike_id":"629a5b04-9225-42cf-b2f9-d31afe3f11aa","system_id":"levelo_inurba_marseille","lat":43.26546,"lon":5.37286,"is_reserved":false,"is_disabled":false,"rental_uris":{"android":"levelo://app?vid=629a5b04-9225-42cf-b2f9-d31afe3f11aa","ios":"levelo://app?vid=629a5b04-9225-42cf-b2f9-d31afe3f11aa"},"vehicle_type_id":"4","last_reported":1773184649,"current_range_meters":38000,"station_id":"ce4bhg12rcd13ifvqf70","pricing_plan_id":"cebpf4jnsgd1na2vs0mg"},{"bike_id":"8e2e6634-df55-4fd9-94bd-ef6534c43475","system_id":"levelo_inurba_marseille","lat":43.29963,"lon":5.38499,"is_reserved":false,"is_disabled":false,"rental_uris":{"android":"levelo://app?vid=8e2e6634-df55-4fd9-94bd-ef6534c43475","ios":"levelo://app?vid=8e2e6634-df55-4fd9-94bd-ef6534c43475"},"vehicle_type_id":"4","last_reported":1773184649,"current_range_meters":32000,"station_id":"ce4bgj92rcd13ifvqbd0","pricing_plan_id":"cebpf4jnsgd1na2vs0mg"},{"bike_id":"c0f412de-40e6-4a94-a5dd-7c358ceb2433","system_id":"levelo_inurba_marseille","lat":43.23187,"lon":5.40005,"is_reserved":false,"is_disabled":false,"rental_uris":{"android":"levelo://app?vid=c0f412de-40e6-4a94-a5dd-7c358ceb2433","ios":"levelo://app?vid=c0f412de-40e6-4a94-a5dd-7c358ceb2433"},"vehicle_type_id":"4","last_reported":1773184649,"current_range_meters":39200,"station_id":"ce4bhn12rcd13ifvqgqg","pricing_plan_id":"cebpf4jnsgd1na2vs0mg"},{"bike_id":"b327f493-237a-42c7-a4b1-3e34463b83e7","system_id":"levelo_inurba_marseille","lat":43.30305,"lon":5.36887,"is_reserved":false,"is_disabled":false,"rental_uris":{"android":"levelo://app?vid=b327f493-237a-42c7-a4b1-3e34463b83e7","ios":"levelo://app?vid=b327f493-237a-42c7-a4b1-3e34463b83e7"},"vehicle_type_id":"4","last_reported":1773184649,"current_range_meters":38800,"station_id":"ce4bgqh2rcd13ifvqc5g","pricing_plan_id":"cebpf4jnsgd1na2vs0mg"},{"bike_id":"59078b86-d101-4d08-9dab-b6f2a351f16a","system_id":"levelo_inurba_marseille","lat":43.27804,"lon":5.40766,"is_reserved":false,"is_disabled":false,"rental_uris":{"android":"levelo://app?vid=59078b86-d101-4d08-9dab-b6f2a351f16a","ios":"levelo://app?vid=59078b86-d101-4d08-9dab-b6f2a351f16a"},"vehicle_type_id":"4","last_reported":1773184649,"current_range_meters":16800,"station_id":"ce4bhnh2rcd13ifvqgtg","pricing_plan_id":"cebpf4jnsgd1na2vs0mg"},{"bike_id":"231581b3-46e8-4052-85e7-dfb6a3c34fca","system_id":"levelo_inurba_marseille","lat":43.31894,"lon":5.40754,"is_reserved":false,"is_disabled":true,"rental_uris":{"android":"levelo://app?vid=231581b3-46e8-4052-85e7-dfb6a3c34fca","ios":"levelo://app?vid=231581b3-46e8-4052-85e7-dfb6a3c34fca"},"vehicle_type_id":"4","last_reported":1773184649,"current_range_meters":37600,"station_id":"ce4bhq12rcd13ifvqhig","pricing_plan_id":"cebpf4jnsgd1na2vs0mg"},{"bike_id":"300638c9-aef4-48da-b38f-bacc0511d616","system_id":"levelo_inurba_marseille","lat":43.25865,"lon":5.39914,"is_reserved":false,"is_disabled":false,"rental_uris":{"android":"levelo://app?vid=300638c9-aef4-48da-b38f-bacc0511d616","ios":"levelo://app?vid=300638c9-aef4-48da-b38f-bacc0511d616"},"vehicle_type_id":"4","last_reported":1773184649,"current_range_meters":38000,"station_id":"ce4bhl92rcd13ifvqghg","pricing_plan_id":"cebpf4jnsgd1na2vs0mg"},{"bike_id":"c4a3cf2c-af84-4b14-b248-1c5803a5c133","system_id":"levelo_inurba_marseille","lat":43.2512,"lon":5.40303,"is_reserved":false,"is_disabled":false,"rental_uris":{"android":"levelo://app?vid=c4a3cf2c-af84-4b14-b248-1c5803a5c133","ios":"levelo://app?vid=c4a3cf2c-af84-4b14-b248-1c5803a5c133"},"vehicle_type_id":"4","last_reported":1773184649,"current_range_meters":26800,"station_id":"ce4bhlh2rcd13ifvqgig","pricing_plan_id":"cebpf4jnsgd1na2vs0mg"},{"bike_id":"2c5f6e5a-2024-45c2-90c7-7449b094d709","system_id":"levelo_inurba_marseille","lat":43.3089,"lon":5.3955,"is_reserved":false,"is_disabled":false,"rental_uris":{"android":"levelo://app?vid=2c5f6e5a-2024-45c2-90c7-7449b094d709","ios":"levelo://app?vid=2c5f6e5a-2024-45c2-90c7-7449b094d709"},