{"last_updated":1744355441,"ttl":60,"version":"2.2","data":{"bikes":[{"bike_id":"2e305a41-d005-4b31-8c53-a76f6b2345c0","system_id":"levelo_inurba_marseille","lat":43.29021,"lon":5.37136,"is_reserved":false,"is_disabled":false,"rental_uris":{"android":"levelo://app?vid=2e305a41-d005-4b31-8c53-a76f6b2345c0","ios":"levelo://app?vid=2e305a41-d005-4b31-8c53-a76f6b2345c0"},"vehicle_type_id":"4","last_reported":1744355441,"current_range_meters":2800,"station_id":"","pricing_plan_id":"cebpf4jnsgd1na2vs0mg"},{"bike_id":"8f76875d-8ff6-4143-84ca-562a56d2730c","system_id":"levelo_inurba_marseille","lat":43.30951,"lon":5.39038,"is_reserved":false,"is_disabled":false,"rental_uris":{"android":"levelo://app?vid=8f76875d-8ff6-4143-84ca-562a56d2730c","ios":"levelo://app?vid=8f76875d-8ff6-4143-84ca-562a56d2730c"},"vehicle_type_id":"4","last_reported":1744355441,"current_range_meters":2800,"station_id":"ce4bgup2rcd13ifvqco0","pricing_plan_id":"cebpf4jnsgd1na2vs0mg"},{"bike_id":"49ab738e-6cbd-4467-bc97-9bc728903984","system_id":"levelo_inurba_marseille","lat":43.28617,"lon":5.37058,"is_reserved":false,"is_disabled":false,"rental_uris":{"android":"levelo://app?vid=49ab738e-6cbd-4467-bc97-9bc728903984","ios":"levelo://app?vid=49ab738e-6cbd-4467-bc97-9bc728903984"},"vehicle_type_id":"4","last_reported":1744355441,"current_range_meters":5600,"station_id":"ce4bhbp2rcd13ifvqerg","pricing_plan_id":"cebpf4jnsgd1na2vs0mg"},{"bike_id":"993f4659-c16d-4ec0-8b9d-4c938b551c2f","system_id":"levelo_inurba_marseille","lat":43.29975,"lon":5.38491,"is_reserved":false,"is_disabled":false,"rental_uris":{"android":"levelo://app?vid=993f4659-c16d-4ec0-8b9d-4c938b551c2f","ios":"levelo://app?vid=993f4659-c16d-4ec0-8b9d-4c938b551c2f"},"vehicle_type_id":"4","last_reported":1744355441,"current_range_meters":6400,"station_id":"ce4bgj92rcd13ifvqbd0","pricing_plan_id":"cebpf4jnsgd1na2vs0mg"},{"bike_id":"87b11c4e-01b3-4740-a3c0-f4a0622d20d3","system_id":"levelo_inurba_marseille","lat":43.26789,"lon":5.39418,"is_reserved":false,"is_disabled":false,"rental_uris":{"android":"levelo://app?vid=87b11c4e-01b3-4740-a3c0-f4a0622d20d3","ios":"levelo://app?vid=87b11c4e-01b3-4740-a3c0-f4a0622d20d3"},"vehicle_type_id":"4","last_reported":1744355441,"current_range_meters":3200,"station_id":"ce4bhh12rcd13ifvqfg0","pricing_plan_id":"cebpf4jnsgd1na2vs0mg"},{"bike_id":"dc0228df-9275-40cc-b778-d9c4fce66618","system_id":"levelo_inurba_marseille","lat":43.26205,"lon":5.37931,"is_reserved":false,"is_disabled":false,"rental_uris":{"android":"levelo://app?vid=dc0228df-9275-40cc-b778-d9c4fce66618","ios":"levelo://app?vid=dc0228df-9275-40cc-b778-d9c4fce66618"},"vehicle_type_id":"4","last_reported":1744355441,"current_range_meters":3200,"station_id":"ce4bhjp2rcd13ifvqg90","pricing_plan_id":"cebpf4jnsgd1na2vs0mg"},{"bike_id":"2bd3a54e-c705-48aa-a79f-d7155e9338c5","system_id":"levelo_inurba_marseille","lat":43.2917,"lon":5.41205,"is_reserved":false,"is_disabled":false,"rental_uris":{"android":"levelo://app?vid=2bd3a54e-c705-48aa-a79f-d7155e9338c5","ios":"levelo://app?vid=2bd3a54e-c705-48aa-a79f-d7155e9338c5"},"vehicle_type_id":"4","last_reported":1744355441,"current_range_meters":3200,"station_id":"","pricing_plan_id":"cebpf4jnsgd1na2vs0mg"},{"bike_id":"f84d37d2-52e0-4244-84d2-e716c155fcbd","system_id":"levelo_inurba_marseille","lat":43.23963,"lon":5.36631,"is_reserved":false,"is_disabled":false,"rental_uris":{"android":"levelo://app?vid=f84d37d2-52e0-4244-84d2-e716c155fcbd","ios":"levelo://app?vid=f84d37d2-52e0-4244-84d2-e716c155fcbd"},"vehicle_type_id":"4","last_reported":1744355441,"current_range_meters":3200,"station_id":"ce4bhi12rcd13ifvqfp0","pricing_plan_id":"cebpf4jnsgd1na2vs0mg"},{"bike_id":"74fb6ada-5912-4908-9bc3-7b7c6b0830fc","system_id":"levelo_inurba_marseille","lat":43.24693,"lon":5.41198,"is_reserved":false,"is_disabled":false,"rental_uris":{"android":"levelo://app?vid=74fb6ada-5912-4908-9bc3-7b7c6b0830fc","ios":"levelo://app?vid=74fb6ada-5912-4908-9bc3-7b7c6b0830fc"},"vehicle_type_id":"4","last_reported":1744355441,"current_range_meters":3200,"station_id":"","pricing_plan_id":"cebpf4jnsgd1na2vs0mg"},{"bike_id":"8e47deca-eb1a-4eb7-ada9-0ea6a0ef57ef","system_id":"levelo_inurba_marseille","lat":43.29972,"lon":5.37191,"is_reserved":false,"is_disabled":false,"rental_uris":{"android":"levelo://app?vid=8e47deca-eb1a-4eb7-ada9-0ea6a0ef57ef","ios":"levelo://app?vid=8e47deca-eb1a-4eb7-ada9-0ea6a0ef57ef"},"vehicle_type_id":"4","last_reported":1744355441,"current_range_meters":3600,"station_id":"ce4bgr92rcd13ifvqc7g","pricing_plan_id":"cebpf4jnsgd1na2vs0mg"},{"bike_id":"9b704737-af43-40c2-b70e-9e4ddeb764b6","system_id":"levelo_inurba_marseille","lat":43.23071,"lon":5.35494,"is_reserved":false,"is_disabled":false,"rental_uris":{"android":"levelo://app?vid=9b704737-af43-40c2-b70e-9e4ddeb764b6","ios":"levelo://app?vid=9b704737-af43-40c2-b70e-9e4ddeb764b6"},"vehicle_type_id":"4","last_reported":1744355441,"current_range_meters":3600,"station_id":"cpo3342slgdg3j2ifvpg","pricing_plan_id":"cebpf4jnsgd1na2vs0mg"},{"bike_id":"feb51af9-d021-485e-b6d6-f97e6f491e7d","system_id":"levelo_inurba_marseille","lat":43.28266,"lon":5.35064,"is_reserved":false,"is_disabled":false,"rental_uris":{"android":"levelo://app?vid=feb51af9-d021-485e-b6d6-f97e6f491e7d","ios":"levelo://app?vid=feb51af9-d021-485e-b6d6-f97e6f491e7d"},"vehicle_type_id":"4","last_reported":1744355441,"current_range_meters":3600,"station_id":"ce4bhbp2rcd13ifvqerg","pricing_plan_id":"cebpf4jnsgd1na2vs0mg"},{"bike_id":"d19f1fc8-a445-4226-b2ff-5edf5ca34317","system_id":"levelo_inurba_marseille","lat":43.28934,"lon":5.3963,"is_reserved":false,"is_disabled":false,"rental_uris":{"android":"levelo://app?vid=d19f1fc8-a445-4226-b2ff-5edf5ca34317","ios":"levelo://app?vid=d19f1fc8-a445-4226-b2ff-5edf5ca34317"},"vehicle_type_id":"4","last_reported":1744355441,"current_range_meters":4000,"station_id":"ce4bh3h2rcd13ifvqdn0","pricing_plan_id":"cebpf4jnsgd1na2vs0mg"},{"bike_id":"e603639e-a62c-44aa-a79c-d35ecc3461cd","system_id":"levelo_inurba_marseille","lat":43.24169,"lon":5.36397,"is_reserved":false,"is_disabled":false,"rental_uris":{"android":"levelo://app?vid=e603639e-a62c-44aa-a79c-d35ecc3461cd","ios":"levelo://app?vid=e603639e-a62c-44aa-a79c-d35ecc3461cd"},"vehicle_type_id":"4","last_reported":1744355441,"current_range_meters":4000,"station_id":"cpo36qri1sfpv3e86is0","pricing_plan_id":"cebpf4jnsgd1na2vs0mg"},{"bike_id":"b3102d24-b223-4c1a-aefd-378190b8448c","system_id":"levelo_inurba_marseille","lat":43.293884,"lon":5.37316,"is_reserved":false,"is_disabled":false,"rental_uris":{"android":"levelo://app?vid=b3102d24-b223-4c1a-aefd-378190b8448c","ios":"levelo://app?vid=b3102d24-b223-4c1a-aefd-378190b8448c"},"vehicle_type_id":"4","last_reported":1744355441,"current_range_meters":4000,"station_id":"ce4bgpp2rcd13ifvqc3g","pricing_plan_id":"cebpf4jnsgd1na2vs0mg"},{"bike_id":"b3240f5b-d093-46d1-a9cc-f38b2d11fbcd","system_id":"levelo_inurba_marseille","lat":43.31707,"lon":5.4371,"is_reserved":false,"is_disabled":false,"rental_uris":{"android":"levelo://app?vid=b3240f5b-d093-46d1-a9cc-f38b2d11fbcd","ios":"levelo://app?vid=b3240f5b-d093-46d1-a9cc-f38b2d11fbcd"},"vehicle_type_id":"4","last_reported":1744355441,"current_range_meters":4400,"station_id":"ce4bhp92rcd13ifvqhcg","pricing_plan_id":"cebpf4jnsgd1na2vs0mg"},{"bike_id":"9606f317-7d33-4fa0-a5b7-69aa7381c384","system_id":"levelo_inurba_marseille","lat":43.295631,"lon":5.375239,"is_reserved":false,"is_disabled":false,"rental_uris":{"android":"levelo://app?vid=9606f317-7d33-4fa0-a5b7-69aa7381c384","ios":"levelo://app?vid=9606f317-7d33-4fa0-a5b7-69aa7381c384"},"vehicle_type_id":"4","last_reported":1744355441,"current_range_meters":6000,"station_id":"ce4bgh92rcd13ifvqb40","pricing_plan_id":"cebpf4jnsgd1na2vs0mg"},{"bike_id":"54da1cc9-cfd8-4409-b7c5-dca93e1b8636","system_id":"levelo_inurba_marseille","lat":43.26682,"lon":5.38276,"is_reserved":false,"is_disabled":false,"rental_uris":{"android":"levelo://app?vid=54da1cc9-cfd8-4409-b7c5-dca93e1b8636","ios":"levelo://app?vid=54da1cc9-cfd8-4409-b7c5-dca93e1b8636"},"vehicle_type_id":"4","last_reported":1744355441,"current_range_meters":4800,"station_id":"ce4bhg92rcd13ifvqf90","pricing_plan_id":"cebpf4jnsgd1na2vs0mg"},{"bike_id":"081a00e9-ad57-444b-b80f-31efb7a929ff","system_id":"levelo_inurba_marseille","lat":43.30319,"lon":5.369,"is_reserved":false,"is_disabled":false,"rental_uris":{"android":"levelo://app?vid=081a00e9-ad57-444b-b80f-31efb7a929ff","ios":"levelo://app?vid=081a00e9-ad57-444b-b80f-31efb7a929ff"},"vehicle_type_id":"4","last_reported":1744355441,"current_range_meters":4800,"station_id":"ce4bgqh2rcd13ifvqc5g","pricing_plan_id":"cebpf4jnsgd1na2vs0mg"},{"bike_id":"10ec800f-b09d-4764-98b2-f7ccc47dac0a","system_id":"levelo_inurba_marseille","lat":43.26215,"lon":5.37441,"is_reserved":false,"is_disabled":false,"rental_uris":{"android":"levelo://app?vid=10ec800f-b09d-4764-98b2-f7ccc47dac0a","ios":"levelo://app?vid=10ec800f-b09d-4764-98b2-f7ccc47dac0a"},"vehicle_type_id":"4","last_reported":1744355441,"current_range_meters":4800,"station_id":"ce4bhgp2rcd13ifvqfc0","pricing_plan_id":"cebpf4jnsgd1na2vs0mg"},{"bike_id":"871c7947-0d5a-4a65-950d-a92b10213798","system_id":"levelo_inurba_marseille","lat":43.28936,"lon":5.396334,"is_reserved":false,"is_disabled":false,"rental_uris":{"android":"levelo://app?vid=871c7947-0d5a-4a65-950d-a92b10213798","ios":"levelo://app?vid=871c7947-0d5a-4a65-950d-a92b10213798"},"vehicle_type_id":"4","last_reported":1744355441,"current_range_meters":5600,"station_id":"ce4bh3h2rcd13ifvqdn0","pricing_plan_id":"cebpf4jnsgd1na2vs0mg"},{"bike_id":"23609fae-170c-4b85-bf85-8634f59b36d2","system_id":"levelo_inurba_marseille","lat":43.246225,"lon":5.39874,"is_reserved":false,"is_disabled":false,"rental_uris":{"android":"levelo://app?vid=23609fae-170c-4b85-bf85-8634f59b36d2","ios":"levelo://app?vid=23609fae-170c-4b85-bf85-8634f59b36d2"},"vehicle_type_id":"4","last_reported":1744355441,"current_range_meters":5600,"station_id":"ce4bhn12rcd13ifvqgpg","pricing_plan_id":"cebpf4jnsgd1na2vs0mg"},{"bike_id":"55e3979f-8f15-4c94-9237-66af118b235c","system_id":"levelo_inurba_marseille","lat":43.31371,"lon":5.3671,"is_reserved":false,"is_disabled":false,"rental_uris":{"android":"levelo://app?vid=55e3979f-8f15-4c94-9237-66af118b235c","ios":"levelo://app?vid=55e3979f-8f15-4c94-9237-66af118b235c"},"vehicle_type_id":"4","last_reported":1744355441,"current_range_meters":5600,"station_id":"ce4bgr92rcd13ifvqc6g","pricing_plan_id":"cebpf4jnsgd1na2vs0mg"},{"bike_id":"7ab6251d-c3b9-4124-a21a-fd24122eb96f","system_id":"levelo_inurba_marseille","lat":43.260677,"lon":5.393996,"is_reserved":false,"is_disabled":false,"rental_uris":{"android":"levelo://app?vid=7ab6251d-c3b9-4124-a21a-fd24122eb96f","ios":"levelo://app?vid=7ab6251d-c3b9-4124-a21a-fd24122eb96f"},"vehicle_type_id":"4","last_reported":1744355441,"current_range_meters":6000,"station_id":"ce4bhh92rcd13ifvqfj0","pricing_plan_id":"cebpf4jnsgd1na2vs0mg"},{"bike_id":"83c132b1-a954-4d5a-a32d-9f99af4faa3c","system_id":"levelo_inurba_marseille","lat":43.30941,"lon":5.41514,"is_reserved":false,"is_disabled":false,"rental_uris":{"android":"levelo://app?vid=83c132b1-a954-4d5a-a32d-9f99af4faa3c","ios":"levelo://app?vid=83c132b1-a954-4d5a-a32d-9f99af4faa3c"},"vehicle_type_id":"4","last_reported":1744355441,"current_range_meters":6000,"station_id":"","pricing_plan_id":"cebpf4jnsgd1na2vs0mg"},{"bike_id":"52f51aa5-d894-4cd7-a6f9-b96a96240bbd","system_id":"levelo_inurba_marseille","lat":43.310779,"lon":5.383494,"is_reserved":false,"is_disabled":false,"rental_uris":{"android":"levelo://app?vid=52f51aa5-d894-4cd7-a6f9-b96a96240bbd","ios":"levelo://app?vid=52f51aa5-d894-4cd7-a6f9-b96a96240bbd"},"vehicle_type_id":"4","last_reported":1744355441,"current_range_meters":6000,"station_id":"ce4bgv92rcd13ifvqcr0","pricing_plan_id":"cebpf4jnsgd1na2vs0mg"},{"bike_id":"5c466ed0-1dde-4a33-8f60-4b02329b6750","system_id":"levelo_inurba_marseille","lat":43.30876,"lon":5.37198,"is_reserved":false,"is_disabled":false,"rental_uris":{"android":"levelo://app?vid=5c466ed0-1dde-4a33-8f60-4b02329b6750","ios":"levelo://app?vid=5c466ed0-1dde-4a33-8f60-4b02329b6750"},"vehicle_type_id":"4","last_reported":1744355441,"current_range_meters":6000,"station_id":"ce4bguh2rcd13ifvqckg","pricing_plan_id":"cebpf4jnsgd1na2vs0mg"},{"bike_id":"c243072f-6bd2-4d94-ba83-04162cf2a05c","system_id":"levelo_inurba_marseille","lat":43.27175,"lon":5.4012,"is_reserved":false,"is_disabled":false,"rental_uris":{"android":"levelo://app?vid=c243072f-6bd2-4d94-ba83-04162cf2a05c","ios":"levelo://app?vid=c243072f-6bd2-4d94-ba83-04162cf2a05c"},"vehicle_type_id":"4","last_reported":1744355441,"current_range_meters":6000,"station_id":"","pricing_plan_id":"cebpf4jnsgd1na2vs0mg"},{"bike_id":"8b6713eb-074a-489c-bc72-7d4867529454","system_id":"levelo_inurba_marseille","lat":43.308883,"lon":5.372025,"is_reserved":false,"is_disabled":false,"rental_uris":{"android":"levelo://app?vid=8b6713eb-074a-489c-bc72-7d4867529454","ios":"levelo://app?vid=8b6713eb-074a-489c-bc72-7d4867529454"},"vehicle_type_id":"4","last_reported":1744355441,"current_range_meters":6000,"station_id":"ce4bguh2rcd13ifvqckg","pricing_plan_id":"cebpf4jnsgd1na2vs0mg"},{"bike_id":"e340865e-af6d-4870-a912-989f3e856c05","system_id":"levelo_inurba_marseille","lat":43.30545,"lon":5.36559,"is_reserved":false,"is_disabled":false,"rental_uris":{"android":"levelo://app?vid=e340865e-af6d-4870-a912-989f3e856c05","ios":"levelo://app?vid=e340865e-af6d-4870-a912-989f3e856c05"},"vehicle_type_id":"4","last_reported":1744355441,"current_range_meters":6400,"station_id":"ce4bgs12rcd13ifvqcag","pricing_plan_id":"cebpf4jnsgd1na2vs0mg"},{"bike_id":"c93b8155-102a-45aa-905a-566f8b1c281d","system_id":"levelo_inurba_marseille","lat":43.29288,"lon":5.40137,"is_reserved":false,"is_disabled":false,"rental_uris":{"android":"levelo://app?vid=c93b8155-102a-45aa-905a-566f8b1c281d","ios":"levelo://app?vid=c93b8155-102a-45aa-905a-566f8b1c281d"},"vehicle_type_id":"4","last_reported":1744355441,"current_range_meters":6400,"station_id":"ce4bh312rcd13ifvqdk0","pricing_plan_id":"cebpf4jnsgd1na2vs0mg"},{"bike_id":"77681eb7-0ca7-4181-8f4d-dc0d81e04ff3","system_id":"levelo_inurba_marseille","lat":43.241691,"lon":5.36402,"is_reserved":false,"is_disabled":false,"rental_uris":{"android":"levelo://app?vid=77681eb7-0ca7-4181-8f4d-dc0d81e04ff3","ios":"levelo://app?vid=77681eb7-0ca7-4181-8f4d-dc0d81e04ff3"},"vehicle_type_id":"4","last_reported":1744355441,"current_range_meters":6400,"station_id":"cpo36qri1sfpv3e86is0","pricing_plan_id":"cebpf4jnsgd1na2vs0mg"},{"bike_id":"10f72831-a14e-4eee-8e16-4a84e6f3ae45","system_id":"levelo_inurba_marseille","lat":43.30816,"lon":5.38184,"is_reserved":false,"is_disabled":false,"rental_uris":{"android":"levelo://app?vid=10f72831-a14e-4eee-8e16-4a84e6f3ae45","ios":"levelo://app?vid=10f72831-a14e-4eee-8e16-4a84e6f3ae45"},"vehicle_type_id":"4","last_reported":1744355441,"current_range_meters":6800,"station_id":"ce4bgt12rcd13ifvqce0","pricing_plan_id":"cebpf4jnsgd1na2vs0mg"},{"bike_id":"4c1f7691-a169-4713-b675-2a5153227ffe","system_id":"levelo_inurba_marseille","lat":43.27819,"lon":5.40772,"is_reserved":false,"is_disabled":false,"rental_uris":{"android":"levelo://app?vid=4c1f7691-a169-4713-b675-2a5153227ffe","ios":"levelo://app?vid=4c1f7691-a169-4713-b675-2a5153227ffe"},"vehicle_type_id":"4","last_reported":1744355441,"current_range_meters":6800,"station_id":"ce4bhnh2rcd13ifvqgtg","pricing_plan_id":"cebpf4jnsgd1na2vs0mg"},{"bike_id":"8392334b-e286-437a-9c79-8d582b183e8b","system_id":"levelo_inurba_marseille","lat":43.25101,"lon":5.4035,"is_reserved":false,"is_disabled":false,"rental_uris":{"android":"levelo://app?vid=8392334b-e286-437a-9c79-8d582b183e8b","ios":"levelo://app?vid=8392334b-e286-437a-9c79-8d582b183e8b"},"vehicle_type_id":"4","last_reported":1744355441,"current_range_meters":6800,"station_id":"ce4bhlh2rcd13ifvqgig","pricing_plan_id":"cebpf4jnsgd1na2vs0mg"},{"bike_id":"3102b6c5-7de9-4edb-84c1-78cca2d45726","system_id":"levelo_inurba_marseille","lat":43.27181,"lon":5.40982,"is_reserved":false,"is_disabled":false,"rental_uris":{"android":"levelo://app?vid=3102b6c5-7de9-4edb-84c1-78cca2d45726","ios":"levelo://app?vid=3102b6c5-7de9-4edb-84c1-78cca2d45726"},"vehicle_type_id":"4","last_reported":1744355441,"current_range_meters":6800,"station_id":"ce4bhl12rcd13ifvqgf0","pricing_plan_id":"cebpf4jnsgd1na2vs0mg"},{"bike_id":"02f61854-4ff4-41ab-98d9-c8014eeb5e67","system_id":"levelo_inurba_marseille","lat":43.33024,"lon":5.39048,"is_reserved":false,"is_disabled":false,"rental_uris":{"android":"levelo://app?vid=02f61854-4ff4-41ab-98d9-c8014eeb5e67","ios":"levelo://app?vid=02f61854-4ff4-41ab-98d9-c8014eeb5e67"},"vehicle_type_id":"4","last_reported":1744355441,"current_range_meters":6800,"station_id":"ce4bhr92rcd13ifvqhrg","pricing_plan_id":"cebpf4jnsgd1na2vs0mg"},{"bike_id":"4a3e0919-27c2-445a-a961-2bd3243a227d","system_id":"levelo_inurba_marseille","lat":43.31661,"lon":5.37325,"is_reserved":false,"is_disabled":false,"rental_uris":{"android":"levelo://app?vid=4a3e0919-27c2-445a-a961-2bd3243a227d","ios":"levelo://app?vid=4a3e0919-27c2-445a-a961-2bd3243a227d"},"vehicle_type_id":"4","last_reported":1744355441,"current_range_meters":7200,"station_id":"","pricing_plan_id":"cebpf4jnsgd1na2vs0mg"},{"bike_id":"d37408de-b5d7-4466-8973-ab7c2a7000bc","system_id":"levelo_inurba_marseille","lat":43.29274,"lon":5.36842,"is_reserved":false,"is_disabled":true,"rental_uris":{"android":"levelo://app?vid=d37408de-b5d7-4466-8973-ab7c2a7000bc","ios":"levelo://app?vid=d37408de-b5d7-4466-8973-ab7c2a7000bc"},"vehicle_type_id":"4","last_reported":1744355441,"current_range_meters":7200,"station_id":"","pricing_plan_id":"cebpf4jnsgd1na2vs0mg"},{"bike_id":"247fa22e-b132-408b-b616-a4876985b1f2","system_id":"levelo_inurba_marseille","lat":43.259342,"lon":5.409122,"is_reserved":false,"is_disabled":false,"rental_uris":{"android":"levelo://app?vid=247fa22e-b132-408b-b616-a4876985b1f2","ios":"levelo://app?vid=247fa22e-b132-408b-b616-a4876985b1f2"},"vehicle_type_id":"4","last_reported":1744355441,"current_range_meters":7200,"station_id":"ce4bhm92rcd13ifvqglg","pricing_plan_id":"cebpf4jnsgd1na2vs0mg"},{"bike_id":"d0a8e340-5ce5-445a-97dc-245aaf2fa477","system_id":"levelo_inurba_marseille","lat":43.323347,"lon":5.4062,"is_reserved":false,"is_disabled":true,"rental_uris":{"android":"levelo://app?vid=d0a8e340-5ce5-445a-97dc-245aaf2fa477","ios":"levelo://app?vid=d0a8e340-5ce5-445a-97dc-245aaf2fa477"},"vehicle_type_id":"4","last_reported":1744355441,"current_range_meters":7200,"station_id":"ce4bhq92rcd13ifvqhjg","pricing_plan_id":"cebpf4jnsgd1na2vs0mg"},{"bike_id":"e431d80e-c681-4958-975c-ca938eee7b33","system_id":"levelo_inurba_marseille","lat":43.259408,"lon":5.40903,"is_reserved":false,"is_disabled":false,"rental_uris":{"android":"levelo://app?vid=e431d80e-c681-4958-975c-ca938eee7b33","ios":"levelo://app?vid=e431d80e-c681-4958-975c-ca938eee7b33"},"vehicle_type_id":"4","last_reported":1744355441,"current_range_meters":7200,"station_id":"ce4bhm92rcd13ifvqglg","pricing_plan_id":"cebpf4jnsgd1na2vs0mg"},{"bike_id":"07cc6c28-4c90-4a27-a829-295d10e64a1b","system_id":"levelo_inurba_marseille","lat":43.28439,"lon":5.39209,"is_reserved":false,"is_disabled":false,"rental_uris":{"android":"levelo://app?vid=07cc6c28-4c90-4a27-a829-295d10e64a1b","ios":"levelo://app?vid=07cc6c28-4c90-4a27-a829-295d10e64a1b"},"vehicle_type_id":"4","last_reported":1744355441,"current_range_meters":7200,"station_id":"ce4bhoh2rcd13ifvqh5g","pricing_plan_id":"cebpf4jnsgd1na2vs0mg"},{"bike_id":"9ce80678-2ca4-4baa-a7d2-19d4fc944020","system_id":"levelo_inurba_marseille","lat":43.24178,"lon":5.36418,"is_reserved":false,"is_disabled":false,"rental_uris":{"android":"levelo://app?vid=9ce80678-2ca4-4baa-a7d2-19d4fc944020","ios":"levelo://app?vid=9ce80678-2ca4-4baa-a7d2-19d4fc944020"},"vehicle_type_id":"4","last_reported":1744355441,"current_range_meters":7200,"station_id":"cpo36qri1sfpv3e86is0","pricing_plan_id":"cebpf4jnsgd1na2vs0mg"},{"bike_id":"ba2c16f2-a8de-459f-a35d-6bd74f3cc715","system_id":"levelo_inurba_marseille","lat":43.23087,"lon":5.3549,"is_reserved":false,"is_disabled":false,"rental_uris":{"android":"levelo://app?vid=ba2c16f2-a8de-459f-a35d-6bd74f3cc715","ios":"levelo://app?vid=ba2c16f2-a8de-459f-a35d-6bd74f3cc715"},"vehicle_type_id":"4","last_reported":1744355441,"current_range_meters":8000,"station_id":"cpo3342slgdg3j2ifvpg","pricing_plan_id":"cebpf4jnsgd1na2vs0mg"},{"bike_id":"9709ed9b-3b09-4212-bde5-121d348f6550","system_id":"levelo_inurba_marseille","lat":43.2904,"lon":5.39956,"is_reserved":false,"is_disabled":false,"rental_uris":{"android":"levelo://app?vid=9709ed9b-3b09-4212-bde5-121d348f6550","ios":"levelo://app?vid=9709ed9b-3b09-4212-bde5-121d348f6550"},"vehicle_type_id":"4","last_reported":1744355441,"current_range_meters":8000,"station_id":"ce4bh392rcd13ifvqdm0","pricing_plan_id":"cebpf4jnsgd1na2vs0mg"},{"bike_id":"1b95970f-5191-4897-8e3c-934c2acbda6d","system_id":"levelo_inurba_marseille","lat":43.30946,"lon":5.39041,"is_reserved":false,"is_disabled":false,"rental_uris":{"android":"levelo://app?vid=1b95970f-5191-4897-8e3c-934c2acbda6d","ios":"levelo://app?vid=1b95970f-5191-4897-8e3c-934c2acbda6d"},"vehicle_type_id":"4","last_reported":1744355441,"current_range_meters":8000,"station_id":"ce4bgup2rcd13ifvqco0","pricing_plan_id":"cebpf4jnsgd1na2vs0mg"},{"bike_id":"1a16abc8-f968-4a8c-ae5f-68b7ad836e85","system_id":"levelo_inurba_marseille","lat":43.23177,"lon":5.39991,"is_reserved":false,"is_disabled":false,"rental_uris":{"android":"levelo://app?vid=1a16abc8-f968-4a8c-ae5f-68b7ad836e85","ios":"levelo://app?vid=1a16abc8-f968-4a8c-ae5f-68b7ad836e85"},"vehicle_type_id":"4","last_reported":1744355441,"current_range_meters":8000,"station_id":"ce4bhn12rcd13ifvqgqg","pricing_plan_id":"cebpf4jnsgd1na2vs0mg"},{"bike_id":"f960aa00-83ad-493a-b0ad-c401b24799e7","system_id":"levelo_inurba_marseille","lat":43.24174,"lon":5.39727,"is_reserved":false,"is_disabled":false,"rental_uris":{"android":"levelo://app?vid=f960aa00-83ad-493a-b0ad-c401b24799e7","ios":"levelo://app?vid=f960aa00-83ad-493a-b0ad-c401b24799e7"},"vehicle_type_id":"4","last_reported":1744355441,"current_range_meters":8400,"station_id":"ce4bhn12rcd13ifvqgpg","pricing_plan_id":"cebpf4jnsgd1na2vs0mg"},{"bike_id":"e04dca71-dbda-4d5a-8b3b-8b9d0bd4d9a8","system_id":"levelo_inurba_marseille","lat":43.29074,"lon":5.40036,"is_reserved":false,"is_disabled":false,"rental_uris":{"android":"levelo://app?vid=e04dca71-dbda-4d5a-8b3b-8b9d0bd4d9a8","ios":"levelo://app?vid=e04dca71-dbda-4d5a-8b3b-8b9d0bd4d9a8"},"vehicle_type_id":"4","last_reported":1744355441,"current_range_meters":8400,"station_id":"","pricing_plan_id":"cebpf4jnsgd1na2vs0mg"},{"bike_id":"c7922c9e-df40-4d6f-92a1-640cc6bd2ff7","system_id":"levelo_inurba_marseille","lat":43.24162,"lon":5.36397,"is_reserved":false,"is_disabled":false,"rental_uris":{"android":"levelo://app?vid=c7922c9e-df40-4d6f-92a1-640cc6bd2ff7","ios":"levelo://app?vid=c7922c9e-df40-4d6f-92a1-640cc6bd2ff7"},"vehicle_type_id":"4","last_reported":1744355441,"current_range_meters":8400,"station_id":"cpo36qri1sfpv3e86is0","pricing_plan_id":"cebpf4jnsgd1na2vs0mg"},{"bike_id":"2ec78add-5e60-4695-9455-466e568e05cc","system_id":"levelo_inurba_marseille","lat":43.25713,"lon":5.41094,"is_reserved":false,"is_disabled":false,"rental_uris":{"android":"levelo://app?vid=2ec78add-5e60-4695-9455-466e568e05cc","ios":"levelo://app?vid=2ec78add-5e60-4695-9455-466e568e05cc"},"vehicle_type_id":"4","last_reported":1744355441,"current_range_meters":8400,"station_id":"ce4bhkp2rcd13ifvqgd0","pricing_plan_id":"cebpf4jnsgd1na2vs0mg"},{"bike_id":"bff67837-c676-4b88-9fdc-8db7fe587121","system_id":"levelo_inurba_marseille","lat":43.3024,"lon":5.40048,"is_reserved":false,"is_disabled":true,"rental_uris":{"android":"levelo://app?vid=bff67837-c676-4b88-9fdc-8db7fe587121","ios":"levelo://app?vid=bff67837-c676-4b88-9fdc-8db7fe587121"},"vehicle_type_id":"4","last_reported":1744355441,"current_range_meters":8400,"station_id":"ce4bgvh2rcd13ifvqcs0","pricing_plan_id":"cebpf4jnsgd1na2vs0mg"},{"bike_id":"756493aa-c836-4825-955d-b1dda1b7fdce","system_id":"levelo_inurba_marseille","lat":43.29276,"lon":5.38466,"is_reserved":false,"is_disabled":false,"rental_uris":{"android":"levelo://app?vid=756493aa-c836-4825-955d-b1dda1b7fdce","ios":"levelo://app?vid=756493aa-c836-4825-955d-b1dda1b7fdce"},"vehicle_type_id":"4","last_reported":1744355441,"current_range_meters":8400,"station_id":"ce4bh692rcd13ifvqea0","pricing_plan_id":"cebpf4jnsgd1na2vs0mg"},{"bike_id":"2e3fc202-4684-4d64-b201-b745cfc357fe","system_id":"levelo_inurba_marseille","lat":43.24825,"lon":5.37456,"is_reserved":false,"is_disabled":false,"rental_uris":{"android":"levelo://app?vid=2e3fc202-4684-4d64-b201-b745cfc357fe","ios":"levelo://app?vid=2e3fc202-4684-4d64-b201-b745cfc357fe"},"vehicle_type_id":"4","last_reported":1744355441,"current_range_meters":8800,"station_id":"ce4bhgh2rcd13ifvqfb0","pricing_plan_id":"cebpf4jnsgd1na2vs0mg"},{"bike_id":"3864ca11-eba3-4ea9-aa8d-c2b29b8c6d15","system_id":"levelo_inurba_marseille","lat":43.27169,"lon":5.41001,"is_reserved":false,"is_disabled":false,"rental_uris":{"android":"levelo://app?vid=3864ca11-eba3-4ea9-aa8d-c2b29b8c6d15","ios":"levelo://app?vid=3864ca11-eba3-4ea9-aa8d-c2b29b8c6d15"},"vehicle_type_id":"4","last_reported":1744355441,"current_range_meters":8800,"station_id":"ce4bhl12rcd13ifvqgf0","pricing_plan_id":"cebpf4jnsgd1na2vs0mg"},{"bike_id":"4e47d0fb-2760-4784-8c81-8e8fb738bf29","system_id":"levelo_inurba_marseille","lat":43.25874,"lon":5.39912,"is_reserved":false,"is_disabled":false,"rental_uris":{"android":"levelo://app?vid=4e47d0fb-2760-4784-8c81-8e8fb738bf29","ios":"levelo://app?vid=4e47d0fb-2760-4784-8c81-8e8fb738bf29"},"vehicle_type_id":"4","last_reported":1744355441,"current_range_meters":8800,"station_id":"ce4bhl92rcd13ifvqghg","pricing_plan_id":"cebpf4jnsgd1na2vs0mg"},{"bike_id":"82522d85-616f-4b70-b6f0-591320032371","system_id":"levelo_inurba_marseille","lat":43.31715,"lon":5.42421,"is_reserved":false,"is_disabled":false,"rental_uris":{"android":"levelo://app?vid=82522d85-616f-4b70-b6f0-591320032371","ios":"levelo://app?vid=82522d85-616f-4b70-b6f0-591320032371"},"vehicle_type_id":"4","last_reported":1744355441,"current_range_meters":8800,"station_id":"ce4bhp92rcd13ifvqhbg","pricing_plan_id":"cebpf4jnsgd1na2vs0mg"},{"bike_id":"e3826ea7-fe13-444e-9279-3c8bb503bace","system_id":"levelo_inurba_marseille","lat":43.30405,"lon":5.41297,"is_reserved":false,"is_disabled":false,"rental_uris":{"android":"levelo://app?vid=e3826ea7-fe13-444e-9279-3c8bb503bace","ios":"levelo://app?vid=e3826ea7-fe13-444e-9279-3c8bb503bace"},"vehicle_type_id":"4","last_reported":1744355441,"current_range_meters":8800,"station_id":"ce4bhop2rcd13ifvqh8g","pricing_plan_id":"cebpf4jnsgd1na2vs0mg"},{"bike_id":"6eb61986-8e92-47db-8c9a-ad77976386e7","system_id":"levelo_inurba_marseille","lat":43.30538,"lon":5.384302,"is_reserved":false,"is_disabled":true,"rental_uris":{"android":"levelo://app?vid=6eb61986-8e92-47db-8c9a-ad77976386e7","ios":"levelo://app?vid=6eb61986-8e92-47db-8c9a-ad77976386e7"},"vehicle_type_id":"4","last_reported":1744355441,"current_range_meters":8800,"station_id":"ce4bgg92rcd13ifvqb30","pricing_plan_id":"cebpf4jnsgd1na2vs0mg"},{"bike_id":"65f52e07-c7c1-4b0b-a98a-2cb0cb6e9ef2","system_id":"levelo_inurba_marseille","lat":43.24102,"lon":5.37764,"is_reserved":false,"is_disabled":true,"rental_uris":{"android":"levelo://app?vid=65f52e07-c7c1-4b0b-a98a-2cb0cb6e9ef2","ios":"levelo://app?vid=65f52e07-c7c1-4b0b-a98a-2cb0cb6e9ef2"},"vehicle_type_id":"4","last_reported":1744355441,"current_range_meters":8800,"station_id":"ce4bhnp2rcd13ifvqgvg","pricing_plan_id":"cebpf4jnsgd1na2vs0mg"},{"bike_id":"eb2a2906-4519-49e5-b09f-221125aa377a","system_id":"levelo_inurba_marseille","lat":43.30414,"lon":5.41295,"is_reserved":false,"is_disabled":false,"rental_uris":{"android":"levelo://app?vid=eb2a2906-4519-49e5-b09f-221125aa377a","ios":"levelo://app?vid=eb2a2906-4519-49e5-b09f-221125aa377a"},"vehicle_type_id":"4","last_reported":1744355441,"current_range_meters":9200,"station_id":"ce4bhop2rcd13ifvqh8g","pricing_plan_id":"cebpf4jnsgd1na2vs0mg"},{"bike_id":"9cc31833-c44a-42a9-bfe0-2165a64fe727","system_id":"levelo_inurba_marseille","lat":43.27933,"lon":5.41047,"is_reserved":false,"is_disabled":false,"rental_uris":{"android":"levelo://app?vid=9cc31833-c44a-42a9-bfe0-2165a64fe727","ios":"levelo://app?vid=9cc31833-c44a-42a9-bfe0-2165a64fe727"},"vehicle_type_id":"4","last_reported":1744355441,"current_range_meters":9200,"station_id":"ce4bhnp2rcd13ifvqh0g","pricing_plan_id":"cebpf4jnsgd1na2vs0mg"},{"bike_id":"0e396496-cb21-46c6-89c6-a56d414e4d4a","system_id":"levelo_inurba_marseille","lat":43.29968,"lon":5.385,"is_reserved":false,"is_disabled":false,"rental_uris":{"android":"levelo://app?vid=0e396496-cb21-46c6-89c6-a56d414e4d4a","ios":"levelo://app?vid=0e396496-cb21-46c6-89c6-a56d414e4d4a"},"vehicle_type_id":"4","last_reported":1744355441,"current_range_meters":9200,"station_id":"ce4bgj92rcd13ifvqbd0","pricing_plan_id":"cebpf4jnsgd1na2vs0mg"},{"bike_id":"4c023299-68c6-4fe1-82cc-ec03fbc45384","system_id":"levelo_inurba_marseille","lat":43.30328,"lon":5.36915,"is_reserved":false,"is_disabled":false,"rental_uris":{"android":"levelo://app?vid=4c023299-68c6-4fe1-82cc-ec03fbc45384","ios":"levelo://app?vid=4c023299-68c6-4fe1-82cc-ec03fbc45384"},"vehicle_type_id":"4","last_reported":1744355441,"current_range_meters":9200,"station_id":"ce4bgqh2rcd13ifvqc5g","pricing_plan_id":"cebpf4jnsgd1na2vs0mg"},{"bike_id":"2000497b-6d4b-416f-b43b-2a4143aad53b","system_id":"levelo_inurba_marseille","lat":43.323018,"lon":5.386664,"is_reserved":false,"is_disabled":false,"rental_uris":{"android":"levelo://app?vid=2000497b-6d4b-416f-b43b-2a4143aad53b","ios":"levelo://app?vid=2000497b-6d4b-416f-b43b-2a4143aad53b"},"vehicle_type_id":"4","last_reported":1744355441,"current_range_meters":9200,"station_id":"","pricing_plan_id":"cebpf4jnsgd1na2vs0mg"},{"bike_id":"7bb71d71-9057-49de-802b-20e8e2c9116c","system_id":"levelo_inurba_marseille","lat":43.29598,"lon":5.38104,"is_reserved":false,"is_disabled":false,"rental_uris":{"android":"levelo://app?vid=7bb71d71-9057-49de-802b-20e8e2c9116c","ios":"levelo://app?vid=7bb71d71-9057-49de-802b-20e8e2c9116c"},"vehicle_type_id":"4","last_reported":1744355441,"current_range_meters":9600,"station_id":"ce4bgl12rcd13ifvqbo0","pricing_plan_id":"cebpf4jnsgd1na2vs0mg"},{"bike_id":"a50ba3b3-ad34-4398-b71e-4df32bf58c7d","system_id":"levelo_inurba_marseille","lat":43.308116,"lon":5.381399,"is_reserved":false,"is_disabled":false,"rental_uris":{"android":"levelo://app?vid=a50ba3b3-ad34-4398-b71e-4df32bf58c7d","ios":"levelo://app?vid=a50ba3b3-ad34-4398-b71e-4df32bf58c7d"},"vehicle_type_id":"4","last_reported":1744355441,"current_range_meters":9600,"station_id":"ce4bgt12rcd13ifvqce0","pricing_plan_id":"cebpf4jnsgd1na2vs0mg"},{"bike_id":"296c189b-5b36-41d5-bd69-074e718970b1","system_id":"levelo_inurba_marseille","lat":43.30471,"lon":5.37911,"is_reserved":false,"is_disabled":false,"rental_uris":{"android":"levelo://app?vid=296c189b-5b36-41d5-bd69-074e718970b1","ios":"levelo://app?vid=296c189b-5b36-41d5-bd69-074e718970b1"},"vehicle_type_id":"4","last_reported":1744355441,"current_range_meters":9600,"station_id":"ce4bgup2rcd13ifvqcn0","pricing_plan_id":"cebpf4jnsgd1na2vs0mg"},{"bike_id":"c18f44a4-84e7-49e5-aee7-391b516f4640","system_id":"levelo_inurba_marseille","lat":43.26495,"lon":5.39545,"is_reserved":false,"is_disabled":false,"rental_uris":{"android":"levelo://app?vid=c18f44a4-84e7-49e5-aee7-391b516f4640","ios":"levelo://app?vid=c18f44a4-84e7-49e5-aee7-391b516f4640"},"vehicle_type_id":"4","last_reported":1744355441,"current_range_meters":9600,"station_id":"ce4bhi12rcd13ifvqfq0","pricing_plan_id":"cebpf4jnsgd1na2vs0mg"},{"bike_id":"fb616cd3-23a4-48e3-9a4e-7023a427b4b8","system_id":"levelo_inurba_marseille","lat":43.29669,"lon":5.39586,"is_reserved":false,"is_disabled":false,"rental_uris":{"android":"levelo://app?vid=fb616cd3-23a4-48e3-9a4e-7023a427b4b8","ios":"levelo://app?vid=fb616cd3-23a4-48e3-9a4e-7023a427b4b8"},"vehicle_type_id":"4","last_reported":1744355441,"current_range_meters":10000,"station_id":"","pricing_plan_id":"cebpf4jnsgd1na2vs0mg"},{"bike_id":"5afba03e-e657-4c6e-b88f-f404d866524b","system_id":"levelo_inurba_marseille","lat":43.305181,"lon":5.393379,"is_reserved":false,"is_disabled":false,"rental_uris":{"android":"levelo://app?vid=5afba03e-e657-4c6e-b88f-f404d866524b","ios":"levelo://app?vid=5afba03e-e657-4c6e-b88f-f404d866524b"},"vehicle_type_id":"4","last_reported":1744355441,"current_range_meters":10000,"station_id":"ce4bgup2rcd13ifvqco0","pricing_plan_id":"cebpf4jnsgd1na2vs0mg"},{"bike_id":"bb860c5d-3678-41cc-9db3-5494163b0a3e","system_id":"levelo_inurba_marseille","lat":43.30141,"lon":5.380852,"is_reserved":false,"is_disabled":false,"rental_uris":{"android":"levelo://app?vid=bb860c5d-3678-41cc-9db3-5494163b0a3e","ios":"levelo://app?vid=bb860c5d-3678-41cc-9db3-5494163b0a3e"},"vehicle_type_id":"4","last_reported":1744355441,"current_range_meters":10000,"station_id":"ce4bgjp2rcd13ifvqbh0","pricing_plan_id":"cebpf4jnsgd1na2vs0mg"},{"bike_id":"eab6cbfa-cb8e-47d7-b0d6-226ab7facec7","system_id":"levelo_inurba_marseille","lat":43.31722,"lon":5.42394,"is_reserved":false,"is_disabled":true,"rental_uris":{"android":"levelo://app?vid=eab6cbfa-cb8e-47d7-b0d6-226ab7facec7","ios":"levelo://app?vid=eab6cbfa-cb8e-47d7-b0d6-226ab7facec7"},"vehicle_type_id":"4","last_reported":1744355441,"current_range_meters":10000,"station_id":"ce4bhp92rcd13ifvqhbg","pricing_plan_id":"cebpf4jnsgd1na2vs0mg"},{"bike_id":"36dd2f5e-4014-41b9-8f6e-aa54636e0b8b","system_id":"levelo_inurba_marseille","lat":43.24163,"lon":5.36391,"is_reserved":false,"is_disabled":false,"rental_uris":{"android":"levelo://app?vid=36dd2f5e-4014-41b9-8f6e-aa54636e0b8b","ios":"levelo://app?vid=36dd2f5e-4014-41b9-8f6e-aa54636e0b8b"},"vehicle_type_id":"4","last_reported":1744355441,"current_range_meters":10000,"station_id":"cpo36qri1sfpv3e86is0","pricing_plan_id":"cebpf4jnsgd1na2vs0mg"},{"bike_id":"de07953f-a368-43dd-aba2-34a7197efe50","system_id":"levelo_inurba_marseille","lat":43.256115,"lon":5.405147,"is_reserved":false,"is_disabled":true,"rental_uris":{"android":"levelo://app?vid=de07953f-a368-43dd-aba2-34a7197efe50","ios":"levelo://app?vid=de07953f-a368-43dd-aba2-34a7197efe50"},"vehicle_type_id":"4","last_reported":1744355441,"current_range_meters":10800,"station_id":"","pricing_plan_id":"cebpf4jnsgd1na2vs0mg"},{"bike_id":"4c9eba50-c9a7-4e00-b383-d632795a22ba","system_id":"levelo_inurba_marseille","lat":43.25,"lon":5.3893,"is_reserved":false,"is_disabled":false,"rental_uris":{"android":"levelo://app?vid=4c9eba50-c9a7-4e00-b383-d632795a22ba","ios":"levelo://app?vid=4c9eba50-c9a7-4e00-b383-d632795a22ba"},"vehicle_type_id":"4","last_reported":1744355441,"current_range_meters":10800,"station_id":"ce4bhgp2rcd13ifvqfd0","pricing_plan_id":"cebpf4jnsgd1na2vs0mg"},{"bike_id":"e4584e81-d0ff-45d4-a366-ed824c8de9b6","system_id":"levelo_inurba_marseille","lat":43.23173,"lon":5.43725,"is_reserved":false,"is_disabled":true,"rental_uris":{"android":"levelo://app?vid=e4584e81-d0ff-45d4-a366-ed824c8de9b6","ios":"levelo://app?vid=e4584e81-d0ff-45d4-a366-ed824c8de9b6"},"vehicle_type_id":"4","last_reported":1744355441,"current_range_meters":10800,"station_id":"ce4bhmp2rcd13ifvqgog","pricing_plan_id":"cebpf4jnsgd1na2vs0mg"},{"bike_id":"d53185d9-229e-4600-82fd-238186f0af47","system_id":"levelo_inurba_marseille","lat":43.30927,"lon":5.36853,"is_reserved":false,"is_disabled":false,"rental_uris":{"android":"levelo://app?vid=d53185d9-229e-4600-82fd-238186f0af47","ios":"levelo://app?vid=d53185d9-229e-4600-82fd-238186f0af47"},"vehicle_type_id":"4","last_reported":1744355441,"current_range_meters":10800,"station_id":"ce4bgn92rcd13ifvqbvg","pricing_plan_id":"cebpf4jnsgd1na2vs0mg"},{"bike_id":"a0733051-7793-45b0-9895-159c7cd1de1a","system_id":"levelo_inurba_marseille","lat":43.26791,"lon":5.39413,"is_reserved":false,"is_disabled":false,"rental_uris":{"android":"levelo://app?vid=a0733051-7793-45b0-9895-159c7cd1de1a","ios":"levelo://app?vid=a0733051-7793-45b0-9895-159c7cd1de1a"},"vehicle_type_id":"4","last_reported":1744355441,"current_range_meters":10800,"station_id":"ce4bhh12rcd13ifvqfg0","pricing_plan_id":"cebpf4jnsgd1na2vs0mg"},{"bike_id":"33f764f3-1958-431c-a50f-d5fe60e86d22","system_id":"levelo_inurba_marseille","lat":43.30959,"lon":5.40151,"is_reserved":false,"is_disabled":false,"rental_uris":{"android":"levelo://app?vid=33f764f3-1958-431c-a50f-d5fe60e86d22","ios":"levelo://app?vid=33f764f3-1958-431c-a50f-d5fe60e86d22"},"vehicle_type_id":"4","last_reported":1744355441,"current_range_meters":10800,"station_id":"ce4bgvp2rcd13ifvqct0","pricing_plan_id":"cebpf4jnsgd1na2vs0mg"},{"bike_id":"8c01c616-33d3-4f21-a94b-3bf76ab48ae7","system_id":"levelo_inurba_marseille","lat":43.28943,"lon":5.36643,"is_reserved":false,"is_disabled":true,"rental_uris":{"android":"levelo://app?vid=8c01c616-33d3-4f21-a94b-3bf76ab48ae7","ios":"levelo://app?vid=8c01c616-33d3-4f21-a94b-3bf76ab48ae7"},"vehicle_type_id":"4","last_reported":1744355441,"current_range_meters":11200,"station_id":"ce4bhap2rcd13ifvqek0","pricing_plan_id":"cebpf4jnsgd1na2vs0mg"},{"bike_id":"7ecb8ede-57ca-44aa-8298-85b1b4a01d10","system_id":"levelo_inurba_marseille","lat":43.25112,"lon":5.40311,"is_reserved":false,"is_disabled":false,"rental_uris":{"android":"levelo://app?vid=7ecb8ede-57ca-44aa-8298-85b1b4a01d10","ios":"levelo://app?vid=7ecb8ede-57ca-44aa-8298-85b1b4a01d10"},"vehicle_type_id":"4","last_reported":1744355441,"current_range_meters":11200,"station_id":"ce4bhlh2rcd13ifvqgig","pricing_plan_id":"cebpf4jnsgd1na2vs0mg"},{"bike_id":"64048e4a-ad96-4bc6-927c-a054e8ead51f","system_id":"levelo_inurba_marseille","lat":43.31219,"lon":5.36879,"is_reserved":false,"is_disabled":false,"rental_uris":{"android":"levelo://app?vid=64048e4a-ad96-4bc6-927c-a054e8ead51f","ios":"levelo://app?vid=64048e4a-ad96-4bc6-927c-a054e8ead51f"},"vehicle_type_id":"4","last_reported":1744355441,"current_range_meters":11200,"station_id":"ce4bgl92rcd13ifvqbq0","pricing_plan_id":"cebpf4jnsgd1na2vs0mg"},{"bike_id":"82d3762f-dbcd-4c6c-bd48-3e7c9a4f527d","system_id":"levelo_inurba_marseille","lat":43.29262,"lon":5.3762,"is_reserved":false,"is_disabled":false,"rental_uris":{"android":"levelo://app?vid=82d3762f-dbcd-4c6c-bd48-3e7c9a4f527d","ios":"levelo://app?vid=82d3762f-dbcd-4c6c-bd48-3e7c9a4f527d"},"vehicle_type_id":"4","last_reported":1744355441,"current_range_meters":11200,"station_id":"ce4bgi12rcd13ifvqb80","pricing_plan_id":"cebpf4jnsgd1na2vs0mg"},{"bike_id":"29d07634-3a6a-41c2-bc4b-cd57c5df2556","system_id":"levelo_inurba_marseille","lat":43.25116,"lon":5.40323,"is_reserved":false,"is_disabled":false,"rental_uris":{"android":"levelo://app?vid=29d07634-3a6a-41c2-bc4b-cd57c5df2556","ios":"levelo://app?vid=29d07634-3a6a-41c2-bc4b-cd57c5df2556"},"vehicle_type_id":"4","last_reported":1744355441,"current_range_meters":8800,"station_id":"ce4bhlh2rcd13ifvqgig","pricing_plan_id":"cebpf4jnsgd1na2vs0mg"},{"bike_id":"0922821c-4e1d-4817-9469-860e55f8f0d1","system_id":"levelo_inurba_marseille","lat":43.22502,"lon":5.34775,"is_reserved":false,"is_disabled":false,"rental_uris":{"android":"levelo://app?vid=0922821c-4e1d-4817-9469-860e55f8f0d1","ios":"levelo://app?vid=0922821c-4e1d-4817-9469-860e55f8f0d1"},"vehicle_type_id":"4","last_reported":1744355441,"current_range_meters":11200,"station_id":"st_cvj5dfep6f1abm77gieg","pricing_plan_id":"cebpf4jnsgd1na2vs0mg"},{"bike_id":"c8e8c673-cf38-4e54-846c-380cb950ff4e","system_id":"levelo_inurba_marseille","lat":43.2418,"lon":5.39729,"is_reserved":false,"is_disabled":false,"rental_uris":{"android":"levelo://app?vid=c8e8c673-cf38-4e54-846c-380cb950ff4e","ios":"levelo://app?vid=c8e8c673-cf38-4e54-846c-380cb950ff4e"},"vehicle_type_id":"4","last_reported":1744355441,"current_range_meters":11200,"station_id":"ce4bhn12rcd13ifvqgpg","pricing_plan_id":"cebpf4jnsgd1na2vs0mg"},{"bike_id":"aca070cc-ba66-44c8-adde-e4314d297936","system_id":"levelo_inurba_marseille","lat":43.29578,"lon":5.38648,"is_reserved":false,"is_disabled":false,"rental_uris":{"android":"levelo://app?vid=aca070cc-ba66-44c8-adde-e4314d297936","ios":"levelo://app?vid=aca070cc-ba66-44c8-adde-e4314d297936"},"vehicle_type_id":"4","last_reported":1744355441,"current_range_meters":11600,"station_id":"","pricing_plan_id":"cebpf4jnsgd1na2vs0mg"},{"bike_id":"9aac65b8-8f8f-49f0-b49e-a5d1465af970","system_id":"levelo_inurba_marseille","lat":43.3097,"lon":5.39039,"is_reserved":false,"is_disabled":false,"rental_uris":{"android":"levelo://app?vid=9aac65b8-8f8f-49f0-b49e-a5d1465af970","ios":"levelo://app?vid=9aac65b8-8f8f-49f0-b49e-a5d1465af970"},"vehicle_type_id":"4","last_reported":1744355441,"current_range_meters":11600,"station_id":"ce4bgup2rcd13ifvqco0","pricing_plan_id":"cebpf4jnsgd1na2vs0mg"},{"bike_id":"1a952879-6c88-4fe1-be76-32006d5594ff","system_id":"levelo_inurba_marseille","lat":43.29008,"lon":5.40004,"is_reserved":false,"is_disabled":false,"rental_uris":{"android":"levelo://app?vid=1a952879-6c88-4fe1-be76-32006d5594ff","ios":"levelo://app?vid=1a952879-6c88-4fe1-be76-32006d5594ff"},"vehicle_type_id":"4","last_reported":1744355441,"current_range_meters":11600,"station_id":"ce4bh392rcd13ifvqdm0","pricing_plan_id":"cebpf4jnsgd1na2vs0mg"},{"bike_id":"508b362c-971e-41d0-9a97-522956b1a8d5","system_id":"levelo_inurba_marseille","lat":43.297091,"lon":5.365971,"is_reserved":false,"is_disabled":false,"rental_uris":{"android":"levelo://app?vid=508b362c-971e-41d0-9a97-522956b1a8d5","ios":"levelo://app?vid=508b362c-971e-41d0-9a97-522956b1a8d5"},"vehicle_type_id":"4","last_reported":1744355441,"current_range_meters":12000,"station_id":"ce4bgn12rcd13ifvqbt0","pricing_plan_id":"cebpf4jnsgd1na2vs0mg"},{"bike_id":"af251c57-8316-40d9-872f-d091c2235119","system_id":"levelo_inurba_marseille","lat":43.281541,"lon":5.426469,"is_reserved":false,"is_disabled":false,"rental_uris":{"android":"levelo://app?vid=af251c57-8316-40d9-872f-d091c2235119","ios":"levelo://app?vid=af251c57-8316-40d9-872f-d091c2235119"},"vehicle_type_id":"4","last_reported":1744355441,"current_range_meters":12000,"station_id":"ce4bhnh2rcd13ifvqgug","pricing_plan_id":"cebpf4jnsgd1na2vs0mg"},{"bike_id":"c266cdc4-c7b8-499b-9979-d13187952b82","system_id":"levelo_inurba_marseille","lat":43.2693,"lon":5.38914,"is_reserved":false,"is_disabled":false,"rental_uris":{"android":"levelo://app?vid=c266cdc4-c7b8-499b-9979-d13187952b82","ios":"levelo://app?vid=c266cdc4-c7b8-499b-9979-d13187952b82"},"vehicle_type_id":"4","last_reported":1744355441,"current_range_meters":12000,"station_id":"ce4bhhh2rcd13ifvqfl0","pricing_plan_id":"cebpf4jnsgd1na2vs0mg"},{"bike_id":"190bed17-6627-4f7f-9040-d999c64b1fa9","system_id":"levelo_inurba_marseille","lat":43.30444,"lon":5.41257,"is_reserved":false,"is_disabled":false,"rental_uris":{"android":"levelo://app?vid=190bed17-6627-4f7f-9040-d999c64b1fa9","ios":"levelo://app?vid=190bed17-6627-4f7f-9040-d999c64b1fa9"},"vehicle_type_id":"4","last_reported":1744355441,"current_range_meters":12000,"station_id":"ce4bhop2rcd13ifvqh8g","pricing_plan_id":"cebpf4jnsgd1na2vs0mg"},{"bike_id":"4f3acd91-ce8e-4583-bef1-d80af5069254","system_id":"levelo_inurba_marseille","lat":43.241793,"lon":5.397337,"is_reserved":false,"is_disabled":false,"rental_uris":{"android":"levelo://app?vid=4f3acd91-ce8e-4583-bef1-d80af5069254","ios":"levelo://app?vid=4f3acd91-ce8e-4583-bef1-d80af5069254"},"vehicle_type_id":"4","last_reported":1744355441,"current_range_meters":12400,"station_id":"ce4bhn12rcd13ifvqgpg","pricing_plan_id":"cebpf4jnsgd1na2vs0mg"},{"bike_id":"23718e9a-5ce7-4d28-99a5-8f754f56e13c","system_id":"levelo_inurba_marseille","lat":43.22495,"lon":5.3479,"is_reserved":false,"is_disabled":true,"rental_uris":{"android":"levelo://app?vid=23718e9a-5ce7-4d28-99a5-8f754f56e13c","ios":"levelo://app?vid=23718e9a-5ce7-4d28-99a5-8f754f56e13c"},"vehicle_type_id":"4","last_reported":1744355441,"current_range_meters":12400,"station_id":"st_cvj5dfep6f1abm77gieg","pricing_plan_id":"cebpf4jnsgd1na2vs0mg"},{"bike_id":"9c07b687-0cca-4a28-82f6-66c50d295640","system_id":"levelo_inurba_marseille","lat":43.32342,"lon":5.38328,"is_reserved":false,"is_disabled":true,"rental_uris":{"android":"levelo://app?vid=9c07b687-0cca-4a28-82f6-66c50d295640","ios":"levelo://app?vid=9c07b687-0cca-4a28-82f6-66c50d295640"},"vehicle_type_id":"4","last_reported":1744355441,"current_range_meters":12400,"station_id":"","pricing_plan_id":"cebpf4jnsgd1na2vs0mg"},{"bike_id":"a4cb75f8-85cb-4f4a-8281-971d890f52c2","system_id":"levelo_inurba_marseille","lat":43.24809,"lon":5.37457,"is_reserved":false,"is_disabled":false,"rental_uris":{"android":"levelo://app?vid=a4cb75f8-85cb-4f4a-8281-971d890f52c2","ios":"levelo://app?vid=a4cb75f8-85cb-4f4a-8281-971d890f52c2"},"vehicle_type_id":"4","last_reported":1744355441,"current_range_meters":12800,"station_id":"ce4bhgh2rcd13ifvqfb0","pricing_plan_id":"cebpf4jnsgd1na2vs0mg"},{"bike_id":"da6a57ea-c38f-48a5-89c8-6054329a947b","system_id":"levelo_inurba_marseille","lat":43.27179,"lon":5.4099,"is_reserved":false,"is_disabled":false,"rental_uris":{"android":"levelo://app?vid=da6a57ea-c38f-48a5-89c8-6054329a947b","ios":"levelo://app?vid=da6a57ea-c38f-48a5-89c8-6054329a947b"},"vehicle_type_id":"4","last_reported":1744355441,"current_range_meters":12800,"station_id":"ce4bhl12rcd13ifvqgf0","pricing_plan_id":"cebpf4jnsgd1na2vs0mg"},{"bike_id":"6ae42d22-449e-430c-b887-6a8836aa2696","system_id":"levelo_inurba_marseille","lat":43.30536,"lon":5.3655,"is_reserved":false,"is_disabled":false,"rental_uris":{"android":"levelo://app?vid=6ae42d22-449e-430c-b887-6a8836aa2696","ios":"levelo://app?vid=6ae42d22-449e-430c-b887-6a8836aa2696"},"vehicle_type_id":"4","last_reported":1744355441,"current_range_meters":12800,"station_id":"ce4bgs12rcd13ifvqcag","pricing_plan_id":"cebpf4jnsgd1na2vs0mg"},{"bike_id":"078a6dc5-3c98-4f01-aecd-ecf8c0f132d9","system_id":"levelo_inurba_marseille","lat":43.29988,"lon":5.38504,"is_reserved":false,"is_disabled":true,"rental_uris":{"android":"levelo://app?vid=078a6dc5-3c98-4f01-aecd-ecf8c0f132d9","ios":"levelo://app?vid=078a6dc5-3c98-4f01-aecd-ecf8c0f132d9"},"vehicle_type_id":"4","last_reported":1744355441,"current_range_meters":12800,"station_id":"ce4bgj92rcd13ifvqbd0","pricing_plan_id":"cebpf4jnsgd1na2vs0mg"},{"bike_id":"94455896-0f19-4fae-bd72-9879f01fcd6e","system_id":"levelo_inurba_marseille","lat":43.29543,"lon":5.42286,"is_reserved":false,"is_disabled":true,"rental_uris":{"android":"levelo://app?vid=94455896-0f19-4fae-bd72-9879f01fcd6e","ios":"levelo://app?vid=94455896-0f19-4fae-bd72-9879f01fcd6e"},"vehicle_type_id":"4","last_reported":1744355441,"current_range_meters":12800,"station_id":"ce4bhph2rcd13ifvqhdg","pricing_plan_id":"cebpf4jnsgd1na2vs0mg"},{"bike_id":"70c01923-03ee-4ecc-a4ab-73f475089ad5","system_id":"levelo_inurba_marseille","lat":43.29917,"lon":5.37509,"is_reserved":false,"is_disabled":false,"rental_uris":{"android":"levelo://app?vid=70c01923-03ee-4ecc-a4ab-73f475089ad5","ios":"levelo://app?vid=70c01923-03ee-4ecc-a4ab-73f475089ad5"},"vehicle_type_id":"4","last_reported":1744355441,"current_range_meters":13600,"station_id":"ce4bgjh2rcd13ifvqbg0","pricing_plan_id":"cebpf4jnsgd1na2vs0mg"},{"bike_id":"bf1930ed-dc29-4efa-a8cb-eaa24e1ec819","system_id":"levelo_inurba_marseille","lat":43.2927,"lon":5.40132,"is_reserved":false,"is_disabled":false,"rental_uris":{"android":"levelo://app?vid=bf1930ed-dc29-4efa-a8cb-eaa24e1ec819","ios":"levelo://app?vid=bf1930ed-dc29-4efa-a8cb-eaa24e1ec819"},"vehicle_type_id":"4","last_reported":1744355441,"current_range_meters":14000,"station_id":"ce4bh312rcd13ifvqdk0","pricing_plan_id":"cebpf4jnsgd1na2vs0mg"},{"bike_id":"8fa121aa-be3f-4214-a1aa-655c48e4cf8e","system_id":"levelo_inurba_marseille","lat":43.26782,"lon":5.39421,"is_reserved":false,"is_disabled":false,"rental_uris":{"android":"levelo://app?vid=8fa121aa-be3f-4214-a1aa-655c48e4cf8e","ios":"levelo://app?vid=8fa121aa-be3f-4214-a1aa-655c48e4cf8e"},"vehicle_type_id":"4","last_reported":1744355441,"current_range_meters":14000,"station_id":"ce4bhh12rcd13ifvqfg0","pricing_plan_id":"cebpf4jnsgd1na2vs0mg"},{"bike_id":"d1de17d8-8473-459c-ab85-65418194e22a","system_id":"levelo_inurba_marseille","lat":43.2653,"lon":5.39036,"is_reserved":false,"is_disabled":false,"rental_uris":{"android":"levelo://app?vid=d1de17d8-8473-459c-ab85-65418194e22a","ios":"levelo://app?vid=d1de17d8-8473-459c-ab85-65418194e22a"},"vehicle_type_id":"4","last_reported":1744355441,"current_range_meters":14000,"station_id":"ce4bhe12rcd13ifvqf30","pricing_plan_id":"cebpf4jnsgd1na2vs0mg"},{"bike_id":"1a8675f7-96a5-4fc2-8fd4-53f39f26b59b","system_id":"levelo_inurba_marseille","lat":43.32397,"lon":5.38997,"is_reserved":false,"is_disabled":true,"rental_uris":{"android":"levelo://app?vid=1a8675f7-96a5-4fc2-8fd4-53f39f26b59b","ios":"levelo://app?vid=1a8675f7-96a5-4fc2-8fd4-53f39f26b59b"},"vehicle_type_id":"4","last_reported":1744355441,"current_range_meters":14000,"station_id":"ce4bhr12rcd13ifvqhqg","pricing_plan_id":"cebpf4jnsgd1na2vs0mg"},{"bike_id":"182650a6-9433-4951-80ba-44b6e3878dab","system_id":"levelo_inurba_marseille","lat":43.30526,"lon":5.3841,"is_reserved":false,"is_disabled":true,"rental_uris":{"android":"levelo://app?vid=182650a6-9433-4951-80ba-44b6e3878dab","ios":"levelo://app?vid=182650a6-9433-4951-80ba-44b6e3878dab"},"vehicle_type_id":"4","last_reported":1744355441,"current_range_meters":14000,"station_id":"ce4bgg92rcd13ifvqb30","pricing_plan_id":"cebpf4jnsgd1na2vs0mg"},{"bike_id":"f1ee412e-5bc5-4b35-9ab4-072954e6c935","system_id":"levelo_inurba_marseille","lat":43.26771,"lon":5.39431,"is_reserved":false,"is_disabled":false,"rental_uris":{"android":"levelo://app?vid=f1ee412e-5bc5-4b35-9ab4-072954e6c935","ios":"levelo://app?vid=f1ee412e-5bc5-4b35-9ab4-072954e6c935"},"vehicle_type_id":"4","last_reported":1744355441,"current_range_meters":14400,"station_id":"ce4bhh12rcd13ifvqfg0","pricing_plan_id":"cebpf4jnsgd1na2vs0mg"},{"bike_id":"467924d9-889a-4591-a26d-c954ba0abb33","system_id":"levelo_inurba_marseille","lat":43.32381,"lon":5.38992,"is_reserved":false,"is_disabled":true,"rental_uris":{"android":"levelo://app?vid=467924d9-889a-4591-a26d-c954ba0abb33","ios":"levelo://app?vid=467924d9-889a-4591-a26d-c954ba0abb33"},"vehicle_type_id":"4","last_reported":1744355441,"current_range_meters":14400,"station_id":"","pricing_plan_id":"cebpf4jnsgd1na2vs0mg"},{"bike_id":"463b41fd-37bb-48c0-a6e4-12f737a3d7cf","system_id":"levelo_inurba_marseille","lat":43.2692,"lon":5.40306,"is_reserved":false,"is_disabled":true,"rental_uris":{"android":"levelo://app?vid=463b41fd-37bb-48c0-a6e4-12f737a3d7cf","ios":"levelo://app?vid=463b41fd-37bb-48c0-a6e4-12f737a3d7cf"},"vehicle_type_id":"4","last_reported":1744355441,"current_range_meters":14400,"station_id":"cjm6bp8fraef2m0cb0m0","pricing_plan_id":"cebpf4jnsgd1na2vs0mg"},{"bike_id":"bd5d1af8-ddf8-4095-acb0-f226c260dff8","system_id":"levelo_inurba_marseille","lat":43.28616,"lon":5.35101,"is_reserved":false,"is_disabled":false,"rental_uris":{"android":"levelo://app?vid=bd5d1af8-ddf8-4095-acb0-f226c260dff8","ios":"levelo://app?vid=bd5d1af8-ddf8-4095-acb0-f226c260dff8"},"vehicle_type_id":"4","last_reported":1744355441,"current_range_meters":14400,"station_id":"ce4bhch2rcd13ifvqeug","pricing_plan_id":"cebpf4jnsgd1na2vs0mg"},{"bike_id":"8805ec8a-501d-414a-afa7-02f93ec255f0","system_id":"levelo_inurba_marseille","lat":43.30812,"lon":5.38152,"is_reserved":false,"is_disabled":false,"rental_uris":{"android":"levelo://app?vid=8805ec8a-501d-414a-afa7-02f93ec255f0","ios":"levelo://app?vid=8805ec8a-501d-414a-afa7-02f93ec255f0"},"vehicle_type_id":"4","last_reported":1744355441,"current_range_meters":14400,"station_id":"ce4bgt12rcd13ifvqce0","pricing_plan_id":"cebpf4jnsgd1na2vs0mg"},{"bike_id":"d3d9cd65-8151-402d-bb2b-ab24c1581d73","system_id":"levelo_inurba_marseille","lat":43.32045,"lon":5.41555,"is_reserved":false,"is_disabled":false,"rental_uris":{"android":"levelo://app?vid=d3d9cd65-8151-402d-bb2b-ab24c1581d73","ios":"levelo://app?vid=d3d9cd65-8151-402d-bb2b-ab24c1581d73"},"vehicle_type_id":"4","last_reported":1744355441,"current_range_meters":14400,"station_id":"ce4bhq92rcd13ifvqhkg","pricing_plan_id":"cebpf4jnsgd1na2vs0mg"},{"bike_id":"97e1cf13-6cae-4046-8135-09aeffc329ab","system_id":"levelo_inurba_marseille","lat":43.287,"lon":5.37385,"is_reserved":false,"is_disabled":true,"rental_uris":{"android":"levelo://app?vid=97e1cf13-6cae-4046-8135-09aeffc329ab","ios":"levelo://app?vid=97e1cf13-6cae-4046-8135-09aeffc329ab"},"vehicle_type_id":"4","last_reported":1744355441,"current_range_meters":14800,"station_id":"ce4bh3p2rcd13ifvqdq0","pricing_plan_id":"cebpf4jnsgd1na2vs0mg"},{"bike_id":"627403f8-4468-4a41-8798-323347b58cc9","system_id":"levelo_inurba_marseille","lat":43.27192,"lon":5.40994,"is_reserved":false,"is_disabled":false,"rental_uris":{"android":"levelo://app?vid=627403f8-4468-4a41-8798-323347b58cc9","ios":"levelo://app?vid=627403f8-4468-4a41-8798-323347b58cc9"},"vehicle_type_id":"4","last_reported":1744355441,"current_range_meters":14800,"station_id":"ce4bhl12rcd13ifvqgf0","pricing_plan_id":"cebpf4jnsgd1na2vs0mg"},{"bike_id":"a89a0773-d200-45d5-968f-f697ee019a7f","system_id":"levelo_inurba_marseille","lat":43.304668,"lon":5.37921,"is_reserved":false,"is_disabled":false,"rental_uris":{"android":"levelo://app?vid=a89a0773-d200-45d5-968f-f697ee019a7f","ios":"levelo://app?vid=a89a0773-d200-45d5-968f-f697ee019a7f"},"vehicle_type_id":"4","last_reported":1744355441,"current_range_meters":15200,"station_id":"ce4bgup2rcd13ifvqcn0","pricing_plan_id":"cebpf4jnsgd1na2vs0mg"},{"bike_id":"09b23838-ef8a-400d-9175-f211d64a4290","system_id":"levelo_inurba_marseille","lat":43.257,"lon":5.41115,"is_reserved":false,"is_disabled":false,"rental_uris":{"android":"levelo://app?vid=09b23838-ef8a-400d-9175-f211d64a4290","ios":"levelo://app?vid=09b23838-ef8a-400d-9175-f211d64a4290"},"vehicle_type_id":"4","last_reported":1744355441,"current_range_meters":14800,"station_id":"ce4bhkp2rcd13ifvqgd0","pricing_plan_id":"cebpf4jnsgd1na2vs0mg"},{"bike_id":"1b28a96e-ff57-4bf5-85d0-8da089b3d3cd","system_id":"levelo_inurba_marseille","lat":43.26708,"lon":5.38239,"is_reserved":false,"is_disabled":true,"rental_uris":{"android":"levelo://app?vid=1b28a96e-ff57-4bf5-85d0-8da089b3d3cd","ios":"levelo://app?vid=1b28a96e-ff57-4bf5-85d0-8da089b3d3cd"},"vehicle_type_id":"4","last_reported":1744355441,"current_range_meters":14800,"station_id":"ce4bhg92rcd13ifvqf90","pricing_plan_id":"cebpf4jnsgd1na2vs0mg"},{"bike_id":"6d1f80b1-80e0-4012-99d1-3f8172cadb63","system_id":"levelo_inurba_marseille","lat":43.24164,"lon":5.36419,"is_reserved":false,"is_disabled":false,"rental_uris":{"android":"levelo://app?vid=6d1f80b1-80e0-4012-99d1-3f8172cadb63","ios":"levelo://app?vid=6d1f80b1-80e0-4012-99d1-3f8172cadb63"},"vehicle_type_id":"4","last_reported":1744355441,"current_range_meters":14800,"station_id":"cpo36qri1sfpv3e86is0","pricing_plan_id":"cebpf4jnsgd1na2vs0mg"},{"bike_id":"8def42d5-7601-461e-b69f-dd41878701ec","system_id":"levelo_inurba_marseille","lat":43.30483,"lon":5.37905,"is_reserved":false,"is_disabled":false,"rental_uris":{"android":"levelo://app?vid=8def42d5-7601-461e-b69f-dd41878701ec","ios":"levelo://app?vid=8def42d5-7601-461e-b69f-dd41878701ec"},"vehicle_type_id":"4","last_reported":1744355441,"current_range_meters":14800,"station_id":"ce4bgup2rcd13ifvqcn0","pricing_plan_id":"cebpf4jnsgd1na2vs0mg"},{"bike_id":"f7c413b7-761e-4844-9742-d245e5134a86","system_id":"levelo_inurba_marseille","lat":43.29968,"lon":5.37175,"is_reserved":false,"is_disabled":false,"rental_uris":{"android":"levelo://app?vid=f7c413b7-761e-4844-9742-d245e5134a86","ios":"levelo://app?vid=f7c413b7-761e-4844-9742-d245e5134a86"},"vehicle_type_id":"4","last_reported":1744355441,"current_range_meters":14800,"station_id":"ce4bgr92rcd13ifvqc7g","pricing_plan_id":"cebpf4jnsgd1na2vs0mg"},{"bike_id":"9231697b-6013-4739-8145-946afd92531f","system_id":"levelo_inurba_marseille","lat":43.3004,"lon":5.40021,"is_reserved":false,"is_disabled":false,"rental_uris":{"android":"levelo://app?vid=9231697b-6013-4739-8145-946afd92531f","ios":"levelo://app?vid=9231697b-6013-4739-8145-946afd92531f"},"vehicle_type_id":"4","last_reported":1744355441,"current_range_meters":15200,"station_id":"","pricing_plan_id":"cebpf4jnsgd1na2vs0mg"},{"bike_id":"d3733724-f81e-49a0-9b35-7f1e48992c30","system_id":"levelo_inurba_marseille","lat":43.31892,"lon":5.4074,"is_reserved":false,"is_disabled":false,"rental_uris":{"android":"levelo://app?vid=d3733724-f81e-49a0-9b35-7f1e48992c30","ios":"levelo://app?vid=d3733724-f81e-49a0-9b35-7f1e48992c30"},"vehicle_type_id":"4","last_reported":1744355441,"current_range_meters":15200,"station_id":"ce4bhq12rcd13ifvqhig","pricing_plan_id":"cebpf4jnsgd1na2vs0mg"},{"bike_id":"90d7e32a-b1a2-48fe-ae3c-cfcd8198604b","system_id":"levelo_inurba_marseille","lat":43.31377,"lon":5.36726,"is_reserved":false,"is_disabled":false,"rental_uris":{"android":"levelo://app?vid=90d7e32a-b1a2-48fe-ae3c-cfcd8198604b","ios":"levelo://app?vid=90d7e32a-b1a2-48fe-ae3c-cfcd8198604b"},"vehicle_type_id":"4","last_reported":1744355441,"current_range_meters":16000,"station_id":"ce4bgr92rcd13ifvqc6g","pricing_plan_id":"cebpf4jnsgd1na2vs0mg"},{"bike_id":"6eb8c57a-4190-4f8d-86a1-123baf9063f7","system_id":"levelo_inurba_marseille","lat":43.30545,"lon":5.36544,"is_reserved":false,"is_disabled":false,"rental_uris":{"android":"levelo://app?vid=6eb8c57a-4190-4f8d-86a1-123baf9063f7","ios":"levelo://app?vid=6eb8c57a-4190-4f8d-86a1-123baf9063f7"},"vehicle_type_id":"4","last_reported":1744355441,"current_range_meters":16000,"station_id":"ce4bgs12rcd13ifvqcag","pricing_plan_id":"cebpf4jnsgd1na2vs0mg"},{"bike_id":"7d3b44e2-e41b-45a7-b28a-d5034c0720d0","system_id":"levelo_inurba_marseille","lat":43.29019,"lon":5.39986,"is_reserved":false,"is_disabled":false,"rental_uris":{"android":"levelo://app?vid=7d3b44e2-e41b-45a7-b28a-d5034c0720d0","ios":"levelo://app?vid=7d3b44e2-e41b-45a7-b28a-d5034c0720d0"},"vehicle_type_id":"4","last_reported":1744355441,"current_range_meters":16000,"station_id":"ce4bh392rcd13ifvqdm0","pricing_plan_id":"cebpf4jnsgd1na2vs0mg"},{"bike_id":"3aaea96c-7ba6-461c-b650-dcc76b8ba065","system_id":"levelo_inurba_marseille","lat":43.2969,"lon":5.37305,"is_reserved":false,"is_disabled":false,"rental_uris":{"android":"levelo://app?vid=3aaea96c-7ba6-461c-b650-dcc76b8ba065","ios":"levelo://app?vid=3aaea96c-7ba6-461c-b650-dcc76b8ba065"},"vehicle_type_id":"4","last_reported":1744355441,"current_range_meters":16000,"station_id":"ce4bgk12rcd13ifvqbj0","pricing_plan_id":"cebpf4jnsgd1na2vs0mg"},{"bike_id":"549918be-d79a-4899-a870-6473907900ee","system_id":"levelo_inurba_marseille","lat":43.29861,"lon":5.36291,"is_reserved":false,"is_disabled":true,"rental_uris":{"android":"levelo://app?vid=549918be-d79a-4899-a870-6473907900ee","ios":"levelo://app?vid=549918be-d79a-4899-a870-6473907900ee"},"vehicle_type_id":"4","last_reported":1744355441,"current_range_meters":16000,"station_id":"ce4bgpp2rcd13ifvqc3g","pricing_plan_id":"cebpf4jnsgd1na2vs0mg"},{"bike_id":"0a12228f-61f9-48c1-9f2f-bd8159dce7a6","system_id":"levelo_inurba_marseille","lat":43.26198,"lon":5.37463,"is_reserved":false,"is_disabled":true,"rental_uris":{"android":"levelo://app?vid=0a12228f-61f9-48c1-9f2f-bd8159dce7a6","ios":"levelo://app?vid=0a12228f-61f9-48c1-9f2f-bd8159dce7a6"},"vehicle_type_id":"4","last_reported":1744355441,"current_range_meters":16000,"station_id":"ce4bhgp2rcd13ifvqfc0","pricing_plan_id":"cebpf4jnsgd1na2vs0mg"},{"bike_id":"c8552130-95bb-4240-8124-6420637dba94","system_id":"levelo_inurba_marseille","lat":43.28444,"lon":5.39188,"is_reserved":false,"is_disabled":false,"rental_uris":{"android":"levelo://app?vid=c8552130-95bb-4240-8124-6420637dba94","ios":"levelo://app?vid=c8552130-95bb-4240-8124-6420637dba94"},"vehicle_type_id":"4","last_reported":1744355441,"current_range_meters":16000,"station_id":"ce4bhoh2rcd13ifvqh5g","pricing_plan_id":"cebpf4jnsgd1na2vs0mg"},{"bike_id":"5d3bf441-fb8f-4e4e-ba1a-8409e996b288","system_id":"levelo_inurba_marseille","lat":43.26949,"lon":5.40217,"is_reserved":false,"is_disabled":false,"rental_uris":{"android":"levelo://app?vid=5d3bf441-fb8f-4e4e-ba1a-8409e996b288","ios":"levelo://app?vid=5d3bf441-fb8f-4e4e-ba1a-8409e996b288"},"vehicle_type_id":"4","last_reported":1744355441,"current_range_meters":16000,"station_id":"cjm6bp8fraef2m0cb0m0","pricing_plan_id":"cebpf4jnsgd1na2vs0mg"},{"bike_id":"55f56f92-131a-48ea-be0d-6935144846b3","system_id":"levelo_inurba_marseille","lat":43.31082,"lon":5.4245,"is_reserved":false,"is_disabled":false,"rental_uris":{"android":"levelo://app?vid=55f56f92-131a-48ea-be0d-6935144846b3","ios":"levelo://app?vid=55f56f92-131a-48ea-be0d-6935144846b3"},"vehicle_type_id":"4","last_reported":1744355441,"current_range_meters":16000,"station_id":"ce4bhp92rcd13ifvqhag","pricing_plan_id":"cebpf4jnsgd1na2vs0mg"},{"bike_id":"a2ccb75d-7eb9-4d9d-8094-c61f30338d98","system_id":"levelo_inurba_marseille","lat":43.29028,"lon":5.39998,"is_reserved":false,"is_disabled":false,"rental_uris":{"android":"levelo://app?vid=a2ccb75d-7eb9-4d9d-8094-c61f30338d98","ios":"levelo://app?vid=a2ccb75d-7eb9-4d9d-8094-c61f30338d98"},"vehicle_type_id":"4","last_reported":1744355441,"current_range_meters":16000,"station_id":"ce4bh392rcd13ifvqdm0","pricing_plan_id":"cebpf4jnsgd1na2vs0mg"},{"bike_id":"736eddc2-3840-4903-8185-09191dc96ccf","system_id":"levelo_inurba_marseille","lat":43.28706,"lon":5.39984,"is_reserved":false,"is_disabled":false,"rental_uris":{"android":"levelo://app?vid=736eddc2-3840-4903-8185-09191dc96ccf","ios":"levelo://app?vid=736eddc2-3840-4903-8185-09191dc96ccf"},"vehicle_type_id":"4","last_reported":1744355441,"current_range_meters":16000,"station_id":"ce4bho92rcd13ifvqh3g","pricing_plan_id":"cebpf4jnsgd1na2vs0mg"},{"bike_id":"4c893399-b4ed-40ed-a49f-713da320f269","system_id":"levelo_inurba_marseille","lat":43.29861,"lon":5.37841,"is_reserved":false,"is_disabled":false,"rental_uris":{"android":"levelo://app?vid=4c893399-b4ed-40ed-a49f-713da320f269","ios":"levelo://app?vid=4c893399-b4ed-40ed-a49f-713da320f269"},"vehicle_type_id":"4","last_reported":1744355441,"current_range_meters":16400,"station_id":"","pricing_plan_id":"cebpf4jnsgd1na2vs0mg"},{"bike_id":"8c58f2fa-99e1-41f8-bf90-9c1648b679b1","system_id":"levelo_inurba_marseille","lat":43.273,"lon":5.41417,"is_reserved":false,"is_disabled":false,"rental_uris":{"android":"levelo://app?vid=8c58f2fa-99e1-41f8-bf90-9c1648b679b1","ios":"levelo://app?vid=8c58f2fa-99e1-41f8-bf90-9c1648b679b1"},"vehicle_type_id":"4","last_reported":1744355441,"current_range_meters":16400,"station_id":"","pricing_plan_id":"cebpf4jnsgd1na2vs0mg"},{"bike_id":"e592a8de-f46f-4dd3-926b-1d1f0d2713b2","system_id":"levelo_inurba_marseille","lat":43.2511,"lon":5.40322,"is_reserved":false,"is_disabled":false,"rental_uris":{"android":"levelo://app?vid=e592a8de-f46f-4dd3-926b-1d1f0d2713b2","ios":"levelo://app?vid=e592a8de-f46f-4dd3-926b-1d1f0d2713b2"},"vehicle_type_id":"4","last_reported":1744355441,"current_range_meters":16400,"station_id":"ce4bhlh2rcd13ifvqgig","pricing_plan_id":"cebpf4jnsgd1na2vs0mg"},{"bike_id":"ff968639-0e13-49ce-9471-5c46d77b7116","system_id":"levelo_inurba_marseille","lat":43.30956,"lon":5.39037,"is_reserved":false,"is_disabled":false,"rental_uris":{"android":"levelo://app?vid=ff968639-0e13-49ce-9471-5c46d77b7116","ios":"levelo://app?vid=ff968639-0e13-49ce-9471-5c46d77b7116"},"vehicle_type_id":"4","last_reported":1744355441,"current_range_meters":16400,"station_id":"ce4bgup2rcd13ifvqco0","pricing_plan_id":"cebpf4jnsgd1na2vs0mg"},{"bike_id":"b88ee36d-20eb-46e5-ac94-f124849f4f37","system_id":"levelo_inurba_marseille","lat":43.28612,"lon":5.35103,"is_reserved":false,"is_disabled":false,"rental_uris":{"android":"levelo://app?vid=b88ee36d-20eb-46e5-ac94-f124849f4f37","ios":"levelo://app?vid=b88ee36d-20eb-46e5-ac94-f124849f4f37"},"vehicle_type_id":"4","last_reported":1744355441,"current_range_meters":16800,"station_id":"ce4bhch2rcd13ifvqeug","pricing_plan_id":"cebpf4jnsgd1na2vs0mg"},{"bike_id":"ef291804-1477-432e-b153-82ea15725418","system_id":"levelo_inurba_marseille","lat":43.33742,"lon":5.37454,"is_reserved":false,"is_disabled":false,"rental_uris":{"android":"levelo://app?vid=ef291804-1477-432e-b153-82ea15725418","ios":"levelo://app?vid=ef291804-1477-432e-b153-82ea15725418"},"vehicle_type_id":"4","last_reported":1744355441,"current_range_meters":16800,"station_id":"","pricing_plan_id":"cebpf4jnsgd1na2vs0mg"},{"bike_id":"18fa0214-3dac-43a9-aee5-f3dcce189c30","system_id":"levelo_inurba_marseille","lat":43.23191,"lon":5.39973,"is_reserved":false,"is_disabled":false,"rental_uris":{"android":"levelo://app?vid=18fa0214-3dac-43a9-aee5-f3dcce189c30","ios":"levelo://app?vid=18fa0214-3dac-43a9-aee5-f3dcce189c30"},"vehicle_type_id":"4","last_reported":1744355441,"current_range_meters":16800,"station_id":"ce4bhn12rcd13ifvqgqg","pricing_plan_id":"cebpf4jnsgd1na2vs0mg"},{"bike_id":"1f241ba5-7554-4cbe-9cec-32e603169cf4","system_id":"levelo_inurba_marseille","lat":43.30533,"lon":5.38433,"is_reserved":false,"is_disabled":false,"rental_uris":{"android":"levelo://app?vid=1f241ba5-7554-4cbe-9cec-32e603169cf4","ios":"levelo://app?vid=1f241ba5-7554-4cbe-9cec-32e603169cf4"},"vehicle_type_id":"4","last_reported":1744355441,"current_range_meters":14400,"station_id":"ce4bgg92rcd13ifvqb30","pricing_plan_id":"cebpf4jnsgd1na2vs0mg"},{"bike_id":"babea503-ada9-4265-b4e2-0fd2dc3d21c0","system_id":"levelo_inurba_marseille","lat":43.31232,"lon":5.3687,"is_reserved":false,"is_disabled":false,"rental_uris":{"android":"levelo://app?vid=babea503-ada9-4265-b4e2-0fd2dc3d21c0","ios":"levelo://app?vid=babea503-ada9-4265-b4e2-0fd2dc3d21c0"},"vehicle_type_id":"4","last_reported":1744355441,"current_range_meters":17200,"station_id":"ce4bgl92rcd13ifvqbq0","pricing_plan_id":"cebpf4jnsgd1na2vs0mg"},{"bike_id":"54a7d26a-c5f8-4008-b945-bcc5a036c746","system_id":"levelo_inurba_marseille","lat":43.2331,"lon":5.3616,"is_reserved":false,"is_disabled":false,"rental_uris":{"android":"levelo://app?vid=54a7d26a-c5f8-4008-b945-bcc5a036c746","ios":"levelo://app?vid=54a7d26a-c5f8-4008-b945-bcc5a036c746"},"vehicle_type_id":"4","last_reported":1744355441,"current_range_meters":17200,"station_id":"","pricing_plan_id":"cebpf4jnsgd1na2vs0mg"},{"bike_id":"f4c869aa-66cd-4d6c-8b94-ecf6ae1111a8","system_id":"levelo_inurba_marseille","lat":43.29497,"lon":5.41847,"is_reserved":false,"is_disabled":true,"rental_uris":{"android":"levelo://app?vid=f4c869aa-66cd-4d6c-8b94-ecf6ae1111a8","ios":"levelo://app?vid=f4c869aa-66cd-4d6c-8b94-ecf6ae1111a8"},"vehicle_type_id":"4","last_reported":1744355441,"current_range_meters":17200,"station_id":"","pricing_plan_id":"cebpf4jnsgd1na2vs0mg"},{"bike_id":"b2ce936b-391b-47f6-a1f9-02af9a4ea3b0","system_id":"levelo_inurba_marseille","lat":43.31352,"lon":5.36698,"is_reserved":false,"is_disabled":false,"rental_uris":{"android":"levelo://app?vid=b2ce936b-391b-47f6-a1f9-02af9a4ea3b0","ios":"levelo://app?vid=b2ce936b-391b-47f6-a1f9-02af9a4ea3b0"},"vehicle_type_id":"4","last_reported":1744355441,"current_range_meters":17200,"station_id":"ce4bgr92rcd13ifvqc6g","pricing_plan_id":"cebpf4jnsgd1na2vs0mg"},{"bike_id":"34058314-285b-4a56-9cd6-80bb51fa95b9","system_id":"levelo_inurba_marseille","lat":43.30523,"lon":5.36721,"is_reserved":false,"is_disabled":false,"rental_uris":{"android":"levelo://app?vid=34058314-285b-4a56-9cd6-80bb51fa95b9","ios":"levelo://app?vid=34058314-285b-4a56-9cd6-80bb51fa95b9"},"vehicle_type_id":"4","last_reported":1744355441,"current_range_meters":17200,"station_id":"ce4bgrp2rcd13ifvqc9g","pricing_plan_id":"cebpf4jnsgd1na2vs0mg"},{"bike_id":"ec9feb7a-2344-46a3-88f3-404c30f15564","system_id":"levelo_inurba_marseille","lat":43.309367,"lon":5.39025,"is_reserved":false,"is_disabled":false,"rental_uris":{"android":"levelo://app?vid=ec9feb7a-2344-46a3-88f3-404c30f15564","ios":"levelo://app?vid=ec9feb7a-2344-46a3-88f3-404c30f15564"},"vehicle_type_id":"4","last_reported":1744355441,"current_range_meters":17200,"station_id":"ce4bgup2rcd13ifvqco0","pricing_plan_id":"cebpf4jnsgd1na2vs0mg"},{"bike_id":"53039d43-8b94-4aa1-982d-c603eda6ab86","system_id":"levelo_inurba_marseille","lat":43.30876,"lon":5.3967,"is_reserved":false,"is_disabled":false,"rental_uris":{"android":"levelo://app?vid=53039d43-8b94-4aa1-982d-c603eda6ab86","ios":"levelo://app?vid=53039d43-8b94-4aa1-982d-c603eda6ab86"},"vehicle_type_id":"4","last_reported":1744355441,"current_range_meters":17200,"station_id":"ce4bgk12rcd13ifvqbi0","pricing_plan_id":"cebpf4jnsgd1na2vs0mg"},{"bike_id":"56e10374-59b3-4bdf-ad5a-bf1483ffc757","system_id":"levelo_inurba_marseille","lat":43.284766,"lon":5.384047,"is_reserved":false,"is_disabled":false,"rental_uris":{"android":"levelo://app?vid=56e10374-59b3-4bdf-ad5a-bf1483ffc757","ios":"levelo://app?vid=56e10374-59b3-4bdf-ad5a-bf1483ffc757"},"vehicle_type_id":"4","last_reported":1744355441,"current_range_meters":17200,"station_id":"ce4bhg12rcd13ifvqf60","pricing_plan_id":"cebpf4jnsgd1na2vs0mg"},{"bike_id":"b23c94b8-d5d3-4e0b-8152-41fe9d7297e8","system_id":"levelo_inurba_marseille","lat":43.32365,"lon":5.36755,"is_reserved":false,"is_disabled":false,"rental_uris":{"android":"levelo://app?vid=b23c94b8-d5d3-4e0b-8152-41fe9d7297e8","ios":"levelo://app?vid=b23c94b8-d5d3-4e0b-8152-41fe9d7297e8"},"vehicle_type_id":"4","last_reported":1744355441,"current_range_meters":17600,"station_id":"ce4bhsh2rcd13ifvqi2g","pricing_plan_id":"cebpf4jnsgd1na2vs0mg"},{"bike_id":"c85b286c-a834-41ba-b350-5f84b9024963","system_id":"levelo_inurba_marseille","lat":43.2315,"lon":5.43721,"is_reserved":false,"is_disabled":false,"rental_uris":{"android":"levelo://app?vid=c85b286c-a834-41ba-b350-5f84b9024963","ios":"levelo://app?vid=c85b286c-a834-41ba-b350-5f84b9024963"},"vehicle_type_id":"4","last_reported":1744355441,"current_range_meters":17600,"station_id":"ce4bhmp2rcd13ifvqgog","pricing_plan_id":"cebpf4jnsgd1na2vs0mg"},{"bike_id":"84b31b9a-3639-4a49-ba1b-b8657db4f117","system_id":"levelo_inurba_marseille","lat":43.30925,"lon":5.36854,"is_reserved":false,"is_disabled":true,"rental_uris":{"android":"levelo://app?vid=84b31b9a-3639-4a49-ba1b-b8657db4f117","ios":"levelo://app?vid=84b31b9a-3639-4a49-ba1b-b8657db4f117"},"vehicle_type_id":"4","last_reported":1744355441,"current_range_meters":17600,"station_id":"ce4bgn92rcd13ifvqbvg","pricing_plan_id":"cebpf4jnsgd1na2vs0mg"},{"bike_id":"0ecbfc6e-b0de-41d7-906a-d189824074fa","system_id":"levelo_inurba_marseille","lat":43.26681,"lon":5.38267,"is_reserved":false,"is_disabled":false,"rental_uris":{"android":"levelo://app?vid=0ecbfc6e-b0de-41d7-906a-d189824074fa","ios":"levelo://app?vid=0ecbfc6e-b0de-41d7-906a-d189824074fa"},"vehicle_type_id":"4","last_reported":1744355441,"current_range_meters":17600,"station_id":"ce4bhg92rcd13ifvqf90","pricing_plan_id":"cebpf4jnsgd1na2vs0mg"},{"bike_id":"94285f83-3b5d-462b-97b6-1d5eba6c8ae0","system_id":"levelo_inurba_marseille","lat":43.30469,"lon":5.37906,"is_reserved":false,"is_disabled":false,"rental_uris":{"android":"levelo://app?vid=94285f83-3b5d-462b-97b6-1d5eba6c8ae0","ios":"levelo://app?vid=94285f83-3b5d-462b-97b6-1d5eba6c8ae0"},"vehicle_type_id":"4","last_reported":1744355441,"current_range_meters":17600,"station_id":"ce4bgup2rcd13ifvqcn0","pricing_plan_id":"cebpf4jnsgd1na2vs0mg"},{"bike_id":"0938de73-c38d-4651-a8f6-5eef646db01d","system_id":"levelo_inurba_marseille","lat":43.295614,"lon":5.397782,"is_reserved":false,"is_disabled":false,"rental_uris":{"android":"levelo://app?vid=0938de73-c38d-4651-a8f6-5eef646db01d","ios":"levelo://app?vid=0938de73-c38d-4651-a8f6-5eef646db01d"},"vehicle_type_id":"4","last_reported":1744355441,"current_range_meters":17600,"station_id":"ce4bh192rcd13ifvqdd0","pricing_plan_id":"cebpf4jnsgd1na2vs0mg"},{"bike_id":"5b77a833-8185-45c2-9fe3-07eb40df54ca","system_id":"levelo_inurba_marseille","lat":43.33995,"lon":5.38057,"is_reserved":false,"is_disabled":false,"rental_uris":{"android":"levelo://app?vid=5b77a833-8185-45c2-9fe3-07eb40df54ca","ios":"levelo://app?vid=5b77a833-8185-45c2-9fe3-07eb40df54ca"},"vehicle_type_id":"4","last_reported":1744355441,"current_range_meters":17600,"station_id":"","pricing_plan_id":"cebpf4jnsgd1na2vs0mg"},{"bike_id":"4a4efde9-7b0f-45c2-a63f-13d48bd4d04d","system_id":"levelo_inurba_marseille","lat":43.32538,"lon":5.41449,"is_reserved":false,"is_disabled":false,"rental_uris":{"android":"levelo://app?vid=4a4efde9-7b0f-45c2-a63f-13d48bd4d04d","ios":"levelo://app?vid=4a4efde9-7b0f-45c2-a63f-13d48bd4d04d"},"vehicle_type_id":"4","last_reported":1744355441,"current_range_meters":18000,"station_id":"ce4bhq12rcd13ifvqhhg","pricing_plan_id":"cebpf4jnsgd1na2vs0mg"},{"bike_id":"82fcf910-44f9-45ca-b471-7d424315cf9b","system_id":"levelo_inurba_marseille","lat":43.283737,"lon":5.38646,"is_reserved":false,"is_disabled":true,"rental_uris":{"android":"levelo://app?vid=82fcf910-44f9-45ca-b471-7d424315cf9b","ios":"levelo://app?vid=82fcf910-44f9-45ca-b471-7d424315cf9b"},"vehicle_type_id":"4","last_reported":1744355441,"current_range_meters":18000,"station_id":"ce4bh492rcd13ifvqdvg","pricing_plan_id":"cebpf4jnsgd1na2vs0mg"},{"bike_id":"46437bc3-d6e2-4d0e-9af4-ba573ce7dfb3","system_id":"levelo_inurba_marseille","lat":43.30933,"lon":5.40142,"is_reserved":false,"is_disabled":false,"rental_uris":{"android":"levelo://app?vid=46437bc3-d6e2-4d0e-9af4-ba573ce7dfb3","ios":"levelo://app?vid=46437bc3-d6e2-4d0e-9af4-ba573ce7dfb3"},"vehicle_type_id":"4","last_reported":1744355441,"current_range_meters":18000,"station_id":"ce4bgvp2rcd13ifvqct0","pricing_plan_id":"cebpf4jnsgd1na2vs0mg"},{"bike_id":"f46a49ca-1b9d-47bc-aed6-4fa281bfffb1","system_id":"levelo_inurba_marseille","lat":43.30538,"lon":5.36558,"is_reserved":false,"is_disabled":false,"rental_uris":{"android":"levelo://app?vid=f46a49ca-1b9d-47bc-aed6-4fa281bfffb1","ios":"levelo://app?vid=f46a49ca-1b9d-47bc-aed6-4fa281bfffb1"},"vehicle_type_id":"4","last_reported":1744355441,"current_range_meters":18000,"station_id":"ce4bgs12rcd13ifvqcag","pricing_plan_id":"cebpf4jnsgd1na2vs0mg"},{"bike_id":"0e7bf4ae-5aed-4055-a1f8-96debbb9847e","system_id":"levelo_inurba_marseille","lat":43.241716,"lon":5.363956,"is_reserved":false,"is_disabled":false,"rental_uris":{"android":"levelo://app?vid=0e7bf4ae-5aed-4055-a1f8-96debbb9847e","ios":"levelo://app?vid=0e7bf4ae-5aed-4055-a1f8-96debbb9847e"},"vehicle_type_id":"4","last_reported":1744355441,"current_range_meters":18000,"station_id":"cpo36qri1sfpv3e86is0","pricing_plan_id":"cebpf4jnsgd1na2vs0mg"},{"bike_id":"c7618aae-a918-4dbc-9908-a066748aae03","system_id":"levelo_inurba_marseille","lat":43.29525,"lon":5.39401,"is_reserved":false,"is_disabled":true,"rental_uris":{"android":"levelo://app?vid=c7618aae-a918-4dbc-9908-a066748aae03","ios":"levelo://app?vid=c7618aae-a918-4dbc-9908-a066748aae03"},"vehicle_type_id":"4","last_reported":1744355441,"current_range_meters":18800,"station_id":"ce4bh292rcd13ifvqdf0","pricing_plan_id":"cebpf4jnsgd1na2vs0mg"},{"bike_id":"d1ec29d7-f0f7-463e-bf62-a85dac36cbbe","system_id":"levelo_inurba_marseille","lat":43.30134,"lon":5.38108,"is_reserved":false,"is_disabled":false,"rental_uris":{"android":"levelo://app?vid=d1ec29d7-f0f7-463e-bf62-a85dac36cbbe","ios":"levelo://app?vid=d1ec29d7-f0f7-463e-bf62-a85dac36cbbe"},"vehicle_type_id":"4","last_reported":1744355441,"current_range_meters":18800,"station_id":"ce4bgjp2rcd13ifvqbh0","pricing_plan_id":"cebpf4jnsgd1na2vs0mg"},{"bike_id":"7a5c9c76-4e30-46ad-a0c8-64088d059970","system_id":"levelo_inurba_marseille","lat":43.24043,"lon":5.37724,"is_reserved":false,"is_disabled":false,"rental_uris":{"android":"levelo://app?vid=7a5c9c76-4e30-46ad-a0c8-64088d059970","ios":"levelo://app?vid=7a5c9c76-4e30-46ad-a0c8-64088d059970"},"vehicle_type_id":"4","last_reported":1744355441,"current_range_meters":18800,"station_id":"ce4bhnp2rcd13ifvqgvg","pricing_plan_id":"cebpf4jnsgd1na2vs0mg"},{"bike_id":"0c6f1472-f240-483d-b5dd-14617235d047","system_id":"levelo_inurba_marseille","lat":43.30158,"lon":5.38075,"is_reserved":false,"is_disabled":false,"rental_uris":{"android":"levelo://app?vid=0c6f1472-f240-483d-b5dd-14617235d047","ios":"levelo://app?vid=0c6f1472-f240-483d-b5dd-14617235d047"},"vehicle_type_id":"4","last_reported":1744355441,"current_range_meters":19200,"station_id":"ce4bgjp2rcd13ifvqbh0","pricing_plan_id":"cebpf4jnsgd1na2vs0mg"},{"bike_id":"90e2b8c4-48de-4087-92b6-327b079b2968","system_id":"levelo_inurba_marseille","lat":43.28687,"lon":5.39989,"is_reserved":false,"is_disabled":false,"rental_uris":{"android":"levelo://app?vid=90e2b8c4-48de-4087-92b6-327b079b2968","ios":"levelo://app?vid=90e2b8c4-48de-4087-92b6-327b079b2968"},"vehicle_type_id":"4","last_reported":1744355441,"current_range_meters":19200,"station_id":"ce4bho92rcd13ifvqh3g","pricing_plan_id":"cebpf4jnsgd1na2vs0mg"},{"bike_id":"7c4545c3-c1b1-465e-91cc-14a8c8097af0","system_id":"levelo_inurba_marseille","lat":43.30605,"lon":5.39353,"is_reserved":false,"is_disabled":true,"rental_uris":{"android":"levelo://app?vid=7c4545c3-c1b1-465e-91cc-14a8c8097af0","ios":"levelo://app?vid=7c4545c3-c1b1-465e-91cc-14a8c8097af0"},"vehicle_type_id":"4","last_reported":1744355441,"current_range_meters":19200,"station_id":"ce4bh0p2rcd13ifvqd80","pricing_plan_id":"cebpf4jnsgd1na2vs0mg"},{"bike_id":"f3b1d239-a088-4a99-b71b-331210a9e093","system_id":"levelo_inurba_marseille","lat":43.32654,"lon":5.40994,"is_reserved":false,"is_disabled":false,"rental_uris":{"android":"levelo://app?vid=f3b1d239-a088-4a99-b71b-331210a9e093","ios":"levelo://app?vid=f3b1d239-a088-4a99-b71b-331210a9e093"},"vehicle_type_id":"4","last_reported":1744355441,"current_range_meters":19200,"station_id":"ce4bhpp2rcd13ifvqhgg","pricing_plan_id":"cebpf4jnsgd1na2vs0mg"},{"bike_id":"90cddebc-2506-42ee-9df1-36a6154dff75","system_id":"levelo_inurba_marseille","lat":43.241641,"lon":5.363964,"is_reserved":false,"is_disabled":false,"rental_uris":{"android":"levelo://app?vid=90cddebc-2506-42ee-9df1-36a6154dff75","ios":"levelo://app?vid=90cddebc-2506-42ee-9df1-36a6154dff75"},"vehicle_type_id":"4","last_reported":1744355441,"current_range_meters":19200,"station_id":"cpo36qri1sfpv3e86is0","pricing_plan_id":"cebpf4jnsgd1na2vs0mg"},{"bike_id":"8bbcfbd0-e107-407a-a10e-6e524c2532f6","system_id":"levelo_inurba_marseille","lat":43.31219,"lon":5.36869,"is_reserved":false,"is_disabled":false,"rental_uris":{"android":"levelo://app?vid=8bbcfbd0-e107-407a-a10e-6e524c2532f6","ios":"levelo://app?vid=8bbcfbd0-e107-407a-a10e-6e524c2532f6"},"vehicle_type_id":"4","last_reported":1744355441,"current_range_meters":19600,"station_id":"ce4bgl92rcd13ifvqbq0","pricing_plan_id":"cebpf4jnsgd1na2vs0mg"},{"bike_id":"e13de261-883a-4080-affc-a7ed7ac621f8","system_id":"levelo_inurba_marseille","lat":43.30936,"lon":5.40156,"is_reserved":false,"is_disabled":false,"rental_uris":{"android":"levelo://app?vid=e13de261-883a-4080-affc-a7ed7ac621f8","ios":"levelo://app?vid=e13de261-883a-4080-affc-a7ed7ac621f8"},"vehicle_type_id":"4","last_reported":1744355441,"current_range_meters":19600,"station_id":"ce4bgvp2rcd13ifvqct0","pricing_plan_id":"cebpf4jnsgd1na2vs0mg"},{"bike_id":"ae2b16a9-bf4c-4094-9fda-8d249d692cd8","system_id":"levelo_inurba_marseille","lat":43.29521,"lon":5.41777,"is_reserved":false,"is_disabled":false,"rental_uris":{"android":"levelo://app?vid=ae2b16a9-bf4c-4094-9fda-8d249d692cd8","ios":"levelo://app?vid=ae2b16a9-bf4c-4094-9fda-8d249d692cd8"},"vehicle_type_id":"4","last_reported":1744355441,"current_range_meters":19600,"station_id":"","pricing_plan_id":"cebpf4jnsgd1na2vs0mg"},{"bike_id":"8be5fbd6-08b3-4bca-a4f6-a440bb49d90f","system_id":"levelo_inurba_marseille","lat":43.27953,"lon":5.41044,"is_reserved":false,"is_disabled":false,"rental_uris":{"android":"levelo://app?vid=8be5fbd6-08b3-4bca-a4f6-a440bb49d90f","ios":"levelo://app?vid=8be5fbd6-08b3-4bca-a4f6-a440bb49d90f"},"vehicle_type_id":"4","last_reported":1744355441,"current_range_meters":19600,"station_id":"ce4bhnp2rcd13ifvqh0g","pricing_plan_id":"cebpf4jnsgd1na2vs0mg"},{"bike_id":"c2e40ede-43a1-4c08-967e-6b6533868c59","system_id":"levelo_inurba_marseille","lat":43.29277,"lon":5.36849,"is_reserved":false,"is_disabled":false,"rental_uris":{"android":"levelo://app?vid=c2e40ede-43a1-4c08-967e-6b6533868c59","ios":"levelo://app?vid=c2e40ede-43a1-4c08-967e-6b6533868c59"},"vehicle_type_id":"4","last_reported":1744355441,"current_range_meters":19600,"station_id":"ce4bhbp2rcd13ifvqesg","pricing_plan_id":"cebpf4jnsgd1na2vs0mg"},{"bike_id":"bfa48f25-5b8e-4b84-9cb2-50d1173e2ee6","system_id":"levelo_inurba_marseille","lat":43.29928,"lon":5.36538,"is_reserved":false,"is_disabled":false,"rental_uris":{"android":"levelo://app?vid=bfa48f25-5b8e-4b84-9cb2-50d1173e2ee6","ios":"levelo://app?vid=bfa48f25-5b8e-4b84-9cb2-50d1173e2ee6"},"vehicle_type_id":"4","last_reported":1744355441,"current_range_meters":19600,"station_id":"ce4bgm92rcd13ifvqbr0","pricing_plan_id":"cebpf4jnsgd1na2vs0mg"},{"bike_id":"a52d7977-ba45-464c-88c5-c9fa8f536b42","system_id":"levelo_inurba_marseille","lat":43.22503,"lon":5.347864,"is_reserved":false,"is_disabled":true,"rental_uris":{"android":"levelo://app?vid=a52d7977-ba45-464c-88c5-c9fa8f536b42","ios":"levelo://app?vid=a52d7977-ba45-464c-88c5-c9fa8f536b42"},"vehicle_type_id":"4","last_reported":1744355441,"current_range_meters":19600,"station_id":"st_cvj5dfep6f1abm77gieg","pricing_plan_id":"cebpf4jnsgd1na2vs0mg"},{"bike_id":"9ca29432-5097-41bd-a035-205372d705e9","system_id":"levelo_inurba_marseille","lat":43.26198,"lon":5.37933,"is_reserved":false,"is_disabled":false,"rental_uris":{"android":"levelo://app?vid=9ca29432-5097-41bd-a035-205372d705e9","ios":"levelo://app?vid=9ca29432-5097-41bd-a035-205372d705e9"},"vehicle_type_id":"4","last_reported":1744355441,"current_range_meters":19600,"station_id":"ce4bhjp2rcd13ifvqg90","pricing_plan_id":"cebpf4jnsgd1na2vs0mg"},{"bike_id":"6da7ed18-5a5f-467e-8b00-c46a534110a8","system_id":"levelo_inurba_marseille","lat":43.29901,"lon":5.43677,"is_reserved":false,"is_disabled":false,"rental_uris":{"android":"levelo://app?vid=6da7ed18-5a5f-467e-8b00-c46a534110a8","ios":"levelo://app?vid=6da7ed18-5a5f-467e-8b00-c46a534110a8"},"vehicle_type_id":"4","last_reported":1744355441,"current_range_meters":20000,"station_id":"ce4bhpp2rcd13ifvqhfg","pricing_plan_id":"cebpf4jnsgd1na2vs0mg"},{"bike_id":"dc174997-ea3b-4bf2-a886-4ffb632e992c","system_id":"levelo_inurba_marseille","lat":43.3095,"lon":5.39032,"is_reserved":false,"is_disabled":false,"rental_uris":{"android":"levelo://app?vid=dc174997-ea3b-4bf2-a886-4ffb632e992c","ios":"levelo://app?vid=dc174997-ea3b-4bf2-a886-4ffb632e992c"},"vehicle_type_id":"4","last_reported":1744355441,"current_range_meters":20000,"station_id":"ce4bgup2rcd13ifvqco0","pricing_plan_id":"cebpf4jnsgd1na2vs0mg"},{"bike_id":"15caa18c-ff16-46cf-9983-05ecc1cb9672","system_id":"levelo_inurba_marseille","lat":43.24641,"lon":5.3889,"is_reserved":false,"is_disabled":false,"rental_uris":{"android":"levelo://app?vid=15caa18c-ff16-46cf-9983-05ecc1cb9672","ios":"levelo://app?vid=15caa18c-ff16-46cf-9983-05ecc1cb9672"},"vehicle_type_id":"4","last_reported":1744355441,"current_range_meters":20000,"station_id":"ce4bho12rcd13ifvqh1g","pricing_plan_id":"cebpf4jnsgd1na2vs0mg"},{"bike_id":"663b2732-4e40-469c-b29d-1168df3c33a7","system_id":"levelo_inurba_marseille","lat":43.30907,"lon":5.36844,"is_reserved":false,"is_disabled":false,"rental_uris":{"android":"levelo://app?vid=663b2732-4e40-469c-b29d-1168df3c33a7","ios":"levelo://app?vid=663b2732-4e40-469c-b29d-1168df3c33a7"},"vehicle_type_id":"4","last_reported":1744355441,"current_range_meters":20000,"station_id":"ce4bgn92rcd13ifvqbvg","pricing_plan_id":"cebpf4jnsgd1na2vs0mg"},{"bike_id":"c1363969-980a-4af9-bfb4-f57a2139419c","system_id":"levelo_inurba_marseille","lat":43.292755,"lon":5.40128,"is_reserved":false,"is_disabled":false,"rental_uris":{"android":"levelo://app?vid=c1363969-980a-4af9-bfb4-f57a2139419c","ios":"levelo://app?vid=c1363969-980a-4af9-bfb4-f57a2139419c"},"vehicle_type_id":"4","last_reported":1744355441,"current_range_meters":20000,"station_id":"ce4bh312rcd13ifvqdk0","pricing_plan_id":"cebpf4jnsgd1na2vs0mg"},{"bike_id":"efed81fb-cb32-4956-b503-6eb2b5b0b2e5","system_id":"levelo_inurba_marseille","lat":43.30158,"lon":5.38077,"is_reserved":false,"is_disabled":false,"rental_uris":{"android":"levelo://app?vid=efed81fb-cb32-4956-b503-6eb2b5b0b2e5","ios":"levelo://app?vid=efed81fb-cb32-4956-b503-6eb2b5b0b2e5"},"vehicle_type_id":"4","last_reported":1744355441,"current_range_meters":20000,"station_id":"ce4bgjp2rcd13ifvqbh0","pricing_plan_id":"cebpf4jnsgd1na2vs0mg"},{"bike_id":"cb52d92e-a03e-4925-ab03-4e0266b08337","system_id":"levelo_inurba_marseille","lat":43.30953,"lon":5.39045,"is_reserved":false,"is_disabled":false,"rental_uris":{"android":"levelo://app?vid=cb52d92e-a03e-4925-ab03-4e0266b08337","ios":"levelo://app?vid=cb52d92e-a03e-4925-ab03-4e0266b08337"},"vehicle_type_id":"4","last_reported":1744355441,"current_range_meters":20000,"station_id":"ce4bgup2rcd13ifvqco0","pricing_plan_id":"cebpf4jnsgd1na2vs0mg"},{"bike_id":"44ea3182-88eb-4a7d-bbc8-aa868967f1bc","system_id":"levelo_inurba_marseille","lat":43.32045,"lon":5.37074,"is_reserved":false,"is_disabled":true,"rental_uris":{"android":"levelo://app?vid=44ea3182-88eb-4a7d-bbc8-aa868967f1bc","ios":"levelo://app?vid=44ea3182-88eb-4a7d-bbc8-aa868967f1bc"},"vehicle_type_id":"4","last_reported":1744355441,"current_range_meters":20000,"station_id":"","pricing_plan_id":"cebpf4jnsgd1na2vs0mg"},{"bike_id":"96172b5f-e812-48db-8ad2-ef6082700512","system_id":"levelo_inurba_marseille","lat":43.30948,"lon":5.39024,"is_reserved":false,"is_disabled":false,"rental_uris":{"android":"levelo://app?vid=96172b5f-e812-48db-8ad2-ef6082700512","ios":"levelo://app?vid=96172b5f-e812-48db-8ad2-ef6082700512"},"vehicle_type_id":"4","last_reported":1744355441,"current_range_meters":20000,"station_id":"ce4bgup2rcd13ifvqco0","pricing_plan_id":"cebpf4jnsgd1na2vs0mg"},{"bike_id":"81a091c8-34e9-4a55-b1f8-f014b6e3e3af","system_id":"levelo_inurba_marseille","lat":43.33053,"lon":5.39092,"is_reserved":false,"is_disabled":false,"rental_uris":{"android":"levelo://app?vid=81a091c8-34e9-4a55-b1f8-f014b6e3e3af","ios":"levelo://app?vid=81a091c8-34e9-4a55-b1f8-f014b6e3e3af"},"vehicle_type_id":"4","last_reported":1744355441,"current_range_meters":20400,"station_id":"ce4bhr92rcd13ifvqhrg","pricing_plan_id":"cebpf4jnsgd1na2vs0mg"},{"bike_id":"e7d64116-368f-421d-902b-041b68f32a12","system_id":"levelo_inurba_marseille","lat":43.30545,"lon":5.36513,"is_reserved":false,"is_disabled":false,"rental_uris":{"android":"levelo://app?vid=e7d64116-368f-421d-902b-041b68f32a12","ios":"levelo://app?vid=e7d64116-368f-421d-902b-041b68f32a12"},"vehicle_type_id":"4","last_reported":1744355441,"current_range_meters":20400,"station_id":"ce4bgs12rcd13ifvqcag","pricing_plan_id":"cebpf4jnsgd1na2vs0mg"},{"bike_id":"ed9fcd3f-ed4b-47df-9abc-6088750d314c","system_id":"levelo_inurba_marseille","lat":43.24178,"lon":5.39734,"is_reserved":false,"is_disabled":false,"rental_uris":{"android":"levelo://app?vid=ed9fcd3f-ed4b-47df-9abc-6088750d314c","ios":"levelo://app?vid=ed9fcd3f-ed4b-47df-9abc-6088750d314c"},"vehicle_type_id":"4","last_reported":1744355441,"current_range_meters":20400,"station_id":"ce4bhn12rcd13ifvqgpg","pricing_plan_id":"cebpf4jnsgd1na2vs0mg"},{"bike_id":"ba4c7cdd-5ef3-4e5b-b638-3c3cf7c4ea5a","system_id":"levelo_inurba_marseille","lat":43.32359,"lon":5.38351,"is_reserved":false,"is_disabled":true,"rental_uris":{"android":"levelo://app?vid=ba4c7cdd-5ef3-4e5b-b638-3c3cf7c4ea5a","ios":"levelo://app?vid=ba4c7cdd-5ef3-4e5b-b638-3c3cf7c4ea5a"},"vehicle_type_id":"4","last_reported":1744355441,"current_range_meters":20400,"station_id":"","pricing_plan_id":"cebpf4jnsgd1na2vs0mg"},{"bike_id":"495739a0-3cdb-4ea9-8899-361049b9af2e","system_id":"levelo_inurba_marseille","lat":43.29704,"lon":5.37694,"is_reserved":false,"is_disabled":false,"rental_uris":{"android":"levelo://app?vid=495739a0-3cdb-4ea9-8899-361049b9af2e","ios":"levelo://app?vid=495739a0-3cdb-4ea9-8899-361049b9af2e"},"vehicle_type_id":"4","last_reported":1744355441,"current_range_meters":20400,"station_id":"ce4bgkh2rcd13ifvqbl0","pricing_plan_id":"cebpf4jnsgd1na2vs0mg"},{"bike_id":"f0cfc5c7-63dc-45b1-9845-c6bc3b74d58b","system_id":"levelo_inurba_marseille","lat":43.30906,"lon":5.3685,"is_reserved":false,"is_disabled":false,"rental_uris":{"android":"levelo://app?vid=f0cfc5c7-63dc-45b1-9845-c6bc3b74d58b","ios":"levelo://app?vid=f0cfc5c7-63dc-45b1-9845-c6bc3b74d58b"},"vehicle_type_id":"4","last_reported":1744355441,"current_range_meters":20800,"station_id":"ce4bgn92rcd13ifvqbvg","pricing_plan_id":"cebpf4jnsgd1na2vs0mg"},{"bike_id":"254b1a71-f2be-4224-92a6-80ba5ac34b8d","system_id":"levelo_inurba_marseille","lat":43.25944,"lon":5.40902,"is_reserved":false,"is_disabled":false,"rental_uris":{"android":"levelo://app?vid=254b1a71-f2be-4224-92a6-80ba5ac34b8d","ios":"levelo://app?vid=254b1a71-f2be-4224-92a6-80ba5ac34b8d"},"vehicle_type_id":"4","last_reported":1744355441,"current_range_meters":20800,"station_id":"ce4bhm92rcd13ifvqglg","pricing_plan_id":"cebpf4jnsgd1na2vs0mg"},{"bike_id":"8aef39f6-6a48-4131-9013-865a4222003b","system_id":"levelo_inurba_marseille","lat":43.29248,"lon":5.40914,"is_reserved":false,"is_disabled":false,"rental_uris":{"android":"levelo://app?vid=8aef39f6-6a48-4131-9013-865a4222003b","ios":"levelo://app?vid=8aef39f6-6a48-4131-9013-865a4222003b"},"vehicle_type_id":"4","last_reported":1744355441,"current_range_meters":20800,"station_id":"ce4bh192rcd13ifvqdc0","pricing_plan_id":"cebpf4jnsgd1na2vs0mg"},{"bike_id":"873a345f-ac07-415b-8aab-c6473351c455","system_id":"levelo_inurba_marseille","lat":43.30464,"lon":5.37917,"is_reserved":false,"is_disabled":false,"rental_uris":{"android":"levelo://app?vid=873a345f-ac07-415b-8aab-c6473351c455","ios":"levelo://app?vid=873a345f-ac07-415b-8aab-c6473351c455"},"vehicle_type_id":"4","last_reported":1744355441,"current_range_meters":21600,"station_id":"ce4bgup2rcd13ifvqcn0","pricing_plan_id":"cebpf4jnsgd1na2vs0mg"},{"bike_id":"e3f53deb-5167-4f79-a0bb-d080f3282228","system_id":"levelo_inurba_marseille","lat":43.289395,"lon":5.3641,"is_reserved":false,"is_disabled":true,"rental_uris":{"android":"levelo://app?vid=e3f53deb-5167-4f79-a0bb-d080f3282228","ios":"levelo://app?vid=e3f53deb-5167-4f79-a0bb-d080f3282228"},"vehicle_type_id":"4","last_reported":1744355441,"current_range_meters":21600,"station_id":"ce4bhc92rcd13ifvqetg","pricing_plan_id":"cebpf4jnsgd1na2vs0mg"},{"bike_id":"a945cbf3-38e6-4aa3-9aa1-d414d6c834b5","system_id":"levelo_inurba_marseille","lat":43.319,"lon":5.40736,"is_reserved":false,"is_disabled":true,"rental_uris":{"android":"levelo://app?vid=a945cbf3-38e6-4aa3-9aa1-d414d6c834b5","ios":"levelo://app?vid=a945cbf3-38e6-4aa3-9aa1-d414d6c834b5"},"vehicle_type_id":"4","last_reported":1744355441,"current_range_meters":21600,"station_id":"ce4bhq12rcd13ifvqhig","pricing_plan_id":"cebpf4jnsgd1na2vs0mg"},{"bike_id":"0bfcb3f5-b6d6-4577-9747-c270771f61ef","system_id":"levelo_inurba_marseille","lat":43.30521,"lon":5.36713,"is_reserved":false,"is_disabled":false,"rental_uris":{"android":"levelo://app?vid=0bfcb3f5-b6d6-4577-9747-c270771f61ef","ios":"levelo://app?vid=0bfcb3f5-b6d6-4577-9747-c270771f61ef"},"vehicle_type_id":"4","last_reported":1744355441,"current_range_meters":21600,"station_id":"ce4bgrp2rcd13ifvqc9g","pricing_plan_id":"cebpf4jnsgd1na2vs0mg"},{"bike_id":"347f9e6b-d21c-4951-9be2-7691f8291b47","system_id":"levelo_inurba_marseille","lat":43.29962,"lon":5.38497,"is_reserved":false,"is_disabled":false,"rental_uris":{"android":"levelo://app?vid=347f9e6b-d21c-4951-9be2-7691f8291b47","ios":"levelo://app?vid=347f9e6b-d21c-4951-9be2-7691f8291b47"},"vehicle_type_id":"4","last_reported":1744355441,"current_range_meters":22800,"station_id":"ce4bgj92rcd13ifvqbd0","pricing_plan_id":"cebpf4jnsgd1na2vs0mg"},{"bike_id":"a6fb9ac6-0321-4123-b718-f7bd24b8337c","system_id":"levelo_inurba_marseille","lat":43.24183,"lon":5.397343,"is_reserved":false,"is_disabled":false,"rental_uris":{"android":"levelo://app?vid=a6fb9ac6-0321-4123-b718-f7bd24b8337c","ios":"levelo://app?vid=a6fb9ac6-0321-4123-b718-f7bd24b8337c"},"vehicle_type_id":"4","last_reported":1744355441,"current_range_meters":22000,"station_id":"ce4bhn12rcd13ifvqgpg","pricing_plan_id":"cebpf4jnsgd1na2vs0mg"},{"bike_id":"dd4f30ec-655f-42a0-9740-dc393c7cd628","system_id":"levelo_inurba_marseille","lat":43.3135,"lon":5.36704,"is_reserved":false,"is_disabled":false,"rental_uris":{"android":"levelo://app?vid=dd4f30ec-655f-42a0-9740-dc393c7cd628","ios":"levelo://app?vid=dd4f30ec-655f-42a0-9740-dc393c7cd628"},"vehicle_type_id":"4","last_reported":1744355441,"current_range_meters":22000,"station_id":"ce4bgr92rcd13ifvqc6g","pricing_plan_id":"cebpf4jnsgd1na2vs0mg"},{"bike_id":"a7c58a60-a5c5-4a4e-b362-dc7feaea63d7","system_id":"levelo_inurba_marseille","lat":43.32021,"lon":5.38146,"is_reserved":false,"is_disabled":true,"rental_uris":{"android":"levelo://app?vid=a7c58a60-a5c5-4a4e-b362-dc7feaea63d7","ios":"levelo://app?vid=a7c58a60-a5c5-4a4e-b362-dc7feaea63d7"},"vehicle_type_id":"4","last_reported":1744355441,"current_range_meters":22000,"station_id":"ce4bhr12rcd13ifvqhpg","pricing_plan_id":"cebpf4jnsgd1na2vs0mg"},{"bike_id":"5e3fff1a-916f-4062-9bbe-35c0a8da2aac","system_id":"levelo_inurba_marseille","lat":43.30954,"lon":5.39026,"is_reserved":false,"is_disabled":false,"rental_uris":{"android":"levelo://app?vid=5e3fff1a-916f-4062-9bbe-35c0a8da2aac","ios":"levelo://app?vid=5e3fff1a-916f-4062-9bbe-35c0a8da2aac"},"vehicle_type_id":"4","last_reported":1744355441,"current_range_meters":22400,"station_id":"ce4bgup2rcd13ifvqco0","pricing_plan_id":"cebpf4jnsgd1na2vs0mg"},{"bike_id":"fbc018aa-312b-44b7-a90e-86924f232456","system_id":"levelo_inurba_marseille","lat":43.25919,"lon":5.40905,"is_reserved":false,"is_disabled":false,"rental_uris":{"android":"levelo://app?vid=fbc018aa-312b-44b7-a90e-86924f232456","ios":"levelo://app?vid=fbc018aa-312b-44b7-a90e-86924f232456"},"vehicle_type_id":"4","last_reported":1744355441,"current_range_meters":22400,"station_id":"ce4bhm92rcd13ifvqglg","pricing_plan_id":"cebpf4jnsgd1na2vs0mg"},{"bike_id":"b2c8e62c-3a96-4311-a47d-0b0aff4817c1","system_id":"levelo_inurba_marseille","lat":43.21192,"lon":5.35084,"is_reserved":false,"is_disabled":false,"rental_uris":{"android":"levelo://app?vid=b2c8e62c-3a96-4311-a47d-0b0aff4817c1","ios":"levelo://app?vid=b2c8e62c-3a96-4311-a47d-0b0aff4817c1"},"vehicle_type_id":"4","last_reported":1744355441,"current_range_meters":22400,"station_id":"st_cvj6sg6p6f1abm77japg","pricing_plan_id":"cebpf4jnsgd1na2vs0mg"},{"bike_id":"7ca1064f-b45d-45b4-90f0-1974b0a1c9b3","system_id":"levelo_inurba_marseille","lat":43.30142,"lon":5.3808,"is_reserved":false,"is_disabled":false,"rental_uris":{"android":"levelo://app?vid=7ca1064f-b45d-45b4-90f0-1974b0a1c9b3","ios":"levelo://app?vid=7ca1064f-b45d-45b4-90f0-1974b0a1c9b3"},"vehicle_type_id":"4","last_reported":1744355441,"current_range_meters":22400,"station_id":"ce4bgjp2rcd13ifvqbh0","pricing_plan_id":"cebpf4jnsgd1na2vs0mg"},{"bike_id":"020e9999-d552-48d0-ae5f-b725af0dbea2","system_id":"levelo_inurba_marseille","lat":43.29913,"lon":5.43758,"is_reserved":false,"is_disabled":false,"rental_uris":{"android":"levelo://app?vid=020e9999-d552-48d0-ae5f-b725af0dbea2","ios":"levelo://app?vid=020e9999-d552-48d0-ae5f-b725af0dbea2"},"vehicle_type_id":"4","last_reported":1744355441,"current_range_meters":22400,"station_id":"","pricing_plan_id":"cebpf4jnsgd1na2vs0mg"},{"bike_id":"062d14b6-cf08-4cd2-8a2d-68618c199dac","system_id":"levelo_inurba_marseille","lat":43.286144,"lon":5.35105,"is_reserved":false,"is_disabled":false,"rental_uris":{"android":"levelo://app?vid=062d14b6-cf08-4cd2-8a2d-68618c199dac","ios":"levelo://app?vid=062d14b6-cf08-4cd2-8a2d-68618c199dac"},"vehicle_type_id":"4","last_reported":1744355441,"current_range_meters":22400,"station_id":"ce4bhh12rcd13ifvqfg0","pricing_plan_id":"cebpf4jnsgd1na2vs0mg"},{"bike_id":"ad1e157c-b785-42e2-b003-13862b3c166e","system_id":"levelo_inurba_marseille","lat":43.30313,"lon":5.36897,"is_reserved":false,"is_disabled":false,"rental_uris":{"android":"levelo://app?vid=ad1e157c-b785-42e2-b003-13862b3c166e","ios":"levelo://app?vid=ad1e157c-b785-42e2-b003-13862b3c166e"},"vehicle_type_id":"4","last_reported":1744355441,"current_range_meters":22400,"station_id":"ce4bgqh2rcd13ifvqc5g","pricing_plan_id":"cebpf4jnsgd1na2vs0mg"},{"bike_id":"1d55dd05-ff1a-4a72-baa0-d81e5fc0e4f6","system_id":"levelo_inurba_marseille","lat":43.2665,"lon":5.39635,"is_reserved":false,"is_disabled":false,"rental_uris":{"android":"levelo://app?vid=1d55dd05-ff1a-4a72-baa0-d81e5fc0e4f6","ios":"levelo://app?vid=1d55dd05-ff1a-4a72-baa0-d81e5fc0e4f6"},"vehicle_type_id":"4","last_reported":1744355441,"current_range_meters":22400,"station_id":"","pricing_plan_id":"cebpf4jnsgd1na2vs0mg"},{"bike_id":"3d80bc63-49b6-4f86-82db-98961d8a8e48","system_id":"levelo_inurba_marseille","lat":43.29305,"lon":5.37458,"is_reserved":false,"is_disabled":false,"rental_uris":{"android":"levelo://app?vid=3d80bc63-49b6-4f86-82db-98961d8a8e48","ios":"levelo://app?vid=3d80bc63-49b6-4f86-82db-98961d8a8e48"},"vehicle_type_id":"4","last_reported":1744355441,"current_range_meters":22000,"station_id":"ce4bgi12rcd13ifvqb70","pricing_plan_id":"cebpf4jnsgd1na2vs0mg"},{"bike_id":"58c6c874-7124-44a0-8932-0de931417cb7","system_id":"levelo_inurba_marseille","lat":43.29072,"lon":5.37172,"is_reserved":false,"is_disabled":false,"rental_uris":{"android":"levelo://app?vid=58c6c874-7124-44a0-8932-0de931417cb7","ios":"levelo://app?vid=58c6c874-7124-44a0-8932-0de931417cb7"},"vehicle_type_id":"4","last_reported":1744355441,"current_range_meters":22800,"station_id":"ce4bh5p2rcd13ifvqe4g","pricing_plan_id":"cebpf4jnsgd1na2vs0mg"},{"bike_id":"c60b1b98-47fd-44b9-8450-cb9fae65faf3","system_id":"levelo_inurba_marseille","lat":43.26684,"lon":5.38272,"is_reserved":false,"is_disabled":false,"rental_uris":{"android":"levelo://app?vid=c60b1b98-47fd-44b9-8450-cb9fae65faf3","ios":"levelo://app?vid=c60b1b98-47fd-44b9-8450-cb9fae65faf3"},"vehicle_type_id":"4","last_reported":1744355441,"current_range_meters":22800,"station_id":"ce4bhg92rcd13ifvqf90","pricing_plan_id":"cebpf4jnsgd1na2vs0mg"},{"bike_id":"d4e169f1-8f3b-423e-9b00-bdbec54d3a76","system_id":"levelo_inurba_marseille","lat":43.26965,"lon":5.38639,"is_reserved":false,"is_disabled":false,"rental_uris":{"android":"levelo://app?vid=d4e169f1-8f3b-423e-9b00-bdbec54d3a76","ios":"levelo://app?vid=d4e169f1-8f3b-423e-9b00-bdbec54d3a76"},"vehicle_type_id":"4","last_reported":1744355441,"current_range_meters":22800,"station_id":"ce4bhh92rcd13ifvqfh0","pricing_plan_id":"cebpf4jnsgd1na2vs0mg"},{"bike_id":"d9f9dbd2-c229-4471-9f29-bbd33fef3ef3","system_id":"levelo_inurba_marseille","lat":43.30307,"lon":5.36887,"is_reserved":false,"is_disabled":false,"rental_uris":{"android":"levelo://app?vid=d9f9dbd2-c229-4471-9f29-bbd33fef3ef3","ios":"levelo://app?vid=d9f9dbd2-c229-4471-9f29-bbd33fef3ef3"},"vehicle_type_id":"4","last_reported":1744355441,"current_range_meters":22800,"station_id":"ce4bgqh2rcd13ifvqc5g","pricing_plan_id":"cebpf4jnsgd1na2vs0mg"},{"bike_id":"8f762f3d-142c-4240-93cc-090fd3b54b95","system_id":"levelo_inurba_marseille","lat":43.229,"lon":5.44111,"is_reserved":false,"is_disabled":false,"rental_uris":{"android":"levelo://app?vid=8f762f3d-142c-4240-93cc-090fd3b54b95","ios":"levelo://app?vid=8f762f3d-142c-4240-93cc-090fd3b54b95"},"vehicle_type_id":"4","last_reported":1744355441,"current_range_meters":22800,"station_id":"","pricing_plan_id":"cebpf4jnsgd1na2vs0mg"},{"bike_id":"d90f1d1f-5af1-4ff3-8a94-0b8fcce1723c","system_id":"levelo_inurba_marseille","lat":43.28839,"lon":5.3931,"is_reserved":false,"is_disabled":false,"rental_uris":{"android":"levelo://app?vid=d90f1d1f-5af1-4ff3-8a94-0b8fcce1723c","ios":"levelo://app?vid=d90f1d1f-5af1-4ff3-8a94-0b8fcce1723c"},"vehicle_type_id":"4","last_reported":1744355441,"current_range_meters":22800,"station_id":"ce4bh2p2rcd13ifvqdi0","pricing_plan_id":"cebpf4jnsgd1na2vs0mg"},