{"last_updated":1778611743,"ttl":60,"version":"2.2","data":{"bikes":[{"bike_id":"bad63785-af52-402a-8c44-3793523a90c5","system_id":"levelo_inurba_marseille","lat":43.28478,"lon":5.38417,"is_reserved":false,"is_disabled":false,"rental_uris":{"android":"levelo://app?vid=bad63785-af52-402a-8c44-3793523a90c5","ios":"levelo://app?vid=bad63785-af52-402a-8c44-3793523a90c5"},"vehicle_type_id":"4","last_reported":1778611744,"current_range_meters":2800,"station_id":"ce4bh512rcd13ifvqe3g","pricing_plan_id":"cebpf4jnsgd1na2vs0mg"},{"bike_id":"1cda2a20-a2aa-413c-a4dd-92b6a2a3d744","system_id":"levelo_inurba_marseille","lat":43.26558,"lon":5.3729,"is_reserved":false,"is_disabled":true,"rental_uris":{"android":"levelo://app?vid=1cda2a20-a2aa-413c-a4dd-92b6a2a3d744","ios":"levelo://app?vid=1cda2a20-a2aa-413c-a4dd-92b6a2a3d744"},"vehicle_type_id":"4","last_reported":1778611744,"current_range_meters":2800,"station_id":"ce4bhg12rcd13ifvqf70","pricing_plan_id":"cebpf4jnsgd1na2vs0mg"},{"bike_id":"74c162f2-3004-42d9-8449-86b6ac467ed4","system_id":"levelo_inurba_marseille","lat":43.24476,"lon":5.42526,"is_reserved":false,"is_disabled":false,"rental_uris":{"android":"levelo://app?vid=74c162f2-3004-42d9-8449-86b6ac467ed4","ios":"levelo://app?vid=74c162f2-3004-42d9-8449-86b6ac467ed4"},"vehicle_type_id":"4","last_reported":1778611744,"current_range_meters":2800,"station_id":"st_d4a3vfp97mjs738cd8kg","pricing_plan_id":"cebpf4jnsgd1na2vs0mg"},{"bike_id":"d164d694-0994-4550-aec2-c74707319de0","system_id":"levelo_inurba_marseille","lat":43.26062,"lon":5.39397,"is_reserved":false,"is_disabled":false,"rental_uris":{"android":"levelo://app?vid=d164d694-0994-4550-aec2-c74707319de0","ios":"levelo://app?vid=d164d694-0994-4550-aec2-c74707319de0"},"vehicle_type_id":"4","last_reported":1778611744,"current_range_meters":2800,"station_id":"ce4bhh92rcd13ifvqfj0","pricing_plan_id":"cebpf4jnsgd1na2vs0mg"},{"bike_id":"70fb1b11-51e2-473e-b27b-96707747baef","system_id":"levelo_inurba_marseille","lat":43.29931,"lon":5.36496,"is_reserved":false,"is_disabled":false,"rental_uris":{"android":"levelo://app?vid=70fb1b11-51e2-473e-b27b-96707747baef","ios":"levelo://app?vid=70fb1b11-51e2-473e-b27b-96707747baef"},"vehicle_type_id":"4","last_reported":1778611744,"current_range_meters":2800,"station_id":"ce4bgm92rcd13ifvqbr0","pricing_plan_id":"cebpf4jnsgd1na2vs0mg"},{"bike_id":"07b30fd1-e131-41c8-8fcb-ed255c5ec415","system_id":"levelo_inurba_marseille","lat":43.29205,"lon":5.42691,"is_reserved":false,"is_disabled":false,"rental_uris":{"android":"levelo://app?vid=07b30fd1-e131-41c8-8fcb-ed255c5ec415","ios":"levelo://app?vid=07b30fd1-e131-41c8-8fcb-ed255c5ec415"},"vehicle_type_id":"4","last_reported":1778611744,"current_range_meters":2800,"station_id":"","pricing_plan_id":"cebpf4jnsgd1na2vs0mg"},{"bike_id":"0f6d2b2c-19e2-45f9-9b78-51cb2d881e3a","system_id":"levelo_inurba_marseille","lat":43.25865,"lon":5.39916,"is_reserved":false,"is_disabled":false,"rental_uris":{"android":"levelo://app?vid=0f6d2b2c-19e2-45f9-9b78-51cb2d881e3a","ios":"levelo://app?vid=0f6d2b2c-19e2-45f9-9b78-51cb2d881e3a"},"vehicle_type_id":"4","last_reported":1778611744,"current_range_meters":2800,"station_id":"ce4bhl92rcd13ifvqghg","pricing_plan_id":"cebpf4jnsgd1na2vs0mg"},{"bike_id":"a097bfde-57c3-4495-93c0-004ed49b632f","system_id":"levelo_inurba_marseille","lat":43.298002,"lon":5.380871,"is_reserved":false,"is_disabled":false,"rental_uris":{"android":"levelo://app?vid=a097bfde-57c3-4495-93c0-004ed49b632f","ios":"levelo://app?vid=a097bfde-57c3-4495-93c0-004ed49b632f"},"vehicle_type_id":"4","last_reported":1778611744,"current_range_meters":2800,"station_id":"ce4bgip2rcd13ifvqbb0","pricing_plan_id":"cebpf4jnsgd1na2vs0mg"},{"bike_id":"92451cea-094f-48eb-90c7-ab59f50f048d","system_id":"levelo_inurba_marseille","lat":43.33774,"lon":5.3748,"is_reserved":false,"is_disabled":false,"rental_uris":{"android":"levelo://app?vid=92451cea-094f-48eb-90c7-ab59f50f048d","ios":"levelo://app?vid=92451cea-094f-48eb-90c7-ab59f50f048d"},"vehicle_type_id":"4","last_reported":1778611744,"current_range_meters":3200,"station_id":"st_d46tts09ee8s73dlu43g","pricing_plan_id":"cebpf4jnsgd1na2vs0mg"},{"bike_id":"e0ebf5ac-9ebd-4307-bdee-4435f274c270","system_id":"levelo_inurba_marseille","lat":43.31119,"lon":5.3778,"is_reserved":false,"is_disabled":true,"rental_uris":{"android":"levelo://app?vid=e0ebf5ac-9ebd-4307-bdee-4435f274c270","ios":"levelo://app?vid=e0ebf5ac-9ebd-4307-bdee-4435f274c270"},"vehicle_type_id":"4","last_reported":1778611744,"current_range_meters":3200,"station_id":"ce4bgt92rcd13ifvqcg0","pricing_plan_id":"cebpf4jnsgd1na2vs0mg"},{"bike_id":"9c1afeb3-7bd7-4ceb-802d-4d334ddd215e","system_id":"levelo_inurba_marseille","lat":43.26558,"lon":5.37283,"is_reserved":false,"is_disabled":false,"rental_uris":{"android":"levelo://app?vid=9c1afeb3-7bd7-4ceb-802d-4d334ddd215e","ios":"levelo://app?vid=9c1afeb3-7bd7-4ceb-802d-4d334ddd215e"},"vehicle_type_id":"4","last_reported":1778611744,"current_range_meters":3200,"station_id":"ce4bhg12rcd13ifvqf70","pricing_plan_id":"cebpf4jnsgd1na2vs0mg"},{"bike_id":"36a8230c-721c-4328-a9b6-c5c9ffd75279","system_id":"levelo_inurba_marseille","lat":43.33148,"lon":5.37681,"is_reserved":false,"is_disabled":true,"rental_uris":{"android":"levelo://app?vid=36a8230c-721c-4328-a9b6-c5c9ffd75279","ios":"levelo://app?vid=36a8230c-721c-4328-a9b6-c5c9ffd75279"},"vehicle_type_id":"4","last_reported":1778611744,"current_range_meters":3200,"station_id":"st_d46cu089ee8s73dldbu0","pricing_plan_id":"cebpf4jnsgd1na2vs0mg"},{"bike_id":"7a860a37-0444-4f52-86e1-0566de1aafd2","system_id":"levelo_inurba_marseille","lat":43.250831,"lon":5.395339,"is_reserved":false,"is_disabled":false,"rental_uris":{"android":"levelo://app?vid=7a860a37-0444-4f52-86e1-0566de1aafd2","ios":"levelo://app?vid=7a860a37-0444-4f52-86e1-0566de1aafd2"},"vehicle_type_id":"4","last_reported":1778611744,"current_range_meters":3200,"station_id":"ce4bhm12rcd13ifvqgkg","pricing_plan_id":"cebpf4jnsgd1na2vs0mg"},{"bike_id":"46672c75-8380-4d67-8e7d-e6b7b40ef82c","system_id":"levelo_inurba_marseille","lat":43.30787,"lon":5.3764,"is_reserved":false,"is_disabled":false,"rental_uris":{"android":"levelo://app?vid=46672c75-8380-4d67-8e7d-e6b7b40ef82c","ios":"levelo://app?vid=46672c75-8380-4d67-8e7d-e6b7b40ef82c"},"vehicle_type_id":"4","last_reported":1778611744,"current_range_meters":3200,"station_id":"ce4bgv92rcd13ifvqcq0","pricing_plan_id":"cebpf4jnsgd1na2vs0mg"},{"bike_id":"7e03011c-7c7c-4909-b564-8e881a1c8a98","system_id":"levelo_inurba_marseille","lat":43.31677,"lon":5.40475,"is_reserved":false,"is_disabled":false,"rental_uris":{"android":"levelo://app?vid=7e03011c-7c7c-4909-b564-8e881a1c8a98","ios":"levelo://app?vid=7e03011c-7c7c-4909-b564-8e881a1c8a98"},"vehicle_type_id":"4","last_reported":1778611744,"current_range_meters":3200,"station_id":"ce4bh012rcd13ifvqd00","pricing_plan_id":"cebpf4jnsgd1na2vs0mg"},{"bike_id":"b05b4a89-3697-4a66-98ee-cb22b156fe24","system_id":"levelo_inurba_marseille","lat":43.31989,"lon":5.38143,"is_reserved":false,"is_disabled":false,"rental_uris":{"android":"levelo://app?vid=b05b4a89-3697-4a66-98ee-cb22b156fe24","ios":"levelo://app?vid=b05b4a89-3697-4a66-98ee-cb22b156fe24"},"vehicle_type_id":"4","last_reported":1778611744,"current_range_meters":3200,"station_id":"ce4bhr12rcd13ifvqhpg","pricing_plan_id":"cebpf4jnsgd1na2vs0mg"},{"bike_id":"d6fce6ee-066a-422f-a404-a3b7193174a1","system_id":"levelo_inurba_marseille","lat":43.29163,"lon":5.37153,"is_reserved":false,"is_disabled":false,"rental_uris":{"android":"levelo://app?vid=d6fce6ee-066a-422f-a404-a3b7193174a1","ios":"levelo://app?vid=d6fce6ee-066a-422f-a404-a3b7193174a1"},"vehicle_type_id":"4","last_reported":1778611744,"current_range_meters":3200,"station_id":"ce4bha92rcd13ifvqeh0","pricing_plan_id":"cebpf4jnsgd1na2vs0mg"},{"bike_id":"deaedacb-6c08-46de-bb7a-f7bb356d9934","system_id":"levelo_inurba_marseille","lat":43.25569,"lon":5.38241,"is_reserved":false,"is_disabled":false,"rental_uris":{"android":"levelo://app?vid=deaedacb-6c08-46de-bb7a-f7bb356d9934","ios":"levelo://app?vid=deaedacb-6c08-46de-bb7a-f7bb356d9934"},"vehicle_type_id":"4","last_reported":1778611744,"current_range_meters":3200,"station_id":"ce4bhih2rcd13ifvqfs0","pricing_plan_id":"cebpf4jnsgd1na2vs0mg"},{"bike_id":"c9733672-032a-4b44-8a5c-b25813ede92d","system_id":"levelo_inurba_marseille","lat":43.28151,"lon":5.42648,"is_reserved":false,"is_disabled":false,"rental_uris":{"android":"levelo://app?vid=c9733672-032a-4b44-8a5c-b25813ede92d","ios":"levelo://app?vid=c9733672-032a-4b44-8a5c-b25813ede92d"},"vehicle_type_id":"4","last_reported":1778611744,"current_range_meters":3200,"station_id":"ce4bhnh2rcd13ifvqgug","pricing_plan_id":"cebpf4jnsgd1na2vs0mg"},{"bike_id":"4ea86345-c2c7-4de1-b852-c58b530c2c24","system_id":"levelo_inurba_marseille","lat":43.25124,"lon":5.40318,"is_reserved":false,"is_disabled":false,"rental_uris":{"android":"levelo://app?vid=4ea86345-c2c7-4de1-b852-c58b530c2c24","ios":"levelo://app?vid=4ea86345-c2c7-4de1-b852-c58b530c2c24"},"vehicle_type_id":"4","last_reported":1778611744,"current_range_meters":3200,"station_id":"ce4bhlh2rcd13ifvqgig","pricing_plan_id":"cebpf4jnsgd1na2vs0mg"},{"bike_id":"8f87a66e-499f-40d3-81f4-ef3b647adc53","system_id":"levelo_inurba_marseille","lat":43.28155,"lon":5.42641,"is_reserved":false,"is_disabled":false,"rental_uris":{"android":"levelo://app?vid=8f87a66e-499f-40d3-81f4-ef3b647adc53","ios":"levelo://app?vid=8f87a66e-499f-40d3-81f4-ef3b647adc53"},"vehicle_type_id":"4","last_reported":1778611744,"current_range_meters":3600,"station_id":"ce4bhnh2rcd13ifvqgug","pricing_plan_id":"cebpf4jnsgd1na2vs0mg"},{"bike_id":"ad8524d9-9358-4bd3-a055-8ba3b4bdc0cc","system_id":"levelo_inurba_marseille","lat":43.28075,"lon":5.3966,"is_reserved":false,"is_disabled":false,"rental_uris":{"android":"levelo://app?vid=ad8524d9-9358-4bd3-a055-8ba3b4bdc0cc","ios":"levelo://app?vid=ad8524d9-9358-4bd3-a055-8ba3b4bdc0cc"},"vehicle_type_id":"4","last_reported":1778611744,"current_range_meters":3600,"station_id":"ce4bho12rcd13ifvqh2g","pricing_plan_id":"cebpf4jnsgd1na2vs0mg"},{"bike_id":"1ba2cbcf-a1d9-4952-832b-d37d99ae03fc","system_id":"levelo_inurba_marseille","lat":43.24404,"lon":5.37845,"is_reserved":false,"is_disabled":false,"rental_uris":{"android":"levelo://app?vid=1ba2cbcf-a1d9-4952-832b-d37d99ae03fc","ios":"levelo://app?vid=1ba2cbcf-a1d9-4952-832b-d37d99ae03fc"},"vehicle_type_id":"4","last_reported":1778611744,"current_range_meters":3600,"station_id":"","pricing_plan_id":"cebpf4jnsgd1na2vs0mg"},{"bike_id":"22128411-29f8-4ef9-a692-b2b13aa522cc","system_id":"levelo_inurba_marseille","lat":43.311696,"lon":5.387224,"is_reserved":false,"is_disabled":false,"rental_uris":{"android":"levelo://app?vid=22128411-29f8-4ef9-a692-b2b13aa522cc","ios":"levelo://app?vid=22128411-29f8-4ef9-a692-b2b13aa522cc"},"vehicle_type_id":"4","last_reported":1778611744,"current_range_meters":3600,"station_id":"ce4bgv12rcd13ifvqcp0","pricing_plan_id":"cebpf4jnsgd1na2vs0mg"},{"bike_id":"9a6634ef-20d7-4a38-b648-ad7412c9c54a","system_id":"levelo_inurba_marseille","lat":43.29263,"lon":5.40903,"is_reserved":false,"is_disabled":false,"rental_uris":{"android":"levelo://app?vid=9a6634ef-20d7-4a38-b648-ad7412c9c54a","ios":"levelo://app?vid=9a6634ef-20d7-4a38-b648-ad7412c9c54a"},"vehicle_type_id":"4","last_reported":1778611744,"current_range_meters":3600,"station_id":"ce4bh192rcd13ifvqdc0","pricing_plan_id":"cebpf4jnsgd1na2vs0mg"},{"bike_id":"e6db684c-41c8-41d3-8748-cdf012b08e85","system_id":"levelo_inurba_marseille","lat":43.28723,"lon":5.37939,"is_reserved":false,"is_disabled":false,"rental_uris":{"android":"levelo://app?vid=e6db684c-41c8-41d3-8748-cdf012b08e85","ios":"levelo://app?vid=e6db684c-41c8-41d3-8748-cdf012b08e85"},"vehicle_type_id":"4","last_reported":1778611744,"current_range_meters":3600,"station_id":"ce4bh9p2rcd13ifvqec0","pricing_plan_id":"cebpf4jnsgd1na2vs0mg"},{"bike_id":"abaf38d6-ae80-4668-829b-96e826b6dce8","system_id":"levelo_inurba_marseille","lat":43.27374,"lon":5.36263,"is_reserved":false,"is_disabled":false,"rental_uris":{"android":"levelo://app?vid=abaf38d6-ae80-4668-829b-96e826b6dce8","ios":"levelo://app?vid=abaf38d6-ae80-4668-829b-96e826b6dce8"},"vehicle_type_id":"4","last_reported":1778611744,"current_range_meters":3600,"station_id":"ce4bhbh2rcd13ifvqeo0","pricing_plan_id":"cebpf4jnsgd1na2vs0mg"},{"bike_id":"0e0b1f31-5c6b-441b-a396-08d6101e19c0","system_id":"levelo_inurba_marseille","lat":43.292032,"lon":5.393308,"is_reserved":false,"is_disabled":false,"rental_uris":{"android":"levelo://app?vid=0e0b1f31-5c6b-441b-a396-08d6101e19c0","ios":"levelo://app?vid=0e0b1f31-5c6b-441b-a396-08d6101e19c0"},"vehicle_type_id":"4","last_reported":1778611744,"current_range_meters":3600,"station_id":"ce4bh192rcd13ifvqdd0","pricing_plan_id":"cebpf4jnsgd1na2vs0mg"},{"bike_id":"28f1c984-4c67-421d-860b-e19d26bb6c8b","system_id":"levelo_inurba_marseille","lat":43.26548,"lon":5.39034,"is_reserved":false,"is_disabled":false,"rental_uris":{"android":"levelo://app?vid=28f1c984-4c67-421d-860b-e19d26bb6c8b","ios":"levelo://app?vid=28f1c984-4c67-421d-860b-e19d26bb6c8b"},"vehicle_type_id":"4","last_reported":1778611744,"current_range_meters":3600,"station_id":"ce4bhe12rcd13ifvqf30","pricing_plan_id":"cebpf4jnsgd1na2vs0mg"},{"bike_id":"63d94166-dc89-46d5-b4d3-595a07629c5c","system_id":"levelo_inurba_marseille","lat":43.32496,"lon":5.38299,"is_reserved":false,"is_disabled":false,"rental_uris":{"android":"levelo://app?vid=63d94166-dc89-46d5-b4d3-595a07629c5c","ios":"levelo://app?vid=63d94166-dc89-46d5-b4d3-595a07629c5c"},"vehicle_type_id":"4","last_reported":1778611744,"current_range_meters":3600,"station_id":"st_d4asgbiv49dc73anf9m0","pricing_plan_id":"cebpf4jnsgd1na2vs0mg"},{"bike_id":"2dcab839-fffc-4e79-b33a-d5c7f531157f","system_id":"levelo_inurba_marseille","lat":43.28789,"lon":5.42422,"is_reserved":false,"is_disabled":false,"rental_uris":{"android":"levelo://app?vid=2dcab839-fffc-4e79-b33a-d5c7f531157f","ios":"levelo://app?vid=2dcab839-fffc-4e79-b33a-d5c7f531157f"},"vehicle_type_id":"4","last_reported":1778611744,"current_range_meters":3600,"station_id":"","pricing_plan_id":"cebpf4jnsgd1na2vs0mg"},{"bike_id":"0f19004c-8f50-46f9-a9d9-6bfd8920cac5","system_id":"levelo_inurba_marseille","lat":43.3016,"lon":5.38089,"is_reserved":false,"is_disabled":true,"rental_uris":{"android":"levelo://app?vid=0f19004c-8f50-46f9-a9d9-6bfd8920cac5","ios":"levelo://app?vid=0f19004c-8f50-46f9-a9d9-6bfd8920cac5"},"vehicle_type_id":"4","last_reported":1778611744,"current_range_meters":3600,"station_id":"ce4bgjp2rcd13ifvqbh0","pricing_plan_id":"cebpf4jnsgd1na2vs0mg"},{"bike_id":"54d91a13-5899-47f6-bec9-71223c378664","system_id":"levelo_inurba_marseille","lat":43.28485,"lon":5.48388,"is_reserved":false,"is_disabled":false,"rental_uris":{"android":"levelo://app?vid=54d91a13-5899-47f6-bec9-71223c378664","ios":"levelo://app?vid=54d91a13-5899-47f6-bec9-71223c378664"},"vehicle_type_id":"4","last_reported":1778611744,"current_range_meters":3600,"station_id":"","pricing_plan_id":"cebpf4jnsgd1na2vs0mg"},{"bike_id":"985175d9-2370-4357-bcea-c32668be98bb","system_id":"levelo_inurba_marseille","lat":43.29382,"lon":5.37857,"is_reserved":false,"is_disabled":false,"rental_uris":{"android":"levelo://app?vid=985175d9-2370-4357-bcea-c32668be98bb","ios":"levelo://app?vid=985175d9-2370-4357-bcea-c32668be98bb"},"vehicle_type_id":"4","last_reported":1778611744,"current_range_meters":3600,"station_id":"ce4bgjh2rcd13ifvqbf0","pricing_plan_id":"cebpf4jnsgd1na2vs0mg"},{"bike_id":"d903db2b-3c4f-4ebd-adb5-e9d51955ecf8","system_id":"levelo_inurba_marseille","lat":43.27507,"lon":5.35889,"is_reserved":false,"is_disabled":false,"rental_uris":{"android":"levelo://app?vid=d903db2b-3c4f-4ebd-adb5-e9d51955ecf8","ios":"levelo://app?vid=d903db2b-3c4f-4ebd-adb5-e9d51955ecf8"},"vehicle_type_id":"4","last_reported":1778611744,"current_range_meters":4000,"station_id":"","pricing_plan_id":"cebpf4jnsgd1na2vs0mg"},{"bike_id":"daa7168a-7e89-4c13-9120-19d3be838e10","system_id":"levelo_inurba_marseille","lat":43.28719,"lon":5.46702,"is_reserved":false,"is_disabled":false,"rental_uris":{"android":"levelo://app?vid=daa7168a-7e89-4c13-9120-19d3be838e10","ios":"levelo://app?vid=daa7168a-7e89-4c13-9120-19d3be838e10"},"vehicle_type_id":"4","last_reported":1778611744,"current_range_meters":4000,"station_id":"st_d6tc3vkotcvc738tfjhg","pricing_plan_id":"cebpf4jnsgd1na2vs0mg"},{"bike_id":"62c56e7d-9a1f-4eaa-ba6e-06eb5b3ac23a","system_id":"levelo_inurba_marseille","lat":43.31176,"lon":5.38711,"is_reserved":false,"is_disabled":false,"rental_uris":{"android":"levelo://app?vid=62c56e7d-9a1f-4eaa-ba6e-06eb5b3ac23a","ios":"levelo://app?vid=62c56e7d-9a1f-4eaa-ba6e-06eb5b3ac23a"},"vehicle_type_id":"4","last_reported":1778611744,"current_range_meters":4000,"station_id":"ce4bgv12rcd13ifvqcp0","pricing_plan_id":"cebpf4jnsgd1na2vs0mg"},{"bike_id":"dc0a6e21-47dd-44a5-9f73-3b0019341943","system_id":"levelo_inurba_marseille","lat":43.30509,"lon":5.45984,"is_reserved":false,"is_disabled":false,"rental_uris":{"android":"levelo://app?vid=dc0a6e21-47dd-44a5-9f73-3b0019341943","ios":"levelo://app?vid=dc0a6e21-47dd-44a5-9f73-3b0019341943"},"vehicle_type_id":"4","last_reported":1778611744,"current_range_meters":4000,"station_id":"","pricing_plan_id":"cebpf4jnsgd1na2vs0mg"},{"bike_id":"dc672378-41c8-4bdb-a595-3ca0aa6f097e","system_id":"levelo_inurba_marseille","lat":43.27641,"lon":5.36094,"is_reserved":false,"is_disabled":false,"rental_uris":{"android":"levelo://app?vid=dc672378-41c8-4bdb-a595-3ca0aa6f097e","ios":"levelo://app?vid=dc672378-41c8-4bdb-a595-3ca0aa6f097e"},"vehicle_type_id":"4","last_reported":1778611744,"current_range_meters":4000,"station_id":"ce4bgj92rcd13ifvqbe0","pricing_plan_id":"cebpf4jnsgd1na2vs0mg"},{"bike_id":"819a3868-e86b-4761-85f7-cd647e1f51b3","system_id":"levelo_inurba_marseille","lat":43.21191,"lon":5.35078,"is_reserved":false,"is_disabled":false,"rental_uris":{"android":"levelo://app?vid=819a3868-e86b-4761-85f7-cd647e1f51b3","ios":"levelo://app?vid=819a3868-e86b-4761-85f7-cd647e1f51b3"},"vehicle_type_id":"4","last_reported":1778611744,"current_range_meters":4000,"station_id":"st_cvj6sg6p6f1abm77japg","pricing_plan_id":"cebpf4jnsgd1na2vs0mg"},{"bike_id":"44ea28c7-23d4-46ec-bc0e-cc4b3e7df885","system_id":"levelo_inurba_marseille","lat":43.23987,"lon":5.37849,"is_reserved":false,"is_disabled":false,"rental_uris":{"android":"levelo://app?vid=44ea28c7-23d4-46ec-bc0e-cc4b3e7df885","ios":"levelo://app?vid=44ea28c7-23d4-46ec-bc0e-cc4b3e7df885"},"vehicle_type_id":"4","last_reported":1778611744,"current_range_meters":4000,"station_id":"","pricing_plan_id":"cebpf4jnsgd1na2vs0mg"},{"bike_id":"0190f8d2-01b2-4ee2-9e86-e1660dcf0b09","system_id":"levelo_inurba_marseille","lat":43.28417,"lon":5.3499,"is_reserved":false,"is_disabled":false,"rental_uris":{"android":"levelo://app?vid=0190f8d2-01b2-4ee2-9e86-e1660dcf0b09","ios":"levelo://app?vid=0190f8d2-01b2-4ee2-9e86-e1660dcf0b09"},"vehicle_type_id":"4","last_reported":1778611744,"current_range_meters":4000,"station_id":"ce4bhbh2rcd13ifvqepg","pricing_plan_id":"cebpf4jnsgd1na2vs0mg"},{"bike_id":"73eefba9-c6a8-4247-92b6-b51e8d4f7b16","system_id":"levelo_inurba_marseille","lat":43.28612,"lon":5.37066,"is_reserved":false,"is_disabled":false,"rental_uris":{"android":"levelo://app?vid=73eefba9-c6a8-4247-92b6-b51e8d4f7b16","ios":"levelo://app?vid=73eefba9-c6a8-4247-92b6-b51e8d4f7b16"},"vehicle_type_id":"4","last_reported":1778611744,"current_range_meters":4000,"station_id":"ce4bht12rcd13ifvqi60","pricing_plan_id":"cebpf4jnsgd1na2vs0mg"},{"bike_id":"682e9897-b7bb-4264-9759-09783108cc26","system_id":"levelo_inurba_marseille","lat":43.2781,"lon":5.40713,"is_reserved":false,"is_disabled":false,"rental_uris":{"android":"levelo://app?vid=682e9897-b7bb-4264-9759-09783108cc26","ios":"levelo://app?vid=682e9897-b7bb-4264-9759-09783108cc26"},"vehicle_type_id":"4","last_reported":1778611744,"current_range_meters":4400,"station_id":"ce4bhnh2rcd13ifvqgtg","pricing_plan_id":"cebpf4jnsgd1na2vs0mg"},{"bike_id":"2eb92169-daf4-47b6-a88b-ca02d330c251","system_id":"levelo_inurba_marseille","lat":43.26927,"lon":5.38918,"is_reserved":false,"is_disabled":false,"rental_uris":{"android":"levelo://app?vid=2eb92169-daf4-47b6-a88b-ca02d330c251","ios":"levelo://app?vid=2eb92169-daf4-47b6-a88b-ca02d330c251"},"vehicle_type_id":"4","last_reported":1778611744,"current_range_meters":4400,"station_id":"ce4bhhh2rcd13ifvqfl0","pricing_plan_id":"cebpf4jnsgd1na2vs0mg"},{"bike_id":"0f1807cc-9d93-4021-8b9a-9457f4117b8b","system_id":"levelo_inurba_marseille","lat":43.32117,"lon":5.3675,"is_reserved":false,"is_disabled":false,"rental_uris":{"android":"levelo://app?vid=0f1807cc-9d93-4021-8b9a-9457f4117b8b","ios":"levelo://app?vid=0f1807cc-9d93-4021-8b9a-9457f4117b8b"},"vehicle_type_id":"4","last_reported":1778611744,"current_range_meters":4400,"station_id":"ce4bhrh2rcd13ifvqhug","pricing_plan_id":"cebpf4jnsgd1na2vs0mg"},{"bike_id":"bffc76cb-0c8e-4651-8bbd-fd3d60e9513f","system_id":"levelo_inurba_marseille","lat":43.25568,"lon":5.3824,"is_reserved":false,"is_disabled":false,"rental_uris":{"android":"levelo://app?vid=bffc76cb-0c8e-4651-8bbd-fd3d60e9513f","ios":"levelo://app?vid=bffc76cb-0c8e-4651-8bbd-fd3d60e9513f"},"vehicle_type_id":"4","last_reported":1778611744,"current_range_meters":4400,"station_id":"ce4bhih2rcd13ifvqfs0","pricing_plan_id":"cebpf4jnsgd1na2vs0mg"},{"bike_id":"a309724a-584e-48ab-bfea-99e1efd0c4b3","system_id":"levelo_inurba_marseille","lat":43.31995,"lon":5.38114,"is_reserved":false,"is_disabled":false,"rental_uris":{"android":"levelo://app?vid=a309724a-584e-48ab-bfea-99e1efd0c4b3","ios":"levelo://app?vid=a309724a-584e-48ab-bfea-99e1efd0c4b3"},"vehicle_type_id":"4","last_reported":1778611744,"current_range_meters":4400,"station_id":"ce4bhr12rcd13ifvqhpg","pricing_plan_id":"cebpf4jnsgd1na2vs0mg"},{"bike_id":"7dcab7cc-362b-4838-8e18-128ae3d1b5c1","system_id":"levelo_inurba_marseille","lat":43.29204,"lon":5.39322,"is_reserved":false,"is_disabled":false,"rental_uris":{"android":"levelo://app?vid=7dcab7cc-362b-4838-8e18-128ae3d1b5c1","ios":"levelo://app?vid=7dcab7cc-362b-4838-8e18-128ae3d1b5c1"},"vehicle_type_id":"4","last_reported":1778611744,"current_range_meters":4400,"station_id":"ce4bh192rcd13ifvqdd0","pricing_plan_id":"cebpf4jnsgd1na2vs0mg"},{"bike_id":"679c3545-e4a3-417f-93a6-39d5000d1641","system_id":"levelo_inurba_marseille","lat":43.27965,"lon":5.38748,"is_reserved":false,"is_disabled":false,"rental_uris":{"android":"levelo://app?vid=679c3545-e4a3-417f-93a6-39d5000d1641","ios":"levelo://app?vid=679c3545-e4a3-417f-93a6-39d5000d1641"},"vehicle_type_id":"4","last_reported":1778611744,"current_range_meters":4400,"station_id":"ce4bhg12rcd13ifvqf80","pricing_plan_id":"cebpf4jnsgd1na2vs0mg"},{"bike_id":"e94ec6d7-42da-475d-bd2d-7a921dd8691a","system_id":"levelo_inurba_marseille","lat":43.25865,"lon":5.399,"is_reserved":false,"is_disabled":false,"rental_uris":{"android":"levelo://app?vid=e94ec6d7-42da-475d-bd2d-7a921dd8691a","ios":"levelo://app?vid=e94ec6d7-42da-475d-bd2d-7a921dd8691a"},"vehicle_type_id":"4","last_reported":1778611744,"current_range_meters":4400,"station_id":"ce4bhl92rcd13ifvqghg","pricing_plan_id":"cebpf4jnsgd1na2vs0mg"},{"bike_id":"c3c32f59-1892-4053-836b-a214a98484fa","system_id":"levelo_inurba_marseille","lat":43.23173,"lon":5.39991,"is_reserved":false,"is_disabled":false,"rental_uris":{"android":"levelo://app?vid=c3c32f59-1892-4053-836b-a214a98484fa","ios":"levelo://app?vid=c3c32f59-1892-4053-836b-a214a98484fa"},"vehicle_type_id":"4","last_reported":1778611744,"current_range_meters":4400,"station_id":"ce4bhn12rcd13ifvqgqg","pricing_plan_id":"cebpf4jnsgd1na2vs0mg"},{"bike_id":"0b3faae7-d4b5-427d-827b-6dff68f06e78","system_id":"levelo_inurba_marseille","lat":43.29575,"lon":5.37499,"is_reserved":false,"is_disabled":false,"rental_uris":{"android":"levelo://app?vid=0b3faae7-d4b5-427d-827b-6dff68f06e78","ios":"levelo://app?vid=0b3faae7-d4b5-427d-827b-6dff68f06e78"},"vehicle_type_id":"4","last_reported":1778611744,"current_range_meters":4800,"station_id":"ce4bgh92rcd13ifvqb50","pricing_plan_id":"cebpf4jnsgd1na2vs0mg"},{"bike_id":"e8071774-1bfb-4d55-ac36-75c1bdd9aa40","system_id":"levelo_inurba_marseille","lat":43.29149,"lon":5.40372,"is_reserved":false,"is_disabled":false,"rental_uris":{"android":"levelo://app?vid=e8071774-1bfb-4d55-ac36-75c1bdd9aa40","ios":"levelo://app?vid=e8071774-1bfb-4d55-ac36-75c1bdd9aa40"},"vehicle_type_id":"4","last_reported":1778611744,"current_range_meters":4800,"station_id":"","pricing_plan_id":"cebpf4jnsgd1na2vs0mg"},{"bike_id":"dba3a41e-5817-4dab-887a-39cfc182c3e4","system_id":"levelo_inurba_marseille","lat":43.2379,"lon":5.36635,"is_reserved":false,"is_disabled":true,"rental_uris":{"android":"levelo://app?vid=dba3a41e-5817-4dab-887a-39cfc182c3e4","ios":"levelo://app?vid=dba3a41e-5817-4dab-887a-39cfc182c3e4"},"vehicle_type_id":"4","last_reported":1778611744,"current_range_meters":4800,"station_id":"st_d3nk18o9ro0c73en2l3g","pricing_plan_id":"cebpf4jnsgd1na2vs0mg"},{"bike_id":"cae8976f-fcc0-407e-8c7c-16a418269fb2","system_id":"levelo_inurba_marseille","lat":43.292552,"lon":5.376301,"is_reserved":false,"is_disabled":false,"rental_uris":{"android":"levelo://app?vid=cae8976f-fcc0-407e-8c7c-16a418269fb2","ios":"levelo://app?vid=cae8976f-fcc0-407e-8c7c-16a418269fb2"},"vehicle_type_id":"4","last_reported":1778611744,"current_range_meters":4800,"station_id":"ce4bgi12rcd13ifvqb80","pricing_plan_id":"cebpf4jnsgd1na2vs0mg"},{"bike_id":"6175c35a-1912-4641-a2ca-38709bec6913","system_id":"levelo_inurba_marseille","lat":43.31361,"lon":5.38488,"is_reserved":false,"is_disabled":false,"rental_uris":{"android":"levelo://app?vid=6175c35a-1912-4641-a2ca-38709bec6913","ios":"levelo://app?vid=6175c35a-1912-4641-a2ca-38709bec6913"},"vehicle_type_id":"4","last_reported":1778611744,"current_range_meters":4800,"station_id":"ce4bgt92rcd13ifvqcf0","pricing_plan_id":"cebpf4jnsgd1na2vs0mg"},{"bike_id":"23b6dc26-1392-4fa8-9cc5-0f40ceb1f1c5","system_id":"levelo_inurba_marseille","lat":43.28725,"lon":5.46694,"is_reserved":false,"is_disabled":false,"rental_uris":{"android":"levelo://app?vid=23b6dc26-1392-4fa8-9cc5-0f40ceb1f1c5","ios":"levelo://app?vid=23b6dc26-1392-4fa8-9cc5-0f40ceb1f1c5"},"vehicle_type_id":"4","last_reported":1778611744,"current_range_meters":4800,"station_id":"st_d6tc3vkotcvc738tfjhg","pricing_plan_id":"cebpf4jnsgd1na2vs0mg"},{"bike_id":"c4da21d5-2d93-4c0e-bd4e-5d9718689dd2","system_id":"levelo_inurba_marseille","lat":43.29522,"lon":5.39408,"is_reserved":false,"is_disabled":false,"rental_uris":{"android":"levelo://app?vid=c4da21d5-2d93-4c0e-bd4e-5d9718689dd2","ios":"levelo://app?vid=c4da21d5-2d93-4c0e-bd4e-5d9718689dd2"},"vehicle_type_id":"4","last_reported":1778611744,"current_range_meters":4800,"station_id":"ce4bh292rcd13ifvqdf0","pricing_plan_id":"cebpf4jnsgd1na2vs0mg"},{"bike_id":"0fab4d49-cc3a-4570-95eb-7323b86e54da","system_id":"levelo_inurba_marseille","lat":43.296237,"lon":5.371677,"is_reserved":false,"is_disabled":false,"rental_uris":{"android":"levelo://app?vid=0fab4d49-cc3a-4570-95eb-7323b86e54da","ios":"levelo://app?vid=0fab4d49-cc3a-4570-95eb-7323b86e54da"},"vehicle_type_id":"4","last_reported":1778611744,"current_range_meters":4800,"station_id":"ce4bgnh2rcd13ifvqc0g","pricing_plan_id":"cebpf4jnsgd1na2vs0mg"},{"bike_id":"665f75a5-5012-4922-ba0c-d5214bde0365","system_id":"levelo_inurba_marseille","lat":43.28712,"lon":5.37945,"is_reserved":false,"is_disabled":false,"rental_uris":{"android":"levelo://app?vid=665f75a5-5012-4922-ba0c-d5214bde0365","ios":"levelo://app?vid=665f75a5-5012-4922-ba0c-d5214bde0365"},"vehicle_type_id":"4","last_reported":1778611744,"current_range_meters":4800,"station_id":"ce4bh9p2rcd13ifvqec0","pricing_plan_id":"cebpf4jnsgd1na2vs0mg"},{"bike_id":"b61f8228-7fa8-4543-80d1-9864a998ed05","system_id":"levelo_inurba_marseille","lat":43.30325,"lon":5.36904,"is_reserved":false,"is_disabled":false,"rental_uris":{"android":"levelo://app?vid=b61f8228-7fa8-4543-80d1-9864a998ed05","ios":"levelo://app?vid=b61f8228-7fa8-4543-80d1-9864a998ed05"},"vehicle_type_id":"4","last_reported":1778611744,"current_range_meters":4800,"station_id":"ce4bgqh2rcd13ifvqc5g","pricing_plan_id":"cebpf4jnsgd1na2vs0mg"},{"bike_id":"fd028f04-aa75-4903-82f3-12923ec7487e","system_id":"levelo_inurba_marseille","lat":43.29975,"lon":5.3849,"is_reserved":false,"is_disabled":false,"rental_uris":{"android":"levelo://app?vid=fd028f04-aa75-4903-82f3-12923ec7487e","ios":"levelo://app?vid=fd028f04-aa75-4903-82f3-12923ec7487e"},"vehicle_type_id":"4","last_reported":1778611744,"current_range_meters":4800,"station_id":"ce4bgj92rcd13ifvqbd0","pricing_plan_id":"cebpf4jnsgd1na2vs0mg"},{"bike_id":"fac8e4cd-b914-4c40-9f5f-c4dd48633ed5","system_id":"levelo_inurba_marseille","lat":43.27922,"lon":5.41054,"is_reserved":false,"is_disabled":false,"rental_uris":{"android":"levelo://app?vid=fac8e4cd-b914-4c40-9f5f-c4dd48633ed5","ios":"levelo://app?vid=fac8e4cd-b914-4c40-9f5f-c4dd48633ed5"},"vehicle_type_id":"4","last_reported":1778611744,"current_range_meters":4800,"station_id":"ce4bhnp2rcd13ifvqh0g","pricing_plan_id":"cebpf4jnsgd1na2vs0mg"},{"bike_id":"4e9e9f19-6747-44e6-895b-68838dd6a1c5","system_id":"levelo_inurba_marseille","lat":43.32373,"lon":5.36799,"is_reserved":false,"is_disabled":false,"rental_uris":{"android":"levelo://app?vid=4e9e9f19-6747-44e6-895b-68838dd6a1c5","ios":"levelo://app?vid=4e9e9f19-6747-44e6-895b-68838dd6a1c5"},"vehicle_type_id":"4","last_reported":1778611744,"current_range_meters":4800,"station_id":"ce4bhsh2rcd13ifvqi2g","pricing_plan_id":"cebpf4jnsgd1na2vs0mg"},{"bike_id":"06ace5d7-3d4b-48bb-9ba8-5a2e1fabdaaf","system_id":"levelo_inurba_marseille","lat":43.337518,"lon":5.374433,"is_reserved":false,"is_disabled":false,"rental_uris":{"android":"levelo://app?vid=06ace5d7-3d4b-48bb-9ba8-5a2e1fabdaaf","ios":"levelo://app?vid=06ace5d7-3d4b-48bb-9ba8-5a2e1fabdaaf"},"vehicle_type_id":"4","last_reported":1778611744,"current_range_meters":4800,"station_id":"","pricing_plan_id":"cebpf4jnsgd1na2vs0mg"},{"bike_id":"2663ff90-d5e6-45f3-8858-0791ff78d58e","system_id":"levelo_inurba_marseille","lat":43.30885,"lon":5.37199,"is_reserved":false,"is_disabled":false,"rental_uris":{"android":"levelo://app?vid=2663ff90-d5e6-45f3-8858-0791ff78d58e","ios":"levelo://app?vid=2663ff90-d5e6-45f3-8858-0791ff78d58e"},"vehicle_type_id":"4","last_reported":1778611744,"current_range_meters":4800,"station_id":"ce4bguh2rcd13ifvqckg","pricing_plan_id":"cebpf4jnsgd1na2vs0mg"},{"bike_id":"45a07e4b-f071-4424-9ddd-7c7ff39bfce1","system_id":"levelo_inurba_marseille","lat":43.27906,"lon":5.38009,"is_reserved":false,"is_disabled":false,"rental_uris":{"android":"levelo://app?vid=45a07e4b-f071-4424-9ddd-7c7ff39bfce1","ios":"levelo://app?vid=45a07e4b-f071-4424-9ddd-7c7ff39bfce1"},"vehicle_type_id":"4","last_reported":1778611744,"current_range_meters":4800,"station_id":"ce4bhf92rcd13ifvqf50","pricing_plan_id":"cebpf4jnsgd1na2vs0mg"},{"bike_id":"08b0c056-213f-48c2-9d6d-2ae4cf315af9","system_id":"levelo_inurba_marseille","lat":43.25339,"lon":5.4218,"is_reserved":false,"is_disabled":false,"rental_uris":{"android":"levelo://app?vid=08b0c056-213f-48c2-9d6d-2ae4cf315af9","ios":"levelo://app?vid=08b0c056-213f-48c2-9d6d-2ae4cf315af9"},"vehicle_type_id":"4","last_reported":1778611744,"current_range_meters":4800,"station_id":"st_d2m65c5bi1j21697t3ng","pricing_plan_id":"cebpf4jnsgd1na2vs0mg"},{"bike_id":"8822872b-a491-4b2c-9590-dd31d95df0ea","system_id":"levelo_inurba_marseille","lat":43.28154,"lon":5.42637,"is_reserved":false,"is_disabled":false,"rental_uris":{"android":"levelo://app?vid=8822872b-a491-4b2c-9590-dd31d95df0ea","ios":"levelo://app?vid=8822872b-a491-4b2c-9590-dd31d95df0ea"},"vehicle_type_id":"4","last_reported":1778611744,"current_range_meters":4800,"station_id":"ce4bhnh2rcd13ifvqgug","pricing_plan_id":"cebpf4jnsgd1na2vs0mg"},{"bike_id":"7e4943ba-9ebe-4d7d-9fbd-df9c631fb8da","system_id":"levelo_inurba_marseille","lat":43.30784,"lon":5.37638,"is_reserved":false,"is_disabled":false,"rental_uris":{"android":"levelo://app?vid=7e4943ba-9ebe-4d7d-9fbd-df9c631fb8da","ios":"levelo://app?vid=7e4943ba-9ebe-4d7d-9fbd-df9c631fb8da"},"vehicle_type_id":"4","last_reported":1778611744,"current_range_meters":4800,"station_id":"ce4bgv92rcd13ifvqcq0","pricing_plan_id":"cebpf4jnsgd1na2vs0mg"},{"bike_id":"35c48da4-d0e8-4759-840a-40b1666f7ea0","system_id":"levelo_inurba_marseille","lat":43.25122,"lon":5.40318,"is_reserved":false,"is_disabled":false,"rental_uris":{"android":"levelo://app?vid=35c48da4-d0e8-4759-840a-40b1666f7ea0","ios":"levelo://app?vid=35c48da4-d0e8-4759-840a-40b1666f7ea0"},"vehicle_type_id":"4","last_reported":1778611744,"current_range_meters":4800,"station_id":"ce4bhlh2rcd13ifvqgig","pricing_plan_id":"cebpf4jnsgd1na2vs0mg"},{"bike_id":"78196895-cdc0-40d5-831d-8bc5c2755cca","system_id":"levelo_inurba_marseille","lat":43.30303,"lon":5.39221,"is_reserved":false,"is_disabled":false,"rental_uris":{"android":"levelo://app?vid=78196895-cdc0-40d5-831d-8bc5c2755cca","ios":"levelo://app?vid=78196895-cdc0-40d5-831d-8bc5c2755cca"},"vehicle_type_id":"4","last_reported":1778611744,"current_range_meters":4800,"station_id":"ce4bgkh2rcd13ifvqbk0","pricing_plan_id":"cebpf4jnsgd1na2vs0mg"},{"bike_id":"3563baff-21ca-44aa-98ff-b0bf80db4590","system_id":"levelo_inurba_marseille","lat":43.29191,"lon":5.39336,"is_reserved":false,"is_disabled":false,"rental_uris":{"android":"levelo://app?vid=3563baff-21ca-44aa-98ff-b0bf80db4590","ios":"levelo://app?vid=3563baff-21ca-44aa-98ff-b0bf80db4590"},"vehicle_type_id":"4","last_reported":1778611744,"current_range_meters":4800,"station_id":"ce4bh192rcd13ifvqdd0","pricing_plan_id":"cebpf4jnsgd1na2vs0mg"},{"bike_id":"54314955-1c88-4cfd-86f6-8fba7187f7a6","system_id":"levelo_inurba_marseille","lat":43.28722,"lon":5.42716,"is_reserved":false,"is_disabled":false,"rental_uris":{"android":"levelo://app?vid=54314955-1c88-4cfd-86f6-8fba7187f7a6","ios":"levelo://app?vid=54314955-1c88-4cfd-86f6-8fba7187f7a6"},"vehicle_type_id":"4","last_reported":1778611744,"current_range_meters":5600,"station_id":"","pricing_plan_id":"cebpf4jnsgd1na2vs0mg"},{"bike_id":"e742db3a-c40c-4fa7-81dd-38baeb5353f0","system_id":"levelo_inurba_marseille","lat":43.29716,"lon":5.36582,"is_reserved":false,"is_disabled":false,"rental_uris":{"android":"levelo://app?vid=e742db3a-c40c-4fa7-81dd-38baeb5353f0","ios":"levelo://app?vid=e742db3a-c40c-4fa7-81dd-38baeb5353f0"},"vehicle_type_id":"4","last_reported":1778611744,"current_range_meters":5600,"station_id":"ce4bgn12rcd13ifvqbt0","pricing_plan_id":"cebpf4jnsgd1na2vs0mg"},{"bike_id":"e35a84d1-5122-49ae-b9d0-c7781f945bca","system_id":"levelo_inurba_marseille","lat":43.296,"lon":5.38092,"is_reserved":false,"is_disabled":false,"rental_uris":{"android":"levelo://app?vid=e35a84d1-5122-49ae-b9d0-c7781f945bca","ios":"levelo://app?vid=e35a84d1-5122-49ae-b9d0-c7781f945bca"},"vehicle_type_id":"4","last_reported":1778611744,"current_range_meters":5600,"station_id":"ce4bgl12rcd13ifvqbo0","pricing_plan_id":"cebpf4jnsgd1na2vs0mg"},{"bike_id":"5a6fc470-c3a1-494d-bcb6-47940d8bab2e","system_id":"levelo_inurba_marseille","lat":43.28405,"lon":5.34995,"is_reserved":false,"is_disabled":false,"rental_uris":{"android":"levelo://app?vid=5a6fc470-c3a1-494d-bcb6-47940d8bab2e","ios":"levelo://app?vid=5a6fc470-c3a1-494d-bcb6-47940d8bab2e"},"vehicle_type_id":"4","last_reported":1778611744,"current_range_meters":5600,"station_id":"ce4bhbh2rcd13ifvqepg","pricing_plan_id":"cebpf4jnsgd1na2vs0mg"},{"bike_id":"14059eb2-1b3f-4461-b0ee-158772daa7a1","system_id":"levelo_inurba_marseille","lat":43.31282,"lon":5.40168,"is_reserved":false,"is_disabled":true,"rental_uris":{"android":"levelo://app?vid=14059eb2-1b3f-4461-b0ee-158772daa7a1","ios":"levelo://app?vid=14059eb2-1b3f-4461-b0ee-158772daa7a1"},"vehicle_type_id":"4","last_reported":1778611744,"current_range_meters":5600,"station_id":"ce4bh092rcd13ifvqd30","pricing_plan_id":"cebpf4jnsgd1na2vs0mg"},{"bike_id":"f75200eb-c556-489f-9d74-42038266db2e","system_id":"levelo_inurba_marseille","lat":43.29209,"lon":5.39994,"is_reserved":false,"is_disabled":false,"rental_uris":{"android":"levelo://app?vid=f75200eb-c556-489f-9d74-42038266db2e","ios":"levelo://app?vid=f75200eb-c556-489f-9d74-42038266db2e"},"vehicle_type_id":"4","last_reported":1778611744,"current_range_meters":5600,"station_id":"ce4bh312rcd13ifvqdk0","pricing_plan_id":"cebpf4jnsgd1na2vs0mg"},{"bike_id":"1a6de06b-97b1-4e71-ba31-fea230fdd543","system_id":"levelo_inurba_marseille","lat":43.25613,"lon":5.38233,"is_reserved":false,"is_disabled":false,"rental_uris":{"android":"levelo://app?vid=1a6de06b-97b1-4e71-ba31-fea230fdd543","ios":"levelo://app?vid=1a6de06b-97b1-4e71-ba31-fea230fdd543"},"vehicle_type_id":"4","last_reported":1778611744,"current_range_meters":5600,"station_id":"ce4bhih2rcd13ifvqfs0","pricing_plan_id":"cebpf4jnsgd1na2vs0mg"},{"bike_id":"67fc2dcf-0863-4d1f-af65-bc851dce02e1","system_id":"levelo_inurba_marseille","lat":43.2944,"lon":5.39748,"is_reserved":false,"is_disabled":false,"rental_uris":{"android":"levelo://app?vid=67fc2dcf-0863-4d1f-af65-bc851dce02e1","ios":"levelo://app?vid=67fc2dcf-0863-4d1f-af65-bc851dce02e1"},"vehicle_type_id":"4","last_reported":1778611744,"current_range_meters":5600,"station_id":"ce4bh3h2rcd13ifvqdo0","pricing_plan_id":"cebpf4jnsgd1na2vs0mg"},{"bike_id":"40118873-8835-4ceb-bd64-fd7d091307f9","system_id":"levelo_inurba_marseille","lat":43.31166,"lon":5.38723,"is_reserved":false,"is_disabled":false,"rental_uris":{"android":"levelo://app?vid=40118873-8835-4ceb-bd64-fd7d091307f9","ios":"levelo://app?vid=40118873-8835-4ceb-bd64-fd7d091307f9"},"vehicle_type_id":"4","last_reported":1778611744,"current_range_meters":5600,"station_id":"ce4bgv12rcd13ifvqcp0","pricing_plan_id":"cebpf4jnsgd1na2vs0mg"},{"bike_id":"8e43356a-6894-4729-8a36-e254d80b24c0","system_id":"levelo_inurba_marseille","lat":43.29134,"lon":5.43262,"is_reserved":false,"is_disabled":false,"rental_uris":{"android":"levelo://app?vid=8e43356a-6894-4729-8a36-e254d80b24c0","ios":"levelo://app?vid=8e43356a-6894-4729-8a36-e254d80b24c0"},"vehicle_type_id":"4","last_reported":1778611744,"current_range_meters":5600,"station_id":"","pricing_plan_id":"cebpf4jnsgd1na2vs0mg"},{"bike_id":"c4a39941-4b69-4697-a3ce-af3df8a6d218","system_id":"levelo_inurba_marseille","lat":43.27647,"lon":5.36266,"is_reserved":false,"is_disabled":false,"rental_uris":{"android":"levelo://app?vid=c4a39941-4b69-4697-a3ce-af3df8a6d218","ios":"levelo://app?vid=c4a39941-4b69-4697-a3ce-af3df8a6d218"},"vehicle_type_id":"4","last_reported":1778611744,"current_range_meters":5600,"station_id":"","pricing_plan_id":"cebpf4jnsgd1na2vs0mg"},{"bike_id":"f562c08b-b6fa-4ee2-ba84-726cecb9321d","system_id":"levelo_inurba_marseille","lat":43.29522,"lon":5.39399,"is_reserved":false,"is_disabled":false,"rental_uris":{"android":"levelo://app?vid=f562c08b-b6fa-4ee2-ba84-726cecb9321d","ios":"levelo://app?vid=f562c08b-b6fa-4ee2-ba84-726cecb9321d"},"vehicle_type_id":"4","last_reported":1778611744,"current_range_meters":5600,"station_id":"ce4bh292rcd13ifvqdf0","pricing_plan_id":"cebpf4jnsgd1na2vs0mg"},{"bike_id":"30c2e09a-ab11-41f2-974e-f739a2f01972","system_id":"levelo_inurba_marseille","lat":43.31369,"lon":5.38493,"is_reserved":false,"is_disabled":false,"rental_uris":{"android":"levelo://app?vid=30c2e09a-ab11-41f2-974e-f739a2f01972","ios":"levelo://app?vid=30c2e09a-ab11-41f2-974e-f739a2f01972"},"vehicle_type_id":"4","last_reported":1778611744,"current_range_meters":5600,"station_id":"ce4bgt92rcd13ifvqcf0","pricing_plan_id":"cebpf4jnsgd1na2vs0mg"},{"bike_id":"1373437b-06f5-49a1-ae22-3a5fcb53cb84","system_id":"levelo_inurba_marseille","lat":43.25083,"lon":5.39522,"is_reserved":false,"is_disabled":false,"rental_uris":{"android":"levelo://app?vid=1373437b-06f5-49a1-ae22-3a5fcb53cb84","ios":"levelo://app?vid=1373437b-06f5-49a1-ae22-3a5fcb53cb84"},"vehicle_type_id":"4","last_reported":1778611744,"current_range_meters":5600,"station_id":"ce4bhm12rcd13ifvqgkg","pricing_plan_id":"cebpf4jnsgd1na2vs0mg"},{"bike_id":"1195aa64-118e-4766-a6f0-fec0db7e765a","system_id":"levelo_inurba_marseille","lat":43.31758,"lon":5.39026,"is_reserved":false,"is_disabled":false,"rental_uris":{"android":"levelo://app?vid=1195aa64-118e-4766-a6f0-fec0db7e765a","ios":"levelo://app?vid=1195aa64-118e-4766-a6f0-fec0db7e765a"},"vehicle_type_id":"4","last_reported":1778611744,"current_range_meters":6000,"station_id":"ce4bhqp2rcd13ifvqhng","pricing_plan_id":"cebpf4jnsgd1na2vs0mg"},{"bike_id":"bb883d36-d526-4613-874f-fbf82a7a374b","system_id":"levelo_inurba_marseille","lat":43.29685,"lon":5.37003,"is_reserved":false,"is_disabled":false,"rental_uris":{"android":"levelo://app?vid=bb883d36-d526-4613-874f-fbf82a7a374b","ios":"levelo://app?vid=bb883d36-d526-4613-874f-fbf82a7a374b"},"vehicle_type_id":"4","last_reported":1778611744,"current_range_meters":6000,"station_id":"","pricing_plan_id":"cebpf4jnsgd1na2vs0mg"},{"bike_id":"9241ca2a-2a47-4c51-bc41-dd32c491fe10","system_id":"levelo_inurba_marseille","lat":43.29951,"lon":5.38484,"is_reserved":false,"is_disabled":false,"rental_uris":{"android":"levelo://app?vid=9241ca2a-2a47-4c51-bc41-dd32c491fe10","ios":"levelo://app?vid=9241ca2a-2a47-4c51-bc41-dd32c491fe10"},"vehicle_type_id":"4","last_reported":1778611744,"current_range_meters":6000,"station_id":"ce4bgj92rcd13ifvqbd0","pricing_plan_id":"cebpf4jnsgd1na2vs0mg"},{"bike_id":"0e6d4b56-486f-4728-b003-09b611c4e69e","system_id":"levelo_inurba_marseille","lat":43.28834,"lon":5.35839,"is_reserved":false,"is_disabled":false,"rental_uris":{"android":"levelo://app?vid=0e6d4b56-486f-4728-b003-09b611c4e69e","ios":"levelo://app?vid=0e6d4b56-486f-4728-b003-09b611c4e69e"},"vehicle_type_id":"4","last_reported":1778611744,"current_range_meters":6000,"station_id":"ce4bhb12rcd13ifvqem0","pricing_plan_id":"cebpf4jnsgd1na2vs0mg"},{"bike_id":"4605674f-d546-408e-ab3f-200e540a9491","system_id":"levelo_inurba_marseille","lat":43.28461,"lon":5.38425,"is_reserved":false,"is_disabled":false,"rental_uris":{"android":"levelo://app?vid=4605674f-d546-408e-ab3f-200e540a9491","ios":"levelo://app?vid=4605674f-d546-408e-ab3f-200e540a9491"},"vehicle_type_id":"4","last_reported":1778611744,"current_range_meters":6000,"station_id":"ce4bh512rcd13ifvqe3g","pricing_plan_id":"cebpf4jnsgd1na2vs0mg"},{"bike_id":"be47e9c4-162a-4450-b0d7-64bd1bade15c","system_id":"levelo_inurba_marseille","lat":43.23175,"lon":5.3999,"is_reserved":false,"is_disabled":false,"rental_uris":{"android":"levelo://app?vid=be47e9c4-162a-4450-b0d7-64bd1bade15c","ios":"levelo://app?vid=be47e9c4-162a-4450-b0d7-64bd1bade15c"},"vehicle_type_id":"4","last_reported":1778611744,"current_range_meters":6000,"station_id":"ce4bhn12rcd13ifvqgqg","pricing_plan_id":"cebpf4jnsgd1na2vs0mg"},{"bike_id":"995a2d1d-9360-4eea-964f-729947ed4581","system_id":"levelo_inurba_marseille","lat":43.29801,"lon":5.39713,"is_reserved":false,"is_disabled":false,"rental_uris":{"android":"levelo://app?vid=995a2d1d-9360-4eea-964f-729947ed4581","ios":"levelo://app?vid=995a2d1d-9360-4eea-964f-729947ed4581"},"vehicle_type_id":"4","last_reported":1778611744,"current_range_meters":6000,"station_id":"","pricing_plan_id":"cebpf4jnsgd1na2vs0mg"},{"bike_id":"cc08138b-40fc-4068-b5f2-bde9c76a7e40","system_id":"levelo_inurba_marseille","lat":43.34153,"lon":5.40905,"is_reserved":false,"is_disabled":true,"rental_uris":{"android":"levelo://app?vid=cc08138b-40fc-4068-b5f2-bde9c76a7e40","ios":"levelo://app?vid=cc08138b-40fc-4068-b5f2-bde9c76a7e40"},"vehicle_type_id":"4","last_reported":1778611744,"current_range_meters":6000,"station_id":"ce4bhqh2rcd13ifvqhlg","pricing_plan_id":"cebpf4jnsgd1na2vs0mg"},{"bike_id":"946d3395-a1fc-4c85-99ee-e555a66a34c8","system_id":"levelo_inurba_marseille","lat":43.28455,"lon":5.35896,"is_reserved":false,"is_disabled":false,"rental_uris":{"android":"levelo://app?vid=946d3395-a1fc-4c85-99ee-e555a66a34c8","ios":"levelo://app?vid=946d3395-a1fc-4c85-99ee-e555a66a34c8"},"vehicle_type_id":"4","last_reported":1778611744,"current_range_meters":6000,"station_id":"ce4bhah2rcd13ifvqei0","pricing_plan_id":"cebpf4jnsgd1na2vs0mg"},{"bike_id":"cfd8443d-4001-4918-a72d-978d4f576e50","system_id":"levelo_inurba_marseille","lat":43.24165,"lon":5.36403,"is_reserved":false,"is_disabled":false,"rental_uris":{"android":"levelo://app?vid=cfd8443d-4001-4918-a72d-978d4f576e50","ios":"levelo://app?vid=cfd8443d-4001-4918-a72d-978d4f576e50"},"vehicle_type_id":"4","last_reported":1778611744,"current_range_meters":6000,"station_id":"cpo36qri1sfpv3e86is0","pricing_plan_id":"cebpf4jnsgd1na2vs0mg"},{"bike_id":"3a057614-b603-47df-9b2c-cab1a759aa0e","system_id":"levelo_inurba_marseille","lat":43.29306,"lon":5.38069,"is_reserved":false,"is_disabled":false,"rental_uris":{"android":"levelo://app?vid=3a057614-b603-47df-9b2c-cab1a759aa0e","ios":"levelo://app?vid=3a057614-b603-47df-9b2c-cab1a759aa0e"},"vehicle_type_id":"4","last_reported":1778611744,"current_range_meters":6000,"station_id":"","pricing_plan_id":"cebpf4jnsgd1na2vs0mg"},{"bike_id":"07a9b671-4f11-4201-95b6-67d884bae6f1","system_id":"levelo_inurba_marseille","lat":43.25059,"lon":5.404,"is_reserved":false,"is_disabled":false,"rental_uris":{"android":"levelo://app?vid=07a9b671-4f11-4201-95b6-67d884bae6f1","ios":"levelo://app?vid=07a9b671-4f11-4201-95b6-67d884bae6f1"},"vehicle_type_id":"4","last_reported":1778611744,"current_range_meters":6000,"station_id":"","pricing_plan_id":"cebpf4jnsgd1na2vs0mg"},{"bike_id":"b3914944-49d2-42cd-9b63-8556b25f47ba","system_id":"levelo_inurba_marseille","lat":43.28557,"lon":5.39517,"is_reserved":false,"is_disabled":false,"rental_uris":{"android":"levelo://app?vid=b3914944-49d2-42cd-9b63-8556b25f47ba","ios":"levelo://app?vid=b3914944-49d2-42cd-9b63-8556b25f47ba"},"vehicle_type_id":"4","last_reported":1778611744,"current_range_meters":6000,"station_id":"ce4bh292rcd13ifvqdg0","pricing_plan_id":"cebpf4jnsgd1na2vs0mg"},{"bike_id":"61042484-dcc3-4e21-b302-39f97578454f","system_id":"levelo_inurba_marseille","lat":43.31242,"lon":5.38062,"is_reserved":false,"is_disabled":true,"rental_uris":{"android":"levelo://app?vid=61042484-dcc3-4e21-b302-39f97578454f","ios":"levelo://app?vid=61042484-dcc3-4e21-b302-39f97578454f"},"vehicle_type_id":"4","last_reported":1778611744,"current_range_meters":6400,"station_id":"","pricing_plan_id":"cebpf4jnsgd1na2vs0mg"},{"bike_id":"9f9cc4d4-6448-4fe0-9bba-35816aedf1fe","system_id":"levelo_inurba_marseille","lat":43.24543,"lon":5.39522,"is_reserved":false,"is_disabled":false,"rental_uris":{"android":"levelo://app?vid=9f9cc4d4-6448-4fe0-9bba-35816aedf1fe","ios":"levelo://app?vid=9f9cc4d4-6448-4fe0-9bba-35816aedf1fe"},"vehicle_type_id":"4","last_reported":1778611744,"current_range_meters":6400,"station_id":"ce4bhlp2rcd13ifvqgjg","pricing_plan_id":"cebpf4jnsgd1na2vs0mg"},{"bike_id":"bbcca1f5-1d3c-46e6-ab14-0de00cbee5f7","system_id":"levelo_inurba_marseille","lat":43.30459,"lon":5.3791,"is_reserved":false,"is_disabled":false,"rental_uris":{"android":"levelo://app?vid=bbcca1f5-1d3c-46e6-ab14-0de00cbee5f7","ios":"levelo://app?vid=bbcca1f5-1d3c-46e6-ab14-0de00cbee5f7"},"vehicle_type_id":"4","last_reported":1778611744,"current_range_meters":6400,"station_id":"ce4bgup2rcd13ifvqcn0","pricing_plan_id":"cebpf4jnsgd1na2vs0mg"},{"bike_id":"c2e976b4-7573-4ea6-97e0-eb4dbbe39a6b","system_id":"levelo_inurba_marseille","lat":43.27591,"lon":5.39657,"is_reserved":false,"is_disabled":false,"rental_uris":{"android":"levelo://app?vid=c2e976b4-7573-4ea6-97e0-eb4dbbe39a6b","ios":"levelo://app?vid=c2e976b4-7573-4ea6-97e0-eb4dbbe39a6b"},"vehicle_type_id":"4","last_reported":1778611744,"current_range_meters":6400,"station_id":"","pricing_plan_id":"cebpf4jnsgd1na2vs0mg"},{"bike_id":"5364d659-2bce-4dc8-b02e-ea69db54c28a","system_id":"levelo_inurba_marseille","lat":43.29841,"lon":5.37804,"is_reserved":false,"is_disabled":false,"rental_uris":{"android":"levelo://app?vid=5364d659-2bce-4dc8-b02e-ea69db54c28a","ios":"levelo://app?vid=5364d659-2bce-4dc8-b02e-ea69db54c28a"},"vehicle_type_id":"4","last_reported":1778611744,"current_range_meters":6400,"station_id":"","pricing_plan_id":"cebpf4jnsgd1na2vs0mg"},{"bike_id":"a3931dae-05f0-4e1d-8b68-01fdd7d05951","system_id":"levelo_inurba_marseille","lat":43.275117,"lon":5.415849,"is_reserved":false,"is_disabled":true,"rental_uris":{"android":"levelo://app?vid=a3931dae-05f0-4e1d-8b68-01fdd7d05951","ios":"levelo://app?vid=a3931dae-05f0-4e1d-8b68-01fdd7d05951"},"vehicle_type_id":"4","last_reported":1778611744,"current_range_meters":6400,"station_id":"st_d6im8g6chgec73a5pndg","pricing_plan_id":"cebpf4jnsgd1na2vs0mg"},{"bike_id":"d8de47e6-1d62-4a23-86be-0ab89881e238","system_id":"levelo_inurba_marseille","lat":43.2898,"lon":5.37837,"is_reserved":false,"is_disabled":false,"rental_uris":{"android":"levelo://app?vid=d8de47e6-1d62-4a23-86be-0ab89881e238","ios":"levelo://app?vid=d8de47e6-1d62-4a23-86be-0ab89881e238"},"vehicle_type_id":"4","last_reported":1778611744,"current_range_meters":6400,"station_id":"ce4bh9p2rcd13ifvqed0","pricing_plan_id":"cebpf4jnsgd1na2vs0mg"},{"bike_id":"e04ab780-4b81-4dfe-8702-69cd383d493e","system_id":"levelo_inurba_marseille","lat":43.24512,"lon":5.42152,"is_reserved":false,"is_disabled":false,"rental_uris":{"android":"levelo://app?vid=e04ab780-4b81-4dfe-8702-69cd383d493e","ios":"levelo://app?vid=e04ab780-4b81-4dfe-8702-69cd383d493e"},"vehicle_type_id":"4","last_reported":1778611744,"current_range_meters":6400,"station_id":"","pricing_plan_id":"cebpf4jnsgd1na2vs0mg"},{"bike_id":"1b2c8958-e91f-45f0-b73e-ce7ed72a04f7","system_id":"levelo_inurba_marseille","lat":43.295743,"lon":5.397636,"is_reserved":false,"is_disabled":true,"rental_uris":{"android":"levelo://app?vid=1b2c8958-e91f-45f0-b73e-ce7ed72a04f7","ios":"levelo://app?vid=1b2c8958-e91f-45f0-b73e-ce7ed72a04f7"},"vehicle_type_id":"4","last_reported":1778611744,"current_range_meters":6400,"station_id":"","pricing_plan_id":"cebpf4jnsgd1na2vs0mg"},{"bike_id":"2b312cbf-e314-4ddc-941b-5222208ed9dd","system_id":"levelo_inurba_marseille","lat":43.29807,"lon":5.40395,"is_reserved":false,"is_disabled":false,"rental_uris":{"android":"levelo://app?vid=2b312cbf-e314-4ddc-941b-5222208ed9dd","ios":"levelo://app?vid=2b312cbf-e314-4ddc-941b-5222208ed9dd"},"vehicle_type_id":"4","last_reported":1778611744,"current_range_meters":6400,"station_id":"ce4bh112rcd13ifvqd90","pricing_plan_id":"cebpf4jnsgd1na2vs0mg"},{"bike_id":"932e0579-c840-4928-bcaa-2bdfaba1edb3","system_id":"levelo_inurba_marseille","lat":43.29004,"lon":5.35602,"is_reserved":false,"is_disabled":false,"rental_uris":{"android":"levelo://app?vid=932e0579-c840-4928-bcaa-2bdfaba1edb3","ios":"levelo://app?vid=932e0579-c840-4928-bcaa-2bdfaba1edb3"},"vehicle_type_id":"4","last_reported":1778611744,"current_range_meters":6400,"station_id":"ce4bhb92rcd13ifvqen0","pricing_plan_id":"cebpf4jnsgd1na2vs0mg"},{"bike_id":"8f556e0e-50e3-415d-bc0b-bd20df8dcc3e","system_id":"levelo_inurba_marseille","lat":43.22555,"lon":5.41644,"is_reserved":false,"is_disabled":false,"rental_uris":{"android":"levelo://app?vid=8f556e0e-50e3-415d-bc0b-bd20df8dcc3e","ios":"levelo://app?vid=8f556e0e-50e3-415d-bc0b-bd20df8dcc3e"},"vehicle_type_id":"4","last_reported":1778611744,"current_range_meters":6400,"station_id":"st_d2o4gvlbi1j2169b742g","pricing_plan_id":"cebpf4jnsgd1na2vs0mg"},{"bike_id":"db4ac7ab-af2d-4f4e-9a54-7ca0ff48a617","system_id":"levelo_inurba_marseille","lat":43.28615,"lon":5.35107,"is_reserved":false,"is_disabled":false,"rental_uris":{"android":"levelo://app?vid=db4ac7ab-af2d-4f4e-9a54-7ca0ff48a617","ios":"levelo://app?vid=db4ac7ab-af2d-4f4e-9a54-7ca0ff48a617"},"vehicle_type_id":"4","last_reported":1778611744,"current_range_meters":6400,"station_id":"ce4bhch2rcd13ifvqeug","pricing_plan_id":"cebpf4jnsgd1na2vs0mg"},{"bike_id":"6bf8e413-e0e6-4b25-b525-a592fcaee470","system_id":"levelo_inurba_marseille","lat":43.30154,"lon":5.38096,"is_reserved":false,"is_disabled":true,"rental_uris":{"android":"levelo://app?vid=6bf8e413-e0e6-4b25-b525-a592fcaee470","ios":"levelo://app?vid=6bf8e413-e0e6-4b25-b525-a592fcaee470"},"vehicle_type_id":"4","last_reported":1778611744,"current_range_meters":6400,"station_id":"ce4bgjp2rcd13ifvqbh0","pricing_plan_id":"cebpf4jnsgd1na2vs0mg"},{"bike_id":"38e90f0e-b7df-4047-88b1-0b0e509bdf0a","system_id":"levelo_inurba_marseille","lat":43.2658,"lon":5.39029,"is_reserved":false,"is_disabled":false,"rental_uris":{"android":"levelo://app?vid=38e90f0e-b7df-4047-88b1-0b0e509bdf0a","ios":"levelo://app?vid=38e90f0e-b7df-4047-88b1-0b0e509bdf0a"},"vehicle_type_id":"4","last_reported":1778611744,"current_range_meters":6400,"station_id":"ce4bhe12rcd13ifvqf30","pricing_plan_id":"cebpf4jnsgd1na2vs0mg"},{"bike_id":"e3e6a269-338b-482e-8c7f-7dca167d167b","system_id":"levelo_inurba_marseille","lat":43.2749,"lon":5.41596,"is_reserved":false,"is_disabled":true,"rental_uris":{"android":"levelo://app?vid=e3e6a269-338b-482e-8c7f-7dca167d167b","ios":"levelo://app?vid=e3e6a269-338b-482e-8c7f-7dca167d167b"},"vehicle_type_id":"4","last_reported":1778611744,"current_range_meters":6400,"station_id":"st_d6im8g6chgec73a5pndg","pricing_plan_id":"cebpf4jnsgd1na2vs0mg"},{"bike_id":"46010e51-ffcf-494e-8734-a0917c32a663","system_id":"levelo_inurba_marseille","lat":43.23199,"lon":5.35544,"is_reserved":false,"is_disabled":false,"rental_uris":{"android":"levelo://app?vid=46010e51-ffcf-494e-8734-a0917c32a663","ios":"levelo://app?vid=46010e51-ffcf-494e-8734-a0917c32a663"},"vehicle_type_id":"4","last_reported":1778611744,"current_range_meters":6400,"station_id":"ce4bhu92rcd13ifvqi70","pricing_plan_id":"cebpf4jnsgd1na2vs0mg"},{"bike_id":"56aa3777-5c73-49cb-b27f-d7e4ca259c3e","system_id":"levelo_inurba_marseille","lat":43.25092,"lon":5.39508,"is_reserved":false,"is_disabled":false,"rental_uris":{"android":"levelo://app?vid=56aa3777-5c73-49cb-b27f-d7e4ca259c3e","ios":"levelo://app?vid=56aa3777-5c73-49cb-b27f-d7e4ca259c3e"},"vehicle_type_id":"4","last_reported":1778611744,"current_range_meters":6400,"station_id":"ce4bhm12rcd13ifvqgkg","pricing_plan_id":"cebpf4jnsgd1na2vs0mg"},{"bike_id":"89ba3e6a-2631-497f-8d75-3508f5d4fd19","system_id":"levelo_inurba_marseille","lat":43.24657,"lon":5.38182,"is_reserved":false,"is_disabled":false,"rental_uris":{"android":"levelo://app?vid=89ba3e6a-2631-497f-8d75-3508f5d4fd19","ios":"levelo://app?vid=89ba3e6a-2631-497f-8d75-3508f5d4fd19"},"vehicle_type_id":"4","last_reported":1778611744,"current_range_meters":6400,"station_id":"ce4bhih2rcd13ifvqfr0","pricing_plan_id":"cebpf4jnsgd1na2vs0mg"},{"bike_id":"93a22529-c67b-4c75-b2d8-922da7651d60","system_id":"levelo_inurba_marseille","lat":43.29792,"lon":5.38106,"is_reserved":false,"is_disabled":true,"rental_uris":{"android":"levelo://app?vid=93a22529-c67b-4c75-b2d8-922da7651d60","ios":"levelo://app?vid=93a22529-c67b-4c75-b2d8-922da7651d60"},"vehicle_type_id":"4","last_reported":1778611744,"current_range_meters":6400,"station_id":"ce4bgip2rcd13ifvqbb0","pricing_plan_id":"cebpf4jnsgd1na2vs0mg"},{"bike_id":"f9b67939-8171-44dc-8ed9-d082587fc1d4","system_id":"levelo_inurba_marseille","lat":43.27937,"lon":5.39568,"is_reserved":false,"is_disabled":false,"rental_uris":{"android":"levelo://app?vid=f9b67939-8171-44dc-8ed9-d082587fc1d4","ios":"levelo://app?vid=f9b67939-8171-44dc-8ed9-d082587fc1d4"},"vehicle_type_id":"4","last_reported":1778611744,"current_range_meters":6400,"station_id":"ce4bhf92rcd13ifvqf40","pricing_plan_id":"cebpf4jnsgd1na2vs0mg"},{"bike_id":"309ba972-30de-41e3-9620-1085968142f5","system_id":"levelo_inurba_marseille","lat":43.29386,"lon":5.37829,"is_reserved":false,"is_disabled":false,"rental_uris":{"android":"levelo://app?vid=309ba972-30de-41e3-9620-1085968142f5","ios":"levelo://app?vid=309ba972-30de-41e3-9620-1085968142f5"},"vehicle_type_id":"4","last_reported":1778611744,"current_range_meters":6400,"station_id":"ce4bgjh2rcd13ifvqbf0","pricing_plan_id":"cebpf4jnsgd1na2vs0mg"},{"bike_id":"86660d9c-47a1-454c-bf17-c1141faf0fe4","system_id":"levelo_inurba_marseille","lat":43.24824,"lon":5.37459,"is_reserved":false,"is_disabled":false,"rental_uris":{"android":"levelo://app?vid=86660d9c-47a1-454c-bf17-c1141faf0fe4","ios":"levelo://app?vid=86660d9c-47a1-454c-bf17-c1141faf0fe4"},"vehicle_type_id":"4","last_reported":1778611744,"current_range_meters":6800,"station_id":"ce4bhgh2rcd13ifvqfb0","pricing_plan_id":"cebpf4jnsgd1na2vs0mg"},{"bike_id":"7eeaae49-e5ae-480b-aac7-0267ac4b47fd","system_id":"levelo_inurba_marseille","lat":43.25569,"lon":5.38238,"is_reserved":false,"is_disabled":false,"rental_uris":{"android":"levelo://app?vid=7eeaae49-e5ae-480b-aac7-0267ac4b47fd","ios":"levelo://app?vid=7eeaae49-e5ae-480b-aac7-0267ac4b47fd"},"vehicle_type_id":"4","last_reported":1778611744,"current_range_meters":6800,"station_id":"ce4bhih2rcd13ifvqfs0","pricing_plan_id":"cebpf4jnsgd1na2vs0mg"},{"bike_id":"61195f8c-df5f-4867-8563-8cdbcf8d80ea","system_id":"levelo_inurba_marseille","lat":43.25867,"lon":5.39905,"is_reserved":false,"is_disabled":true,"rental_uris":{"android":"levelo://app?vid=61195f8c-df5f-4867-8563-8cdbcf8d80ea","ios":"levelo://app?vid=61195f8c-df5f-4867-8563-8cdbcf8d80ea"},"vehicle_type_id":"4","last_reported":1778611744,"current_range_meters":6800,"station_id":"ce4bhl92rcd13ifvqghg","pricing_plan_id":"cebpf4jnsgd1na2vs0mg"},{"bike_id":"8800382e-208e-425d-a906-68b6f20e5f2f","system_id":"levelo_inurba_marseille","lat":43.26229,"lon":5.38768,"is_reserved":false,"is_disabled":false,"rental_uris":{"android":"levelo://app?vid=8800382e-208e-425d-a906-68b6f20e5f2f","ios":"levelo://app?vid=8800382e-208e-425d-a906-68b6f20e5f2f"},"vehicle_type_id":"4","last_reported":1778611744,"current_range_meters":6800,"station_id":"","pricing_plan_id":"cebpf4jnsgd1na2vs0mg"},{"bike_id":"0d5a6d54-dad4-453d-9b1a-d94782ee22c6","system_id":"levelo_inurba_marseille","lat":43.32345,"lon":5.36544,"is_reserved":false,"is_disabled":false,"rental_uris":{"android":"levelo://app?vid=0d5a6d54-dad4-453d-9b1a-d94782ee22c6","ios":"levelo://app?vid=0d5a6d54-dad4-453d-9b1a-d94782ee22c6"},"vehicle_type_id":"4","last_reported":1778611744,"current_range_meters":6800,"station_id":"","pricing_plan_id":"cebpf4jnsgd1na2vs0mg"},{"bike_id":"a05493e2-a71b-46c0-bba1-b5a294de8d75","system_id":"levelo_inurba_marseille","lat":43.27565,"lon":5.38438,"is_reserved":false,"is_disabled":false,"rental_uris":{"android":"levelo://app?vid=a05493e2-a71b-46c0-bba1-b5a294de8d75","ios":"levelo://app?vid=a05493e2-a71b-46c0-bba1-b5a294de8d75"},"vehicle_type_id":"4","last_reported":1778611744,"current_range_meters":6800,"station_id":"ce4bhh92rcd13ifvqfi0","pricing_plan_id":"cebpf4jnsgd1na2vs0mg"},{"bike_id":"b0351153-fdea-4d61-9458-346bc5cdc270","system_id":"levelo_inurba_marseille","lat":43.2481,"lon":5.3746,"is_reserved":false,"is_disabled":false,"rental_uris":{"android":"levelo://app?vid=b0351153-fdea-4d61-9458-346bc5cdc270","ios":"levelo://app?vid=b0351153-fdea-4d61-9458-346bc5cdc270"},"vehicle_type_id":"4","last_reported":1778611744,"current_range_meters":6800,"station_id":"ce4bhgh2rcd13ifvqfb0","pricing_plan_id":"cebpf4jnsgd1na2vs0mg"},{"bike_id":"f4a9f1cb-0b8b-40b5-9761-bed01b208aa9","system_id":"levelo_inurba_marseille","lat":43.27566,"lon":5.38414,"is_reserved":false,"is_disabled":true,"rental_uris":{"android":"levelo://app?vid=f4a9f1cb-0b8b-40b5-9761-bed01b208aa9","ios":"levelo://app?vid=f4a9f1cb-0b8b-40b5-9761-bed01b208aa9"},"vehicle_type_id":"4","last_reported":1778611744,"current_range_meters":6800,"station_id":"ce4bhh92rcd13ifvqfi0","pricing_plan_id":"cebpf4jnsgd1na2vs0mg"},{"bike_id":"6e6118e0-d7b8-42ba-a2c6-79786f3c704d","system_id":"levelo_inurba_marseille","lat":43.25104,"lon":5.40328,"is_reserved":false,"is_disabled":true,"rental_uris":{"android":"levelo://app?vid=6e6118e0-d7b8-42ba-a2c6-79786f3c704d","ios":"levelo://app?vid=6e6118e0-d7b8-42ba-a2c6-79786f3c704d"},"vehicle_type_id":"4","last_reported":1778611744,"current_range_meters":6800,"station_id":"ce4bhlh2rcd13ifvqgig","pricing_plan_id":"cebpf4jnsgd1na2vs0mg"},{"bike_id":"fe30cbda-3e7e-475e-839d-d1c59635201b","system_id":"levelo_inurba_marseille","lat":43.2926,"lon":5.3844,"is_reserved":false,"is_disabled":false,"rental_uris":{"android":"levelo://app?vid=fe30cbda-3e7e-475e-839d-d1c59635201b","ios":"levelo://app?vid=fe30cbda-3e7e-475e-839d-d1c59635201b"},"vehicle_type_id":"4","last_reported":1778611744,"current_range_meters":6800,"station_id":"ce4bh692rcd13ifvqea0","pricing_plan_id":"cebpf4jnsgd1na2vs0mg"},{"bike_id":"59c6f2ac-0ef9-4ebe-a048-771f7d0e19f6","system_id":"levelo_inurba_marseille","lat":43.30439,"lon":5.38889,"is_reserved":false,"is_disabled":false,"rental_uris":{"android":"levelo://app?vid=59c6f2ac-0ef9-4ebe-a048-771f7d0e19f6","ios":"levelo://app?vid=59c6f2ac-0ef9-4ebe-a048-771f7d0e19f6"},"vehicle_type_id":"4","last_reported":1778611744,"current_range_meters":6800,"station_id":"ce4bgk12rcd13ifvqbi0","pricing_plan_id":"cebpf4jnsgd1na2vs0mg"},{"bike_id":"a8cb007f-74f4-4044-93ba-35252f1f92c4","system_id":"levelo_inurba_marseille","lat":43.28929,"lon":5.36398,"is_reserved":false,"is_disabled":false,"rental_uris":{"android":"levelo://app?vid=a8cb007f-74f4-4044-93ba-35252f1f92c4","ios":"levelo://app?vid=a8cb007f-74f4-4044-93ba-35252f1f92c4"},"vehicle_type_id":"4","last_reported":1778611744,"current_range_meters":6800,"station_id":"ce4bhc92rcd13ifvqetg","pricing_plan_id":"cebpf4jnsgd1na2vs0mg"},{"bike_id":"8a46ae12-e00e-40fd-809d-c990a42880c4","system_id":"levelo_inurba_marseille","lat":43.2861,"lon":5.37062,"is_reserved":false,"is_disabled":false,"rental_uris":{"android":"levelo://app?vid=8a46ae12-e00e-40fd-809d-c990a42880c4","ios":"levelo://app?vid=8a46ae12-e00e-40fd-809d-c990a42880c4"},"vehicle_type_id":"4","last_reported":1778611744,"current_range_meters":6800,"station_id":"ce4bht12rcd13ifvqi60","pricing_plan_id":"cebpf4jnsgd1na2vs0mg"},{"bike_id":"95552473-a32b-49e5-a6c9-92815a2ac96e","system_id":"levelo_inurba_marseille","lat":43.32827,"lon":5.4261,"is_reserved":false,"is_disabled":false,"rental_uris":{"android":"levelo://app?vid=95552473-a32b-49e5-a6c9-92815a2ac96e","ios":"levelo://app?vid=95552473-a32b-49e5-a6c9-92815a2ac96e"},"vehicle_type_id":"4","last_reported":1778611744,"current_range_meters":6800,"station_id":"","pricing_plan_id":"cebpf4jnsgd1na2vs0mg"},{"bike_id":"bf1cc148-7f3f-4a3e-90cf-74bc85331c4d","system_id":"levelo_inurba_marseille","lat":43.2991,"lon":5.38892,"is_reserved":false,"is_disabled":false,"rental_uris":{"android":"levelo://app?vid=bf1cc148-7f3f-4a3e-90cf-74bc85331c4d","ios":"levelo://app?vid=bf1cc148-7f3f-4a3e-90cf-74bc85331c4d"},"vehicle_type_id":"4","last_reported":1778611744,"current_range_meters":6800,"station_id":"ce4bh392rcd13ifvqdl0","pricing_plan_id":"cebpf4jnsgd1na2vs0mg"},{"bike_id":"523ca626-9eff-4486-8ced-699980f2a13d","system_id":"levelo_inurba_marseille","lat":43.29262,"lon":5.38446,"is_reserved":false,"is_disabled":false,"rental_uris":{"android":"levelo://app?vid=523ca626-9eff-4486-8ced-699980f2a13d","ios":"levelo://app?vid=523ca626-9eff-4486-8ced-699980f2a13d"},"vehicle_type_id":"4","last_reported":1778611744,"current_range_meters":6800,"station_id":"ce4bh692rcd13ifvqea0","pricing_plan_id":"cebpf4jnsgd1na2vs0mg"},{"bike_id":"a57b1f95-9e31-4dff-8ba3-8d8532694490","system_id":"levelo_inurba_marseille","lat":43.28645,"lon":5.47555,"is_reserved":false,"is_disabled":false,"rental_uris":{"android":"levelo://app?vid=a57b1f95-9e31-4dff-8ba3-8d8532694490","ios":"levelo://app?vid=a57b1f95-9e31-4dff-8ba3-8d8532694490"},"vehicle_type_id":"4","last_reported":1778611744,"current_range_meters":6800,"station_id":"","pricing_plan_id":"cebpf4jnsgd1na2vs0mg"},{"bike_id":"e807073f-5b22-404b-bfa7-b2c01e81fb88","system_id":"levelo_inurba_marseille","lat":43.32292,"lon":5.38266,"is_reserved":false,"is_disabled":false,"rental_uris":{"android":"levelo://app?vid=e807073f-5b22-404b-bfa7-b2c01e81fb88","ios":"levelo://app?vid=e807073f-5b22-404b-bfa7-b2c01e81fb88"},"vehicle_type_id":"4","last_reported":1778611744,"current_range_meters":6800,"station_id":"ce4bhr12rcd13ifvqhqg","pricing_plan_id":"cebpf4jnsgd1na2vs0mg"},{"bike_id":"dab1c889-425e-4960-98db-e96e2c60b9ea","system_id":"levelo_inurba_marseille","lat":43.27948,"lon":5.41041,"is_reserved":false,"is_disabled":false,"rental_uris":{"android":"levelo://app?vid=dab1c889-425e-4960-98db-e96e2c60b9ea","ios":"levelo://app?vid=dab1c889-425e-4960-98db-e96e2c60b9ea"},"vehicle_type_id":"4","last_reported":1778611744,"current_range_meters":6800,"station_id":"ce4bhnp2rcd13ifvqh0g","pricing_plan_id":"cebpf4jnsgd1na2vs0mg"},{"bike_id":"e1ac7173-4006-4271-b12d-a8fc8dc1c17c","system_id":"levelo_inurba_marseille","lat":43.25595,"lon":5.3822,"is_reserved":false,"is_disabled":false,"rental_uris":{"android":"levelo://app?vid=e1ac7173-4006-4271-b12d-a8fc8dc1c17c","ios":"levelo://app?vid=e1ac7173-4006-4271-b12d-a8fc8dc1c17c"},"vehicle_type_id":"4","last_reported":1778611744,"current_range_meters":6800,"station_id":"ce4bhih2rcd13ifvqfs0","pricing_plan_id":"cebpf4jnsgd1na2vs0mg"},{"bike_id":"75725c47-e454-42a5-8cf8-2bc3d3d2a647","system_id":"levelo_inurba_marseille","lat":43.28406,"lon":5.3753,"is_reserved":false,"is_disabled":false,"rental_uris":{"android":"levelo://app?vid=75725c47-e454-42a5-8cf8-2bc3d3d2a647","ios":"levelo://app?vid=75725c47-e454-42a5-8cf8-2bc3d3d2a647"},"vehicle_type_id":"4","last_reported":1778611744,"current_range_meters":6800,"station_id":"ce4bh412rcd13ifvqds0","pricing_plan_id":"cebpf4jnsgd1na2vs0mg"},{"bike_id":"4886c252-2728-4a7b-8055-7bc754291d67","system_id":"levelo_inurba_marseille","lat":43.26178,"lon":5.40377,"is_reserved":false,"is_disabled":false,"rental_uris":{"android":"levelo://app?vid=4886c252-2728-4a7b-8055-7bc754291d67","ios":"levelo://app?vid=4886c252-2728-4a7b-8055-7bc754291d67"},"vehicle_type_id":"4","last_reported":1778611744,"current_range_meters":7200,"station_id":"","pricing_plan_id":"cebpf4jnsgd1na2vs0mg"},{"bike_id":"d9666609-26f4-4f22-93cd-248424a7a105","system_id":"levelo_inurba_marseille","lat":43.30375,"lon":5.39792,"is_reserved":false,"is_disabled":false,"rental_uris":{"android":"levelo://app?vid=d9666609-26f4-4f22-93cd-248424a7a105","ios":"levelo://app?vid=d9666609-26f4-4f22-93cd-248424a7a105"},"vehicle_type_id":"4","last_reported":1778611744,"current_range_meters":7200,"station_id":"","pricing_plan_id":"cebpf4jnsgd1na2vs0mg"},{"bike_id":"3475ff7c-8307-4ea8-a7db-c52bf6b0da98","system_id":"levelo_inurba_marseille","lat":43.2953,"lon":5.38541,"is_reserved":false,"is_disabled":false,"rental_uris":{"android":"levelo://app?vid=3475ff7c-8307-4ea8-a7db-c52bf6b0da98","ios":"levelo://app?vid=3475ff7c-8307-4ea8-a7db-c52bf6b0da98"},"vehicle_type_id":"4","last_reported":1778611744,"current_range_meters":7200,"station_id":"ce4bgih2rcd13ifvqba0","pricing_plan_id":"cebpf4jnsgd1na2vs0mg"},{"bike_id":"8041a9e7-7ab4-4d1b-ace9-fc5ba24c4b93","system_id":"levelo_inurba_marseille","lat":43.22562,"lon":5.41622,"is_reserved":false,"is_disabled":false,"rental_uris":{"android":"levelo://app?vid=8041a9e7-7ab4-4d1b-ace9-fc5ba24c4b93","ios":"levelo://app?vid=8041a9e7-7ab4-4d1b-ace9-fc5ba24c4b93"},"vehicle_type_id":"4","last_reported":1778611744,"current_range_meters":7200,"station_id":"st_d2o4gvlbi1j2169b742g","pricing_plan_id":"cebpf4jnsgd1na2vs0mg"},{"bike_id":"f89dc7a0-fe47-41cb-ba00-70c80de88b25","system_id":"levelo_inurba_marseille","lat":43.24673,"lon":5.38152,"is_reserved":false,"is_disabled":false,"rental_uris":{"android":"levelo://app?vid=f89dc7a0-fe47-41cb-ba00-70c80de88b25","ios":"levelo://app?vid=f89dc7a0-fe47-41cb-ba00-70c80de88b25"},"vehicle_type_id":"4","last_reported":1778611744,"current_range_meters":7200,"station_id":"ce4bhih2rcd13ifvqfr0","pricing_plan_id":"cebpf4jnsgd1na2vs0mg"},{"bike_id":"1fb136bb-3cc6-48f7-af4f-974b5baf2852","system_id":"levelo_inurba_marseille","lat":43.23966,"lon":5.36631,"is_reserved":false,"is_disabled":true,"rental_uris":{"android":"levelo://app?vid=1fb136bb-3cc6-48f7-af4f-974b5baf2852","ios":"levelo://app?vid=1fb136bb-3cc6-48f7-af4f-974b5baf2852"},"vehicle_type_id":"4","last_reported":1778611744,"current_range_meters":7200,"station_id":"ce4bhi12rcd13ifvqfp0","pricing_plan_id":"cebpf4jnsgd1na2vs0mg"},{"bike_id":"38ae2b0f-3623-4776-8f73-02a2bd5cb856","system_id":"levelo_inurba_marseille","lat":43.31161,"lon":5.38698,"is_reserved":false,"is_disabled":false,"rental_uris":{"android":"levelo://app?vid=38ae2b0f-3623-4776-8f73-02a2bd5cb856","ios":"levelo://app?vid=38ae2b0f-3623-4776-8f73-02a2bd5cb856"},"vehicle_type_id":"4","last_reported":1778611744,"current_range_meters":7200,"station_id":"ce4bgv12rcd13ifvqcp0","pricing_plan_id":"cebpf4jnsgd1na2vs0mg"},{"bike_id":"77da0299-61ed-4586-ad63-53f57f7af2df","system_id":"levelo_inurba_marseille","lat":43.28154,"lon":5.42634,"is_reserved":false,"is_disabled":false,"rental_uris":{"android":"levelo://app?vid=77da0299-61ed-4586-ad63-53f57f7af2df","ios":"levelo://app?vid=77da0299-61ed-4586-ad63-53f57f7af2df"},"vehicle_type_id":"4","last_reported":1778611744,"current_range_meters":7200,"station_id":"ce4bhnh2rcd13ifvqgug","pricing_plan_id":"cebpf4jnsgd1na2vs0mg"},{"bike_id":"4c733966-71e1-46b9-81e1-8d24e59b65ce","system_id":"levelo_inurba_marseille","lat":43.225297,"lon":5.34839,"is_reserved":false,"is_disabled":true,"rental_uris":{"android":"levelo://app?vid=4c733966-71e1-46b9-81e1-8d24e59b65ce","ios":"levelo://app?vid=4c733966-71e1-46b9-81e1-8d24e59b65ce"},"vehicle_type_id":"4","last_reported":1778611744,"current_range_meters":7200,"station_id":"st_cvj5dfep6f1abm77gieg","pricing_plan_id":"cebpf4jnsgd1na2vs0mg"},{"bike_id":"436f1e8e-0b53-497c-9398-11b3c2f49470","system_id":"levelo_inurba_marseille","lat":43.29269,"lon":5.36833,"is_reserved":false,"is_disabled":false,"rental_uris":{"android":"levelo://app?vid=436f1e8e-0b53-497c-9398-11b3c2f49470","ios":"levelo://app?vid=436f1e8e-0b53-497c-9398-11b3c2f49470"},"vehicle_type_id":"4","last_reported":1778611744,"current_range_meters":7200,"station_id":"ce4bhbp2rcd13ifvqesg","pricing_plan_id":"cebpf4jnsgd1na2vs0mg"},{"bike_id":"5686450f-6069-4977-ad6d-72855d06931a","system_id":"levelo_inurba_marseille","lat":43.3044,"lon":5.38894,"is_reserved":false,"is_disabled":false,"rental_uris":{"android":"levelo://app?vid=5686450f-6069-4977-ad6d-72855d06931a","ios":"levelo://app?vid=5686450f-6069-4977-ad6d-72855d06931a"},"vehicle_type_id":"4","last_reported":1778611744,"current_range_meters":7200,"station_id":"ce4bgk12rcd13ifvqbi0","pricing_plan_id":"cebpf4jnsgd1na2vs0mg"},{"bike_id":"38e7ed3a-e131-499c-a796-9baf76f887f0","system_id":"levelo_inurba_marseille","lat":43.29638,"lon":5.3717,"is_reserved":false,"is_disabled":false,"rental_uris":{"android":"levelo://app?vid=38e7ed3a-e131-499c-a796-9baf76f887f0","ios":"levelo://app?vid=38e7ed3a-e131-499c-a796-9baf76f887f0"},"vehicle_type_id":"4","last_reported":1778611744,"current_range_meters":7200,"station_id":"ce4bgnh2rcd13ifvqc0g","pricing_plan_id":"cebpf4jnsgd1na2vs0mg"},{"bike_id":"9ec7114f-d53e-44a1-8e77-7962fad20a47","system_id":"levelo_inurba_marseille","lat":43.26212,"lon":5.37917,"is_reserved":false,"is_disabled":false,"rental_uris":{"android":"levelo://app?vid=9ec7114f-d53e-44a1-8e77-7962fad20a47","ios":"levelo://app?vid=9ec7114f-d53e-44a1-8e77-7962fad20a47"},"vehicle_type_id":"4","last_reported":1778611744,"current_range_meters":7200,"station_id":"ce4bhjp2rcd13ifvqg90","pricing_plan_id":"cebpf4jnsgd1na2vs0mg"},{"bike_id":"6bf5a739-c134-4744-be04-d26bd6e563cd","system_id":"levelo_inurba_marseille","lat":43.28426,"lon":5.35002,"is_reserved":false,"is_disabled":false,"rental_uris":{"android":"levelo://app?vid=6bf5a739-c134-4744-be04-d26bd6e563cd","ios":"levelo://app?vid=6bf5a739-c134-4744-be04-d26bd6e563cd"},"vehicle_type_id":"4","last_reported":1778611744,"current_range_meters":7200,"station_id":"ce4bhbh2rcd13ifvqepg","pricing_plan_id":"cebpf4jnsgd1na2vs0mg"},{"bike_id":"e170bc86-e044-4176-8a9f-d4933cb86173","system_id":"levelo_inurba_marseille","lat":43.26557,"lon":5.37271,"is_reserved":false,"is_disabled":false,"rental_uris":{"android":"levelo://app?vid=e170bc86-e044-4176-8a9f-d4933cb86173","ios":"levelo://app?vid=e170bc86-e044-4176-8a9f-d4933cb86173"},"vehicle_type_id":"4","last_reported":1778611744,"current_range_meters":7200,"station_id":"ce4bhg12rcd13ifvqf70","pricing_plan_id":"cebpf4jnsgd1na2vs0mg"},{"bike_id":"211cea86-71fd-43ef-9b6e-844e35d10a69","system_id":"levelo_inurba_marseille","lat":43.26239,"lon":5.3742,"is_reserved":false,"is_disabled":true,"rental_uris":{"android":"levelo://app?vid=211cea86-71fd-43ef-9b6e-844e35d10a69","ios":"levelo://app?vid=211cea86-71fd-43ef-9b6e-844e35d10a69"},"vehicle_type_id":"4","last_reported":1778611744,"current_range_meters":7200,"station_id":"ce4bhgp2rcd13ifvqfc0","pricing_plan_id":"cebpf4jnsgd1na2vs0mg"},{"bike_id":"1d86f100-9a11-4247-89c8-572e813b97d1","system_id":"levelo_inurba_marseille","lat":43.29882,"lon":5.389035,"is_reserved":false,"is_disabled":false,"rental_uris":{"android":"levelo://app?vid=1d86f100-9a11-4247-89c8-572e813b97d1","ios":"levelo://app?vid=1d86f100-9a11-4247-89c8-572e813b97d1"},"vehicle_type_id":"4","last_reported":1778611744,"current_range_meters":7200,"station_id":"ce4bh392rcd13ifvqdl0","pricing_plan_id":"cebpf4jnsgd1na2vs0mg"},{"bike_id":"1f48b412-d77a-4e97-87ed-3c0b5aa62ffd","system_id":"levelo_inurba_marseille","lat":43.29559,"lon":5.42293,"is_reserved":false,"is_disabled":false,"rental_uris":{"android":"levelo://app?vid=1f48b412-d77a-4e97-87ed-3c0b5aa62ffd","ios":"levelo://app?vid=1f48b412-d77a-4e97-87ed-3c0b5aa62ffd"},"vehicle_type_id":"4","last_reported":1778611744,"current_range_meters":7200,"station_id":"ce4bhph2rcd13ifvqhdg","pricing_plan_id":"cebpf4jnsgd1na2vs0mg"},{"bike_id":"bac17055-acdf-47ed-bc6e-1879fd64a6b2","system_id":"levelo_inurba_marseille","lat":43.28828,"lon":5.35863,"is_reserved":false,"is_disabled":false,"rental_uris":{"android":"levelo://app?vid=bac17055-acdf-47ed-bc6e-1879fd64a6b2","ios":"levelo://app?vid=bac17055-acdf-47ed-bc6e-1879fd64a6b2"},"vehicle_type_id":"4","last_reported":1778611744,"current_range_meters":7200,"station_id":"ce4bhb12rcd13ifvqem0","pricing_plan_id":"cebpf4jnsgd1na2vs0mg"},{"bike_id":"ab5c661d-c28c-488b-be15-a455466677ca","system_id":"levelo_inurba_marseille","lat":43.2681,"lon":5.40261,"is_reserved":false,"is_disabled":false,"rental_uris":{"android":"levelo://app?vid=ab5c661d-c28c-488b-be15-a455466677ca","ios":"levelo://app?vid=ab5c661d-c28c-488b-be15-a455466677ca"},"vehicle_type_id":"4","last_reported":1778611744,"current_range_meters":7200,"station_id":"ce501612rcd8frsf0b60","pricing_plan_id":"cebpf4jnsgd1na2vs0mg"},{"bike_id":"5459cdf2-2fdb-410b-aecc-d987bfe642b5","system_id":"levelo_inurba_marseille","lat":43.29256,"lon":5.38441,"is_reserved":false,"is_disabled":false,"rental_uris":{"android":"levelo://app?vid=5459cdf2-2fdb-410b-aecc-d987bfe642b5","ios":"levelo://app?vid=5459cdf2-2fdb-410b-aecc-d987bfe642b5"},"vehicle_type_id":"4","last_reported":1778611744,"current_range_meters":7200,"station_id":"ce4bh692rcd13ifvqea0","pricing_plan_id":"cebpf4jnsgd1na2vs0mg"},{"bike_id":"f12a4992-c642-46fe-9aa1-0b0e54c6c8cd","system_id":"levelo_inurba_marseille","lat":43.28718,"lon":5.37947,"is_reserved":false,"is_disabled":false,"rental_uris":{"android":"levelo://app?vid=f12a4992-c642-46fe-9aa1-0b0e54c6c8cd","ios":"levelo://app?vid=f12a4992-c642-46fe-9aa1-0b0e54c6c8cd"},"vehicle_type_id":"4","last_reported":1778611744,"current_range_meters":7200,"station_id":"ce4bh9p2rcd13ifvqec0","pricing_plan_id":"cebpf4jnsgd1na2vs0mg"},{"bike_id":"98e0c164-25e0-4416-b256-16d4e275db9e","system_id":"levelo_inurba_marseille","lat":43.28848,"lon":5.35852,"is_reserved":false,"is_disabled":false,"rental_uris":{"android":"levelo://app?vid=98e0c164-25e0-4416-b256-16d4e275db9e","ios":"levelo://app?vid=98e0c164-25e0-4416-b256-16d4e275db9e"},"vehicle_type_id":"4","last_reported":1778611744,"current_range_meters":7200,"station_id":"ce4bhb12rcd13ifvqem0","pricing_plan_id":"cebpf4jnsgd1na2vs0mg"},{"bike_id":"6049f75f-f08d-4c4c-8e6c-aa999316afb6","system_id":"levelo_inurba_marseille","lat":43.28412,"lon":5.34991,"is_reserved":false,"is_disabled":false,"rental_uris":{"android":"levelo://app?vid=6049f75f-f08d-4c4c-8e6c-aa999316afb6","ios":"levelo://app?vid=6049f75f-f08d-4c4c-8e6c-aa999316afb6"},"vehicle_type_id":"4","last_reported":1778611744,"current_range_meters":7200,"station_id":"ce4bhbh2rcd13ifvqepg","pricing_plan_id":"cebpf4jnsgd1na2vs0mg"},{"bike_id":"95aeb85c-cda5-4c76-841d-5978f9d16c4b","system_id":"levelo_inurba_marseille","lat":43.25578,"lon":5.38232,"is_reserved":false,"is_disabled":false,"rental_uris":{"android":"levelo://app?vid=95aeb85c-cda5-4c76-841d-5978f9d16c4b","ios":"levelo://app?vid=95aeb85c-cda5-4c76-841d-5978f9d16c4b"},"vehicle_type_id":"4","last_reported":1778611744,"current_range_meters":7200,"station_id":"ce4bhih2rcd13ifvqfs0","pricing_plan_id":"cebpf4jnsgd1na2vs0mg"},{"bike_id":"4be255e9-cd6d-4c75-affc-d9ecab43a512","system_id":"levelo_inurba_marseille","lat":43.28413,"lon":5.34981,"is_reserved":false,"is_disabled":false,"rental_uris":{"android":"levelo://app?vid=4be255e9-cd6d-4c75-affc-d9ecab43a512","ios":"levelo://app?vid=4be255e9-cd6d-4c75-affc-d9ecab43a512"},"vehicle_type_id":"4","last_reported":1778611744,"current_range_meters":8000,"station_id":"ce4bhbh2rcd13ifvqepg","pricing_plan_id":"cebpf4jnsgd1na2vs0mg"},{"bike_id":"0223251d-198e-4017-b662-7904632d9d62","system_id":"levelo_inurba_marseille","lat":43.29849,"lon":5.36284,"is_reserved":false,"is_disabled":false,"rental_uris":{"android":"levelo://app?vid=0223251d-198e-4017-b662-7904632d9d62","ios":"levelo://app?vid=0223251d-198e-4017-b662-7904632d9d62"},"vehicle_type_id":"4","last_reported":1778611744,"current_range_meters":8000,"station_id":"ce4bgpp2rcd13ifvqc3g","pricing_plan_id":"cebpf4jnsgd1na2vs0mg"},{"bike_id":"2282ecfd-c628-45ec-8328-685141867870","system_id":"levelo_inurba_marseille","lat":43.28936,"lon":5.36629,"is_reserved":false,"is_disabled":false,"rental_uris":{"android":"levelo://app?vid=2282ecfd-c628-45ec-8328-685141867870","ios":"levelo://app?vid=2282ecfd-c628-45ec-8328-685141867870"},"vehicle_type_id":"4","last_reported":1778611744,"current_range_meters":8000,"station_id":"ce4bhap2rcd13ifvqek0","pricing_plan_id":"cebpf4jnsgd1na2vs0mg"},{"bike_id":"9e96b002-81cd-415a-98a4-e1a7b7f21c14","system_id":"levelo_inurba_marseille","lat":43.29756,"lon":5.37707,"is_reserved":false,"is_disabled":false,"rental_uris":{"android":"levelo://app?vid=9e96b002-81cd-415a-98a4-e1a7b7f21c14","ios":"levelo://app?vid=9e96b002-81cd-415a-98a4-e1a7b7f21c14"},"vehicle_type_id":"4","last_reported":1778611744,"current_range_meters":8000,"station_id":"","pricing_plan_id":"cebpf4jnsgd1na2vs0mg"},{"bike_id":"0f510022-f6d2-4fa5-8d49-40208a602aac","system_id":"levelo_inurba_marseille","lat":43.291718,"lon":5.371547,"is_reserved":false,"is_disabled":false,"rental_uris":{"android":"levelo://app?vid=0f510022-f6d2-4fa5-8d49-40208a602aac","ios":"levelo://app?vid=0f510022-f6d2-4fa5-8d49-40208a602aac"},"vehicle_type_id":"4","last_reported":1778611744,"current_range_meters":8000,"station_id":"ce4bha92rcd13ifvqeh0","pricing_plan_id":"cebpf4jnsgd1na2vs0mg"},{"bike_id":"d257960a-edb4-4348-90b0-b5fd8baf1634","system_id":"levelo_inurba_marseille","lat":43.31699,"lon":5.3776,"is_reserved":false,"is_disabled":true,"rental_uris":{"android":"levelo://app?vid=d257960a-edb4-4348-90b0-b5fd8baf1634","ios":"levelo://app?vid=d257960a-edb4-4348-90b0-b5fd8baf1634"},"vehicle_type_id":"4","last_reported":1778611744,"current_range_meters":8000,"station_id":"ce4bgth2rcd13ifvqch0","pricing_plan_id":"cebpf4jnsgd1na2vs0mg"},{"bike_id":"d918fd26-365d-4f6c-b4cf-3b2b9ae06a97","system_id":"levelo_inurba_marseille","lat":43.28935,"lon":5.36622,"is_reserved":false,"is_disabled":false,"rental_uris":{"android":"levelo://app?vid=d918fd26-365d-4f6c-b4cf-3b2b9ae06a97","ios":"levelo://app?vid=d918fd26-365d-4f6c-b4cf-3b2b9ae06a97"},"vehicle_type_id":"4","last_reported":1778611744,"current_range_meters":8000,"station_id":"ce4bhap2rcd13ifvqek0","pricing_plan_id":"cebpf4jnsgd1na2vs0mg"},{"bike_id":"c67b1e85-dd94-4fd4-906a-39a37fe14bf9","system_id":"levelo_inurba_marseille","lat":43.29808,"lon":5.38081,"is_reserved":false,"is_disabled":false,"rental_uris":{"android":"levelo://app?vid=c67b1e85-dd94-4fd4-906a-39a37fe14bf9","ios":"levelo://app?vid=c67b1e85-dd94-4fd4-906a-39a37fe14bf9"},"vehicle_type_id":"4","last_reported":1778611744,"current_range_meters":8000,"station_id":"ce4bgip2rcd13ifvqbb0","pricing_plan_id":"cebpf4jnsgd1na2vs0mg"},{"bike_id":"c01848ef-4a4f-4787-94ff-17e4748bdfbd","system_id":"levelo_inurba_marseille","lat":43.29772,"lon":5.38023,"is_reserved":false,"is_disabled":false,"rental_uris":{"android":"levelo://app?vid=c01848ef-4a4f-4787-94ff-17e4748bdfbd","ios":"levelo://app?vid=c01848ef-4a4f-4787-94ff-17e4748bdfbd"},"vehicle_type_id":"4","last_reported":1778611744,"current_range_meters":8000,"station_id":"ce4bgip2rcd13ifvqbb0","pricing_plan_id":"cebpf4jnsgd1na2vs0mg"},{"bike_id":"ead7d1b0-e818-43db-be9b-f1e197244cc5","system_id":"levelo_inurba_marseille","lat":43.28483,"lon":5.35903,"is_reserved":false,"is_disabled":false,"rental_uris":{"android":"levelo://app?vid=ead7d1b0-e818-43db-be9b-f1e197244cc5","ios":"levelo://app?vid=ead7d1b0-e818-43db-be9b-f1e197244cc5"},"vehicle_type_id":"4","last_reported":1778611744,"current_range_meters":8000,"station_id":"ce4bhah2rcd13ifvqei0","pricing_plan_id":"cebpf4jnsgd1na2vs0mg"},{"bike_id":"fb3632df-1693-4301-958e-29af2256c9ec","system_id":"levelo_inurba_marseille","lat":43.298648,"lon":5.36298,"is_reserved":false,"is_disabled":false,"rental_uris":{"android":"levelo://app?vid=fb3632df-1693-4301-958e-29af2256c9ec","ios":"levelo://app?vid=fb3632df-1693-4301-958e-29af2256c9ec"},"vehicle_type_id":"4","last_reported":1778611744,"current_range_meters":8000,"station_id":"ce4bgpp2rcd13ifvqc3g","pricing_plan_id":"cebpf4jnsgd1na2vs0mg"},{"bike_id":"5109371d-deff-422b-86a5-3abdb2483a17","system_id":"levelo_inurba_marseille","lat":43.28453,"lon":5.35894,"is_reserved":false,"is_disabled":false,"rental_uris":{"android":"levelo://app?vid=5109371d-deff-422b-86a5-3abdb2483a17","ios":"levelo://app?vid=5109371d-deff-422b-86a5-3abdb2483a17"},"vehicle_type_id":"4","last_reported":1778611744,"current_range_meters":8000,"station_id":"ce4bhah2rcd13ifvqei0","pricing_plan_id":"cebpf4jnsgd1na2vs0mg"},{"bike_id":"31f31943-354b-4e98-a99d-f4b16f6c8585","system_id":"levelo_inurba_marseille","lat":43.29155,"lon":5.37165,"is_reserved":false,"is_disabled":false,"rental_uris":{"android":"levelo://app?vid=31f31943-354b-4e98-a99d-f4b16f6c8585","ios":"levelo://app?vid=31f31943-354b-4e98-a99d-f4b16f6c8585"},"vehicle_type_id":"4","last_reported":1778611744,"current_range_meters":8000,"station_id":"ce4bha92rcd13ifvqeh0","pricing_plan_id":"cebpf4jnsgd1na2vs0mg"},{"bike_id":"968bd718-2cba-4aae-9173-051f86abc5ac","system_id":"levelo_inurba_marseille","lat":43.29533,"lon":5.38541,"is_reserved":false,"is_disabled":false,"rental_uris":{"android":"levelo://app?vid=968bd718-2cba-4aae-9173-051f86abc5ac","ios":"levelo://app?vid=968bd718-2cba-4aae-9173-051f86abc5ac"},"vehicle_type_id":"4","last_reported":1778611744,"current_range_meters":8000,"station_id":"ce4bgih2rcd13ifvqba0","pricing_plan_id":"cebpf4jnsgd1na2vs0mg"},{"bike_id":"b72a70a5-8e75-48c6-9924-805f07d28cf5","system_id":"levelo_inurba_marseille","lat":43.28158,"lon":5.42654,"is_reserved":false,"is_disabled":false,"rental_uris":{"android":"levelo://app?vid=b72a70a5-8e75-48c6-9924-805f07d28cf5","ios":"levelo://app?vid=b72a70a5-8e75-48c6-9924-805f07d28cf5"},"vehicle_type_id":"4","last_reported":1778611744,"current_range_meters":8000,"station_id":"ce4bhnh2rcd13ifvqgug","pricing_plan_id":"cebpf4jnsgd1na2vs0mg"},{"bike_id":"7d495a91-4757-4bd7-b72f-ad237a9371f1","system_id":"levelo_inurba_marseille","lat":43.21179,"lon":5.35086,"is_reserved":false,"is_disabled":false,"rental_uris":{"android":"levelo://app?vid=7d495a91-4757-4bd7-b72f-ad237a9371f1","ios":"levelo://app?vid=7d495a91-4757-4bd7-b72f-ad237a9371f1"},"vehicle_type_id":"4","last_reported":1778611744,"current_range_meters":8000,"station_id":"st_cvj6sg6p6f1abm77japg","pricing_plan_id":"cebpf4jnsgd1na2vs0mg"},{"bike_id":"b1282a1a-3bfa-42c2-ae41-37d67a1ed674","system_id":"levelo_inurba_marseille","lat":43.26024,"lon":5.37548,"is_reserved":false,"is_disabled":false,"rental_uris":{"android":"levelo://app?vid=b1282a1a-3bfa-42c2-ae41-37d67a1ed674","ios":"levelo://app?vid=b1282a1a-3bfa-42c2-ae41-37d67a1ed674"},"vehicle_type_id":"4","last_reported":1778611744,"current_range_meters":8400,"station_id":"ce4bhgh2rcd13ifvqfa0","pricing_plan_id":"cebpf4jnsgd1na2vs0mg"},{"bike_id":"076b8b25-32f2-44ed-9aec-b4a4ccc49598","system_id":"levelo_inurba_marseille","lat":43.2979,"lon":5.38106,"is_reserved":false,"is_disabled":true,"rental_uris":{"android":"levelo://app?vid=076b8b25-32f2-44ed-9aec-b4a4ccc49598","ios":"levelo://app?vid=076b8b25-32f2-44ed-9aec-b4a4ccc49598"},"vehicle_type_id":"4","last_reported":1778611744,"current_range_meters":8400,"station_id":"ce4bgip2rcd13ifvqbb0","pricing_plan_id":"cebpf4jnsgd1na2vs0mg"},{"bike_id":"7f544ac5-68fb-4a29-9e12-cad51a0ee553","system_id":"levelo_inurba_marseille","lat":43.30339,"lon":5.39233,"is_reserved":false,"is_disabled":false,"rental_uris":{"android":"levelo://app?vid=7f544ac5-68fb-4a29-9e12-cad51a0ee553","ios":"levelo://app?vid=7f544ac5-68fb-4a29-9e12-cad51a0ee553"},"vehicle_type_id":"4","last_reported":1778611744,"current_range_meters":8400,"station_id":"ce4bgkh2rcd13ifvqbk0","pricing_plan_id":"cebpf4jnsgd1na2vs0mg"},{"bike_id":"2228edbb-537f-4b43-855a-81875c843c5a","system_id":"levelo_inurba_marseille","lat":43.30644,"lon":5.36588,"is_reserved":false,"is_disabled":false,"rental_uris":{"android":"levelo://app?vid=2228edbb-537f-4b43-855a-81875c843c5a","ios":"levelo://app?vid=2228edbb-537f-4b43-855a-81875c843c5a"},"vehicle_type_id":"4","last_reported":1778611744,"current_range_meters":8400,"station_id":"","pricing_plan_id":"cebpf4jnsgd1na2vs0mg"},{"bike_id":"59a6e24a-9db4-402e-8b5e-049f3595c118","system_id":"levelo_inurba_marseille","lat":43.295674,"lon":5.39968,"is_reserved":false,"is_disabled":true,"rental_uris":{"android":"levelo://app?vid=59a6e24a-9db4-402e-8b5e-049f3595c118","ios":"levelo://app?vid=59a6e24a-9db4-402e-8b5e-049f3595c118"},"vehicle_type_id":"4","last_reported":1778611744,"current_range_meters":8400,"station_id":"ce4bh312rcd13ifvqdj0","pricing_plan_id":"cebpf4jnsgd1na2vs0mg"},{"bike_id":"f2cb0a19-1030-4a33-8e5a-97914f8f04d7","system_id":"levelo_inurba_marseille","lat":43.30092,"lon":5.39075,"is_reserved":false,"is_disabled":false,"rental_uris":{"android":"levelo://app?vid=f2cb0a19-1030-4a33-8e5a-97914f8f04d7","ios":"levelo://app?vid=f2cb0a19-1030-4a33-8e5a-97914f8f04d7"},"vehicle_type_id":"4","last_reported":1778611744,"current_range_meters":8400,"station_id":"ce4bh192rcd13ifvqdb0","pricing_plan_id":"cebpf4jnsgd1na2vs0mg"},{"bike_id":"1dec4592-f318-4ccc-9124-479c7e8f7178","system_id":"levelo_inurba_marseille","lat":43.29204,"lon":5.38403,"is_reserved":false,"is_disabled":false,"rental_uris":{"android":"levelo://app?vid=1dec4592-f318-4ccc-9124-479c7e8f7178","ios":"levelo://app?vid=1dec4592-f318-4ccc-9124-479c7e8f7178"},"vehicle_type_id":"4","last_reported":1778611744,"current_range_meters":8400,"station_id":"","pricing_plan_id":"cebpf4jnsgd1na2vs0mg"},{"bike_id":"49c64e2d-5ad4-42ec-b49c-78bc88a07c4c","system_id":"levelo_inurba_marseille","lat":43.25405,"lon":5.38339,"is_reserved":false,"is_disabled":false,"rental_uris":{"android":"levelo://app?vid=49c64e2d-5ad4-42ec-b49c-78bc88a07c4c","ios":"levelo://app?vid=49c64e2d-5ad4-42ec-b49c-78bc88a07c4c"},"vehicle_type_id":"4","last_reported":1778611744,"current_range_meters":8400,"station_id":"","pricing_plan_id":"cebpf4jnsgd1na2vs0mg"},{"bike_id":"12831884-053b-433a-b0e0-7a11953437fd","system_id":"levelo_inurba_marseille","lat":43.28411,"lon":5.34992,"is_reserved":false,"is_disabled":false,"rental_uris":{"android":"levelo://app?vid=12831884-053b-433a-b0e0-7a11953437fd","ios":"levelo://app?vid=12831884-053b-433a-b0e0-7a11953437fd"},"vehicle_type_id":"4","last_reported":1778611744,"current_range_meters":8400,"station_id":"ce4bhbh2rcd13ifvqepg","pricing_plan_id":"cebpf4jnsgd1na2vs0mg"},{"bike_id":"8f6c32da-c3fe-45ee-93b9-a1d32e0baa32","system_id":"levelo_inurba_marseille","lat":43.29015,"lon":5.35608,"is_reserved":false,"is_disabled":false,"rental_uris":{"android":"levelo://app?vid=8f6c32da-c3fe-45ee-93b9-a1d32e0baa32","ios":"levelo://app?vid=8f6c32da-c3fe-45ee-93b9-a1d32e0baa32"},"vehicle_type_id":"4","last_reported":1778611744,"current_range_meters":8400,"station_id":"ce4bhb92rcd13ifvqen0","pricing_plan_id":"cebpf4jnsgd1na2vs0mg"},{"bike_id":"c57b9d8b-726c-424e-a5d4-cee105e1ed0e","system_id":"levelo_inurba_marseille","lat":43.26205,"lon":5.37945,"is_reserved":false,"is_disabled":false,"rental_uris":{"android":"levelo://app?vid=c57b9d8b-726c-424e-a5d4-cee105e1ed0e","ios":"levelo://app?vid=c57b9d8b-726c-424e-a5d4-cee105e1ed0e"},"vehicle_type_id":"4","last_reported":1778611744,"current_range_meters":8400,"station_id":"ce4bhjp2rcd13ifvqg90","pricing_plan_id":"cebpf4jnsgd1na2vs0mg"},{"bike_id":"9adf12da-a066-47bc-88ed-df17ebb4f248","system_id":"levelo_inurba_marseille","lat":43.28472,"lon":5.38411,"is_reserved":false,"is_disabled":false,"rental_uris":{"android":"levelo://app?vid=9adf12da-a066-47bc-88ed-df17ebb4f248","ios":"levelo://app?vid=9adf12da-a066-47bc-88ed-df17ebb4f248"},"vehicle_type_id":"4","last_reported":1778611744,"current_range_meters":8400,"station_id":"ce4bh512rcd13ifvqe3g","pricing_plan_id":"cebpf4jnsgd1na2vs0mg"},{"bike_id":"2978f96a-e193-46cd-81f8-9f46fefbcf17","system_id":"levelo_inurba_marseille","lat":43.28639,"lon":5.35101,"is_reserved":false,"is_disabled":false,"rental_uris":{"android":"levelo://app?vid=2978f96a-e193-46cd-81f8-9f46fefbcf17","ios":"levelo://app?vid=2978f96a-e193-46cd-81f8-9f46fefbcf17"},"vehicle_type_id":"4","last_reported":1778611744,"current_range_meters":8400,"station_id":"ce4bhch2rcd13ifvqeug","pricing_plan_id":"cebpf4jnsgd1na2vs0mg"},{"bike_id":"53c3731c-6f39-49cc-9bdc-d53bb71201eb","system_id":"levelo_inurba_marseille","lat":43.30648,"lon":5.40105,"is_reserved":false,"is_disabled":false,"rental_uris":{"android":"levelo://app?vid=53c3731c-6f39-49cc-9bdc-d53bb71201eb","ios":"levelo://app?vid=53c3731c-6f39-49cc-9bdc-d53bb71201eb"},"vehicle_type_id":"4","last_reported":1778611744,"current_range_meters":8400,"station_id":"ce4bh112rcd13ifvqda0","pricing_plan_id":"cebpf4jnsgd1na2vs0mg"},{"bike_id":"b46a0f98-e3f8-4ed9-a045-b781b0ee8c44","system_id":"levelo_inurba_marseille","lat":43.2952,"lon":5.38549,"is_reserved":false,"is_disabled":false,"rental_uris":{"android":"levelo://app?vid=b46a0f98-e3f8-4ed9-a045-b781b0ee8c44","ios":"levelo://app?vid=b46a0f98-e3f8-4ed9-a045-b781b0ee8c44"},"vehicle_type_id":"4","last_reported":1778611744,"current_range_meters":8400,"station_id":"ce4bgih2rcd13ifvqba0","pricing_plan_id":"cebpf4jnsgd1na2vs0mg"},{"bike_id":"2e172c73-8fd7-4fc9-a807-804ce0f5a8bb","system_id":"levelo_inurba_marseille","lat":43.31383,"lon":5.38498,"is_reserved":false,"is_disabled":false,"rental_uris":{"android":"levelo://app?vid=2e172c73-8fd7-4fc9-a807-804ce0f5a8bb","ios":"levelo://app?vid=2e172c73-8fd7-4fc9-a807-804ce0f5a8bb"},"vehicle_type_id":"4","last_reported":1778611744,"current_range_meters":8400,"station_id":"ce4bgt92rcd13ifvqcf0","pricing_plan_id":"cebpf4jnsgd1na2vs0mg"},{"bike_id":"00f9e8e9-a796-4063-972a-6a13a52bcfd2","system_id":"levelo_inurba_marseille","lat":43.28661,"lon":5.36257,"is_reserved":false,"is_disabled":false,"rental_uris":{"android":"levelo://app?vid=00f9e8e9-a796-4063-972a-6a13a52bcfd2","ios":"levelo://app?vid=00f9e8e9-a796-4063-972a-6a13a52bcfd2"},"vehicle_type_id":"4","last_reported":1778611744,"current_range_meters":8400,"station_id":"","pricing_plan_id":"cebpf4jnsgd1na2vs0mg"},{"bike_id":"18555411-8074-4241-9d04-dd40a3e53119","system_id":"levelo_inurba_marseille","lat":43.28422,"lon":5.34975,"is_reserved":false,"is_disabled":false,"rental_uris":{"android":"levelo://app?vid=18555411-8074-4241-9d04-dd40a3e53119","ios":"levelo://app?vid=18555411-8074-4241-9d04-dd40a3e53119"},"vehicle_type_id":"4","last_reported":1778611744,"current_range_meters":8400,"station_id":"ce4bhbh2rcd13ifvqepg","pricing_plan_id":"cebpf4jnsgd1na2vs0mg"},{"bike_id":"8ace25d5-4c65-47fe-b8a8-5f63e98a1e13","system_id":"levelo_inurba_marseille","lat":43.31179,"lon":5.38711,"is_reserved":false,"is_disabled":false,"rental_uris":{"android":"levelo://app?vid=8ace25d5-4c65-47fe-b8a8-5f63e98a1e13","ios":"levelo://app?vid=8ace25d5-4c65-47fe-b8a8-5f63e98a1e13"},"vehicle_type_id":"4","last_reported":1778611744,"current_range_meters":8400,"station_id":"ce4bgv12rcd13ifvqcp0","pricing_plan_id":"cebpf4jnsgd1na2vs0mg"},{"bike_id":"bb1f042a-dd09-4990-87ad-6dc666ba8a41","system_id":"levelo_inurba_marseille","lat":43.27614,"lon":5.3611,"is_reserved":false,"is_disabled":false,"rental_uris":{"android":"levelo://app?vid=bb1f042a-dd09-4990-87ad-6dc666ba8a41","ios":"levelo://app?vid=bb1f042a-dd09-4990-87ad-6dc666ba8a41"},"vehicle_type_id":"4","last_reported":1778611744,"current_range_meters":8400,"station_id":"ce4bgj92rcd13ifvqbe0","pricing_plan_id":"cebpf4jnsgd1na2vs0mg"},{"bike_id":"887c60c7-2918-4a1d-b626-e2afb6ee2254","system_id":"levelo_inurba_marseille","lat":43.32498,"lon":5.38315,"is_reserved":false,"is_disabled":false,"rental_uris":{"android":"levelo://app?vid=887c60c7-2918-4a1d-b626-e2afb6ee2254","ios":"levelo://app?vid=887c60c7-2918-4a1d-b626-e2afb6ee2254"},"vehicle_type_id":"4","last_reported":1778611744,"current_range_meters":8400,"station_id":"st_d4asgbiv49dc73anf9m0","pricing_plan_id":"cebpf4jnsgd1na2vs0mg"},{"bike_id":"33a0b4db-be07-458c-91c4-afc65fea5c6e","system_id":"levelo_inurba_marseille","lat":43.2509,"lon":5.37619,"is_reserved":false,"is_disabled":false,"rental_uris":{"android":"levelo://app?vid=33a0b4db-be07-458c-91c4-afc65fea5c6e","ios":"levelo://app?vid=33a0b4db-be07-458c-91c4-afc65fea5c6e"},"vehicle_type_id":"4","last_reported":1778611744,"current_range_meters":8400,"station_id":"","pricing_plan_id":"cebpf4jnsgd1na2vs0mg"},{"bike_id":"fe05840d-fbf6-4459-a552-860cb30bbc2e","system_id":"levelo_inurba_marseille","lat":43.28466,"lon":5.35895,"is_reserved":false,"is_disabled":false,"rental_uris":{"android":"levelo://app?vid=fe05840d-fbf6-4459-a552-860cb30bbc2e","ios":"levelo://app?vid=fe05840d-fbf6-4459-a552-860cb30bbc2e"},"vehicle_type_id":"4","last_reported":1778611744,"current_range_meters":8400,"station_id":"ce4bhah2rcd13ifvqei0","pricing_plan_id":"cebpf4jnsgd1na2vs0mg"},{"bike_id":"b6da4a61-eef8-4590-a30c-5d4218354e88","system_id":"levelo_inurba_marseille","lat":43.28201,"lon":5.3542,"is_reserved":false,"is_disabled":false,"rental_uris":{"android":"levelo://app?vid=b6da4a61-eef8-4590-a30c-5d4218354e88","ios":"levelo://app?vid=b6da4a61-eef8-4590-a30c-5d4218354e88"},"vehicle_type_id":"4","last_reported":1778611744,"current_range_meters":8400,"station_id":"","pricing_plan_id":"cebpf4jnsgd1na2vs0mg"},{"bike_id":"19e877fd-e015-4a86-8008-1a0d333eea65","system_id":"levelo_inurba_marseille","lat":43.3354,"lon":5.37475,"is_reserved":false,"is_disabled":false,"rental_uris":{"android":"levelo://app?vid=19e877fd-e015-4a86-8008-1a0d333eea65","ios":"levelo://app?vid=19e877fd-e015-4a86-8008-1a0d333eea65"},"vehicle_type_id":"4","last_reported":1778611744,"current_range_meters":8800,"station_id":"st_d46tts09ee8s73dlu43g","pricing_plan_id":"cebpf4jnsgd1na2vs0mg"},{"bike_id":"34ade284-ba04-4bdd-9325-b820a7b1a25c","system_id":"levelo_inurba_marseille","lat":43.238953,"lon":5.365378,"is_reserved":false,"is_disabled":false,"rental_uris":{"android":"levelo://app?vid=34ade284-ba04-4bdd-9325-b820a7b1a25c","ios":"levelo://app?vid=34ade284-ba04-4bdd-9325-b820a7b1a25c"},"vehicle_type_id":"4","last_reported":1778611744,"current_range_meters":8800,"station_id":"ce4bhi12rcd13ifvqfp0","pricing_plan_id":"cebpf4jnsgd1na2vs0mg"},{"bike_id":"b477be1e-64c7-4e90-bc42-6fe97cda14a2","system_id":"levelo_inurba_marseille","lat":43.29837,"lon":5.42092,"is_reserved":false,"is_disabled":false,"rental_uris":{"android":"levelo://app?vid=b477be1e-64c7-4e90-bc42-6fe97cda14a2","ios":"levelo://app?vid=b477be1e-64c7-4e90-bc42-6fe97cda14a2"},"vehicle_type_id":"4","last_reported":1778611744,"current_range_meters":8800,"station_id":"","pricing_plan_id":"cebpf4jnsgd1na2vs0mg"},{"bike_id":"1602c824-ae5a-4f68-ae9a-a09d00daa24b","system_id":"levelo_inurba_marseille","lat":43.2255,"lon":5.34869,"is_reserved":false,"is_disabled":true,"rental_uris":{"android":"levelo://app?vid=1602c824-ae5a-4f68-ae9a-a09d00daa24b","ios":"levelo://app?vid=1602c824-ae5a-4f68-ae9a-a09d00daa24b"},"vehicle_type_id":"4","last_reported":1778611744,"current_range_meters":8800,"station_id":"st_cvj5dfep6f1abm77gieg","pricing_plan_id":"cebpf4jnsgd1na2vs0mg"},{"bike_id":"2aaf8d3d-dddc-4659-85e7-34b3b97fa5bc","system_id":"levelo_inurba_marseille","lat":43.21198,"lon":5.35069,"is_reserved":false,"is_disabled":false,"rental_uris":{"android":"levelo://app?vid=2aaf8d3d-dddc-4659-85e7-34b3b97fa5bc","ios":"levelo://app?vid=2aaf8d3d-dddc-4659-85e7-34b3b97fa5bc"},"vehicle_type_id":"4","last_reported":1778611744,"current_range_meters":8800,"station_id":"st_cvj6sg6p6f1abm77japg","pricing_plan_id":"cebpf4jnsgd1na2vs0mg"},{"bike_id":"f915b850-cfc7-49b5-8ad0-d9207a829577","system_id":"levelo_inurba_marseille","lat":43.28655,"lon":5.36335,"is_reserved":false,"is_disabled":false,"rental_uris":{"android":"levelo://app?vid=f915b850-cfc7-49b5-8ad0-d9207a829577","ios":"levelo://app?vid=f915b850-cfc7-49b5-8ad0-d9207a829577"},"vehicle_type_id":"4","last_reported":1778611744,"current_range_meters":8800,"station_id":"ce4bhah2rcd13ifvqej0","pricing_plan_id":"cebpf4jnsgd1na2vs0mg"},{"bike_id":"4196c41d-8bac-4f59-809d-20c5bacf0921","system_id":"levelo_inurba_marseille","lat":43.28664,"lon":5.46655,"is_reserved":false,"is_disabled":false,"rental_uris":{"android":"levelo://app?vid=4196c41d-8bac-4f59-809d-20c5bacf0921","ios":"levelo://app?vid=4196c41d-8bac-4f59-809d-20c5bacf0921"},"vehicle_type_id":"4","last_reported":1778611744,"current_range_meters":8800,"station_id":"st_d6tc3vkotcvc738tfjhg","pricing_plan_id":"cebpf4jnsgd1na2vs0mg"},{"bike_id":"ab7def00-58ea-46ef-ac7c-3b1d6ff6ba30","system_id":"levelo_inurba_marseille","lat":43.29603,"lon":5.37734,"is_reserved":false,"is_disabled":false,"rental_uris":{"android":"levelo://app?vid=ab7def00-58ea-46ef-ac7c-3b1d6ff6ba30","ios":"levelo://app?vid=ab7def00-58ea-46ef-ac7c-3b1d6ff6ba30"},"vehicle_type_id":"4","last_reported":1778611744,"current_range_meters":8800,"station_id":"ce4bgi92rcd13ifvqb90","pricing_plan_id":"cebpf4jnsgd1na2vs0mg"},{"bike_id":"2a6fe7fe-2451-4ede-8fc6-0da3ab1a70a9","system_id":"levelo_inurba_marseille","lat":43.23199,"lon":5.35546,"is_reserved":false,"is_disabled":false,"rental_uris":{"android":"levelo://app?vid=2a6fe7fe-2451-4ede-8fc6-0da3ab1a70a9","ios":"levelo://app?vid=2a6fe7fe-2451-4ede-8fc6-0da3ab1a70a9"},"vehicle_type_id":"4","last_reported":1778611744,"current_range_meters":8800,"station_id":"ce4bhu92rcd13ifvqi70","pricing_plan_id":"cebpf4jnsgd1na2vs0mg"},{"bike_id":"908cf990-7a0d-42fa-9fba-f0da4ae84b10","system_id":"levelo_inurba_marseille","lat":43.26564,"lon":5.40331,"is_reserved":false,"is_disabled":false,"rental_uris":{"android":"levelo://app?vid=908cf990-7a0d-42fa-9fba-f0da4ae84b10","ios":"levelo://app?vid=908cf990-7a0d-42fa-9fba-f0da4ae84b10"},"vehicle_type_id":"4","last_reported":1778611744,"current_range_meters":8800,"station_id":"ce4bhmp2rcd13ifvqgng","pricing_plan_id":"cebpf4jnsgd1na2vs0mg"},{"bike_id":"5c68bf19-7c09-4d57-af2b-c9815bbfdf8e","system_id":"levelo_inurba_marseille","lat":43.2901,"lon":5.35607,"is_reserved":false,"is_disabled":false,"rental_uris":{"android":"levelo://app?vid=5c68bf19-7c09-4d57-af2b-c9815bbfdf8e","ios":"levelo://app?vid=5c68bf19-7c09-4d57-af2b-c9815bbfdf8e"},"vehicle_type_id":"4","last_reported":1778611744,"current_range_meters":8800,"station_id":"ce4bhb92rcd13ifvqen0","pricing_plan_id":"cebpf4jnsgd1na2vs0mg"},