{"last_updated":1687543770,"ttl":30,"version":"2.2","data":{"bikes":[{"bike_id":"432e353f-5294-475f-9eb5-e939a20eeb97","system_id":"levelo_inurba_marseille","lat":43.31192,"lon":5.36765,"is_reserved":false,"is_disabled":false,"rental_uris":{"android":"levelo://app?vid=432e353f-5294-475f-9eb5-e939a20eeb97","ios":"levelo://app?vid=432e353f-5294-475f-9eb5-e939a20eeb97"},"vehicle_type_id":"4","last_reported":1687543771,"current_range_meters":8000,"station_id":"","pricing_plan_id":"free"},{"bike_id":"e921e2f0-6a39-480b-bf0c-b243b56db471","system_id":"levelo_inurba_marseille","lat":43.312239,"lon":5.368562,"is_reserved":false,"is_disabled":false,"rental_uris":{"android":"levelo://app?vid=e921e2f0-6a39-480b-bf0c-b243b56db471","ios":"levelo://app?vid=e921e2f0-6a39-480b-bf0c-b243b56db471"},"vehicle_type_id":"4","last_reported":1687543771,"current_range_meters":5600,"station_id":"ce4bgl92rcd13ifvqbq0","pricing_plan_id":"free"},{"bike_id":"d479bdd2-7a3c-4933-bac9-b2b688ce5bda","system_id":"levelo_inurba_marseille","lat":43.309076,"lon":5.368465,"is_reserved":false,"is_disabled":false,"rental_uris":{"android":"levelo://app?vid=d479bdd2-7a3c-4933-bac9-b2b688ce5bda","ios":"levelo://app?vid=d479bdd2-7a3c-4933-bac9-b2b688ce5bda"},"vehicle_type_id":"4","last_reported":1687543771,"current_range_meters":0,"station_id":"ce4bgn92rcd13ifvqbvg","pricing_plan_id":"free"},{"bike_id":"48e04cfc-14df-46fc-a333-57c8a93d231b","system_id":"levelo_inurba_marseille","lat":43.309076,"lon":5.368465,"is_reserved":false,"is_disabled":false,"rental_uris":{"android":"levelo://app?vid=48e04cfc-14df-46fc-a333-57c8a93d231b","ios":"levelo://app?vid=48e04cfc-14df-46fc-a333-57c8a93d231b"},"vehicle_type_id":"4","last_reported":1687543771,"current_range_meters":400,"station_id":"ce4bgn92rcd13ifvqbvg","pricing_plan_id":"free"},{"bike_id":"37c432a5-d97d-4508-b050-c621e46bcc6e","system_id":"levelo_inurba_marseille","lat":43.30937,"lon":5.37264,"is_reserved":false,"is_disabled":false,"rental_uris":{"android":"levelo://app?vid=37c432a5-d97d-4508-b050-c621e46bcc6e","ios":"levelo://app?vid=37c432a5-d97d-4508-b050-c621e46bcc6e"},"vehicle_type_id":"4","last_reported":1687543771,"current_range_meters":30400,"station_id":"","pricing_plan_id":"free"},{"bike_id":"e951f850-40be-401f-a11b-fdf4c2a710d2","system_id":"levelo_inurba_marseille","lat":43.308606,"lon":5.372099,"is_reserved":false,"is_disabled":false,"rental_uris":{"android":"levelo://app?vid=e951f850-40be-401f-a11b-fdf4c2a710d2","ios":"levelo://app?vid=e951f850-40be-401f-a11b-fdf4c2a710d2"},"vehicle_type_id":"4","last_reported":1687543771,"current_range_meters":2000,"station_id":"ce4bguh2rcd13ifvqckg","pricing_plan_id":"free"},{"bike_id":"ebc21c7c-3563-4864-8cec-82c8fd068d89","system_id":"levelo_inurba_marseille","lat":43.30547,"lon":5.36697,"is_reserved":false,"is_disabled":false,"rental_uris":{"android":"levelo://app?vid=ebc21c7c-3563-4864-8cec-82c8fd068d89","ios":"levelo://app?vid=ebc21c7c-3563-4864-8cec-82c8fd068d89"},"vehicle_type_id":"4","last_reported":1687543771,"current_range_meters":31200,"station_id":"","pricing_plan_id":"free"},{"bike_id":"f540d32f-3f16-4de2-84c0-7b11fd586ef5","system_id":"levelo_inurba_marseille","lat":43.305989,"lon":5.37225,"is_reserved":false,"is_disabled":false,"rental_uris":{"android":"levelo://app?vid=f540d32f-3f16-4de2-84c0-7b11fd586ef5","ios":"levelo://app?vid=f540d32f-3f16-4de2-84c0-7b11fd586ef5"},"vehicle_type_id":"4","last_reported":1687543771,"current_range_meters":26800,"station_id":"ce4bgqh2rcd13ifvqc4g","pricing_plan_id":"free"},{"bike_id":"e478b866-1fd2-4185-8b4e-ae4d820ffc86","system_id":"levelo_inurba_marseille","lat":43.311131,"lon":5.377651,"is_reserved":false,"is_disabled":false,"rental_uris":{"android":"levelo://app?vid=e478b866-1fd2-4185-8b4e-ae4d820ffc86","ios":"levelo://app?vid=e478b866-1fd2-4185-8b4e-ae4d820ffc86"},"vehicle_type_id":"4","last_reported":1687543771,"current_range_meters":18000,"station_id":"ce4bgt92rcd13ifvqcg0","pricing_plan_id":"free"},{"bike_id":"62588b6d-5a5c-450d-a9c2-dab8b3fde5dc","system_id":"levelo_inurba_marseille","lat":43.317075,"lon":5.377367,"is_reserved":false,"is_disabled":false,"rental_uris":{"android":"levelo://app?vid=62588b6d-5a5c-450d-a9c2-dab8b3fde5dc","ios":"levelo://app?vid=62588b6d-5a5c-450d-a9c2-dab8b3fde5dc"},"vehicle_type_id":"4","last_reported":1687543771,"current_range_meters":20400,"station_id":"ce4bgth2rcd13ifvqch0","pricing_plan_id":"free"},{"bike_id":"d9c301f9-baa9-4f52-a950-cc8a27d76de8","system_id":"levelo_inurba_marseille","lat":43.317075,"lon":5.377367,"is_reserved":false,"is_disabled":false,"rental_uris":{"android":"levelo://app?vid=d9c301f9-baa9-4f52-a950-cc8a27d76de8","ios":"levelo://app?vid=d9c301f9-baa9-4f52-a950-cc8a27d76de8"},"vehicle_type_id":"4","last_reported":1687543771,"current_range_meters":2800,"station_id":"ce4bgth2rcd13ifvqch0","pricing_plan_id":"free"},{"bike_id":"5047c594-021d-4ee2-8d32-f70c96786a89","system_id":"levelo_inurba_marseille","lat":43.30304,"lon":5.368987,"is_reserved":false,"is_disabled":false,"rental_uris":{"android":"levelo://app?vid=5047c594-021d-4ee2-8d32-f70c96786a89","ios":"levelo://app?vid=5047c594-021d-4ee2-8d32-f70c96786a89"},"vehicle_type_id":"4","last_reported":1687543771,"current_range_meters":0,"station_id":"ce4bgqh2rcd13ifvqc5g","pricing_plan_id":"free"},{"bike_id":"d4b68834-33a6-42a3-8c55-28d00001fc1d","system_id":"levelo_inurba_marseille","lat":43.315289,"lon":5.380349,"is_reserved":false,"is_disabled":false,"rental_uris":{"android":"levelo://app?vid=d4b68834-33a6-42a3-8c55-28d00001fc1d","ios":"levelo://app?vid=d4b68834-33a6-42a3-8c55-28d00001fc1d"},"vehicle_type_id":"4","last_reported":1687543771,"current_range_meters":21200,"station_id":"ce4bhsp2rcd13ifvqi50","pricing_plan_id":"free"},{"bike_id":"b36af94d-89da-45c0-b959-34c45167ee4f","system_id":"levelo_inurba_marseille","lat":43.30469,"lon":5.37908,"is_reserved":false,"is_disabled":false,"rental_uris":{"android":"levelo://app?vid=b36af94d-89da-45c0-b959-34c45167ee4f","ios":"levelo://app?vid=b36af94d-89da-45c0-b959-34c45167ee4f"},"vehicle_type_id":"4","last_reported":1687543771,"current_range_meters":0,"station_id":"ce4bgup2rcd13ifvqcn0","pricing_plan_id":"free"},{"bike_id":"8c8a8968-aa96-4cf8-8ecf-4725a8f334b0","system_id":"levelo_inurba_marseille","lat":43.302784,"lon":5.377158,"is_reserved":false,"is_disabled":false,"rental_uris":{"android":"levelo://app?vid=8c8a8968-aa96-4cf8-8ecf-4725a8f334b0","ios":"levelo://app?vid=8c8a8968-aa96-4cf8-8ecf-4725a8f334b0"},"vehicle_type_id":"4","last_reported":1687543771,"current_range_meters":4000,"station_id":"ce4bguh2rcd13ifvqcj0","pricing_plan_id":"free"},{"bike_id":"4095bf88-1b6f-4111-96cd-56d8b16cdbae","system_id":"levelo_inurba_marseille","lat":43.31419,"lon":5.38449,"is_reserved":false,"is_disabled":false,"rental_uris":{"android":"levelo://app?vid=4095bf88-1b6f-4111-96cd-56d8b16cdbae","ios":"levelo://app?vid=4095bf88-1b6f-4111-96cd-56d8b16cdbae"},"vehicle_type_id":"4","last_reported":1687543771,"current_range_meters":8400,"station_id":"","pricing_plan_id":"free"},{"bike_id":"d47be9cf-94bf-48d8-8867-0f68c8c62bf0","system_id":"levelo_inurba_marseille","lat":43.32005,"lon":5.38164,"is_reserved":false,"is_disabled":false,"rental_uris":{"android":"levelo://app?vid=d47be9cf-94bf-48d8-8867-0f68c8c62bf0","ios":"levelo://app?vid=d47be9cf-94bf-48d8-8867-0f68c8c62bf0"},"vehicle_type_id":"4","last_reported":1687543771,"current_range_meters":400,"station_id":"ce4bhr12rcd13ifvqhpg","pricing_plan_id":"free"},{"bike_id":"b06c1f65-d960-4631-90d6-abd895972aa7","system_id":"levelo_inurba_marseille","lat":43.313571,"lon":5.384829,"is_reserved":false,"is_disabled":false,"rental_uris":{"android":"levelo://app?vid=b06c1f65-d960-4631-90d6-abd895972aa7","ios":"levelo://app?vid=b06c1f65-d960-4631-90d6-abd895972aa7"},"vehicle_type_id":"4","last_reported":1687543771,"current_range_meters":31200,"station_id":"ce4bgt92rcd13ifvqcf0","pricing_plan_id":"free"},{"bike_id":"d45df7d6-0540-4a35-9926-62c01a139ad5","system_id":"levelo_inurba_marseille","lat":43.305364,"lon":5.384119,"is_reserved":false,"is_disabled":false,"rental_uris":{"android":"levelo://app?vid=d45df7d6-0540-4a35-9926-62c01a139ad5","ios":"levelo://app?vid=d45df7d6-0540-4a35-9926-62c01a139ad5"},"vehicle_type_id":"4","last_reported":1687543771,"current_range_meters":1200,"station_id":"ce4bgg92rcd13ifvqb30","pricing_plan_id":"free"},{"bike_id":"7f79a63d-cae7-4cea-beb9-616c75d72e55","system_id":"levelo_inurba_marseille","lat":43.298433,"lon":5.362774,"is_reserved":false,"is_disabled":false,"rental_uris":{"android":"levelo://app?vid=7f79a63d-cae7-4cea-beb9-616c75d72e55","ios":"levelo://app?vid=7f79a63d-cae7-4cea-beb9-616c75d72e55"},"vehicle_type_id":"4","last_reported":1687543771,"current_range_meters":20800,"station_id":"ce4bgpp2rcd13ifvqc3g","pricing_plan_id":"free"},{"bike_id":"5cafa38a-d68c-426b-93b7-3578ffa01f8a","system_id":"levelo_inurba_marseille","lat":43.299243,"lon":5.37481,"is_reserved":false,"is_disabled":false,"rental_uris":{"android":"levelo://app?vid=5cafa38a-d68c-426b-93b7-3578ffa01f8a","ios":"levelo://app?vid=5cafa38a-d68c-426b-93b7-3578ffa01f8a"},"vehicle_type_id":"4","last_reported":1687543771,"current_range_meters":400,"station_id":"ce4bgjh2rcd13ifvqbg0","pricing_plan_id":"free"},{"bike_id":"ec9f1dae-6f42-4551-a72f-1ec8d8a00aa8","system_id":"levelo_inurba_marseille","lat":43.311722,"lon":5.387247,"is_reserved":false,"is_disabled":false,"rental_uris":{"android":"levelo://app?vid=ec9f1dae-6f42-4551-a72f-1ec8d8a00aa8","ios":"levelo://app?vid=ec9f1dae-6f42-4551-a72f-1ec8d8a00aa8"},"vehicle_type_id":"4","last_reported":1687543771,"current_range_meters":17200,"station_id":"ce4bgv12rcd13ifvqcp0","pricing_plan_id":"free"},{"bike_id":"40736e77-dc09-4bc0-8098-4f59c22f3029","system_id":"levelo_inurba_marseille","lat":43.311722,"lon":5.387247,"is_reserved":false,"is_disabled":false,"rental_uris":{"android":"levelo://app?vid=40736e77-dc09-4bc0-8098-4f59c22f3029","ios":"levelo://app?vid=40736e77-dc09-4bc0-8098-4f59c22f3029"},"vehicle_type_id":"4","last_reported":1687543771,"current_range_meters":9200,"station_id":"ce4bgv12rcd13ifvqcp0","pricing_plan_id":"free"},{"bike_id":"975b6ecf-aa92-496a-b59c-a3f236c711a9","system_id":"levelo_inurba_marseille","lat":43.311722,"lon":5.387247,"is_reserved":false,"is_disabled":false,"rental_uris":{"android":"levelo://app?vid=975b6ecf-aa92-496a-b59c-a3f236c711a9","ios":"levelo://app?vid=975b6ecf-aa92-496a-b59c-a3f236c711a9"},"vehicle_type_id":"4","last_reported":1687543771,"current_range_meters":10400,"station_id":"ce4bgv12rcd13ifvqcp0","pricing_plan_id":"free"},{"bike_id":"4fec0bb0-e70f-4f70-b1c6-9cc7f2889857","system_id":"levelo_inurba_marseille","lat":43.311722,"lon":5.387247,"is_reserved":false,"is_disabled":false,"rental_uris":{"android":"levelo://app?vid=4fec0bb0-e70f-4f70-b1c6-9cc7f2889857","ios":"levelo://app?vid=4fec0bb0-e70f-4f70-b1c6-9cc7f2889857"},"vehicle_type_id":"4","last_reported":1687543771,"current_range_meters":30000,"station_id":"ce4bgv12rcd13ifvqcp0","pricing_plan_id":"free"},{"bike_id":"3f217513-7e69-416a-976d-aa0fec9315da","system_id":"levelo_inurba_marseille","lat":43.311722,"lon":5.387247,"is_reserved":false,"is_disabled":false,"rental_uris":{"android":"levelo://app?vid=3f217513-7e69-416a-976d-aa0fec9315da","ios":"levelo://app?vid=3f217513-7e69-416a-976d-aa0fec9315da"},"vehicle_type_id":"4","last_reported":1687543771,"current_range_meters":2800,"station_id":"ce4bgv12rcd13ifvqcp0","pricing_plan_id":"free"},{"bike_id":"ae56b6fe-6320-4bde-898e-126634cfae4f","system_id":"levelo_inurba_marseille","lat":43.311722,"lon":5.387247,"is_reserved":false,"is_disabled":false,"rental_uris":{"android":"levelo://app?vid=ae56b6fe-6320-4bde-898e-126634cfae4f","ios":"levelo://app?vid=ae56b6fe-6320-4bde-898e-126634cfae4f"},"vehicle_type_id":"4","last_reported":1687543771,"current_range_meters":28800,"station_id":"ce4bgv12rcd13ifvqcp0","pricing_plan_id":"free"},{"bike_id":"28318da3-f8f9-4068-a3d7-231dc72145e2","system_id":"levelo_inurba_marseille","lat":43.311722,"lon":5.387247,"is_reserved":false,"is_disabled":false,"rental_uris":{"android":"levelo://app?vid=28318da3-f8f9-4068-a3d7-231dc72145e2","ios":"levelo://app?vid=28318da3-f8f9-4068-a3d7-231dc72145e2"},"vehicle_type_id":"4","last_reported":1687543771,"current_range_meters":21200,"station_id":"ce4bgv12rcd13ifvqcp0","pricing_plan_id":"free"},{"bike_id":"317bc866-0b48-4757-ae9c-b4e627373afa","system_id":"levelo_inurba_marseille","lat":43.31168,"lon":5.38725,"is_reserved":false,"is_disabled":false,"rental_uris":{"android":"levelo://app?vid=317bc866-0b48-4757-ae9c-b4e627373afa","ios":"levelo://app?vid=317bc866-0b48-4757-ae9c-b4e627373afa"},"vehicle_type_id":"4","last_reported":1687543771,"current_range_meters":6000,"station_id":"ce4bgv12rcd13ifvqcp0","pricing_plan_id":"free"},{"bike_id":"d6aa4b8f-0fbd-492f-a726-f1b64033634e","system_id":"levelo_inurba_marseille","lat":43.29693,"lon":5.36437,"is_reserved":false,"is_disabled":false,"rental_uris":{"android":"levelo://app?vid=d6aa4b8f-0fbd-492f-a726-f1b64033634e","ios":"levelo://app?vid=d6aa4b8f-0fbd-492f-a726-f1b64033634e"},"vehicle_type_id":"4","last_reported":1687543771,"current_range_meters":9600,"station_id":"","pricing_plan_id":"free"},{"bike_id":"dd9acf2b-3d00-4971-b95b-f7e74d42f4f6","system_id":"levelo_inurba_marseille","lat":43.296131,"lon":5.370791,"is_reserved":false,"is_disabled":false,"rental_uris":{"android":"levelo://app?vid=dd9acf2b-3d00-4971-b95b-f7e74d42f4f6","ios":"levelo://app?vid=dd9acf2b-3d00-4971-b95b-f7e74d42f4f6"},"vehicle_type_id":"4","last_reported":1687543771,"current_range_meters":6000,"station_id":"ce4bgnh2rcd13ifvqc0g","pricing_plan_id":"free"},{"bike_id":"793ec853-0a12-4e44-8759-623f3fa9bdc7","system_id":"levelo_inurba_marseille","lat":43.29573,"lon":5.367355,"is_reserved":false,"is_disabled":false,"rental_uris":{"android":"levelo://app?vid=793ec853-0a12-4e44-8759-623f3fa9bdc7","ios":"levelo://app?vid=793ec853-0a12-4e44-8759-623f3fa9bdc7"},"vehicle_type_id":"4","last_reported":1687543771,"current_range_meters":4000,"station_id":"ce4bgph2rcd13ifvqc2g","pricing_plan_id":"free"},{"bike_id":"4d60942d-5e39-444b-8a78-b85b8a50b43f","system_id":"levelo_inurba_marseille","lat":43.29573,"lon":5.367355,"is_reserved":false,"is_disabled":false,"rental_uris":{"android":"levelo://app?vid=4d60942d-5e39-444b-8a78-b85b8a50b43f","ios":"levelo://app?vid=4d60942d-5e39-444b-8a78-b85b8a50b43f"},"vehicle_type_id":"4","last_reported":1687543771,"current_range_meters":22400,"station_id":"ce4bgph2rcd13ifvqc2g","pricing_plan_id":"free"},{"bike_id":"484442b3-3785-448d-8325-e21b6a64d1ab","system_id":"levelo_inurba_marseille","lat":43.309544,"lon":5.389958,"is_reserved":false,"is_disabled":false,"rental_uris":{"android":"levelo://app?vid=484442b3-3785-448d-8325-e21b6a64d1ab","ios":"levelo://app?vid=484442b3-3785-448d-8325-e21b6a64d1ab"},"vehicle_type_id":"4","last_reported":1687543771,"current_range_meters":18400,"station_id":"ce4bgup2rcd13ifvqco0","pricing_plan_id":"free"},{"bike_id":"ea53bfa9-90fb-414c-8f10-3de708e50d40","system_id":"levelo_inurba_marseille","lat":43.299028,"lon":5.381509,"is_reserved":false,"is_disabled":false,"rental_uris":{"android":"levelo://app?vid=ea53bfa9-90fb-414c-8f10-3de708e50d40","ios":"levelo://app?vid=ea53bfa9-90fb-414c-8f10-3de708e50d40"},"vehicle_type_id":"4","last_reported":1687543771,"current_range_meters":6800,"station_id":"ce4bgj12rcd13ifvqbc0","pricing_plan_id":"free"},{"bike_id":"ee5e45cc-16e7-489a-ab9a-da5033484291","system_id":"levelo_inurba_marseille","lat":43.309589,"lon":5.390258,"is_reserved":false,"is_disabled":false,"rental_uris":{"android":"levelo://app?vid=ee5e45cc-16e7-489a-ab9a-da5033484291","ios":"levelo://app?vid=ee5e45cc-16e7-489a-ab9a-da5033484291"},"vehicle_type_id":"4","last_reported":1687543771,"current_range_meters":11600,"station_id":"ce4bgup2rcd13ifvqco0","pricing_plan_id":"free"},{"bike_id":"ba568032-cf33-4658-b62b-c7ac56666b26","system_id":"levelo_inurba_marseille","lat":43.30943,"lon":5.39018,"is_reserved":false,"is_disabled":false,"rental_uris":{"android":"levelo://app?vid=ba568032-cf33-4658-b62b-c7ac56666b26","ios":"levelo://app?vid=ba568032-cf33-4658-b62b-c7ac56666b26"},"vehicle_type_id":"4","last_reported":1687543771,"current_range_meters":18400,"station_id":"ce4bgup2rcd13ifvqco0","pricing_plan_id":"free"},{"bike_id":"f1bfe3a7-8d72-4340-9249-21e779e02ba2","system_id":"levelo_inurba_marseille","lat":43.309589,"lon":5.390258,"is_reserved":false,"is_disabled":false,"rental_uris":{"android":"levelo://app?vid=f1bfe3a7-8d72-4340-9249-21e779e02ba2","ios":"levelo://app?vid=f1bfe3a7-8d72-4340-9249-21e779e02ba2"},"vehicle_type_id":"4","last_reported":1687543771,"current_range_meters":24800,"station_id":"ce4bgup2rcd13ifvqco0","pricing_plan_id":"free"},{"bike_id":"041bc147-ef2f-419b-bb81-deca3bdf89e2","system_id":"levelo_inurba_marseille","lat":43.29611,"lon":5.36046,"is_reserved":false,"is_disabled":false,"rental_uris":{"android":"levelo://app?vid=041bc147-ef2f-419b-bb81-deca3bdf89e2","ios":"levelo://app?vid=041bc147-ef2f-419b-bb81-deca3bdf89e2"},"vehicle_type_id":"4","last_reported":1687543771,"current_range_meters":10000,"station_id":"","pricing_plan_id":"free"},{"bike_id":"32d83b77-4dce-4491-9e8a-abc36654ccac","system_id":"levelo_inurba_marseille","lat":43.30951,"lon":5.39026,"is_reserved":false,"is_disabled":false,"rental_uris":{"android":"levelo://app?vid=32d83b77-4dce-4491-9e8a-abc36654ccac","ios":"levelo://app?vid=32d83b77-4dce-4491-9e8a-abc36654ccac"},"vehicle_type_id":"4","last_reported":1687543771,"current_range_meters":10800,"station_id":"ce4bgup2rcd13ifvqco0","pricing_plan_id":"free"},{"bike_id":"c43a957b-02e3-4dcf-ad70-898fa02f685d","system_id":"levelo_inurba_marseille","lat":43.30951,"lon":5.39026,"is_reserved":false,"is_disabled":false,"rental_uris":{"android":"levelo://app?vid=c43a957b-02e3-4dcf-ad70-898fa02f685d","ios":"levelo://app?vid=c43a957b-02e3-4dcf-ad70-898fa02f685d"},"vehicle_type_id":"4","last_reported":1687543771,"current_range_meters":0,"station_id":"ce4bgup2rcd13ifvqco0","pricing_plan_id":"free"},{"bike_id":"8e87d69f-599d-4696-a713-e91801d0b369","system_id":"levelo_inurba_marseille","lat":43.309589,"lon":5.390258,"is_reserved":false,"is_disabled":false,"rental_uris":{"android":"levelo://app?vid=8e87d69f-599d-4696-a713-e91801d0b369","ios":"levelo://app?vid=8e87d69f-599d-4696-a713-e91801d0b369"},"vehicle_type_id":"4","last_reported":1687543771,"current_range_meters":7200,"station_id":"ce4bgup2rcd13ifvqco0","pricing_plan_id":"free"},{"bike_id":"0b020daa-ece6-4cb2-9acb-0f2e23674178","system_id":"levelo_inurba_marseille","lat":43.30956,"lon":5.39028,"is_reserved":false,"is_disabled":false,"rental_uris":{"android":"levelo://app?vid=0b020daa-ece6-4cb2-9acb-0f2e23674178","ios":"levelo://app?vid=0b020daa-ece6-4cb2-9acb-0f2e23674178"},"vehicle_type_id":"4","last_reported":1687543771,"current_range_meters":27200,"station_id":"ce4bgup2rcd13ifvqco0","pricing_plan_id":"free"},{"bike_id":"b0f65212-2abe-4071-974e-391caffeb6b3","system_id":"levelo_inurba_marseille","lat":43.309589,"lon":5.390258,"is_reserved":false,"is_disabled":false,"rental_uris":{"android":"levelo://app?vid=b0f65212-2abe-4071-974e-391caffeb6b3","ios":"levelo://app?vid=b0f65212-2abe-4071-974e-391caffeb6b3"},"vehicle_type_id":"4","last_reported":1687543771,"current_range_meters":3200,"station_id":"ce4bgup2rcd13ifvqco0","pricing_plan_id":"free"},{"bike_id":"932f8bec-f0b3-478f-b418-552942e92afe","system_id":"levelo_inurba_marseille","lat":43.309589,"lon":5.390258,"is_reserved":false,"is_disabled":false,"rental_uris":{"android":"levelo://app?vid=932f8bec-f0b3-478f-b418-552942e92afe","ios":"levelo://app?vid=932f8bec-f0b3-478f-b418-552942e92afe"},"vehicle_type_id":"4","last_reported":1687543771,"current_range_meters":7200,"station_id":"ce4bgup2rcd13ifvqco0","pricing_plan_id":"free"},{"bike_id":"aaad65f3-0436-41f9-a63f-c2862359fd54","system_id":"levelo_inurba_marseille","lat":43.309589,"lon":5.390258,"is_reserved":false,"is_disabled":false,"rental_uris":{"android":"levelo://app?vid=aaad65f3-0436-41f9-a63f-c2862359fd54","ios":"levelo://app?vid=aaad65f3-0436-41f9-a63f-c2862359fd54"},"vehicle_type_id":"4","last_reported":1687543771,"current_range_meters":21200,"station_id":"ce4bgup2rcd13ifvqco0","pricing_plan_id":"free"},{"bike_id":"f8d21ad8-f1fb-46d5-ad96-b649a2547ead","system_id":"levelo_inurba_marseille","lat":43.30952,"lon":5.39031,"is_reserved":false,"is_disabled":false,"rental_uris":{"android":"levelo://app?vid=f8d21ad8-f1fb-46d5-ad96-b649a2547ead","ios":"levelo://app?vid=f8d21ad8-f1fb-46d5-ad96-b649a2547ead"},"vehicle_type_id":"4","last_reported":1687543771,"current_range_meters":4000,"station_id":"ce4bgup2rcd13ifvqco0","pricing_plan_id":"free"},{"bike_id":"80bce5a9-2fec-4547-b272-0e1671ff9f09","system_id":"levelo_inurba_marseille","lat":43.3095,"lon":5.39031,"is_reserved":false,"is_disabled":false,"rental_uris":{"android":"levelo://app?vid=80bce5a9-2fec-4547-b272-0e1671ff9f09","ios":"levelo://app?vid=80bce5a9-2fec-4547-b272-0e1671ff9f09"},"vehicle_type_id":"4","last_reported":1687543771,"current_range_meters":16800,"station_id":"ce4bgup2rcd13ifvqco0","pricing_plan_id":"free"},{"bike_id":"66e8a24f-d79f-48fe-bc95-ad65910107ca","system_id":"levelo_inurba_marseille","lat":43.309589,"lon":5.390258,"is_reserved":false,"is_disabled":false,"rental_uris":{"android":"levelo://app?vid=66e8a24f-d79f-48fe-bc95-ad65910107ca","ios":"levelo://app?vid=66e8a24f-d79f-48fe-bc95-ad65910107ca"},"vehicle_type_id":"4","last_reported":1687543771,"current_range_meters":15200,"station_id":"ce4bgup2rcd13ifvqco0","pricing_plan_id":"free"},{"bike_id":"8864ba55-f80d-4271-bc69-f56097d8f02b","system_id":"levelo_inurba_marseille","lat":43.296921,"lon":5.376579,"is_reserved":false,"is_disabled":false,"rental_uris":{"android":"levelo://app?vid=8864ba55-f80d-4271-bc69-f56097d8f02b","ios":"levelo://app?vid=8864ba55-f80d-4271-bc69-f56097d8f02b"},"vehicle_type_id":"4","last_reported":1687543771,"current_range_meters":400,"station_id":"ce4bgkh2rcd13ifvqbl0","pricing_plan_id":"free"},{"bike_id":"03ee486a-53b8-4014-8754-51be1367c280","system_id":"levelo_inurba_marseille","lat":43.30944,"lon":5.39042,"is_reserved":false,"is_disabled":false,"rental_uris":{"android":"levelo://app?vid=03ee486a-53b8-4014-8754-51be1367c280","ios":"levelo://app?vid=03ee486a-53b8-4014-8754-51be1367c280"},"vehicle_type_id":"4","last_reported":1687543771,"current_range_meters":12400,"station_id":"ce4bgup2rcd13ifvqco0","pricing_plan_id":"free"},{"bike_id":"a26b3693-5eee-4958-8ca8-8a69361289e6","system_id":"levelo_inurba_marseille","lat":43.317557,"lon":5.390173,"is_reserved":false,"is_disabled":false,"rental_uris":{"android":"levelo://app?vid=a26b3693-5eee-4958-8ca8-8a69361289e6","ios":"levelo://app?vid=a26b3693-5eee-4958-8ca8-8a69361289e6"},"vehicle_type_id":"4","last_reported":1687543771,"current_range_meters":31200,"station_id":"ce4bhqp2rcd13ifvqhng","pricing_plan_id":"free"},{"bike_id":"694d84e1-b24e-42d2-8d16-576479114e55","system_id":"levelo_inurba_marseille","lat":43.31759,"lon":5.39018,"is_reserved":false,"is_disabled":false,"rental_uris":{"android":"levelo://app?vid=694d84e1-b24e-42d2-8d16-576479114e55","ios":"levelo://app?vid=694d84e1-b24e-42d2-8d16-576479114e55"},"vehicle_type_id":"4","last_reported":1687543771,"current_range_meters":17600,"station_id":"ce4bhqp2rcd13ifvqhng","pricing_plan_id":"free"},{"bike_id":"c8ce289e-eecc-4eb3-b0e9-ed3f5c11cfdb","system_id":"levelo_inurba_marseille","lat":43.31753,"lon":5.39024,"is_reserved":false,"is_disabled":false,"rental_uris":{"android":"levelo://app?vid=c8ce289e-eecc-4eb3-b0e9-ed3f5c11cfdb","ios":"levelo://app?vid=c8ce289e-eecc-4eb3-b0e9-ed3f5c11cfdb"},"vehicle_type_id":"4","last_reported":1687543771,"current_range_meters":16800,"station_id":"ce4bhqp2rcd13ifvqhng","pricing_plan_id":"free"},{"bike_id":"c6302fff-6a1d-4a7e-a94a-fded06b72bcf","system_id":"levelo_inurba_marseille","lat":43.31758,"lon":5.39023,"is_reserved":false,"is_disabled":false,"rental_uris":{"android":"levelo://app?vid=c6302fff-6a1d-4a7e-a94a-fded06b72bcf","ios":"levelo://app?vid=c6302fff-6a1d-4a7e-a94a-fded06b72bcf"},"vehicle_type_id":"4","last_reported":1687543771,"current_range_meters":22400,"station_id":"ce4bhqp2rcd13ifvqhng","pricing_plan_id":"free"},{"bike_id":"dee8fd72-cd28-4ad6-9c80-fd1a233dbacf","system_id":"levelo_inurba_marseille","lat":43.295748,"lon":5.37522,"is_reserved":false,"is_disabled":false,"rental_uris":{"android":"levelo://app?vid=dee8fd72-cd28-4ad6-9c80-fd1a233dbacf","ios":"levelo://app?vid=dee8fd72-cd28-4ad6-9c80-fd1a233dbacf"},"vehicle_type_id":"4","last_reported":1687543771,"current_range_meters":6800,"station_id":"ce4bgh92rcd13ifvqb50","pricing_plan_id":"free"},{"bike_id":"008a1952-5513-410f-a74e-176cd7e67f98","system_id":"levelo_inurba_marseille","lat":43.296277,"lon":5.377108,"is_reserved":false,"is_disabled":false,"rental_uris":{"android":"levelo://app?vid=008a1952-5513-410f-a74e-176cd7e67f98","ios":"levelo://app?vid=008a1952-5513-410f-a74e-176cd7e67f98"},"vehicle_type_id":"4","last_reported":1687543771,"current_range_meters":400,"station_id":"ce4bgi92rcd13ifvqb90","pricing_plan_id":"free"},{"bike_id":"086ee09f-4391-4af0-8642-b143d2ba9342","system_id":"levelo_inurba_marseille","lat":43.295748,"lon":5.37522,"is_reserved":false,"is_disabled":false,"rental_uris":{"android":"levelo://app?vid=086ee09f-4391-4af0-8642-b143d2ba9342","ios":"levelo://app?vid=086ee09f-4391-4af0-8642-b143d2ba9342"},"vehicle_type_id":"4","last_reported":1687543771,"current_range_meters":5200,"station_id":"ce4bgh92rcd13ifvqb50","pricing_plan_id":"free"},{"bike_id":"d7c0cb7c-17f6-489f-8d2d-2ed728caa25e","system_id":"levelo_inurba_marseille","lat":43.299707,"lon":5.384859,"is_reserved":false,"is_disabled":false,"rental_uris":{"android":"levelo://app?vid=d7c0cb7c-17f6-489f-8d2d-2ed728caa25e","ios":"levelo://app?vid=d7c0cb7c-17f6-489f-8d2d-2ed728caa25e"},"vehicle_type_id":"4","last_reported":1687543771,"current_range_meters":18800,"station_id":"ce4bgj92rcd13ifvqbd0","pricing_plan_id":"free"},{"bike_id":"cb135df5-6077-4177-8762-17dfa75e8d2c","system_id":"levelo_inurba_marseille","lat":43.30859,"lon":5.39181,"is_reserved":false,"is_disabled":false,"rental_uris":{"android":"levelo://app?vid=cb135df5-6077-4177-8762-17dfa75e8d2c","ios":"levelo://app?vid=cb135df5-6077-4177-8762-17dfa75e8d2c"},"vehicle_type_id":"4","last_reported":1687543771,"current_range_meters":1600,"station_id":"","pricing_plan_id":"free"},{"bike_id":"e8483b79-7ef0-49b7-b4e6-b7078cd0de81","system_id":"levelo_inurba_marseille","lat":43.295279,"lon":5.375048,"is_reserved":false,"is_disabled":false,"rental_uris":{"android":"levelo://app?vid=e8483b79-7ef0-49b7-b4e6-b7078cd0de81","ios":"levelo://app?vid=e8483b79-7ef0-49b7-b4e6-b7078cd0de81"},"vehicle_type_id":"4","last_reported":1687543771,"current_range_meters":9200,"station_id":"ce4bgkp2rcd13ifvqbmg","pricing_plan_id":"free"},{"bike_id":"1c208fca-83c7-41a2-9803-21d448a44237","system_id":"levelo_inurba_marseille","lat":43.32367,"lon":5.388836,"is_reserved":false,"is_disabled":false,"rental_uris":{"android":"levelo://app?vid=1c208fca-83c7-41a2-9803-21d448a44237","ios":"levelo://app?vid=1c208fca-83c7-41a2-9803-21d448a44237"},"vehicle_type_id":"4","last_reported":1687543771,"current_range_meters":23200,"station_id":"ce4bhqp2rcd13ifvqhog","pricing_plan_id":"free"},{"bike_id":"9303733e-74b0-4808-9e80-d0e6302adde5","system_id":"levelo_inurba_marseille","lat":43.32367,"lon":5.388836,"is_reserved":false,"is_disabled":false,"rental_uris":{"android":"levelo://app?vid=9303733e-74b0-4808-9e80-d0e6302adde5","ios":"levelo://app?vid=9303733e-74b0-4808-9e80-d0e6302adde5"},"vehicle_type_id":"4","last_reported":1687543771,"current_range_meters":800,"station_id":"ce4bhqp2rcd13ifvqhog","pricing_plan_id":"free"},{"bike_id":"8f7066d4-0cd5-40f5-b39b-9a7219e69cdc","system_id":"levelo_inurba_marseille","lat":43.32367,"lon":5.388836,"is_reserved":false,"is_disabled":false,"rental_uris":{"android":"levelo://app?vid=8f7066d4-0cd5-40f5-b39b-9a7219e69cdc","ios":"levelo://app?vid=8f7066d4-0cd5-40f5-b39b-9a7219e69cdc"},"vehicle_type_id":"4","last_reported":1687543771,"current_range_meters":25600,"station_id":"ce4bhqp2rcd13ifvqhog","pricing_plan_id":"free"},{"bike_id":"7ab55306-b7e3-40e4-bd03-605d278a27f5","system_id":"levelo_inurba_marseille","lat":43.29602,"lon":5.381084,"is_reserved":false,"is_disabled":false,"rental_uris":{"android":"levelo://app?vid=7ab55306-b7e3-40e4-bd03-605d278a27f5","ios":"levelo://app?vid=7ab55306-b7e3-40e4-bd03-605d278a27f5"},"vehicle_type_id":"4","last_reported":1687543771,"current_range_meters":12400,"station_id":"ce4bgl12rcd13ifvqbo0","pricing_plan_id":"free"},{"bike_id":"16a222ce-9be8-4bd5-a661-eecb839e488f","system_id":"levelo_inurba_marseille","lat":43.292749,"lon":5.368402,"is_reserved":false,"is_disabled":false,"rental_uris":{"android":"levelo://app?vid=16a222ce-9be8-4bd5-a661-eecb839e488f","ios":"levelo://app?vid=16a222ce-9be8-4bd5-a661-eecb839e488f"},"vehicle_type_id":"4","last_reported":1687543771,"current_range_meters":6800,"station_id":"ce4bhbp2rcd13ifvqesg","pricing_plan_id":"free"},{"bike_id":"c1c19501-1aac-4c97-a689-5f318ce95145","system_id":"levelo_inurba_marseille","lat":43.292749,"lon":5.368402,"is_reserved":false,"is_disabled":false,"rental_uris":{"android":"levelo://app?vid=c1c19501-1aac-4c97-a689-5f318ce95145","ios":"levelo://app?vid=c1c19501-1aac-4c97-a689-5f318ce95145"},"vehicle_type_id":"4","last_reported":1687543771,"current_range_meters":0,"station_id":"ce4bhbp2rcd13ifvqesg","pricing_plan_id":"free"},{"bike_id":"2e238b35-a36d-4aad-bebf-910158d7188b","system_id":"levelo_inurba_marseille","lat":43.29272,"lon":5.36846,"is_reserved":false,"is_disabled":false,"rental_uris":{"android":"levelo://app?vid=2e238b35-a36d-4aad-bebf-910158d7188b","ios":"levelo://app?vid=2e238b35-a36d-4aad-bebf-910158d7188b"},"vehicle_type_id":"4","last_reported":1687543771,"current_range_meters":12000,"station_id":"ce4bhbp2rcd13ifvqesg","pricing_plan_id":"free"},{"bike_id":"a04e857d-e3dd-40f1-8fd2-c27105075bc4","system_id":"levelo_inurba_marseille","lat":43.295748,"lon":5.37522,"is_reserved":false,"is_disabled":false,"rental_uris":{"android":"levelo://app?vid=a04e857d-e3dd-40f1-8fd2-c27105075bc4","ios":"levelo://app?vid=a04e857d-e3dd-40f1-8fd2-c27105075bc4"},"vehicle_type_id":"4","last_reported":1687543771,"current_range_meters":31200,"station_id":"ce4bgh92rcd13ifvqb50","pricing_plan_id":"free"},{"bike_id":"26979828-33a5-4714-a89b-4267387e2c25","system_id":"levelo_inurba_marseille","lat":43.305994,"lon":5.393687,"is_reserved":false,"is_disabled":false,"rental_uris":{"android":"levelo://app?vid=26979828-33a5-4714-a89b-4267387e2c25","ios":"levelo://app?vid=26979828-33a5-4714-a89b-4267387e2c25"},"vehicle_type_id":"4","last_reported":1687543771,"current_range_meters":11200,"station_id":"ce4bh0p2rcd13ifvqd80","pricing_plan_id":"free"},{"bike_id":"f20236de-5952-4019-b0a3-cc919f2a4ec1","system_id":"levelo_inurba_marseille","lat":43.293009,"lon":5.374584,"is_reserved":false,"is_disabled":false,"rental_uris":{"android":"levelo://app?vid=f20236de-5952-4019-b0a3-cc919f2a4ec1","ios":"levelo://app?vid=f20236de-5952-4019-b0a3-cc919f2a4ec1"},"vehicle_type_id":"4","last_reported":1687543771,"current_range_meters":6000,"station_id":"ce4bgi12rcd13ifvqb70","pricing_plan_id":"free"},{"bike_id":"03238318-5f08-4bfd-8eba-619c0c563397","system_id":"levelo_inurba_marseille","lat":43.293009,"lon":5.374584,"is_reserved":false,"is_disabled":false,"rental_uris":{"android":"levelo://app?vid=03238318-5f08-4bfd-8eba-619c0c563397","ios":"levelo://app?vid=03238318-5f08-4bfd-8eba-619c0c563397"},"vehicle_type_id":"4","last_reported":1687543771,"current_range_meters":16800,"station_id":"ce4bgi12rcd13ifvqb70","pricing_plan_id":"free"},{"bike_id":"14f2b844-24b9-411a-8a76-9d34b8c62feb","system_id":"levelo_inurba_marseille","lat":43.305994,"lon":5.393687,"is_reserved":false,"is_disabled":false,"rental_uris":{"android":"levelo://app?vid=14f2b844-24b9-411a-8a76-9d34b8c62feb","ios":"levelo://app?vid=14f2b844-24b9-411a-8a76-9d34b8c62feb"},"vehicle_type_id":"4","last_reported":1687543771,"current_range_meters":0,"station_id":"ce4bh0p2rcd13ifvqd80","pricing_plan_id":"free"},{"bike_id":"423766e5-44d8-4a5a-99d6-7715e83faa7a","system_id":"levelo_inurba_marseille","lat":43.302992,"lon":5.392136,"is_reserved":false,"is_disabled":false,"rental_uris":{"android":"levelo://app?vid=423766e5-44d8-4a5a-99d6-7715e83faa7a","ios":"levelo://app?vid=423766e5-44d8-4a5a-99d6-7715e83faa7a"},"vehicle_type_id":"4","last_reported":1687543771,"current_range_meters":28800,"station_id":"ce4bgkh2rcd13ifvqbk0","pricing_plan_id":"free"},{"bike_id":"e68473a5-0b68-4e68-97cf-968366594371","system_id":"levelo_inurba_marseille","lat":43.2936,"lon":5.37835,"is_reserved":false,"is_disabled":false,"rental_uris":{"android":"levelo://app?vid=e68473a5-0b68-4e68-97cf-968366594371","ios":"levelo://app?vid=e68473a5-0b68-4e68-97cf-968366594371"},"vehicle_type_id":"4","last_reported":1687543771,"current_range_meters":0,"station_id":"ce4bgjh2rcd13ifvqbf0","pricing_plan_id":"free"},{"bike_id":"19c53093-259b-4be0-8952-40856cd467cd","system_id":"levelo_inurba_marseille","lat":43.302992,"lon":5.392136,"is_reserved":false,"is_disabled":false,"rental_uris":{"android":"levelo://app?vid=19c53093-259b-4be0-8952-40856cd467cd","ios":"levelo://app?vid=19c53093-259b-4be0-8952-40856cd467cd"},"vehicle_type_id":"4","last_reported":1687543771,"current_range_meters":19200,"station_id":"ce4bgkh2rcd13ifvqbk0","pricing_plan_id":"free"},{"bike_id":"53e58073-519b-4f8d-96ad-f7b95459428f","system_id":"levelo_inurba_marseille","lat":43.29255,"lon":5.35972,"is_reserved":false,"is_disabled":false,"rental_uris":{"android":"levelo://app?vid=53e58073-519b-4f8d-96ad-f7b95459428f","ios":"levelo://app?vid=53e58073-519b-4f8d-96ad-f7b95459428f"},"vehicle_type_id":"4","last_reported":1687543771,"current_range_meters":8400,"station_id":"","pricing_plan_id":"free"},{"bike_id":"7b10e7ac-c90d-45f6-8f76-f582d66a1ad6","system_id":"levelo_inurba_marseille","lat":43.2936,"lon":5.37835,"is_reserved":false,"is_disabled":false,"rental_uris":{"android":"levelo://app?vid=7b10e7ac-c90d-45f6-8f76-f582d66a1ad6","ios":"levelo://app?vid=7b10e7ac-c90d-45f6-8f76-f582d66a1ad6"},"vehicle_type_id":"4","last_reported":1687543771,"current_range_meters":6400,"station_id":"ce4bgjh2rcd13ifvqbf0","pricing_plan_id":"free"},{"bike_id":"5dc664bc-5bcf-47ab-9ad6-c125aa440c49","system_id":"levelo_inurba_marseille","lat":43.292239,"lon":5.360693,"is_reserved":false,"is_disabled":false,"rental_uris":{"android":"levelo://app?vid=5dc664bc-5bcf-47ab-9ad6-c125aa440c49","ios":"levelo://app?vid=5dc664bc-5bcf-47ab-9ad6-c125aa440c49"},"vehicle_type_id":"4","last_reported":1687543771,"current_range_meters":28400,"station_id":"","pricing_plan_id":"free"},{"bike_id":"71a0b58c-ceca-4998-b401-ca8be752f50d","system_id":"levelo_inurba_marseille","lat":43.29532,"lon":5.38321,"is_reserved":false,"is_disabled":false,"rental_uris":{"android":"levelo://app?vid=71a0b58c-ceca-4998-b401-ca8be752f50d","ios":"levelo://app?vid=71a0b58c-ceca-4998-b401-ca8be752f50d"},"vehicle_type_id":"4","last_reported":1687543771,"current_range_meters":3200,"station_id":"","pricing_plan_id":"free"},{"bike_id":"72256c4c-a258-4596-a5fd-0835f5465928","system_id":"levelo_inurba_marseille","lat":43.29168,"lon":5.37158,"is_reserved":false,"is_disabled":false,"rental_uris":{"android":"levelo://app?vid=72256c4c-a258-4596-a5fd-0835f5465928","ios":"levelo://app?vid=72256c4c-a258-4596-a5fd-0835f5465928"},"vehicle_type_id":"4","last_reported":1687543771,"current_range_meters":10400,"station_id":"ce4bha92rcd13ifvqeh0","pricing_plan_id":"free"},{"bike_id":"9cd17603-82fa-4cb8-971a-c3c08c8151d5","system_id":"levelo_inurba_marseille","lat":43.298764,"lon":5.388973,"is_reserved":false,"is_disabled":false,"rental_uris":{"android":"levelo://app?vid=9cd17603-82fa-4cb8-971a-c3c08c8151d5","ios":"levelo://app?vid=9cd17603-82fa-4cb8-971a-c3c08c8151d5"},"vehicle_type_id":"4","last_reported":1687543771,"current_range_meters":5200,"station_id":"ce4bh392rcd13ifvqdl0","pricing_plan_id":"free"},{"bike_id":"e31a5643-fe71-4c97-990b-789fa4b96b91","system_id":"levelo_inurba_marseille","lat":43.29163,"lon":5.37154,"is_reserved":false,"is_disabled":false,"rental_uris":{"android":"levelo://app?vid=e31a5643-fe71-4c97-990b-789fa4b96b91","ios":"levelo://app?vid=e31a5643-fe71-4c97-990b-789fa4b96b91"},"vehicle_type_id":"4","last_reported":1687543771,"current_range_meters":31200,"station_id":"ce4bha92rcd13ifvqeh0","pricing_plan_id":"free"},{"bike_id":"89f22473-48aa-4cce-93c4-cd773b13089d","system_id":"levelo_inurba_marseille","lat":43.291675,"lon":5.371583,"is_reserved":false,"is_disabled":false,"rental_uris":{"android":"levelo://app?vid=89f22473-48aa-4cce-93c4-cd773b13089d","ios":"levelo://app?vid=89f22473-48aa-4cce-93c4-cd773b13089d"},"vehicle_type_id":"4","last_reported":1687543771,"current_range_meters":6800,"station_id":"ce4bha92rcd13ifvqeh0","pricing_plan_id":"free"},{"bike_id":"96ceb726-501b-4304-bf1f-1d5e406ed2d7","system_id":"levelo_inurba_marseille","lat":43.293009,"lon":5.374584,"is_reserved":false,"is_disabled":false,"rental_uris":{"android":"levelo://app?vid=96ceb726-501b-4304-bf1f-1d5e406ed2d7","ios":"levelo://app?vid=96ceb726-501b-4304-bf1f-1d5e406ed2d7"},"vehicle_type_id":"4","last_reported":1687543771,"current_range_meters":17600,"station_id":"ce4bgi12rcd13ifvqb70","pricing_plan_id":"free"},{"bike_id":"54fda2f9-7b1a-4838-9b70-087d4101d0ae","system_id":"levelo_inurba_marseille","lat":43.33255,"lon":5.37935,"is_reserved":false,"is_disabled":false,"rental_uris":{"android":"levelo://app?vid=54fda2f9-7b1a-4838-9b70-087d4101d0ae","ios":"levelo://app?vid=54fda2f9-7b1a-4838-9b70-087d4101d0ae"},"vehicle_type_id":"4","last_reported":1687543771,"current_range_meters":2000,"station_id":"","pricing_plan_id":"free"},{"bike_id":"2f6e55fc-db65-4894-91c6-8d580f149b25","system_id":"levelo_inurba_marseille","lat":43.309038,"lon":5.396546,"is_reserved":false,"is_disabled":false,"rental_uris":{"android":"levelo://app?vid=2f6e55fc-db65-4894-91c6-8d580f149b25","ios":"levelo://app?vid=2f6e55fc-db65-4894-91c6-8d580f149b25"},"vehicle_type_id":"4","last_reported":1687543771,"current_range_meters":10400,"station_id":"ce4bh012rcd13ifvqcv0","pricing_plan_id":"free"},{"bike_id":"60fdd615-d502-4c56-bb82-975568fc8526","system_id":"levelo_inurba_marseille","lat":43.291994,"lon":5.357886,"is_reserved":false,"is_disabled":false,"rental_uris":{"android":"levelo://app?vid=60fdd615-d502-4c56-bb82-975568fc8526","ios":"levelo://app?vid=60fdd615-d502-4c56-bb82-975568fc8526"},"vehicle_type_id":"4","last_reported":1687543771,"current_range_meters":800,"station_id":"ce4bhb12rcd13ifvqel0","pricing_plan_id":"free"},{"bike_id":"769eb62a-f94b-43bb-9efd-a38094cf275c","system_id":"levelo_inurba_marseille","lat":43.30884,"lon":5.39648,"is_reserved":false,"is_disabled":false,"rental_uris":{"android":"levelo://app?vid=769eb62a-f94b-43bb-9efd-a38094cf275c","ios":"levelo://app?vid=769eb62a-f94b-43bb-9efd-a38094cf275c"},"vehicle_type_id":"4","last_reported":1687543771,"current_range_meters":14800,"station_id":"ce4bh012rcd13ifvqcv0","pricing_plan_id":"free"},{"bike_id":"8fd92346-3567-41de-ab23-c6cedf6e1294","system_id":"levelo_inurba_marseille","lat":43.291994,"lon":5.357886,"is_reserved":false,"is_disabled":false,"rental_uris":{"android":"levelo://app?vid=8fd92346-3567-41de-ab23-c6cedf6e1294","ios":"levelo://app?vid=8fd92346-3567-41de-ab23-c6cedf6e1294"},"vehicle_type_id":"4","last_reported":1687543771,"current_range_meters":28000,"station_id":"ce4bhb12rcd13ifvqel0","pricing_plan_id":"free"},{"bike_id":"9784c193-1776-4d54-a495-13a69e4f36eb","system_id":"levelo_inurba_marseille","lat":43.30879,"lon":5.39655,"is_reserved":false,"is_disabled":false,"rental_uris":{"android":"levelo://app?vid=9784c193-1776-4d54-a495-13a69e4f36eb","ios":"levelo://app?vid=9784c193-1776-4d54-a495-13a69e4f36eb"},"vehicle_type_id":"4","last_reported":1687543771,"current_range_meters":6400,"station_id":"","pricing_plan_id":"free"},{"bike_id":"f97fdba5-907c-47be-b816-379136166db9","system_id":"levelo_inurba_marseille","lat":43.30887,"lon":5.39657,"is_reserved":false,"is_disabled":false,"rental_uris":{"android":"levelo://app?vid=f97fdba5-907c-47be-b816-379136166db9","ios":"levelo://app?vid=f97fdba5-907c-47be-b816-379136166db9"},"vehicle_type_id":"4","last_reported":1687543771,"current_range_meters":14400,"station_id":"ce4bh012rcd13ifvqcv0","pricing_plan_id":"free"},{"bike_id":"ec5833b7-c9cd-4f8d-9b2e-d8dadcb0b371","system_id":"levelo_inurba_marseille","lat":43.309038,"lon":5.396546,"is_reserved":false,"is_disabled":false,"rental_uris":{"android":"levelo://app?vid=ec5833b7-c9cd-4f8d-9b2e-d8dadcb0b371","ios":"levelo://app?vid=ec5833b7-c9cd-4f8d-9b2e-d8dadcb0b371"},"vehicle_type_id":"4","last_reported":1687543771,"current_range_meters":28800,"station_id":"ce4bh012rcd13ifvqcv0","pricing_plan_id":"free"},{"bike_id":"e6cf949e-5207-4147-b0bf-cb3ddcc6a9cf","system_id":"levelo_inurba_marseille","lat":43.309038,"lon":5.396546,"is_reserved":false,"is_disabled":false,"rental_uris":{"android":"levelo://app?vid=e6cf949e-5207-4147-b0bf-cb3ddcc6a9cf","ios":"levelo://app?vid=e6cf949e-5207-4147-b0bf-cb3ddcc6a9cf"},"vehicle_type_id":"4","last_reported":1687543771,"current_range_meters":29600,"station_id":"ce4bh012rcd13ifvqcv0","pricing_plan_id":"free"},{"bike_id":"f59c98e6-9329-4576-a3b2-5a38c6818056","system_id":"levelo_inurba_marseille","lat":43.309038,"lon":5.396546,"is_reserved":false,"is_disabled":false,"rental_uris":{"android":"levelo://app?vid=f59c98e6-9329-4576-a3b2-5a38c6818056","ios":"levelo://app?vid=f59c98e6-9329-4576-a3b2-5a38c6818056"},"vehicle_type_id":"4","last_reported":1687543771,"current_range_meters":800,"station_id":"ce4bh012rcd13ifvqcv0","pricing_plan_id":"free"},{"bike_id":"9a153f80-6196-494b-a43c-cadd3d541fc5","system_id":"levelo_inurba_marseille","lat":43.309038,"lon":5.396546,"is_reserved":false,"is_disabled":false,"rental_uris":{"android":"levelo://app?vid=9a153f80-6196-494b-a43c-cadd3d541fc5","ios":"levelo://app?vid=9a153f80-6196-494b-a43c-cadd3d541fc5"},"vehicle_type_id":"4","last_reported":1687543771,"current_range_meters":28800,"station_id":"ce4bh012rcd13ifvqcv0","pricing_plan_id":"free"},{"bike_id":"177d05e1-13e8-4bf0-b22b-13b8335ed017","system_id":"levelo_inurba_marseille","lat":43.309038,"lon":5.396546,"is_reserved":false,"is_disabled":false,"rental_uris":{"android":"levelo://app?vid=177d05e1-13e8-4bf0-b22b-13b8335ed017","ios":"levelo://app?vid=177d05e1-13e8-4bf0-b22b-13b8335ed017"},"vehicle_type_id":"4","last_reported":1687543771,"current_range_meters":0,"station_id":"ce4bh012rcd13ifvqcv0","pricing_plan_id":"free"},{"bike_id":"871ecb93-6d82-4d29-9d39-b707807781d7","system_id":"levelo_inurba_marseille","lat":43.29529,"lon":5.385581,"is_reserved":false,"is_disabled":false,"rental_uris":{"android":"levelo://app?vid=871ecb93-6d82-4d29-9d39-b707807781d7","ios":"levelo://app?vid=871ecb93-6d82-4d29-9d39-b707807781d7"},"vehicle_type_id":"4","last_reported":1687543771,"current_range_meters":3600,"station_id":"ce4bgih2rcd13ifvqba0","pricing_plan_id":"free"},{"bike_id":"0c5656fd-6a55-4061-b155-c5b9591471a4","system_id":"levelo_inurba_marseille","lat":43.29529,"lon":5.385581,"is_reserved":false,"is_disabled":false,"rental_uris":{"android":"levelo://app?vid=0c5656fd-6a55-4061-b155-c5b9591471a4","ios":"levelo://app?vid=0c5656fd-6a55-4061-b155-c5b9591471a4"},"vehicle_type_id":"4","last_reported":1687543771,"current_range_meters":27600,"station_id":"ce4bgih2rcd13ifvqba0","pricing_plan_id":"free"},{"bike_id":"0fe0ee3a-26e0-440b-8053-e8a72baeae37","system_id":"levelo_inurba_marseille","lat":43.290779,"lon":5.371482,"is_reserved":false,"is_disabled":false,"rental_uris":{"android":"levelo://app?vid=0fe0ee3a-26e0-440b-8053-e8a72baeae37","ios":"levelo://app?vid=0fe0ee3a-26e0-440b-8053-e8a72baeae37"},"vehicle_type_id":"4","last_reported":1687543771,"current_range_meters":23600,"station_id":"ce4bh5p2rcd13ifvqe4g","pricing_plan_id":"free"},{"bike_id":"5cd78564-56e7-4a97-9f19-80fe0d6c33be","system_id":"levelo_inurba_marseille","lat":43.302008,"lon":5.394694,"is_reserved":false,"is_disabled":false,"rental_uris":{"android":"levelo://app?vid=5cd78564-56e7-4a97-9f19-80fe0d6c33be","ios":"levelo://app?vid=5cd78564-56e7-4a97-9f19-80fe0d6c33be"},"vehicle_type_id":"4","last_reported":1687543771,"current_range_meters":13600,"station_id":"ce4bh0p2rcd13ifvqd70","pricing_plan_id":"free"},{"bike_id":"f8b46eac-22ff-455e-b356-470d1e3fdf06","system_id":"levelo_inurba_marseille","lat":43.302008,"lon":5.394694,"is_reserved":false,"is_disabled":false,"rental_uris":{"android":"levelo://app?vid=f8b46eac-22ff-455e-b356-470d1e3fdf06","ios":"levelo://app?vid=f8b46eac-22ff-455e-b356-470d1e3fdf06"},"vehicle_type_id":"4","last_reported":1687543771,"current_range_meters":26000,"station_id":"ce4bh0p2rcd13ifvqd70","pricing_plan_id":"free"},{"bike_id":"e10aa08f-07e5-4b98-9b64-cbc208d0ac85","system_id":"levelo_inurba_marseille","lat":43.290631,"lon":5.359244,"is_reserved":false,"is_disabled":false,"rental_uris":{"android":"levelo://app?vid=e10aa08f-07e5-4b98-9b64-cbc208d0ac85","ios":"levelo://app?vid=e10aa08f-07e5-4b98-9b64-cbc208d0ac85"},"vehicle_type_id":"4","last_reported":1687543771,"current_range_meters":0,"station_id":"ce4bha92rcd13ifvqeg0","pricing_plan_id":"free"},{"bike_id":"e209d0ba-5955-46f9-b4b0-57587ced5af7","system_id":"levelo_inurba_marseille","lat":43.290631,"lon":5.359244,"is_reserved":false,"is_disabled":false,"rental_uris":{"android":"levelo://app?vid=e209d0ba-5955-46f9-b4b0-57587ced5af7","ios":"levelo://app?vid=e209d0ba-5955-46f9-b4b0-57587ced5af7"},"vehicle_type_id":"4","last_reported":1687543771,"current_range_meters":15200,"station_id":"ce4bha92rcd13ifvqeg0","pricing_plan_id":"free"},{"bike_id":"20b2702a-2cf1-439f-b7da-41f192fa1a0a","system_id":"levelo_inurba_marseille","lat":43.29411,"lon":5.38614,"is_reserved":false,"is_disabled":false,"rental_uris":{"android":"levelo://app?vid=20b2702a-2cf1-439f-b7da-41f192fa1a0a","ios":"levelo://app?vid=20b2702a-2cf1-439f-b7da-41f192fa1a0a"},"vehicle_type_id":"4","last_reported":1687543771,"current_range_meters":22000,"station_id":"","pricing_plan_id":"free"},{"bike_id":"cd576786-707a-4f66-a425-76385808f889","system_id":"levelo_inurba_marseille","lat":43.289184,"lon":5.366408,"is_reserved":false,"is_disabled":false,"rental_uris":{"android":"levelo://app?vid=cd576786-707a-4f66-a425-76385808f889","ios":"levelo://app?vid=cd576786-707a-4f66-a425-76385808f889"},"vehicle_type_id":"4","last_reported":1687543771,"current_range_meters":0,"station_id":"ce4bhap2rcd13ifvqek0","pricing_plan_id":"free"},{"bike_id":"0ffe0632-43ec-42c3-8957-a0977677f3b8","system_id":"levelo_inurba_marseille","lat":43.289184,"lon":5.366408,"is_reserved":false,"is_disabled":false,"rental_uris":{"android":"levelo://app?vid=0ffe0632-43ec-42c3-8957-a0977677f3b8","ios":"levelo://app?vid=0ffe0632-43ec-42c3-8957-a0977677f3b8"},"vehicle_type_id":"4","last_reported":1687543771,"current_range_meters":8400,"station_id":"ce4bhap2rcd13ifvqek0","pricing_plan_id":"free"},{"bike_id":"d94723bf-3dfe-467a-bc89-d8e40abb148f","system_id":"levelo_inurba_marseille","lat":43.289184,"lon":5.366408,"is_reserved":false,"is_disabled":false,"rental_uris":{"android":"levelo://app?vid=d94723bf-3dfe-467a-bc89-d8e40abb148f","ios":"levelo://app?vid=d94723bf-3dfe-467a-bc89-d8e40abb148f"},"vehicle_type_id":"4","last_reported":1687543771,"current_range_meters":31200,"station_id":"ce4bhap2rcd13ifvqek0","pricing_plan_id":"free"},{"bike_id":"ac8f3ef9-ec2f-4367-b0fc-c485e930614d","system_id":"levelo_inurba_marseille","lat":43.28937,"lon":5.36404,"is_reserved":false,"is_disabled":false,"rental_uris":{"android":"levelo://app?vid=ac8f3ef9-ec2f-4367-b0fc-c485e930614d","ios":"levelo://app?vid=ac8f3ef9-ec2f-4367-b0fc-c485e930614d"},"vehicle_type_id":"4","last_reported":1687543771,"current_range_meters":7200,"station_id":"ce4bhc92rcd13ifvqetg","pricing_plan_id":"free"},{"bike_id":"4baf8d99-d58a-4164-b58f-c57130856a79","system_id":"levelo_inurba_marseille","lat":43.304296,"lon":5.397513,"is_reserved":false,"is_disabled":false,"rental_uris":{"android":"levelo://app?vid=4baf8d99-d58a-4164-b58f-c57130856a79","ios":"levelo://app?vid=4baf8d99-d58a-4164-b58f-c57130856a79"},"vehicle_type_id":"4","last_reported":1687543771,"current_range_meters":13600,"station_id":"ce4bh092rcd13ifvqd20","pricing_plan_id":"free"},{"bike_id":"e36874dc-7135-4ebc-b4cd-8f7cd3793fb7","system_id":"levelo_inurba_marseille","lat":43.3034,"lon":5.39702,"is_reserved":false,"is_disabled":false,"rental_uris":{"android":"levelo://app?vid=e36874dc-7135-4ebc-b4cd-8f7cd3793fb7","ios":"levelo://app?vid=e36874dc-7135-4ebc-b4cd-8f7cd3793fb7"},"vehicle_type_id":"4","last_reported":1687543771,"current_range_meters":25600,"station_id":"","pricing_plan_id":"free"},{"bike_id":"45872504-931a-4fdd-a301-927372d584f2","system_id":"levelo_inurba_marseille","lat":43.29258,"lon":5.38438,"is_reserved":false,"is_disabled":false,"rental_uris":{"android":"levelo://app?vid=45872504-931a-4fdd-a301-927372d584f2","ios":"levelo://app?vid=45872504-931a-4fdd-a301-927372d584f2"},"vehicle_type_id":"4","last_reported":1687543771,"current_range_meters":20000,"station_id":"ce4bh692rcd13ifvqea0","pricing_plan_id":"free"},{"bike_id":"a244a783-6096-45d1-bf0d-85cd6c5f8292","system_id":"levelo_inurba_marseille","lat":43.292644,"lon":5.384257,"is_reserved":false,"is_disabled":false,"rental_uris":{"android":"levelo://app?vid=a244a783-6096-45d1-bf0d-85cd6c5f8292","ios":"levelo://app?vid=a244a783-6096-45d1-bf0d-85cd6c5f8292"},"vehicle_type_id":"4","last_reported":1687543771,"current_range_meters":11600,"station_id":"ce4bh692rcd13ifvqea0","pricing_plan_id":"free"},{"bike_id":"4ad49377-a318-4e36-bc23-9c0dd701a985","system_id":"levelo_inurba_marseille","lat":43.292644,"lon":5.384257,"is_reserved":false,"is_disabled":false,"rental_uris":{"android":"levelo://app?vid=4ad49377-a318-4e36-bc23-9c0dd701a985","ios":"levelo://app?vid=4ad49377-a318-4e36-bc23-9c0dd701a985"},"vehicle_type_id":"4","last_reported":1687543771,"current_range_meters":9200,"station_id":"ce4bh692rcd13ifvqea0","pricing_plan_id":"free"},{"bike_id":"824d650a-324f-4b77-9774-6b3ec980581d","system_id":"levelo_inurba_marseille","lat":43.290104,"lon":5.356111,"is_reserved":false,"is_disabled":false,"rental_uris":{"android":"levelo://app?vid=824d650a-324f-4b77-9774-6b3ec980581d","ios":"levelo://app?vid=824d650a-324f-4b77-9774-6b3ec980581d"},"vehicle_type_id":"4","last_reported":1687543771,"current_range_meters":28800,"station_id":"ce4bhb92rcd13ifvqen0","pricing_plan_id":"free"},{"bike_id":"5bc3ec0d-f3ea-46c4-a090-528f5c0213dc","system_id":"levelo_inurba_marseille","lat":43.290103,"lon":5.356114,"is_reserved":false,"is_disabled":false,"rental_uris":{"android":"levelo://app?vid=5bc3ec0d-f3ea-46c4-a090-528f5c0213dc","ios":"levelo://app?vid=5bc3ec0d-f3ea-46c4-a090-528f5c0213dc"},"vehicle_type_id":"4","last_reported":1687543771,"current_range_meters":30000,"station_id":"ce4bhb92rcd13ifvqen0","pricing_plan_id":"free"},{"bike_id":"7cdd7314-4c48-4f03-a2af-efbad9bd5e3f","system_id":"levelo_inurba_marseille","lat":43.290104,"lon":5.356111,"is_reserved":false,"is_disabled":false,"rental_uris":{"android":"levelo://app?vid=7cdd7314-4c48-4f03-a2af-efbad9bd5e3f","ios":"levelo://app?vid=7cdd7314-4c48-4f03-a2af-efbad9bd5e3f"},"vehicle_type_id":"4","last_reported":1687543771,"current_range_meters":20000,"station_id":"ce4bhb92rcd13ifvqen0","pricing_plan_id":"free"},{"bike_id":"87a877be-c624-4924-ba41-bf938a1c7a77","system_id":"levelo_inurba_marseille","lat":43.290104,"lon":5.356111,"is_reserved":false,"is_disabled":false,"rental_uris":{"android":"levelo://app?vid=87a877be-c624-4924-ba41-bf938a1c7a77","ios":"levelo://app?vid=87a877be-c624-4924-ba41-bf938a1c7a77"},"vehicle_type_id":"4","last_reported":1687543771,"current_range_meters":4000,"station_id":"ce4bhb92rcd13ifvqen0","pricing_plan_id":"free"},{"bike_id":"b8a1b9f9-317e-4491-b8cc-33ba0b92ebf6","system_id":"levelo_inurba_marseille","lat":43.290103,"lon":5.356114,"is_reserved":false,"is_disabled":false,"rental_uris":{"android":"levelo://app?vid=b8a1b9f9-317e-4491-b8cc-33ba0b92ebf6","ios":"levelo://app?vid=b8a1b9f9-317e-4491-b8cc-33ba0b92ebf6"},"vehicle_type_id":"4","last_reported":1687543771,"current_range_meters":2800,"station_id":"ce4bhb92rcd13ifvqen0","pricing_plan_id":"free"},{"bike_id":"a11b5602-ee2f-48c5-a4e9-0c03fd7b3346","system_id":"levelo_inurba_marseille","lat":43.289743,"lon":5.378304,"is_reserved":false,"is_disabled":false,"rental_uris":{"android":"levelo://app?vid=a11b5602-ee2f-48c5-a4e9-0c03fd7b3346","ios":"levelo://app?vid=a11b5602-ee2f-48c5-a4e9-0c03fd7b3346"},"vehicle_type_id":"4","last_reported":1687543771,"current_range_meters":20400,"station_id":"ce4bh9p2rcd13ifvqed0","pricing_plan_id":"free"},{"bike_id":"4967d961-6dbd-4d84-8a1c-60186f3ea30e","system_id":"levelo_inurba_marseille","lat":43.29791,"lon":5.39347,"is_reserved":false,"is_disabled":false,"rental_uris":{"android":"levelo://app?vid=4967d961-6dbd-4d84-8a1c-60186f3ea30e","ios":"levelo://app?vid=4967d961-6dbd-4d84-8a1c-60186f3ea30e"},"vehicle_type_id":"4","last_reported":1687543771,"current_range_meters":5200,"station_id":"chh1huq6cuj3fo74tm60","pricing_plan_id":"free"},{"bike_id":"0690302f-bd2c-43c8-a568-bed906f60789","system_id":"levelo_inurba_marseille","lat":43.297815,"lon":5.393548,"is_reserved":false,"is_disabled":false,"rental_uris":{"android":"levelo://app?vid=0690302f-bd2c-43c8-a568-bed906f60789","ios":"levelo://app?vid=0690302f-bd2c-43c8-a568-bed906f60789"},"vehicle_type_id":"4","last_reported":1687543771,"current_range_meters":10800,"station_id":"chh1huq6cuj3fo74tm60","pricing_plan_id":"free"},{"bike_id":"ecb0999e-c9e9-414c-a196-2b23f9ff9bdb","system_id":"levelo_inurba_marseille","lat":43.29339,"lon":5.38836,"is_reserved":false,"is_disabled":false,"rental_uris":{"android":"levelo://app?vid=ecb0999e-c9e9-414c-a196-2b23f9ff9bdb","ios":"levelo://app?vid=ecb0999e-c9e9-414c-a196-2b23f9ff9bdb"},"vehicle_type_id":"4","last_reported":1687543771,"current_range_meters":22400,"station_id":"","pricing_plan_id":"free"},{"bike_id":"95dd650d-9367-4af2-ba51-5d2f4fc0e10a","system_id":"levelo_inurba_marseille","lat":43.28856,"lon":5.358371,"is_reserved":false,"is_disabled":false,"rental_uris":{"android":"levelo://app?vid=95dd650d-9367-4af2-ba51-5d2f4fc0e10a","ios":"levelo://app?vid=95dd650d-9367-4af2-ba51-5d2f4fc0e10a"},"vehicle_type_id":"4","last_reported":1687543771,"current_range_meters":11600,"station_id":"ce4bhb12rcd13ifvqem0","pricing_plan_id":"free"},{"bike_id":"47c65468-53d3-4ae3-b5df-81d4d1fd0c7c","system_id":"levelo_inurba_marseille","lat":43.28856,"lon":5.358371,"is_reserved":false,"is_disabled":false,"rental_uris":{"android":"levelo://app?vid=47c65468-53d3-4ae3-b5df-81d4d1fd0c7c","ios":"levelo://app?vid=47c65468-53d3-4ae3-b5df-81d4d1fd0c7c"},"vehicle_type_id":"4","last_reported":1687543771,"current_range_meters":4000,"station_id":"ce4bhb12rcd13ifvqem0","pricing_plan_id":"free"},{"bike_id":"6796ccf4-dad9-46f3-876e-db12a4913c24","system_id":"levelo_inurba_marseille","lat":43.28856,"lon":5.358371,"is_reserved":false,"is_disabled":false,"rental_uris":{"android":"levelo://app?vid=6796ccf4-dad9-46f3-876e-db12a4913c24","ios":"levelo://app?vid=6796ccf4-dad9-46f3-876e-db12a4913c24"},"vehicle_type_id":"4","last_reported":1687543771,"current_range_meters":8000,"station_id":"ce4bhb12rcd13ifvqem0","pricing_plan_id":"free"},{"bike_id":"3f8a925a-6a54-4259-a38f-9cf091aab246","system_id":"levelo_inurba_marseille","lat":43.29254,"lon":5.38746,"is_reserved":false,"is_disabled":false,"rental_uris":{"android":"levelo://app?vid=3f8a925a-6a54-4259-a38f-9cf091aab246","ios":"levelo://app?vid=3f8a925a-6a54-4259-a38f-9cf091aab246"},"vehicle_type_id":"4","last_reported":1687543771,"current_range_meters":24400,"station_id":"","pricing_plan_id":"free"},{"bike_id":"c180ae38-f769-441f-8a55-5a6e4930e6ad","system_id":"levelo_inurba_marseille","lat":43.3375,"lon":5.37439,"is_reserved":false,"is_disabled":false,"rental_uris":{"android":"levelo://app?vid=c180ae38-f769-441f-8a55-5a6e4930e6ad","ios":"levelo://app?vid=c180ae38-f769-441f-8a55-5a6e4930e6ad"},"vehicle_type_id":"4","last_reported":1687543771,"current_range_meters":27600,"station_id":"","pricing_plan_id":"free"},{"bike_id":"dda50222-43cd-4144-8d31-56c6d09a137a","system_id":"levelo_inurba_marseille","lat":43.33761,"lon":5.3745,"is_reserved":false,"is_disabled":false,"rental_uris":{"android":"levelo://app?vid=dda50222-43cd-4144-8d31-56c6d09a137a","ios":"levelo://app?vid=dda50222-43cd-4144-8d31-56c6d09a137a"},"vehicle_type_id":"4","last_reported":1687543771,"current_range_meters":25200,"station_id":"","pricing_plan_id":"free"},{"bike_id":"d13798c1-1dda-4c4a-9900-cf525680e273","system_id":"levelo_inurba_marseille","lat":43.309371,"lon":5.401449,"is_reserved":false,"is_disabled":false,"rental_uris":{"android":"levelo://app?vid=d13798c1-1dda-4c4a-9900-cf525680e273","ios":"levelo://app?vid=d13798c1-1dda-4c4a-9900-cf525680e273"},"vehicle_type_id":"4","last_reported":1687543771,"current_range_meters":4800,"station_id":"ce4bgvp2rcd13ifvqct0","pricing_plan_id":"free"},{"bike_id":"491f7c1f-642a-4fbe-b8db-5062a12bff89","system_id":"levelo_inurba_marseille","lat":43.301117,"lon":5.398795,"is_reserved":false,"is_disabled":false,"rental_uris":{"android":"levelo://app?vid=491f7c1f-642a-4fbe-b8db-5062a12bff89","ios":"levelo://app?vid=491f7c1f-642a-4fbe-b8db-5062a12bff89"},"vehicle_type_id":"4","last_reported":1687543771,"current_range_meters":23600,"station_id":"ce4bh0h2rcd13ifvqd40","pricing_plan_id":"free"},{"bike_id":"cb57e2ae-68b2-4076-9259-ac98cc252328","system_id":"levelo_inurba_marseille","lat":43.286593,"lon":5.363346,"is_reserved":false,"is_disabled":false,"rental_uris":{"android":"levelo://app?vid=cb57e2ae-68b2-4076-9259-ac98cc252328","ios":"levelo://app?vid=cb57e2ae-68b2-4076-9259-ac98cc252328"},"vehicle_type_id":"4","last_reported":1687543771,"current_range_meters":12000,"station_id":"ce4bhah2rcd13ifvqej0","pricing_plan_id":"free"},{"bike_id":"c7d832be-94dd-4c5d-a0f6-08170b4d1ca0","system_id":"levelo_inurba_marseille","lat":43.290336,"lon":5.386425,"is_reserved":false,"is_disabled":false,"rental_uris":{"android":"levelo://app?vid=c7d832be-94dd-4c5d-a0f6-08170b4d1ca0","ios":"levelo://app?vid=c7d832be-94dd-4c5d-a0f6-08170b4d1ca0"},"vehicle_type_id":"4","last_reported":1687543771,"current_range_meters":400,"station_id":"ce4bh4p2rcd13ifvqe0g","pricing_plan_id":"free"},{"bike_id":"520c6379-10f4-42ff-8140-34ecdbcc5f08","system_id":"levelo_inurba_marseille","lat":43.290345,"lon":5.38646,"is_reserved":false,"is_disabled":false,"rental_uris":{"android":"levelo://app?vid=520c6379-10f4-42ff-8140-34ecdbcc5f08","ios":"levelo://app?vid=520c6379-10f4-42ff-8140-34ecdbcc5f08"},"vehicle_type_id":"4","last_reported":1687543771,"current_range_meters":2000,"station_id":"ce4bh4p2rcd13ifvqe0g","pricing_plan_id":"free"},{"bike_id":"689f25e9-89f0-43b7-a46c-ac0dd41f33d6","system_id":"levelo_inurba_marseille","lat":43.302759,"lon":5.400793,"is_reserved":false,"is_disabled":false,"rental_uris":{"android":"levelo://app?vid=689f25e9-89f0-43b7-a46c-ac0dd41f33d6","ios":"levelo://app?vid=689f25e9-89f0-43b7-a46c-ac0dd41f33d6"},"vehicle_type_id":"4","last_reported":1687543771,"current_range_meters":1600,"station_id":"ce4bgvh2rcd13ifvqcs0","pricing_plan_id":"free"},{"bike_id":"6437ae31-b1f1-400e-a329-b31c1cac2937","system_id":"levelo_inurba_marseille","lat":43.286039,"lon":5.370679,"is_reserved":false,"is_disabled":false,"rental_uris":{"android":"levelo://app?vid=6437ae31-b1f1-400e-a329-b31c1cac2937","ios":"levelo://app?vid=6437ae31-b1f1-400e-a329-b31c1cac2937"},"vehicle_type_id":"4","last_reported":1687543771,"current_range_meters":22400,"station_id":"ce4bht12rcd13ifvqi60","pricing_plan_id":"free"},{"bike_id":"b1437b6c-a28a-4ca5-957a-74fe69b8bef3","system_id":"levelo_inurba_marseille","lat":43.286039,"lon":5.370679,"is_reserved":false,"is_disabled":false,"rental_uris":{"android":"levelo://app?vid=b1437b6c-a28a-4ca5-957a-74fe69b8bef3","ios":"levelo://app?vid=b1437b6c-a28a-4ca5-957a-74fe69b8bef3"},"vehicle_type_id":"4","last_reported":1687543771,"current_range_meters":16800,"station_id":"ce4bht12rcd13ifvqi60","pricing_plan_id":"free"},{"bike_id":"c23cf5b7-3692-4b9e-96f7-32e1cd35fad2","system_id":"levelo_inurba_marseille","lat":43.28714,"lon":5.37944,"is_reserved":false,"is_disabled":false,"rental_uris":{"android":"levelo://app?vid=c23cf5b7-3692-4b9e-96f7-32e1cd35fad2","ios":"levelo://app?vid=c23cf5b7-3692-4b9e-96f7-32e1cd35fad2"},"vehicle_type_id":"4","last_reported":1687543771,"current_range_meters":1200,"station_id":"ce4bh9p2rcd13ifvqec0","pricing_plan_id":"free"},{"bike_id":"e78c204d-96f0-411f-ab8f-6d86f0319979","system_id":"levelo_inurba_marseille","lat":43.31648,"lon":5.40433,"is_reserved":false,"is_disabled":false,"rental_uris":{"android":"levelo://app?vid=e78c204d-96f0-411f-ab8f-6d86f0319979","ios":"levelo://app?vid=e78c204d-96f0-411f-ab8f-6d86f0319979"},"vehicle_type_id":"4","last_reported":1687543771,"current_range_meters":30000,"station_id":"ce4bh012rcd13ifvqd00","pricing_plan_id":"free"},{"bike_id":"003eeaa2-aa02-47e5-b353-56551ed1915b","system_id":"levelo_inurba_marseille","lat":43.28465,"lon":5.35891,"is_reserved":false,"is_disabled":false,"rental_uris":{"android":"levelo://app?vid=003eeaa2-aa02-47e5-b353-56551ed1915b","ios":"levelo://app?vid=003eeaa2-aa02-47e5-b353-56551ed1915b"},"vehicle_type_id":"4","last_reported":1687543771,"current_range_meters":31200,"station_id":"ce4bhah2rcd13ifvqei0","pricing_plan_id":"free"},{"bike_id":"9dff40c7-9bfd-4204-bb2a-dc71bbcf3586","system_id":"levelo_inurba_marseille","lat":43.284534,"lon":5.358662,"is_reserved":false,"is_disabled":false,"rental_uris":{"android":"levelo://app?vid=9dff40c7-9bfd-4204-bb2a-dc71bbcf3586","ios":"levelo://app?vid=9dff40c7-9bfd-4204-bb2a-dc71bbcf3586"},"vehicle_type_id":"4","last_reported":1687543771,"current_range_meters":21600,"station_id":"ce4bhah2rcd13ifvqei0","pricing_plan_id":"free"},{"bike_id":"81bdd815-fd4a-4113-bbde-ea6f09e1f8b9","system_id":"levelo_inurba_marseille","lat":43.284534,"lon":5.358662,"is_reserved":false,"is_disabled":false,"rental_uris":{"android":"levelo://app?vid=81bdd815-fd4a-4113-bbde-ea6f09e1f8b9","ios":"levelo://app?vid=81bdd815-fd4a-4113-bbde-ea6f09e1f8b9"},"vehicle_type_id":"4","last_reported":1687543771,"current_range_meters":24800,"station_id":"ce4bhah2rcd13ifvqei0","pricing_plan_id":"free"},{"bike_id":"3534a414-d958-4fd9-9cc6-e8c4c5bb0dae","system_id":"levelo_inurba_marseille","lat":43.284534,"lon":5.358662,"is_reserved":false,"is_disabled":false,"rental_uris":{"android":"levelo://app?vid=3534a414-d958-4fd9-9cc6-e8c4c5bb0dae","ios":"levelo://app?vid=3534a414-d958-4fd9-9cc6-e8c4c5bb0dae"},"vehicle_type_id":"4","last_reported":1687543771,"current_range_meters":15200,"station_id":"ce4bhah2rcd13ifvqei0","pricing_plan_id":"free"},{"bike_id":"72628d97-5c2b-4c9e-a33a-c7443afe844f","system_id":"levelo_inurba_marseille","lat":43.294314,"lon":5.397498,"is_reserved":false,"is_disabled":false,"rental_uris":{"android":"levelo://app?vid=72628d97-5c2b-4c9e-a33a-c7443afe844f","ios":"levelo://app?vid=72628d97-5c2b-4c9e-a33a-c7443afe844f"},"vehicle_type_id":"4","last_reported":1687543771,"current_range_meters":8400,"station_id":"ce4bh3h2rcd13ifvqdo0","pricing_plan_id":"free"},{"bike_id":"d67583f2-0831-411a-b86e-da05b58c0cbe","system_id":"levelo_inurba_marseille","lat":43.294314,"lon":5.397498,"is_reserved":false,"is_disabled":false,"rental_uris":{"android":"levelo://app?vid=d67583f2-0831-411a-b86e-da05b58c0cbe","ios":"levelo://app?vid=d67583f2-0831-411a-b86e-da05b58c0cbe"},"vehicle_type_id":"4","last_reported":1687543771,"current_range_meters":28400,"station_id":"ce4bh3h2rcd13ifvqdo0","pricing_plan_id":"free"},{"bike_id":"20cc5c28-d67a-4a1c-ac6f-a3b6edafee04","system_id":"levelo_inurba_marseille","lat":43.285848,"lon":5.350787,"is_reserved":false,"is_disabled":false,"rental_uris":{"android":"levelo://app?vid=20cc5c28-d67a-4a1c-ac6f-a3b6edafee04","ios":"levelo://app?vid=20cc5c28-d67a-4a1c-ac6f-a3b6edafee04"},"vehicle_type_id":"4","last_reported":1687543771,"current_range_meters":10400,"station_id":"ce4bhch2rcd13ifvqeug","pricing_plan_id":"free"},{"bike_id":"85c723c0-0065-4d63-b0a5-4e2d37cf9cc5","system_id":"levelo_inurba_marseille","lat":43.285848,"lon":5.350787,"is_reserved":false,"is_disabled":false,"rental_uris":{"android":"levelo://app?vid=85c723c0-0065-4d63-b0a5-4e2d37cf9cc5","ios":"levelo://app?vid=85c723c0-0065-4d63-b0a5-4e2d37cf9cc5"},"vehicle_type_id":"4","last_reported":1687543771,"current_range_meters":31200,"station_id":"ce4bhch2rcd13ifvqeug","pricing_plan_id":"free"},{"bike_id":"45ced484-5ec1-4ed2-a8c8-c1d9e096793e","system_id":"levelo_inurba_marseille","lat":43.285848,"lon":5.350787,"is_reserved":false,"is_disabled":false,"rental_uris":{"android":"levelo://app?vid=45ced484-5ec1-4ed2-a8c8-c1d9e096793e","ios":"levelo://app?vid=45ced484-5ec1-4ed2-a8c8-c1d9e096793e"},"vehicle_type_id":"4","last_reported":1687543771,"current_range_meters":12000,"station_id":"ce4bhch2rcd13ifvqeug","pricing_plan_id":"free"},{"bike_id":"6002bd66-9e61-4529-a7ae-f0b163cc527b","system_id":"levelo_inurba_marseille","lat":43.285848,"lon":5.350787,"is_reserved":false,"is_disabled":false,"rental_uris":{"android":"levelo://app?vid=6002bd66-9e61-4529-a7ae-f0b163cc527b","ios":"levelo://app?vid=6002bd66-9e61-4529-a7ae-f0b163cc527b"},"vehicle_type_id":"4","last_reported":1687543771,"current_range_meters":12400,"station_id":"ce4bhch2rcd13ifvqeug","pricing_plan_id":"free"},{"bike_id":"894e389e-2d3b-4aaf-b62e-8e8d0a432324","system_id":"levelo_inurba_marseille","lat":43.285848,"lon":5.350787,"is_reserved":false,"is_disabled":false,"rental_uris":{"android":"levelo://app?vid=894e389e-2d3b-4aaf-b62e-8e8d0a432324","ios":"levelo://app?vid=894e389e-2d3b-4aaf-b62e-8e8d0a432324"},"vehicle_type_id":"4","last_reported":1687543771,"current_range_meters":31200,"station_id":"ce4bhch2rcd13ifvqeug","pricing_plan_id":"free"},{"bike_id":"a0d734d3-af87-4cd6-b3ef-845bb46b8260","system_id":"levelo_inurba_marseille","lat":43.285848,"lon":5.350787,"is_reserved":false,"is_disabled":false,"rental_uris":{"android":"levelo://app?vid=a0d734d3-af87-4cd6-b3ef-845bb46b8260","ios":"levelo://app?vid=a0d734d3-af87-4cd6-b3ef-845bb46b8260"},"vehicle_type_id":"4","last_reported":1687543771,"current_range_meters":31200,"station_id":"ce4bhch2rcd13ifvqeug","pricing_plan_id":"free"},{"bike_id":"09684049-7c83-4210-a432-90bdfe712547","system_id":"levelo_inurba_marseille","lat":43.285848,"lon":5.350787,"is_reserved":false,"is_disabled":false,"rental_uris":{"android":"levelo://app?vid=09684049-7c83-4210-a432-90bdfe712547","ios":"levelo://app?vid=09684049-7c83-4210-a432-90bdfe712547"},"vehicle_type_id":"4","last_reported":1687543771,"current_range_meters":15200,"station_id":"ce4bhch2rcd13ifvqeug","pricing_plan_id":"free"},{"bike_id":"c5beb989-38f0-47c6-9627-1f09c95790c1","system_id":"levelo_inurba_marseille","lat":43.285856,"lon":5.350771,"is_reserved":false,"is_disabled":false,"rental_uris":{"android":"levelo://app?vid=c5beb989-38f0-47c6-9627-1f09c95790c1","ios":"levelo://app?vid=c5beb989-38f0-47c6-9627-1f09c95790c1"},"vehicle_type_id":"4","last_reported":1687543771,"current_range_meters":22400,"station_id":"ce4bhch2rcd13ifvqeug","pricing_plan_id":"free"},{"bike_id":"8ee86926-876f-488f-9f61-022885e1ef37","system_id":"levelo_inurba_marseille","lat":43.285856,"lon":5.350771,"is_reserved":false,"is_disabled":false,"rental_uris":{"android":"levelo://app?vid=8ee86926-876f-488f-9f61-022885e1ef37","ios":"levelo://app?vid=8ee86926-876f-488f-9f61-022885e1ef37"},"vehicle_type_id":"4","last_reported":1687543771,"current_range_meters":31200,"station_id":"ce4bhch2rcd13ifvqeug","pricing_plan_id":"free"},{"bike_id":"840d7a57-4852-4256-aeb8-223a83b4e898","system_id":"levelo_inurba_marseille","lat":43.285856,"lon":5.350771,"is_reserved":false,"is_disabled":false,"rental_uris":{"android":"levelo://app?vid=840d7a57-4852-4256-aeb8-223a83b4e898","ios":"levelo://app?vid=840d7a57-4852-4256-aeb8-223a83b4e898"},"vehicle_type_id":"4","last_reported":1687543771,"current_range_meters":31200,"station_id":"ce4bhch2rcd13ifvqeug","pricing_plan_id":"free"},{"bike_id":"647906f0-7fec-4981-85c2-11439c36d202","system_id":"levelo_inurba_marseille","lat":43.285856,"lon":5.350771,"is_reserved":false,"is_disabled":false,"rental_uris":{"android":"levelo://app?vid=647906f0-7fec-4981-85c2-11439c36d202","ios":"levelo://app?vid=647906f0-7fec-4981-85c2-11439c36d202"},"vehicle_type_id":"4","last_reported":1687543771,"current_range_meters":3600,"station_id":"ce4bhch2rcd13ifvqeug","pricing_plan_id":"free"},{"bike_id":"ae81f543-21c7-4108-9e10-c070d5fa6683","system_id":"levelo_inurba_marseille","lat":43.283998,"lon":5.375062,"is_reserved":false,"is_disabled":false,"rental_uris":{"android":"levelo://app?vid=ae81f543-21c7-4108-9e10-c070d5fa6683","ios":"levelo://app?vid=ae81f543-21c7-4108-9e10-c070d5fa6683"},"vehicle_type_id":"4","last_reported":1687543771,"current_range_meters":10000,"station_id":"ce4bh412rcd13ifvqds0","pricing_plan_id":"free"},{"bike_id":"1f362e7d-e245-408d-bf58-37500d9bc363","system_id":"levelo_inurba_marseille","lat":43.29573,"lon":5.3997,"is_reserved":false,"is_disabled":false,"rental_uris":{"android":"levelo://app?vid=1f362e7d-e245-408d-bf58-37500d9bc363","ios":"levelo://app?vid=1f362e7d-e245-408d-bf58-37500d9bc363"},"vehicle_type_id":"4","last_reported":1687543771,"current_range_meters":4800,"station_id":"ce4bh312rcd13ifvqdj0","pricing_plan_id":"free"},{"bike_id":"6b9316dd-615c-495f-a52e-51bf177cc94c","system_id":"levelo_inurba_marseille","lat":43.283998,"lon":5.375062,"is_reserved":false,"is_disabled":false,"rental_uris":{"android":"levelo://app?vid=6b9316dd-615c-495f-a52e-51bf177cc94c","ios":"levelo://app?vid=6b9316dd-615c-495f-a52e-51bf177cc94c"},"vehicle_type_id":"4","last_reported":1687543771,"current_range_meters":15600,"station_id":"ce4bh412rcd13ifvqds0","pricing_plan_id":"free"},{"bike_id":"b3cd20ce-f8e9-488b-8305-d737af254d30","system_id":"levelo_inurba_marseille","lat":43.29567,"lon":5.39974,"is_reserved":false,"is_disabled":false,"rental_uris":{"android":"levelo://app?vid=b3cd20ce-f8e9-488b-8305-d737af254d30","ios":"levelo://app?vid=b3cd20ce-f8e9-488b-8305-d737af254d30"},"vehicle_type_id":"4","last_reported":1687543771,"current_range_meters":28800,"station_id":"ce4bh312rcd13ifvqdj0","pricing_plan_id":"free"},{"bike_id":"dc2ca209-a588-433a-97c8-b2df7ab1024e","system_id":"levelo_inurba_marseille","lat":43.295713,"lon":5.399639,"is_reserved":false,"is_disabled":false,"rental_uris":{"android":"levelo://app?vid=dc2ca209-a588-433a-97c8-b2df7ab1024e","ios":"levelo://app?vid=dc2ca209-a588-433a-97c8-b2df7ab1024e"},"vehicle_type_id":"4","last_reported":1687543771,"current_range_meters":3200,"station_id":"ce4bh312rcd13ifvqdj0","pricing_plan_id":"free"},{"bike_id":"00803c85-75e3-424e-a0cb-c6ed39a02c23","system_id":"levelo_inurba_marseille","lat":43.32335,"lon":5.40615,"is_reserved":false,"is_disabled":false,"rental_uris":{"android":"levelo://app?vid=00803c85-75e3-424e-a0cb-c6ed39a02c23","ios":"levelo://app?vid=00803c85-75e3-424e-a0cb-c6ed39a02c23"},"vehicle_type_id":"4","last_reported":1687543771,"current_range_meters":2000,"station_id":"ce4bhq92rcd13ifvqhjg","pricing_plan_id":"free"},{"bike_id":"9cae825f-ce49-4976-9212-5608954cbbcd","system_id":"levelo_inurba_marseille","lat":43.323464,"lon":5.406297,"is_reserved":false,"is_disabled":false,"rental_uris":{"android":"levelo://app?vid=9cae825f-ce49-4976-9212-5608954cbbcd","ios":"levelo://app?vid=9cae825f-ce49-4976-9212-5608954cbbcd"},"vehicle_type_id":"4","last_reported":1687543771,"current_range_meters":10400,"station_id":"ce4bhq92rcd13ifvqhjg","pricing_plan_id":"free"},{"bike_id":"a54c5183-d12c-4b5d-b1a7-e6c2a62eb9b5","system_id":"levelo_inurba_marseille","lat":43.32332,"lon":5.40621,"is_reserved":false,"is_disabled":false,"rental_uris":{"android":"levelo://app?vid=a54c5183-d12c-4b5d-b1a7-e6c2a62eb9b5","ios":"levelo://app?vid=a54c5183-d12c-4b5d-b1a7-e6c2a62eb9b5"},"vehicle_type_id":"4","last_reported":1687543771,"current_range_meters":22000,"station_id":"ce4bhq92rcd13ifvqhjg","pricing_plan_id":"free"},{"bike_id":"b9ed856b-3dbd-4a5d-af6b-97783f4e6cfe","system_id":"levelo_inurba_marseille","lat":43.284793,"lon":5.384113,"is_reserved":false,"is_disabled":false,"rental_uris":{"android":"levelo://app?vid=b9ed856b-3dbd-4a5d-af6b-97783f4e6cfe","ios":"levelo://app?vid=b9ed856b-3dbd-4a5d-af6b-97783f4e6cfe"},"vehicle_type_id":"4","last_reported":1687543771,"current_range_meters":0,"station_id":"ce4bh512rcd13ifvqe3g","pricing_plan_id":"free"},{"bike_id":"60684202-aa01-4ea6-822f-2e10282cdb43","system_id":"levelo_inurba_marseille","lat":43.284793,"lon":5.384119,"is_reserved":false,"is_disabled":false,"rental_uris":{"android":"levelo://app?vid=60684202-aa01-4ea6-822f-2e10282cdb43","ios":"levelo://app?vid=60684202-aa01-4ea6-822f-2e10282cdb43"},"vehicle_type_id":"4","last_reported":1687543771,"current_range_meters":12800,"station_id":"ce4bh512rcd13ifvqe3g","pricing_plan_id":"free"},{"bike_id":"57a0f06f-9777-49c6-a73f-e3c3fe4a1ef0","system_id":"levelo_inurba_marseille","lat":43.284432,"lon":5.383365,"is_reserved":false,"is_disabled":false,"rental_uris":{"android":"levelo://app?vid=57a0f06f-9777-49c6-a73f-e3c3fe4a1ef0","ios":"levelo://app?vid=57a0f06f-9777-49c6-a73f-e3c3fe4a1ef0"},"vehicle_type_id":"4","last_reported":1687543771,"current_range_meters":5600,"station_id":"","pricing_plan_id":"free"},{"bike_id":"e9bb34fa-f29b-4419-a7d6-dd07a0c9a7bf","system_id":"levelo_inurba_marseille","lat":43.30689,"lon":5.40846,"is_reserved":false,"is_disabled":false,"rental_uris":{"android":"levelo://app?vid=e9bb34fa-f29b-4419-a7d6-dd07a0c9a7bf","ios":"levelo://app?vid=e9bb34fa-f29b-4419-a7d6-dd07a0c9a7bf"},"vehicle_type_id":"4","last_reported":1687543771,"current_range_meters":1200,"station_id":"","pricing_plan_id":"free"},{"bike_id":"b4c950db-352f-4a1a-8e3c-c05101a6dad0","system_id":"levelo_inurba_marseille","lat":43.288497,"lon":5.393089,"is_reserved":false,"is_disabled":false,"rental_uris":{"android":"levelo://app?vid=b4c950db-352f-4a1a-8e3c-c05101a6dad0","ios":"levelo://app?vid=b4c950db-352f-4a1a-8e3c-c05101a6dad0"},"vehicle_type_id":"4","last_reported":1687543771,"current_range_meters":31200,"station_id":"ce4bh2p2rcd13ifvqdi0","pricing_plan_id":"free"},{"bike_id":"a402789c-fd36-4ea7-85fa-b8ee25b19891","system_id":"levelo_inurba_marseille","lat":43.283494,"lon":5.380945,"is_reserved":false,"is_disabled":false,"rental_uris":{"android":"levelo://app?vid=a402789c-fd36-4ea7-85fa-b8ee25b19891","ios":"levelo://app?vid=a402789c-fd36-4ea7-85fa-b8ee25b19891"},"vehicle_type_id":"4","last_reported":1687543771,"current_range_meters":14400,"station_id":"ce4bh412rcd13ifvqdr0","pricing_plan_id":"free"},{"bike_id":"cf750434-47b3-4d94-9554-8e11765f1f1a","system_id":"levelo_inurba_marseille","lat":43.284219,"lon":5.3497,"is_reserved":false,"is_disabled":false,"rental_uris":{"android":"levelo://app?vid=cf750434-47b3-4d94-9554-8e11765f1f1a","ios":"levelo://app?vid=cf750434-47b3-4d94-9554-8e11765f1f1a"},"vehicle_type_id":"4","last_reported":1687543771,"current_range_meters":28000,"station_id":"ce4bhbh2rcd13ifvqepg","pricing_plan_id":"free"},{"bike_id":"084dcd4e-429f-46c6-ac80-5f7c73eecbf0","system_id":"levelo_inurba_marseille","lat":43.2842,"lon":5.3499,"is_reserved":false,"is_disabled":false,"rental_uris":{"android":"levelo://app?vid=084dcd4e-429f-46c6-ac80-5f7c73eecbf0","ios":"levelo://app?vid=084dcd4e-429f-46c6-ac80-5f7c73eecbf0"},"vehicle_type_id":"4","last_reported":1687543771,"current_range_meters":25600,"station_id":"ce4bhbh2rcd13ifvqepg","pricing_plan_id":"free"},{"bike_id":"07de00a7-3377-47e3-9bdb-6c8b5d0e1ef6","system_id":"levelo_inurba_marseille","lat":43.28416,"lon":5.34993,"is_reserved":false,"is_disabled":false,"rental_uris":{"android":"levelo://app?vid=07de00a7-3377-47e3-9bdb-6c8b5d0e1ef6","ios":"levelo://app?vid=07de00a7-3377-47e3-9bdb-6c8b5d0e1ef6"},"vehicle_type_id":"4","last_reported":1687543771,"current_range_meters":31200,"station_id":"ce4bhbh2rcd13ifvqepg","pricing_plan_id":"free"},{"bike_id":"35da3c67-280e-491c-9b2a-2de2444d1d48","system_id":"levelo_inurba_marseille","lat":43.284217,"lon":5.349697,"is_reserved":false,"is_disabled":false,"rental_uris":{"android":"levelo://app?vid=35da3c67-280e-491c-9b2a-2de2444d1d48","ios":"levelo://app?vid=35da3c67-280e-491c-9b2a-2de2444d1d48"},"vehicle_type_id":"4","last_reported":1687543771,"current_range_meters":31200,"station_id":"ce4bhbh2rcd13ifvqepg","pricing_plan_id":"free"},{"bike_id":"e1ed8c54-07d3-4bd7-980f-bdadf04eca23","system_id":"levelo_inurba_marseille","lat":43.284174,"lon":5.349788,"is_reserved":false,"is_disabled":false,"rental_uris":{"android":"levelo://app?vid=e1ed8c54-07d3-4bd7-980f-bdadf04eca23","ios":"levelo://app?vid=e1ed8c54-07d3-4bd7-980f-bdadf04eca23"},"vehicle_type_id":"4","last_reported":1687543771,"current_range_meters":31200,"station_id":"ce4bhbh2rcd13ifvqepg","pricing_plan_id":"free"},{"bike_id":"4f2ee2ec-795f-4bee-bd06-e02f19591192","system_id":"levelo_inurba_marseille","lat":43.284219,"lon":5.3497,"is_reserved":false,"is_disabled":false,"rental_uris":{"android":"levelo://app?vid=4f2ee2ec-795f-4bee-bd06-e02f19591192","ios":"levelo://app?vid=4f2ee2ec-795f-4bee-bd06-e02f19591192"},"vehicle_type_id":"4","last_reported":1687543771,"current_range_meters":25600,"station_id":"ce4bhbh2rcd13ifvqepg","pricing_plan_id":"free"},{"bike_id":"75cff38d-3467-4b1a-a276-6a37160484b8","system_id":"levelo_inurba_marseille","lat":43.284219,"lon":5.3497,"is_reserved":false,"is_disabled":false,"rental_uris":{"android":"levelo://app?vid=75cff38d-3467-4b1a-a276-6a37160484b8","ios":"levelo://app?vid=75cff38d-3467-4b1a-a276-6a37160484b8"},"vehicle_type_id":"4","last_reported":1687543771,"current_range_meters":31200,"station_id":"ce4bhbh2rcd13ifvqepg","pricing_plan_id":"free"},{"bike_id":"432d1a29-2416-4449-90f3-743bcb1e9d62","system_id":"levelo_inurba_marseille","lat":43.284217,"lon":5.349697,"is_reserved":false,"is_disabled":false,"rental_uris":{"android":"levelo://app?vid=432d1a29-2416-4449-90f3-743bcb1e9d62","ios":"levelo://app?vid=432d1a29-2416-4449-90f3-743bcb1e9d62"},"vehicle_type_id":"4","last_reported":1687543771,"current_range_meters":31200,"station_id":"ce4bhbh2rcd13ifvqepg","pricing_plan_id":"free"},{"bike_id":"2ed5b480-3c7c-4df6-bc40-4c49a3b292f3","system_id":"levelo_inurba_marseille","lat":43.28939,"lon":5.39636,"is_reserved":false,"is_disabled":false,"rental_uris":{"android":"levelo://app?vid=2ed5b480-3c7c-4df6-bc40-4c49a3b292f3","ios":"levelo://app?vid=2ed5b480-3c7c-4df6-bc40-4c49a3b292f3"},"vehicle_type_id":"4","last_reported":1687543771,"current_range_meters":0,"station_id":"ce4bh3h2rcd13ifvqdn0","pricing_plan_id":"free"},{"bike_id":"d242b264-d8a4-4d18-a718-79699b20206b","system_id":"levelo_inurba_marseille","lat":43.28271,"lon":5.35052,"is_reserved":false,"is_disabled":false,"rental_uris":{"android":"levelo://app?vid=d242b264-d8a4-4d18-a718-79699b20206b","ios":"levelo://app?vid=d242b264-d8a4-4d18-a718-79699b20206b"},"vehicle_type_id":"4","last_reported":1687543771,"current_range_meters":5200,"station_id":"ce4bhbp2rcd13ifvqerg","pricing_plan_id":"free"},{"bike_id":"9427f8e2-1fbb-44f1-ae5c-220cb4986e96","system_id":"levelo_inurba_marseille","lat":43.282754,"lon":5.350519,"is_reserved":false,"is_disabled":false,"rental_uris":{"android":"levelo://app?vid=9427f8e2-1fbb-44f1-ae5c-220cb4986e96","ios":"levelo://app?vid=9427f8e2-1fbb-44f1-ae5c-220cb4986e96"},"vehicle_type_id":"4","last_reported":1687543771,"current_range_meters":31200,"station_id":"ce4bhbp2rcd13ifvqerg","pricing_plan_id":"free"},{"bike_id":"df9fa2d7-9d51-42de-bb89-15a684c3412a","system_id":"levelo_inurba_marseille","lat":43.282744,"lon":5.350533,"is_reserved":false,"is_disabled":false,"rental_uris":{"android":"levelo://app?vid=df9fa2d7-9d51-42de-bb89-15a684c3412a","ios":"levelo://app?vid=df9fa2d7-9d51-42de-bb89-15a684c3412a"},"vehicle_type_id":"4","last_reported":1687543771,"current_range_meters":24800,"station_id":"ce4bhbp2rcd13ifvqerg","pricing_plan_id":"free"},{"bike_id":"7a3dc83a-f2a5-4618-a49b-34181f4e2460","system_id":"levelo_inurba_marseille","lat":43.28039,"lon":5.36938,"is_reserved":false,"is_disabled":false,"rental_uris":{"android":"levelo://app?vid=7a3dc83a-f2a5-4618-a49b-34181f4e2460","ios":"levelo://app?vid=7a3dc83a-f2a5-4618-a49b-34181f4e2460"},"vehicle_type_id":"4","last_reported":1687543771,"current_range_meters":29600,"station_id":"ce4bha12rcd13ifvqef0","pricing_plan_id":"free"},{"bike_id":"1f4fbe7d-ee91-41f7-8cd1-b8d22a6c3a79","system_id":"levelo_inurba_marseille","lat":43.28039,"lon":5.36943,"is_reserved":false,"is_disabled":false,"rental_uris":{"android":"levelo://app?vid=1f4fbe7d-ee91-41f7-8cd1-b8d22a6c3a79","ios":"levelo://app?vid=1f4fbe7d-ee91-41f7-8cd1-b8d22a6c3a79"},"vehicle_type_id":"4","last_reported":1687543771,"current_range_meters":11200,"station_id":"","pricing_plan_id":"free"},{"bike_id":"50f3a798-ec79-4fe0-b285-1326ae52c348","system_id":"levelo_inurba_marseille","lat":43.290394,"lon":5.399781,"is_reserved":false,"is_disabled":false,"rental_uris":{"android":"levelo://app?vid=50f3a798-ec79-4fe0-b285-1326ae52c348","ios":"levelo://app?vid=50f3a798-ec79-4fe0-b285-1326ae52c348"},"vehicle_type_id":"4","last_reported":1687543771,"current_range_meters":0,"station_id":"","pricing_plan_id":"free"},{"bike_id":"eb80c29b-d2bd-402d-afb8-4c5bfae1e3b0","system_id":"levelo_inurba_marseille","lat":43.290412,"lon":5.399633,"is_reserved":false,"is_disabled":false,"rental_uris":{"android":"levelo://app?vid=eb80c29b-d2bd-402d-afb8-4c5bfae1e3b0","ios":"levelo://app?vid=eb80c29b-d2bd-402d-afb8-4c5bfae1e3b0"},"vehicle_type_id":"4","last_reported":1687543771,"current_range_meters":29200,"station_id":"ce4bh392rcd13ifvqdm0","pricing_plan_id":"free"},{"bike_id":"414ea140-41da-4b40-86d9-226fa8ed8b86","system_id":"levelo_inurba_marseille","lat":43.296263,"lon":5.40601,"is_reserved":false,"is_disabled":false,"rental_uris":{"android":"levelo://app?vid=414ea140-41da-4b40-86d9-226fa8ed8b86","ios":"levelo://app?vid=414ea140-41da-4b40-86d9-226fa8ed8b86"},"vehicle_type_id":"4","last_reported":1687543771,"current_range_meters":5600,"station_id":"ce4bh0h2rcd13ifvqd60","pricing_plan_id":"free"},{"bike_id":"458ba6f5-51fc-4e32-9849-a5ac2a7eecc5","system_id":"levelo_inurba_marseille","lat":43.281044,"lon":5.378308,"is_reserved":false,"is_disabled":false,"rental_uris":{"android":"levelo://app?vid=458ba6f5-51fc-4e32-9849-a5ac2a7eecc5","ios":"levelo://app?vid=458ba6f5-51fc-4e32-9849-a5ac2a7eecc5"},"vehicle_type_id":"4","last_reported":1687543771,"current_range_meters":10800,"station_id":"ce4bha12rcd13ifvqee0","pricing_plan_id":"free"},{"bike_id":"7571b0c3-8291-4399-a110-9d6908a6c2bf","system_id":"levelo_inurba_marseille","lat":43.296263,"lon":5.40601,"is_reserved":false,"is_disabled":false,"rental_uris":{"android":"levelo://app?vid=7571b0c3-8291-4399-a110-9d6908a6c2bf","ios":"levelo://app?vid=7571b0c3-8291-4399-a110-9d6908a6c2bf"},"vehicle_type_id":"4","last_reported":1687543771,"current_range_meters":19600,"station_id":"ce4bh0h2rcd13ifvqd60","pricing_plan_id":"free"},{"bike_id":"ff60adae-f71a-4e2f-9c03-c28e9ecc3c45","system_id":"levelo_inurba_marseille","lat":43.32765,"lon":5.40739,"is_reserved":false,"is_disabled":false,"rental_uris":{"android":"levelo://app?vid=ff60adae-f71a-4e2f-9c03-c28e9ecc3c45","ios":"levelo://app?vid=ff60adae-f71a-4e2f-9c03-c28e9ecc3c45"},"vehicle_type_id":"4","last_reported":1687543771,"current_range_meters":9200,"station_id":"","pricing_plan_id":"free"},{"bike_id":"3cd10ad7-a316-4ed6-a3d9-f31d3f3622ac","system_id":"levelo_inurba_marseille","lat":43.34472,"lon":5.37818,"is_reserved":false,"is_disabled":false,"rental_uris":{"android":"levelo://app?vid=3cd10ad7-a316-4ed6-a3d9-f31d3f3622ac","ios":"levelo://app?vid=3cd10ad7-a316-4ed6-a3d9-f31d3f3622ac"},"vehicle_type_id":"4","last_reported":1687543771,"current_range_meters":0,"station_id":"","pricing_plan_id":"free"},{"bike_id":"043b1aaf-7810-4f6c-8493-fb4d24ec8a46","system_id":"levelo_inurba_marseille","lat":43.284462,"lon":5.392121,"is_reserved":false,"is_disabled":false,"rental_uris":{"android":"levelo://app?vid=043b1aaf-7810-4f6c-8493-fb4d24ec8a46","ios":"levelo://app?vid=043b1aaf-7810-4f6c-8493-fb4d24ec8a46"},"vehicle_type_id":"4","last_reported":1687543771,"current_range_meters":30800,"station_id":"ce4bhoh2rcd13ifvqh5g","pricing_plan_id":"free"},{"bike_id":"17c2a66e-4bd9-4a75-96d0-863aee08affa","system_id":"levelo_inurba_marseille","lat":43.28569,"lon":5.395,"is_reserved":false,"is_disabled":false,"rental_uris":{"android":"levelo://app?vid=17c2a66e-4bd9-4a75-96d0-863aee08affa","ios":"levelo://app?vid=17c2a66e-4bd9-4a75-96d0-863aee08affa"},"vehicle_type_id":"4","last_reported":1687543771,"current_range_meters":13200,"station_id":"ce4bh292rcd13ifvqdg0","pricing_plan_id":"free"},{"bike_id":"514e4d9d-f74c-4bd1-8d07-610055ad8743","system_id":"levelo_inurba_marseille","lat":43.326605,"lon":5.409903,"is_reserved":false,"is_disabled":false,"rental_uris":{"android":"levelo://app?vid=514e4d9d-f74c-4bd1-8d07-610055ad8743","ios":"levelo://app?vid=514e4d9d-f74c-4bd1-8d07-610055ad8743"},"vehicle_type_id":"4","last_reported":1687543771,"current_range_meters":10800,"station_id":"ce4bhpp2rcd13ifvqhgg","pricing_plan_id":"free"},{"bike_id":"396b44d2-0222-401b-ad95-29df0edcef80","system_id":"levelo_inurba_marseille","lat":43.32655,"lon":5.40991,"is_reserved":false,"is_disabled":false,"rental_uris":{"android":"levelo://app?vid=396b44d2-0222-401b-ad95-29df0edcef80","ios":"levelo://app?vid=396b44d2-0222-401b-ad95-29df0edcef80"},"vehicle_type_id":"4","last_reported":1687543771,"current_range_meters":20000,"station_id":"ce4bhpp2rcd13ifvqhgg","pricing_plan_id":"free"},{"bike_id":"fc2a51fe-3bf8-46f3-9fe8-f24612d4a02a","system_id":"levelo_inurba_marseille","lat":43.326565,"lon":5.409975,"is_reserved":false,"is_disabled":false,"rental_uris":{"android":"levelo://app?vid=fc2a51fe-3bf8-46f3-9fe8-f24612d4a02a","ios":"levelo://app?vid=fc2a51fe-3bf8-46f3-9fe8-f24612d4a02a"},"vehicle_type_id":"4","last_reported":1687543771,"current_range_meters":6400,"station_id":"ce4bhpp2rcd13ifvqhgg","pricing_plan_id":"free"},{"bike_id":"f47d889e-f3a7-4cf7-b89b-498d12032e77","system_id":"levelo_inurba_marseille","lat":43.29289,"lon":5.4064,"is_reserved":false,"is_disabled":false,"rental_uris":{"android":"levelo://app?vid=f47d889e-f3a7-4cf7-b89b-498d12032e77","ios":"levelo://app?vid=f47d889e-f3a7-4cf7-b89b-498d12032e77"},"vehicle_type_id":"4","last_reported":1687543771,"current_range_meters":7200,"station_id":"","pricing_plan_id":"free"},{"bike_id":"50fd953c-9754-45f4-aec7-ae52bb9eb6fe","system_id":"levelo_inurba_marseille","lat":43.287154,"lon":5.399979,"is_reserved":false,"is_disabled":false,"rental_uris":{"android":"levelo://app?vid=50fd953c-9754-45f4-aec7-ae52bb9eb6fe","ios":"levelo://app?vid=50fd953c-9754-45f4-aec7-ae52bb9eb6fe"},"vehicle_type_id":"4","last_reported":1687543771,"current_range_meters":31200,"station_id":"ce4bho92rcd13ifvqh3g","pricing_plan_id":"free"},{"bike_id":"357479bc-ce54-4517-a491-bc97103e5c31","system_id":"levelo_inurba_marseille","lat":43.320045,"lon":5.415046,"is_reserved":false,"is_disabled":false,"rental_uris":{"android":"levelo://app?vid=357479bc-ce54-4517-a491-bc97103e5c31","ios":"levelo://app?vid=357479bc-ce54-4517-a491-bc97103e5c31"},"vehicle_type_id":"4","last_reported":1687543771,"current_range_meters":30400,"station_id":"ce4bhq92rcd13ifvqhkg","pricing_plan_id":"free"},{"bike_id":"572941f2-418e-478e-9da2-81d9ef2d0465","system_id":"levelo_inurba_marseille","lat":43.279742,"lon":5.38744,"is_reserved":false,"is_disabled":false,"rental_uris":{"android":"levelo://app?vid=572941f2-418e-478e-9da2-81d9ef2d0465","ios":"levelo://app?vid=572941f2-418e-478e-9da2-81d9ef2d0465"},"vehicle_type_id":"4","last_reported":1687543771,"current_range_meters":22400,"station_id":"ce4bhg12rcd13ifvqf80","pricing_plan_id":"free"},{"bike_id":"9dc1c352-f1bb-4dd8-89ab-8b52e35659df","system_id":"levelo_inurba_marseille","lat":43.320045,"lon":5.415046,"is_reserved":false,"is_disabled":false,"rental_uris":{"android":"levelo://app?vid=9dc1c352-f1bb-4dd8-89ab-8b52e35659df","ios":"levelo://app?vid=9dc1c352-f1bb-4dd8-89ab-8b52e35659df"},"vehicle_type_id":"4","last_reported":1687543771,"current_range_meters":30800,"station_id":"ce4bhq92rcd13ifvqhkg","pricing_plan_id":"free"},{"bike_id":"c5b3ed0c-2c7e-41d5-b4c8-e9c413c2916b","system_id":"levelo_inurba_marseille","lat":43.320045,"lon":5.415046,"is_reserved":false,"is_disabled":false,"rental_uris":{"android":"levelo://app?vid=c5b3ed0c-2c7e-41d5-b4c8-e9c413c2916b","ios":"levelo://app?vid=c5b3ed0c-2c7e-41d5-b4c8-e9c413c2916b"},"vehicle_type_id":"4","last_reported":1687543771,"current_range_meters":28800,"station_id":"ce4bhq92rcd13ifvqhkg","pricing_plan_id":"free"},{"bike_id":"c03c8146-32df-4423-bf91-0d514d7f16e7","system_id":"levelo_inurba_marseille","lat":43.320045,"lon":5.415046,"is_reserved":false,"is_disabled":false,"rental_uris":{"android":"levelo://app?vid=c03c8146-32df-4423-bf91-0d514d7f16e7","ios":"levelo://app?vid=c03c8146-32df-4423-bf91-0d514d7f16e7"},"vehicle_type_id":"4","last_reported":1687543771,"current_range_meters":31200,"station_id":"ce4bhq92rcd13ifvqhkg","pricing_plan_id":"free"},{"bike_id":"4c9ec7c0-7f36-4341-9174-e3139e3799c6","system_id":"levelo_inurba_marseille","lat":43.320045,"lon":5.415046,"is_reserved":false,"is_disabled":false,"rental_uris":{"android":"levelo://app?vid=4c9ec7c0-7f36-4341-9174-e3139e3799c6","ios":"levelo://app?vid=4c9ec7c0-7f36-4341-9174-e3139e3799c6"},"vehicle_type_id":"4","last_reported":1687543771,"current_range_meters":30400,"station_id":"ce4bhq92rcd13ifvqhkg","pricing_plan_id":"free"},{"bike_id":"a30a7820-f8bb-4d76-97b4-cf50354d87eb","system_id":"levelo_inurba_marseille","lat":43.299579,"lon":5.413255,"is_reserved":false,"is_disabled":false,"rental_uris":{"android":"levelo://app?vid=a30a7820-f8bb-4d76-97b4-cf50354d87eb","ios":"levelo://app?vid=a30a7820-f8bb-4d76-97b4-cf50354d87eb"},"vehicle_type_id":"4","last_reported":1687543771,"current_range_meters":10800,"station_id":"ce4bhp12rcd13ifvqh9g","pricing_plan_id":"free"},{"bike_id":"da63807e-240d-4d82-972e-ccda4f1b77e6","system_id":"levelo_inurba_marseille","lat":43.325233,"lon":5.414318,"is_reserved":false,"is_disabled":false,"rental_uris":{"android":"levelo://app?vid=da63807e-240d-4d82-972e-ccda4f1b77e6","ios":"levelo://app?vid=da63807e-240d-4d82-972e-ccda4f1b77e6"},"vehicle_type_id":"4","last_reported":1687543771,"current_range_meters":30400,"station_id":"ce4bhq12rcd13ifvqhhg","pricing_plan_id":"free"},{"bike_id":"89152b0f-cced-49ce-89da-88a836a552e9","system_id":"levelo_inurba_marseille","lat":43.32539,"lon":5.41424,"is_reserved":false,"is_disabled":false,"rental_uris":{"android":"levelo://app?vid=89152b0f-cced-49ce-89da-88a836a552e9","ios":"levelo://app?vid=89152b0f-cced-49ce-89da-88a836a552e9"},"vehicle_type_id":"4","last_reported":1687543771,"current_range_meters":26800,"station_id":"ce4bhq12rcd13ifvqhhg","pricing_plan_id":"free"},{"bike_id":"0ec26e66-f8d8-4683-89a5-4552b4397057","system_id":"levelo_inurba_marseille","lat":43.29252,"lon":5.40898,"is_reserved":false,"is_disabled":false,"rental_uris":{"android":"levelo://app?vid=0ec26e66-f8d8-4683-89a5-4552b4397057","ios":"levelo://app?vid=0ec26e66-f8d8-4683-89a5-4552b4397057"},"vehicle_type_id":"4","last_reported":1687543771,"current_range_meters":19600,"station_id":"ce4bh192rcd13ifvqdc0","pricing_plan_id":"free"},{"bike_id":"22222558-37d0-4db2-b835-df2117ee7430","system_id":"levelo_inurba_marseille","lat":43.29255,"lon":5.40902,"is_reserved":false,"is_disabled":false,"rental_uris":{"android":"levelo://app?vid=22222558-37d0-4db2-b835-df2117ee7430","ios":"levelo://app?vid=22222558-37d0-4db2-b835-df2117ee7430"},"vehicle_type_id":"4","last_reported":1687543771,"current_range_meters":4000,"station_id":"ce4bh192rcd13ifvqdc0","pricing_plan_id":"free"},{"bike_id":"db9306c1-8421-4cc5-bcc5-bc532d34ca2e","system_id":"levelo_inurba_marseille","lat":43.32533,"lon":5.41431,"is_reserved":false,"is_disabled":false,"rental_uris":{"android":"levelo://app?vid=db9306c1-8421-4cc5-bcc5-bc532d34ca2e","ios":"levelo://app?vid=db9306c1-8421-4cc5-bcc5-bc532d34ca2e"},"vehicle_type_id":"4","last_reported":1687543771,"current_range_meters":31200,"station_id":"ce4bhq12rcd13ifvqhhg","pricing_plan_id":"free"},{"bike_id":"6b154b8b-6964-477d-b321-510a944f4a6b","system_id":"levelo_inurba_marseille","lat":43.32541,"lon":5.41429,"is_reserved":false,"is_disabled":false,"rental_uris":{"android":"levelo://app?vid=6b154b8b-6964-477d-b321-510a944f4a6b","ios":"levelo://app?vid=6b154b8b-6964-477d-b321-510a944f4a6b"},"vehicle_type_id":"4","last_reported":1687543771,"current_range_meters":31200,"station_id":"ce4bhq12rcd13ifvqhhg","pricing_plan_id":"free"},{"bike_id":"6df9329c-6fd6-4141-8a51-ff9a11bacfb5","system_id":"levelo_inurba_marseille","lat":43.325233,"lon":5.414318,"is_reserved":false,"is_disabled":false,"rental_uris":{"android":"levelo://app?vid=6df9329c-6fd6-4141-8a51-ff9a11bacfb5","ios":"levelo://app?vid=6df9329c-6fd6-4141-8a51-ff9a11bacfb5"},"vehicle_type_id":"4","last_reported":1687543771,"current_range_meters":29600,"station_id":"ce4bhq12rcd13ifvqhhg","pricing_plan_id":"free"},{"bike_id":"92d6ac23-1b36-4fef-bc14-78ba58d8e429","system_id":"levelo_inurba_marseille","lat":43.32535,"lon":5.41434,"is_reserved":false,"is_disabled":false,"rental_uris":{"android":"levelo://app?vid=92d6ac23-1b36-4fef-bc14-78ba58d8e429","ios":"levelo://app?vid=92d6ac23-1b36-4fef-bc14-78ba58d8e429"},"vehicle_type_id":"4","last_reported":1687543771,"current_range_meters":31600,"station_id":"ce4bhq12rcd13ifvqhhg","pricing_plan_id":"free"},{"bike_id":"cc51d7ff-ef01-483e-8c82-93c11bb72a8e","system_id":"levelo_inurba_marseille","lat":43.30354,"lon":5.41869,"is_reserved":false,"is_disabled":false,"rental_uris":{"android":"levelo://app?vid=cc51d7ff-ef01-483e-8c82-93c11bb72a8e","ios":"levelo://app?vid=cc51d7ff-ef01-483e-8c82-93c11bb72a8e"},"vehicle_type_id":"4","last_reported":1687543771,"current_range_meters":20800,"station_id":"","pricing_plan_id":"free"},{"bike_id":"d1238e65-58ee-4e95-b730-ed9655e4ad87","system_id":"levelo_inurba_marseille","lat":43.275625,"lon":5.384392,"is_reserved":false,"is_disabled":false,"rental_uris":{"android":"levelo://app?vid=d1238e65-58ee-4e95-b730-ed9655e4ad87","ios":"levelo://app?vid=d1238e65-58ee-4e95-b730-ed9655e4ad87"},"vehicle_type_id":"4","last_reported":1687543771,"current_range_meters":18000,"station_id":"ce4bhh92rcd13ifvqfi0","pricing_plan_id":"free"},{"bike_id":"ee5a58b6-983f-432f-aa52-e8aac57ec34e","system_id":"levelo_inurba_marseille","lat":43.273613,"lon":5.362705,"is_reserved":false,"is_disabled":false,"rental_uris":{"android":"levelo://app?vid=ee5a58b6-983f-432f-aa52-e8aac57ec34e","ios":"levelo://app?vid=ee5a58b6-983f-432f-aa52-e8aac57ec34e"},"vehicle_type_id":"4","last_reported":1687543771,"current_range_meters":13600,"station_id":"ce4bhbh2rcd13ifvqeo0","pricing_plan_id":"free"},{"bike_id":"84ca2c61-5a9b-4e3b-9acf-caa50118050d","system_id":"levelo_inurba_marseille","lat":43.273613,"lon":5.362705,"is_reserved":false,"is_disabled":false,"rental_uris":{"android":"levelo://app?vid=84ca2c61-5a9b-4e3b-9acf-caa50118050d","ios":"levelo://app?vid=84ca2c61-5a9b-4e3b-9acf-caa50118050d"},"vehicle_type_id":"4","last_reported":1687543771,"current_range_meters":5600,"station_id":"ce4bhbh2rcd13ifvqeo0","pricing_plan_id":"free"},{"bike_id":"c27f7b5a-26cc-43f2-97c0-830f2553b74d","system_id":"levelo_inurba_marseille","lat":43.273613,"lon":5.362705,"is_reserved":false,"is_disabled":false,"rental_uris":{"android":"levelo://app?vid=c27f7b5a-26cc-43f2-97c0-830f2553b74d","ios":"levelo://app?vid=c27f7b5a-26cc-43f2-97c0-830f2553b74d"},"vehicle_type_id":"4","last_reported":1687543771,"current_range_meters":14800,"station_id":"ce4bhbh2rcd13ifvqeo0","pricing_plan_id":"free"},{"bike_id":"6247eebd-3a8f-44ae-bdeb-20ec321836a6","system_id":"levelo_inurba_marseille","lat":43.33612,"lon":5.410321,"is_reserved":false,"is_disabled":false,"rental_uris":{"android":"levelo://app?vid=6247eebd-3a8f-44ae-bdeb-20ec321836a6","ios":"levelo://app?vid=6247eebd-3a8f-44ae-bdeb-20ec321836a6"},"vehicle_type_id":"4","last_reported":1687543771,"current_range_meters":31200,"station_id":"ce4bhqh2rcd13ifvqhmg","pricing_plan_id":"free"},{"bike_id":"d25ae59c-517f-4f72-be98-78f6a0c20661","system_id":"levelo_inurba_marseille","lat":43.273609,"lon":5.362708,"is_reserved":false,"is_disabled":false,"rental_uris":{"android":"levelo://app?vid=d25ae59c-517f-4f72-be98-78f6a0c20661","ios":"levelo://app?vid=d25ae59c-517f-4f72-be98-78f6a0c20661"},"vehicle_type_id":"4","last_reported":1687543771,"current_range_meters":400,"station_id":"ce4bhbh2rcd13ifvqeo0","pricing_plan_id":"free"},{"bike_id":"e3a37e4c-68ce-48f2-8f43-980d68230fd4","system_id":"levelo_inurba_marseille","lat":43.336134,"lon":5.410341,"is_reserved":false,"is_disabled":false,"rental_uris":{"android":"levelo://app?vid=e3a37e4c-68ce-48f2-8f43-980d68230fd4","ios":"levelo://app?vid=e3a37e4c-68ce-48f2-8f43-980d68230fd4"},"vehicle_type_id":"4","last_reported":1687543771,"current_range_meters":22400,"station_id":"ce4bhqh2rcd13ifvqhmg","pricing_plan_id":"free"},{"bike_id":"7cfbf53d-887e-42e6-bdcf-a1040971b7d1","system_id":"levelo_inurba_marseille","lat":43.336134,"lon":5.410341,"is_reserved":false,"is_disabled":false,"rental_uris":{"android":"levelo://app?vid=7cfbf53d-887e-42e6-bdcf-a1040971b7d1","ios":"levelo://app?vid=7cfbf53d-887e-42e6-bdcf-a1040971b7d1"},"vehicle_type_id":"4","last_reported":1687543771,"current_range_meters":31200,"station_id":"ce4bhqh2rcd13ifvqhmg","pricing_plan_id":"free"},{"bike_id":"3de91478-419f-4f8b-9e75-b58b4bca1a26","system_id":"levelo_inurba_marseille","lat":43.336134,"lon":5.410341,"is_reserved":false,"is_disabled":false,"rental_uris":{"android":"levelo://app?vid=3de91478-419f-4f8b-9e75-b58b4bca1a26","ios":"levelo://app?vid=3de91478-419f-4f8b-9e75-b58b4bca1a26"},"vehicle_type_id":"4","last_reported":1687543771,"current_range_meters":31200,"station_id":"ce4bhqh2rcd13ifvqhmg","pricing_plan_id":"free"},{"bike_id":"47bdfd2b-4fa7-49a6-b818-f8bebbe4da13","system_id":"levelo_inurba_marseille","lat":43.276771,"lon":5.388799,"is_reserved":false,"is_disabled":false,"rental_uris":{"android":"levelo://app?vid=47bdfd2b-4fa7-49a6-b818-f8bebbe4da13","ios":"levelo://app?vid=47bdfd2b-4fa7-49a6-b818-f8bebbe4da13"},"vehicle_type_id":"4","last_reported":1687543771,"current_range_meters":24400,"station_id":"ce4bhi12rcd13ifvqfo0","pricing_plan_id":"free"},{"bike_id":"fd853318-8b7d-4b81-a141-8d21b96c1029","system_id":"levelo_inurba_marseille","lat":43.28227,"lon":5.40289,"is_reserved":false,"is_disabled":false,"rental_uris":{"android":"levelo://app?vid=fd853318-8b7d-4b81-a141-8d21b96c1029","ios":"levelo://app?vid=fd853318-8b7d-4b81-a141-8d21b96c1029"},"vehicle_type_id":"4","last_reported":1687543771,"current_range_meters":28400,"station_id":"","pricing_plan_id":"free"},{"bike_id":"a12e0406-ce2f-4073-ad5c-e1a5a1f9fa33","system_id":"levelo_inurba_marseille","lat":43.317121,"lon":5.423936,"is_reserved":false,"is_disabled":false,"rental_uris":{"android":"levelo://app?vid=a12e0406-ce2f-4073-ad5c-e1a5a1f9fa33","ios":"levelo://app?vid=a12e0406-ce2f-4073-ad5c-e1a5a1f9fa33"},"vehicle_type_id":"4","last_reported":1687543771,"current_range_meters":12000,"station_id":"ce4bhp92rcd13ifvqhbg","pricing_plan_id":"free"},{"bike_id":"9dfa5fbf-addf-4748-813d-695fd9d8058b","system_id":"levelo_inurba_marseille","lat":43.31716,"lon":5.42401,"is_reserved":false,"is_disabled":false,"rental_uris":{"android":"levelo://app?vid=9dfa5fbf-addf-4748-813d-695fd9d8058b","ios":"levelo://app?vid=9dfa5fbf-addf-4748-813d-695fd9d8058b"},"vehicle_type_id":"4","last_reported":1687543771,"current_range_meters":23200,"station_id":"ce4bhp92rcd13ifvqhbg","pricing_plan_id":"free"},