{"last_updated":1737562269,"ttl":60,"version":"2.2","data":{"bikes":[{"bike_id":"3c3ccabd-91d5-4e6f-80c3-770c5ae6e2d1","system_id":"levelo_inurba_marseille","lat":43.26577,"lon":5.39019,"is_reserved":false,"is_disabled":false,"rental_uris":{"android":"levelo://app?vid=3c3ccabd-91d5-4e6f-80c3-770c5ae6e2d1","ios":"levelo://app?vid=3c3ccabd-91d5-4e6f-80c3-770c5ae6e2d1"},"vehicle_type_id":"4","last_reported":1737562269,"current_range_meters":8000,"station_id":"ce4bhe12rcd13ifvqf30","pricing_plan_id":"cebpf4jnsgd1na2vs0mg"},{"bike_id":"bc87ebb9-79d8-48ae-98f1-73024abdc038","system_id":"levelo_inurba_marseille","lat":43.29223,"lon":5.36053,"is_reserved":false,"is_disabled":true,"rental_uris":{"android":"levelo://app?vid=bc87ebb9-79d8-48ae-98f1-73024abdc038","ios":"levelo://app?vid=bc87ebb9-79d8-48ae-98f1-73024abdc038"},"vehicle_type_id":"4","last_reported":1737562269,"current_range_meters":1600,"station_id":"ce4bhbh2rcd13ifvqeqg","pricing_plan_id":"cebpf4jnsgd1na2vs0mg"},{"bike_id":"095074da-7b9b-4cce-8fbe-a1e27b35ecf1","system_id":"levelo_inurba_marseille","lat":43.23133,"lon":5.43721,"is_reserved":false,"is_disabled":false,"rental_uris":{"android":"levelo://app?vid=095074da-7b9b-4cce-8fbe-a1e27b35ecf1","ios":"levelo://app?vid=095074da-7b9b-4cce-8fbe-a1e27b35ecf1"},"vehicle_type_id":"4","last_reported":1737562269,"current_range_meters":16400,"station_id":"ce4bhmp2rcd13ifvqgog","pricing_plan_id":"cebpf4jnsgd1na2vs0mg"},{"bike_id":"52bd1362-589c-457d-bceb-056d515e97d5","system_id":"levelo_inurba_marseille","lat":43.23148,"lon":5.43726,"is_reserved":false,"is_disabled":false,"rental_uris":{"android":"levelo://app?vid=52bd1362-589c-457d-bceb-056d515e97d5","ios":"levelo://app?vid=52bd1362-589c-457d-bceb-056d515e97d5"},"vehicle_type_id":"4","last_reported":1737562269,"current_range_meters":36800,"station_id":"ce4bhmp2rcd13ifvqgog","pricing_plan_id":"cebpf4jnsgd1na2vs0mg"},{"bike_id":"5b0a91b8-fa98-4cdc-88c1-8bdff24a02ca","system_id":"levelo_inurba_marseille","lat":43.29991,"lon":5.41303,"is_reserved":false,"is_disabled":false,"rental_uris":{"android":"levelo://app?vid=5b0a91b8-fa98-4cdc-88c1-8bdff24a02ca","ios":"levelo://app?vid=5b0a91b8-fa98-4cdc-88c1-8bdff24a02ca"},"vehicle_type_id":"4","last_reported":1737562269,"current_range_meters":38800,"station_id":"ce4bhp12rcd13ifvqh9g","pricing_plan_id":"cebpf4jnsgd1na2vs0mg"},{"bike_id":"a4fa50ac-f498-48af-a472-624159680442","system_id":"levelo_inurba_marseille","lat":43.27375,"lon":5.36256,"is_reserved":false,"is_disabled":false,"rental_uris":{"android":"levelo://app?vid=a4fa50ac-f498-48af-a472-624159680442","ios":"levelo://app?vid=a4fa50ac-f498-48af-a472-624159680442"},"vehicle_type_id":"4","last_reported":1737562269,"current_range_meters":36000,"station_id":"ce4bhbh2rcd13ifvqeo0","pricing_plan_id":"cebpf4jnsgd1na2vs0mg"},{"bike_id":"ff060429-cc6d-4458-9900-0e68272bb722","system_id":"levelo_inurba_marseille","lat":43.29028,"lon":5.38646,"is_reserved":false,"is_disabled":false,"rental_uris":{"android":"levelo://app?vid=ff060429-cc6d-4458-9900-0e68272bb722","ios":"levelo://app?vid=ff060429-cc6d-4458-9900-0e68272bb722"},"vehicle_type_id":"4","last_reported":1737562269,"current_range_meters":10000,"station_id":"ce4bh4p2rcd13ifvqe0g","pricing_plan_id":"cebpf4jnsgd1na2vs0mg"},{"bike_id":"d87d02d5-063a-4bcc-b088-594ddfa70522","system_id":"levelo_inurba_marseille","lat":43.3211,"lon":5.36773,"is_reserved":false,"is_disabled":false,"rental_uris":{"android":"levelo://app?vid=d87d02d5-063a-4bcc-b088-594ddfa70522","ios":"levelo://app?vid=d87d02d5-063a-4bcc-b088-594ddfa70522"},"vehicle_type_id":"4","last_reported":1737562269,"current_range_meters":34800,"station_id":"ce4bhrh2rcd13ifvqhug","pricing_plan_id":"cebpf4jnsgd1na2vs0mg"},{"bike_id":"1f999a04-c759-454b-abdb-bfceca36140b","system_id":"levelo_inurba_marseille","lat":43.31756,"lon":5.3901,"is_reserved":false,"is_disabled":false,"rental_uris":{"android":"levelo://app?vid=1f999a04-c759-454b-abdb-bfceca36140b","ios":"levelo://app?vid=1f999a04-c759-454b-abdb-bfceca36140b"},"vehicle_type_id":"4","last_reported":1737562269,"current_range_meters":26800,"station_id":"ce4bhqp2rcd13ifvqhng","pricing_plan_id":"cebpf4jnsgd1na2vs0mg"},{"bike_id":"a972d5b6-0a76-4dce-b034-eedfeb75aeb2","system_id":"levelo_inurba_marseille","lat":43.28929,"lon":5.38397,"is_reserved":false,"is_disabled":false,"rental_uris":{"android":"levelo://app?vid=a972d5b6-0a76-4dce-b034-eedfeb75aeb2","ios":"levelo://app?vid=a972d5b6-0a76-4dce-b034-eedfeb75aeb2"},"vehicle_type_id":"4","last_reported":1737562269,"current_range_meters":34000,"station_id":"ce4bh612rcd13ifvqe6g","pricing_plan_id":"cebpf4jnsgd1na2vs0mg"},{"bike_id":"a4b635e0-47c5-4ee2-979a-7e6446e0e9cc","system_id":"levelo_inurba_marseille","lat":43.29882,"lon":5.38911,"is_reserved":false,"is_disabled":false,"rental_uris":{"android":"levelo://app?vid=a4b635e0-47c5-4ee2-979a-7e6446e0e9cc","ios":"levelo://app?vid=a4b635e0-47c5-4ee2-979a-7e6446e0e9cc"},"vehicle_type_id":"4","last_reported":1737562269,"current_range_meters":27600,"station_id":"ce4bh392rcd13ifvqdl0","pricing_plan_id":"cebpf4jnsgd1na2vs0mg"},{"bike_id":"bfb62230-2683-4e51-a165-d8eabb8755a4","system_id":"levelo_inurba_marseille","lat":43.27832,"lon":5.40709,"is_reserved":false,"is_disabled":false,"rental_uris":{"android":"levelo://app?vid=bfb62230-2683-4e51-a165-d8eabb8755a4","ios":"levelo://app?vid=bfb62230-2683-4e51-a165-d8eabb8755a4"},"vehicle_type_id":"4","last_reported":1737562269,"current_range_meters":32400,"station_id":"ce4bhnh2rcd13ifvqgtg","pricing_plan_id":"cebpf4jnsgd1na2vs0mg"},{"bike_id":"a1763a7c-1139-4e94-94ba-75f40470248a","system_id":"levelo_inurba_marseille","lat":43.309426,"lon":5.401396,"is_reserved":false,"is_disabled":false,"rental_uris":{"android":"levelo://app?vid=a1763a7c-1139-4e94-94ba-75f40470248a","ios":"levelo://app?vid=a1763a7c-1139-4e94-94ba-75f40470248a"},"vehicle_type_id":"4","last_reported":1737562269,"current_range_meters":38800,"station_id":"ce4bgvp2rcd13ifvqct0","pricing_plan_id":"cebpf4jnsgd1na2vs0mg"},{"bike_id":"1d112a4c-9e7e-41d8-8ffb-8c02b95439bd","system_id":"levelo_inurba_marseille","lat":43.28415,"lon":5.37508,"is_reserved":false,"is_disabled":false,"rental_uris":{"android":"levelo://app?vid=1d112a4c-9e7e-41d8-8ffb-8c02b95439bd","ios":"levelo://app?vid=1d112a4c-9e7e-41d8-8ffb-8c02b95439bd"},"vehicle_type_id":"4","last_reported":1737562269,"current_range_meters":32000,"station_id":"ce4bh412rcd13ifvqds0","pricing_plan_id":"cebpf4jnsgd1na2vs0mg"},{"bike_id":"31ae3073-1386-4275-978a-19018719abb2","system_id":"levelo_inurba_marseille","lat":43.29061,"lon":5.37162,"is_reserved":false,"is_disabled":false,"rental_uris":{"android":"levelo://app?vid=31ae3073-1386-4275-978a-19018719abb2","ios":"levelo://app?vid=31ae3073-1386-4275-978a-19018719abb2"},"vehicle_type_id":"4","last_reported":1737562269,"current_range_meters":38800,"station_id":"ce4bh5p2rcd13ifvqe4g","pricing_plan_id":"cebpf4jnsgd1na2vs0mg"},{"bike_id":"f80daf71-64ee-49e9-aa12-8ec2343a46ac","system_id":"levelo_inurba_marseille","lat":43.3304,"lon":5.39007,"is_reserved":false,"is_disabled":false,"rental_uris":{"android":"levelo://app?vid=f80daf71-64ee-49e9-aa12-8ec2343a46ac","ios":"levelo://app?vid=f80daf71-64ee-49e9-aa12-8ec2343a46ac"},"vehicle_type_id":"4","last_reported":1737562269,"current_range_meters":38800,"station_id":"ce4bhr92rcd13ifvqhrg","pricing_plan_id":"cebpf4jnsgd1na2vs0mg"},{"bike_id":"f97ac78f-7a83-4b9b-a85e-40b2cae9ad72","system_id":"levelo_inurba_marseille","lat":43.26203,"lon":5.37927,"is_reserved":false,"is_disabled":false,"rental_uris":{"android":"levelo://app?vid=f97ac78f-7a83-4b9b-a85e-40b2cae9ad72","ios":"levelo://app?vid=f97ac78f-7a83-4b9b-a85e-40b2cae9ad72"},"vehicle_type_id":"4","last_reported":1737562269,"current_range_meters":34800,"station_id":"ce4bhjp2rcd13ifvqg90","pricing_plan_id":"cebpf4jnsgd1na2vs0mg"},{"bike_id":"ea3eb9b8-e669-41de-afc9-0f88a8e7ad4d","system_id":"levelo_inurba_marseille","lat":43.30531,"lon":5.36545,"is_reserved":false,"is_disabled":false,"rental_uris":{"android":"levelo://app?vid=ea3eb9b8-e669-41de-afc9-0f88a8e7ad4d","ios":"levelo://app?vid=ea3eb9b8-e669-41de-afc9-0f88a8e7ad4d"},"vehicle_type_id":"4","last_reported":1737562269,"current_range_meters":38800,"station_id":"ce4bgs12rcd13ifvqcag","pricing_plan_id":"cebpf4jnsgd1na2vs0mg"},{"bike_id":"835f2917-8490-4958-ad36-b74d1478c256","system_id":"levelo_inurba_marseille","lat":43.26216,"lon":5.3744,"is_reserved":false,"is_disabled":false,"rental_uris":{"android":"levelo://app?vid=835f2917-8490-4958-ad36-b74d1478c256","ios":"levelo://app?vid=835f2917-8490-4958-ad36-b74d1478c256"},"vehicle_type_id":"4","last_reported":1737562269,"current_range_meters":30800,"station_id":"ce4bhgp2rcd13ifvqfc0","pricing_plan_id":"cebpf4jnsgd1na2vs0mg"},{"bike_id":"2aaf194b-e843-496b-800b-ffbb038c4de7","system_id":"levelo_inurba_marseille","lat":43.3228,"lon":5.38284,"is_reserved":false,"is_disabled":false,"rental_uris":{"android":"levelo://app?vid=2aaf194b-e843-496b-800b-ffbb038c4de7","ios":"levelo://app?vid=2aaf194b-e843-496b-800b-ffbb038c4de7"},"vehicle_type_id":"4","last_reported":1737562269,"current_range_meters":38000,"station_id":"ce4bhr12rcd13ifvqhqg","pricing_plan_id":"cebpf4jnsgd1na2vs0mg"},{"bike_id":"650cbb62-bbe1-4448-a2e5-88e06b9f1136","system_id":"levelo_inurba_marseille","lat":43.30544,"lon":5.36541,"is_reserved":false,"is_disabled":false,"rental_uris":{"android":"levelo://app?vid=650cbb62-bbe1-4448-a2e5-88e06b9f1136","ios":"levelo://app?vid=650cbb62-bbe1-4448-a2e5-88e06b9f1136"},"vehicle_type_id":"4","last_reported":1737562269,"current_range_meters":6800,"station_id":"ce4bgs12rcd13ifvqcag","pricing_plan_id":"cebpf4jnsgd1na2vs0mg"},{"bike_id":"9c071769-a041-4506-8df3-32107bf66832","system_id":"levelo_inurba_marseille","lat":43.23186,"lon":5.39987,"is_reserved":false,"is_disabled":false,"rental_uris":{"android":"levelo://app?vid=9c071769-a041-4506-8df3-32107bf66832","ios":"levelo://app?vid=9c071769-a041-4506-8df3-32107bf66832"},"vehicle_type_id":"4","last_reported":1737562269,"current_range_meters":12000,"station_id":"ce4bhn12rcd13ifvqgqg","pricing_plan_id":"cebpf4jnsgd1na2vs0mg"},{"bike_id":"6661a075-3684-4dee-9c67-ef0b4376c594","system_id":"levelo_inurba_marseille","lat":43.23193,"lon":5.35554,"is_reserved":false,"is_disabled":false,"rental_uris":{"android":"levelo://app?vid=6661a075-3684-4dee-9c67-ef0b4376c594","ios":"levelo://app?vid=6661a075-3684-4dee-9c67-ef0b4376c594"},"vehicle_type_id":"4","last_reported":1737562269,"current_range_meters":38800,"station_id":"ce4bhu92rcd13ifvqi70","pricing_plan_id":"cebpf4jnsgd1na2vs0mg"},{"bike_id":"69c96a4a-07e9-4b48-846f-6e107cf55d38","system_id":"levelo_inurba_marseille","lat":43.31483,"lon":5.37305,"is_reserved":false,"is_disabled":false,"rental_uris":{"android":"levelo://app?vid=69c96a4a-07e9-4b48-846f-6e107cf55d38","ios":"levelo://app?vid=69c96a4a-07e9-4b48-846f-6e107cf55d38"},"vehicle_type_id":"4","last_reported":1737562269,"current_range_meters":16400,"station_id":"ce4bgt12rcd13ifvqcd0","pricing_plan_id":"cebpf4jnsgd1na2vs0mg"},{"bike_id":"03029508-7ed2-4693-b735-f7deaf763344","system_id":"levelo_inurba_marseille","lat":43.25585,"lon":5.38222,"is_reserved":false,"is_disabled":false,"rental_uris":{"android":"levelo://app?vid=03029508-7ed2-4693-b735-f7deaf763344","ios":"levelo://app?vid=03029508-7ed2-4693-b735-f7deaf763344"},"vehicle_type_id":"4","last_reported":1737562269,"current_range_meters":21600,"station_id":"ce4bhih2rcd13ifvqfs0","pricing_plan_id":"cebpf4jnsgd1na2vs0mg"},{"bike_id":"915364cc-3f03-45ca-b49e-f8d1a8896ffa","system_id":"levelo_inurba_marseille","lat":43.29616,"lon":5.3772,"is_reserved":false,"is_disabled":false,"rental_uris":{"android":"levelo://app?vid=915364cc-3f03-45ca-b49e-f8d1a8896ffa","ios":"levelo://app?vid=915364cc-3f03-45ca-b49e-f8d1a8896ffa"},"vehicle_type_id":"4","last_reported":1737562269,"current_range_meters":14000,"station_id":"ce4bgi92rcd13ifvqb90","pricing_plan_id":"cebpf4jnsgd1na2vs0mg"},{"bike_id":"752b4ab1-45b0-4663-98bc-c4e1a2551d6f","system_id":"levelo_inurba_marseille","lat":43.29609,"lon":5.37712,"is_reserved":false,"is_disabled":false,"rental_uris":{"android":"levelo://app?vid=752b4ab1-45b0-4663-98bc-c4e1a2551d6f","ios":"levelo://app?vid=752b4ab1-45b0-4663-98bc-c4e1a2551d6f"},"vehicle_type_id":"4","last_reported":1737562269,"current_range_meters":18000,"station_id":"ce4bgi92rcd13ifvqb90","pricing_plan_id":"cebpf4jnsgd1na2vs0mg"},{"bike_id":"083dbb9f-1243-483f-a814-a94cd543a059","system_id":"levelo_inurba_marseille","lat":43.31364,"lon":5.36749,"is_reserved":false,"is_disabled":false,"rental_uris":{"android":"levelo://app?vid=083dbb9f-1243-483f-a814-a94cd543a059","ios":"levelo://app?vid=083dbb9f-1243-483f-a814-a94cd543a059"},"vehicle_type_id":"4","last_reported":1737562269,"current_range_meters":9200,"station_id":"ce4bgr92rcd13ifvqc6g","pricing_plan_id":"cebpf4jnsgd1na2vs0mg"},{"bike_id":"dd675b11-55be-4650-9986-618d4d2e5381","system_id":"levelo_inurba_marseille","lat":43.30146,"lon":5.38071,"is_reserved":false,"is_disabled":false,"rental_uris":{"android":"levelo://app?vid=dd675b11-55be-4650-9986-618d4d2e5381","ios":"levelo://app?vid=dd675b11-55be-4650-9986-618d4d2e5381"},"vehicle_type_id":"4","last_reported":1737562269,"current_range_meters":14000,"station_id":"ce4bgjp2rcd13ifvqbh0","pricing_plan_id":"cebpf4jnsgd1na2vs0mg"},{"bike_id":"9ad20692-a9ba-48c6-8796-0c9c3b6d9ae7","system_id":"levelo_inurba_marseille","lat":43.31995,"lon":5.38156,"is_reserved":false,"is_disabled":false,"rental_uris":{"android":"levelo://app?vid=9ad20692-a9ba-48c6-8796-0c9c3b6d9ae7","ios":"levelo://app?vid=9ad20692-a9ba-48c6-8796-0c9c3b6d9ae7"},"vehicle_type_id":"4","last_reported":1737562269,"current_range_meters":8400,"station_id":"ce4bhr12rcd13ifvqhpg","pricing_plan_id":"cebpf4jnsgd1na2vs0mg"},{"bike_id":"cac15169-486f-43a5-9e95-33c702c4876b","system_id":"levelo_inurba_marseille","lat":43.30801,"lon":5.4355,"is_reserved":false,"is_disabled":false,"rental_uris":{"android":"levelo://app?vid=cac15169-486f-43a5-9e95-33c702c4876b","ios":"levelo://app?vid=cac15169-486f-43a5-9e95-33c702c4876b"},"vehicle_type_id":"4","last_reported":1737562269,"current_range_meters":38800,"station_id":"ce4bhph2rcd13ifvqheg","pricing_plan_id":"cebpf4jnsgd1na2vs0mg"},{"bike_id":"5a874f97-e53a-486b-bf03-022b93e71acd","system_id":"levelo_inurba_marseille","lat":43.254992,"lon":5.376502,"is_reserved":false,"is_disabled":false,"rental_uris":{"android":"levelo://app?vid=5a874f97-e53a-486b-bf03-022b93e71acd","ios":"levelo://app?vid=5a874f97-e53a-486b-bf03-022b93e71acd"},"vehicle_type_id":"4","last_reported":1737562269,"current_range_meters":26800,"station_id":"ce4bhh12rcd13ifvqff0","pricing_plan_id":"cebpf4jnsgd1na2vs0mg"},{"bike_id":"7c0ecca9-2d3b-4f03-a520-6be799a0fa00","system_id":"levelo_inurba_marseille","lat":43.30935,"lon":5.40145,"is_reserved":false,"is_disabled":false,"rental_uris":{"android":"levelo://app?vid=7c0ecca9-2d3b-4f03-a520-6be799a0fa00","ios":"levelo://app?vid=7c0ecca9-2d3b-4f03-a520-6be799a0fa00"},"vehicle_type_id":"4","last_reported":1737562269,"current_range_meters":36400,"station_id":"ce4bgvp2rcd13ifvqct0","pricing_plan_id":"cebpf4jnsgd1na2vs0mg"},{"bike_id":"8046e182-c43a-4567-b1b0-c8a3e2ad7dc6","system_id":"levelo_inurba_marseille","lat":43.29565,"lon":5.39975,"is_reserved":false,"is_disabled":false,"rental_uris":{"android":"levelo://app?vid=8046e182-c43a-4567-b1b0-c8a3e2ad7dc6","ios":"levelo://app?vid=8046e182-c43a-4567-b1b0-c8a3e2ad7dc6"},"vehicle_type_id":"4","last_reported":1737562269,"current_range_meters":34000,"station_id":"ce4bh312rcd13ifvqdj0","pricing_plan_id":"cebpf4jnsgd1na2vs0mg"},{"bike_id":"3dfca92b-e70d-4f97-9b14-65a4052b9ea1","system_id":"levelo_inurba_marseille","lat":43.29958,"lon":5.41315,"is_reserved":false,"is_disabled":false,"rental_uris":{"android":"levelo://app?vid=3dfca92b-e70d-4f97-9b14-65a4052b9ea1","ios":"levelo://app?vid=3dfca92b-e70d-4f97-9b14-65a4052b9ea1"},"vehicle_type_id":"4","last_reported":1737562269,"current_range_meters":36400,"station_id":"ce4bhp12rcd13ifvqh9g","pricing_plan_id":"cebpf4jnsgd1na2vs0mg"},{"bike_id":"aea513d9-8bec-46ad-ac11-d1f049f42fad","system_id":"levelo_inurba_marseille","lat":43.26806,"lon":5.40254,"is_reserved":false,"is_disabled":false,"rental_uris":{"android":"levelo://app?vid=aea513d9-8bec-46ad-ac11-d1f049f42fad","ios":"levelo://app?vid=aea513d9-8bec-46ad-ac11-d1f049f42fad"},"vehicle_type_id":"4","last_reported":1737562269,"current_range_meters":38800,"station_id":"ce501612rcd8frsf0b60","pricing_plan_id":"cebpf4jnsgd1na2vs0mg"},{"bike_id":"a6147b27-84e1-44d4-a89b-3e70b583724c","system_id":"levelo_inurba_marseille","lat":43.26564,"lon":5.39009,"is_reserved":false,"is_disabled":false,"rental_uris":{"android":"levelo://app?vid=a6147b27-84e1-44d4-a89b-3e70b583724c","ios":"levelo://app?vid=a6147b27-84e1-44d4-a89b-3e70b583724c"},"vehicle_type_id":"4","last_reported":1737562269,"current_range_meters":27600,"station_id":"ce4bhe12rcd13ifvqf30","pricing_plan_id":"cebpf4jnsgd1na2vs0mg"},{"bike_id":"daf6c530-e78f-4ec1-93a5-89da4a627ed0","system_id":"levelo_inurba_marseille","lat":43.317162,"lon":5.43716,"is_reserved":false,"is_disabled":false,"rental_uris":{"android":"levelo://app?vid=daf6c530-e78f-4ec1-93a5-89da4a627ed0","ios":"levelo://app?vid=daf6c530-e78f-4ec1-93a5-89da4a627ed0"},"vehicle_type_id":"4","last_reported":1737562269,"current_range_meters":24800,"station_id":"ce4bhp92rcd13ifvqhcg","pricing_plan_id":"cebpf4jnsgd1na2vs0mg"},{"bike_id":"fb07722b-6c4a-4667-a97b-6fa04f98ca7a","system_id":"levelo_inurba_marseille","lat":43.29849,"lon":5.36268,"is_reserved":false,"is_disabled":false,"rental_uris":{"android":"levelo://app?vid=fb07722b-6c4a-4667-a97b-6fa04f98ca7a","ios":"levelo://app?vid=fb07722b-6c4a-4667-a97b-6fa04f98ca7a"},"vehicle_type_id":"4","last_reported":1737562269,"current_range_meters":38800,"station_id":"ce4bgpp2rcd13ifvqc3g","pricing_plan_id":"cebpf4jnsgd1na2vs0mg"},{"bike_id":"4a1877ac-0eba-4d1d-a5b6-5c57a0d326b7","system_id":"levelo_inurba_marseille","lat":43.3108,"lon":5.42437,"is_reserved":false,"is_disabled":false,"rental_uris":{"android":"levelo://app?vid=4a1877ac-0eba-4d1d-a5b6-5c57a0d326b7","ios":"levelo://app?vid=4a1877ac-0eba-4d1d-a5b6-5c57a0d326b7"},"vehicle_type_id":"4","last_reported":1737562269,"current_range_meters":20000,"station_id":"ce4bhp92rcd13ifvqhag","pricing_plan_id":"cebpf4jnsgd1na2vs0mg"},{"bike_id":"1c5350bc-b85e-4a3a-a39b-e473b0f89be6","system_id":"levelo_inurba_marseille","lat":43.31767,"lon":5.38995,"is_reserved":false,"is_disabled":false,"rental_uris":{"android":"levelo://app?vid=1c5350bc-b85e-4a3a-a39b-e473b0f89be6","ios":"levelo://app?vid=1c5350bc-b85e-4a3a-a39b-e473b0f89be6"},"vehicle_type_id":"4","last_reported":1737562269,"current_range_meters":22800,"station_id":"ce4bhqp2rcd13ifvqhng","pricing_plan_id":"cebpf4jnsgd1na2vs0mg"},{"bike_id":"254f21b2-440a-47ed-933f-3093eb346e1c","system_id":"levelo_inurba_marseille","lat":43.31223,"lon":5.40138,"is_reserved":false,"is_disabled":false,"rental_uris":{"android":"levelo://app?vid=254f21b2-440a-47ed-933f-3093eb346e1c","ios":"levelo://app?vid=254f21b2-440a-47ed-933f-3093eb346e1c"},"vehicle_type_id":"4","last_reported":1737562269,"current_range_meters":31200,"station_id":"ce4bgn12rcd13ifvqbt0","pricing_plan_id":"cebpf4jnsgd1na2vs0mg"},{"bike_id":"e628f182-256f-4f26-a700-be4e06aa6613","system_id":"levelo_inurba_marseille","lat":43.29049,"lon":5.35914,"is_reserved":false,"is_disabled":false,"rental_uris":{"android":"levelo://app?vid=e628f182-256f-4f26-a700-be4e06aa6613","ios":"levelo://app?vid=e628f182-256f-4f26-a700-be4e06aa6613"},"vehicle_type_id":"4","last_reported":1737562269,"current_range_meters":9200,"station_id":"ce4bha92rcd13ifvqeg0","pricing_plan_id":"cebpf4jnsgd1na2vs0mg"},{"bike_id":"f5e2031e-550f-42af-a94f-265b764c6478","system_id":"levelo_inurba_marseille","lat":43.29623,"lon":5.37167,"is_reserved":false,"is_disabled":false,"rental_uris":{"android":"levelo://app?vid=f5e2031e-550f-42af-a94f-265b764c6478","ios":"levelo://app?vid=f5e2031e-550f-42af-a94f-265b764c6478"},"vehicle_type_id":"4","last_reported":1737562269,"current_range_meters":19600,"station_id":"ce4bgnh2rcd13ifvqc0g","pricing_plan_id":"cebpf4jnsgd1na2vs0mg"},{"bike_id":"42ffd8be-59bd-4e3d-829a-b035d16c04f3","system_id":"levelo_inurba_marseille","lat":43.28408,"lon":5.37507,"is_reserved":false,"is_disabled":false,"rental_uris":{"android":"levelo://app?vid=42ffd8be-59bd-4e3d-829a-b035d16c04f3","ios":"levelo://app?vid=42ffd8be-59bd-4e3d-829a-b035d16c04f3"},"vehicle_type_id":"4","last_reported":1737562269,"current_range_meters":21600,"station_id":"ce4bh412rcd13ifvqds0","pricing_plan_id":"cebpf4jnsgd1na2vs0mg"},{"bike_id":"99104e60-48e8-40fb-b86d-8fa99062a8b2","system_id":"levelo_inurba_marseille","lat":43.28351,"lon":5.38108,"is_reserved":false,"is_disabled":false,"rental_uris":{"android":"levelo://app?vid=99104e60-48e8-40fb-b86d-8fa99062a8b2","ios":"levelo://app?vid=99104e60-48e8-40fb-b86d-8fa99062a8b2"},"vehicle_type_id":"4","last_reported":1737562269,"current_range_meters":22800,"station_id":"ce4bh412rcd13ifvqdr0","pricing_plan_id":"cebpf4jnsgd1na2vs0mg"},{"bike_id":"f4064b91-d50f-4faa-b80a-c4b38df2d08b","system_id":"levelo_inurba_marseille","lat":43.22922,"lon":5.35399,"is_reserved":false,"is_disabled":false,"rental_uris":{"android":"levelo://app?vid=f4064b91-d50f-4faa-b80a-c4b38df2d08b","ios":"levelo://app?vid=f4064b91-d50f-4faa-b80a-c4b38df2d08b"},"vehicle_type_id":"4","last_reported":1737562269,"current_range_meters":38800,"station_id":"cpo3532slgdg3j2ikp40","pricing_plan_id":"cebpf4jnsgd1na2vs0mg"},{"bike_id":"c608a355-799a-42b0-8df8-e6a61a956853","system_id":"levelo_inurba_marseille","lat":43.3172,"lon":5.42394,"is_reserved":false,"is_disabled":false,"rental_uris":{"android":"levelo://app?vid=c608a355-799a-42b0-8df8-e6a61a956853","ios":"levelo://app?vid=c608a355-799a-42b0-8df8-e6a61a956853"},"vehicle_type_id":"4","last_reported":1737562269,"current_range_meters":38800,"station_id":"ce4bhp92rcd13ifvqhbg","pricing_plan_id":"cebpf4jnsgd1na2vs0mg"},{"bike_id":"5e75dd30-ab3b-44d3-8dcb-cb5fd4a0eb65","system_id":"levelo_inurba_marseille","lat":43.24644,"lon":5.38894,"is_reserved":false,"is_disabled":false,"rental_uris":{"android":"levelo://app?vid=5e75dd30-ab3b-44d3-8dcb-cb5fd4a0eb65","ios":"levelo://app?vid=5e75dd30-ab3b-44d3-8dcb-cb5fd4a0eb65"},"vehicle_type_id":"4","last_reported":1737562269,"current_range_meters":38800,"station_id":"ce4bhg12rcd13ifvqf60","pricing_plan_id":"cebpf4jnsgd1na2vs0mg"},{"bike_id":"e1b89984-b5cc-4df5-889d-b87c33e3719c","system_id":"levelo_inurba_marseille","lat":43.29034,"lon":5.37562,"is_reserved":false,"is_disabled":false,"rental_uris":{"android":"levelo://app?vid=e1b89984-b5cc-4df5-889d-b87c33e3719c","ios":"levelo://app?vid=e1b89984-b5cc-4df5-889d-b87c33e3719c"},"vehicle_type_id":"4","last_reported":1737562269,"current_range_meters":38800,"station_id":"ce4bh692rcd13ifvqe90","pricing_plan_id":"cebpf4jnsgd1na2vs0mg"},{"bike_id":"e90a37bb-c054-432e-a931-7847fe334b36","system_id":"levelo_inurba_marseille","lat":43.29027,"lon":5.37574,"is_reserved":false,"is_disabled":false,"rental_uris":{"android":"levelo://app?vid=e90a37bb-c054-432e-a931-7847fe334b36","ios":"levelo://app?vid=e90a37bb-c054-432e-a931-7847fe334b36"},"vehicle_type_id":"4","last_reported":1737562269,"current_range_meters":11600,"station_id":"ce4bh692rcd13ifvqe90","pricing_plan_id":"cebpf4jnsgd1na2vs0mg"},{"bike_id":"ca231ad9-da2a-4434-a1d6-2ea5a619c307","system_id":"levelo_inurba_marseille","lat":43.29212,"lon":5.3604,"is_reserved":false,"is_disabled":false,"rental_uris":{"android":"levelo://app?vid=ca231ad9-da2a-4434-a1d6-2ea5a619c307","ios":"levelo://app?vid=ca231ad9-da2a-4434-a1d6-2ea5a619c307"},"vehicle_type_id":"4","last_reported":1737562269,"current_range_meters":28400,"station_id":"ce4bhbh2rcd13ifvqeqg","pricing_plan_id":"cebpf4jnsgd1na2vs0mg"},{"bike_id":"1365a734-02b9-46ba-b213-858bbb87496f","system_id":"levelo_inurba_marseille","lat":43.29526,"lon":5.37504,"is_reserved":false,"is_disabled":false,"rental_uris":{"android":"levelo://app?vid=1365a734-02b9-46ba-b213-858bbb87496f","ios":"levelo://app?vid=1365a734-02b9-46ba-b213-858bbb87496f"},"vehicle_type_id":"4","last_reported":1737562269,"current_range_meters":38000,"station_id":"ce4bgkp2rcd13ifvqbmg","pricing_plan_id":"cebpf4jnsgd1na2vs0mg"},{"bike_id":"a3758849-7346-4d83-b225-a78a3be78167","system_id":"levelo_inurba_marseille","lat":43.30586,"lon":5.37243,"is_reserved":false,"is_disabled":false,"rental_uris":{"android":"levelo://app?vid=a3758849-7346-4d83-b225-a78a3be78167","ios":"levelo://app?vid=a3758849-7346-4d83-b225-a78a3be78167"},"vehicle_type_id":"4","last_reported":1737562269,"current_range_meters":39200,"station_id":"ce4bgqh2rcd13ifvqc4g","pricing_plan_id":"cebpf4jnsgd1na2vs0mg"},{"bike_id":"8a725843-205b-4bfa-b181-c5d4ae148cad","system_id":"levelo_inurba_marseille","lat":43.26701,"lon":5.38268,"is_reserved":false,"is_disabled":false,"rental_uris":{"android":"levelo://app?vid=8a725843-205b-4bfa-b181-c5d4ae148cad","ios":"levelo://app?vid=8a725843-205b-4bfa-b181-c5d4ae148cad"},"vehicle_type_id":"4","last_reported":1737562269,"current_range_meters":38800,"station_id":"ce4bhg92rcd13ifvqf90","pricing_plan_id":"cebpf4jnsgd1na2vs0mg"},{"bike_id":"3fa09b75-ee39-41a9-b180-6bfe6de901db","system_id":"levelo_inurba_marseille","lat":43.29022,"lon":5.38651,"is_reserved":false,"is_disabled":false,"rental_uris":{"android":"levelo://app?vid=3fa09b75-ee39-41a9-b180-6bfe6de901db","ios":"levelo://app?vid=3fa09b75-ee39-41a9-b180-6bfe6de901db"},"vehicle_type_id":"4","last_reported":1737562269,"current_range_meters":4400,"station_id":"ce4bh4p2rcd13ifvqe0g","pricing_plan_id":"cebpf4jnsgd1na2vs0mg"},{"bike_id":"11864e56-3c6c-40e6-a2f3-a21fa722ad48","system_id":"levelo_inurba_marseille","lat":43.30539,"lon":5.36536,"is_reserved":false,"is_disabled":false,"rental_uris":{"android":"levelo://app?vid=11864e56-3c6c-40e6-a2f3-a21fa722ad48","ios":"levelo://app?vid=11864e56-3c6c-40e6-a2f3-a21fa722ad48"},"vehicle_type_id":"4","last_reported":1737562269,"current_range_meters":38800,"station_id":"ce4bgs12rcd13ifvqcag","pricing_plan_id":"cebpf4jnsgd1na2vs0mg"},{"bike_id":"74fda4f6-8e93-4657-ab9c-446ecf1cdbc9","system_id":"levelo_inurba_marseille","lat":43.30142,"lon":5.39885,"is_reserved":false,"is_disabled":false,"rental_uris":{"android":"levelo://app?vid=74fda4f6-8e93-4657-ab9c-446ecf1cdbc9","ios":"levelo://app?vid=74fda4f6-8e93-4657-ab9c-446ecf1cdbc9"},"vehicle_type_id":"4","last_reported":1737562269,"current_range_meters":20000,"station_id":"ce4bh0h2rcd13ifvqd40","pricing_plan_id":"cebpf4jnsgd1na2vs0mg"},{"bike_id":"1ed73ab7-c11d-4f21-b412-4ec05a8f239d","system_id":"levelo_inurba_marseille","lat":43.29627,"lon":5.37729,"is_reserved":false,"is_disabled":false,"rental_uris":{"android":"levelo://app?vid=1ed73ab7-c11d-4f21-b412-4ec05a8f239d","ios":"levelo://app?vid=1ed73ab7-c11d-4f21-b412-4ec05a8f239d"},"vehicle_type_id":"4","last_reported":1737562269,"current_range_meters":34800,"station_id":"ce4bgi92rcd13ifvqb90","pricing_plan_id":"cebpf4jnsgd1na2vs0mg"},{"bike_id":"61ea179e-09b7-467a-a970-5f4f4cbf1e76","system_id":"levelo_inurba_marseille","lat":43.28267,"lon":5.35064,"is_reserved":false,"is_disabled":false,"rental_uris":{"android":"levelo://app?vid=61ea179e-09b7-467a-a970-5f4f4cbf1e76","ios":"levelo://app?vid=61ea179e-09b7-467a-a970-5f4f4cbf1e76"},"vehicle_type_id":"4","last_reported":1737562269,"current_range_meters":4000,"station_id":"ce4bhbp2rcd13ifvqerg","pricing_plan_id":"cebpf4jnsgd1na2vs0mg"},{"bike_id":"88cee832-bfb0-4a5f-aff7-54ecdf930906","system_id":"levelo_inurba_marseille","lat":43.289382,"lon":5.36629,"is_reserved":false,"is_disabled":false,"rental_uris":{"android":"levelo://app?vid=88cee832-bfb0-4a5f-aff7-54ecdf930906","ios":"levelo://app?vid=88cee832-bfb0-4a5f-aff7-54ecdf930906"},"vehicle_type_id":"4","last_reported":1737562269,"current_range_meters":4000,"station_id":"ce4bhap2rcd13ifvqek0","pricing_plan_id":"cebpf4jnsgd1na2vs0mg"},{"bike_id":"2d3bc297-d5b6-49a9-90d0-7fda3fff0ed7","system_id":"levelo_inurba_marseille","lat":43.31486,"lon":5.37299,"is_reserved":false,"is_disabled":false,"rental_uris":{"android":"levelo://app?vid=2d3bc297-d5b6-49a9-90d0-7fda3fff0ed7","ios":"levelo://app?vid=2d3bc297-d5b6-49a9-90d0-7fda3fff0ed7"},"vehicle_type_id":"4","last_reported":1737562269,"current_range_meters":8000,"station_id":"ce4bgt12rcd13ifvqcd0","pricing_plan_id":"cebpf4jnsgd1na2vs0mg"},{"bike_id":"07656937-ab32-4288-8757-0c43aa56903f","system_id":"levelo_inurba_marseille","lat":43.28459,"lon":5.35882,"is_reserved":false,"is_disabled":false,"rental_uris":{"android":"levelo://app?vid=07656937-ab32-4288-8757-0c43aa56903f","ios":"levelo://app?vid=07656937-ab32-4288-8757-0c43aa56903f"},"vehicle_type_id":"4","last_reported":1737562269,"current_range_meters":38800,"station_id":"ce4bhah2rcd13ifvqei0","pricing_plan_id":"cebpf4jnsgd1na2vs0mg"},{"bike_id":"b1ab1bd4-5cab-4639-9df6-ada6bfcc5075","system_id":"levelo_inurba_marseille","lat":43.30932,"lon":5.40138,"is_reserved":false,"is_disabled":false,"rental_uris":{"android":"levelo://app?vid=b1ab1bd4-5cab-4639-9df6-ada6bfcc5075","ios":"levelo://app?vid=b1ab1bd4-5cab-4639-9df6-ada6bfcc5075"},"vehicle_type_id":"4","last_reported":1737562269,"current_range_meters":25600,"station_id":"ce4bgvp2rcd13ifvqct0","pricing_plan_id":"cebpf4jnsgd1na2vs0mg"},{"bike_id":"fc7d0896-a0d9-4784-82a6-858cbf9807fe","system_id":"levelo_inurba_marseille","lat":43.30812,"lon":5.37616,"is_reserved":false,"is_disabled":false,"rental_uris":{"android":"levelo://app?vid=fc7d0896-a0d9-4784-82a6-858cbf9807fe","ios":"levelo://app?vid=fc7d0896-a0d9-4784-82a6-858cbf9807fe"},"vehicle_type_id":"4","last_reported":1737562269,"current_range_meters":27600,"station_id":"ce4bgv92rcd13ifvqcq0","pricing_plan_id":"cebpf4jnsgd1na2vs0mg"},{"bike_id":"7e034d53-14af-4f50-9dca-08e722d3e1df","system_id":"levelo_inurba_marseille","lat":43.31367,"lon":5.36683,"is_reserved":false,"is_disabled":false,"rental_uris":{"android":"levelo://app?vid=7e034d53-14af-4f50-9dca-08e722d3e1df","ios":"levelo://app?vid=7e034d53-14af-4f50-9dca-08e722d3e1df"},"vehicle_type_id":"4","last_reported":1737562269,"current_range_meters":38400,"station_id":"ce4bgr92rcd13ifvqc6g","pricing_plan_id":"cebpf4jnsgd1na2vs0mg"},{"bike_id":"110f4d36-27c9-49b8-86bf-d85558408b80","system_id":"levelo_inurba_marseille","lat":43.32367,"lon":5.3888,"is_reserved":false,"is_disabled":false,"rental_uris":{"android":"levelo://app?vid=110f4d36-27c9-49b8-86bf-d85558408b80","ios":"levelo://app?vid=110f4d36-27c9-49b8-86bf-d85558408b80"},"vehicle_type_id":"4","last_reported":1737562269,"current_range_meters":23200,"station_id":"ce4bhqp2rcd13ifvqhog","pricing_plan_id":"cebpf4jnsgd1na2vs0mg"},{"bike_id":"e2151eb3-314b-404c-b259-cf12a3a3e0c6","system_id":"levelo_inurba_marseille","lat":43.31582,"lon":5.40222,"is_reserved":false,"is_disabled":false,"rental_uris":{"android":"levelo://app?vid=e2151eb3-314b-404c-b259-cf12a3a3e0c6","ios":"levelo://app?vid=e2151eb3-314b-404c-b259-cf12a3a3e0c6"},"vehicle_type_id":"4","last_reported":1737562269,"current_range_meters":25600,"station_id":"","pricing_plan_id":"cebpf4jnsgd1na2vs0mg"},{"bike_id":"d4c7991c-f935-4a8b-8da7-63383134246d","system_id":"levelo_inurba_marseille","lat":43.27901,"lon":5.39601,"is_reserved":false,"is_disabled":true,"rental_uris":{"android":"levelo://app?vid=d4c7991c-f935-4a8b-8da7-63383134246d","ios":"levelo://app?vid=d4c7991c-f935-4a8b-8da7-63383134246d"},"vehicle_type_id":"4","last_reported":1737562269,"current_range_meters":0,"station_id":"ce4bhf92rcd13ifvqf40","pricing_plan_id":"cebpf4jnsgd1na2vs0mg"},{"bike_id":"cd94cc44-1306-4635-a7a5-07ce336e6bed","system_id":"levelo_inurba_marseille","lat":43.3093,"lon":5.40146,"is_reserved":false,"is_disabled":false,"rental_uris":{"android":"levelo://app?vid=cd94cc44-1306-4635-a7a5-07ce336e6bed","ios":"levelo://app?vid=cd94cc44-1306-4635-a7a5-07ce336e6bed"},"vehicle_type_id":"4","last_reported":1737562269,"current_range_meters":16800,"station_id":"ce4bgvp2rcd13ifvqct0","pricing_plan_id":"cebpf4jnsgd1na2vs0mg"},{"bike_id":"3bcd921d-810c-4845-87ab-d96c2ac5451e","system_id":"levelo_inurba_marseille","lat":43.27824,"lon":5.40713,"is_reserved":false,"is_disabled":false,"rental_uris":{"android":"levelo://app?vid=3bcd921d-810c-4845-87ab-d96c2ac5451e","ios":"levelo://app?vid=3bcd921d-810c-4845-87ab-d96c2ac5451e"},"vehicle_type_id":"4","last_reported":1737562269,"current_range_meters":12000,"station_id":"ce4bhnh2rcd13ifvqgtg","pricing_plan_id":"cebpf4jnsgd1na2vs0mg"},{"bike_id":"4c971e6d-b710-4290-acc2-3a58649cc69c","system_id":"levelo_inurba_marseille","lat":43.31483,"lon":5.37308,"is_reserved":false,"is_disabled":false,"rental_uris":{"android":"levelo://app?vid=4c971e6d-b710-4290-acc2-3a58649cc69c","ios":"levelo://app?vid=4c971e6d-b710-4290-acc2-3a58649cc69c"},"vehicle_type_id":"4","last_reported":1737562269,"current_range_meters":32000,"station_id":"ce4bgt12rcd13ifvqcd0","pricing_plan_id":"cebpf4jnsgd1na2vs0mg"},{"bike_id":"c01ff322-934e-4fed-b8ab-096213fbdb3c","system_id":"levelo_inurba_marseille","lat":43.3199,"lon":5.38135,"is_reserved":false,"is_disabled":false,"rental_uris":{"android":"levelo://app?vid=c01ff322-934e-4fed-b8ab-096213fbdb3c","ios":"levelo://app?vid=c01ff322-934e-4fed-b8ab-096213fbdb3c"},"vehicle_type_id":"4","last_reported":1737562269,"current_range_meters":38800,"station_id":"ce4bhr12rcd13ifvqhpg","pricing_plan_id":"cebpf4jnsgd1na2vs0mg"},{"bike_id":"8f106ce8-8324-47b0-8718-5709929cd8e3","system_id":"levelo_inurba_marseille","lat":43.30211,"lon":5.39482,"is_reserved":false,"is_disabled":false,"rental_uris":{"android":"levelo://app?vid=8f106ce8-8324-47b0-8718-5709929cd8e3","ios":"levelo://app?vid=8f106ce8-8324-47b0-8718-5709929cd8e3"},"vehicle_type_id":"4","last_reported":1737562269,"current_range_meters":27200,"station_id":"ce4bh0p2rcd13ifvqd70","pricing_plan_id":"cebpf4jnsgd1na2vs0mg"},{"bike_id":"7864dc8d-d9b0-43d7-9475-9cf341496809","system_id":"levelo_inurba_marseille","lat":43.32661,"lon":5.40991,"is_reserved":false,"is_disabled":false,"rental_uris":{"android":"levelo://app?vid=7864dc8d-d9b0-43d7-9475-9cf341496809","ios":"levelo://app?vid=7864dc8d-d9b0-43d7-9475-9cf341496809"},"vehicle_type_id":"4","last_reported":1737562269,"current_range_meters":10000,"station_id":"ce4bhpp2rcd13ifvqhgg","pricing_plan_id":"cebpf4jnsgd1na2vs0mg"},{"bike_id":"d4630071-5f36-4339-b427-5e1074fcca05","system_id":"levelo_inurba_marseille","lat":43.29564,"lon":5.37503,"is_reserved":false,"is_disabled":false,"rental_uris":{"android":"levelo://app?vid=d4630071-5f36-4339-b427-5e1074fcca05","ios":"levelo://app?vid=d4630071-5f36-4339-b427-5e1074fcca05"},"vehicle_type_id":"4","last_reported":1737562269,"current_range_meters":39200,"station_id":"ce4bgh92rcd13ifvqb50","pricing_plan_id":"cebpf4jnsgd1na2vs0mg"},{"bike_id":"8cf72ef7-e99d-4251-a909-d1924caef0b7","system_id":"levelo_inurba_marseille","lat":43.29579,"lon":5.36735,"is_reserved":false,"is_disabled":false,"rental_uris":{"android":"levelo://app?vid=8cf72ef7-e99d-4251-a909-d1924caef0b7","ios":"levelo://app?vid=8cf72ef7-e99d-4251-a909-d1924caef0b7"},"vehicle_type_id":"4","last_reported":1737562269,"current_range_meters":38800,"station_id":"ce4bgph2rcd13ifvqc2g","pricing_plan_id":"cebpf4jnsgd1na2vs0mg"},{"bike_id":"6440f376-b0ac-4979-8b74-813c76d7599b","system_id":"levelo_inurba_marseille","lat":43.24181,"lon":5.3972,"is_reserved":false,"is_disabled":false,"rental_uris":{"android":"levelo://app?vid=6440f376-b0ac-4979-8b74-813c76d7599b","ios":"levelo://app?vid=6440f376-b0ac-4979-8b74-813c76d7599b"},"vehicle_type_id":"4","last_reported":1737562269,"current_range_meters":28400,"station_id":"ce4bhn12rcd13ifvqgpg","pricing_plan_id":"cebpf4jnsgd1na2vs0mg"},{"bike_id":"53608539-8cd0-47e7-9cfb-d1161556d6fb","system_id":"levelo_inurba_marseille","lat":43.25509,"lon":5.37655,"is_reserved":false,"is_disabled":false,"rental_uris":{"android":"levelo://app?vid=53608539-8cd0-47e7-9cfb-d1161556d6fb","ios":"levelo://app?vid=53608539-8cd0-47e7-9cfb-d1161556d6fb"},"vehicle_type_id":"4","last_reported":1737562269,"current_range_meters":24400,"station_id":"ce4bhh12rcd13ifvqff0","pricing_plan_id":"cebpf4jnsgd1na2vs0mg"},{"bike_id":"8d687d01-0086-487a-a814-0afe95bbf5e0","system_id":"levelo_inurba_marseille","lat":43.284599,"lon":5.358904,"is_reserved":false,"is_disabled":false,"rental_uris":{"android":"levelo://app?vid=8d687d01-0086-487a-a814-0afe95bbf5e0","ios":"levelo://app?vid=8d687d01-0086-487a-a814-0afe95bbf5e0"},"vehicle_type_id":"4","last_reported":1737562269,"current_range_meters":27600,"station_id":"ce4bhah2rcd13ifvqei0","pricing_plan_id":"cebpf4jnsgd1na2vs0mg"},{"bike_id":"7ef18124-f5b1-4ac7-9816-be69f18ed485","system_id":"levelo_inurba_marseille","lat":43.31753,"lon":5.39014,"is_reserved":false,"is_disabled":false,"rental_uris":{"android":"levelo://app?vid=7ef18124-f5b1-4ac7-9816-be69f18ed485","ios":"levelo://app?vid=7ef18124-f5b1-4ac7-9816-be69f18ed485"},"vehicle_type_id":"4","last_reported":1737562269,"current_range_meters":30800,"station_id":"ce4bhqp2rcd13ifvqhng","pricing_plan_id":"cebpf4jnsgd1na2vs0mg"},{"bike_id":"638d9131-e109-431f-978e-15f3b67e550f","system_id":"levelo_inurba_marseille","lat":43.29262,"lon":5.40902,"is_reserved":false,"is_disabled":false,"rental_uris":{"android":"levelo://app?vid=638d9131-e109-431f-978e-15f3b67e550f","ios":"levelo://app?vid=638d9131-e109-431f-978e-15f3b67e550f"},"vehicle_type_id":"4","last_reported":1737562269,"current_range_meters":6000,"station_id":"ce4bh192rcd13ifvqdc0","pricing_plan_id":"cebpf4jnsgd1na2vs0mg"},{"bike_id":"91f957bd-7ae6-4841-8ac4-1ecdcd0c697e","system_id":"levelo_inurba_marseille","lat":43.3155,"lon":5.40172,"is_reserved":false,"is_disabled":false,"rental_uris":{"android":"levelo://app?vid=91f957bd-7ae6-4841-8ac4-1ecdcd0c697e","ios":"levelo://app?vid=91f957bd-7ae6-4841-8ac4-1ecdcd0c697e"},"vehicle_type_id":"4","last_reported":1737562269,"current_range_meters":28400,"station_id":"","pricing_plan_id":"cebpf4jnsgd1na2vs0mg"},{"bike_id":"96663138-92b9-4343-9a11-314ee4531fc0","system_id":"levelo_inurba_marseille","lat":43.30772,"lon":5.37673,"is_reserved":false,"is_disabled":true,"rental_uris":{"android":"levelo://app?vid=96663138-92b9-4343-9a11-314ee4531fc0","ios":"levelo://app?vid=96663138-92b9-4343-9a11-314ee4531fc0"},"vehicle_type_id":"4","last_reported":1737562269,"current_range_meters":18000,"station_id":"ce4bgv92rcd13ifvqcq0","pricing_plan_id":"cebpf4jnsgd1na2vs0mg"},{"bike_id":"85d819c4-7e64-4edb-8521-02598af0c619","system_id":"levelo_inurba_marseille","lat":43.30928,"lon":5.40138,"is_reserved":false,"is_disabled":false,"rental_uris":{"android":"levelo://app?vid=85d819c4-7e64-4edb-8521-02598af0c619","ios":"levelo://app?vid=85d819c4-7e64-4edb-8521-02598af0c619"},"vehicle_type_id":"4","last_reported":1737562269,"current_range_meters":33200,"station_id":"ce4bgvp2rcd13ifvqct0","pricing_plan_id":"cebpf4jnsgd1na2vs0mg"},{"bike_id":"271d7801-0d99-4e3f-9560-05967cce7634","system_id":"levelo_inurba_marseille","lat":43.28153,"lon":5.42646,"is_reserved":false,"is_disabled":false,"rental_uris":{"android":"levelo://app?vid=271d7801-0d99-4e3f-9560-05967cce7634","ios":"levelo://app?vid=271d7801-0d99-4e3f-9560-05967cce7634"},"vehicle_type_id":"4","last_reported":1737562269,"current_range_meters":29600,"station_id":"ce4bhnh2rcd13ifvqgug","pricing_plan_id":"cebpf4jnsgd1na2vs0mg"},{"bike_id":"2965a976-302f-43d1-97a6-16afd2455155","system_id":"levelo_inurba_marseille","lat":43.27362,"lon":5.36249,"is_reserved":false,"is_disabled":false,"rental_uris":{"android":"levelo://app?vid=2965a976-302f-43d1-97a6-16afd2455155","ios":"levelo://app?vid=2965a976-302f-43d1-97a6-16afd2455155"},"vehicle_type_id":"4","last_reported":1737562269,"current_range_meters":25200,"station_id":"ce4bhbh2rcd13ifvqeo0","pricing_plan_id":"cebpf4jnsgd1na2vs0mg"},{"bike_id":"67245272-a27e-436c-bf2b-5d46bab79732","system_id":"levelo_inurba_marseille","lat":43.28568,"lon":5.39491,"is_reserved":false,"is_disabled":false,"rental_uris":{"android":"levelo://app?vid=67245272-a27e-436c-bf2b-5d46bab79732","ios":"levelo://app?vid=67245272-a27e-436c-bf2b-5d46bab79732"},"vehicle_type_id":"4","last_reported":1737562269,"current_range_meters":14400,"station_id":"ce4bh292rcd13ifvqdg0","pricing_plan_id":"cebpf4jnsgd1na2vs0mg"},{"bike_id":"46e34e66-d2cb-4f4a-9057-c8a5ef0ab200","system_id":"levelo_inurba_marseille","lat":43.29028,"lon":5.38762,"is_reserved":false,"is_disabled":false,"rental_uris":{"android":"levelo://app?vid=46e34e66-d2cb-4f4a-9057-c8a5ef0ab200","ios":"levelo://app?vid=46e34e66-d2cb-4f4a-9057-c8a5ef0ab200"},"vehicle_type_id":"4","last_reported":1737562269,"current_range_meters":20800,"station_id":"","pricing_plan_id":"cebpf4jnsgd1na2vs0mg"},{"bike_id":"53792794-8cf4-45fd-bbea-1c58be27c71e","system_id":"levelo_inurba_marseille","lat":43.28844,"lon":5.35837,"is_reserved":false,"is_disabled":false,"rental_uris":{"android":"levelo://app?vid=53792794-8cf4-45fd-bbea-1c58be27c71e","ios":"levelo://app?vid=53792794-8cf4-45fd-bbea-1c58be27c71e"},"vehicle_type_id":"4","last_reported":1737562269,"current_range_meters":27200,"station_id":"ce4bhb12rcd13ifvqem0","pricing_plan_id":"cebpf4jnsgd1na2vs0mg"},{"bike_id":"8ab0346c-8001-4067-8852-009244e2b53d","system_id":"levelo_inurba_marseille","lat":43.31095,"lon":5.42425,"is_reserved":false,"is_disabled":false,"rental_uris":{"android":"levelo://app?vid=8ab0346c-8001-4067-8852-009244e2b53d","ios":"levelo://app?vid=8ab0346c-8001-4067-8852-009244e2b53d"},"vehicle_type_id":"4","last_reported":1737562269,"current_range_meters":39200,"station_id":"ce4bhp92rcd13ifvqhag","pricing_plan_id":"cebpf4jnsgd1na2vs0mg"},{"bike_id":"739f7b1b-f042-4588-924b-06586f85c8d8","system_id":"levelo_inurba_marseille","lat":43.29779,"lon":5.381,"is_reserved":false,"is_disabled":false,"rental_uris":{"android":"levelo://app?vid=739f7b1b-f042-4588-924b-06586f85c8d8","ios":"levelo://app?vid=739f7b1b-f042-4588-924b-06586f85c8d8"},"vehicle_type_id":"4","last_reported":1737562269,"current_range_meters":38800,"station_id":"ce4bgip2rcd13ifvqbb0","pricing_plan_id":"cebpf4jnsgd1na2vs0mg"},{"bike_id":"98ba9676-d6d3-4a21-9d18-c96647ecd323","system_id":"levelo_inurba_marseille","lat":43.29852,"lon":5.36288,"is_reserved":false,"is_disabled":false,"rental_uris":{"android":"levelo://app?vid=98ba9676-d6d3-4a21-9d18-c96647ecd323","ios":"levelo://app?vid=98ba9676-d6d3-4a21-9d18-c96647ecd323"},"vehicle_type_id":"4","last_reported":1737562269,"current_range_meters":38400,"station_id":"ce4bgpp2rcd13ifvqc3g","pricing_plan_id":"cebpf4jnsgd1na2vs0mg"},{"bike_id":"d0bfa2c6-0f6a-4f61-8410-57b0ddd6c8ca","system_id":"levelo_inurba_marseille","lat":43.25872,"lon":5.39895,"is_reserved":false,"is_disabled":false,"rental_uris":{"android":"levelo://app?vid=d0bfa2c6-0f6a-4f61-8410-57b0ddd6c8ca","ios":"levelo://app?vid=d0bfa2c6-0f6a-4f61-8410-57b0ddd6c8ca"},"vehicle_type_id":"4","last_reported":1737562269,"current_range_meters":32400,"station_id":"ce4bhl92rcd13ifvqghg","pricing_plan_id":"cebpf4jnsgd1na2vs0mg"},{"bike_id":"ce2fa75e-59f5-48a3-89b1-149c639a3354","system_id":"levelo_inurba_marseille","lat":43.28943,"lon":5.36378,"is_reserved":false,"is_disabled":false,"rental_uris":{"android":"levelo://app?vid=ce2fa75e-59f5-48a3-89b1-149c639a3354","ios":"levelo://app?vid=ce2fa75e-59f5-48a3-89b1-149c639a3354"},"vehicle_type_id":"4","last_reported":1737562269,"current_range_meters":33200,"station_id":"ce4bhc92rcd13ifvqetg","pricing_plan_id":"cebpf4jnsgd1na2vs0mg"},{"bike_id":"e14baba4-7381-4ad7-9450-30b4b09a275b","system_id":"levelo_inurba_marseille","lat":43.31083,"lon":5.42432,"is_reserved":false,"is_disabled":false,"rental_uris":{"android":"levelo://app?vid=e14baba4-7381-4ad7-9450-30b4b09a275b","ios":"levelo://app?vid=e14baba4-7381-4ad7-9450-30b4b09a275b"},"vehicle_type_id":"4","last_reported":1737562269,"current_range_meters":26800,"station_id":"ce4bhp92rcd13ifvqhag","pricing_plan_id":"cebpf4jnsgd1na2vs0mg"},{"bike_id":"bb903e76-66e9-47a7-a21b-9c74eee3f530","system_id":"levelo_inurba_marseille","lat":43.25037,"lon":5.38969,"is_reserved":false,"is_disabled":false,"rental_uris":{"android":"levelo://app?vid=bb903e76-66e9-47a7-a21b-9c74eee3f530","ios":"levelo://app?vid=bb903e76-66e9-47a7-a21b-9c74eee3f530"},"vehicle_type_id":"4","last_reported":1737562269,"current_range_meters":39200,"station_id":"ce4bhgp2rcd13ifvqfd0","pricing_plan_id":"cebpf4jnsgd1na2vs0mg"},{"bike_id":"360da11b-bb0e-488e-8573-8ea9e91d7141","system_id":"levelo_inurba_marseille","lat":43.2695,"lon":5.38627,"is_reserved":false,"is_disabled":false,"rental_uris":{"android":"levelo://app?vid=360da11b-bb0e-488e-8573-8ea9e91d7141","ios":"levelo://app?vid=360da11b-bb0e-488e-8573-8ea9e91d7141"},"vehicle_type_id":"4","last_reported":1737562269,"current_range_meters":10800,"station_id":"ce4bhh92rcd13ifvqfh0","pricing_plan_id":"cebpf4jnsgd1na2vs0mg"},{"bike_id":"2668dcd1-aeed-459c-8887-24c43fc0b8bb","system_id":"levelo_inurba_marseille","lat":43.30928,"lon":5.40166,"is_reserved":false,"is_disabled":false,"rental_uris":{"android":"levelo://app?vid=2668dcd1-aeed-459c-8887-24c43fc0b8bb","ios":"levelo://app?vid=2668dcd1-aeed-459c-8887-24c43fc0b8bb"},"vehicle_type_id":"4","last_reported":1737562269,"current_range_meters":17200,"station_id":"ce4bgvp2rcd13ifvqct0","pricing_plan_id":"cebpf4jnsgd1na2vs0mg"},{"bike_id":"1fa60d53-3f53-4b5b-a592-32004cfad4a9","system_id":"levelo_inurba_marseille","lat":43.28098,"lon":5.37837,"is_reserved":false,"is_disabled":false,"rental_uris":{"android":"levelo://app?vid=1fa60d53-3f53-4b5b-a592-32004cfad4a9","ios":"levelo://app?vid=1fa60d53-3f53-4b5b-a592-32004cfad4a9"},"vehicle_type_id":"4","last_reported":1737562269,"current_range_meters":24400,"station_id":"ce4bha12rcd13ifvqee0","pricing_plan_id":"cebpf4jnsgd1na2vs0mg"},{"bike_id":"4f803a32-d8d9-43e4-85d9-6cc4ea79cda0","system_id":"levelo_inurba_marseille","lat":43.294159,"lon":5.386173,"is_reserved":false,"is_disabled":false,"rental_uris":{"android":"levelo://app?vid=4f803a32-d8d9-43e4-85d9-6cc4ea79cda0","ios":"levelo://app?vid=4f803a32-d8d9-43e4-85d9-6cc4ea79cda0"},"vehicle_type_id":"4","last_reported":1737562269,"current_range_meters":18000,"station_id":"ce4bh2h2rcd13ifvqdh0","pricing_plan_id":"cebpf4jnsgd1na2vs0mg"},{"bike_id":"18110634-8656-4425-868c-91f0e5cdb086","system_id":"levelo_inurba_marseille","lat":43.25085,"lon":5.39528,"is_reserved":false,"is_disabled":false,"rental_uris":{"android":"levelo://app?vid=18110634-8656-4425-868c-91f0e5cdb086","ios":"levelo://app?vid=18110634-8656-4425-868c-91f0e5cdb086"},"vehicle_type_id":"4","last_reported":1737562269,"current_range_meters":38800,"station_id":"ce4bhm12rcd13ifvqgkg","pricing_plan_id":"cebpf4jnsgd1na2vs0mg"},{"bike_id":"027232b4-42fa-4f46-9215-a1fbe4a00bcd","system_id":"levelo_inurba_marseille","lat":43.3093,"lon":5.40122,"is_reserved":false,"is_disabled":false,"rental_uris":{"android":"levelo://app?vid=027232b4-42fa-4f46-9215-a1fbe4a00bcd","ios":"levelo://app?vid=027232b4-42fa-4f46-9215-a1fbe4a00bcd"},"vehicle_type_id":"4","last_reported":1737562269,"current_range_meters":24800,"station_id":"ce4bgvp2rcd13ifvqct0","pricing_plan_id":"cebpf4jnsgd1na2vs0mg"},{"bike_id":"e0d2345f-1a21-4247-ad6f-a2c412b73bba","system_id":"levelo_inurba_marseille","lat":43.26199,"lon":5.37454,"is_reserved":false,"is_disabled":false,"rental_uris":{"android":"levelo://app?vid=e0d2345f-1a21-4247-ad6f-a2c412b73bba","ios":"levelo://app?vid=e0d2345f-1a21-4247-ad6f-a2c412b73bba"},"vehicle_type_id":"4","last_reported":1737562269,"current_range_meters":29600,"station_id":"ce4bhgp2rcd13ifvqfc0","pricing_plan_id":"cebpf4jnsgd1na2vs0mg"},{"bike_id":"c59e854e-b7e1-4dd9-951c-c12cf587190e","system_id":"levelo_inurba_marseille","lat":43.25529,"lon":5.37642,"is_reserved":false,"is_disabled":false,"rental_uris":{"android":"levelo://app?vid=c59e854e-b7e1-4dd9-951c-c12cf587190e","ios":"levelo://app?vid=c59e854e-b7e1-4dd9-951c-c12cf587190e"},"vehicle_type_id":"4","last_reported":1737562269,"current_range_meters":36800,"station_id":"ce4bhh12rcd13ifvqff0","pricing_plan_id":"cebpf4jnsgd1na2vs0mg"},{"bike_id":"13a838cb-bcc1-4b93-9552-c729c0d9b2f6","system_id":"levelo_inurba_marseille","lat":43.24798,"lon":5.37448,"is_reserved":false,"is_disabled":false,"rental_uris":{"android":"levelo://app?vid=13a838cb-bcc1-4b93-9552-c729c0d9b2f6","ios":"levelo://app?vid=13a838cb-bcc1-4b93-9552-c729c0d9b2f6"},"vehicle_type_id":"4","last_reported":1737562269,"current_range_meters":39200,"station_id":"ce4bhgh2rcd13ifvqfb0","pricing_plan_id":"cebpf4jnsgd1na2vs0mg"},{"bike_id":"4c9f6cfd-d151-4620-961f-d7dee6c2c476","system_id":"levelo_inurba_marseille","lat":43.29247,"lon":5.4091,"is_reserved":false,"is_disabled":false,"rental_uris":{"android":"levelo://app?vid=4c9f6cfd-d151-4620-961f-d7dee6c2c476","ios":"levelo://app?vid=4c9f6cfd-d151-4620-961f-d7dee6c2c476"},"vehicle_type_id":"4","last_reported":1737562269,"current_range_meters":38800,"station_id":"ce4bh192rcd13ifvqdc0","pricing_plan_id":"cebpf4jnsgd1na2vs0mg"},{"bike_id":"8290cc61-9513-45c9-bc85-5811a1b0e775","system_id":"levelo_inurba_marseille","lat":43.29278,"lon":5.40131,"is_reserved":false,"is_disabled":false,"rental_uris":{"android":"levelo://app?vid=8290cc61-9513-45c9-bc85-5811a1b0e775","ios":"levelo://app?vid=8290cc61-9513-45c9-bc85-5811a1b0e775"},"vehicle_type_id":"4","last_reported":1737562269,"current_range_meters":38800,"station_id":"ce4bh312rcd13ifvqdk0","pricing_plan_id":"cebpf4jnsgd1na2vs0mg"},{"bike_id":"9a42d232-900d-461b-9908-271fe1871499","system_id":"levelo_inurba_marseille","lat":43.27813,"lon":5.40689,"is_reserved":false,"is_disabled":false,"rental_uris":{"android":"levelo://app?vid=9a42d232-900d-461b-9908-271fe1871499","ios":"levelo://app?vid=9a42d232-900d-461b-9908-271fe1871499"},"vehicle_type_id":"4","last_reported":1737562269,"current_range_meters":33600,"station_id":"ce4bhnh2rcd13ifvqgtg","pricing_plan_id":"cebpf4jnsgd1na2vs0mg"},{"bike_id":"0ddcc5e0-652e-4932-b744-fa4d8d36b4cc","system_id":"levelo_inurba_marseille","lat":43.30175,"lon":5.36616,"is_reserved":false,"is_disabled":false,"rental_uris":{"android":"levelo://app?vid=0ddcc5e0-652e-4932-b744-fa4d8d36b4cc","ios":"levelo://app?vid=0ddcc5e0-652e-4932-b744-fa4d8d36b4cc"},"vehicle_type_id":"4","last_reported":1737562269,"current_range_meters":8400,"station_id":"ce4bgrh2rcd13ifvqc8g","pricing_plan_id":"cebpf4jnsgd1na2vs0mg"},{"bike_id":"328ed847-7cc0-43c6-a049-c0223415b297","system_id":"levelo_inurba_marseille","lat":43.26571,"lon":5.39015,"is_reserved":false,"is_disabled":false,"rental_uris":{"android":"levelo://app?vid=328ed847-7cc0-43c6-a049-c0223415b297","ios":"levelo://app?vid=328ed847-7cc0-43c6-a049-c0223415b297"},"vehicle_type_id":"4","last_reported":1737562269,"current_range_meters":28400,"station_id":"ce4bhe12rcd13ifvqf30","pricing_plan_id":"cebpf4jnsgd1na2vs0mg"},{"bike_id":"1450bd64-05c1-4364-83aa-daa0fb011f91","system_id":"levelo_inurba_marseille","lat":43.29984,"lon":5.41305,"is_reserved":false,"is_disabled":false,"rental_uris":{"android":"levelo://app?vid=1450bd64-05c1-4364-83aa-daa0fb011f91","ios":"levelo://app?vid=1450bd64-05c1-4364-83aa-daa0fb011f91"},"vehicle_type_id":"4","last_reported":1737562269,"current_range_meters":39200,"station_id":"ce4bhp12rcd13ifvqh9g","pricing_plan_id":"cebpf4jnsgd1na2vs0mg"},{"bike_id":"d8913ec1-b9e4-4840-802c-743a22ef4a3d","system_id":"levelo_inurba_marseille","lat":43.28405,"lon":5.3752,"is_reserved":false,"is_disabled":false,"rental_uris":{"android":"levelo://app?vid=d8913ec1-b9e4-4840-802c-743a22ef4a3d","ios":"levelo://app?vid=d8913ec1-b9e4-4840-802c-743a22ef4a3d"},"vehicle_type_id":"4","last_reported":1737562269,"current_range_meters":13600,"station_id":"ce4bh412rcd13ifvqds0","pricing_plan_id":"cebpf4jnsgd1na2vs0mg"},{"bike_id":"b626bcd0-a858-4d3b-beef-9635c8fc6579","system_id":"levelo_inurba_marseille","lat":43.31474,"lon":5.37312,"is_reserved":false,"is_disabled":false,"rental_uris":{"android":"levelo://app?vid=b626bcd0-a858-4d3b-beef-9635c8fc6579","ios":"levelo://app?vid=b626bcd0-a858-4d3b-beef-9635c8fc6579"},"vehicle_type_id":"4","last_reported":1737562269,"current_range_meters":30000,"station_id":"ce4bgt12rcd13ifvqcd0","pricing_plan_id":"cebpf4jnsgd1na2vs0mg"},{"bike_id":"eec31044-3cf1-4be2-b945-3bee6d201330","system_id":"levelo_inurba_marseille","lat":43.29916,"lon":5.38162,"is_reserved":false,"is_disabled":false,"rental_uris":{"android":"levelo://app?vid=eec31044-3cf1-4be2-b945-3bee6d201330","ios":"levelo://app?vid=eec31044-3cf1-4be2-b945-3bee6d201330"},"vehicle_type_id":"4","last_reported":1737562269,"current_range_meters":22000,"station_id":"ce4bgj12rcd13ifvqbc0","pricing_plan_id":"cebpf4jnsgd1na2vs0mg"},{"bike_id":"b72ddc83-3731-426e-9702-e3b97f9dddfa","system_id":"levelo_inurba_marseille","lat":43.29209,"lon":5.36034,"is_reserved":false,"is_disabled":false,"rental_uris":{"android":"levelo://app?vid=b72ddc83-3731-426e-9702-e3b97f9dddfa","ios":"levelo://app?vid=b72ddc83-3731-426e-9702-e3b97f9dddfa"},"vehicle_type_id":"4","last_reported":1737562269,"current_range_meters":4000,"station_id":"ce4bhbh2rcd13ifvqeqg","pricing_plan_id":"cebpf4jnsgd1na2vs0mg"},{"bike_id":"930435e4-6f25-435f-ae9f-b27fc3275853","system_id":"levelo_inurba_marseille","lat":43.30892,"lon":5.37202,"is_reserved":false,"is_disabled":false,"rental_uris":{"android":"levelo://app?vid=930435e4-6f25-435f-ae9f-b27fc3275853","ios":"levelo://app?vid=930435e4-6f25-435f-ae9f-b27fc3275853"},"vehicle_type_id":"4","last_reported":1737562269,"current_range_meters":38800,"station_id":"ce4bguh2rcd13ifvqckg","pricing_plan_id":"cebpf4jnsgd1na2vs0mg"},{"bike_id":"83c8291e-6ccd-4b39-8d93-3118f9273c38","system_id":"levelo_inurba_marseille","lat":43.31226,"lon":5.36872,"is_reserved":false,"is_disabled":false,"rental_uris":{"android":"levelo://app?vid=83c8291e-6ccd-4b39-8d93-3118f9273c38","ios":"levelo://app?vid=83c8291e-6ccd-4b39-8d93-3118f9273c38"},"vehicle_type_id":"4","last_reported":1737562269,"current_range_meters":18800,"station_id":"ce4bgl92rcd13ifvqbq0","pricing_plan_id":"cebpf4jnsgd1na2vs0mg"},{"bike_id":"65dccb82-e0d5-464f-9ab0-52b1f760eca6","system_id":"levelo_inurba_marseille","lat":43.27365,"lon":5.36251,"is_reserved":false,"is_disabled":false,"rental_uris":{"android":"levelo://app?vid=65dccb82-e0d5-464f-9ab0-52b1f760eca6","ios":"levelo://app?vid=65dccb82-e0d5-464f-9ab0-52b1f760eca6"},"vehicle_type_id":"4","last_reported":1737562269,"current_range_meters":37600,"station_id":"ce4bhbh2rcd13ifvqeo0","pricing_plan_id":"cebpf4jnsgd1na2vs0mg"},{"bike_id":"01a62aad-27ed-4a1b-9567-1dda5f235805","system_id":"levelo_inurba_marseille","lat":43.32364,"lon":5.38883,"is_reserved":false,"is_disabled":false,"rental_uris":{"android":"levelo://app?vid=01a62aad-27ed-4a1b-9567-1dda5f235805","ios":"levelo://app?vid=01a62aad-27ed-4a1b-9567-1dda5f235805"},"vehicle_type_id":"4","last_reported":1737562269,"current_range_meters":17600,"station_id":"ce4bhqp2rcd13ifvqhog","pricing_plan_id":"cebpf4jnsgd1na2vs0mg"},{"bike_id":"ffd81504-2a59-4e49-b9cb-6dcde59867d7","system_id":"levelo_inurba_marseille","lat":43.25824,"lon":5.39427,"is_reserved":false,"is_disabled":false,"rental_uris":{"android":"levelo://app?vid=ffd81504-2a59-4e49-b9cb-6dcde59867d7","ios":"levelo://app?vid=ffd81504-2a59-4e49-b9cb-6dcde59867d7"},"vehicle_type_id":"4","last_reported":1737562269,"current_range_meters":35200,"station_id":"ce4bhip2rcd13ifvqft0","pricing_plan_id":"cebpf4jnsgd1na2vs0mg"},{"bike_id":"b1a4c214-5afb-4ae3-8bd7-40ade86c0caa","system_id":"levelo_inurba_marseille","lat":43.28667,"lon":5.38669,"is_reserved":false,"is_disabled":false,"rental_uris":{"android":"levelo://app?vid=b1a4c214-5afb-4ae3-8bd7-40ade86c0caa","ios":"levelo://app?vid=b1a4c214-5afb-4ae3-8bd7-40ade86c0caa"},"vehicle_type_id":"4","last_reported":1737562269,"current_range_meters":20800,"station_id":"ce4bh492rcd13ifvqdug","pricing_plan_id":"cebpf4jnsgd1na2vs0mg"},{"bike_id":"c8207e0e-f323-464e-b32f-58e506472352","system_id":"levelo_inurba_marseille","lat":43.26215,"lon":5.3742,"is_reserved":false,"is_disabled":false,"rental_uris":{"android":"levelo://app?vid=c8207e0e-f323-464e-b32f-58e506472352","ios":"levelo://app?vid=c8207e0e-f323-464e-b32f-58e506472352"},"vehicle_type_id":"4","last_reported":1737562269,"current_range_meters":38000,"station_id":"ce4bhgp2rcd13ifvqfc0","pricing_plan_id":"cebpf4jnsgd1na2vs0mg"},{"bike_id":"7d3a62e7-dc66-4cce-99b3-4d0e48129f5d","system_id":"levelo_inurba_marseille","lat":43.31344,"lon":5.36732,"is_reserved":false,"is_disabled":false,"rental_uris":{"android":"levelo://app?vid=7d3a62e7-dc66-4cce-99b3-4d0e48129f5d","ios":"levelo://app?vid=7d3a62e7-dc66-4cce-99b3-4d0e48129f5d"},"vehicle_type_id":"4","last_reported":1737562269,"current_range_meters":10000,"station_id":"ce4bgr92rcd13ifvqc6g","pricing_plan_id":"cebpf4jnsgd1na2vs0mg"},{"bike_id":"13a64475-e4c7-493c-900a-0bcfe86942ca","system_id":"levelo_inurba_marseille","lat":43.30805,"lon":5.43522,"is_reserved":false,"is_disabled":false,"rental_uris":{"android":"levelo://app?vid=13a64475-e4c7-493c-900a-0bcfe86942ca","ios":"levelo://app?vid=13a64475-e4c7-493c-900a-0bcfe86942ca"},"vehicle_type_id":"4","last_reported":1737562269,"current_range_meters":16800,"station_id":"ce4bhph2rcd13ifvqheg","pricing_plan_id":"cebpf4jnsgd1na2vs0mg"},{"bike_id":"8662c7d5-3319-4ca7-979b-70f2a633bed5","system_id":"levelo_inurba_marseille","lat":43.295878,"lon":5.367303,"is_reserved":false,"is_disabled":false,"rental_uris":{"android":"levelo://app?vid=8662c7d5-3319-4ca7-979b-70f2a633bed5","ios":"levelo://app?vid=8662c7d5-3319-4ca7-979b-70f2a633bed5"},"vehicle_type_id":"4","last_reported":1737562269,"current_range_meters":38800,"station_id":"ce4bgph2rcd13ifvqc2g","pricing_plan_id":"cebpf4jnsgd1na2vs0mg"},{"bike_id":"4784f4d0-8541-4160-ac19-b8ca95746303","system_id":"levelo_inurba_marseille","lat":43.25053,"lon":5.39501,"is_reserved":false,"is_disabled":false,"rental_uris":{"android":"levelo://app?vid=4784f4d0-8541-4160-ac19-b8ca95746303","ios":"levelo://app?vid=4784f4d0-8541-4160-ac19-b8ca95746303"},"vehicle_type_id":"4","last_reported":1737562269,"current_range_meters":38800,"station_id":"ce4bhm12rcd13ifvqgkg","pricing_plan_id":"cebpf4jnsgd1na2vs0mg"},{"bike_id":"96a75161-50c7-4610-9169-20330c51ab89","system_id":"levelo_inurba_marseille","lat":43.29887,"lon":5.38914,"is_reserved":false,"is_disabled":false,"rental_uris":{"android":"levelo://app?vid=96a75161-50c7-4610-9169-20330c51ab89","ios":"levelo://app?vid=96a75161-50c7-4610-9169-20330c51ab89"},"vehicle_type_id":"4","last_reported":1737562269,"current_range_meters":38800,"station_id":"ce4bh392rcd13ifvqdl0","pricing_plan_id":"cebpf4jnsgd1na2vs0mg"},{"bike_id":"9d82c8f7-b8da-43a1-9a3a-1a9d373f21fa","system_id":"levelo_inurba_marseille","lat":43.29576,"lon":5.37513,"is_reserved":false,"is_disabled":false,"rental_uris":{"android":"levelo://app?vid=9d82c8f7-b8da-43a1-9a3a-1a9d373f21fa","ios":"levelo://app?vid=9d82c8f7-b8da-43a1-9a3a-1a9d373f21fa"},"vehicle_type_id":"4","last_reported":1737562269,"current_range_meters":16400,"station_id":"ce4bgh92rcd13ifvqb50","pricing_plan_id":"cebpf4jnsgd1na2vs0mg"},{"bike_id":"d828404d-f5cd-4ecd-8c73-fb26ffcead36","system_id":"levelo_inurba_marseille","lat":43.29527,"lon":5.39034,"is_reserved":false,"is_disabled":false,"rental_uris":{"android":"levelo://app?vid=d828404d-f5cd-4ecd-8c73-fb26ffcead36","ios":"levelo://app?vid=d828404d-f5cd-4ecd-8c73-fb26ffcead36"},"vehicle_type_id":"4","last_reported":1737562269,"current_range_meters":26000,"station_id":"ce4bh3p2rcd13ifvqdp0","pricing_plan_id":"cebpf4jnsgd1na2vs0mg"},{"bike_id":"e763fbba-b8cc-400e-9b8a-1db13f8509f9","system_id":"levelo_inurba_marseille","lat":43.29881,"lon":5.43657,"is_reserved":false,"is_disabled":false,"rental_uris":{"android":"levelo://app?vid=e763fbba-b8cc-400e-9b8a-1db13f8509f9","ios":"levelo://app?vid=e763fbba-b8cc-400e-9b8a-1db13f8509f9"},"vehicle_type_id":"4","last_reported":1737562269,"current_range_meters":12000,"station_id":"ce4bhpp2rcd13ifvqhfg","pricing_plan_id":"cebpf4jnsgd1na2vs0mg"},{"bike_id":"f8216a2b-e7c5-4eea-8c3d-912daef0d729","system_id":"levelo_inurba_marseille","lat":43.29898,"lon":5.43682,"is_reserved":false,"is_disabled":false,"rental_uris":{"android":"levelo://app?vid=f8216a2b-e7c5-4eea-8c3d-912daef0d729","ios":"levelo://app?vid=f8216a2b-e7c5-4eea-8c3d-912daef0d729"},"vehicle_type_id":"4","last_reported":1737562269,"current_range_meters":22400,"station_id":"ce4bhpp2rcd13ifvqhfg","pricing_plan_id":"cebpf4jnsgd1na2vs0mg"},{"bike_id":"86fce387-d25e-46bb-928c-c6923257e7fb","system_id":"levelo_inurba_marseille","lat":43.2842,"lon":5.37512,"is_reserved":false,"is_disabled":false,"rental_uris":{"android":"levelo://app?vid=86fce387-d25e-46bb-928c-c6923257e7fb","ios":"levelo://app?vid=86fce387-d25e-46bb-928c-c6923257e7fb"},"vehicle_type_id":"4","last_reported":1737562269,"current_range_meters":38800,"station_id":"ce4bh412rcd13ifvqds0","pricing_plan_id":"cebpf4jnsgd1na2vs0mg"},{"bike_id":"f69be3dd-5c08-41a5-a494-c4d2892249c1","system_id":"levelo_inurba_marseille","lat":43.33732,"lon":5.39184,"is_reserved":false,"is_disabled":false,"rental_uris":{"android":"levelo://app?vid=f69be3dd-5c08-41a5-a494-c4d2892249c1","ios":"levelo://app?vid=f69be3dd-5c08-41a5-a494-c4d2892249c1"},"vehicle_type_id":"4","last_reported":1737562269,"current_range_meters":39200,"station_id":"ce4bhr92rcd13ifvqhsg","pricing_plan_id":"cebpf4jnsgd1na2vs0mg"},{"bike_id":"e9e6cc9f-d1f4-4833-ac1e-33312476aaeb","system_id":"levelo_inurba_marseille","lat":43.30947,"lon":5.40133,"is_reserved":false,"is_disabled":false,"rental_uris":{"android":"levelo://app?vid=e9e6cc9f-d1f4-4833-ac1e-33312476aaeb","ios":"levelo://app?vid=e9e6cc9f-d1f4-4833-ac1e-33312476aaeb"},"vehicle_type_id":"4","last_reported":1737562269,"current_range_meters":38800,"station_id":"ce4bgvp2rcd13ifvqct0","pricing_plan_id":"cebpf4jnsgd1na2vs0mg"},{"bike_id":"9863b7f9-4316-4322-9f6c-3cc66b0448e2","system_id":"levelo_inurba_marseille","lat":43.279439,"lon":5.389008,"is_reserved":false,"is_disabled":true,"rental_uris":{"android":"levelo://app?vid=9863b7f9-4316-4322-9f6c-3cc66b0448e2","ios":"levelo://app?vid=9863b7f9-4316-4322-9f6c-3cc66b0448e2"},"vehicle_type_id":"4","last_reported":1737562269,"current_range_meters":28400,"station_id":"","pricing_plan_id":"cebpf4jnsgd1na2vs0mg"},{"bike_id":"1de4688a-ba38-4915-bca7-aba57182f0cf","system_id":"levelo_inurba_marseille","lat":43.27308,"lon":5.39092,"is_reserved":false,"is_disabled":false,"rental_uris":{"android":"levelo://app?vid=1de4688a-ba38-4915-bca7-aba57182f0cf","ios":"levelo://app?vid=1de4688a-ba38-4915-bca7-aba57182f0cf"},"vehicle_type_id":"4","last_reported":1737562269,"current_range_meters":8800,"station_id":"ce4bhgp2rcd13ifvqfe0","pricing_plan_id":"cebpf4jnsgd1na2vs0mg"},{"bike_id":"1a078beb-5d6b-4cdb-a1c1-8de6904fb10e","system_id":"levelo_inurba_marseille","lat":43.30124,"lon":5.39861,"is_reserved":false,"is_disabled":false,"rental_uris":{"android":"levelo://app?vid=1a078beb-5d6b-4cdb-a1c1-8de6904fb10e","ios":"levelo://app?vid=1a078beb-5d6b-4cdb-a1c1-8de6904fb10e"},"vehicle_type_id":"4","last_reported":1737562269,"current_range_meters":10800,"station_id":"ce4bh0h2rcd13ifvqd40","pricing_plan_id":"cebpf4jnsgd1na2vs0mg"},{"bike_id":"f71dd93e-fb3b-4f99-806d-64bc976a3954","system_id":"levelo_inurba_marseille","lat":43.29218,"lon":5.360595,"is_reserved":false,"is_disabled":false,"rental_uris":{"android":"levelo://app?vid=f71dd93e-fb3b-4f99-806d-64bc976a3954","ios":"levelo://app?vid=f71dd93e-fb3b-4f99-806d-64bc976a3954"},"vehicle_type_id":"4","last_reported":1737562269,"current_range_meters":22000,"station_id":"ce4bhbh2rcd13ifvqeqg","pricing_plan_id":"cebpf4jnsgd1na2vs0mg"},{"bike_id":"eddb6b89-082b-479c-b34f-44c352a03897","system_id":"levelo_inurba_marseille","lat":43.255,"lon":5.37652,"is_reserved":false,"is_disabled":false,"rental_uris":{"android":"levelo://app?vid=eddb6b89-082b-479c-b34f-44c352a03897","ios":"levelo://app?vid=eddb6b89-082b-479c-b34f-44c352a03897"},"vehicle_type_id":"4","last_reported":1737562269,"current_range_meters":38800,"station_id":"ce4bhh12rcd13ifvqff0","pricing_plan_id":"cebpf4jnsgd1na2vs0mg"},{"bike_id":"78108cc9-6f70-48f1-b23c-b9be9121b717","system_id":"levelo_inurba_marseille","lat":43.269473,"lon":5.40268,"is_reserved":false,"is_disabled":false,"rental_uris":{"android":"levelo://app?vid=78108cc9-6f70-48f1-b23c-b9be9121b717","ios":"levelo://app?vid=78108cc9-6f70-48f1-b23c-b9be9121b717"},"vehicle_type_id":"4","last_reported":1737562269,"current_range_meters":12800,"station_id":"cjm6bp8fraef2m0cb0m0","pricing_plan_id":"cebpf4jnsgd1na2vs0mg"},{"bike_id":"f315bc93-4512-466f-b8ea-ac633e98ac21","system_id":"levelo_inurba_marseille","lat":43.28424,"lon":5.34989,"is_reserved":false,"is_disabled":false,"rental_uris":{"android":"levelo://app?vid=f315bc93-4512-466f-b8ea-ac633e98ac21","ios":"levelo://app?vid=f315bc93-4512-466f-b8ea-ac633e98ac21"},"vehicle_type_id":"4","last_reported":1737562269,"current_range_meters":38800,"station_id":"ce4bhbh2rcd13ifvqepg","pricing_plan_id":"cebpf4jnsgd1na2vs0mg"},{"bike_id":"492818e2-100d-4b30-9fcd-4c77ba06218a","system_id":"levelo_inurba_marseille","lat":43.28,"lon":5.4001,"is_reserved":false,"is_disabled":false,"rental_uris":{"android":"levelo://app?vid=492818e2-100d-4b30-9fcd-4c77ba06218a","ios":"levelo://app?vid=492818e2-100d-4b30-9fcd-4c77ba06218a"},"vehicle_type_id":"4","last_reported":1737562269,"current_range_meters":36800,"station_id":"ce4bho92rcd13ifvqh4g","pricing_plan_id":"cebpf4jnsgd1na2vs0mg"},{"bike_id":"3c3a7ef9-6af7-4b28-917e-e6ba18feb67f","system_id":"levelo_inurba_marseille","lat":43.30242,"lon":5.40042,"is_reserved":false,"is_disabled":false,"rental_uris":{"android":"levelo://app?vid=3c3a7ef9-6af7-4b28-917e-e6ba18feb67f","ios":"levelo://app?vid=3c3a7ef9-6af7-4b28-917e-e6ba18feb67f"},"vehicle_type_id":"4","last_reported":1737562269,"current_range_meters":24000,"station_id":"ce4bgvh2rcd13ifvqcs0","pricing_plan_id":"cebpf4jnsgd1na2vs0mg"},{"bike_id":"523c33ee-5f2e-45f6-9399-865a54f3e21e","system_id":"levelo_inurba_marseille","lat":43.31367,"lon":5.38497,"is_reserved":false,"is_disabled":false,"rental_uris":{"android":"levelo://app?vid=523c33ee-5f2e-45f6-9399-865a54f3e21e","ios":"levelo://app?vid=523c33ee-5f2e-45f6-9399-865a54f3e21e"},"vehicle_type_id":"4","last_reported":1737562269,"current_range_meters":39200,"station_id":"ce4bgt92rcd13ifvqcf0","pricing_plan_id":"cebpf4jnsgd1na2vs0mg"},{"bike_id":"a47dc228-b782-4f12-9c4b-99c774b9b852","system_id":"levelo_inurba_marseille","lat":43.28937,"lon":5.36396,"is_reserved":false,"is_disabled":false,"rental_uris":{"android":"levelo://app?vid=a47dc228-b782-4f12-9c4b-99c774b9b852","ios":"levelo://app?vid=a47dc228-b782-4f12-9c4b-99c774b9b852"},"vehicle_type_id":"4","last_reported":1737562269,"current_range_meters":28400,"station_id":"ce4bhc92rcd13ifvqetg","pricing_plan_id":"cebpf4jnsgd1na2vs0mg"},{"bike_id":"8e2fe138-ff09-4b92-834b-8fe11a686c0f","system_id":"levelo_inurba_marseille","lat":43.30124,"lon":5.39887,"is_reserved":false,"is_disabled":false,"rental_uris":{"android":"levelo://app?vid=8e2fe138-ff09-4b92-834b-8fe11a686c0f","ios":"levelo://app?vid=8e2fe138-ff09-4b92-834b-8fe11a686c0f"},"vehicle_type_id":"4","last_reported":1737562269,"current_range_meters":16400,"station_id":"ce4bh0h2rcd13ifvqd40","pricing_plan_id":"cebpf4jnsgd1na2vs0mg"},{"bike_id":"e1d0098d-4445-44de-8122-239d13e4b205","system_id":"levelo_inurba_marseille","lat":43.29222,"lon":5.36077,"is_reserved":false,"is_disabled":false,"rental_uris":{"android":"levelo://app?vid=e1d0098d-4445-44de-8122-239d13e4b205","ios":"levelo://app?vid=e1d0098d-4445-44de-8122-239d13e4b205"},"vehicle_type_id":"4","last_reported":1737562269,"current_range_meters":34800,"station_id":"ce4bhbh2rcd13ifvqeqg","pricing_plan_id":"cebpf4jnsgd1na2vs0mg"},{"bike_id":"219ad3c6-1426-4bdc-a11b-eb543a9af6b4","system_id":"levelo_inurba_marseille","lat":43.29507,"lon":5.39036,"is_reserved":false,"is_disabled":false,"rental_uris":{"android":"levelo://app?vid=219ad3c6-1426-4bdc-a11b-eb543a9af6b4","ios":"levelo://app?vid=219ad3c6-1426-4bdc-a11b-eb543a9af6b4"},"vehicle_type_id":"4","last_reported":1737562269,"current_range_meters":25200,"station_id":"ce4bh3p2rcd13ifvqdp0","pricing_plan_id":"cebpf4jnsgd1na2vs0mg"},{"bike_id":"0d555cab-a3ac-493c-97d1-05fb30170afc","system_id":"levelo_inurba_marseille","lat":43.2787,"lon":5.40653,"is_reserved":false,"is_disabled":false,"rental_uris":{"android":"levelo://app?vid=0d555cab-a3ac-493c-97d1-05fb30170afc","ios":"levelo://app?vid=0d555cab-a3ac-493c-97d1-05fb30170afc"},"vehicle_type_id":"4","last_reported":1737562269,"current_range_meters":9600,"station_id":"","pricing_plan_id":"cebpf4jnsgd1na2vs0mg"},{"bike_id":"93837473-0875-460c-b5a6-d64f71ebefb3","system_id":"levelo_inurba_marseille","lat":43.27069,"lon":5.42291,"is_reserved":false,"is_disabled":false,"rental_uris":{"android":"levelo://app?vid=93837473-0875-460c-b5a6-d64f71ebefb3","ios":"levelo://app?vid=93837473-0875-460c-b5a6-d64f71ebefb3"},"vehicle_type_id":"4","last_reported":1737562269,"current_range_meters":6800,"station_id":"ce4bhk92rcd13ifvqgb0","pricing_plan_id":"cebpf4jnsgd1na2vs0mg"},{"bike_id":"50c9065f-7910-42c2-a1af-4aef5434e5b3","system_id":"levelo_inurba_marseille","lat":43.28468,"lon":5.38415,"is_reserved":false,"is_disabled":false,"rental_uris":{"android":"levelo://app?vid=50c9065f-7910-42c2-a1af-4aef5434e5b3","ios":"levelo://app?vid=50c9065f-7910-42c2-a1af-4aef5434e5b3"},"vehicle_type_id":"4","last_reported":1737562269,"current_range_meters":35200,"station_id":"ce4bh512rcd13ifvqe3g","pricing_plan_id":"cebpf4jnsgd1na2vs0mg"},{"bike_id":"42d9ffe0-642d-41c8-bf45-1cee6e752453","system_id":"levelo_inurba_marseille","lat":43.29064,"lon":5.37153,"is_reserved":false,"is_disabled":false,"rental_uris":{"android":"levelo://app?vid=42d9ffe0-642d-41c8-bf45-1cee6e752453","ios":"levelo://app?vid=42d9ffe0-642d-41c8-bf45-1cee6e752453"},"vehicle_type_id":"4","last_reported":1737562269,"current_range_meters":21600,"station_id":"ce4bh5p2rcd13ifvqe4g","pricing_plan_id":"cebpf4jnsgd1na2vs0mg"},{"bike_id":"aae5702a-932e-4c07-b414-a6fcebe4ecd7","system_id":"levelo_inurba_marseille","lat":43.28462,"lon":5.39151,"is_reserved":false,"is_disabled":false,"rental_uris":{"android":"levelo://app?vid=aae5702a-932e-4c07-b414-a6fcebe4ecd7","ios":"levelo://app?vid=aae5702a-932e-4c07-b414-a6fcebe4ecd7"},"vehicle_type_id":"4","last_reported":1737562269,"current_range_meters":12800,"station_id":"","pricing_plan_id":"cebpf4jnsgd1na2vs0mg"},{"bike_id":"115b114d-8f9f-4503-8de2-b2a7ad2f3c24","system_id":"levelo_inurba_marseille","lat":43.27985,"lon":5.40016,"is_reserved":false,"is_disabled":false,"rental_uris":{"android":"levelo://app?vid=115b114d-8f9f-4503-8de2-b2a7ad2f3c24","ios":"levelo://app?vid=115b114d-8f9f-4503-8de2-b2a7ad2f3c24"},"vehicle_type_id":"4","last_reported":1737562269,"current_range_meters":38800,"station_id":"ce4bho92rcd13ifvqh4g","pricing_plan_id":"cebpf4jnsgd1na2vs0mg"},{"bike_id":"b6d04d96-02cb-4b0e-a8f8-1e1b6bcb040e","system_id":"levelo_inurba_marseille","lat":43.30806,"lon":5.38165,"is_reserved":false,"is_disabled":false,"rental_uris":{"android":"levelo://app?vid=b6d04d96-02cb-4b0e-a8f8-1e1b6bcb040e","ios":"levelo://app?vid=b6d04d96-02cb-4b0e-a8f8-1e1b6bcb040e"},"vehicle_type_id":"4","last_reported":1737562269,"current_range_meters":24400,"station_id":"ce4bgt12rcd13ifvqce0","pricing_plan_id":"cebpf4jnsgd1na2vs0mg"},{"bike_id":"fcd4837f-6e09-4786-bcf5-c3a686cbcfef","system_id":"levelo_inurba_marseille","lat":43.29891,"lon":5.43655,"is_reserved":false,"is_disabled":false,"rental_uris":{"android":"levelo://app?vid=fcd4837f-6e09-4786-bcf5-c3a686cbcfef","ios":"levelo://app?vid=fcd4837f-6e09-4786-bcf5-c3a686cbcfef"},"vehicle_type_id":"4","last_reported":1737562269,"current_range_meters":29600,"station_id":"ce4bhpp2rcd13ifvqhfg","pricing_plan_id":"cebpf4jnsgd1na2vs0mg"},{"bike_id":"7e30054b-a98f-4636-acb1-0772bfc040be","system_id":"levelo_inurba_marseille","lat":43.31084,"lon":5.42425,"is_reserved":false,"is_disabled":false,"rental_uris":{"android":"levelo://app?vid=7e30054b-a98f-4636-acb1-0772bfc040be","ios":"levelo://app?vid=7e30054b-a98f-4636-acb1-0772bfc040be"},"vehicle_type_id":"4","last_reported":1737562269,"current_range_meters":38800,"station_id":"ce4bhp92rcd13ifvqhag","pricing_plan_id":"cebpf4jnsgd1na2vs0mg"},{"bike_id":"a052f0e1-2b46-4805-a7b0-e6c1d9346f76","system_id":"levelo_inurba_marseille","lat":43.29654,"lon":5.37119,"is_reserved":false,"is_disabled":false,"rental_uris":{"android":"levelo://app?vid=a052f0e1-2b46-4805-a7b0-e6c1d9346f76","ios":"levelo://app?vid=a052f0e1-2b46-4805-a7b0-e6c1d9346f76"},"vehicle_type_id":"4","last_reported":1737562269,"current_range_meters":36400,"station_id":"ce4bgnh2rcd13ifvqc0g","pricing_plan_id":"cebpf4jnsgd1na2vs0mg"},{"bike_id":"720f1bd4-b805-4549-913b-58e0db646266","system_id":"levelo_inurba_marseille","lat":43.32357,"lon":5.36766,"is_reserved":false,"is_disabled":false,"rental_uris":{"android":"levelo://app?vid=720f1bd4-b805-4549-913b-58e0db646266","ios":"levelo://app?vid=720f1bd4-b805-4549-913b-58e0db646266"},"vehicle_type_id":"4","last_reported":1737562269,"current_range_meters":16000,"station_id":"ce4bhsh2rcd13ifvqi2g","pricing_plan_id":"cebpf4jnsgd1na2vs0mg"},{"bike_id":"391fdcee-38f3-4eec-8197-896e478821d3","system_id":"levelo_inurba_marseille","lat":43.33744,"lon":5.39186,"is_reserved":false,"is_disabled":false,"rental_uris":{"android":"levelo://app?vid=391fdcee-38f3-4eec-8197-896e478821d3","ios":"levelo://app?vid=391fdcee-38f3-4eec-8197-896e478821d3"},"vehicle_type_id":"4","last_reported":1737562269,"current_range_meters":33600,"station_id":"ce4bhr92rcd13ifvqhsg","pricing_plan_id":"cebpf4jnsgd1na2vs0mg"},{"bike_id":"61f488de-0e8a-4294-8c12-0963029cf453","system_id":"levelo_inurba_marseille","lat":43.25724,"lon":5.41114,"is_reserved":false,"is_disabled":false,"rental_uris":{"android":"levelo://app?vid=61f488de-0e8a-4294-8c12-0963029cf453","ios":"levelo://app?vid=61f488de-0e8a-4294-8c12-0963029cf453"},"vehicle_type_id":"4","last_reported":1737562269,"current_range_meters":38800,"station_id":"ce4bhkp2rcd13ifvqgd0","pricing_plan_id":"cebpf4jnsgd1na2vs0mg"},{"bike_id":"f14dc71a-66db-4337-af73-af7f94ea4b53","system_id":"levelo_inurba_marseille","lat":43.2316,"lon":5.43702,"is_reserved":false,"is_disabled":false,"rental_uris":{"android":"levelo://app?vid=f14dc71a-66db-4337-af73-af7f94ea4b53","ios":"levelo://app?vid=f14dc71a-66db-4337-af73-af7f94ea4b53"},"vehicle_type_id":"4","last_reported":1737562269,"current_range_meters":38800,"station_id":"ce4bhmp2rcd13ifvqgog","pricing_plan_id":"cebpf4jnsgd1na2vs0mg"},{"bike_id":"394ab622-dd1e-4375-b0c1-42befc96f66f","system_id":"levelo_inurba_marseille","lat":43.27366,"lon":5.36257,"is_reserved":false,"is_disabled":false,"rental_uris":{"android":"levelo://app?vid=394ab622-dd1e-4375-b0c1-42befc96f66f","ios":"levelo://app?vid=394ab622-dd1e-4375-b0c1-42befc96f66f"},"vehicle_type_id":"4","last_reported":1737562269,"current_range_meters":8000,"station_id":"ce4bhbh2rcd13ifvqeo0","pricing_plan_id":"cebpf4jnsgd1na2vs0mg"},{"bike_id":"63f051d0-635c-4879-9a72-008cc34e2c5e","system_id":"levelo_inurba_marseille","lat":43.29611,"lon":5.37714,"is_reserved":false,"is_disabled":false,"rental_uris":{"android":"levelo://app?vid=63f051d0-635c-4879-9a72-008cc34e2c5e","ios":"levelo://app?vid=63f051d0-635c-4879-9a72-008cc34e2c5e"},"vehicle_type_id":"4","last_reported":1737562269,"current_range_meters":38000,"station_id":"ce4bgi92rcd13ifvqb90","pricing_plan_id":"cebpf4jnsgd1na2vs0mg"},{"bike_id":"28df2be0-b3f9-48b1-982f-6709c71366f7","system_id":"levelo_inurba_marseille","lat":43.30804,"lon":5.38162,"is_reserved":false,"is_disabled":false,"rental_uris":{"android":"levelo://app?vid=28df2be0-b3f9-48b1-982f-6709c71366f7","ios":"levelo://app?vid=28df2be0-b3f9-48b1-982f-6709c71366f7"},"vehicle_type_id":"4","last_reported":1737562269,"current_range_meters":31200,"station_id":"ce4bgt12rcd13ifvqce0","pricing_plan_id":"cebpf4jnsgd1na2vs0mg"},{"bike_id":"9741c905-f037-4851-af2d-c775e55110fd","system_id":"levelo_inurba_marseille","lat":43.29754,"lon":5.37646,"is_reserved":false,"is_disabled":false,"rental_uris":{"android":"levelo://app?vid=9741c905-f037-4851-af2d-c775e55110fd","ios":"levelo://app?vid=9741c905-f037-4851-af2d-c775e55110fd"},"vehicle_type_id":"4","last_reported":1737562269,"current_range_meters":16000,"station_id":"","pricing_plan_id":"cebpf4jnsgd1na2vs0mg"},{"bike_id":"51a36b3c-6a3c-4a10-8421-cf3855c7a215","system_id":"levelo_inurba_marseille","lat":43.25577,"lon":5.38242,"is_reserved":false,"is_disabled":false,"rental_uris":{"android":"levelo://app?vid=51a36b3c-6a3c-4a10-8421-cf3855c7a215","ios":"levelo://app?vid=51a36b3c-6a3c-4a10-8421-cf3855c7a215"},"vehicle_type_id":"4","last_reported":1737562269,"current_range_meters":10000,"station_id":"ce4bhih2rcd13ifvqfs0","pricing_plan_id":"cebpf4jnsgd1na2vs0mg"},{"bike_id":"76d69465-68fb-4be0-8edd-1e442d48954c","system_id":"levelo_inurba_marseille","lat":43.28065,"lon":5.42641,"is_reserved":false,"is_disabled":false,"rental_uris":{"android":"levelo://app?vid=76d69465-68fb-4be0-8edd-1e442d48954c","ios":"levelo://app?vid=76d69465-68fb-4be0-8edd-1e442d48954c"},"vehicle_type_id":"4","last_reported":1737562269,"current_range_meters":25200,"station_id":"ce4bhk92rcd13ifvqgb0","pricing_plan_id":"cebpf4jnsgd1na2vs0mg"},{"bike_id":"cff1680f-636c-4c21-adec-aee2428512db","system_id":"levelo_inurba_marseille","lat":43.28613,"lon":5.37056,"is_reserved":false,"is_disabled":false,"rental_uris":{"android":"levelo://app?vid=cff1680f-636c-4c21-adec-aee2428512db","ios":"levelo://app?vid=cff1680f-636c-4c21-adec-aee2428512db"},"vehicle_type_id":"4","last_reported":1737562269,"current_range_meters":38000,"station_id":"ce4bht12rcd13ifvqi60","pricing_plan_id":"cebpf4jnsgd1na2vs0mg"},{"bike_id":"13ff516e-16cf-4543-8540-9030b8b296b4","system_id":"levelo_inurba_marseille","lat":43.232,"lon":5.35538,"is_reserved":false,"is_disabled":false,"rental_uris":{"android":"levelo://app?vid=13ff516e-16cf-4543-8540-9030b8b296b4","ios":"levelo://app?vid=13ff516e-16cf-4543-8540-9030b8b296b4"},"vehicle_type_id":"4","last_reported":1737562269,"current_range_meters":33200,"station_id":"ce4bhu92rcd13ifvqi70","pricing_plan_id":"cebpf4jnsgd1na2vs0mg"},{"bike_id":"fd83409d-5557-46c9-83a4-f7f5c8eee24a","system_id":"levelo_inurba_marseille","lat":43.29025,"lon":5.38128,"is_reserved":false,"is_disabled":false,"rental_uris":{"android":"levelo://app?vid=fd83409d-5557-46c9-83a4-f7f5c8eee24a","ios":"levelo://app?vid=fd83409d-5557-46c9-83a4-f7f5c8eee24a"},"vehicle_type_id":"4","last_reported":1737562269,"current_range_meters":31200,"station_id":"ce4bh4p2rcd13ifvqe1g","pricing_plan_id":"cebpf4jnsgd1na2vs0mg"},{"bike_id":"9984a19d-448e-4ed2-8c95-d1103fd0e167","system_id":"levelo_inurba_marseille","lat":43.31745,"lon":5.390137,"is_reserved":false,"is_disabled":false,"rental_uris":{"android":"levelo://app?vid=9984a19d-448e-4ed2-8c95-d1103fd0e167","ios":"levelo://app?vid=9984a19d-448e-4ed2-8c95-d1103fd0e167"},"vehicle_type_id":"4","last_reported":1737562269,"current_range_meters":38800,"station_id":"ce4bhqp2rcd13ifvqhng","pricing_plan_id":"cebpf4jnsgd1na2vs0mg"},{"bike_id":"dc9afc0d-d533-431b-a32f-6f6423d7880b","system_id":"levelo_inurba_marseille","lat":43.31729,"lon":5.42388,"is_reserved":false,"is_disabled":false,"rental_uris":{"android":"levelo://app?vid=dc9afc0d-d533-431b-a32f-6f6423d7880b","ios":"levelo://app?vid=dc9afc0d-d533-431b-a32f-6f6423d7880b"},"vehicle_type_id":"4","last_reported":1737562269,"current_range_meters":34800,"station_id":"ce4bhp92rcd13ifvqhbg","pricing_plan_id":"cebpf4jnsgd1na2vs0mg"},{"bike_id":"7c101392-693f-466c-9570-afea29f7e88f","system_id":"levelo_inurba_marseille","lat":43.2928,"lon":5.40161,"is_reserved":false,"is_disabled":false,"rental_uris":{"android":"levelo://app?vid=7c101392-693f-466c-9570-afea29f7e88f","ios":"levelo://app?vid=7c101392-693f-466c-9570-afea29f7e88f"},"vehicle_type_id":"4","last_reported":1737562269,"current_range_meters":38400,"station_id":"ce4bh312rcd13ifvqdk0","pricing_plan_id":"cebpf4jnsgd1na2vs0mg"},{"bike_id":"91220a62-ed0c-4d2f-831f-dba7816c7cd4","system_id":"levelo_inurba_marseille","lat":43.29097,"lon":5.38137,"is_reserved":false,"is_disabled":false,"rental_uris":{"android":"levelo://app?vid=91220a62-ed0c-4d2f-831f-dba7816c7cd4","ios":"levelo://app?vid=91220a62-ed0c-4d2f-831f-dba7816c7cd4"},"vehicle_type_id":"4","last_reported":1737562269,"current_range_meters":19200,"station_id":"ce4bh512rcd13ifvqe2g","pricing_plan_id":"cebpf4jnsgd1na2vs0mg"},{"bike_id":"2554f27d-7f2b-4c76-aa05-65b010c7df1a","system_id":"levelo_inurba_marseille","lat":43.29383,"lon":5.37851,"is_reserved":false,"is_disabled":false,"rental_uris":{"android":"levelo://app?vid=2554f27d-7f2b-4c76-aa05-65b010c7df1a","ios":"levelo://app?vid=2554f27d-7f2b-4c76-aa05-65b010c7df1a"},"vehicle_type_id":"4","last_reported":1737562269,"current_range_meters":8400,"station_id":"ce4bgjh2rcd13ifvqbf0","pricing_plan_id":"cebpf4jnsgd1na2vs0mg"},{"bike_id":"abf6fed3-8631-4f3f-9188-cc4c67fd6348","system_id":"levelo_inurba_marseille","lat":43.32049,"lon":5.41542,"is_reserved":false,"is_disabled":false,"rental_uris":{"android":"levelo://app?vid=abf6fed3-8631-4f3f-9188-cc4c67fd6348","ios":"levelo://app?vid=abf6fed3-8631-4f3f-9188-cc4c67fd6348"},"vehicle_type_id":"4","last_reported":1737562269,"current_range_meters":30000,"station_id":"ce4bhq92rcd13ifvqhkg","pricing_plan_id":"cebpf4jnsgd1na2vs0mg"},{"bike_id":"6de4f7c8-4789-4466-aede-0d8c0d23dc49","system_id":"levelo_inurba_marseille","lat":43.30558,"lon":5.36539,"is_reserved":false,"is_disabled":false,"rental_uris":{"android":"levelo://app?vid=6de4f7c8-4789-4466-aede-0d8c0d23dc49","ios":"levelo://app?vid=6de4f7c8-4789-4466-aede-0d8c0d23dc49"},"vehicle_type_id":"4","last_reported":1737562269,"current_range_meters":18000,"station_id":"ce4bgs12rcd13ifvqcag","pricing_plan_id":"cebpf4jnsgd1na2vs0mg"},{"bike_id":"2c41bf76-fc82-4efe-b7a3-989dd9b51b08","system_id":"levelo_inurba_marseille","lat":43.33716,"lon":5.39187,"is_reserved":false,"is_disabled":false,"rental_uris":{"android":"levelo://app?vid=2c41bf76-fc82-4efe-b7a3-989dd9b51b08","ios":"levelo://app?vid=2c41bf76-fc82-4efe-b7a3-989dd9b51b08"},"vehicle_type_id":"4","last_reported":1737562269,"current_range_meters":39200,"station_id":"ce4bhr92rcd13ifvqhsg","pricing_plan_id":"cebpf4jnsgd1na2vs0mg"},{"bike_id":"cd505ba2-d622-4fae-8506-9846633adab1","system_id":"levelo_inurba_marseille","lat":43.32367,"lon":5.36804,"is_reserved":false,"is_disabled":false,"rental_uris":{"android":"levelo://app?vid=cd505ba2-d622-4fae-8506-9846633adab1","ios":"levelo://app?vid=cd505ba2-d622-4fae-8506-9846633adab1"},"vehicle_type_id":"4","last_reported":1737562269,"current_range_meters":17600,"station_id":"ce4bhsh2rcd13ifvqi2g","pricing_plan_id":"cebpf4jnsgd1na2vs0mg"},{"bike_id":"abf4e823-ebfa-4ec7-ab3c-fc0af13dabbd","system_id":"levelo_inurba_marseille","lat":43.30597,"lon":5.37217,"is_reserved":false,"is_disabled":false,"rental_uris":{"android":"levelo://app?vid=abf4e823-ebfa-4ec7-ab3c-fc0af13dabbd","ios":"levelo://app?vid=abf4e823-ebfa-4ec7-ab3c-fc0af13dabbd"},"vehicle_type_id":"4","last_reported":1737562269,"current_range_meters":36800,"station_id":"ce4bgqh2rcd13ifvqc4g","pricing_plan_id":"cebpf4jnsgd1na2vs0mg"},{"bike_id":"d25bd425-6815-43e4-975a-24891a0a0ca0","system_id":"levelo_inurba_marseille","lat":43.30411,"lon":5.41292,"is_reserved":false,"is_disabled":false,"rental_uris":{"android":"levelo://app?vid=d25bd425-6815-43e4-975a-24891a0a0ca0","ios":"levelo://app?vid=d25bd425-6815-43e4-975a-24891a0a0ca0"},"vehicle_type_id":"4","last_reported":1737562269,"current_range_meters":38800,"station_id":"ce4bhop2rcd13ifvqh8g","pricing_plan_id":"cebpf4jnsgd1na2vs0mg"},{"bike_id":"1fc174c7-67a6-45a8-a272-290faf925193","system_id":"levelo_inurba_marseille","lat":43.29619,"lon":5.3715,"is_reserved":false,"is_disabled":false,"rental_uris":{"android":"levelo://app?vid=1fc174c7-67a6-45a8-a272-290faf925193","ios":"levelo://app?vid=1fc174c7-67a6-45a8-a272-290faf925193"},"vehicle_type_id":"4","last_reported":1737562269,"current_range_meters":14400,"station_id":"ce4bgnh2rcd13ifvqc0g","pricing_plan_id":"cebpf4jnsgd1na2vs0mg"},{"bike_id":"9a2561dd-c3ae-43ed-b74a-e52cfb0a9d75","system_id":"levelo_inurba_marseille","lat":43.31079,"lon":5.42431,"is_reserved":false,"is_disabled":false,"rental_uris":{"android":"levelo://app?vid=9a2561dd-c3ae-43ed-b74a-e52cfb0a9d75","ios":"levelo://app?vid=9a2561dd-c3ae-43ed-b74a-e52cfb0a9d75"},"vehicle_type_id":"4","last_reported":1737562269,"current_range_meters":35600,"station_id":"ce4bhp92rcd13ifvqhag","pricing_plan_id":"cebpf4jnsgd1na2vs0mg"},{"bike_id":"32f808ef-8743-4b99-bf40-039436fb9a17","system_id":"levelo_inurba_marseille","lat":43.28716,"lon":5.36098,"is_reserved":false,"is_disabled":false,"rental_uris":{"android":"levelo://app?vid=32f808ef-8743-4b99-bf40-039436fb9a17","ios":"levelo://app?vid=32f808ef-8743-4b99-bf40-039436fb9a17"},"vehicle_type_id":"4","last_reported":1737562269,"current_range_meters":22000,"station_id":"cki0cbj6b192h4jlfktg","pricing_plan_id":"cebpf4jnsgd1na2vs0mg"},{"bike_id":"4d8cc416-8f5b-4cd2-86ba-0830c35a2055","system_id":"levelo_inurba_marseille","lat":43.24817,"lon":5.37442,"is_reserved":false,"is_disabled":false,"rental_uris":{"android":"levelo://app?vid=4d8cc416-8f5b-4cd2-86ba-0830c35a2055","ios":"levelo://app?vid=4d8cc416-8f5b-4cd2-86ba-0830c35a2055"},"vehicle_type_id":"4","last_reported":1737562269,"current_range_meters":29600,"station_id":"ce4bhgh2rcd13ifvqfb0","pricing_plan_id":"cebpf4jnsgd1na2vs0mg"},{"bike_id":"bd771a8e-666c-4f89-bb31-e000a937060f","system_id":"levelo_inurba_marseille","lat":43.28402,"lon":5.37497,"is_reserved":false,"is_disabled":true,"rental_uris":{"android":"levelo://app?vid=bd771a8e-666c-4f89-bb31-e000a937060f","ios":"levelo://app?vid=bd771a8e-666c-4f89-bb31-e000a937060f"},"vehicle_type_id":"4","last_reported":1737562269,"current_range_meters":8400,"station_id":"ce4bh412rcd13ifvqds0","pricing_plan_id":"cebpf4jnsgd1na2vs0mg"},{"bike_id":"adb26299-3e4f-4001-b2be-8fe3e3c1aef5","system_id":"levelo_inurba_marseille","lat":43.29243,"lon":5.36032,"is_reserved":false,"is_disabled":false,"rental_uris":{"android":"levelo://app?vid=adb26299-3e4f-4001-b2be-8fe3e3c1aef5","ios":"levelo://app?vid=adb26299-3e4f-4001-b2be-8fe3e3c1aef5"},"vehicle_type_id":"4","last_reported":1737562269,"current_range_meters":30800,"station_id":"ce4bhbh2rcd13ifvqeqg","pricing_plan_id":"cebpf4jnsgd1na2vs0mg"},{"bike_id":"d0f83ca8-9ae5-472a-a447-2229d84a32d1","system_id":"levelo_inurba_marseille","lat":43.3232,"lon":5.36721,"is_reserved":false,"is_disabled":false,"rental_uris":{"android":"levelo://app?vid=d0f83ca8-9ae5-472a-a447-2229d84a32d1","ios":"levelo://app?vid=d0f83ca8-9ae5-472a-a447-2229d84a32d1"},"vehicle_type_id":"4","last_reported":1737562269,"current_range_meters":27600,"station_id":"ce4bhsh2rcd13ifvqi2g","pricing_plan_id":"cebpf4jnsgd1na2vs0mg"},{"bike_id":"1c165c61-0c90-4cbf-9523-8d4fbbaf2d4b","system_id":"levelo_inurba_marseille","lat":43.29874,"lon":5.39731,"is_reserved":false,"is_disabled":false,"rental_uris":{"android":"levelo://app?vid=1c165c61-0c90-4cbf-9523-8d4fbbaf2d4b","ios":"levelo://app?vid=1c165c61-0c90-4cbf-9523-8d4fbbaf2d4b"},"vehicle_type_id":"4","last_reported":1737562269,"current_range_meters":38800,"station_id":"ce4bh0h2rcd13ifvqd50","pricing_plan_id":"cebpf4jnsgd1na2vs0mg"},{"bike_id":"c197982d-e701-4f2a-86f3-a8c04085f676","system_id":"levelo_inurba_marseille","lat":43.32485,"lon":5.36568,"is_reserved":false,"is_disabled":false,"rental_uris":{"android":"levelo://app?vid=c197982d-e701-4f2a-86f3-a8c04085f676","ios":"levelo://app?vid=c197982d-e701-4f2a-86f3-a8c04085f676"},"vehicle_type_id":"4","last_reported":1737562269,"current_range_meters":27200,"station_id":"ce4bhs12rcd13ifvqhvg","pricing_plan_id":"cebpf4jnsgd1na2vs0mg"},{"bike_id":"f5b52696-dada-4db8-ac63-486420d431ea","system_id":"levelo_inurba_marseille","lat":43.246543,"lon":5.388954,"is_reserved":false,"is_disabled":false,"rental_uris":{"android":"levelo://app?vid=f5b52696-dada-4db8-ac63-486420d431ea","ios":"levelo://app?vid=f5b52696-dada-4db8-ac63-486420d431ea"},"vehicle_type_id":"4","last_reported":1737562269,"current_range_meters":38800,"station_id":"ce4bhg12rcd13ifvqf60","pricing_plan_id":"cebpf4jnsgd1na2vs0mg"},{"bike_id":"3d2884c8-e678-49ea-8adc-aa1053c2bea5","system_id":"levelo_inurba_marseille","lat":43.30241,"lon":5.40055,"is_reserved":false,"is_disabled":false,"rental_uris":{"android":"levelo://app?vid=3d2884c8-e678-49ea-8adc-aa1053c2bea5","ios":"levelo://app?vid=3d2884c8-e678-49ea-8adc-aa1053c2bea5"},"vehicle_type_id":"4","last_reported":1737562269,"current_range_meters":34000,"station_id":"ce4bgvh2rcd13ifvqcs0","pricing_plan_id":"cebpf4jnsgd1na2vs0mg"},{"bike_id":"67406dea-6b4a-4664-a7b5-eb12a6267ed8","system_id":"levelo_inurba_marseille","lat":43.322823,"lon":5.382652,"is_reserved":false,"is_disabled":false,"rental_uris":{"android":"levelo://app?vid=67406dea-6b4a-4664-a7b5-eb12a6267ed8","ios":"levelo://app?vid=67406dea-6b4a-4664-a7b5-eb12a6267ed8"},"vehicle_type_id":"4","last_reported":1737562269,"current_range_meters":24000,"station_id":"ce4bhr12rcd13ifvqhqg","pricing_plan_id":"cebpf4jnsgd1na2vs0mg"},{"bike_id":"727ecb4a-c6ab-485c-8f41-2ddac85c00c2","system_id":"levelo_inurba_marseille","lat":43.28611,"lon":5.35105,"is_reserved":false,"is_disabled":false,"rental_uris":{"android":"levelo://app?vid=727ecb4a-c6ab-485c-8f41-2ddac85c00c2","ios":"levelo://app?vid=727ecb4a-c6ab-485c-8f41-2ddac85c00c2"},"vehicle_type_id":"4","last_reported":1737562269,"current_range_meters":38800,"station_id":"ce4bhch2rcd13ifvqeug","pricing_plan_id":"cebpf4jnsgd1na2vs0mg"},{"bike_id":"40ccdf35-4113-4966-94c2-92d02cf45e9b","system_id":"levelo_inurba_marseille","lat":43.29013,"lon":5.38135,"is_reserved":false,"is_disabled":false,"rental_uris":{"android":"levelo://app?vid=40ccdf35-4113-4966-94c2-92d02cf45e9b","ios":"levelo://app?vid=40ccdf35-4113-4966-94c2-92d02cf45e9b"},"vehicle_type_id":"4","last_reported":1737562269,"current_range_meters":35600,"station_id":"ce4bh4p2rcd13ifvqe1g","pricing_plan_id":"cebpf4jnsgd1na2vs0mg"},{"bike_id":"7b9618e5-f073-41a0-b410-007d3084e088","system_id":"levelo_inurba_marseille","lat":43.30935,"lon":5.40134,"is_reserved":false,"is_disabled":false,"rental_uris":{"android":"levelo://app?vid=7b9618e5-f073-41a0-b410-007d3084e088","ios":"levelo://app?vid=7b9618e5-f073-41a0-b410-007d3084e088"},"vehicle_type_id":"4","last_reported":1737562269,"current_range_meters":36000,"station_id":"ce4bgvp2rcd13ifvqct0","pricing_plan_id":"cebpf4jnsgd1na2vs0mg"},{"bike_id":"8e8cf9d4-3de4-483c-8c04-15f30888aa7e","system_id":"levelo_inurba_marseille","lat":43.2845,"lon":5.35891,"is_reserved":false,"is_disabled":false,"rental_uris":{"android":"levelo://app?vid=8e8cf9d4-3de4-483c-8c04-15f30888aa7e","ios":"levelo://app?vid=8e8cf9d4-3de4-483c-8c04-15f30888aa7e"},"vehicle_type_id":"4","last_reported":1737562269,"current_range_meters":38800,"station_id":"ce4bhah2rcd13ifvqei0","pricing_plan_id":"cebpf4jnsgd1na2vs0mg"},{"bike_id":"1cacc39b-8464-4517-8719-a5b46245be93","system_id":"levelo_inurba_marseille","lat":43.31084,"lon":5.42421,"is_reserved":false,"is_disabled":false,"rental_uris":{"android":"levelo://app?vid=1cacc39b-8464-4517-8719-a5b46245be93","ios":"levelo://app?vid=1cacc39b-8464-4517-8719-a5b46245be93"},"vehicle_type_id":"4","last_reported":1737562269,"current_range_meters":38800,"station_id":"ce4bhp92rcd13ifvqhag","pricing_plan_id":"cebpf4jnsgd1na2vs0mg"},{"bike_id":"cc8dd4d9-c41b-4e62-8f16-686e77afe1cc","system_id":"levelo_inurba_marseille","lat":43.278,"lon":5.40699,"is_reserved":false,"is_disabled":false,"rental_uris":{"android":"levelo://app?vid=cc8dd4d9-c41b-4e62-8f16-686e77afe1cc","ios":"levelo://app?vid=cc8dd4d9-c41b-4e62-8f16-686e77afe1cc"},"vehicle_type_id":"4","last_reported":1737562269,"current_range_meters":38800,"station_id":"ce4bhnh2rcd13ifvqgtg","pricing_plan_id":"cebpf4jnsgd1na2vs0mg"},{"bike_id":"2094d673-56a1-4b76-a92d-894a34210788","system_id":"levelo_inurba_marseille","lat":43.29223,"lon":5.36057,"is_reserved":false,"is_disabled":false,"rental_uris":{"android":"levelo://app?vid=2094d673-56a1-4b76-a92d-894a34210788","ios":"levelo://app?vid=2094d673-56a1-4b76-a92d-894a34210788"},"vehicle_type_id":"4","last_reported":1737562269,"current_range_meters":20400,"station_id":"ce4bhbh2rcd13ifvqeqg","pricing_plan_id":"cebpf4jnsgd1na2vs0mg"},{"bike_id":"713b4e02-a459-45c2-8b7f-670ded946bdb","system_id":"levelo_inurba_marseille","lat":43.296246,"lon":5.371593,"is_reserved":false,"is_disabled":false,"rental_uris":{"android":"levelo://app?vid=713b4e02-a459-45c2-8b7f-670ded946bdb","ios":"levelo://app?vid=713b4e02-a459-45c2-8b7f-670ded946bdb"},"vehicle_type_id":"4","last_reported":1737562269,"current_range_meters":39200,"station_id":"ce4bgnh2rcd13ifvqc0g","pricing_plan_id":"cebpf4jnsgd1na2vs0mg"},{"bike_id":"eef92cf2-5d28-4e31-8595-5e4ee178a5a6","system_id":"levelo_inurba_marseille","lat":43.25819,"lon":5.39432,"is_reserved":false,"is_disabled":false,"rental_uris":{"android":"levelo://app?vid=eef92cf2-5d28-4e31-8595-5e4ee178a5a6","ios":"levelo://app?vid=eef92cf2-5d28-4e31-8595-5e4ee178a5a6"},"vehicle_type_id":"4","last_reported":1737562269,"current_range_meters":22000,"station_id":"ce4bhip2rcd13ifvqft0","pricing_plan_id":"cebpf4jnsgd1na2vs0mg"},{"bike_id":"38a62f0f-5642-4b4d-ab65-8ce22514d290","system_id":"levelo_inurba_marseille","lat":43.2465,"lon":5.38899,"is_reserved":false,"is_disabled":false,"rental_uris":{"android":"levelo://app?vid=38a62f0f-5642-4b4d-ab65-8ce22514d290","ios":"levelo://app?vid=38a62f0f-5642-4b4d-ab65-8ce22514d290"},"vehicle_type_id":"4","last_reported":1737562269,"current_range_meters":38800,"station_id":"ce4bhg12rcd13ifvqf60","pricing_plan_id":"cebpf4jnsgd1na2vs0mg"},{"bike_id":"9639a84d-ae1f-45e1-9c89-ad82d062216b","system_id":"levelo_inurba_marseille","lat":43.30253,"lon":5.40046,"is_reserved":false,"is_disabled":false,"rental_uris":{"android":"levelo://app?vid=9639a84d-ae1f-45e1-9c89-ad82d062216b","ios":"levelo://app?vid=9639a84d-ae1f-45e1-9c89-ad82d062216b"},"vehicle_type_id":"4","last_reported":1737562269,"current_range_meters":9200,"station_id":"ce4bgvh2rcd13ifvqcs0","pricing_plan_id":"cebpf4jnsgd1na2vs0mg"},{"bike_id":"6a8f4c49-6b64-4253-a847-2c87d98c04fd","system_id":"levelo_inurba_marseille","lat":43.29258,"lon":5.3844,"is_reserved":false,"is_disabled":true,"rental_uris":{"android":"levelo://app?vid=6a8f4c49-6b64-4253-a847-2c87d98c04fd","ios":"levelo://app?vid=6a8f4c49-6b64-4253-a847-2c87d98c04fd"},"vehicle_type_id":"4","last_reported":1737562269,"current_range_meters":800,"station_id":"ce4bh692rcd13ifvqea0","pricing_plan_id":"cebpf4jnsgd1na2vs0mg"},{"bike_id":"667e8587-049c-49ea-8524-5b3a76b72cf6","system_id":"levelo_inurba_marseille","lat":43.30935,"lon":5.40138,"is_reserved":false,"is_disabled":false,"rental_uris":{"android":"levelo://app?vid=667e8587-049c-49ea-8524-5b3a76b72cf6","ios":"levelo://app?vid=667e8587-049c-49ea-8524-5b3a76b72cf6"},"vehicle_type_id":"4","last_reported":1737562269,"current_range_meters":19600,"station_id":"ce4bgvp2rcd13ifvqct0","pricing_plan_id":"cebpf4jnsgd1na2vs0mg"},{"bike_id":"1f7c87db-d399-4f13-923d-8a98a4f000e9","system_id":"levelo_inurba_marseille","lat":43.23963,"lon":5.36634,"is_reserved":false,"is_disabled":false,"rental_uris":{"android":"levelo://app?vid=1f7c87db-d399-4f13-923d-8a98a4f000e9","ios":"levelo://app?vid=1f7c87db-d399-4f13-923d-8a98a4f000e9"},"vehicle_type_id":"4","last_reported":1737562269,"current_range_meters":8800,"station_id":"ce4bhi12rcd13ifvqfp0","pricing_plan_id":"cebpf4jnsgd1na2vs0mg"},{"bike_id":"6fa1466d-6a51-466c-8ae6-715092a8d118","system_id":"levelo_inurba_marseille","lat":43.28409,"lon":5.37521,"is_reserved":false,"is_disabled":false,"rental_uris":{"android":"levelo://app?vid=6fa1466d-6a51-466c-8ae6-715092a8d118","ios":"levelo://app?vid=6fa1466d-6a51-466c-8ae6-715092a8d118"},"vehicle_type_id":"4","last_reported":1737562269,"current_range_meters":20400,"station_id":"ce4bh412rcd13ifvqds0","pricing_plan_id":"cebpf4jnsgd1na2vs0mg"},{"bike_id":"3b3bc887-21ae-4ae2-9bf5-f71cc43e4855","system_id":"levelo_inurba_marseille","lat":43.29003,"lon":5.35607,"is_reserved":false,"is_disabled":false,"rental_uris":{"android":"levelo://app?vid=3b3bc887-21ae-4ae2-9bf5-f71cc43e4855","ios":"levelo://app?vid=3b3bc887-21ae-4ae2-9bf5-f71cc43e4855"},"vehicle_type_id":"4","last_reported":1737562269,"current_range_meters":2800,"station_id":"ce4bhb92rcd13ifvqen0","pricing_plan_id":"cebpf4jnsgd1na2vs0mg"},{"bike_id":"7d39fca9-d393-432e-bcfd-aa5336063290","system_id":"levelo_inurba_marseille","lat":43.3093,"lon":5.40151,"is_reserved":false,"is_disabled":false,"rental_uris":{"android":"levelo://app?vid=7d39fca9-d393-432e-bcfd-aa5336063290","ios":"levelo://app?vid=7d39fca9-d393-432e-bcfd-aa5336063290"},"vehicle_type_id":"4","last_reported":1737562269,"current_range_meters":35200,"station_id":"ce4bgvp2rcd13ifvqct0","pricing_plan_id":"cebpf4jnsgd1na2vs0mg"},{"bike_id":"cb7322b4-1ac1-4114-8157-c83aeac75b76","system_id":"levelo_inurba_marseille","lat":43.321126,"lon":5.367764,"is_reserved":false,"is_disabled":false,"rental_uris":{"android":"levelo://app?vid=cb7322b4-1ac1-4114-8157-c83aeac75b76","ios":"levelo://app?vid=cb7322b4-1ac1-4114-8157-c83aeac75b76"},"vehicle_type_id":"4","last_reported":1737562269,"current_range_meters":20800,"station_id":"ce4bhrh2rcd13ifvqhug","pricing_plan_id":"cebpf4jnsgd1na2vs0mg"},{"bike_id":"23b57c62-a093-40de-a0ea-2a332dc2b99b","system_id":"levelo_inurba_marseille","lat":43.29602,"lon":5.37719,"is_reserved":false,"is_disabled":false,"rental_uris":{"android":"levelo://app?vid=23b57c62-a093-40de-a0ea-2a332dc2b99b","ios":"levelo://app?vid=23b57c62-a093-40de-a0ea-2a332dc2b99b"},"vehicle_type_id":"4","last_reported":1737562269,"current_range_meters":38400,"station_id":"ce4bgi92rcd13ifvqb90","pricing_plan_id":"cebpf4jnsgd1na2vs0mg"},{"bike_id":"2c115182-c42c-491c-9297-b7a7447bfbd5","system_id":"levelo_inurba_marseille","lat":43.29231,"lon":5.36069,"is_reserved":false,"is_disabled":false,"rental_uris":{"android":"levelo://app?vid=2c115182-c42c-491c-9297-b7a7447bfbd5","ios":"levelo://app?vid=2c115182-c42c-491c-9297-b7a7447bfbd5"},"vehicle_type_id":"4","last_reported":1737562269,"current_range_meters":34000,"station_id":"ce4bhbh2rcd13ifvqeqg","pricing_plan_id":"cebpf4jnsgd1na2vs0mg"},{"bike_id":"d249f4e8-efc8-484f-ad10-2ef056b5353a","system_id":"levelo_inurba_marseille","lat":43.274819,"lon":5.360753,"is_reserved":false,"is_disabled":false,"rental_uris":{"android":"levelo://app?vid=d249f4e8-efc8-484f-ad10-2ef056b5353a","ios":"levelo://app?vid=d249f4e8-efc8-484f-ad10-2ef056b5353a"},"vehicle_type_id":"4","last_reported":1737562269,"current_range_meters":8400,"station_id":"","pricing_plan_id":"cebpf4jnsgd1na2vs0mg"},{"bike_id":"05eefeca-618b-4f43-bbb2-cd86ee63b097","system_id":"levelo_inurba_marseille","lat":43.23188,"lon":5.35563,"is_reserved":false,"is_disabled":false,"rental_uris":{"android":"levelo://app?vid=05eefeca-618b-4f43-bbb2-cd86ee63b097","ios":"levelo://app?vid=05eefeca-618b-4f43-bbb2-cd86ee63b097"},"vehicle_type_id":"4","last_reported":1737562269,"current_range_meters":30000,"station_id":"ce4bhu92rcd13ifvqi70","pricing_plan_id":"cebpf4jnsgd1na2vs0mg"},{"bike_id":"76582071-6f33-4680-9f07-1ef7cd82f136","system_id":"levelo_inurba_marseille","lat":43.3127,"lon":5.40169,"is_reserved":false,"is_disabled":false,"rental_uris":{"android":"levelo://app?vid=76582071-6f33-4680-9f07-1ef7cd82f136","ios":"levelo://app?vid=76582071-6f33-4680-9f07-1ef7cd82f136"},"vehicle_type_id":"4","last_reported":1737562269,"current_range_meters":16800,"station_id":"ce4bh092rcd13ifvqd30","pricing_plan_id":"cebpf4jnsgd1na2vs0mg"},{"bike_id":"22b146f4-460e-4d26-b5f7-29e184db5a3b","system_id":"levelo_inurba_marseille","lat":43.24175,"lon":5.3972,"is_reserved":false,"is_disabled":false,"rental_uris":{"android":"levelo://app?vid=22b146f4-460e-4d26-b5f7-29e184db5a3b","ios":"levelo://app?vid=22b146f4-460e-4d26-b5f7-29e184db5a3b"},"vehicle_type_id":"4","last_reported":1737562269,"current_range_meters":8800,"station_id":"ce4bhn12rcd13ifvqgpg","pricing_plan_id":"cebpf4jnsgd1na2vs0mg"},