{"last_updated":1727356695,"ttl":60,"version":"2.2","data":{"bikes":[{"bike_id":"f82c8257-bab0-4d5a-b202-1064bb5dc194","system_id":"levelo_inurba_marseille","lat":43.27073,"lon":5.42275,"is_reserved":false,"is_disabled":false,"rental_uris":{"android":"levelo://app?vid=f82c8257-bab0-4d5a-b202-1064bb5dc194","ios":"levelo://app?vid=f82c8257-bab0-4d5a-b202-1064bb5dc194"},"vehicle_type_id":"4","last_reported":1727356695,"current_range_meters":11600,"station_id":"ce4bhk92rcd13ifvqgb0","pricing_plan_id":"cebpf4jnsgd1na2vs0mg"},{"bike_id":"2f3efc0e-dc90-4c60-98eb-a6d5b154f6e0","system_id":"levelo_inurba_marseille","lat":43.29853,"lon":5.36273,"is_reserved":false,"is_disabled":false,"rental_uris":{"android":"levelo://app?vid=2f3efc0e-dc90-4c60-98eb-a6d5b154f6e0","ios":"levelo://app?vid=2f3efc0e-dc90-4c60-98eb-a6d5b154f6e0"},"vehicle_type_id":"4","last_reported":1727356695,"current_range_meters":38800,"station_id":"ce4bgpp2rcd13ifvqc3g","pricing_plan_id":"cebpf4jnsgd1na2vs0mg"},{"bike_id":"56ec2c14-3439-479d-a467-8970648caa23","system_id":"levelo_inurba_marseille","lat":43.25496,"lon":5.3765,"is_reserved":false,"is_disabled":false,"rental_uris":{"android":"levelo://app?vid=56ec2c14-3439-479d-a467-8970648caa23","ios":"levelo://app?vid=56ec2c14-3439-479d-a467-8970648caa23"},"vehicle_type_id":"4","last_reported":1727356695,"current_range_meters":38000,"station_id":"ce4bhh12rcd13ifvqff0","pricing_plan_id":"cebpf4jnsgd1na2vs0mg"},{"bike_id":"74d68aab-dcd1-4d0a-976e-418b8bad0fdd","system_id":"levelo_inurba_marseille","lat":43.23149,"lon":5.43699,"is_reserved":false,"is_disabled":false,"rental_uris":{"android":"levelo://app?vid=74d68aab-dcd1-4d0a-976e-418b8bad0fdd","ios":"levelo://app?vid=74d68aab-dcd1-4d0a-976e-418b8bad0fdd"},"vehicle_type_id":"4","last_reported":1727356695,"current_range_meters":38000,"station_id":"ce4bhmp2rcd13ifvqgog","pricing_plan_id":"cebpf4jnsgd1na2vs0mg"},{"bike_id":"bef8fec5-2779-43e5-9085-0eea1401be3f","system_id":"levelo_inurba_marseille","lat":43.289978,"lon":5.356084,"is_reserved":false,"is_disabled":false,"rental_uris":{"android":"levelo://app?vid=bef8fec5-2779-43e5-9085-0eea1401be3f","ios":"levelo://app?vid=bef8fec5-2779-43e5-9085-0eea1401be3f"},"vehicle_type_id":"4","last_reported":1727356695,"current_range_meters":16000,"station_id":"ce4bhb92rcd13ifvqen0","pricing_plan_id":"cebpf4jnsgd1na2vs0mg"},{"bike_id":"d268ad5f-8f67-48dc-a311-0c6312944804","system_id":"levelo_inurba_marseille","lat":43.29623,"lon":5.37168,"is_reserved":false,"is_disabled":false,"rental_uris":{"android":"levelo://app?vid=d268ad5f-8f67-48dc-a311-0c6312944804","ios":"levelo://app?vid=d268ad5f-8f67-48dc-a311-0c6312944804"},"vehicle_type_id":"4","last_reported":1727356695,"current_range_meters":37600,"station_id":"ce4bgnh2rcd13ifvqc0g","pricing_plan_id":"cebpf4jnsgd1na2vs0mg"},{"bike_id":"98309987-5864-4cee-b3f7-230b6b97a103","system_id":"levelo_inurba_marseille","lat":43.28475,"lon":5.3842,"is_reserved":false,"is_disabled":false,"rental_uris":{"android":"levelo://app?vid=98309987-5864-4cee-b3f7-230b6b97a103","ios":"levelo://app?vid=98309987-5864-4cee-b3f7-230b6b97a103"},"vehicle_type_id":"4","last_reported":1727356695,"current_range_meters":23200,"station_id":"ce4bh512rcd13ifvqe3g","pricing_plan_id":"cebpf4jnsgd1na2vs0mg"},{"bike_id":"3ade15d9-4038-4fe2-a9fb-2515b89ae4bd","system_id":"levelo_inurba_marseille","lat":43.24548,"lon":5.39529,"is_reserved":false,"is_disabled":false,"rental_uris":{"android":"levelo://app?vid=3ade15d9-4038-4fe2-a9fb-2515b89ae4bd","ios":"levelo://app?vid=3ade15d9-4038-4fe2-a9fb-2515b89ae4bd"},"vehicle_type_id":"4","last_reported":1727356695,"current_range_meters":33200,"station_id":"ce4bhlp2rcd13ifvqgjg","pricing_plan_id":"cebpf4jnsgd1na2vs0mg"},{"bike_id":"21e0ea13-c5d9-48ea-bca6-151e31404e82","system_id":"levelo_inurba_marseille","lat":43.28379,"lon":5.41259,"is_reserved":false,"is_disabled":false,"rental_uris":{"android":"levelo://app?vid=21e0ea13-c5d9-48ea-bca6-151e31404e82","ios":"levelo://app?vid=21e0ea13-c5d9-48ea-bca6-151e31404e82"},"vehicle_type_id":"4","last_reported":1727356695,"current_range_meters":22000,"station_id":"","pricing_plan_id":"cebpf4jnsgd1na2vs0mg"},{"bike_id":"567d63b1-9298-45f6-9ef7-f49ba2b5ee87","system_id":"levelo_inurba_marseille","lat":43.32483,"lon":5.36565,"is_reserved":false,"is_disabled":false,"rental_uris":{"android":"levelo://app?vid=567d63b1-9298-45f6-9ef7-f49ba2b5ee87","ios":"levelo://app?vid=567d63b1-9298-45f6-9ef7-f49ba2b5ee87"},"vehicle_type_id":"4","last_reported":1727356695,"current_range_meters":32800,"station_id":"ce4bhs12rcd13ifvqhvg","pricing_plan_id":"cebpf4jnsgd1na2vs0mg"},{"bike_id":"254a2c39-f497-4004-9e37-8d20bdab31cd","system_id":"levelo_inurba_marseille","lat":43.28478,"lon":5.3841,"is_reserved":false,"is_disabled":false,"rental_uris":{"android":"levelo://app?vid=254a2c39-f497-4004-9e37-8d20bdab31cd","ios":"levelo://app?vid=254a2c39-f497-4004-9e37-8d20bdab31cd"},"vehicle_type_id":"4","last_reported":1727356695,"current_range_meters":8000,"station_id":"ce4bh512rcd13ifvqe3g","pricing_plan_id":"cebpf4jnsgd1na2vs0mg"},{"bike_id":"a9669d3a-c989-4bbf-988b-b787f6909497","system_id":"levelo_inurba_marseille","lat":43.3266,"lon":5.40989,"is_reserved":false,"is_disabled":false,"rental_uris":{"android":"levelo://app?vid=a9669d3a-c989-4bbf-988b-b787f6909497","ios":"levelo://app?vid=a9669d3a-c989-4bbf-988b-b787f6909497"},"vehicle_type_id":"4","last_reported":1727356695,"current_range_meters":38800,"station_id":"ce4bhpp2rcd13ifvqhgg","pricing_plan_id":"cebpf4jnsgd1na2vs0mg"},{"bike_id":"79275259-10c6-40d0-af2e-5a59e3e18d05","system_id":"levelo_inurba_marseille","lat":43.30908,"lon":5.36842,"is_reserved":false,"is_disabled":false,"rental_uris":{"android":"levelo://app?vid=79275259-10c6-40d0-af2e-5a59e3e18d05","ios":"levelo://app?vid=79275259-10c6-40d0-af2e-5a59e3e18d05"},"vehicle_type_id":"4","last_reported":1727356695,"current_range_meters":20000,"station_id":"ce4bgn92rcd13ifvqbvg","pricing_plan_id":"cebpf4jnsgd1na2vs0mg"},{"bike_id":"3b8b1f92-ed32-436e-9e7c-472e6ff0fca3","system_id":"levelo_inurba_marseille","lat":43.27074,"lon":5.42275,"is_reserved":false,"is_disabled":false,"rental_uris":{"android":"levelo://app?vid=3b8b1f92-ed32-436e-9e7c-472e6ff0fca3","ios":"levelo://app?vid=3b8b1f92-ed32-436e-9e7c-472e6ff0fca3"},"vehicle_type_id":"4","last_reported":1727356695,"current_range_meters":6000,"station_id":"ce4bhk92rcd13ifvqgb0","pricing_plan_id":"cebpf4jnsgd1na2vs0mg"},{"bike_id":"77d34585-cc5b-4c75-9992-ac958b185d5d","system_id":"levelo_inurba_marseille","lat":43.30909,"lon":5.36848,"is_reserved":false,"is_disabled":false,"rental_uris":{"android":"levelo://app?vid=77d34585-cc5b-4c75-9992-ac958b185d5d","ios":"levelo://app?vid=77d34585-cc5b-4c75-9992-ac958b185d5d"},"vehicle_type_id":"4","last_reported":1727356695,"current_range_meters":20800,"station_id":"ce4bgn92rcd13ifvqbvg","pricing_plan_id":"cebpf4jnsgd1na2vs0mg"},{"bike_id":"3a31745c-0c4e-4cb8-8800-635981742612","system_id":"levelo_inurba_marseille","lat":43.26931,"lon":5.38916,"is_reserved":false,"is_disabled":false,"rental_uris":{"android":"levelo://app?vid=3a31745c-0c4e-4cb8-8800-635981742612","ios":"levelo://app?vid=3a31745c-0c4e-4cb8-8800-635981742612"},"vehicle_type_id":"4","last_reported":1727356695,"current_range_meters":4000,"station_id":"ce4bhhh2rcd13ifvqfl0","pricing_plan_id":"cebpf4jnsgd1na2vs0mg"},{"bike_id":"cc495d92-8ab0-4b0a-91af-b634b40a5fa7","system_id":"levelo_inurba_marseille","lat":43.2293,"lon":5.35373,"is_reserved":false,"is_disabled":false,"rental_uris":{"android":"levelo://app?vid=cc495d92-8ab0-4b0a-91af-b634b40a5fa7","ios":"levelo://app?vid=cc495d92-8ab0-4b0a-91af-b634b40a5fa7"},"vehicle_type_id":"4","last_reported":1727356695,"current_range_meters":2000,"station_id":"cpo3532slgdg3j2ikp40","pricing_plan_id":"cebpf4jnsgd1na2vs0mg"},{"bike_id":"18dcc2de-6658-4930-a51b-2c944671767f","system_id":"levelo_inurba_marseille","lat":43.313399,"lon":5.367133,"is_reserved":false,"is_disabled":false,"rental_uris":{"android":"levelo://app?vid=18dcc2de-6658-4930-a51b-2c944671767f","ios":"levelo://app?vid=18dcc2de-6658-4930-a51b-2c944671767f"},"vehicle_type_id":"4","last_reported":1727356695,"current_range_meters":31200,"station_id":"ce4bgr92rcd13ifvqc6g","pricing_plan_id":"cebpf4jnsgd1na2vs0mg"},{"bike_id":"de566fec-c1ec-44e7-a0e9-074f5a4a0f57","system_id":"levelo_inurba_marseille","lat":43.3042,"lon":5.41277,"is_reserved":false,"is_disabled":false,"rental_uris":{"android":"levelo://app?vid=de566fec-c1ec-44e7-a0e9-074f5a4a0f57","ios":"levelo://app?vid=de566fec-c1ec-44e7-a0e9-074f5a4a0f57"},"vehicle_type_id":"4","last_reported":1727356695,"current_range_meters":19200,"station_id":"ce4bhop2rcd13ifvqh8g","pricing_plan_id":"cebpf4jnsgd1na2vs0mg"},{"bike_id":"037ab368-5aab-499c-87ed-8768c8d83f14","system_id":"levelo_inurba_marseille","lat":43.29005,"lon":5.35615,"is_reserved":false,"is_disabled":false,"rental_uris":{"android":"levelo://app?vid=037ab368-5aab-499c-87ed-8768c8d83f14","ios":"levelo://app?vid=037ab368-5aab-499c-87ed-8768c8d83f14"},"vehicle_type_id":"4","last_reported":1727356695,"current_range_meters":38800,"station_id":"ce4bhb92rcd13ifvqen0","pricing_plan_id":"cebpf4jnsgd1na2vs0mg"},{"bike_id":"d3724731-5bfd-4487-a17d-3a50c30c53c3","system_id":"levelo_inurba_marseille","lat":43.27999,"lon":5.41664,"is_reserved":false,"is_disabled":false,"rental_uris":{"android":"levelo://app?vid=d3724731-5bfd-4487-a17d-3a50c30c53c3","ios":"levelo://app?vid=d3724731-5bfd-4487-a17d-3a50c30c53c3"},"vehicle_type_id":"4","last_reported":1727356695,"current_range_meters":24000,"station_id":"ce4bho12rcd13ifvqh1g","pricing_plan_id":"cebpf4jnsgd1na2vs0mg"},{"bike_id":"fb7249d6-7620-4c30-9beb-ed97dbed0021","system_id":"levelo_inurba_marseille","lat":43.29909,"lon":5.37484,"is_reserved":false,"is_disabled":false,"rental_uris":{"android":"levelo://app?vid=fb7249d6-7620-4c30-9beb-ed97dbed0021","ios":"levelo://app?vid=fb7249d6-7620-4c30-9beb-ed97dbed0021"},"vehicle_type_id":"4","last_reported":1727356695,"current_range_meters":4800,"station_id":"ce4bgjh2rcd13ifvqbg0","pricing_plan_id":"cebpf4jnsgd1na2vs0mg"},{"bike_id":"2c1aecea-5feb-4f87-bef0-8f3d6a75ff12","system_id":"levelo_inurba_marseille","lat":43.29911,"lon":5.37473,"is_reserved":false,"is_disabled":false,"rental_uris":{"android":"levelo://app?vid=2c1aecea-5feb-4f87-bef0-8f3d6a75ff12","ios":"levelo://app?vid=2c1aecea-5feb-4f87-bef0-8f3d6a75ff12"},"vehicle_type_id":"4","last_reported":1727356695,"current_range_meters":8000,"station_id":"ce4bgjh2rcd13ifvqbg0","pricing_plan_id":"cebpf4jnsgd1na2vs0mg"},{"bike_id":"449dad4d-e4da-469c-9a88-a481deea493e","system_id":"levelo_inurba_marseille","lat":43.29971,"lon":5.37181,"is_reserved":false,"is_disabled":false,"rental_uris":{"android":"levelo://app?vid=449dad4d-e4da-469c-9a88-a481deea493e","ios":"levelo://app?vid=449dad4d-e4da-469c-9a88-a481deea493e"},"vehicle_type_id":"4","last_reported":1727356695,"current_range_meters":19200,"station_id":"ce4bgr92rcd13ifvqc7g","pricing_plan_id":"cebpf4jnsgd1na2vs0mg"},{"bike_id":"7737b815-6daf-41f0-8354-4b28ba75917f","system_id":"levelo_inurba_marseille","lat":43.3019,"lon":5.39824,"is_reserved":false,"is_disabled":false,"rental_uris":{"android":"levelo://app?vid=7737b815-6daf-41f0-8354-4b28ba75917f","ios":"levelo://app?vid=7737b815-6daf-41f0-8354-4b28ba75917f"},"vehicle_type_id":"4","last_reported":1727356695,"current_range_meters":11600,"station_id":"ce4bgvp2rcd13ifvqct0","pricing_plan_id":"cebpf4jnsgd1na2vs0mg"},{"bike_id":"3df56cf6-183d-48e0-8c1c-f8eaad3a37e3","system_id":"levelo_inurba_marseille","lat":43.2408,"lon":5.377383,"is_reserved":false,"is_disabled":false,"rental_uris":{"android":"levelo://app?vid=3df56cf6-183d-48e0-8c1c-f8eaad3a37e3","ios":"levelo://app?vid=3df56cf6-183d-48e0-8c1c-f8eaad3a37e3"},"vehicle_type_id":"4","last_reported":1727356695,"current_range_meters":19600,"station_id":"ce4bhnp2rcd13ifvqgvg","pricing_plan_id":"cebpf4jnsgd1na2vs0mg"},{"bike_id":"a11a94df-faa6-43d0-8ee7-8a363cd483f5","system_id":"levelo_inurba_marseille","lat":43.305908,"lon":5.393412,"is_reserved":false,"is_disabled":false,"rental_uris":{"android":"levelo://app?vid=a11a94df-faa6-43d0-8ee7-8a363cd483f5","ios":"levelo://app?vid=a11a94df-faa6-43d0-8ee7-8a363cd483f5"},"vehicle_type_id":"4","last_reported":1727356695,"current_range_meters":6800,"station_id":"ce4bh0p2rcd13ifvqd80","pricing_plan_id":"cebpf4jnsgd1na2vs0mg"},{"bike_id":"662a6d9b-1c0d-4f2a-941f-4640fe8d3746","system_id":"levelo_inurba_marseille","lat":43.26032,"lon":5.37547,"is_reserved":false,"is_disabled":false,"rental_uris":{"android":"levelo://app?vid=662a6d9b-1c0d-4f2a-941f-4640fe8d3746","ios":"levelo://app?vid=662a6d9b-1c0d-4f2a-941f-4640fe8d3746"},"vehicle_type_id":"4","last_reported":1727356695,"current_range_meters":38800,"station_id":"ce4bhgh2rcd13ifvqfa0","pricing_plan_id":"cebpf4jnsgd1na2vs0mg"},{"bike_id":"0c6300f3-db35-4678-9ba5-51b29b04da28","system_id":"levelo_inurba_marseille","lat":43.27497,"lon":5.42447,"is_reserved":false,"is_disabled":false,"rental_uris":{"android":"levelo://app?vid=0c6300f3-db35-4678-9ba5-51b29b04da28","ios":"levelo://app?vid=0c6300f3-db35-4678-9ba5-51b29b04da28"},"vehicle_type_id":"4","last_reported":1727356695,"current_range_meters":17200,"station_id":"ce4bhn92rcd13ifvqgrg","pricing_plan_id":"cebpf4jnsgd1na2vs0mg"},{"bike_id":"cc915f1b-58fe-4019-8b50-3dc1e1017e76","system_id":"levelo_inurba_marseille","lat":43.29007,"lon":5.35615,"is_reserved":false,"is_disabled":false,"rental_uris":{"android":"levelo://app?vid=cc915f1b-58fe-4019-8b50-3dc1e1017e76","ios":"levelo://app?vid=cc915f1b-58fe-4019-8b50-3dc1e1017e76"},"vehicle_type_id":"4","last_reported":1727356695,"current_range_meters":14800,"station_id":"ce4bhb92rcd13ifvqen0","pricing_plan_id":"cebpf4jnsgd1na2vs0mg"},{"bike_id":"8de96556-4350-4a73-800c-773618d03899","system_id":"levelo_inurba_marseille","lat":43.29972,"lon":5.37174,"is_reserved":false,"is_disabled":false,"rental_uris":{"android":"levelo://app?vid=8de96556-4350-4a73-800c-773618d03899","ios":"levelo://app?vid=8de96556-4350-4a73-800c-773618d03899"},"vehicle_type_id":"4","last_reported":1727356695,"current_range_meters":36000,"station_id":"ce4bgr92rcd13ifvqc7g","pricing_plan_id":"cebpf4jnsgd1na2vs0mg"},{"bike_id":"b6daf4df-7c90-4c5e-b397-06a87d15013f","system_id":"levelo_inurba_marseille","lat":43.33742,"lon":5.37467,"is_reserved":false,"is_disabled":false,"rental_uris":{"android":"levelo://app?vid=b6daf4df-7c90-4c5e-b397-06a87d15013f","ios":"levelo://app?vid=b6daf4df-7c90-4c5e-b397-06a87d15013f"},"vehicle_type_id":"4","last_reported":1727356695,"current_range_meters":30800,"station_id":"","pricing_plan_id":"cebpf4jnsgd1na2vs0mg"},{"bike_id":"b0d493d3-5f67-4033-9fb3-f4bbc296d339","system_id":"levelo_inurba_marseille","lat":43.33752,"lon":5.37449,"is_reserved":false,"is_disabled":false,"rental_uris":{"android":"levelo://app?vid=b0d493d3-5f67-4033-9fb3-f4bbc296d339","ios":"levelo://app?vid=b0d493d3-5f67-4033-9fb3-f4bbc296d339"},"vehicle_type_id":"4","last_reported":1727356695,"current_range_meters":29600,"station_id":"","pricing_plan_id":"cebpf4jnsgd1na2vs0mg"},{"bike_id":"d664c533-3b2b-465b-80c6-b579b84c114a","system_id":"levelo_inurba_marseille","lat":43.28005,"lon":5.40005,"is_reserved":false,"is_disabled":false,"rental_uris":{"android":"levelo://app?vid=d664c533-3b2b-465b-80c6-b579b84c114a","ios":"levelo://app?vid=d664c533-3b2b-465b-80c6-b579b84c114a"},"vehicle_type_id":"4","last_reported":1727356695,"current_range_meters":39200,"station_id":"ce4bho92rcd13ifvqh4g","pricing_plan_id":"cebpf4jnsgd1na2vs0mg"},{"bike_id":"5a6b2510-3f6d-4b8a-b42c-99336d74108e","system_id":"levelo_inurba_marseille","lat":43.3254,"lon":5.41453,"is_reserved":false,"is_disabled":false,"rental_uris":{"android":"levelo://app?vid=5a6b2510-3f6d-4b8a-b42c-99336d74108e","ios":"levelo://app?vid=5a6b2510-3f6d-4b8a-b42c-99336d74108e"},"vehicle_type_id":"4","last_reported":1727356695,"current_range_meters":28400,"station_id":"ce4bhq12rcd13ifvqhhg","pricing_plan_id":"cebpf4jnsgd1na2vs0mg"},{"bike_id":"77d00fbc-30d3-453b-86f6-d2b03dc31fd3","system_id":"levelo_inurba_marseille","lat":43.29578,"lon":5.37501,"is_reserved":false,"is_disabled":false,"rental_uris":{"android":"levelo://app?vid=77d00fbc-30d3-453b-86f6-d2b03dc31fd3","ios":"levelo://app?vid=77d00fbc-30d3-453b-86f6-d2b03dc31fd3"},"vehicle_type_id":"4","last_reported":1727356695,"current_range_meters":38000,"station_id":"ce4bgh92rcd13ifvqb50","pricing_plan_id":"cebpf4jnsgd1na2vs0mg"},{"bike_id":"e3c5fbbf-73cf-4f2d-b2d6-f67ffdb80c53","system_id":"levelo_inurba_marseille","lat":43.33025,"lon":5.39031,"is_reserved":false,"is_disabled":false,"rental_uris":{"android":"levelo://app?vid=e3c5fbbf-73cf-4f2d-b2d6-f67ffdb80c53","ios":"levelo://app?vid=e3c5fbbf-73cf-4f2d-b2d6-f67ffdb80c53"},"vehicle_type_id":"4","last_reported":1727356695,"current_range_meters":29600,"station_id":"ce4bhr92rcd13ifvqhrg","pricing_plan_id":"cebpf4jnsgd1na2vs0mg"},{"bike_id":"920a992c-b9bd-467d-8738-97c73c4e43f7","system_id":"levelo_inurba_marseille","lat":43.31225,"lon":5.36861,"is_reserved":false,"is_disabled":false,"rental_uris":{"android":"levelo://app?vid=920a992c-b9bd-467d-8738-97c73c4e43f7","ios":"levelo://app?vid=920a992c-b9bd-467d-8738-97c73c4e43f7"},"vehicle_type_id":"4","last_reported":1727356695,"current_range_meters":38800,"station_id":"ce4bgl92rcd13ifvqbq0","pricing_plan_id":"cebpf4jnsgd1na2vs0mg"},{"bike_id":"57bc1e84-e83e-4198-85b5-3e7f9c3f0b0b","system_id":"levelo_inurba_marseille","lat":43.24175,"lon":5.36386,"is_reserved":false,"is_disabled":false,"rental_uris":{"android":"levelo://app?vid=57bc1e84-e83e-4198-85b5-3e7f9c3f0b0b","ios":"levelo://app?vid=57bc1e84-e83e-4198-85b5-3e7f9c3f0b0b"},"vehicle_type_id":"4","last_reported":1727356695,"current_range_meters":27600,"station_id":"cpo36qri1sfpv3e86is0","pricing_plan_id":"cebpf4jnsgd1na2vs0mg"},{"bike_id":"7a8458d5-44ac-4f2e-abef-3f01eb31f7ca","system_id":"levelo_inurba_marseille","lat":43.337444,"lon":5.374475,"is_reserved":false,"is_disabled":false,"rental_uris":{"android":"levelo://app?vid=7a8458d5-44ac-4f2e-abef-3f01eb31f7ca","ios":"levelo://app?vid=7a8458d5-44ac-4f2e-abef-3f01eb31f7ca"},"vehicle_type_id":"4","last_reported":1727356695,"current_range_meters":20800,"station_id":"","pricing_plan_id":"cebpf4jnsgd1na2vs0mg"},{"bike_id":"245322ad-98ce-4a03-920e-f8861ea4255a","system_id":"levelo_inurba_marseille","lat":43.241635,"lon":5.36543,"is_reserved":false,"is_disabled":false,"rental_uris":{"android":"levelo://app?vid=245322ad-98ce-4a03-920e-f8861ea4255a","ios":"levelo://app?vid=245322ad-98ce-4a03-920e-f8861ea4255a"},"vehicle_type_id":"4","last_reported":1727356695,"current_range_meters":6400,"station_id":"cpo36qri1sfpv3e86is0","pricing_plan_id":"cebpf4jnsgd1na2vs0mg"},{"bike_id":"0a5498d1-2c08-4f3d-af23-80c73fef4615","system_id":"levelo_inurba_marseille","lat":43.24077,"lon":5.37746,"is_reserved":false,"is_disabled":false,"rental_uris":{"android":"levelo://app?vid=0a5498d1-2c08-4f3d-af23-80c73fef4615","ios":"levelo://app?vid=0a5498d1-2c08-4f3d-af23-80c73fef4615"},"vehicle_type_id":"4","last_reported":1727356695,"current_range_meters":37600,"station_id":"ce4bhnp2rcd13ifvqgvg","pricing_plan_id":"cebpf4jnsgd1na2vs0mg"},{"bike_id":"388a507e-86c4-4df5-b075-d43d70469bdd","system_id":"levelo_inurba_marseille","lat":43.30187,"lon":5.3662,"is_reserved":false,"is_disabled":false,"rental_uris":{"android":"levelo://app?vid=388a507e-86c4-4df5-b075-d43d70469bdd","ios":"levelo://app?vid=388a507e-86c4-4df5-b075-d43d70469bdd"},"vehicle_type_id":"4","last_reported":1727356695,"current_range_meters":38800,"station_id":"ce4bgrh2rcd13ifvqc8g","pricing_plan_id":"cebpf4jnsgd1na2vs0mg"},{"bike_id":"0ff4805d-5eb0-413d-9fd8-adffbbf2ce16","system_id":"levelo_inurba_marseille","lat":43.29851,"lon":5.36277,"is_reserved":false,"is_disabled":false,"rental_uris":{"android":"levelo://app?vid=0ff4805d-5eb0-413d-9fd8-adffbbf2ce16","ios":"levelo://app?vid=0ff4805d-5eb0-413d-9fd8-adffbbf2ce16"},"vehicle_type_id":"4","last_reported":1727356695,"current_range_meters":38800,"station_id":"ce4bgpp2rcd13ifvqc3g","pricing_plan_id":"cebpf4jnsgd1na2vs0mg"},{"bike_id":"dbdebbc3-f633-440e-ad73-8aecea0e3a96","system_id":"levelo_inurba_marseille","lat":43.28725,"lon":5.37941,"is_reserved":false,"is_disabled":false,"rental_uris":{"android":"levelo://app?vid=dbdebbc3-f633-440e-ad73-8aecea0e3a96","ios":"levelo://app?vid=dbdebbc3-f633-440e-ad73-8aecea0e3a96"},"vehicle_type_id":"4","last_reported":1727356695,"current_range_meters":38800,"station_id":"ce4bh9p2rcd13ifvqec0","pricing_plan_id":"cebpf4jnsgd1na2vs0mg"},{"bike_id":"fea8e9c3-fbb8-408a-87ef-e483df097edc","system_id":"levelo_inurba_marseille","lat":43.3053,"lon":5.36539,"is_reserved":false,"is_disabled":false,"rental_uris":{"android":"levelo://app?vid=fea8e9c3-fbb8-408a-87ef-e483df097edc","ios":"levelo://app?vid=fea8e9c3-fbb8-408a-87ef-e483df097edc"},"vehicle_type_id":"4","last_reported":1727356695,"current_range_meters":36400,"station_id":"ce4bgs12rcd13ifvqcag","pricing_plan_id":"cebpf4jnsgd1na2vs0mg"},{"bike_id":"4905ea4a-99c2-4591-8874-f5f42b9d2591","system_id":"levelo_inurba_marseille","lat":43.30538,"lon":5.36551,"is_reserved":false,"is_disabled":false,"rental_uris":{"android":"levelo://app?vid=4905ea4a-99c2-4591-8874-f5f42b9d2591","ios":"levelo://app?vid=4905ea4a-99c2-4591-8874-f5f42b9d2591"},"vehicle_type_id":"4","last_reported":1727356695,"current_range_meters":21600,"station_id":"ce4bgs12rcd13ifvqcag","pricing_plan_id":"cebpf4jnsgd1na2vs0mg"},{"bike_id":"c1f16afa-6cf4-4320-85d1-ef0dacf89c86","system_id":"levelo_inurba_marseille","lat":43.2901,"lon":5.35604,"is_reserved":false,"is_disabled":false,"rental_uris":{"android":"levelo://app?vid=c1f16afa-6cf4-4320-85d1-ef0dacf89c86","ios":"levelo://app?vid=c1f16afa-6cf4-4320-85d1-ef0dacf89c86"},"vehicle_type_id":"4","last_reported":1727356695,"current_range_meters":39200,"station_id":"ce4bhb92rcd13ifvqen0","pricing_plan_id":"cebpf4jnsgd1na2vs0mg"},{"bike_id":"8d17f10b-cb18-4a62-9a7c-043318106e2d","system_id":"levelo_inurba_marseille","lat":43.30228,"lon":5.36631,"is_reserved":false,"is_disabled":false,"rental_uris":{"android":"levelo://app?vid=8d17f10b-cb18-4a62-9a7c-043318106e2d","ios":"levelo://app?vid=8d17f10b-cb18-4a62-9a7c-043318106e2d"},"vehicle_type_id":"4","last_reported":1727356695,"current_range_meters":8000,"station_id":"ce4bgrh2rcd13ifvqc8g","pricing_plan_id":"cebpf4jnsgd1na2vs0mg"},{"bike_id":"246ce280-4dc5-4111-9a0a-827981169348","system_id":"levelo_inurba_marseille","lat":43.29873,"lon":5.3973,"is_reserved":false,"is_disabled":false,"rental_uris":{"android":"levelo://app?vid=246ce280-4dc5-4111-9a0a-827981169348","ios":"levelo://app?vid=246ce280-4dc5-4111-9a0a-827981169348"},"vehicle_type_id":"4","last_reported":1727356695,"current_range_meters":26800,"station_id":"ce4bh0h2rcd13ifvqd50","pricing_plan_id":"cebpf4jnsgd1na2vs0mg"},{"bike_id":"639fab71-367e-42bd-a2db-a6da061ff077","system_id":"levelo_inurba_marseille","lat":43.296025,"lon":5.381094,"is_reserved":false,"is_disabled":false,"rental_uris":{"android":"levelo://app?vid=639fab71-367e-42bd-a2db-a6da061ff077","ios":"levelo://app?vid=639fab71-367e-42bd-a2db-a6da061ff077"},"vehicle_type_id":"4","last_reported":1727356695,"current_range_meters":18000,"station_id":"ce4bgl12rcd13ifvqbo0","pricing_plan_id":"cebpf4jnsgd1na2vs0mg"},{"bike_id":"097c6598-9463-4969-9cb9-e6db1899af49","system_id":"levelo_inurba_marseille","lat":43.25873,"lon":5.39899,"is_reserved":false,"is_disabled":false,"rental_uris":{"android":"levelo://app?vid=097c6598-9463-4969-9cb9-e6db1899af49","ios":"levelo://app?vid=097c6598-9463-4969-9cb9-e6db1899af49"},"vehicle_type_id":"4","last_reported":1727356695,"current_range_meters":38800,"station_id":"ce4bhl92rcd13ifvqghg","pricing_plan_id":"cebpf4jnsgd1na2vs0mg"},{"bike_id":"ffcde158-e85c-4869-a280-ae8fb317fd39","system_id":"levelo_inurba_marseille","lat":43.24082,"lon":5.37754,"is_reserved":false,"is_disabled":false,"rental_uris":{"android":"levelo://app?vid=ffcde158-e85c-4869-a280-ae8fb317fd39","ios":"levelo://app?vid=ffcde158-e85c-4869-a280-ae8fb317fd39"},"vehicle_type_id":"4","last_reported":1727356695,"current_range_meters":30800,"station_id":"ce4bhnp2rcd13ifvqgvg","pricing_plan_id":"cebpf4jnsgd1na2vs0mg"},{"bike_id":"90243425-de18-4b3e-bb02-a9594edad823","system_id":"levelo_inurba_marseille","lat":43.25939,"lon":5.40901,"is_reserved":false,"is_disabled":false,"rental_uris":{"android":"levelo://app?vid=90243425-de18-4b3e-bb02-a9594edad823","ios":"levelo://app?vid=90243425-de18-4b3e-bb02-a9594edad823"},"vehicle_type_id":"4","last_reported":1727356695,"current_range_meters":34800,"station_id":"ce4bhm92rcd13ifvqglg","pricing_plan_id":"cebpf4jnsgd1na2vs0mg"},{"bike_id":"2c7b29c2-9d7b-4b41-9984-9f52d66d2d6b","system_id":"levelo_inurba_marseille","lat":43.29867,"lon":5.397333,"is_reserved":false,"is_disabled":false,"rental_uris":{"android":"levelo://app?vid=2c7b29c2-9d7b-4b41-9984-9f52d66d2d6b","ios":"levelo://app?vid=2c7b29c2-9d7b-4b41-9984-9f52d66d2d6b"},"vehicle_type_id":"4","last_reported":1727356695,"current_range_meters":11600,"station_id":"ce4bh0h2rcd13ifvqd50","pricing_plan_id":"cebpf4jnsgd1na2vs0mg"},{"bike_id":"e0321300-37ad-4bce-a17c-4bf73cb9114f","system_id":"levelo_inurba_marseille","lat":43.29901,"lon":5.4367,"is_reserved":false,"is_disabled":false,"rental_uris":{"android":"levelo://app?vid=e0321300-37ad-4bce-a17c-4bf73cb9114f","ios":"levelo://app?vid=e0321300-37ad-4bce-a17c-4bf73cb9114f"},"vehicle_type_id":"4","last_reported":1727356695,"current_range_meters":35200,"station_id":"ce4bhpp2rcd13ifvqhfg","pricing_plan_id":"cebpf4jnsgd1na2vs0mg"},{"bike_id":"fb8dbcb4-f3ca-4dc2-8469-db6b421828f0","system_id":"levelo_inurba_marseille","lat":43.30551,"lon":5.36707,"is_reserved":false,"is_disabled":false,"rental_uris":{"android":"levelo://app?vid=fb8dbcb4-f3ca-4dc2-8469-db6b421828f0","ios":"levelo://app?vid=fb8dbcb4-f3ca-4dc2-8469-db6b421828f0"},"vehicle_type_id":"4","last_reported":1727356695,"current_range_meters":30400,"station_id":"ce4bgrp2rcd13ifvqc9g","pricing_plan_id":"cebpf4jnsgd1na2vs0mg"},{"bike_id":"09373b9b-30a7-4b62-b4fc-257439450e42","system_id":"levelo_inurba_marseille","lat":43.29531,"lon":5.37479,"is_reserved":false,"is_disabled":false,"rental_uris":{"android":"levelo://app?vid=09373b9b-30a7-4b62-b4fc-257439450e42","ios":"levelo://app?vid=09373b9b-30a7-4b62-b4fc-257439450e42"},"vehicle_type_id":"4","last_reported":1727356695,"current_range_meters":25600,"station_id":"ce4bgkp2rcd13ifvqbmg","pricing_plan_id":"cebpf4jnsgd1na2vs0mg"},{"bike_id":"79a05bb1-ccec-47f0-8ebd-1f95854549f8","system_id":"levelo_inurba_marseille","lat":43.31282,"lon":5.380327,"is_reserved":false,"is_disabled":false,"rental_uris":{"android":"levelo://app?vid=79a05bb1-ccec-47f0-8ebd-1f95854549f8","ios":"levelo://app?vid=79a05bb1-ccec-47f0-8ebd-1f95854549f8"},"vehicle_type_id":"4","last_reported":1727356695,"current_range_meters":6800,"station_id":"","pricing_plan_id":"cebpf4jnsgd1na2vs0mg"},{"bike_id":"7240b019-a2b5-45d8-952b-ec148e7a3990","system_id":"levelo_inurba_marseille","lat":43.27054,"lon":5.40265,"is_reserved":false,"is_disabled":false,"rental_uris":{"android":"levelo://app?vid=7240b019-a2b5-45d8-952b-ec148e7a3990","ios":"levelo://app?vid=7240b019-a2b5-45d8-952b-ec148e7a3990"},"vehicle_type_id":"4","last_reported":1727356695,"current_range_meters":28400,"station_id":"ce4bhk92rcd13ifvqgc0","pricing_plan_id":"cebpf4jnsgd1na2vs0mg"},{"bike_id":"09e4f431-0752-4422-aad1-b17655a979cb","system_id":"levelo_inurba_marseille","lat":43.24388,"lon":5.37059,"is_reserved":false,"is_disabled":false,"rental_uris":{"android":"levelo://app?vid=09e4f431-0752-4422-aad1-b17655a979cb","ios":"levelo://app?vid=09e4f431-0752-4422-aad1-b17655a979cb"},"vehicle_type_id":"4","last_reported":1727356695,"current_range_meters":38400,"station_id":"ce4bhhh2rcd13ifvqfk0","pricing_plan_id":"cebpf4jnsgd1na2vs0mg"},{"bike_id":"4ca8f2df-d07d-4530-b77f-5472e4a1443e","system_id":"levelo_inurba_marseille","lat":43.32544,"lon":5.41441,"is_reserved":false,"is_disabled":false,"rental_uris":{"android":"levelo://app?vid=4ca8f2df-d07d-4530-b77f-5472e4a1443e","ios":"levelo://app?vid=4ca8f2df-d07d-4530-b77f-5472e4a1443e"},"vehicle_type_id":"4","last_reported":1727356695,"current_range_meters":30800,"station_id":"ce4bhq12rcd13ifvqhhg","pricing_plan_id":"cebpf4jnsgd1na2vs0mg"},{"bike_id":"ca773917-fd3d-491c-a782-60d4807ce677","system_id":"levelo_inurba_marseille","lat":43.25004,"lon":5.3891,"is_reserved":false,"is_disabled":false,"rental_uris":{"android":"levelo://app?vid=ca773917-fd3d-491c-a782-60d4807ce677","ios":"levelo://app?vid=ca773917-fd3d-491c-a782-60d4807ce677"},"vehicle_type_id":"4","last_reported":1727356695,"current_range_meters":19200,"station_id":"ce4bhgp2rcd13ifvqfd0","pricing_plan_id":"cebpf4jnsgd1na2vs0mg"},{"bike_id":"efff68b3-e4d7-4c83-a72b-ccec8193d115","system_id":"levelo_inurba_marseille","lat":43.29009,"lon":5.35614,"is_reserved":false,"is_disabled":false,"rental_uris":{"android":"levelo://app?vid=efff68b3-e4d7-4c83-a72b-ccec8193d115","ios":"levelo://app?vid=efff68b3-e4d7-4c83-a72b-ccec8193d115"},"vehicle_type_id":"4","last_reported":1727356695,"current_range_meters":14000,"station_id":"ce4bhb92rcd13ifvqen0","pricing_plan_id":"cebpf4jnsgd1na2vs0mg"},{"bike_id":"a0b9666d-9f26-4903-bda4-d17e4ef07092","system_id":"levelo_inurba_marseille","lat":43.32492,"lon":5.36559,"is_reserved":false,"is_disabled":false,"rental_uris":{"android":"levelo://app?vid=a0b9666d-9f26-4903-bda4-d17e4ef07092","ios":"levelo://app?vid=a0b9666d-9f26-4903-bda4-d17e4ef07092"},"vehicle_type_id":"4","last_reported":1727356695,"current_range_meters":3200,"station_id":"ce4bhs12rcd13ifvqhvg","pricing_plan_id":"cebpf4jnsgd1na2vs0mg"},{"bike_id":"b3c3c5e8-aa8b-4465-a08d-a10ec2cf4ec4","system_id":"levelo_inurba_marseille","lat":43.29595,"lon":5.38097,"is_reserved":false,"is_disabled":false,"rental_uris":{"android":"levelo://app?vid=b3c3c5e8-aa8b-4465-a08d-a10ec2cf4ec4","ios":"levelo://app?vid=b3c3c5e8-aa8b-4465-a08d-a10ec2cf4ec4"},"vehicle_type_id":"4","last_reported":1727356695,"current_range_meters":12800,"station_id":"ce4bgl12rcd13ifvqbo0","pricing_plan_id":"cebpf4jnsgd1na2vs0mg"},{"bike_id":"1dcb5589-f6cf-4ec3-a639-a556452adcaa","system_id":"levelo_inurba_marseille","lat":43.29599,"lon":5.38104,"is_reserved":false,"is_disabled":false,"rental_uris":{"android":"levelo://app?vid=1dcb5589-f6cf-4ec3-a639-a556452adcaa","ios":"levelo://app?vid=1dcb5589-f6cf-4ec3-a639-a556452adcaa"},"vehicle_type_id":"4","last_reported":1727356695,"current_range_meters":30000,"station_id":"ce4bgl12rcd13ifvqbo0","pricing_plan_id":"cebpf4jnsgd1na2vs0mg"},{"bike_id":"7f7cfb71-e29e-44f8-9bcf-1cbb0dfe5d35","system_id":"levelo_inurba_marseille","lat":43.29857,"lon":5.36277,"is_reserved":false,"is_disabled":false,"rental_uris":{"android":"levelo://app?vid=7f7cfb71-e29e-44f8-9bcf-1cbb0dfe5d35","ios":"levelo://app?vid=7f7cfb71-e29e-44f8-9bcf-1cbb0dfe5d35"},"vehicle_type_id":"4","last_reported":1727356695,"current_range_meters":38400,"station_id":"ce4bgpp2rcd13ifvqc3g","pricing_plan_id":"cebpf4jnsgd1na2vs0mg"},{"bike_id":"39b40506-a421-4822-b7d2-3823f0faaeeb","system_id":"levelo_inurba_marseille","lat":43.2962,"lon":5.37161,"is_reserved":false,"is_disabled":false,"rental_uris":{"android":"levelo://app?vid=39b40506-a421-4822-b7d2-3823f0faaeeb","ios":"levelo://app?vid=39b40506-a421-4822-b7d2-3823f0faaeeb"},"vehicle_type_id":"4","last_reported":1727356695,"current_range_meters":38800,"station_id":"ce4bgnh2rcd13ifvqc0g","pricing_plan_id":"cebpf4jnsgd1na2vs0mg"},{"bike_id":"778cf1da-b1f9-4770-9dd3-7f9f6f29c740","system_id":"levelo_inurba_marseille","lat":43.3123,"lon":5.36856,"is_reserved":false,"is_disabled":false,"rental_uris":{"android":"levelo://app?vid=778cf1da-b1f9-4770-9dd3-7f9f6f29c740","ios":"levelo://app?vid=778cf1da-b1f9-4770-9dd3-7f9f6f29c740"},"vehicle_type_id":"4","last_reported":1727356695,"current_range_meters":19600,"station_id":"ce4bgl92rcd13ifvqbq0","pricing_plan_id":"cebpf4jnsgd1na2vs0mg"},{"bike_id":"ba477672-d3a2-4048-accf-b9e924a53dec","system_id":"levelo_inurba_marseille","lat":43.24391,"lon":5.3705,"is_reserved":false,"is_disabled":false,"rental_uris":{"android":"levelo://app?vid=ba477672-d3a2-4048-accf-b9e924a53dec","ios":"levelo://app?vid=ba477672-d3a2-4048-accf-b9e924a53dec"},"vehicle_type_id":"4","last_reported":1727356695,"current_range_meters":38800,"station_id":"ce4bhhh2rcd13ifvqfk0","pricing_plan_id":"cebpf4jnsgd1na2vs0mg"},{"bike_id":"00c55a61-da74-4c36-8c8e-499983e3e52b","system_id":"levelo_inurba_marseille","lat":43.29843,"lon":5.36264,"is_reserved":false,"is_disabled":false,"rental_uris":{"android":"levelo://app?vid=00c55a61-da74-4c36-8c8e-499983e3e52b","ios":"levelo://app?vid=00c55a61-da74-4c36-8c8e-499983e3e52b"},"vehicle_type_id":"4","last_reported":1727356695,"current_range_meters":24800,"station_id":"ce4bgpp2rcd13ifvqc3g","pricing_plan_id":"cebpf4jnsgd1na2vs0mg"},{"bike_id":"66a86831-3877-4742-8862-732f596c78d7","system_id":"levelo_inurba_marseille","lat":43.23157,"lon":5.43718,"is_reserved":false,"is_disabled":false,"rental_uris":{"android":"levelo://app?vid=66a86831-3877-4742-8862-732f596c78d7","ios":"levelo://app?vid=66a86831-3877-4742-8862-732f596c78d7"},"vehicle_type_id":"4","last_reported":1727356695,"current_range_meters":18800,"station_id":"ce4bhmp2rcd13ifvqgog","pricing_plan_id":"cebpf4jnsgd1na2vs0mg"},{"bike_id":"f710e63f-2e6d-4155-bdbf-1439ef542d2d","system_id":"levelo_inurba_marseille","lat":43.30387,"lon":5.40751,"is_reserved":false,"is_disabled":false,"rental_uris":{"android":"levelo://app?vid=f710e63f-2e6d-4155-bdbf-1439ef542d2d","ios":"levelo://app?vid=f710e63f-2e6d-4155-bdbf-1439ef542d2d"},"vehicle_type_id":"4","last_reported":1727356695,"current_range_meters":11200,"station_id":"","pricing_plan_id":"cebpf4jnsgd1na2vs0mg"},{"bike_id":"aa01a65a-43da-414f-bfb6-04bfeda6b8b0","system_id":"levelo_inurba_marseille","lat":43.280038,"lon":5.400127,"is_reserved":false,"is_disabled":false,"rental_uris":{"android":"levelo://app?vid=aa01a65a-43da-414f-bfb6-04bfeda6b8b0","ios":"levelo://app?vid=aa01a65a-43da-414f-bfb6-04bfeda6b8b0"},"vehicle_type_id":"4","last_reported":1727356695,"current_range_meters":17200,"station_id":"ce4bho92rcd13ifvqh4g","pricing_plan_id":"cebpf4jnsgd1na2vs0mg"},{"bike_id":"c017f362-9664-45c4-b19b-7118d6bf47c1","system_id":"levelo_inurba_marseille","lat":43.28154,"lon":5.42649,"is_reserved":false,"is_disabled":false,"rental_uris":{"android":"levelo://app?vid=c017f362-9664-45c4-b19b-7118d6bf47c1","ios":"levelo://app?vid=c017f362-9664-45c4-b19b-7118d6bf47c1"},"vehicle_type_id":"4","last_reported":1727356695,"current_range_meters":39200,"station_id":"ce4bhnh2rcd13ifvqgug","pricing_plan_id":"cebpf4jnsgd1na2vs0mg"},{"bike_id":"ef27f5af-c947-46ec-8b3e-1cc911910293","system_id":"levelo_inurba_marseille","lat":43.28034,"lon":5.36937,"is_reserved":false,"is_disabled":false,"rental_uris":{"android":"levelo://app?vid=ef27f5af-c947-46ec-8b3e-1cc911910293","ios":"levelo://app?vid=ef27f5af-c947-46ec-8b3e-1cc911910293"},"vehicle_type_id":"4","last_reported":1727356695,"current_range_meters":28000,"station_id":"ce4bha12rcd13ifvqef0","pricing_plan_id":"cebpf4jnsgd1na2vs0mg"},{"bike_id":"3c59bb61-45de-439a-a00e-c0ec231e5384","system_id":"levelo_inurba_marseille","lat":43.267792,"lon":5.394114,"is_reserved":false,"is_disabled":false,"rental_uris":{"android":"levelo://app?vid=3c59bb61-45de-439a-a00e-c0ec231e5384","ios":"levelo://app?vid=3c59bb61-45de-439a-a00e-c0ec231e5384"},"vehicle_type_id":"4","last_reported":1727356695,"current_range_meters":8000,"station_id":"ce4bhh12rcd13ifvqfg0","pricing_plan_id":"cebpf4jnsgd1na2vs0mg"},{"bike_id":"b322e881-1cb7-4a5d-9ac6-3f534c4f71c0","system_id":"levelo_inurba_marseille","lat":43.26806,"lon":5.40271,"is_reserved":false,"is_disabled":false,"rental_uris":{"android":"levelo://app?vid=b322e881-1cb7-4a5d-9ac6-3f534c4f71c0","ios":"levelo://app?vid=b322e881-1cb7-4a5d-9ac6-3f534c4f71c0"},"vehicle_type_id":"4","last_reported":1727356695,"current_range_meters":33200,"station_id":"ce501612rcd8frsf0b60","pricing_plan_id":"cebpf4jnsgd1na2vs0mg"},{"bike_id":"a9bdb4c0-8102-4d4a-9a27-2443834dab92","system_id":"levelo_inurba_marseille","lat":43.24663,"lon":5.38168,"is_reserved":false,"is_disabled":false,"rental_uris":{"android":"levelo://app?vid=a9bdb4c0-8102-4d4a-9a27-2443834dab92","ios":"levelo://app?vid=a9bdb4c0-8102-4d4a-9a27-2443834dab92"},"vehicle_type_id":"4","last_reported":1727356695,"current_range_meters":8800,"station_id":"ce4bhih2rcd13ifvqfr0","pricing_plan_id":"cebpf4jnsgd1na2vs0mg"},{"bike_id":"77faf788-da78-4c68-85c9-999cef3f8514","system_id":"levelo_inurba_marseille","lat":43.29588,"lon":5.36744,"is_reserved":false,"is_disabled":false,"rental_uris":{"android":"levelo://app?vid=77faf788-da78-4c68-85c9-999cef3f8514","ios":"levelo://app?vid=77faf788-da78-4c68-85c9-999cef3f8514"},"vehicle_type_id":"4","last_reported":1727356695,"current_range_meters":36400,"station_id":"ce4bgph2rcd13ifvqc2g","pricing_plan_id":"cebpf4jnsgd1na2vs0mg"},{"bike_id":"793f896e-ad54-433e-a879-1145c5aae290","system_id":"levelo_inurba_marseille","lat":43.29871,"lon":5.39734,"is_reserved":false,"is_disabled":false,"rental_uris":{"android":"levelo://app?vid=793f896e-ad54-433e-a879-1145c5aae290","ios":"levelo://app?vid=793f896e-ad54-433e-a879-1145c5aae290"},"vehicle_type_id":"4","last_reported":1727356695,"current_range_meters":24400,"station_id":"ce4bh0h2rcd13ifvqd50","pricing_plan_id":"cebpf4jnsgd1na2vs0mg"},{"bike_id":"5325b546-be8c-45ee-8bcb-8af51028126d","system_id":"levelo_inurba_marseille","lat":43.31232,"lon":5.36858,"is_reserved":false,"is_disabled":false,"rental_uris":{"android":"levelo://app?vid=5325b546-be8c-45ee-8bcb-8af51028126d","ios":"levelo://app?vid=5325b546-be8c-45ee-8bcb-8af51028126d"},"vehicle_type_id":"4","last_reported":1727356695,"current_range_meters":38800,"station_id":"ce4bgl92rcd13ifvqbq0","pricing_plan_id":"cebpf4jnsgd1na2vs0mg"},{"bike_id":"2ad7e519-0fd7-41e8-8a0e-8a418ef3dadf","system_id":"levelo_inurba_marseille","lat":43.2417,"lon":5.3639,"is_reserved":false,"is_disabled":false,"rental_uris":{"android":"levelo://app?vid=2ad7e519-0fd7-41e8-8a0e-8a418ef3dadf","ios":"levelo://app?vid=2ad7e519-0fd7-41e8-8a0e-8a418ef3dadf"},"vehicle_type_id":"4","last_reported":1727356695,"current_range_meters":35600,"station_id":"cpo36qri1sfpv3e86is0","pricing_plan_id":"cebpf4jnsgd1na2vs0mg"},{"bike_id":"b0a5c5c8-b96f-4d5c-ad0a-9a4c9139d21f","system_id":"levelo_inurba_marseille","lat":43.29794,"lon":5.37108,"is_reserved":false,"is_disabled":false,"rental_uris":{"android":"levelo://app?vid=b0a5c5c8-b96f-4d5c-ad0a-9a4c9139d21f","ios":"levelo://app?vid=b0a5c5c8-b96f-4d5c-ad0a-9a4c9139d21f"},"vehicle_type_id":"4","last_reported":1727356695,"current_range_meters":19200,"station_id":"ce4bgop2rcd13ifvqc1g","pricing_plan_id":"cebpf4jnsgd1na2vs0mg"},{"bike_id":"6c272204-1844-415e-a8b6-903d41b4084e","system_id":"levelo_inurba_marseille","lat":43.29934,"lon":5.36549,"is_reserved":false,"is_disabled":false,"rental_uris":{"android":"levelo://app?vid=6c272204-1844-415e-a8b6-903d41b4084e","ios":"levelo://app?vid=6c272204-1844-415e-a8b6-903d41b4084e"},"vehicle_type_id":"4","last_reported":1727356695,"current_range_meters":22800,"station_id":"ce4bgm92rcd13ifvqbr0","pricing_plan_id":"cebpf4jnsgd1na2vs0mg"},{"bike_id":"51baa77f-e0d0-4d7c-b18a-281fdb247ce5","system_id":"levelo_inurba_marseille","lat":43.24391,"lon":5.37058,"is_reserved":false,"is_disabled":false,"rental_uris":{"android":"levelo://app?vid=51baa77f-e0d0-4d7c-b18a-281fdb247ce5","ios":"levelo://app?vid=51baa77f-e0d0-4d7c-b18a-281fdb247ce5"},"vehicle_type_id":"4","last_reported":1727356695,"current_range_meters":33600,"station_id":"ce4bhhh2rcd13ifvqfk0","pricing_plan_id":"cebpf4jnsgd1na2vs0mg"},{"bike_id":"980a6e78-e57a-42f3-8e3b-e7ab987b675c","system_id":"levelo_inurba_marseille","lat":43.24074,"lon":5.37758,"is_reserved":false,"is_disabled":false,"rental_uris":{"android":"levelo://app?vid=980a6e78-e57a-42f3-8e3b-e7ab987b675c","ios":"levelo://app?vid=980a6e78-e57a-42f3-8e3b-e7ab987b675c"},"vehicle_type_id":"4","last_reported":1727356695,"current_range_meters":17200,"station_id":"ce4bhnp2rcd13ifvqgvg","pricing_plan_id":"cebpf4jnsgd1na2vs0mg"},{"bike_id":"cf544583-c014-42c1-85fe-c76c63840e0c","system_id":"levelo_inurba_marseille","lat":43.2669,"lon":5.3827,"is_reserved":false,"is_disabled":false,"rental_uris":{"android":"levelo://app?vid=cf544583-c014-42c1-85fe-c76c63840e0c","ios":"levelo://app?vid=cf544583-c014-42c1-85fe-c76c63840e0c"},"vehicle_type_id":"4","last_reported":1727356695,"current_range_meters":10800,"station_id":"ce4bhg92rcd13ifvqf90","pricing_plan_id":"cebpf4jnsgd1na2vs0mg"},{"bike_id":"1cc1749b-9ff6-4ede-8119-8732be9f932f","system_id":"levelo_inurba_marseille","lat":43.29905,"lon":5.43654,"is_reserved":false,"is_disabled":false,"rental_uris":{"android":"levelo://app?vid=1cc1749b-9ff6-4ede-8119-8732be9f932f","ios":"levelo://app?vid=1cc1749b-9ff6-4ede-8119-8732be9f932f"},"vehicle_type_id":"4","last_reported":1727356695,"current_range_meters":19200,"station_id":"ce4bhpp2rcd13ifvqhfg","pricing_plan_id":"cebpf4jnsgd1na2vs0mg"},{"bike_id":"f5d2eb6d-471e-40ee-9f94-9e77722bdbe7","system_id":"levelo_inurba_marseille","lat":43.31533,"lon":5.38028,"is_reserved":false,"is_disabled":false,"rental_uris":{"android":"levelo://app?vid=f5d2eb6d-471e-40ee-9f94-9e77722bdbe7","ios":"levelo://app?vid=f5d2eb6d-471e-40ee-9f94-9e77722bdbe7"},"vehicle_type_id":"4","last_reported":1727356695,"current_range_meters":27600,"station_id":"ce4bhsp2rcd13ifvqi50","pricing_plan_id":"cebpf4jnsgd1na2vs0mg"},{"bike_id":"2359b88e-3f7c-49ff-9f58-16fd2e3dcd68","system_id":"levelo_inurba_marseille","lat":43.29851,"lon":5.36284,"is_reserved":false,"is_disabled":false,"rental_uris":{"android":"levelo://app?vid=2359b88e-3f7c-49ff-9f58-16fd2e3dcd68","ios":"levelo://app?vid=2359b88e-3f7c-49ff-9f58-16fd2e3dcd68"},"vehicle_type_id":"4","last_reported":1727356695,"current_range_meters":7200,"station_id":"ce4bgpp2rcd13ifvqc3g","pricing_plan_id":"cebpf4jnsgd1na2vs0mg"},{"bike_id":"d7441ebd-0ed9-4ecc-92fa-f724cb6fd158","system_id":"levelo_inurba_marseille","lat":43.29526,"lon":5.39403,"is_reserved":false,"is_disabled":false,"rental_uris":{"android":"levelo://app?vid=d7441ebd-0ed9-4ecc-92fa-f724cb6fd158","ios":"levelo://app?vid=d7441ebd-0ed9-4ecc-92fa-f724cb6fd158"},"vehicle_type_id":"4","last_reported":1727356695,"current_range_meters":30800,"station_id":"ce4bh292rcd13ifvqdf0","pricing_plan_id":"cebpf4jnsgd1na2vs0mg"},{"bike_id":"62418745-16a6-47da-a04f-a524e328c3ce","system_id":"levelo_inurba_marseille","lat":43.2606,"lon":5.39399,"is_reserved":false,"is_disabled":false,"rental_uris":{"android":"levelo://app?vid=62418745-16a6-47da-a04f-a524e328c3ce","ios":"levelo://app?vid=62418745-16a6-47da-a04f-a524e328c3ce"},"vehicle_type_id":"4","last_reported":1727356695,"current_range_meters":5600,"station_id":"ce4bhh92rcd13ifvqfj0","pricing_plan_id":"cebpf4jnsgd1na2vs0mg"},{"bike_id":"fbec4509-ed70-417a-9740-54b584dfd1da","system_id":"levelo_inurba_marseille","lat":43.2465,"lon":5.38889,"is_reserved":false,"is_disabled":false,"rental_uris":{"android":"levelo://app?vid=fbec4509-ed70-417a-9740-54b584dfd1da","ios":"levelo://app?vid=fbec4509-ed70-417a-9740-54b584dfd1da"},"vehicle_type_id":"4","last_reported":1727356695,"current_range_meters":28800,"station_id":"ce4bhg12rcd13ifvqf60","pricing_plan_id":"cebpf4jnsgd1na2vs0mg"},{"bike_id":"c5294afe-99d4-483d-bcf2-94f93af0ac7b","system_id":"levelo_inurba_marseille","lat":43.29587,"lon":5.36745,"is_reserved":false,"is_disabled":false,"rental_uris":{"android":"levelo://app?vid=c5294afe-99d4-483d-bcf2-94f93af0ac7b","ios":"levelo://app?vid=c5294afe-99d4-483d-bcf2-94f93af0ac7b"},"vehicle_type_id":"4","last_reported":1727356695,"current_range_meters":30000,"station_id":"ce4bgph2rcd13ifvqc2g","pricing_plan_id":"cebpf4jnsgd1na2vs0mg"},{"bike_id":"df216baf-fd77-4863-8fe6-eb831ade953a","system_id":"levelo_inurba_marseille","lat":43.29416,"lon":5.38622,"is_reserved":false,"is_disabled":false,"rental_uris":{"android":"levelo://app?vid=df216baf-fd77-4863-8fe6-eb831ade953a","ios":"levelo://app?vid=df216baf-fd77-4863-8fe6-eb831ade953a"},"vehicle_type_id":"4","last_reported":1727356695,"current_range_meters":30000,"station_id":"ce4bh2h2rcd13ifvqdh0","pricing_plan_id":"cebpf4jnsgd1na2vs0mg"},{"bike_id":"37fa0c78-8e71-4f3c-8039-b5e8a92bbcce","system_id":"levelo_inurba_marseille","lat":43.24183,"lon":5.3971,"is_reserved":false,"is_disabled":false,"rental_uris":{"android":"levelo://app?vid=37fa0c78-8e71-4f3c-8039-b5e8a92bbcce","ios":"levelo://app?vid=37fa0c78-8e71-4f3c-8039-b5e8a92bbcce"},"vehicle_type_id":"4","last_reported":1727356695,"current_range_meters":24800,"station_id":"ce4bhn12rcd13ifvqgpg","pricing_plan_id":"cebpf4jnsgd1na2vs0mg"},{"bike_id":"91372296-66f0-4955-9ea7-af2aeb756cbd","system_id":"levelo_inurba_marseille","lat":43.29852,"lon":5.3627,"is_reserved":false,"is_disabled":false,"rental_uris":{"android":"levelo://app?vid=91372296-66f0-4955-9ea7-af2aeb756cbd","ios":"levelo://app?vid=91372296-66f0-4955-9ea7-af2aeb756cbd"},"vehicle_type_id":"4","last_reported":1727356695,"current_range_meters":38800,"station_id":"ce4bgpp2rcd13ifvqc3g","pricing_plan_id":"cebpf4jnsgd1na2vs0mg"},{"bike_id":"b5cdcddb-a8b5-45ca-ab1b-f1ccec65f8ae","system_id":"levelo_inurba_marseille","lat":43.2994,"lon":5.36541,"is_reserved":false,"is_disabled":false,"rental_uris":{"android":"levelo://app?vid=b5cdcddb-a8b5-45ca-ab1b-f1ccec65f8ae","ios":"levelo://app?vid=b5cdcddb-a8b5-45ca-ab1b-f1ccec65f8ae"},"vehicle_type_id":"4","last_reported":1727356695,"current_range_meters":27600,"station_id":"ce4bgm92rcd13ifvqbr0","pricing_plan_id":"cebpf4jnsgd1na2vs0mg"},{"bike_id":"261ab93d-d1ac-43db-95e2-129d087513e0","system_id":"levelo_inurba_marseille","lat":43.33749,"lon":5.37441,"is_reserved":false,"is_disabled":false,"rental_uris":{"android":"levelo://app?vid=261ab93d-d1ac-43db-95e2-129d087513e0","ios":"levelo://app?vid=261ab93d-d1ac-43db-95e2-129d087513e0"},"vehicle_type_id":"4","last_reported":1727356695,"current_range_meters":33200,"station_id":"","pricing_plan_id":"cebpf4jnsgd1na2vs0mg"},{"bike_id":"d8898c38-d84b-4a32-81d5-f35fe017d87f","system_id":"levelo_inurba_marseille","lat":43.31216,"lon":5.36843,"is_reserved":false,"is_disabled":false,"rental_uris":{"android":"levelo://app?vid=d8898c38-d84b-4a32-81d5-f35fe017d87f","ios":"levelo://app?vid=d8898c38-d84b-4a32-81d5-f35fe017d87f"},"vehicle_type_id":"4","last_reported":1727356695,"current_range_meters":38800,"station_id":"ce4bgl92rcd13ifvqbq0","pricing_plan_id":"cebpf4jnsgd1na2vs0mg"},{"bike_id":"12bb2fa0-def4-44f9-9009-061dd94ed221","system_id":"levelo_inurba_marseille","lat":43.2417,"lon":5.36388,"is_reserved":false,"is_disabled":false,"rental_uris":{"android":"levelo://app?vid=12bb2fa0-def4-44f9-9009-061dd94ed221","ios":"levelo://app?vid=12bb2fa0-def4-44f9-9009-061dd94ed221"},"vehicle_type_id":"4","last_reported":1727356695,"current_range_meters":8400,"station_id":"cpo36qri1sfpv3e86is0","pricing_plan_id":"cebpf4jnsgd1na2vs0mg"},{"bike_id":"f2385d2b-ef6a-4a18-a08b-9bc5e94d8cd6","system_id":"levelo_inurba_marseille","lat":43.24083,"lon":5.3774,"is_reserved":false,"is_disabled":false,"rental_uris":{"android":"levelo://app?vid=f2385d2b-ef6a-4a18-a08b-9bc5e94d8cd6","ios":"levelo://app?vid=f2385d2b-ef6a-4a18-a08b-9bc5e94d8cd6"},"vehicle_type_id":"4","last_reported":1727356695,"current_range_meters":24000,"station_id":"ce4bhnp2rcd13ifvqgvg","pricing_plan_id":"cebpf4jnsgd1na2vs0mg"},{"bike_id":"03ee95af-84cc-44ed-a76a-332d8cd751b2","system_id":"levelo_inurba_marseille","lat":43.23158,"lon":5.43705,"is_reserved":false,"is_disabled":false,"rental_uris":{"android":"levelo://app?vid=03ee95af-84cc-44ed-a76a-332d8cd751b2","ios":"levelo://app?vid=03ee95af-84cc-44ed-a76a-332d8cd751b2"},"vehicle_type_id":"4","last_reported":1727356695,"current_range_meters":3600,"station_id":"ce4bhmp2rcd13ifvqgog","pricing_plan_id":"cebpf4jnsgd1na2vs0mg"},{"bike_id":"08a5cd66-f021-4853-bec7-3221a1186d83","system_id":"levelo_inurba_marseille","lat":43.27498,"lon":5.42448,"is_reserved":false,"is_disabled":false,"rental_uris":{"android":"levelo://app?vid=08a5cd66-f021-4853-bec7-3221a1186d83","ios":"levelo://app?vid=08a5cd66-f021-4853-bec7-3221a1186d83"},"vehicle_type_id":"4","last_reported":1727356695,"current_range_meters":20800,"station_id":"ce4bhn92rcd13ifvqgrg","pricing_plan_id":"cebpf4jnsgd1na2vs0mg"},{"bike_id":"12330efc-5753-4899-b1e6-0b4e554f5479","system_id":"levelo_inurba_marseille","lat":43.288514,"lon":5.358435,"is_reserved":false,"is_disabled":false,"rental_uris":{"android":"levelo://app?vid=12330efc-5753-4899-b1e6-0b4e554f5479","ios":"levelo://app?vid=12330efc-5753-4899-b1e6-0b4e554f5479"},"vehicle_type_id":"4","last_reported":1727356695,"current_range_meters":26800,"station_id":"ce4bhb12rcd13ifvqem0","pricing_plan_id":"cebpf4jnsgd1na2vs0mg"},{"bike_id":"611bf39b-b744-4f95-a21c-07ec0b34aa4d","system_id":"levelo_inurba_marseille","lat":43.29865,"lon":5.39717,"is_reserved":false,"is_disabled":false,"rental_uris":{"android":"levelo://app?vid=611bf39b-b744-4f95-a21c-07ec0b34aa4d","ios":"levelo://app?vid=611bf39b-b744-4f95-a21c-07ec0b34aa4d"},"vehicle_type_id":"4","last_reported":1727356695,"current_range_meters":38800,"station_id":"ce4bh0h2rcd13ifvqd50","pricing_plan_id":"cebpf4jnsgd1na2vs0mg"},{"bike_id":"b0aa060b-aba1-47c3-af23-4e06ea4f4906","system_id":"levelo_inurba_marseille","lat":43.281189,"lon":5.426971,"is_reserved":false,"is_disabled":false,"rental_uris":{"android":"levelo://app?vid=b0aa060b-aba1-47c3-af23-4e06ea4f4906","ios":"levelo://app?vid=b0aa060b-aba1-47c3-af23-4e06ea4f4906"},"vehicle_type_id":"4","last_reported":1727356695,"current_range_meters":12800,"station_id":"ce4bhnh2rcd13ifvqgug","pricing_plan_id":"cebpf4jnsgd1na2vs0mg"},{"bike_id":"34097fc8-29e6-4b2e-b337-78c29a20b10e","system_id":"levelo_inurba_marseille","lat":43.29632,"lon":5.40591,"is_reserved":false,"is_disabled":false,"rental_uris":{"android":"levelo://app?vid=34097fc8-29e6-4b2e-b337-78c29a20b10e","ios":"levelo://app?vid=34097fc8-29e6-4b2e-b337-78c29a20b10e"},"vehicle_type_id":"4","last_reported":1727356695,"current_range_meters":16400,"station_id":"ce4bh0h2rcd13ifvqd60","pricing_plan_id":"cebpf4jnsgd1na2vs0mg"},{"bike_id":"07f73b48-cbe6-484d-bc1b-27d0587fbb71","system_id":"levelo_inurba_marseille","lat":43.25498,"lon":5.37646,"is_reserved":false,"is_disabled":false,"rental_uris":{"android":"levelo://app?vid=07f73b48-cbe6-484d-bc1b-27d0587fbb71","ios":"levelo://app?vid=07f73b48-cbe6-484d-bc1b-27d0587fbb71"},"vehicle_type_id":"4","last_reported":1727356695,"current_range_meters":3600,"station_id":"ce4bhh12rcd13ifvqff0","pricing_plan_id":"cebpf4jnsgd1na2vs0mg"},{"bike_id":"637beff3-55bd-4f15-99c0-4cb53d5dddb9","system_id":"levelo_inurba_marseille","lat":43.30657,"lon":5.39532,"is_reserved":false,"is_disabled":false,"rental_uris":{"android":"levelo://app?vid=637beff3-55bd-4f15-99c0-4cb53d5dddb9","ios":"levelo://app?vid=637beff3-55bd-4f15-99c0-4cb53d5dddb9"},"vehicle_type_id":"4","last_reported":1727356695,"current_range_meters":36800,"station_id":"","pricing_plan_id":"cebpf4jnsgd1na2vs0mg"},{"bike_id":"b3ca7e08-0e60-41d3-a56d-0937cdac0568","system_id":"levelo_inurba_marseille","lat":43.29582,"lon":5.3674,"is_reserved":false,"is_disabled":false,"rental_uris":{"android":"levelo://app?vid=b3ca7e08-0e60-41d3-a56d-0937cdac0568","ios":"levelo://app?vid=b3ca7e08-0e60-41d3-a56d-0937cdac0568"},"vehicle_type_id":"4","last_reported":1727356695,"current_range_meters":30800,"station_id":"ce4bgph2rcd13ifvqc2g","pricing_plan_id":"cebpf4jnsgd1na2vs0mg"},{"bike_id":"1e2901f5-39ef-4aa7-97a9-b81361ead60b","system_id":"levelo_inurba_marseille","lat":43.28281,"lon":5.35068,"is_reserved":false,"is_disabled":false,"rental_uris":{"android":"levelo://app?vid=1e2901f5-39ef-4aa7-97a9-b81361ead60b","ios":"levelo://app?vid=1e2901f5-39ef-4aa7-97a9-b81361ead60b"},"vehicle_type_id":"4","last_reported":1727356695,"current_range_meters":38800,"station_id":"ce4bhbp2rcd13ifvqerg","pricing_plan_id":"cebpf4jnsgd1na2vs0mg"},{"bike_id":"4312a66e-ddc9-4f71-95e6-672f46e819fd","system_id":"levelo_inurba_marseille","lat":43.26565,"lon":5.37284,"is_reserved":false,"is_disabled":false,"rental_uris":{"android":"levelo://app?vid=4312a66e-ddc9-4f71-95e6-672f46e819fd","ios":"levelo://app?vid=4312a66e-ddc9-4f71-95e6-672f46e819fd"},"vehicle_type_id":"4","last_reported":1727356695,"current_range_meters":32400,"station_id":"ce4bhg12rcd13ifvqf70","pricing_plan_id":"cebpf4jnsgd1na2vs0mg"},{"bike_id":"8b7c5d69-3d9c-49a8-9703-129810f5e463","system_id":"levelo_inurba_marseille","lat":43.28153,"lon":5.4264,"is_reserved":false,"is_disabled":false,"rental_uris":{"android":"levelo://app?vid=8b7c5d69-3d9c-49a8-9703-129810f5e463","ios":"levelo://app?vid=8b7c5d69-3d9c-49a8-9703-129810f5e463"},"vehicle_type_id":"4","last_reported":1727356695,"current_range_meters":10800,"station_id":"ce4bhnh2rcd13ifvqgug","pricing_plan_id":"cebpf4jnsgd1na2vs0mg"},{"bike_id":"5ed77905-b607-4db7-a6e1-0969553e98ea","system_id":"levelo_inurba_marseille","lat":43.25872,"lon":5.39896,"is_reserved":false,"is_disabled":false,"rental_uris":{"android":"levelo://app?vid=5ed77905-b607-4db7-a6e1-0969553e98ea","ios":"levelo://app?vid=5ed77905-b607-4db7-a6e1-0969553e98ea"},"vehicle_type_id":"4","last_reported":1727356695,"current_range_meters":6000,"station_id":"ce4bhl92rcd13ifvqghg","pricing_plan_id":"cebpf4jnsgd1na2vs0mg"},{"bike_id":"ef59de8e-4af0-4a1b-b2d0-b030477790d5","system_id":"levelo_inurba_marseille","lat":43.28146,"lon":5.42634,"is_reserved":false,"is_disabled":false,"rental_uris":{"android":"levelo://app?vid=ef59de8e-4af0-4a1b-b2d0-b030477790d5","ios":"levelo://app?vid=ef59de8e-4af0-4a1b-b2d0-b030477790d5"},"vehicle_type_id":"4","last_reported":1727356695,"current_range_meters":10000,"station_id":"ce4bhnh2rcd13ifvqgug","pricing_plan_id":"cebpf4jnsgd1na2vs0mg"},{"bike_id":"36c8e788-c711-4ae7-9ff8-f7f816e7f2fb","system_id":"levelo_inurba_marseille","lat":43.24073,"lon":5.37761,"is_reserved":false,"is_disabled":false,"rental_uris":{"android":"levelo://app?vid=36c8e788-c711-4ae7-9ff8-f7f816e7f2fb","ios":"levelo://app?vid=36c8e788-c711-4ae7-9ff8-f7f816e7f2fb"},"vehicle_type_id":"4","last_reported":1727356695,"current_range_meters":19200,"station_id":"ce4bhnp2rcd13ifvqgvg","pricing_plan_id":"cebpf4jnsgd1na2vs0mg"},{"bike_id":"b1fc92c2-de66-4676-a642-5ed12c29d12a","system_id":"levelo_inurba_marseille","lat":43.31758,"lon":5.39018,"is_reserved":false,"is_disabled":false,"rental_uris":{"android":"levelo://app?vid=b1fc92c2-de66-4676-a642-5ed12c29d12a","ios":"levelo://app?vid=b1fc92c2-de66-4676-a642-5ed12c29d12a"},"vehicle_type_id":"4","last_reported":1727356695,"current_range_meters":38000,"station_id":"ce4bhqp2rcd13ifvqhng","pricing_plan_id":"cebpf4jnsgd1na2vs0mg"},{"bike_id":"72d43a48-00f6-4e58-a6c6-ffa4febbeb92","system_id":"levelo_inurba_marseille","lat":43.30431,"lon":5.39753,"is_reserved":false,"is_disabled":false,"rental_uris":{"android":"levelo://app?vid=72d43a48-00f6-4e58-a6c6-ffa4febbeb92","ios":"levelo://app?vid=72d43a48-00f6-4e58-a6c6-ffa4febbeb92"},"vehicle_type_id":"4","last_reported":1727356695,"current_range_meters":12000,"station_id":"ce4bh092rcd13ifvqd20","pricing_plan_id":"cebpf4jnsgd1na2vs0mg"},{"bike_id":"0a5ef607-1314-4ea7-a547-44134686620f","system_id":"levelo_inurba_marseille","lat":43.27502,"lon":5.42453,"is_reserved":false,"is_disabled":false,"rental_uris":{"android":"levelo://app?vid=0a5ef607-1314-4ea7-a547-44134686620f","ios":"levelo://app?vid=0a5ef607-1314-4ea7-a547-44134686620f"},"vehicle_type_id":"4","last_reported":1727356695,"current_range_meters":36800,"station_id":"ce4bhn92rcd13ifvqgrg","pricing_plan_id":"cebpf4jnsgd1na2vs0mg"},{"bike_id":"d182c375-d8fd-44dd-8206-11f0e97fa13d","system_id":"levelo_inurba_marseille","lat":43.24073,"lon":5.37756,"is_reserved":false,"is_disabled":false,"rental_uris":{"android":"levelo://app?vid=d182c375-d8fd-44dd-8206-11f0e97fa13d","ios":"levelo://app?vid=d182c375-d8fd-44dd-8206-11f0e97fa13d"},"vehicle_type_id":"4","last_reported":1727356695,"current_range_meters":3200,"station_id":"ce4bhnp2rcd13ifvqgvg","pricing_plan_id":"cebpf4jnsgd1na2vs0mg"},{"bike_id":"731f641e-fc35-4148-8fae-de73afda5dbb","system_id":"levelo_inurba_marseille","lat":43.30531,"lon":5.36719,"is_reserved":false,"is_disabled":false,"rental_uris":{"android":"levelo://app?vid=731f641e-fc35-4148-8fae-de73afda5dbb","ios":"levelo://app?vid=731f641e-fc35-4148-8fae-de73afda5dbb"},"vehicle_type_id":"4","last_reported":1727356695,"current_range_meters":15200,"station_id":"ce4bgrp2rcd13ifvqc9g","pricing_plan_id":"cebpf4jnsgd1na2vs0mg"},{"bike_id":"86cc00fb-3115-49c4-8209-a596309893f4","system_id":"levelo_inurba_marseille","lat":43.28152,"lon":5.42643,"is_reserved":false,"is_disabled":false,"rental_uris":{"android":"levelo://app?vid=86cc00fb-3115-49c4-8209-a596309893f4","ios":"levelo://app?vid=86cc00fb-3115-49c4-8209-a596309893f4"},"vehicle_type_id":"4","last_reported":1727356695,"current_range_meters":37600,"station_id":"ce4bhnh2rcd13ifvqgug","pricing_plan_id":"cebpf4jnsgd1na2vs0mg"},{"bike_id":"cdd4a971-88d1-4937-adf9-51649b8b80ee","system_id":"levelo_inurba_marseille","lat":43.309138,"lon":5.368505,"is_reserved":false,"is_disabled":false,"rental_uris":{"android":"levelo://app?vid=cdd4a971-88d1-4937-adf9-51649b8b80ee","ios":"levelo://app?vid=cdd4a971-88d1-4937-adf9-51649b8b80ee"},"vehicle_type_id":"4","last_reported":1727356695,"current_range_meters":38800,"station_id":"ce4bgn92rcd13ifvqbvg","pricing_plan_id":"cebpf4jnsgd1na2vs0mg"},{"bike_id":"a2c30071-cf26-4a67-a5bd-fe6db5795b59","system_id":"levelo_inurba_marseille","lat":43.24179,"lon":5.39733,"is_reserved":false,"is_disabled":false,"rental_uris":{"android":"levelo://app?vid=a2c30071-cf26-4a67-a5bd-fe6db5795b59","ios":"levelo://app?vid=a2c30071-cf26-4a67-a5bd-fe6db5795b59"},"vehicle_type_id":"4","last_reported":1727356695,"current_range_meters":36800,"station_id":"ce4bhn12rcd13ifvqgpg","pricing_plan_id":"cebpf4jnsgd1na2vs0mg"},{"bike_id":"2ed98b51-95b7-4b57-a44b-84e22c01b097","system_id":"levelo_inurba_marseille","lat":43.25938,"lon":5.409,"is_reserved":false,"is_disabled":false,"rental_uris":{"android":"levelo://app?vid=2ed98b51-95b7-4b57-a44b-84e22c01b097","ios":"levelo://app?vid=2ed98b51-95b7-4b57-a44b-84e22c01b097"},"vehicle_type_id":"4","last_reported":1727356695,"current_range_meters":25200,"station_id":"ce4bhm92rcd13ifvqglg","pricing_plan_id":"cebpf4jnsgd1na2vs0mg"},{"bike_id":"7a04041e-e818-448a-a762-519884819bb5","system_id":"levelo_inurba_marseille","lat":43.29517,"lon":5.39411,"is_reserved":false,"is_disabled":false,"rental_uris":{"android":"levelo://app?vid=7a04041e-e818-448a-a762-519884819bb5","ios":"levelo://app?vid=7a04041e-e818-448a-a762-519884819bb5"},"vehicle_type_id":"4","last_reported":1727356695,"current_range_meters":12000,"station_id":"ce4bh292rcd13ifvqdf0","pricing_plan_id":"cebpf4jnsgd1na2vs0mg"},{"bike_id":"aa854054-8172-4ebb-a052-d32db433e771","system_id":"levelo_inurba_marseille","lat":43.23162,"lon":5.43709,"is_reserved":false,"is_disabled":false,"rental_uris":{"android":"levelo://app?vid=aa854054-8172-4ebb-a052-d32db433e771","ios":"levelo://app?vid=aa854054-8172-4ebb-a052-d32db433e771"},"vehicle_type_id":"4","last_reported":1727356695,"current_range_meters":12000,"station_id":"ce4bhmp2rcd13ifvqgog","pricing_plan_id":"cebpf4jnsgd1na2vs0mg"},{"bike_id":"c859838e-9668-46a6-9add-c65973b9865a","system_id":"levelo_inurba_marseille","lat":43.27075,"lon":5.42281,"is_reserved":false,"is_disabled":false,"rental_uris":{"android":"levelo://app?vid=c859838e-9668-46a6-9add-c65973b9865a","ios":"levelo://app?vid=c859838e-9668-46a6-9add-c65973b9865a"},"vehicle_type_id":"4","last_reported":1727356695,"current_range_meters":28400,"station_id":"ce4bhk92rcd13ifvqgb0","pricing_plan_id":"cebpf4jnsgd1na2vs0mg"},{"bike_id":"cee79834-b4c8-447d-a659-47e09a53a30d","system_id":"levelo_inurba_marseille","lat":43.30915,"lon":5.36845,"is_reserved":false,"is_disabled":false,"rental_uris":{"android":"levelo://app?vid=cee79834-b4c8-447d-a659-47e09a53a30d","ios":"levelo://app?vid=cee79834-b4c8-447d-a659-47e09a53a30d"},"vehicle_type_id":"4","last_reported":1727356695,"current_range_meters":30800,"station_id":"ce4bgn92rcd13ifvqbvg","pricing_plan_id":"cebpf4jnsgd1na2vs0mg"},{"bike_id":"4acbc726-4e5c-4dd9-a7a4-e8c6acbe902e","system_id":"levelo_inurba_marseille","lat":43.3064,"lon":5.40093,"is_reserved":false,"is_disabled":false,"rental_uris":{"android":"levelo://app?vid=4acbc726-4e5c-4dd9-a7a4-e8c6acbe902e","ios":"levelo://app?vid=4acbc726-4e5c-4dd9-a7a4-e8c6acbe902e"},"vehicle_type_id":"4","last_reported":1727356695,"current_range_meters":22800,"station_id":"ce4bh112rcd13ifvqda0","pricing_plan_id":"cebpf4jnsgd1na2vs0mg"},{"bike_id":"e9a8dbaf-57f8-49f9-b8b9-f8977d9d8a8f","system_id":"levelo_inurba_marseille","lat":43.32488,"lon":5.36561,"is_reserved":false,"is_disabled":false,"rental_uris":{"android":"levelo://app?vid=e9a8dbaf-57f8-49f9-b8b9-f8977d9d8a8f","ios":"levelo://app?vid=e9a8dbaf-57f8-49f9-b8b9-f8977d9d8a8f"},"vehicle_type_id":"4","last_reported":1727356695,"current_range_meters":9200,"station_id":"ce4bhs12rcd13ifvqhvg","pricing_plan_id":"cebpf4jnsgd1na2vs0mg"},{"bike_id":"44850a3b-a2ec-4910-8b28-8408b114bf2a","system_id":"levelo_inurba_marseille","lat":43.29908,"lon":5.38144,"is_reserved":false,"is_disabled":false,"rental_uris":{"android":"levelo://app?vid=44850a3b-a2ec-4910-8b28-8408b114bf2a","ios":"levelo://app?vid=44850a3b-a2ec-4910-8b28-8408b114bf2a"},"vehicle_type_id":"4","last_reported":1727356695,"current_range_meters":38800,"station_id":"ce4bgj12rcd13ifvqbc0","pricing_plan_id":"cebpf4jnsgd1na2vs0mg"},{"bike_id":"e8948b16-e356-460e-92b7-370a32f354b1","system_id":"levelo_inurba_marseille","lat":43.23153,"lon":5.43716,"is_reserved":false,"is_disabled":false,"rental_uris":{"android":"levelo://app?vid=e8948b16-e356-460e-92b7-370a32f354b1","ios":"levelo://app?vid=e8948b16-e356-460e-92b7-370a32f354b1"},"vehicle_type_id":"4","last_reported":1727356695,"current_range_meters":14000,"station_id":"ce4bhmp2rcd13ifvqgog","pricing_plan_id":"cebpf4jnsgd1na2vs0mg"},{"bike_id":"22e78102-e61a-40ce-aa23-528aa9929fe6","system_id":"levelo_inurba_marseille","lat":43.27072,"lon":5.42276,"is_reserved":false,"is_disabled":false,"rental_uris":{"android":"levelo://app?vid=22e78102-e61a-40ce-aa23-528aa9929fe6","ios":"levelo://app?vid=22e78102-e61a-40ce-aa23-528aa9929fe6"},"vehicle_type_id":"4","last_reported":1727356695,"current_range_meters":7200,"station_id":"ce4bhk92rcd13ifvqgb0","pricing_plan_id":"cebpf4jnsgd1na2vs0mg"},{"bike_id":"a0610759-c3de-4b79-b26f-e918039f4f8f","system_id":"levelo_inurba_marseille","lat":43.28275,"lon":5.35073,"is_reserved":false,"is_disabled":false,"rental_uris":{"android":"levelo://app?vid=a0610759-c3de-4b79-b26f-e918039f4f8f","ios":"levelo://app?vid=a0610759-c3de-4b79-b26f-e918039f4f8f"},"vehicle_type_id":"4","last_reported":1727356695,"current_range_meters":38800,"station_id":"ce4bhbp2rcd13ifvqerg","pricing_plan_id":"cebpf4jnsgd1na2vs0mg"},{"bike_id":"5324a727-d5bb-4d65-9620-50e6f4246357","system_id":"levelo_inurba_marseille","lat":43.28281,"lon":5.3507,"is_reserved":false,"is_disabled":false,"rental_uris":{"android":"levelo://app?vid=5324a727-d5bb-4d65-9620-50e6f4246357","ios":"levelo://app?vid=5324a727-d5bb-4d65-9620-50e6f4246357"},"vehicle_type_id":"4","last_reported":1727356695,"current_range_meters":38800,"station_id":"ce4bhbp2rcd13ifvqerg","pricing_plan_id":"cebpf4jnsgd1na2vs0mg"},{"bike_id":"4f3b6684-4ee6-41dc-95ac-4f207c9d2c18","system_id":"levelo_inurba_marseille","lat":43.32477,"lon":5.36568,"is_reserved":false,"is_disabled":false,"rental_uris":{"android":"levelo://app?vid=4f3b6684-4ee6-41dc-95ac-4f207c9d2c18","ios":"levelo://app?vid=4f3b6684-4ee6-41dc-95ac-4f207c9d2c18"},"vehicle_type_id":"4","last_reported":1727356695,"current_range_meters":16400,"station_id":"ce4bhs12rcd13ifvqhvg","pricing_plan_id":"cebpf4jnsgd1na2vs0mg"},{"bike_id":"222d8a53-24d2-4a06-b2eb-64f392da8948","system_id":"levelo_inurba_marseille","lat":43.29279,"lon":5.40114,"is_reserved":false,"is_disabled":false,"rental_uris":{"android":"levelo://app?vid=222d8a53-24d2-4a06-b2eb-64f392da8948","ios":"levelo://app?vid=222d8a53-24d2-4a06-b2eb-64f392da8948"},"vehicle_type_id":"4","last_reported":1727356695,"current_range_meters":2800,"station_id":"ce4bh312rcd13ifvqdk0","pricing_plan_id":"cebpf4jnsgd1na2vs0mg"},{"bike_id":"730a8251-d94a-4277-99a9-1c8f6d01216c","system_id":"levelo_inurba_marseille","lat":43.25937,"lon":5.40903,"is_reserved":false,"is_disabled":false,"rental_uris":{"android":"levelo://app?vid=730a8251-d94a-4277-99a9-1c8f6d01216c","ios":"levelo://app?vid=730a8251-d94a-4277-99a9-1c8f6d01216c"},"vehicle_type_id":"4","last_reported":1727356695,"current_range_meters":17200,"station_id":"ce4bhm92rcd13ifvqglg","pricing_plan_id":"cebpf4jnsgd1na2vs0mg"},{"bike_id":"054c38a3-0ad6-4ca0-91e2-f35597dbf2fe","system_id":"levelo_inurba_marseille","lat":43.26497,"lon":5.39539,"is_reserved":false,"is_disabled":false,"rental_uris":{"android":"levelo://app?vid=054c38a3-0ad6-4ca0-91e2-f35597dbf2fe","ios":"levelo://app?vid=054c38a3-0ad6-4ca0-91e2-f35597dbf2fe"},"vehicle_type_id":"4","last_reported":1727356695,"current_range_meters":26000,"station_id":"ce4bhi12rcd13ifvqfq0","pricing_plan_id":"cebpf4jnsgd1na2vs0mg"},{"bike_id":"5f6c79fc-4a32-4034-b731-a210b1c8c48d","system_id":"levelo_inurba_marseille","lat":43.30523,"lon":5.36708,"is_reserved":false,"is_disabled":false,"rental_uris":{"android":"levelo://app?vid=5f6c79fc-4a32-4034-b731-a210b1c8c48d","ios":"levelo://app?vid=5f6c79fc-4a32-4034-b731-a210b1c8c48d"},"vehicle_type_id":"4","last_reported":1727356695,"current_range_meters":8800,"station_id":"ce4bgrp2rcd13ifvqc9g","pricing_plan_id":"cebpf4jnsgd1na2vs0mg"},{"bike_id":"46de4706-00c4-439a-9fc7-9f1f176151d1","system_id":"levelo_inurba_marseille","lat":43.34153,"lon":5.40902,"is_reserved":false,"is_disabled":false,"rental_uris":{"android":"levelo://app?vid=46de4706-00c4-439a-9fc7-9f1f176151d1","ios":"levelo://app?vid=46de4706-00c4-439a-9fc7-9f1f176151d1"},"vehicle_type_id":"4","last_reported":1727356695,"current_range_meters":29600,"station_id":"ce4bhqh2rcd13ifvqhlg","pricing_plan_id":"cebpf4jnsgd1na2vs0mg"},{"bike_id":"1de41ee2-b859-4346-824d-ed394262bb03","system_id":"levelo_inurba_marseille","lat":43.33761,"lon":5.37449,"is_reserved":false,"is_disabled":false,"rental_uris":{"android":"levelo://app?vid=1de41ee2-b859-4346-824d-ed394262bb03","ios":"levelo://app?vid=1de41ee2-b859-4346-824d-ed394262bb03"},"vehicle_type_id":"4","last_reported":1727356695,"current_range_meters":11600,"station_id":"","pricing_plan_id":"cebpf4jnsgd1na2vs0mg"},{"bike_id":"751bff45-76c1-4c5f-b949-27cb0e9aacd7","system_id":"levelo_inurba_marseille","lat":43.33747,"lon":5.37438,"is_reserved":false,"is_disabled":false,"rental_uris":{"android":"levelo://app?vid=751bff45-76c1-4c5f-b949-27cb0e9aacd7","ios":"levelo://app?vid=751bff45-76c1-4c5f-b949-27cb0e9aacd7"},"vehicle_type_id":"4","last_reported":1727356695,"current_range_meters":36800,"station_id":"","pricing_plan_id":"cebpf4jnsgd1na2vs0mg"},{"bike_id":"be6597c7-36df-467d-8d7f-8202a760e6f4","system_id":"levelo_inurba_marseille","lat":43.31338,"lon":5.36721,"is_reserved":false,"is_disabled":false,"rental_uris":{"android":"levelo://app?vid=be6597c7-36df-467d-8d7f-8202a760e6f4","ios":"levelo://app?vid=be6597c7-36df-467d-8d7f-8202a760e6f4"},"vehicle_type_id":"4","last_reported":1727356695,"current_range_meters":10800,"station_id":"ce4bgr92rcd13ifvqc6g","pricing_plan_id":"cebpf4jnsgd1na2vs0mg"},{"bike_id":"e33155c3-5b24-4966-85f2-9d7ed55aac1b","system_id":"levelo_inurba_marseille","lat":43.29843,"lon":5.36264,"is_reserved":false,"is_disabled":false,"rental_uris":{"android":"levelo://app?vid=e33155c3-5b24-4966-85f2-9d7ed55aac1b","ios":"levelo://app?vid=e33155c3-5b24-4966-85f2-9d7ed55aac1b"},"vehicle_type_id":"4","last_reported":1727356695,"current_range_meters":22400,"station_id":"ce4bgpp2rcd13ifvqc3g","pricing_plan_id":"cebpf4jnsgd1na2vs0mg"},{"bike_id":"0cb8a0f6-b28c-4866-8171-5bc9be488232","system_id":"levelo_inurba_marseille","lat":43.25129,"lon":5.40334,"is_reserved":false,"is_disabled":false,"rental_uris":{"android":"levelo://app?vid=0cb8a0f6-b28c-4866-8171-5bc9be488232","ios":"levelo://app?vid=0cb8a0f6-b28c-4866-8171-5bc9be488232"},"vehicle_type_id":"4","last_reported":1727356695,"current_range_meters":9600,"station_id":"ce4bhlh2rcd13ifvqgig","pricing_plan_id":"cebpf4jnsgd1na2vs0mg"},{"bike_id":"b89f3c75-62ef-439a-891a-3e5717a4b61a","system_id":"levelo_inurba_marseille","lat":43.27939,"lon":5.37943,"is_reserved":false,"is_disabled":false,"rental_uris":{"android":"levelo://app?vid=b89f3c75-62ef-439a-891a-3e5717a4b61a","ios":"levelo://app?vid=b89f3c75-62ef-439a-891a-3e5717a4b61a"},"vehicle_type_id":"4","last_reported":1727356695,"current_range_meters":23200,"station_id":"","pricing_plan_id":"cebpf4jnsgd1na2vs0mg"},{"bike_id":"32c1f03e-3039-46f0-b4a8-c139c039b5c5","system_id":"levelo_inurba_marseille","lat":43.27832,"lon":5.39209,"is_reserved":false,"is_disabled":false,"rental_uris":{"android":"levelo://app?vid=32c1f03e-3039-46f0-b4a8-c139c039b5c5","ios":"levelo://app?vid=32c1f03e-3039-46f0-b4a8-c139c039b5c5"},"vehicle_type_id":"4","last_reported":1727356695,"current_range_meters":27200,"station_id":"ce4bhjp2rcd13ifvqga0","pricing_plan_id":"cebpf4jnsgd1na2vs0mg"},{"bike_id":"e6fabcfe-0eeb-48d1-b6d7-42aa0ee06aea","system_id":"levelo_inurba_marseille","lat":43.27619,"lon":5.36115,"is_reserved":false,"is_disabled":false,"rental_uris":{"android":"levelo://app?vid=e6fabcfe-0eeb-48d1-b6d7-42aa0ee06aea","ios":"levelo://app?vid=e6fabcfe-0eeb-48d1-b6d7-42aa0ee06aea"},"vehicle_type_id":"4","last_reported":1727356695,"current_range_meters":38800,"station_id":"ce4bgj92rcd13ifvqbe0","pricing_plan_id":"cebpf4jnsgd1na2vs0mg"},{"bike_id":"a5529e17-4f96-4640-b47e-82a84310e672","system_id":"levelo_inurba_marseille","lat":43.31327,"lon":5.36725,"is_reserved":false,"is_disabled":false,"rental_uris":{"android":"levelo://app?vid=a5529e17-4f96-4640-b47e-82a84310e672","ios":"levelo://app?vid=a5529e17-4f96-4640-b47e-82a84310e672"},"vehicle_type_id":"4","last_reported":1727356695,"current_range_meters":17200,"station_id":"ce4bgr92rcd13ifvqc6g","pricing_plan_id":"cebpf4jnsgd1na2vs0mg"},{"bike_id":"230bbcf1-4d98-48bd-9c96-b456d7de3aae","system_id":"levelo_inurba_marseille","lat":43.29802,"lon":5.3934,"is_reserved":false,"is_disabled":false,"rental_uris":{"android":"levelo://app?vid=230bbcf1-4d98-48bd-9c96-b456d7de3aae","ios":"levelo://app?vid=230bbcf1-4d98-48bd-9c96-b456d7de3aae"},"vehicle_type_id":"4","last_reported":1727356695,"current_range_meters":28000,"station_id":"chh1huq6cuj3fo74tm60","pricing_plan_id":"cebpf4jnsgd1na2vs0mg"},{"bike_id":"15091c48-fa1f-42b0-a263-2568d4978cd4","system_id":"levelo_inurba_marseille","lat":43.24081,"lon":5.37752,"is_reserved":false,"is_disabled":false,"rental_uris":{"android":"levelo://app?vid=15091c48-fa1f-42b0-a263-2568d4978cd4","ios":"levelo://app?vid=15091c48-fa1f-42b0-a263-2568d4978cd4"},"vehicle_type_id":"4","last_reported":1727356695,"current_range_meters":13600,"station_id":"ce4bhnp2rcd13ifvqgvg","pricing_plan_id":"cebpf4jnsgd1na2vs0mg"},{"bike_id":"9238ad14-e0d5-4c32-9a08-f97260c3768d","system_id":"levelo_inurba_marseille","lat":43.32488,"lon":5.36573,"is_reserved":false,"is_disabled":false,"rental_uris":{"android":"levelo://app?vid=9238ad14-e0d5-4c32-9a08-f97260c3768d","ios":"levelo://app?vid=9238ad14-e0d5-4c32-9a08-f97260c3768d"},"vehicle_type_id":"4","last_reported":1727356695,"current_range_meters":28400,"station_id":"ce4bhs12rcd13ifvqhvg","pricing_plan_id":"cebpf4jnsgd1na2vs0mg"},{"bike_id":"c2e5a81e-6912-4cb0-98ad-5f3df477fa43","system_id":"levelo_inurba_marseille","lat":43.28989,"lon":5.37588,"is_reserved":false,"is_disabled":false,"rental_uris":{"android":"levelo://app?vid=c2e5a81e-6912-4cb0-98ad-5f3df477fa43","ios":"levelo://app?vid=c2e5a81e-6912-4cb0-98ad-5f3df477fa43"},"vehicle_type_id":"4","last_reported":1727356695,"current_range_meters":37600,"station_id":"ce4bh692rcd13ifvqe90","pricing_plan_id":"cebpf4jnsgd1na2vs0mg"},{"bike_id":"1957f116-4e4b-4c9b-9bec-85d9afac2bf6","system_id":"levelo_inurba_marseille","lat":43.24803,"lon":5.37452,"is_reserved":false,"is_disabled":false,"rental_uris":{"android":"levelo://app?vid=1957f116-4e4b-4c9b-9bec-85d9afac2bf6","ios":"levelo://app?vid=1957f116-4e4b-4c9b-9bec-85d9afac2bf6"},"vehicle_type_id":"4","last_reported":1727356695,"current_range_meters":30800,"station_id":"ce4bhgh2rcd13ifvqfb0","pricing_plan_id":"cebpf4jnsgd1na2vs0mg"},{"bike_id":"5c704c0e-ffbe-4a14-a2d8-40e85735bb73","system_id":"levelo_inurba_marseille","lat":43.29003,"lon":5.35609,"is_reserved":false,"is_disabled":false,"rental_uris":{"android":"levelo://app?vid=5c704c0e-ffbe-4a14-a2d8-40e85735bb73","ios":"levelo://app?vid=5c704c0e-ffbe-4a14-a2d8-40e85735bb73"},"vehicle_type_id":"4","last_reported":1727356695,"current_range_meters":28800,"station_id":"ce4bhb92rcd13ifvqen0","pricing_plan_id":"cebpf4jnsgd1na2vs0mg"},{"bike_id":"e4d55da8-9a0e-4c4d-8c5f-3b668bd4aeae","system_id":"levelo_inurba_marseille","lat":43.23155,"lon":5.43699,"is_reserved":false,"is_disabled":false,"rental_uris":{"android":"levelo://app?vid=e4d55da8-9a0e-4c4d-8c5f-3b668bd4aeae","ios":"levelo://app?vid=e4d55da8-9a0e-4c4d-8c5f-3b668bd4aeae"},"vehicle_type_id":"4","last_reported":1727356695,"current_range_meters":14400,"station_id":"ce4bhmp2rcd13ifvqgog","pricing_plan_id":"cebpf4jnsgd1na2vs0mg"},{"bike_id":"8460a7e8-1a9d-4ecf-8e31-4e5a3fd8d5e0","system_id":"levelo_inurba_marseille","lat":43.299334,"lon":5.365432,"is_reserved":false,"is_disabled":false,"rental_uris":{"android":"levelo://app?vid=8460a7e8-1a9d-4ecf-8e31-4e5a3fd8d5e0","ios":"levelo://app?vid=8460a7e8-1a9d-4ecf-8e31-4e5a3fd8d5e0"},"vehicle_type_id":"4","last_reported":1727356695,"current_range_meters":16400,"station_id":"ce4bgm92rcd13ifvqbr0","pricing_plan_id":"cebpf4jnsgd1na2vs0mg"},{"bike_id":"f41f63ca-4400-483a-b198-c78d5282c487","system_id":"levelo_inurba_marseille","lat":43.29266,"lon":5.36839,"is_reserved":false,"is_disabled":false,"rental_uris":{"android":"levelo://app?vid=f41f63ca-4400-483a-b198-c78d5282c487","ios":"levelo://app?vid=f41f63ca-4400-483a-b198-c78d5282c487"},"vehicle_type_id":"4","last_reported":1727356695,"current_range_meters":25200,"station_id":"ce4bhbp2rcd13ifvqesg","pricing_plan_id":"cebpf4jnsgd1na2vs0mg"},{"bike_id":"b6eac0f2-1d3d-4855-afe1-ce43ba22a286","system_id":"levelo_inurba_marseille","lat":43.337444,"lon":5.374475,"is_reserved":false,"is_disabled":false,"rental_uris":{"android":"levelo://app?vid=b6eac0f2-1d3d-4855-afe1-ce43ba22a286","ios":"levelo://app?vid=b6eac0f2-1d3d-4855-afe1-ce43ba22a286"},"vehicle_type_id":"4","last_reported":1727356695,"current_range_meters":25200,"station_id":"","pricing_plan_id":"cebpf4jnsgd1na2vs0mg"},{"bike_id":"21abcb73-6538-4b86-8d9a-cda4c04f0de5","system_id":"levelo_inurba_marseille","lat":43.30314,"lon":5.36893,"is_reserved":false,"is_disabled":false,"rental_uris":{"android":"levelo://app?vid=21abcb73-6538-4b86-8d9a-cda4c04f0de5","ios":"levelo://app?vid=21abcb73-6538-4b86-8d9a-cda4c04f0de5"},"vehicle_type_id":"4","last_reported":1727356695,"current_range_meters":4800,"station_id":"ce4bgqh2rcd13ifvqc5g","pricing_plan_id":"cebpf4jnsgd1na2vs0mg"},{"bike_id":"64577474-503b-47b8-ba02-db6057494fc8","system_id":"levelo_inurba_marseille","lat":43.25941,"lon":5.40906,"is_reserved":false,"is_disabled":false,"rental_uris":{"android":"levelo://app?vid=64577474-503b-47b8-ba02-db6057494fc8","ios":"levelo://app?vid=64577474-503b-47b8-ba02-db6057494fc8"},"vehicle_type_id":"4","last_reported":1727356695,"current_range_meters":34000,"station_id":"ce4bhm92rcd13ifvqglg","pricing_plan_id":"cebpf4jnsgd1na2vs0mg"},{"bike_id":"88d757fa-11d9-492f-9e99-56a982b9b550","system_id":"levelo_inurba_marseille","lat":43.25583,"lon":5.38236,"is_reserved":false,"is_disabled":false,"rental_uris":{"android":"levelo://app?vid=88d757fa-11d9-492f-9e99-56a982b9b550","ios":"levelo://app?vid=88d757fa-11d9-492f-9e99-56a982b9b550"},"vehicle_type_id":"4","last_reported":1727356695,"current_range_meters":4400,"station_id":"ce4bhih2rcd13ifvqfs0","pricing_plan_id":"cebpf4jnsgd1na2vs0mg"},{"bike_id":"8daa29e7-59b8-4d33-b3a3-84845f7aff9b","system_id":"levelo_inurba_marseille","lat":43.26199,"lon":5.37922,"is_reserved":false,"is_disabled":false,"rental_uris":{"android":"levelo://app?vid=8daa29e7-59b8-4d33-b3a3-84845f7aff9b","ios":"levelo://app?vid=8daa29e7-59b8-4d33-b3a3-84845f7aff9b"},"vehicle_type_id":"4","last_reported":1727356695,"current_range_meters":38800,"station_id":"ce4bhjp2rcd13ifvqg90","pricing_plan_id":"cebpf4jnsgd1na2vs0mg"},{"bike_id":"c6ebdc49-4729-4e81-a2ad-ad9c2b48e60f","system_id":"levelo_inurba_marseille","lat":43.29936,"lon":5.36543,"is_reserved":false,"is_disabled":false,"rental_uris":{"android":"levelo://app?vid=c6ebdc49-4729-4e81-a2ad-ad9c2b48e60f","ios":"levelo://app?vid=c6ebdc49-4729-4e81-a2ad-ad9c2b48e60f"},"vehicle_type_id":"4","last_reported":1727356695,"current_range_meters":30800,"station_id":"ce4bgm92rcd13ifvqbr0","pricing_plan_id":"cebpf4jnsgd1na2vs0mg"},{"bike_id":"7bd6d838-1382-4563-99e1-ae09ccc025d3","system_id":"levelo_inurba_marseille","lat":43.28878,"lon":5.38431,"is_reserved":false,"is_disabled":false,"rental_uris":{"android":"levelo://app?vid=7bd6d838-1382-4563-99e1-ae09ccc025d3","ios":"levelo://app?vid=7bd6d838-1382-4563-99e1-ae09ccc025d3"},"vehicle_type_id":"4","last_reported":1727356695,"current_range_meters":6800,"station_id":"","pricing_plan_id":"cebpf4jnsgd1na2vs0mg"},{"bike_id":"6b2d6110-047a-4374-b820-0abaa9613131","system_id":"levelo_inurba_marseille","lat":43.3249,"lon":5.36561,"is_reserved":false,"is_disabled":false,"rental_uris":{"android":"levelo://app?vid=6b2d6110-047a-4374-b820-0abaa9613131","ios":"levelo://app?vid=6b2d6110-047a-4374-b820-0abaa9613131"},"vehicle_type_id":"4","last_reported":1727356695,"current_range_meters":36400,"station_id":"ce4bhs12rcd13ifvqhvg","pricing_plan_id":"cebpf4jnsgd1na2vs0mg"},{"bike_id":"a7bca3df-0344-4204-86d7-b742d4769839","system_id":"levelo_inurba_marseille","lat":43.30863,"lon":5.3685,"is_reserved":false,"is_disabled":false,"rental_uris":{"android":"levelo://app?vid=a7bca3df-0344-4204-86d7-b742d4769839","ios":"levelo://app?vid=a7bca3df-0344-4204-86d7-b742d4769839"},"vehicle_type_id":"4","last_reported":1727356695,"current_range_meters":22800,"station_id":"ce4bgn92rcd13ifvqbvg","pricing_plan_id":"cebpf4jnsgd1na2vs0mg"},{"bike_id":"5c5d6480-15ef-41d1-819d-f6b78d27575d","system_id":"levelo_inurba_marseille","lat":43.29843,"lon":5.3626,"is_reserved":false,"is_disabled":false,"rental_uris":{"android":"levelo://app?vid=5c5d6480-15ef-41d1-819d-f6b78d27575d","ios":"levelo://app?vid=5c5d6480-15ef-41d1-819d-f6b78d27575d"},"vehicle_type_id":"4","last_reported":1727356695,"current_range_meters":24000,"station_id":"ce4bgpp2rcd13ifvqc3g","pricing_plan_id":"cebpf4jnsgd1na2vs0mg"},{"bike_id":"e2185c61-26f7-4091-889e-e4c95491693c","system_id":"levelo_inurba_marseille","lat":43.31761,"lon":5.39019,"is_reserved":false,"is_disabled":false,"rental_uris":{"android":"levelo://app?vid=e2185c61-26f7-4091-889e-e4c95491693c","ios":"levelo://app?vid=e2185c61-26f7-4091-889e-e4c95491693c"},"vehicle_type_id":"4","last_reported":1727356695,"current_range_meters":38400,"station_id":"ce4bhqp2rcd13ifvqhng","pricing_plan_id":"cebpf4jnsgd1na2vs0mg"},{"bike_id":"e35edc70-4e16-46a6-b127-cc24f579bac5","system_id":"levelo_inurba_marseille","lat":43.243879,"lon":5.370624,"is_reserved":false,"is_disabled":false,"rental_uris":{"android":"levelo://app?vid=e35edc70-4e16-46a6-b127-cc24f579bac5","ios":"levelo://app?vid=e35edc70-4e16-46a6-b127-cc24f579bac5"},"vehicle_type_id":"4","last_reported":1727356695,"current_range_meters":36000,"station_id":"ce4bhhh2rcd13ifvqfk0","pricing_plan_id":"cebpf4jnsgd1na2vs0mg"},{"bike_id":"b2eaefb3-38a9-4f3e-a3d2-026dcff570ab","system_id":"levelo_inurba_marseille","lat":43.28002,"lon":5.40011,"is_reserved":false,"is_disabled":false,"rental_uris":{"android":"levelo://app?vid=b2eaefb3-38a9-4f3e-a3d2-026dcff570ab","ios":"levelo://app?vid=b2eaefb3-38a9-4f3e-a3d2-026dcff570ab"},"vehicle_type_id":"4","last_reported":1727356695,"current_range_meters":6400,"station_id":"ce4bho92rcd13ifvqh4g","pricing_plan_id":"cebpf4jnsgd1na2vs0mg"},{"bike_id":"80d1d5df-61ca-4f88-bada-c65e746a68df","system_id":"levelo_inurba_marseille","lat":43.2985,"lon":5.36271,"is_reserved":false,"is_disabled":false,"rental_uris":{"android":"levelo://app?vid=80d1d5df-61ca-4f88-bada-c65e746a68df","ios":"levelo://app?vid=80d1d5df-61ca-4f88-bada-c65e746a68df"},"vehicle_type_id":"4","last_reported":1727356695,"current_range_meters":38800,"station_id":"ce4bgpp2rcd13ifvqc3g","pricing_plan_id":"cebpf4jnsgd1na2vs0mg"},{"bike_id":"7827170f-fe53-4f76-acc5-1f9d10e67145","system_id":"levelo_inurba_marseille","lat":43.22928,"lon":5.35377,"is_reserved":false,"is_disabled":false,"rental_uris":{"android":"levelo://app?vid=7827170f-fe53-4f76-acc5-1f9d10e67145","ios":"levelo://app?vid=7827170f-fe53-4f76-acc5-1f9d10e67145"},"vehicle_type_id":"4","last_reported":1727356695,"current_range_meters":33600,"station_id":"cpo3532slgdg3j2ikp40","pricing_plan_id":"cebpf4jnsgd1na2vs0mg"},{"bike_id":"9af202ed-b468-4f71-a0b8-74184374d8df","system_id":"levelo_inurba_marseille","lat":43.337444,"lon":5.374475,"is_reserved":false,"is_disabled":false,"rental_uris":{"android":"levelo://app?vid=9af202ed-b468-4f71-a0b8-74184374d8df","ios":"levelo://app?vid=9af202ed-b468-4f71-a0b8-74184374d8df"},"vehicle_type_id":"4","last_reported":1727356695,"current_range_meters":10800,"station_id":"ce4bh0h2rcd13ifvqd50","pricing_plan_id":"cebpf4jnsgd1na2vs0mg"},{"bike_id":"8ca52c1a-e3cc-40df-a029-f530c01c9964","system_id":"levelo_inurba_marseille","lat":43.27679,"lon":5.38869,"is_reserved":false,"is_disabled":false,"rental_uris":{"android":"levelo://app?vid=8ca52c1a-e3cc-40df-a029-f530c01c9964","ios":"levelo://app?vid=8ca52c1a-e3cc-40df-a029-f530c01c9964"},"vehicle_type_id":"4","last_reported":1727356695,"current_range_meters":27200,"station_id":"ce4bhi12rcd13ifvqfo0","pricing_plan_id":"cebpf4jnsgd1na2vs0mg"},{"bike_id":"78e79a53-8622-4921-af56-1de31f382f60","system_id":"levelo_inurba_marseille","lat":43.324768,"lon":5.365695,"is_reserved":false,"is_disabled":false,"rental_uris":{"android":"levelo://app?vid=78e79a53-8622-4921-af56-1de31f382f60","ios":"levelo://app?vid=78e79a53-8622-4921-af56-1de31f382f60"},"vehicle_type_id":"4","last_reported":1727356695,"current_range_meters":28800,"station_id":"ce4bgrh2rcd13ifvqc8g","pricing_plan_id":"cebpf4jnsgd1na2vs0mg"},{"bike_id":"ec284f70-023f-4d5d-a708-d495b9ffbbb7","system_id":"levelo_inurba_marseille","lat":43.26209,"lon":5.37924,"is_reserved":false,"is_disabled":false,"rental_uris":{"android":"levelo://app?vid=ec284f70-023f-4d5d-a708-d495b9ffbbb7","ios":"levelo://app?vid=ec284f70-023f-4d5d-a708-d495b9ffbbb7"},"vehicle_type_id":"4","last_reported":1727356695,"current_range_meters":24400,"station_id":"ce4bhjp2rcd13ifvqg90","pricing_plan_id":"cebpf4jnsgd1na2vs0mg"},{"bike_id":"4266984d-398b-4f5d-9f67-57732ea7b354","system_id":"levelo_inurba_marseille","lat":43.28449,"lon":5.39193,"is_reserved":false,"is_disabled":false,"rental_uris":{"android":"levelo://app?vid=4266984d-398b-4f5d-9f67-57732ea7b354","ios":"levelo://app?vid=4266984d-398b-4f5d-9f67-57732ea7b354"},"vehicle_type_id":"4","last_reported":1727356695,"current_range_meters":31200,"station_id":"ce4bhoh2rcd13ifvqh5g","pricing_plan_id":"cebpf4jnsgd1na2vs0mg"},{"bike_id":"157f7689-527e-441f-a964-13ae834a107b","system_id":"levelo_inurba_marseille","lat":43.30782,"lon":5.37654,"is_reserved":false,"is_disabled":false,"rental_uris":{"android":"levelo://app?vid=157f7689-527e-441f-a964-13ae834a107b","ios":"levelo://app?vid=157f7689-527e-441f-a964-13ae834a107b"},"vehicle_type_id":"4","last_reported":1727356695,"current_range_meters":24800,"station_id":"ce4bgv92rcd13ifvqcq0","pricing_plan_id":"cebpf4jnsgd1na2vs0mg"},{"bike_id":"4507051e-dbe2-4197-98eb-12b963417d27","system_id":"levelo_inurba_marseille","lat":43.337444,"lon":5.374475,"is_reserved":false,"is_disabled":false,"rental_uris":{"android":"levelo://app?vid=4507051e-dbe2-4197-98eb-12b963417d27","ios":"levelo://app?vid=4507051e-dbe2-4197-98eb-12b963417d27"},"vehicle_type_id":"4","last_reported":1727356695,"current_range_meters":35600,"station_id":"","pricing_plan_id":"cebpf4jnsgd1na2vs0mg"},{"bike_id":"4a4bfd88-bdfc-4802-b3a8-e798e4274727","system_id":"levelo_inurba_marseille","lat":43.32294,"lon":5.38266,"is_reserved":false,"is_disabled":false,"rental_uris":{"android":"levelo://app?vid=4a4bfd88-bdfc-4802-b3a8-e798e4274727","ios":"levelo://app?vid=4a4bfd88-bdfc-4802-b3a8-e798e4274727"},"vehicle_type_id":"4","last_reported":1727356695,"current_range_meters":24400,"station_id":"ce4bhr12rcd13ifvqhqg","pricing_plan_id":"cebpf4jnsgd1na2vs0mg"},{"bike_id":"81c79a5f-f1a7-4420-97f8-092caaa8c88e","system_id":"levelo_inurba_marseille","lat":43.30553,"lon":5.36703,"is_reserved":false,"is_disabled":false,"rental_uris":{"android":"levelo://app?vid=81c79a5f-f1a7-4420-97f8-092caaa8c88e","ios":"levelo://app?vid=81c79a5f-f1a7-4420-97f8-092caaa8c88e"},"vehicle_type_id":"4","last_reported":1727356695,"current_range_meters":16400,"station_id":"ce4bgrp2rcd13ifvqc9g","pricing_plan_id":"cebpf4jnsgd1na2vs0mg"},{"bike_id":"b8d4cfe5-fa00-4798-bb3b-a5cd96b0fee5","system_id":"levelo_inurba_marseille","lat":43.24221,"lon":5.38425,"is_reserved":false,"is_disabled":false,"rental_uris":{"android":"levelo://app?vid=b8d4cfe5-fa00-4798-bb3b-a5cd96b0fee5","ios":"levelo://app?vid=b8d4cfe5-fa00-4798-bb3b-a5cd96b0fee5"},"vehicle_type_id":"4","last_reported":1727356695,"current_range_meters":8000,"station_id":"","pricing_plan_id":"cebpf4jnsgd1na2vs0mg"},{"bike_id":"ecdf136d-102d-4dcc-b73c-53f812f0a634","system_id":"levelo_inurba_marseille","lat":43.31363,"lon":5.38489,"is_reserved":false,"is_disabled":false,"rental_uris":{"android":"levelo://app?vid=ecdf136d-102d-4dcc-b73c-53f812f0a634","ios":"levelo://app?vid=ecdf136d-102d-4dcc-b73c-53f812f0a634"},"vehicle_type_id":"4","last_reported":1727356695,"current_range_meters":32000,"station_id":"ce4bgt92rcd13ifvqcf0","pricing_plan_id":"cebpf4jnsgd1na2vs0mg"},{"bike_id":"acbe5730-72ba-4d9e-9c9f-56deaaa27f50","system_id":"levelo_inurba_marseille","lat":43.30919,"lon":5.36848,"is_reserved":false,"is_disabled":false,"rental_uris":{"android":"levelo://app?vid=acbe5730-72ba-4d9e-9c9f-56deaaa27f50","ios":"levelo://app?vid=acbe5730-72ba-4d9e-9c9f-56deaaa27f50"},"vehicle_type_id":"4","last_reported":1727356695,"current_range_meters":18000,"station_id":"ce4bgn92rcd13ifvqbvg","pricing_plan_id":"cebpf4jnsgd1na2vs0mg"},{"bike_id":"c9253060-f9ca-4a9a-b90a-7fbffb962929","system_id":"levelo_inurba_marseille","lat":43.30146,"lon":5.39846,"is_reserved":false,"is_disabled":false,"rental_uris":{"android":"levelo://app?vid=c9253060-f9ca-4a9a-b90a-7fbffb962929","ios":"levelo://app?vid=c9253060-f9ca-4a9a-b90a-7fbffb962929"},"vehicle_type_id":"4","last_reported":1727356695,"current_range_meters":22400,"station_id":"ce4bh0h2rcd13ifvqd40","pricing_plan_id":"cebpf4jnsgd1na2vs0mg"},{"bike_id":"0742813f-e534-4eb6-ba42-92c1ecd0ba87","system_id":"levelo_inurba_marseille","lat":43.29716,"lon":5.37688,"is_reserved":false,"is_disabled":false,"rental_uris":{"android":"levelo://app?vid=0742813f-e534-4eb6-ba42-92c1ecd0ba87","ios":"levelo://app?vid=0742813f-e534-4eb6-ba42-92c1ecd0ba87"},"vehicle_type_id":"4","last_reported":1727356695,"current_range_meters":12400,"station_id":"ce4bh512rcd13ifvqe2g","pricing_plan_id":"cebpf4jnsgd1na2vs0mg"},{"bike_id":"52d11684-a90c-425f-9157-670e8b263e15","system_id":"levelo_inurba_marseille","lat":43.30588,"lon":5.37284,"is_reserved":false,"is_disabled":false,"rental_uris":{"android":"levelo://app?vid=52d11684-a90c-425f-9157-670e8b263e15","ios":"levelo://app?vid=52d11684-a90c-425f-9157-670e8b263e15"},"vehicle_type_id":"4","last_reported":1727356695,"current_range_meters":38800,"station_id":"ce4bgqh2rcd13ifvqc4g","pricing_plan_id":"cebpf4jnsgd1na2vs0mg"},{"bike_id":"8b1c6698-cd99-42a4-8f7c-970d46686118","system_id":"levelo_inurba_marseille","lat":43.26685,"lon":5.38261,"is_reserved":false,"is_disabled":false,"rental_uris":{"android":"levelo://app?vid=8b1c6698-cd99-42a4-8f7c-970d46686118","ios":"levelo://app?vid=8b1c6698-cd99-42a4-8f7c-970d46686118"},"vehicle_type_id":"4","last_reported":1727356695,"current_range_meters":36000,"station_id":"ce4bhg92rcd13ifvqf90","pricing_plan_id":"cebpf4jnsgd1na2vs0mg"},{"bike_id":"bc7cab11-b0dd-4a42-9999-31fe6a17dee2","system_id":"levelo_inurba_marseille","lat":43.29847,"lon":5.36259,"is_reserved":false,"is_disabled":false,"rental_uris":{"android":"levelo://app?vid=bc7cab11-b0dd-4a42-9999-31fe6a17dee2","ios":"levelo://app?vid=bc7cab11-b0dd-4a42-9999-31fe6a17dee2"},"vehicle_type_id":"4","last_reported":1727356695,"current_range_meters":36800,"station_id":"ce4bgpp2rcd13ifvqc3g","pricing_plan_id":"cebpf4jnsgd1na2vs0mg"},{"bike_id":"eda8bcde-5e1d-4538-802b-7a2e14d9f52d","system_id":"levelo_inurba_marseille","lat":43.22926,"lon":5.3537,"is_reserved":false,"is_disabled":false,"rental_uris":{"android":"levelo://app?vid=eda8bcde-5e1d-4538-802b-7a2e14d9f52d","ios":"levelo://app?vid=eda8bcde-5e1d-4538-802b-7a2e14d9f52d"},"vehicle_type_id":"4","last_reported":1727356695,"current_range_meters":22400,"station_id":"cpo3532slgdg3j2ikp40","pricing_plan_id":"cebpf4jnsgd1na2vs0mg"},{"bike_id":"3288ef6a-1309-4987-a379-11f3221b78e6","system_id":"levelo_inurba_marseille","lat":43.26551,"lon":5.37283,"is_reserved":false,"is_disabled":false,"rental_uris":{"android":"levelo://app?vid=3288ef6a-1309-4987-a379-11f3221b78e6","ios":"levelo://app?vid=3288ef6a-1309-4987-a379-11f3221b78e6"},"vehicle_type_id":"4","last_reported":1727356695,"current_range_meters":22400,"station_id":"ce4bhg12rcd13ifvqf70","pricing_plan_id":"cebpf4jnsgd1na2vs0mg"},{"bike_id":"1e6b0c16-c6ca-44c3-8633-a751ebbb6842","system_id":"levelo_inurba_marseille","lat":43.28609,"lon":5.37069,"is_reserved":false,"is_disabled":false,"rental_uris":{"android":"levelo://app?vid=1e6b0c16-c6ca-44c3-8633-a751ebbb6842","ios":"levelo://app?vid=1e6b0c16-c6ca-44c3-8633-a751ebbb6842"},"vehicle_type_id":"4","last_reported":1727356695,"current_range_meters":30800,"station_id":"ce4bht12rcd13ifvqi60","pricing_plan_id":"cebpf4jnsgd1na2vs0mg"},{"bike_id":"88ea4330-c58e-472f-b69c-809553859b3f","system_id":"levelo_inurba_marseille","lat":43.26556,"lon":5.37283,"is_reserved":false,"is_disabled":false,"rental_uris":{"android":"levelo://app?vid=88ea4330-c58e-472f-b69c-809553859b3f","ios":"levelo://app?vid=88ea4330-c58e-472f-b69c-809553859b3f"},"vehicle_type_id":"4","last_reported":1727356695,"current_range_meters":36800,"station_id":"ce4bhg12rcd13ifvqf70","pricing_plan_id":"cebpf4jnsgd1na2vs0mg"},{"bike_id":"7e06aaaa-a3eb-45f3-b488-d847eb00575d","system_id":"levelo_inurba_marseille","lat":43.30537,"lon":5.36537,"is_reserved":false,"is_disabled":false,"rental_uris":{"android":"levelo://app?vid=7e06aaaa-a3eb-45f3-b488-d847eb00575d","ios":"levelo://app?vid=7e06aaaa-a3eb-45f3-b488-d847eb00575d"},"vehicle_type_id":"4","last_reported":1727356695,"current_range_meters":38800,"station_id":"ce4bgs12rcd13ifvqcag","pricing_plan_id":"cebpf4jnsgd1na2vs0mg"},{"bike_id":"80b47960-913f-41dd-92b6-b416a7ba96d1","system_id":"levelo_inurba_marseille","lat":43.30912,"lon":5.36849,"is_reserved":false,"is_disabled":false,"rental_uris":{"android":"levelo://app?vid=80b47960-913f-41dd-92b6-b416a7ba96d1","ios":"levelo://app?vid=80b47960-913f-41dd-92b6-b416a7ba96d1"},"vehicle_type_id":"4","last_reported":1727356695,"current_range_meters":35600,"station_id":"ce4bgn92rcd13ifvqbvg","pricing_plan_id":"cebpf4jnsgd1na2vs0mg"},{"bike_id":"b346460b-67e9-49d6-8bf1-75645a62cdbf","system_id":"levelo_inurba_marseille","lat":43.25591,"lon":5.38237,"is_reserved":false,"is_disabled":false,"rental_uris":{"android":"levelo://app?vid=b346460b-67e9-49d6-8bf1-75645a62cdbf","ios":"levelo://app?vid=b346460b-67e9-49d6-8bf1-75645a62cdbf"},"vehicle_type_id":"4","last_reported":1727356695,"current_range_meters":39200,"station_id":"ce4bhih2rcd13ifvqfs0","pricing_plan_id":"cebpf4jnsgd1na2vs0mg"},{"bike_id":"74f69eea-f376-47b1-8806-d128c0c648d9","system_id":"levelo_inurba_marseille","lat":43.29797,"lon":5.39341,"is_reserved":false,"is_disabled":false,"rental_uris":{"android":"levelo://app?vid=74f69eea-f376-47b1-8806-d128c0c648d9","ios":"levelo://app?vid=74f69eea-f376-47b1-8806-d128c0c648d9"},"vehicle_type_id":"4","last_reported":1727356695,"current_range_meters":38000,"station_id":"chh1huq6cuj3fo74tm60","pricing_plan_id":"cebpf4jnsgd1na2vs0mg"},{"bike_id":"1084fccf-aaef-47d4-8fe7-1bc6c9d5effc","system_id":"levelo_inurba_marseille","lat":43.31334,"lon":5.36719,"is_reserved":false,"is_disabled":false,"rental_uris":{"android":"levelo://app?vid=1084fccf-aaef-47d4-8fe7-1bc6c9d5effc","ios":"levelo://app?vid=1084fccf-aaef-47d4-8fe7-1bc6c9d5effc"},"vehicle_type_id":"4","last_reported":1727356695,"current_range_meters":37600,"station_id":"ce4bgr92rcd13ifvqc6g","pricing_plan_id":"cebpf4jnsgd1na2vs0mg"},{"bike_id":"b0edbbbb-ef0a-4a65-bb38-113ac03cbfc7","system_id":"levelo_inurba_marseille","lat":43.29789,"lon":5.38146,"is_reserved":false,"is_disabled":false,"rental_uris":{"android":"levelo://app?vid=b0edbbbb-ef0a-4a65-bb38-113ac03cbfc7","ios":"levelo://app?vid=b0edbbbb-ef0a-4a65-bb38-113ac03cbfc7"},"vehicle_type_id":"4","last_reported":1727356695,"current_range_meters":25200,"station_id":"ce4bgip2rcd13ifvqbb0","pricing_plan_id":"cebpf4jnsgd1na2vs0mg"},{"bike_id":"ce4aec21-58a7-4dcf-b51a-c58b50377e34","system_id":"levelo_inurba_marseille","lat":43.31231,"lon":5.36853,"is_reserved":false,"is_disabled":false,"rental_uris":{"android":"levelo://app?vid=ce4aec21-58a7-4dcf-b51a-c58b50377e34","ios":"levelo://app?vid=ce4aec21-58a7-4dcf-b51a-c58b50377e34"},"vehicle_type_id":"4","last_reported":1727356695,"current_range_meters":22800,"station_id":"ce4bgl92rcd13ifvqbq0","pricing_plan_id":"cebpf4jnsgd1na2vs0mg"},{"bike_id":"16d3bf1b-cf12-4501-adb9-064386d78a4b","system_id":"levelo_inurba_marseille","lat":43.24085,"lon":5.37743,"is_reserved":false,"is_disabled":false,"rental_uris":{"android":"levelo://app?vid=16d3bf1b-cf12-4501-adb9-064386d78a4b","ios":"levelo://app?vid=16d3bf1b-cf12-4501-adb9-064386d78a4b"},"vehicle_type_id":"4","last_reported":1727356695,"current_range_meters":4400,"station_id":"ce4bhnp2rcd13ifvqgvg","pricing_plan_id":"cebpf4jnsgd1na2vs0mg"},{"bike_id":"1fafca9e-1bf4-4b8b-a9f6-2ea0b5022f94","system_id":"levelo_inurba_marseille","lat":43.23202,"lon":5.35553,"is_reserved":false,"is_disabled":false,"rental_uris":{"android":"levelo://app?vid=1fafca9e-1bf4-4b8b-a9f6-2ea0b5022f94","ios":"levelo://app?vid=1fafca9e-1bf4-4b8b-a9f6-2ea0b5022f94"},"vehicle_type_id":"4","last_reported":1727356695,"current_range_meters":28400,"station_id":"ce4bhu92rcd13ifvqi70","pricing_plan_id":"cebpf4jnsgd1na2vs0mg"},{"bike_id":"cccc3291-b348-4755-9eaa-5ef0639cd89f","system_id":"levelo_inurba_marseille","lat":43.25937,"lon":5.40913,"is_reserved":false,"is_disabled":false,"rental_uris":{"android":"levelo://app?vid=cccc3291-b348-4755-9eaa-5ef0639cd89f","ios":"levelo://app?vid=cccc3291-b348-4755-9eaa-5ef0639cd89f"},"vehicle_type_id":"4","last_reported":1727356695,"current_range_meters":14400,"station_id":"ce4bhm92rcd13ifvqglg","pricing_plan_id":"cebpf4jnsgd1na2vs0mg"},{"bike_id":"b28a6409-baa6-4dd9-ad62-e945a328f511","system_id":"levelo_inurba_marseille","lat":43.29533,"lon":5.38543,"is_reserved":false,"is_disabled":false,"rental_uris":{"android":"levelo://app?vid=b28a6409-baa6-4dd9-ad62-e945a328f511","ios":"levelo://app?vid=b28a6409-baa6-4dd9-ad62-e945a328f511"},"vehicle_type_id":"4","last_reported":1727356695,"current_range_meters":14000,"station_id":"ce4bgih2rcd13ifvqba0","pricing_plan_id":"cebpf4jnsgd1na2vs0mg"},{"bike_id":"26bd3a05-d57c-4b9a-8414-dd13781228a9","system_id":"levelo_inurba_marseille","lat":43.26555,"lon":5.37288,"is_reserved":false,"is_disabled":false,"rental_uris":{"android":"levelo://app?vid=26bd3a05-d57c-4b9a-8414-dd13781228a9","ios":"levelo://app?vid=26bd3a05-d57c-4b9a-8414-dd13781228a9"},"vehicle_type_id":"4","last_reported":1727356695,"current_range_meters":36400,"station_id":"ce4bhg12rcd13ifvqf70","pricing_plan_id":"cebpf4jnsgd1na2vs0mg"},{"bike_id":"1f4162d7-3cd5-4a3c-a557-f5d64a7bd417","system_id":"levelo_inurba_marseille","lat":43.32486,"lon":5.3656,"is_reserved":false,"is_disabled":false,"rental_uris":{"android":"levelo://app?vid=1f4162d7-3cd5-4a3c-a557-f5d64a7bd417","ios":"levelo://app?vid=1f4162d7-3cd5-4a3c-a557-f5d64a7bd417"},"vehicle_type_id":"4","last_reported":1727356695,"current_range_meters":24000,"station_id":"ce4bhs12rcd13ifvqhvg","pricing_plan_id":"cebpf4jnsgd1na2vs0mg"},{"bike_id":"7c983285-abc0-4c9a-bc7a-38f1fc1b5441","system_id":"levelo_inurba_marseille","lat":43.29909,"lon":5.37481,"is_reserved":false,"is_disabled":false,"rental_uris":{"android":"levelo://app?vid=7c983285-abc0-4c9a-bc7a-38f1fc1b5441","ios":"levelo://app?vid=7c983285-abc0-4c9a-bc7a-38f1fc1b5441"},"vehicle_type_id":"4","last_reported":1727356695,"current_range_meters":37600,"station_id":"ce4bgjh2rcd13ifvqbg0","pricing_plan_id":"cebpf4jnsgd1na2vs0mg"},{"bike_id":"fc09ae45-1afc-4cd0-a841-ed2588645d04","system_id":"levelo_inurba_marseille","lat":43.27618,"lon":5.39476,"is_reserved":false,"is_disabled":false,"rental_uris":{"android":"levelo://app?vid=fc09ae45-1afc-4cd0-a841-ed2588645d04","ios":"levelo://app?vid=fc09ae45-1afc-4cd0-a841-ed2588645d04"},"vehicle_type_id":"4","last_reported":1727356695,"current_range_meters":25200,"station_id":"ce4bha92rcd13ifvqeg0","pricing_plan_id":"cebpf4jnsgd1na2vs0mg"},{"bike_id":"9560daa0-c4e3-4ff9-8735-b7bf5fec25a2","system_id":"levelo_inurba_marseille","lat":43.28599,"lon":5.42561,"is_reserved":false,"is_disabled":false,"rental_uris":{"android":"levelo://app?vid=9560daa0-c4e3-4ff9-8735-b7bf5fec25a2","ios":"levelo://app?vid=9560daa0-c4e3-4ff9-8735-b7bf5fec25a2"},"vehicle_type_id":"4","last_reported":1727356695,"current_range_meters":7200,"station_id":"ce4bhg12rcd13ifvqf80","pricing_plan_id":"cebpf4jnsgd1na2vs0mg"},{"bike_id":"a75a8682-b45f-45dd-805e-156c5d637e87","system_id":"levelo_inurba_marseille","lat":43.30923,"lon":5.40143,"is_reserved":false,"is_disabled":false,"rental_uris":{"android":"levelo://app?vid=a75a8682-b45f-45dd-805e-156c5d637e87","ios":"levelo://app?vid=a75a8682-b45f-45dd-805e-156c5d637e87"},"vehicle_type_id":"4","last_reported":1727356695,"current_range_meters":14000,"station_id":"ce4bgvp2rcd13ifvqct0","pricing_plan_id":"cebpf4jnsgd1na2vs0mg"},{"bike_id":"50d7281d-7387-429d-9116-09dcb1a57333","system_id":"levelo_inurba_marseille","lat":43.33732,"lon":5.37461,"is_reserved":false,"is_disabled":false,"rental_uris":{"android":"levelo://app?vid=50d7281d-7387-429d-9116-09dcb1a57333","ios":"levelo://app?vid=50d7281d-7387-429d-9116-09dcb1a57333"},"vehicle_type_id":"4","last_reported":1727356695,"current_range_meters":32400,"station_id":"","pricing_plan_id":"cebpf4jnsgd1na2vs0mg"},{"bike_id":"a0ca5ccb-3588-488d-9fc5-9fa10f2f835e","system_id":"levelo_inurba_marseille","lat":43.29896,"lon":5.43657,"is_reserved":false,"is_disabled":false,"rental_uris":{"android":"levelo://app?vid=a0ca5ccb-3588-488d-9fc5-9fa10f2f835e","ios":"levelo://app?vid=a0ca5ccb-3588-488d-9fc5-9fa10f2f835e"},"vehicle_type_id":"4","last_reported":1727356695,"current_range_meters":28000,"station_id":"ce4bhpp2rcd13ifvqhfg","pricing_plan_id":"cebpf4jnsgd1na2vs0mg"},{"bike_id":"9f2f5301-20e2-481f-bb45-243f4e94e775","system_id":"levelo_inurba_marseille","lat":43.24664,"lon":5.38164,"is_reserved":false,"is_disabled":false,"rental_uris":{"android":"levelo://app?vid=9f2f5301-20e2-481f-bb45-243f4e94e775","ios":"levelo://app?vid=9f2f5301-20e2-481f-bb45-243f4e94e775"},"vehicle_type_id":"4","last_reported":1727356695,"current_range_meters":9200,"station_id":"ce4bhih2rcd13ifvqfr0","pricing_plan_id":"cebpf4jnsgd1na2vs0mg"},