{"last_updated":1748297389,"ttl":60,"version":"2.2","data":{"bikes":[{"bike_id":"ac0f59b6-9726-4be4-88e3-a5554010f322","system_id":"levelo_inurba_marseille","lat":43.31315,"lon":5.39692,"is_reserved":false,"is_disabled":false,"rental_uris":{"android":"levelo://app?vid=ac0f59b6-9726-4be4-88e3-a5554010f322","ios":"levelo://app?vid=ac0f59b6-9726-4be4-88e3-a5554010f322"},"vehicle_type_id":"4","last_reported":1748297389,"current_range_meters":2000,"station_id":"","pricing_plan_id":"cebpf4jnsgd1na2vs0mg"},{"bike_id":"6edb867c-c294-4720-8195-5ff82213c6d4","system_id":"levelo_inurba_marseille","lat":43.29779,"lon":5.39353,"is_reserved":false,"is_disabled":false,"rental_uris":{"android":"levelo://app?vid=6edb867c-c294-4720-8195-5ff82213c6d4","ios":"levelo://app?vid=6edb867c-c294-4720-8195-5ff82213c6d4"},"vehicle_type_id":"4","last_reported":1748297389,"current_range_meters":2800,"station_id":"chh1huq6cuj3fo74tm60","pricing_plan_id":"cebpf4jnsgd1na2vs0mg"},{"bike_id":"3dd669cf-f591-4270-8a71-03d78ab56ea8","system_id":"levelo_inurba_marseille","lat":43.33617,"lon":5.41048,"is_reserved":false,"is_disabled":true,"rental_uris":{"android":"levelo://app?vid=3dd669cf-f591-4270-8a71-03d78ab56ea8","ios":"levelo://app?vid=3dd669cf-f591-4270-8a71-03d78ab56ea8"},"vehicle_type_id":"4","last_reported":1748297389,"current_range_meters":2800,"station_id":"ce4bhqh2rcd13ifvqhmg","pricing_plan_id":"cebpf4jnsgd1na2vs0mg"},{"bike_id":"da453a88-f81b-4e0f-9781-5a7f6c1d364c","system_id":"levelo_inurba_marseille","lat":43.337499,"lon":5.374469,"is_reserved":false,"is_disabled":false,"rental_uris":{"android":"levelo://app?vid=da453a88-f81b-4e0f-9781-5a7f6c1d364c","ios":"levelo://app?vid=da453a88-f81b-4e0f-9781-5a7f6c1d364c"},"vehicle_type_id":"4","last_reported":1748297389,"current_range_meters":3200,"station_id":"","pricing_plan_id":"cebpf4jnsgd1na2vs0mg"},{"bike_id":"270fc64d-c8f9-41af-b2b2-3f0d4c311744","system_id":"levelo_inurba_marseille","lat":43.31707,"lon":5.437,"is_reserved":false,"is_disabled":true,"rental_uris":{"android":"levelo://app?vid=270fc64d-c8f9-41af-b2b2-3f0d4c311744","ios":"levelo://app?vid=270fc64d-c8f9-41af-b2b2-3f0d4c311744"},"vehicle_type_id":"4","last_reported":1748297389,"current_range_meters":3200,"station_id":"ce4bhp92rcd13ifvqhcg","pricing_plan_id":"cebpf4jnsgd1na2vs0mg"},{"bike_id":"d9fa0449-e47c-4bbe-a91c-4939cab5d888","system_id":"levelo_inurba_marseille","lat":43.28516,"lon":5.42613,"is_reserved":false,"is_disabled":false,"rental_uris":{"android":"levelo://app?vid=d9fa0449-e47c-4bbe-a91c-4939cab5d888","ios":"levelo://app?vid=d9fa0449-e47c-4bbe-a91c-4939cab5d888"},"vehicle_type_id":"4","last_reported":1748297389,"current_range_meters":3200,"station_id":"","pricing_plan_id":"cebpf4jnsgd1na2vs0mg"},{"bike_id":"98ebf65e-e651-43eb-bbd4-161cddcbd829","system_id":"levelo_inurba_marseille","lat":43.284768,"lon":5.384156,"is_reserved":false,"is_disabled":false,"rental_uris":{"android":"levelo://app?vid=98ebf65e-e651-43eb-bbd4-161cddcbd829","ios":"levelo://app?vid=98ebf65e-e651-43eb-bbd4-161cddcbd829"},"vehicle_type_id":"4","last_reported":1748297389,"current_range_meters":3600,"station_id":"ce4bh512rcd13ifvqe3g","pricing_plan_id":"cebpf4jnsgd1na2vs0mg"},{"bike_id":"e3da77ea-f378-4375-95eb-e223616438da","system_id":"levelo_inurba_marseille","lat":43.255796,"lon":5.382245,"is_reserved":false,"is_disabled":false,"rental_uris":{"android":"levelo://app?vid=e3da77ea-f378-4375-95eb-e223616438da","ios":"levelo://app?vid=e3da77ea-f378-4375-95eb-e223616438da"},"vehicle_type_id":"4","last_reported":1748297389,"current_range_meters":3600,"station_id":"ce4bhih2rcd13ifvqfs0","pricing_plan_id":"cebpf4jnsgd1na2vs0mg"},{"bike_id":"83df8741-d12e-47ed-9ebe-d7ebfcd99d9d","system_id":"levelo_inurba_marseille","lat":43.28704,"lon":5.37396,"is_reserved":false,"is_disabled":true,"rental_uris":{"android":"levelo://app?vid=83df8741-d12e-47ed-9ebe-d7ebfcd99d9d","ios":"levelo://app?vid=83df8741-d12e-47ed-9ebe-d7ebfcd99d9d"},"vehicle_type_id":"4","last_reported":1748297389,"current_range_meters":3600,"station_id":"ce4bh3p2rcd13ifvqdq0","pricing_plan_id":"cebpf4jnsgd1na2vs0mg"},{"bike_id":"f93ce947-e848-4762-9962-426f3826fd4c","system_id":"levelo_inurba_marseille","lat":43.240693,"lon":5.377623,"is_reserved":false,"is_disabled":false,"rental_uris":{"android":"levelo://app?vid=f93ce947-e848-4762-9962-426f3826fd4c","ios":"levelo://app?vid=f93ce947-e848-4762-9962-426f3826fd4c"},"vehicle_type_id":"4","last_reported":1748297389,"current_range_meters":4000,"station_id":"ce4bhnp2rcd13ifvqgvg","pricing_plan_id":"cebpf4jnsgd1na2vs0mg"},{"bike_id":"842fbd4a-e999-481e-892c-e9207b04fd22","system_id":"levelo_inurba_marseille","lat":43.27913,"lon":5.39569,"is_reserved":false,"is_disabled":false,"rental_uris":{"android":"levelo://app?vid=842fbd4a-e999-481e-892c-e9207b04fd22","ios":"levelo://app?vid=842fbd4a-e999-481e-892c-e9207b04fd22"},"vehicle_type_id":"4","last_reported":1748297389,"current_range_meters":4000,"station_id":"ce4bhf92rcd13ifvqf40","pricing_plan_id":"cebpf4jnsgd1na2vs0mg"},{"bike_id":"6a2e6f48-058f-41ff-b150-9f9d8eda1caf","system_id":"levelo_inurba_marseille","lat":43.30311,"lon":5.40477,"is_reserved":false,"is_disabled":false,"rental_uris":{"android":"levelo://app?vid=6a2e6f48-058f-41ff-b150-9f9d8eda1caf","ios":"levelo://app?vid=6a2e6f48-058f-41ff-b150-9f9d8eda1caf"},"vehicle_type_id":"4","last_reported":1748297389,"current_range_meters":4400,"station_id":"ce4bh012rcd13ifvqd10","pricing_plan_id":"cebpf4jnsgd1na2vs0mg"},{"bike_id":"132ab636-db12-40c7-a8b3-5abe44a82f0a","system_id":"levelo_inurba_marseille","lat":43.28565,"lon":5.39493,"is_reserved":false,"is_disabled":false,"rental_uris":{"android":"levelo://app?vid=132ab636-db12-40c7-a8b3-5abe44a82f0a","ios":"levelo://app?vid=132ab636-db12-40c7-a8b3-5abe44a82f0a"},"vehicle_type_id":"4","last_reported":1748297389,"current_range_meters":4400,"station_id":"ce4bh292rcd13ifvqdg0","pricing_plan_id":"cebpf4jnsgd1na2vs0mg"},{"bike_id":"960f8f12-c2df-44d8-937d-8b181daa4d97","system_id":"levelo_inurba_marseille","lat":43.26792,"lon":5.39419,"is_reserved":false,"is_disabled":false,"rental_uris":{"android":"levelo://app?vid=960f8f12-c2df-44d8-937d-8b181daa4d97","ios":"levelo://app?vid=960f8f12-c2df-44d8-937d-8b181daa4d97"},"vehicle_type_id":"4","last_reported":1748297389,"current_range_meters":4400,"station_id":"ce4bhh12rcd13ifvqfg0","pricing_plan_id":"cebpf4jnsgd1na2vs0mg"},{"bike_id":"22714e58-3cb8-491b-b895-45fccd97b8e1","system_id":"levelo_inurba_marseille","lat":43.31492,"lon":5.37302,"is_reserved":false,"is_disabled":true,"rental_uris":{"android":"levelo://app?vid=22714e58-3cb8-491b-b895-45fccd97b8e1","ios":"levelo://app?vid=22714e58-3cb8-491b-b895-45fccd97b8e1"},"vehicle_type_id":"4","last_reported":1748297389,"current_range_meters":4400,"station_id":"ce4bgt12rcd13ifvqcd0","pricing_plan_id":"cebpf4jnsgd1na2vs0mg"},{"bike_id":"8bac87a7-96a9-4b6e-8de5-bbbb2b4e42ad","system_id":"levelo_inurba_marseille","lat":43.25115,"lon":5.4032,"is_reserved":false,"is_disabled":false,"rental_uris":{"android":"levelo://app?vid=8bac87a7-96a9-4b6e-8de5-bbbb2b4e42ad","ios":"levelo://app?vid=8bac87a7-96a9-4b6e-8de5-bbbb2b4e42ad"},"vehicle_type_id":"4","last_reported":1748297389,"current_range_meters":6000,"station_id":"ce4bhlh2rcd13ifvqgig","pricing_plan_id":"cebpf4jnsgd1na2vs0mg"},{"bike_id":"fb557dfc-c82e-44de-9c57-f9add8bfd0a0","system_id":"levelo_inurba_marseille","lat":43.255,"lon":5.37654,"is_reserved":false,"is_disabled":false,"rental_uris":{"android":"levelo://app?vid=fb557dfc-c82e-44de-9c57-f9add8bfd0a0","ios":"levelo://app?vid=fb557dfc-c82e-44de-9c57-f9add8bfd0a0"},"vehicle_type_id":"4","last_reported":1748297389,"current_range_meters":5600,"station_id":"ce4bhh12rcd13ifvqff0","pricing_plan_id":"cebpf4jnsgd1na2vs0mg"},{"bike_id":"20aedc1a-3258-494a-9b0e-5afc4945dd89","system_id":"levelo_inurba_marseille","lat":43.2319,"lon":5.39985,"is_reserved":false,"is_disabled":false,"rental_uris":{"android":"levelo://app?vid=20aedc1a-3258-494a-9b0e-5afc4945dd89","ios":"levelo://app?vid=20aedc1a-3258-494a-9b0e-5afc4945dd89"},"vehicle_type_id":"4","last_reported":1748297389,"current_range_meters":6000,"station_id":"ce4bhn12rcd13ifvqgqg","pricing_plan_id":"cebpf4jnsgd1na2vs0mg"},{"bike_id":"ab485184-dee6-4278-8ed8-78cb97c31dd5","system_id":"levelo_inurba_marseille","lat":43.2921,"lon":5.35824,"is_reserved":false,"is_disabled":false,"rental_uris":{"android":"levelo://app?vid=ab485184-dee6-4278-8ed8-78cb97c31dd5","ios":"levelo://app?vid=ab485184-dee6-4278-8ed8-78cb97c31dd5"},"vehicle_type_id":"4","last_reported":1748297389,"current_range_meters":6400,"station_id":"","pricing_plan_id":"cebpf4jnsgd1na2vs0mg"},{"bike_id":"e32b1ab1-72ba-43d2-88bf-6e22529dc844","system_id":"levelo_inurba_marseille","lat":43.25573,"lon":5.38228,"is_reserved":false,"is_disabled":true,"rental_uris":{"android":"levelo://app?vid=e32b1ab1-72ba-43d2-88bf-6e22529dc844","ios":"levelo://app?vid=e32b1ab1-72ba-43d2-88bf-6e22529dc844"},"vehicle_type_id":"4","last_reported":1748297389,"current_range_meters":6400,"station_id":"ce4bhih2rcd13ifvqfs0","pricing_plan_id":"cebpf4jnsgd1na2vs0mg"},{"bike_id":"f56d008f-cfe0-4d32-8ee8-16a7ceae2600","system_id":"levelo_inurba_marseille","lat":43.28722,"lon":5.3609,"is_reserved":false,"is_disabled":false,"rental_uris":{"android":"levelo://app?vid=f56d008f-cfe0-4d32-8ee8-16a7ceae2600","ios":"levelo://app?vid=f56d008f-cfe0-4d32-8ee8-16a7ceae2600"},"vehicle_type_id":"4","last_reported":1748297389,"current_range_meters":6000,"station_id":"cki0cbj6b192h4jlfktg","pricing_plan_id":"cebpf4jnsgd1na2vs0mg"},{"bike_id":"6f4308c5-dd0f-4817-a328-2b9fe122b345","system_id":"levelo_inurba_marseille","lat":43.28702,"lon":5.37363,"is_reserved":false,"is_disabled":false,"rental_uris":{"android":"levelo://app?vid=6f4308c5-dd0f-4817-a328-2b9fe122b345","ios":"levelo://app?vid=6f4308c5-dd0f-4817-a328-2b9fe122b345"},"vehicle_type_id":"4","last_reported":1748297389,"current_range_meters":6800,"station_id":"","pricing_plan_id":"cebpf4jnsgd1na2vs0mg"},{"bike_id":"667b2270-111d-4434-aaae-690b375d1c8d","system_id":"levelo_inurba_marseille","lat":43.26182,"lon":5.37453,"is_reserved":false,"is_disabled":false,"rental_uris":{"android":"levelo://app?vid=667b2270-111d-4434-aaae-690b375d1c8d","ios":"levelo://app?vid=667b2270-111d-4434-aaae-690b375d1c8d"},"vehicle_type_id":"4","last_reported":1748297389,"current_range_meters":6800,"station_id":"ce4bhgp2rcd13ifvqfc0","pricing_plan_id":"cebpf4jnsgd1na2vs0mg"},{"bike_id":"dabc077c-bf8d-431d-a5ea-dcd441e9b7b1","system_id":"levelo_inurba_marseille","lat":43.24876,"lon":5.39726,"is_reserved":false,"is_disabled":false,"rental_uris":{"android":"levelo://app?vid=dabc077c-bf8d-431d-a5ea-dcd441e9b7b1","ios":"levelo://app?vid=dabc077c-bf8d-431d-a5ea-dcd441e9b7b1"},"vehicle_type_id":"4","last_reported":1748297389,"current_range_meters":6800,"station_id":"","pricing_plan_id":"cebpf4jnsgd1na2vs0mg"},{"bike_id":"af02aa73-68b2-498b-ad6a-9a50456db18d","system_id":"levelo_inurba_marseille","lat":43.29567,"lon":5.37871,"is_reserved":false,"is_disabled":false,"rental_uris":{"android":"levelo://app?vid=af02aa73-68b2-498b-ad6a-9a50456db18d","ios":"levelo://app?vid=af02aa73-68b2-498b-ad6a-9a50456db18d"},"vehicle_type_id":"4","last_reported":1748297389,"current_range_meters":6800,"station_id":"","pricing_plan_id":"cebpf4jnsgd1na2vs0mg"},{"bike_id":"e9496718-b841-4999-823d-28c5bee5d6f1","system_id":"levelo_inurba_marseille","lat":43.26548,"lon":5.38999,"is_reserved":false,"is_disabled":false,"rental_uris":{"android":"levelo://app?vid=e9496718-b841-4999-823d-28c5bee5d6f1","ios":"levelo://app?vid=e9496718-b841-4999-823d-28c5bee5d6f1"},"vehicle_type_id":"4","last_reported":1748297389,"current_range_meters":7200,"station_id":"ce4bhe12rcd13ifvqf30","pricing_plan_id":"cebpf4jnsgd1na2vs0mg"},{"bike_id":"e1a05f52-41b6-4905-a906-7e3ecbe8ddfd","system_id":"levelo_inurba_marseille","lat":43.25094,"lon":5.40344,"is_reserved":false,"is_disabled":false,"rental_uris":{"android":"levelo://app?vid=e1a05f52-41b6-4905-a906-7e3ecbe8ddfd","ios":"levelo://app?vid=e1a05f52-41b6-4905-a906-7e3ecbe8ddfd"},"vehicle_type_id":"4","last_reported":1748297389,"current_range_meters":7200,"station_id":"ce4bhlh2rcd13ifvqgig","pricing_plan_id":"cebpf4jnsgd1na2vs0mg"},{"bike_id":"246e57fe-1559-42a1-ae7f-7939243abc4a","system_id":"levelo_inurba_marseille","lat":43.24061,"lon":5.37746,"is_reserved":false,"is_disabled":false,"rental_uris":{"android":"levelo://app?vid=246e57fe-1559-42a1-ae7f-7939243abc4a","ios":"levelo://app?vid=246e57fe-1559-42a1-ae7f-7939243abc4a"},"vehicle_type_id":"4","last_reported":1748297389,"current_range_meters":7200,"station_id":"ce4bhnp2rcd13ifvqgvg","pricing_plan_id":"cebpf4jnsgd1na2vs0mg"},{"bike_id":"2d56570c-0948-4bf7-80d5-656a6ef4d9ae","system_id":"levelo_inurba_marseille","lat":43.30926,"lon":5.40142,"is_reserved":false,"is_disabled":false,"rental_uris":{"android":"levelo://app?vid=2d56570c-0948-4bf7-80d5-656a6ef4d9ae","ios":"levelo://app?vid=2d56570c-0948-4bf7-80d5-656a6ef4d9ae"},"vehicle_type_id":"4","last_reported":1748297389,"current_range_meters":7200,"station_id":"ce4bgvp2rcd13ifvqct0","pricing_plan_id":"cebpf4jnsgd1na2vs0mg"},{"bike_id":"56663262-140e-42a6-8234-6b0704a795c5","system_id":"levelo_inurba_marseille","lat":43.31378,"lon":5.38497,"is_reserved":false,"is_disabled":false,"rental_uris":{"android":"levelo://app?vid=56663262-140e-42a6-8234-6b0704a795c5","ios":"levelo://app?vid=56663262-140e-42a6-8234-6b0704a795c5"},"vehicle_type_id":"4","last_reported":1748297389,"current_range_meters":7200,"station_id":"ce4bgt92rcd13ifvqcf0","pricing_plan_id":"cebpf4jnsgd1na2vs0mg"},{"bike_id":"f8df2e97-c68d-41bd-945a-99495cf612d7","system_id":"levelo_inurba_marseille","lat":43.23196,"lon":5.39967,"is_reserved":false,"is_disabled":false,"rental_uris":{"android":"levelo://app?vid=f8df2e97-c68d-41bd-945a-99495cf612d7","ios":"levelo://app?vid=f8df2e97-c68d-41bd-945a-99495cf612d7"},"vehicle_type_id":"4","last_reported":1748297389,"current_range_meters":7200,"station_id":"ce4bhn12rcd13ifvqgqg","pricing_plan_id":"cebpf4jnsgd1na2vs0mg"},{"bike_id":"02df8f1c-f2fa-44e6-b542-2b07f6d8c528","system_id":"levelo_inurba_marseille","lat":43.28074,"lon":5.39633,"is_reserved":false,"is_disabled":false,"rental_uris":{"android":"levelo://app?vid=02df8f1c-f2fa-44e6-b542-2b07f6d8c528","ios":"levelo://app?vid=02df8f1c-f2fa-44e6-b542-2b07f6d8c528"},"vehicle_type_id":"4","last_reported":1748297389,"current_range_meters":7200,"station_id":"ce4bho12rcd13ifvqh2g","pricing_plan_id":"cebpf4jnsgd1na2vs0mg"},{"bike_id":"efd698cb-2450-498f-9f0b-bfc662548e61","system_id":"levelo_inurba_marseille","lat":43.265643,"lon":5.403204,"is_reserved":false,"is_disabled":false,"rental_uris":{"android":"levelo://app?vid=efd698cb-2450-498f-9f0b-bfc662548e61","ios":"levelo://app?vid=efd698cb-2450-498f-9f0b-bfc662548e61"},"vehicle_type_id":"4","last_reported":1748297389,"current_range_meters":8000,"station_id":"","pricing_plan_id":"cebpf4jnsgd1na2vs0mg"},{"bike_id":"4ede7548-607a-495a-8b59-64db3f866d9f","system_id":"levelo_inurba_marseille","lat":43.28706,"lon":5.37391,"is_reserved":false,"is_disabled":false,"rental_uris":{"android":"levelo://app?vid=4ede7548-607a-495a-8b59-64db3f866d9f","ios":"levelo://app?vid=4ede7548-607a-495a-8b59-64db3f866d9f"},"vehicle_type_id":"4","last_reported":1748297389,"current_range_meters":8000,"station_id":"ce4bh3p2rcd13ifvqdq0","pricing_plan_id":"cebpf4jnsgd1na2vs0mg"},{"bike_id":"ed9f862b-b077-46c5-b196-9b4679e1c225","system_id":"levelo_inurba_marseille","lat":43.26226,"lon":5.4044,"is_reserved":false,"is_disabled":false,"rental_uris":{"android":"levelo://app?vid=ed9f862b-b077-46c5-b196-9b4679e1c225","ios":"levelo://app?vid=ed9f862b-b077-46c5-b196-9b4679e1c225"},"vehicle_type_id":"4","last_reported":1748297389,"current_range_meters":8000,"station_id":"ce4bhmh2rcd13ifvqgmg","pricing_plan_id":"cebpf4jnsgd1na2vs0mg"},{"bike_id":"8654a797-522d-48db-9c8f-3e52a37eb0a7","system_id":"levelo_inurba_marseille","lat":43.24666,"lon":5.38159,"is_reserved":false,"is_disabled":false,"rental_uris":{"android":"levelo://app?vid=8654a797-522d-48db-9c8f-3e52a37eb0a7","ios":"levelo://app?vid=8654a797-522d-48db-9c8f-3e52a37eb0a7"},"vehicle_type_id":"4","last_reported":1748297389,"current_range_meters":8000,"station_id":"","pricing_plan_id":"cebpf4jnsgd1na2vs0mg"},{"bike_id":"8933f504-972a-4945-8cc9-d579b5cf935a","system_id":"levelo_inurba_marseille","lat":43.28141,"lon":5.42643,"is_reserved":false,"is_disabled":false,"rental_uris":{"android":"levelo://app?vid=8933f504-972a-4945-8cc9-d579b5cf935a","ios":"levelo://app?vid=8933f504-972a-4945-8cc9-d579b5cf935a"},"vehicle_type_id":"4","last_reported":1748297389,"current_range_meters":8000,"station_id":"ce4bhnh2rcd13ifvqgug","pricing_plan_id":"cebpf4jnsgd1na2vs0mg"},{"bike_id":"d328b393-4635-4ce9-afd2-e36f2a11611e","system_id":"levelo_inurba_marseille","lat":43.26014,"lon":5.41739,"is_reserved":false,"is_disabled":false,"rental_uris":{"android":"levelo://app?vid=d328b393-4635-4ce9-afd2-e36f2a11611e","ios":"levelo://app?vid=d328b393-4635-4ce9-afd2-e36f2a11611e"},"vehicle_type_id":"4","last_reported":1748297389,"current_range_meters":8000,"station_id":"","pricing_plan_id":"cebpf4jnsgd1na2vs0mg"},{"bike_id":"c0429345-1950-4c92-8f1b-56ff400c1f9c","system_id":"levelo_inurba_marseille","lat":43.25497,"lon":5.37653,"is_reserved":false,"is_disabled":false,"rental_uris":{"android":"levelo://app?vid=c0429345-1950-4c92-8f1b-56ff400c1f9c","ios":"levelo://app?vid=c0429345-1950-4c92-8f1b-56ff400c1f9c"},"vehicle_type_id":"4","last_reported":1748297389,"current_range_meters":8000,"station_id":"ce4bhh12rcd13ifvqff0","pricing_plan_id":"cebpf4jnsgd1na2vs0mg"},{"bike_id":"fc56555b-396d-4667-b896-0ad86036e39e","system_id":"levelo_inurba_marseille","lat":43.25913,"lon":5.38026,"is_reserved":false,"is_disabled":false,"rental_uris":{"android":"levelo://app?vid=fc56555b-396d-4667-b896-0ad86036e39e","ios":"levelo://app?vid=fc56555b-396d-4667-b896-0ad86036e39e"},"vehicle_type_id":"4","last_reported":1748297389,"current_range_meters":8400,"station_id":"","pricing_plan_id":"cebpf4jnsgd1na2vs0mg"},{"bike_id":"3fad9f6c-d63e-429a-a4d4-9ca3ebe16f8b","system_id":"levelo_inurba_marseille","lat":43.27994,"lon":5.40018,"is_reserved":false,"is_disabled":false,"rental_uris":{"android":"levelo://app?vid=3fad9f6c-d63e-429a-a4d4-9ca3ebe16f8b","ios":"levelo://app?vid=3fad9f6c-d63e-429a-a4d4-9ca3ebe16f8b"},"vehicle_type_id":"4","last_reported":1748297389,"current_range_meters":8400,"station_id":"ce4bho92rcd13ifvqh4g","pricing_plan_id":"cebpf4jnsgd1na2vs0mg"},{"bike_id":"28694891-4d0f-4b6e-bc13-b3344cafed01","system_id":"levelo_inurba_marseille","lat":43.2841,"lon":5.37503,"is_reserved":false,"is_disabled":false,"rental_uris":{"android":"levelo://app?vid=28694891-4d0f-4b6e-bc13-b3344cafed01","ios":"levelo://app?vid=28694891-4d0f-4b6e-bc13-b3344cafed01"},"vehicle_type_id":"4","last_reported":1748297389,"current_range_meters":8400,"station_id":"ce4bh412rcd13ifvqds0","pricing_plan_id":"cebpf4jnsgd1na2vs0mg"},{"bike_id":"a4aef2b9-b7e8-4e2d-8340-592d28bc6c85","system_id":"levelo_inurba_marseille","lat":43.337654,"lon":5.37434,"is_reserved":false,"is_disabled":false,"rental_uris":{"android":"levelo://app?vid=a4aef2b9-b7e8-4e2d-8340-592d28bc6c85","ios":"levelo://app?vid=a4aef2b9-b7e8-4e2d-8340-592d28bc6c85"},"vehicle_type_id":"4","last_reported":1748297389,"current_range_meters":8400,"station_id":"","pricing_plan_id":"cebpf4jnsgd1na2vs0mg"},{"bike_id":"5f5e027c-a26c-49f4-a3e3-4811bc7be17a","system_id":"levelo_inurba_marseille","lat":43.29198,"lon":5.39317,"is_reserved":false,"is_disabled":false,"rental_uris":{"android":"levelo://app?vid=5f5e027c-a26c-49f4-a3e3-4811bc7be17a","ios":"levelo://app?vid=5f5e027c-a26c-49f4-a3e3-4811bc7be17a"},"vehicle_type_id":"4","last_reported":1748297389,"current_range_meters":8400,"station_id":"ce4bh192rcd13ifvqdd0","pricing_plan_id":"cebpf4jnsgd1na2vs0mg"},{"bike_id":"35617b76-5262-49cb-af3f-9a4bad24edc9","system_id":"levelo_inurba_marseille","lat":43.31483,"lon":5.37282,"is_reserved":false,"is_disabled":false,"rental_uris":{"android":"levelo://app?vid=35617b76-5262-49cb-af3f-9a4bad24edc9","ios":"levelo://app?vid=35617b76-5262-49cb-af3f-9a4bad24edc9"},"vehicle_type_id":"4","last_reported":1748297389,"current_range_meters":8400,"station_id":"ce4bgt12rcd13ifvqcd0","pricing_plan_id":"cebpf4jnsgd1na2vs0mg"},{"bike_id":"7f4ccda0-5315-4177-a4df-2ce6dea1abef","system_id":"levelo_inurba_marseille","lat":43.29267,"lon":5.40127,"is_reserved":false,"is_disabled":false,"rental_uris":{"android":"levelo://app?vid=7f4ccda0-5315-4177-a4df-2ce6dea1abef","ios":"levelo://app?vid=7f4ccda0-5315-4177-a4df-2ce6dea1abef"},"vehicle_type_id":"4","last_reported":1748297389,"current_range_meters":8000,"station_id":"ce4bh312rcd13ifvqdk0","pricing_plan_id":"cebpf4jnsgd1na2vs0mg"},{"bike_id":"9db12a7c-f305-4021-ace1-ab46a8630b4c","system_id":"levelo_inurba_marseille","lat":43.24667,"lon":5.38145,"is_reserved":false,"is_disabled":false,"rental_uris":{"android":"levelo://app?vid=9db12a7c-f305-4021-ace1-ab46a8630b4c","ios":"levelo://app?vid=9db12a7c-f305-4021-ace1-ab46a8630b4c"},"vehicle_type_id":"4","last_reported":1748297389,"current_range_meters":8400,"station_id":"ce4bhih2rcd13ifvqfr0","pricing_plan_id":"cebpf4jnsgd1na2vs0mg"},{"bike_id":"e52103db-e07c-4da0-b844-47011b170676","system_id":"levelo_inurba_marseille","lat":43.22497,"lon":5.34781,"is_reserved":false,"is_disabled":false,"rental_uris":{"android":"levelo://app?vid=e52103db-e07c-4da0-b844-47011b170676","ios":"levelo://app?vid=e52103db-e07c-4da0-b844-47011b170676"},"vehicle_type_id":"4","last_reported":1748297389,"current_range_meters":8800,"station_id":"st_cvj5dfep6f1abm77gieg","pricing_plan_id":"cebpf4jnsgd1na2vs0mg"},{"bike_id":"a3fdfab4-cb8b-4639-a8f9-ac99f398c758","system_id":"levelo_inurba_marseille","lat":43.24178,"lon":5.36388,"is_reserved":false,"is_disabled":false,"rental_uris":{"android":"levelo://app?vid=a3fdfab4-cb8b-4639-a8f9-ac99f398c758","ios":"levelo://app?vid=a3fdfab4-cb8b-4639-a8f9-ac99f398c758"},"vehicle_type_id":"4","last_reported":1748297389,"current_range_meters":8800,"station_id":"cpo36qri1sfpv3e86is0","pricing_plan_id":"cebpf4jnsgd1na2vs0mg"},{"bike_id":"b744080c-dd77-486d-9609-00c9cf60c1ad","system_id":"levelo_inurba_marseille","lat":43.23614,"lon":5.39189,"is_reserved":false,"is_disabled":false,"rental_uris":{"android":"levelo://app?vid=b744080c-dd77-486d-9609-00c9cf60c1ad","ios":"levelo://app?vid=b744080c-dd77-486d-9609-00c9cf60c1ad"},"vehicle_type_id":"4","last_reported":1748297389,"current_range_meters":8800,"station_id":"","pricing_plan_id":"cebpf4jnsgd1na2vs0mg"},{"bike_id":"6a4612f8-d511-472f-9784-e69bac545256","system_id":"levelo_inurba_marseille","lat":43.29016,"lon":5.36629,"is_reserved":false,"is_disabled":false,"rental_uris":{"android":"levelo://app?vid=6a4612f8-d511-472f-9784-e69bac545256","ios":"levelo://app?vid=6a4612f8-d511-472f-9784-e69bac545256"},"vehicle_type_id":"4","last_reported":1748297389,"current_range_meters":8800,"station_id":"","pricing_plan_id":"cebpf4jnsgd1na2vs0mg"},{"bike_id":"ef711df4-fd37-40e3-9d0a-5d5c69591358","system_id":"levelo_inurba_marseille","lat":43.28462,"lon":5.35879,"is_reserved":false,"is_disabled":false,"rental_uris":{"android":"levelo://app?vid=ef711df4-fd37-40e3-9d0a-5d5c69591358","ios":"levelo://app?vid=ef711df4-fd37-40e3-9d0a-5d5c69591358"},"vehicle_type_id":"4","last_reported":1748297389,"current_range_meters":8400,"station_id":"ce4bhah2rcd13ifvqei0","pricing_plan_id":"cebpf4jnsgd1na2vs0mg"},{"bike_id":"761918e0-d6a0-4f40-96ce-babda69bc7f4","system_id":"levelo_inurba_marseille","lat":43.22926,"lon":5.35378,"is_reserved":false,"is_disabled":false,"rental_uris":{"android":"levelo://app?vid=761918e0-d6a0-4f40-96ce-babda69bc7f4","ios":"levelo://app?vid=761918e0-d6a0-4f40-96ce-babda69bc7f4"},"vehicle_type_id":"4","last_reported":1748297389,"current_range_meters":9200,"station_id":"cpo3532slgdg3j2ikp40","pricing_plan_id":"cebpf4jnsgd1na2vs0mg"},{"bike_id":"3d36385e-6608-4e0d-a92b-f085c63ec232","system_id":"levelo_inurba_marseille","lat":43.25088,"lon":5.39524,"is_reserved":false,"is_disabled":false,"rental_uris":{"android":"levelo://app?vid=3d36385e-6608-4e0d-a92b-f085c63ec232","ios":"levelo://app?vid=3d36385e-6608-4e0d-a92b-f085c63ec232"},"vehicle_type_id":"4","last_reported":1748297389,"current_range_meters":9200,"station_id":"ce4bhm12rcd13ifvqgkg","pricing_plan_id":"cebpf4jnsgd1na2vs0mg"},{"bike_id":"5b8242bd-9bcd-4597-986a-acc667f28c0e","system_id":"levelo_inurba_marseille","lat":43.27915,"lon":5.39592,"is_reserved":false,"is_disabled":false,"rental_uris":{"android":"levelo://app?vid=5b8242bd-9bcd-4597-986a-acc667f28c0e","ios":"levelo://app?vid=5b8242bd-9bcd-4597-986a-acc667f28c0e"},"vehicle_type_id":"4","last_reported":1748297389,"current_range_meters":9200,"station_id":"ce4bhf92rcd13ifvqf40","pricing_plan_id":"cebpf4jnsgd1na2vs0mg"},{"bike_id":"22713c7e-979e-4e3e-bf98-87b0a620c5d3","system_id":"levelo_inurba_marseille","lat":43.23963,"lon":5.3664,"is_reserved":false,"is_disabled":false,"rental_uris":{"android":"levelo://app?vid=22713c7e-979e-4e3e-bf98-87b0a620c5d3","ios":"levelo://app?vid=22713c7e-979e-4e3e-bf98-87b0a620c5d3"},"vehicle_type_id":"4","last_reported":1748297389,"current_range_meters":9600,"station_id":"ce4bhi12rcd13ifvqfp0","pricing_plan_id":"cebpf4jnsgd1na2vs0mg"},{"bike_id":"f64ba4f8-d209-4eb7-9888-c25c1b50b4e6","system_id":"levelo_inurba_marseille","lat":43.319958,"lon":5.381603,"is_reserved":false,"is_disabled":false,"rental_uris":{"android":"levelo://app?vid=f64ba4f8-d209-4eb7-9888-c25c1b50b4e6","ios":"levelo://app?vid=f64ba4f8-d209-4eb7-9888-c25c1b50b4e6"},"vehicle_type_id":"4","last_reported":1748297389,"current_range_meters":9200,"station_id":"ce4bhr12rcd13ifvqhpg","pricing_plan_id":"cebpf4jnsgd1na2vs0mg"},{"bike_id":"2d5ce439-59fc-4ccb-9f0f-59b7b5fac3b7","system_id":"levelo_inurba_marseille","lat":43.28082,"lon":5.39661,"is_reserved":false,"is_disabled":false,"rental_uris":{"android":"levelo://app?vid=2d5ce439-59fc-4ccb-9f0f-59b7b5fac3b7","ios":"levelo://app?vid=2d5ce439-59fc-4ccb-9f0f-59b7b5fac3b7"},"vehicle_type_id":"4","last_reported":1748297389,"current_range_meters":9600,"station_id":"ce4bho12rcd13ifvqh2g","pricing_plan_id":"cebpf4jnsgd1na2vs0mg"},{"bike_id":"bc4aaef5-8456-47cd-8995-f8028b16a6a6","system_id":"levelo_inurba_marseille","lat":43.30412,"lon":5.4128,"is_reserved":false,"is_disabled":true,"rental_uris":{"android":"levelo://app?vid=bc4aaef5-8456-47cd-8995-f8028b16a6a6","ios":"levelo://app?vid=bc4aaef5-8456-47cd-8995-f8028b16a6a6"},"vehicle_type_id":"4","last_reported":1748297389,"current_range_meters":9600,"station_id":"ce4bhop2rcd13ifvqh8g","pricing_plan_id":"cebpf4jnsgd1na2vs0mg"},{"bike_id":"bc5719dd-b048-4b59-87d0-2879037b9b7a","system_id":"levelo_inurba_marseille","lat":43.31035,"lon":5.38332,"is_reserved":false,"is_disabled":false,"rental_uris":{"android":"levelo://app?vid=bc5719dd-b048-4b59-87d0-2879037b9b7a","ios":"levelo://app?vid=bc5719dd-b048-4b59-87d0-2879037b9b7a"},"vehicle_type_id":"4","last_reported":1748297389,"current_range_meters":9600,"station_id":"","pricing_plan_id":"cebpf4jnsgd1na2vs0mg"},{"bike_id":"ed07ce6b-31e2-44a8-ab3d-e41a73c2edd3","system_id":"levelo_inurba_marseille","lat":43.3266,"lon":5.41015,"is_reserved":false,"is_disabled":false,"rental_uris":{"android":"levelo://app?vid=ed07ce6b-31e2-44a8-ab3d-e41a73c2edd3","ios":"levelo://app?vid=ed07ce6b-31e2-44a8-ab3d-e41a73c2edd3"},"vehicle_type_id":"4","last_reported":1748297389,"current_range_meters":9600,"station_id":"ce4bhpp2rcd13ifvqhgg","pricing_plan_id":"cebpf4jnsgd1na2vs0mg"},{"bike_id":"79dd297a-6b7b-4da2-8f90-4107daef3c4c","system_id":"levelo_inurba_marseille","lat":43.30925,"lon":5.40145,"is_reserved":false,"is_disabled":false,"rental_uris":{"android":"levelo://app?vid=79dd297a-6b7b-4da2-8f90-4107daef3c4c","ios":"levelo://app?vid=79dd297a-6b7b-4da2-8f90-4107daef3c4c"},"vehicle_type_id":"4","last_reported":1748297389,"current_range_meters":9600,"station_id":"ce4bgvp2rcd13ifvqct0","pricing_plan_id":"cebpf4jnsgd1na2vs0mg"},{"bike_id":"81bfe676-8165-48d9-ac4d-fe22bb01d5f6","system_id":"levelo_inurba_marseille","lat":43.26027,"lon":5.37552,"is_reserved":false,"is_disabled":false,"rental_uris":{"android":"levelo://app?vid=81bfe676-8165-48d9-ac4d-fe22bb01d5f6","ios":"levelo://app?vid=81bfe676-8165-48d9-ac4d-fe22bb01d5f6"},"vehicle_type_id":"4","last_reported":1748297389,"current_range_meters":9200,"station_id":"ce4bhgh2rcd13ifvqfa0","pricing_plan_id":"cebpf4jnsgd1na2vs0mg"},{"bike_id":"2c383264-5850-454e-9a68-e9c77a654873","system_id":"levelo_inurba_marseille","lat":43.27318,"lon":5.39096,"is_reserved":false,"is_disabled":false,"rental_uris":{"android":"levelo://app?vid=2c383264-5850-454e-9a68-e9c77a654873","ios":"levelo://app?vid=2c383264-5850-454e-9a68-e9c77a654873"},"vehicle_type_id":"4","last_reported":1748297389,"current_range_meters":9600,"station_id":"ce4bhgp2rcd13ifvqfe0","pricing_plan_id":"cebpf4jnsgd1na2vs0mg"},{"bike_id":"442fcdad-1c00-4529-940f-8b3aea4ccad4","system_id":"levelo_inurba_marseille","lat":43.32039,"lon":5.41559,"is_reserved":false,"is_disabled":false,"rental_uris":{"android":"levelo://app?vid=442fcdad-1c00-4529-940f-8b3aea4ccad4","ios":"levelo://app?vid=442fcdad-1c00-4529-940f-8b3aea4ccad4"},"vehicle_type_id":"4","last_reported":1748297389,"current_range_meters":9600,"station_id":"ce4bhq92rcd13ifvqhkg","pricing_plan_id":"cebpf4jnsgd1na2vs0mg"},{"bike_id":"9ea0d084-b7dd-4cae-8983-9385691118e8","system_id":"levelo_inurba_marseille","lat":43.31875,"lon":5.40716,"is_reserved":false,"is_disabled":false,"rental_uris":{"android":"levelo://app?vid=9ea0d084-b7dd-4cae-8983-9385691118e8","ios":"levelo://app?vid=9ea0d084-b7dd-4cae-8983-9385691118e8"},"vehicle_type_id":"4","last_reported":1748297389,"current_range_meters":10000,"station_id":"ce4bhq12rcd13ifvqhig","pricing_plan_id":"cebpf4jnsgd1na2vs0mg"},{"bike_id":"e6af14d5-dd9c-4759-abab-581b91a61bef","system_id":"levelo_inurba_marseille","lat":43.30098,"lon":5.39082,"is_reserved":false,"is_disabled":false,"rental_uris":{"android":"levelo://app?vid=e6af14d5-dd9c-4759-abab-581b91a61bef","ios":"levelo://app?vid=e6af14d5-dd9c-4759-abab-581b91a61bef"},"vehicle_type_id":"4","last_reported":1748297389,"current_range_meters":10000,"station_id":"ce4bh192rcd13ifvqdb0","pricing_plan_id":"cebpf4jnsgd1na2vs0mg"},{"bike_id":"ed98a655-9096-4e4c-a062-cebf79c9c208","system_id":"levelo_inurba_marseille","lat":43.28452,"lon":5.37546,"is_reserved":false,"is_disabled":false,"rental_uris":{"android":"levelo://app?vid=ed98a655-9096-4e4c-a062-cebf79c9c208","ios":"levelo://app?vid=ed98a655-9096-4e4c-a062-cebf79c9c208"},"vehicle_type_id":"4","last_reported":1748297389,"current_range_meters":10000,"station_id":"","pricing_plan_id":"cebpf4jnsgd1na2vs0mg"},{"bike_id":"0ed47661-9f65-43af-a2ec-bf204a69b6f9","system_id":"levelo_inurba_marseille","lat":43.30725,"lon":5.42426,"is_reserved":false,"is_disabled":false,"rental_uris":{"android":"levelo://app?vid=0ed47661-9f65-43af-a2ec-bf204a69b6f9","ios":"levelo://app?vid=0ed47661-9f65-43af-a2ec-bf204a69b6f9"},"vehicle_type_id":"4","last_reported":1748297389,"current_range_meters":10000,"station_id":"st_cvj6ca6bvosntc0bfgr0","pricing_plan_id":"cebpf4jnsgd1na2vs0mg"},{"bike_id":"4661e59f-4017-457b-8d40-084f59302350","system_id":"levelo_inurba_marseille","lat":43.23181,"lon":5.3999,"is_reserved":false,"is_disabled":false,"rental_uris":{"android":"levelo://app?vid=4661e59f-4017-457b-8d40-084f59302350","ios":"levelo://app?vid=4661e59f-4017-457b-8d40-084f59302350"},"vehicle_type_id":"4","last_reported":1748297389,"current_range_meters":10000,"station_id":"ce4bhn12rcd13ifvqgqg","pricing_plan_id":"cebpf4jnsgd1na2vs0mg"},{"bike_id":"1d3cf82b-b1bb-4ea7-8517-bccd7ba91fe3","system_id":"levelo_inurba_marseille","lat":43.30923,"lon":5.40133,"is_reserved":false,"is_disabled":true,"rental_uris":{"android":"levelo://app?vid=1d3cf82b-b1bb-4ea7-8517-bccd7ba91fe3","ios":"levelo://app?vid=1d3cf82b-b1bb-4ea7-8517-bccd7ba91fe3"},"vehicle_type_id":"4","last_reported":1748297389,"current_range_meters":10000,"station_id":"ce4bgvp2rcd13ifvqct0","pricing_plan_id":"cebpf4jnsgd1na2vs0mg"},{"bike_id":"c86b0378-612d-464b-9058-5d13e8c375b2","system_id":"levelo_inurba_marseille","lat":43.29259,"lon":5.40906,"is_reserved":false,"is_disabled":false,"rental_uris":{"android":"levelo://app?vid=c86b0378-612d-464b-9058-5d13e8c375b2","ios":"levelo://app?vid=c86b0378-612d-464b-9058-5d13e8c375b2"},"vehicle_type_id":"4","last_reported":1748297389,"current_range_meters":10000,"station_id":"ce4bh192rcd13ifvqdc0","pricing_plan_id":"cebpf4jnsgd1na2vs0mg"},{"bike_id":"93892bad-5609-48c9-847c-1cd9bf3a21f5","system_id":"levelo_inurba_marseille","lat":43.275607,"lon":5.384192,"is_reserved":false,"is_disabled":false,"rental_uris":{"android":"levelo://app?vid=93892bad-5609-48c9-847c-1cd9bf3a21f5","ios":"levelo://app?vid=93892bad-5609-48c9-847c-1cd9bf3a21f5"},"vehicle_type_id":"4","last_reported":1748297389,"current_range_meters":10000,"station_id":"ce4bhh92rcd13ifvqfi0","pricing_plan_id":"cebpf4jnsgd1na2vs0mg"},{"bike_id":"46c33fe8-d5ac-4215-a39c-82c65d54a3df","system_id":"levelo_inurba_marseille","lat":43.25867,"lon":5.39896,"is_reserved":false,"is_disabled":false,"rental_uris":{"android":"levelo://app?vid=46c33fe8-d5ac-4215-a39c-82c65d54a3df","ios":"levelo://app?vid=46c33fe8-d5ac-4215-a39c-82c65d54a3df"},"vehicle_type_id":"4","last_reported":1748297389,"current_range_meters":10000,"station_id":"ce4bhl92rcd13ifvqghg","pricing_plan_id":"cebpf4jnsgd1na2vs0mg"},{"bike_id":"1a0998e5-8bb9-474f-a827-53cad24c9e8f","system_id":"levelo_inurba_marseille","lat":43.32025,"lon":5.44942,"is_reserved":false,"is_disabled":false,"rental_uris":{"android":"levelo://app?vid=1a0998e5-8bb9-474f-a827-53cad24c9e8f","ios":"levelo://app?vid=1a0998e5-8bb9-474f-a827-53cad24c9e8f"},"vehicle_type_id":"4","last_reported":1748297389,"current_range_meters":10800,"station_id":"","pricing_plan_id":"cebpf4jnsgd1na2vs0mg"},{"bike_id":"a8d44000-3055-4537-8fcb-31ce7182d38a","system_id":"levelo_inurba_marseille","lat":43.30185,"lon":5.3661,"is_reserved":false,"is_disabled":false,"rental_uris":{"android":"levelo://app?vid=a8d44000-3055-4537-8fcb-31ce7182d38a","ios":"levelo://app?vid=a8d44000-3055-4537-8fcb-31ce7182d38a"},"vehicle_type_id":"4","last_reported":1748297389,"current_range_meters":10000,"station_id":"ce4bgrh2rcd13ifvqc8g","pricing_plan_id":"cebpf4jnsgd1na2vs0mg"},{"bike_id":"e4664dbd-41ab-4c82-89d7-da46376c622e","system_id":"levelo_inurba_marseille","lat":43.30931,"lon":5.40155,"is_reserved":false,"is_disabled":false,"rental_uris":{"android":"levelo://app?vid=e4664dbd-41ab-4c82-89d7-da46376c622e","ios":"levelo://app?vid=e4664dbd-41ab-4c82-89d7-da46376c622e"},"vehicle_type_id":"4","last_reported":1748297389,"current_range_meters":10800,"station_id":"ce4bgvp2rcd13ifvqct0","pricing_plan_id":"cebpf4jnsgd1na2vs0mg"},{"bike_id":"6050b4b8-1656-461b-a39d-e6025c491b23","system_id":"levelo_inurba_marseille","lat":43.280778,"lon":5.396405,"is_reserved":false,"is_disabled":false,"rental_uris":{"android":"levelo://app?vid=6050b4b8-1656-461b-a39d-e6025c491b23","ios":"levelo://app?vid=6050b4b8-1656-461b-a39d-e6025c491b23"},"vehicle_type_id":"4","last_reported":1748297389,"current_range_meters":10800,"station_id":"ce4bho12rcd13ifvqh2g","pricing_plan_id":"cebpf4jnsgd1na2vs0mg"},{"bike_id":"e307dd77-ee34-42b2-a12d-76892d9afdc7","system_id":"levelo_inurba_marseille","lat":43.30785,"lon":5.38165,"is_reserved":false,"is_disabled":false,"rental_uris":{"android":"levelo://app?vid=e307dd77-ee34-42b2-a12d-76892d9afdc7","ios":"levelo://app?vid=e307dd77-ee34-42b2-a12d-76892d9afdc7"},"vehicle_type_id":"4","last_reported":1748297389,"current_range_meters":10800,"station_id":"ce4bgt12rcd13ifvqce0","pricing_plan_id":"cebpf4jnsgd1na2vs0mg"},{"bike_id":"ae6e6868-2635-4f49-b7c1-b03759c58ec7","system_id":"levelo_inurba_marseille","lat":43.27284,"lon":5.41592,"is_reserved":false,"is_disabled":false,"rental_uris":{"android":"levelo://app?vid=ae6e6868-2635-4f49-b7c1-b03759c58ec7","ios":"levelo://app?vid=ae6e6868-2635-4f49-b7c1-b03759c58ec7"},"vehicle_type_id":"4","last_reported":1748297389,"current_range_meters":10800,"station_id":"","pricing_plan_id":"cebpf4jnsgd1na2vs0mg"},{"bike_id":"cb6223a8-3665-4e80-866a-77bc46f735a5","system_id":"levelo_inurba_marseille","lat":43.29621,"lon":5.40612,"is_reserved":false,"is_disabled":false,"rental_uris":{"android":"levelo://app?vid=cb6223a8-3665-4e80-866a-77bc46f735a5","ios":"levelo://app?vid=cb6223a8-3665-4e80-866a-77bc46f735a5"},"vehicle_type_id":"4","last_reported":1748297389,"current_range_meters":10800,"station_id":"ce4bh0h2rcd13ifvqd60","pricing_plan_id":"cebpf4jnsgd1na2vs0mg"},{"bike_id":"1bb30731-d226-448d-aeb2-9d0607a380f9","system_id":"levelo_inurba_marseille","lat":43.255,"lon":5.37636,"is_reserved":false,"is_disabled":true,"rental_uris":{"android":"levelo://app?vid=1bb30731-d226-448d-aeb2-9d0607a380f9","ios":"levelo://app?vid=1bb30731-d226-448d-aeb2-9d0607a380f9"},"vehicle_type_id":"4","last_reported":1748297389,"current_range_meters":10800,"station_id":"ce4bhh12rcd13ifvqff0","pricing_plan_id":"cebpf4jnsgd1na2vs0mg"},{"bike_id":"105849da-5a2f-4eda-9c36-1906963bc3d4","system_id":"levelo_inurba_marseille","lat":43.26559,"lon":5.40323,"is_reserved":false,"is_disabled":false,"rental_uris":{"android":"levelo://app?vid=105849da-5a2f-4eda-9c36-1906963bc3d4","ios":"levelo://app?vid=105849da-5a2f-4eda-9c36-1906963bc3d4"},"vehicle_type_id":"4","last_reported":1748297389,"current_range_meters":10800,"station_id":"","pricing_plan_id":"cebpf4jnsgd1na2vs0mg"},{"bike_id":"1c6a9156-a9c5-4cb1-aa63-c10c60fc3f73","system_id":"levelo_inurba_marseille","lat":43.254969,"lon":5.37649,"is_reserved":false,"is_disabled":false,"rental_uris":{"android":"levelo://app?vid=1c6a9156-a9c5-4cb1-aa63-c10c60fc3f73","ios":"levelo://app?vid=1c6a9156-a9c5-4cb1-aa63-c10c60fc3f73"},"vehicle_type_id":"4","last_reported":1748297389,"current_range_meters":10800,"station_id":"","pricing_plan_id":"cebpf4jnsgd1na2vs0mg"},{"bike_id":"5f3cb704-419b-4cc2-87d6-50852ec3fe2c","system_id":"levelo_inurba_marseille","lat":43.301,"lon":5.39078,"is_reserved":false,"is_disabled":false,"rental_uris":{"android":"levelo://app?vid=5f3cb704-419b-4cc2-87d6-50852ec3fe2c","ios":"levelo://app?vid=5f3cb704-419b-4cc2-87d6-50852ec3fe2c"},"vehicle_type_id":"4","last_reported":1748297389,"current_range_meters":10800,"station_id":"ce4bh192rcd13ifvqdb0","pricing_plan_id":"cebpf4jnsgd1na2vs0mg"},{"bike_id":"99b469f2-c364-4159-9d35-9a1121c1578f","system_id":"levelo_inurba_marseille","lat":43.31562,"lon":5.383488,"is_reserved":false,"is_disabled":false,"rental_uris":{"android":"levelo://app?vid=99b469f2-c364-4159-9d35-9a1121c1578f","ios":"levelo://app?vid=99b469f2-c364-4159-9d35-9a1121c1578f"},"vehicle_type_id":"4","last_reported":1748297389,"current_range_meters":10800,"station_id":"","pricing_plan_id":"cebpf4jnsgd1na2vs0mg"},{"bike_id":"b45a36a2-4ffd-4ba2-a87d-596641c91d62","system_id":"levelo_inurba_marseille","lat":43.27994,"lon":5.39996,"is_reserved":false,"is_disabled":false,"rental_uris":{"android":"levelo://app?vid=b45a36a2-4ffd-4ba2-a87d-596641c91d62","ios":"levelo://app?vid=b45a36a2-4ffd-4ba2-a87d-596641c91d62"},"vehicle_type_id":"4","last_reported":1748297389,"current_range_meters":10800,"station_id":"ce4bho92rcd13ifvqh4g","pricing_plan_id":"cebpf4jnsgd1na2vs0mg"},{"bike_id":"8a45606e-2096-4a22-88d7-26c191e9986d","system_id":"levelo_inurba_marseille","lat":43.33024,"lon":5.39031,"is_reserved":false,"is_disabled":false,"rental_uris":{"android":"levelo://app?vid=8a45606e-2096-4a22-88d7-26c191e9986d","ios":"levelo://app?vid=8a45606e-2096-4a22-88d7-26c191e9986d"},"vehicle_type_id":"4","last_reported":1748297389,"current_range_meters":11200,"station_id":"ce4bhr92rcd13ifvqhrg","pricing_plan_id":"cebpf4jnsgd1na2vs0mg"},{"bike_id":"cc519638-179c-4e87-b002-76940024b6a5","system_id":"levelo_inurba_marseille","lat":43.29524,"lon":5.39024,"is_reserved":false,"is_disabled":false,"rental_uris":{"android":"levelo://app?vid=cc519638-179c-4e87-b002-76940024b6a5","ios":"levelo://app?vid=cc519638-179c-4e87-b002-76940024b6a5"},"vehicle_type_id":"4","last_reported":1748297389,"current_range_meters":11200,"station_id":"ce4bh3p2rcd13ifvqdp0","pricing_plan_id":"cebpf4jnsgd1na2vs0mg"},{"bike_id":"2375035a-2cd5-4b4b-a46a-292605bb3c00","system_id":"levelo_inurba_marseille","lat":43.28974,"lon":5.37839,"is_reserved":false,"is_disabled":true,"rental_uris":{"android":"levelo://app?vid=2375035a-2cd5-4b4b-a46a-292605bb3c00","ios":"levelo://app?vid=2375035a-2cd5-4b4b-a46a-292605bb3c00"},"vehicle_type_id":"4","last_reported":1748297389,"current_range_meters":11200,"station_id":"ce4bh9p2rcd13ifvqed0","pricing_plan_id":"cebpf4jnsgd1na2vs0mg"},{"bike_id":"0e81aec5-085b-4050-80db-ca26f6d8f4b3","system_id":"levelo_inurba_marseille","lat":43.28943,"lon":5.36638,"is_reserved":false,"is_disabled":false,"rental_uris":{"android":"levelo://app?vid=0e81aec5-085b-4050-80db-ca26f6d8f4b3","ios":"levelo://app?vid=0e81aec5-085b-4050-80db-ca26f6d8f4b3"},"vehicle_type_id":"4","last_reported":1748297389,"current_range_meters":11600,"station_id":"ce4bhap2rcd13ifvqek0","pricing_plan_id":"cebpf4jnsgd1na2vs0mg"},{"bike_id":"005b921c-a881-478a-9b2a-1d5ec799e28d","system_id":"levelo_inurba_marseille","lat":43.30324,"lon":5.40436,"is_reserved":false,"is_disabled":false,"rental_uris":{"android":"levelo://app?vid=005b921c-a881-478a-9b2a-1d5ec799e28d","ios":"levelo://app?vid=005b921c-a881-478a-9b2a-1d5ec799e28d"},"vehicle_type_id":"4","last_reported":1748297389,"current_range_meters":11600,"station_id":"ce4bh012rcd13ifvqd10","pricing_plan_id":"cebpf4jnsgd1na2vs0mg"},{"bike_id":"60a07c89-86f5-4d2c-b18b-c0310403b2a4","system_id":"levelo_inurba_marseille","lat":43.30802,"lon":5.3816,"is_reserved":false,"is_disabled":false,"rental_uris":{"android":"levelo://app?vid=60a07c89-86f5-4d2c-b18b-c0310403b2a4","ios":"levelo://app?vid=60a07c89-86f5-4d2c-b18b-c0310403b2a4"},"vehicle_type_id":"4","last_reported":1748297389,"current_range_meters":11600,"station_id":"ce4bgt12rcd13ifvqce0","pricing_plan_id":"cebpf4jnsgd1na2vs0mg"},{"bike_id":"4f2fbb61-0265-4279-a921-aad24150de58","system_id":"levelo_inurba_marseille","lat":43.29003,"lon":5.3562,"is_reserved":false,"is_disabled":true,"rental_uris":{"android":"levelo://app?vid=4f2fbb61-0265-4279-a921-aad24150de58","ios":"levelo://app?vid=4f2fbb61-0265-4279-a921-aad24150de58"},"vehicle_type_id":"4","last_reported":1748297389,"current_range_meters":11600,"station_id":"ce4bhb92rcd13ifvqen0","pricing_plan_id":"cebpf4jnsgd1na2vs0mg"},{"bike_id":"709938de-db66-4530-abeb-1186bca9d7a6","system_id":"levelo_inurba_marseille","lat":43.275577,"lon":5.383987,"is_reserved":false,"is_disabled":false,"rental_uris":{"android":"levelo://app?vid=709938de-db66-4530-abeb-1186bca9d7a6","ios":"levelo://app?vid=709938de-db66-4530-abeb-1186bca9d7a6"},"vehicle_type_id":"4","last_reported":1748297389,"current_range_meters":11600,"station_id":"ce4bhh92rcd13ifvqfi0","pricing_plan_id":"cebpf4jnsgd1na2vs0mg"},{"bike_id":"6ef09059-811f-473d-b727-a31a61c2b492","system_id":"levelo_inurba_marseille","lat":43.25493,"lon":5.37647,"is_reserved":false,"is_disabled":false,"rental_uris":{"android":"levelo://app?vid=6ef09059-811f-473d-b727-a31a61c2b492","ios":"levelo://app?vid=6ef09059-811f-473d-b727-a31a61c2b492"},"vehicle_type_id":"4","last_reported":1748297389,"current_range_meters":11200,"station_id":"ce4bhh12rcd13ifvqff0","pricing_plan_id":"cebpf4jnsgd1na2vs0mg"},{"bike_id":"ff89b0f2-e4ab-4751-8a53-f4a0b7e787d3","system_id":"levelo_inurba_marseille","lat":43.312332,"lon":5.368546,"is_reserved":false,"is_disabled":false,"rental_uris":{"android":"levelo://app?vid=ff89b0f2-e4ab-4751-8a53-f4a0b7e787d3","ios":"levelo://app?vid=ff89b0f2-e4ab-4751-8a53-f4a0b7e787d3"},"vehicle_type_id":"4","last_reported":1748297389,"current_range_meters":11600,"station_id":"ce4bgl92rcd13ifvqbq0","pricing_plan_id":"cebpf4jnsgd1na2vs0mg"},{"bike_id":"2fa4782a-15b3-43f5-b33e-b6a18d8bde44","system_id":"levelo_inurba_marseille","lat":43.26205,"lon":5.37436,"is_reserved":false,"is_disabled":false,"rental_uris":{"android":"levelo://app?vid=2fa4782a-15b3-43f5-b33e-b6a18d8bde44","ios":"levelo://app?vid=2fa4782a-15b3-43f5-b33e-b6a18d8bde44"},"vehicle_type_id":"4","last_reported":1748297389,"current_range_meters":10000,"station_id":"ce4bhgp2rcd13ifvqfc0","pricing_plan_id":"cebpf4jnsgd1na2vs0mg"},{"bike_id":"5c1f1456-df53-4e92-aa3b-04d202d2cfba","system_id":"levelo_inurba_marseille","lat":43.24677,"lon":5.38145,"is_reserved":false,"is_disabled":false,"rental_uris":{"android":"levelo://app?vid=5c1f1456-df53-4e92-aa3b-04d202d2cfba","ios":"levelo://app?vid=5c1f1456-df53-4e92-aa3b-04d202d2cfba"},"vehicle_type_id":"4","last_reported":1748297389,"current_range_meters":12000,"station_id":"ce4bhih2rcd13ifvqfr0","pricing_plan_id":"cebpf4jnsgd1na2vs0mg"},{"bike_id":"42468a61-16bf-4710-9b9b-05de4aa301eb","system_id":"levelo_inurba_marseille","lat":43.26802,"lon":5.40253,"is_reserved":false,"is_disabled":false,"rental_uris":{"android":"levelo://app?vid=42468a61-16bf-4710-9b9b-05de4aa301eb","ios":"levelo://app?vid=42468a61-16bf-4710-9b9b-05de4aa301eb"},"vehicle_type_id":"4","last_reported":1748297389,"current_range_meters":12000,"station_id":"ce501612rcd8frsf0b60","pricing_plan_id":"cebpf4jnsgd1na2vs0mg"},{"bike_id":"e03a0d5e-b227-420d-969f-f1f548321079","system_id":"levelo_inurba_marseille","lat":43.28938,"lon":5.36625,"is_reserved":false,"is_disabled":false,"rental_uris":{"android":"levelo://app?vid=e03a0d5e-b227-420d-969f-f1f548321079","ios":"levelo://app?vid=e03a0d5e-b227-420d-969f-f1f548321079"},"vehicle_type_id":"4","last_reported":1748297389,"current_range_meters":12000,"station_id":"ce4bhap2rcd13ifvqek0","pricing_plan_id":"cebpf4jnsgd1na2vs0mg"},{"bike_id":"91fa7000-24bd-4a2b-9c8b-278cf8b7cc00","system_id":"levelo_inurba_marseille","lat":43.31082,"lon":5.42439,"is_reserved":false,"is_disabled":false,"rental_uris":{"android":"levelo://app?vid=91fa7000-24bd-4a2b-9c8b-278cf8b7cc00","ios":"levelo://app?vid=91fa7000-24bd-4a2b-9c8b-278cf8b7cc00"},"vehicle_type_id":"4","last_reported":1748297389,"current_range_meters":12000,"station_id":"ce4bhp92rcd13ifvqhag","pricing_plan_id":"cebpf4jnsgd1na2vs0mg"},{"bike_id":"06357a04-3c6d-4c3d-9e5e-c3887619bbf4","system_id":"levelo_inurba_marseille","lat":43.28416,"lon":5.37521,"is_reserved":false,"is_disabled":false,"rental_uris":{"android":"levelo://app?vid=06357a04-3c6d-4c3d-9e5e-c3887619bbf4","ios":"levelo://app?vid=06357a04-3c6d-4c3d-9e5e-c3887619bbf4"},"vehicle_type_id":"4","last_reported":1748297389,"current_range_meters":12000,"station_id":"ce4bh412rcd13ifvqds0","pricing_plan_id":"cebpf4jnsgd1na2vs0mg"},{"bike_id":"8fcd5efc-6742-48af-bb84-6a1aadcc08c8","system_id":"levelo_inurba_marseille","lat":43.2847,"lon":5.35882,"is_reserved":false,"is_disabled":true,"rental_uris":{"android":"levelo://app?vid=8fcd5efc-6742-48af-bb84-6a1aadcc08c8","ios":"levelo://app?vid=8fcd5efc-6742-48af-bb84-6a1aadcc08c8"},"vehicle_type_id":"4","last_reported":1748297389,"current_range_meters":12400,"station_id":"ce4bhah2rcd13ifvqei0","pricing_plan_id":"cebpf4jnsgd1na2vs0mg"},{"bike_id":"99590cba-d2da-47f1-b9b9-152598e481de","system_id":"levelo_inurba_marseille","lat":43.29772,"lon":5.37116,"is_reserved":false,"is_disabled":true,"rental_uris":{"android":"levelo://app?vid=99590cba-d2da-47f1-b9b9-152598e481de","ios":"levelo://app?vid=99590cba-d2da-47f1-b9b9-152598e481de"},"vehicle_type_id":"4","last_reported":1748297389,"current_range_meters":12400,"station_id":"ce4bgop2rcd13ifvqc1g","pricing_plan_id":"cebpf4jnsgd1na2vs0mg"},{"bike_id":"7e3fffbc-5a0f-4ece-b481-63e40e5aabfe","system_id":"levelo_inurba_marseille","lat":43.33738,"lon":5.39182,"is_reserved":false,"is_disabled":false,"rental_uris":{"android":"levelo://app?vid=7e3fffbc-5a0f-4ece-b481-63e40e5aabfe","ios":"levelo://app?vid=7e3fffbc-5a0f-4ece-b481-63e40e5aabfe"},"vehicle_type_id":"4","last_reported":1748297389,"current_range_meters":12400,"station_id":"ce4bhr92rcd13ifvqhsg","pricing_plan_id":"cebpf4jnsgd1na2vs0mg"},{"bike_id":"82c98065-2745-4e65-8fe1-efdfb5f4c3f1","system_id":"levelo_inurba_marseille","lat":43.30101,"lon":5.3907,"is_reserved":false,"is_disabled":false,"rental_uris":{"android":"levelo://app?vid=82c98065-2745-4e65-8fe1-efdfb5f4c3f1","ios":"levelo://app?vid=82c98065-2745-4e65-8fe1-efdfb5f4c3f1"},"vehicle_type_id":"4","last_reported":1748297389,"current_range_meters":12400,"station_id":"ce4bh192rcd13ifvqdb0","pricing_plan_id":"cebpf4jnsgd1na2vs0mg"},{"bike_id":"153fcd00-8063-46bd-ab27-df4877b48c4b","system_id":"levelo_inurba_marseille","lat":43.28703,"lon":5.39989,"is_reserved":false,"is_disabled":false,"rental_uris":{"android":"levelo://app?vid=153fcd00-8063-46bd-ab27-df4877b48c4b","ios":"levelo://app?vid=153fcd00-8063-46bd-ab27-df4877b48c4b"},"vehicle_type_id":"4","last_reported":1748297389,"current_range_meters":12800,"station_id":"ce4bho92rcd13ifvqh3g","pricing_plan_id":"cebpf4jnsgd1na2vs0mg"},{"bike_id":"7e48bd85-320e-46cb-8089-a189f59ef238","system_id":"levelo_inurba_marseille","lat":43.31181,"lon":5.38692,"is_reserved":false,"is_disabled":false,"rental_uris":{"android":"levelo://app?vid=7e48bd85-320e-46cb-8089-a189f59ef238","ios":"levelo://app?vid=7e48bd85-320e-46cb-8089-a189f59ef238"},"vehicle_type_id":"4","last_reported":1748297389,"current_range_meters":12800,"station_id":"ce4bgv12rcd13ifvqcp0","pricing_plan_id":"cebpf4jnsgd1na2vs0mg"},{"bike_id":"1b93f618-501a-441a-ac25-2913e761841a","system_id":"levelo_inurba_marseille","lat":43.330453,"lon":5.390253,"is_reserved":false,"is_disabled":false,"rental_uris":{"android":"levelo://app?vid=1b93f618-501a-441a-ac25-2913e761841a","ios":"levelo://app?vid=1b93f618-501a-441a-ac25-2913e761841a"},"vehicle_type_id":"4","last_reported":1748297389,"current_range_meters":12800,"station_id":"ce4bhr92rcd13ifvqhrg","pricing_plan_id":"cebpf4jnsgd1na2vs0mg"},{"bike_id":"1a775a5e-1792-4706-b4f6-ec50ef749d53","system_id":"levelo_inurba_marseille","lat":43.255796,"lon":5.38223,"is_reserved":false,"is_disabled":false,"rental_uris":{"android":"levelo://app?vid=1a775a5e-1792-4706-b4f6-ec50ef749d53","ios":"levelo://app?vid=1a775a5e-1792-4706-b4f6-ec50ef749d53"},"vehicle_type_id":"4","last_reported":1748297389,"current_range_meters":12800,"station_id":"ce4bhih2rcd13ifvqfs0","pricing_plan_id":"cebpf4jnsgd1na2vs0mg"},{"bike_id":"8224c5ae-efbf-4eeb-a3fd-ddf80d320cf2","system_id":"levelo_inurba_marseille","lat":43.29275,"lon":5.40116,"is_reserved":false,"is_disabled":false,"rental_uris":{"android":"levelo://app?vid=8224c5ae-efbf-4eeb-a3fd-ddf80d320cf2","ios":"levelo://app?vid=8224c5ae-efbf-4eeb-a3fd-ddf80d320cf2"},"vehicle_type_id":"4","last_reported":1748297389,"current_range_meters":12800,"station_id":"ce4bh312rcd13ifvqdk0","pricing_plan_id":"cebpf4jnsgd1na2vs0mg"},{"bike_id":"f5b1aa50-af32-4b67-af03-fc8d46feddb5","system_id":"levelo_inurba_marseille","lat":43.292694,"lon":5.401271,"is_reserved":false,"is_disabled":false,"rental_uris":{"android":"levelo://app?vid=f5b1aa50-af32-4b67-af03-fc8d46feddb5","ios":"levelo://app?vid=f5b1aa50-af32-4b67-af03-fc8d46feddb5"},"vehicle_type_id":"4","last_reported":1748297389,"current_range_meters":12800,"station_id":"","pricing_plan_id":"cebpf4jnsgd1na2vs0mg"},{"bike_id":"d0a1ee92-a4a3-47ad-9649-34d2a17c8df2","system_id":"levelo_inurba_marseille","lat":43.309341,"lon":5.401389,"is_reserved":false,"is_disabled":false,"rental_uris":{"android":"levelo://app?vid=d0a1ee92-a4a3-47ad-9649-34d2a17c8df2","ios":"levelo://app?vid=d0a1ee92-a4a3-47ad-9649-34d2a17c8df2"},"vehicle_type_id":"4","last_reported":1748297389,"current_range_meters":12800,"station_id":"ce4bgvp2rcd13ifvqct0","pricing_plan_id":"cebpf4jnsgd1na2vs0mg"},{"bike_id":"b5fbbce1-d584-478f-8320-afbac1d23b0a","system_id":"levelo_inurba_marseille","lat":43.30728,"lon":5.4244,"is_reserved":false,"is_disabled":false,"rental_uris":{"android":"levelo://app?vid=b5fbbce1-d584-478f-8320-afbac1d23b0a","ios":"levelo://app?vid=b5fbbce1-d584-478f-8320-afbac1d23b0a"},"vehicle_type_id":"4","last_reported":1748297389,"current_range_meters":12800,"station_id":"st_cvj6ca6bvosntc0bfgr0","pricing_plan_id":"cebpf4jnsgd1na2vs0mg"},{"bike_id":"0d01c04c-4b6d-462f-88a6-1c355a1c0354","system_id":"levelo_inurba_marseille","lat":43.24687,"lon":5.38129,"is_reserved":false,"is_disabled":false,"rental_uris":{"android":"levelo://app?vid=0d01c04c-4b6d-462f-88a6-1c355a1c0354","ios":"levelo://app?vid=0d01c04c-4b6d-462f-88a6-1c355a1c0354"},"vehicle_type_id":"4","last_reported":1748297389,"current_range_meters":13600,"station_id":"ce4bhih2rcd13ifvqfr0","pricing_plan_id":"cebpf4jnsgd1na2vs0mg"},{"bike_id":"8c0269bb-f3e9-4202-bdef-2816f24b6c68","system_id":"levelo_inurba_marseille","lat":43.30795,"lon":5.43513,"is_reserved":false,"is_disabled":false,"rental_uris":{"android":"levelo://app?vid=8c0269bb-f3e9-4202-bdef-2816f24b6c68","ios":"levelo://app?vid=8c0269bb-f3e9-4202-bdef-2816f24b6c68"},"vehicle_type_id":"4","last_reported":1748297389,"current_range_meters":13600,"station_id":"ce4bhph2rcd13ifvqheg","pricing_plan_id":"cebpf4jnsgd1na2vs0mg"},{"bike_id":"aec30a2c-a191-4f27-8bc0-75e361ec09b7","system_id":"levelo_inurba_marseille","lat":43.2849,"lon":5.38417,"is_reserved":false,"is_disabled":false,"rental_uris":{"android":"levelo://app?vid=aec30a2c-a191-4f27-8bc0-75e361ec09b7","ios":"levelo://app?vid=aec30a2c-a191-4f27-8bc0-75e361ec09b7"},"vehicle_type_id":"4","last_reported":1748297389,"current_range_meters":13600,"station_id":"ce4bh512rcd13ifvqe3g","pricing_plan_id":"cebpf4jnsgd1na2vs0mg"},{"bike_id":"6ef27e84-462a-46f9-afe5-e09b209cc7f0","system_id":"levelo_inurba_marseille","lat":43.331133,"lon":5.362036,"is_reserved":false,"is_disabled":false,"rental_uris":{"android":"levelo://app?vid=6ef27e84-462a-46f9-afe5-e09b209cc7f0","ios":"levelo://app?vid=6ef27e84-462a-46f9-afe5-e09b209cc7f0"},"vehicle_type_id":"4","last_reported":1748297389,"current_range_meters":13600,"station_id":"","pricing_plan_id":"cebpf4jnsgd1na2vs0mg"},{"bike_id":"44425577-845c-4e8c-9d6f-c594d345a722","system_id":"levelo_inurba_marseille","lat":43.298,"lon":5.37094,"is_reserved":false,"is_disabled":false,"rental_uris":{"android":"levelo://app?vid=44425577-845c-4e8c-9d6f-c594d345a722","ios":"levelo://app?vid=44425577-845c-4e8c-9d6f-c594d345a722"},"vehicle_type_id":"4","last_reported":1748297389,"current_range_meters":13600,"station_id":"ce4bgop2rcd13ifvqc1g","pricing_plan_id":"cebpf4jnsgd1na2vs0mg"},{"bike_id":"0506f51a-30f6-4ada-b848-8672fd844554","system_id":"levelo_inurba_marseille","lat":43.292582,"lon":5.409106,"is_reserved":false,"is_disabled":false,"rental_uris":{"android":"levelo://app?vid=0506f51a-30f6-4ada-b848-8672fd844554","ios":"levelo://app?vid=0506f51a-30f6-4ada-b848-8672fd844554"},"vehicle_type_id":"4","last_reported":1748297389,"current_range_meters":13600,"station_id":"","pricing_plan_id":"cebpf4jnsgd1na2vs0mg"},{"bike_id":"1a1870e2-b5ca-41dd-a4b7-5143c0bbe515","system_id":"levelo_inurba_marseille","lat":43.2295,"lon":5.35329,"is_reserved":false,"is_disabled":false,"rental_uris":{"android":"levelo://app?vid=1a1870e2-b5ca-41dd-a4b7-5143c0bbe515","ios":"levelo://app?vid=1a1870e2-b5ca-41dd-a4b7-5143c0bbe515"},"vehicle_type_id":"4","last_reported":1748297389,"current_range_meters":13600,"station_id":"cpo3532slgdg3j2ikp40","pricing_plan_id":"cebpf4jnsgd1na2vs0mg"},{"bike_id":"f751281a-bb1b-441a-bca7-73629890d3ee","system_id":"levelo_inurba_marseille","lat":43.29965,"lon":5.37165,"is_reserved":false,"is_disabled":true,"rental_uris":{"android":"levelo://app?vid=f751281a-bb1b-441a-bca7-73629890d3ee","ios":"levelo://app?vid=f751281a-bb1b-441a-bca7-73629890d3ee"},"vehicle_type_id":"4","last_reported":1748297389,"current_range_meters":13600,"station_id":"ce4bgr92rcd13ifvqc7g","pricing_plan_id":"cebpf4jnsgd1na2vs0mg"},{"bike_id":"e6c65de3-7d92-4979-809c-6677188473c0","system_id":"levelo_inurba_marseille","lat":43.337684,"lon":5.37432,"is_reserved":false,"is_disabled":false,"rental_uris":{"android":"levelo://app?vid=e6c65de3-7d92-4979-809c-6677188473c0","ios":"levelo://app?vid=e6c65de3-7d92-4979-809c-6677188473c0"},"vehicle_type_id":"4","last_reported":1748297389,"current_range_meters":14000,"station_id":"","pricing_plan_id":"cebpf4jnsgd1na2vs0mg"},{"bike_id":"9e259356-03ed-46b8-9b98-3033d232a782","system_id":"levelo_inurba_marseille","lat":43.24217,"lon":5.37727,"is_reserved":false,"is_disabled":false,"rental_uris":{"android":"levelo://app?vid=9e259356-03ed-46b8-9b98-3033d232a782","ios":"levelo://app?vid=9e259356-03ed-46b8-9b98-3033d232a782"},"vehicle_type_id":"4","last_reported":1748297389,"current_range_meters":14000,"station_id":"ce4bhnp2rcd13ifvqgvg","pricing_plan_id":"cebpf4jnsgd1na2vs0mg"},{"bike_id":"eb060acd-d403-4c33-9f13-e709466da355","system_id":"levelo_inurba_marseille","lat":43.296143,"lon":5.377079,"is_reserved":false,"is_disabled":false,"rental_uris":{"android":"levelo://app?vid=eb060acd-d403-4c33-9f13-e709466da355","ios":"levelo://app?vid=eb060acd-d403-4c33-9f13-e709466da355"},"vehicle_type_id":"4","last_reported":1748297389,"current_range_meters":14000,"station_id":"","pricing_plan_id":"cebpf4jnsgd1na2vs0mg"},{"bike_id":"48cd0317-1c6f-4804-9cd1-21cb1ebe5af3","system_id":"levelo_inurba_marseille","lat":43.25499,"lon":5.37663,"is_reserved":false,"is_disabled":false,"rental_uris":{"android":"levelo://app?vid=48cd0317-1c6f-4804-9cd1-21cb1ebe5af3","ios":"levelo://app?vid=48cd0317-1c6f-4804-9cd1-21cb1ebe5af3"},"vehicle_type_id":"4","last_reported":1748297389,"current_range_meters":14000,"station_id":"ce4bhh12rcd13ifvqff0","pricing_plan_id":"cebpf4jnsgd1na2vs0mg"},{"bike_id":"0396a038-8097-4a63-b507-d7010ebae4ab","system_id":"levelo_inurba_marseille","lat":43.2621,"lon":5.37419,"is_reserved":false,"is_disabled":false,"rental_uris":{"android":"levelo://app?vid=0396a038-8097-4a63-b507-d7010ebae4ab","ios":"levelo://app?vid=0396a038-8097-4a63-b507-d7010ebae4ab"},"vehicle_type_id":"4","last_reported":1748297389,"current_range_meters":14000,"station_id":"ce4bhgp2rcd13ifvqfc0","pricing_plan_id":"cebpf4jnsgd1na2vs0mg"},{"bike_id":"21550935-6c76-4866-81c6-4023c0e52d19","system_id":"levelo_inurba_marseille","lat":43.24687,"lon":5.38154,"is_reserved":false,"is_disabled":false,"rental_uris":{"android":"levelo://app?vid=21550935-6c76-4866-81c6-4023c0e52d19","ios":"levelo://app?vid=21550935-6c76-4866-81c6-4023c0e52d19"},"vehicle_type_id":"4","last_reported":1748297389,"current_range_meters":14000,"station_id":"ce4bhih2rcd13ifvqfr0","pricing_plan_id":"cebpf4jnsgd1na2vs0mg"},{"bike_id":"2a046dee-b3af-48c9-9659-b7d30ba20af5","system_id":"levelo_inurba_marseille","lat":43.24333,"lon":5.37997,"is_reserved":false,"is_disabled":false,"rental_uris":{"android":"levelo://app?vid=2a046dee-b3af-48c9-9659-b7d30ba20af5","ios":"levelo://app?vid=2a046dee-b3af-48c9-9659-b7d30ba20af5"},"vehicle_type_id":"4","last_reported":1748297389,"current_range_meters":14000,"station_id":"","pricing_plan_id":"cebpf4jnsgd1na2vs0mg"},{"bike_id":"7409c5e6-b193-4789-8924-1b2d95e552f5","system_id":"levelo_inurba_marseille","lat":43.29539,"lon":5.385436,"is_reserved":false,"is_disabled":false,"rental_uris":{"android":"levelo://app?vid=7409c5e6-b193-4789-8924-1b2d95e552f5","ios":"levelo://app?vid=7409c5e6-b193-4789-8924-1b2d95e552f5"},"vehicle_type_id":"4","last_reported":1748297389,"current_range_meters":14000,"station_id":"ce4bgih2rcd13ifvqba0","pricing_plan_id":"cebpf4jnsgd1na2vs0mg"},{"bike_id":"a1ad37e9-65f1-44b3-b04a-e507016277ae","system_id":"levelo_inurba_marseille","lat":43.30935,"lon":5.40139,"is_reserved":false,"is_disabled":false,"rental_uris":{"android":"levelo://app?vid=a1ad37e9-65f1-44b3-b04a-e507016277ae","ios":"levelo://app?vid=a1ad37e9-65f1-44b3-b04a-e507016277ae"},"vehicle_type_id":"4","last_reported":1748297389,"current_range_meters":14000,"station_id":"ce4bgvp2rcd13ifvqct0","pricing_plan_id":"cebpf4jnsgd1na2vs0mg"},{"bike_id":"37884922-df32-4cbe-89cc-326682ae6b75","system_id":"levelo_inurba_marseille","lat":43.30532,"lon":5.38421,"is_reserved":false,"is_disabled":false,"rental_uris":{"android":"levelo://app?vid=37884922-df32-4cbe-89cc-326682ae6b75","ios":"levelo://app?vid=37884922-df32-4cbe-89cc-326682ae6b75"},"vehicle_type_id":"4","last_reported":1748297389,"current_range_meters":14400,"station_id":"ce4bgg92rcd13ifvqb30","pricing_plan_id":"cebpf4jnsgd1na2vs0mg"},{"bike_id":"52da6684-0a1f-4e5c-8d8b-49dd7abe2c17","system_id":"levelo_inurba_marseille","lat":43.23194,"lon":5.39983,"is_reserved":false,"is_disabled":false,"rental_uris":{"android":"levelo://app?vid=52da6684-0a1f-4e5c-8d8b-49dd7abe2c17","ios":"levelo://app?vid=52da6684-0a1f-4e5c-8d8b-49dd7abe2c17"},"vehicle_type_id":"4","last_reported":1748297389,"current_range_meters":14400,"station_id":"ce4bhn12rcd13ifvqgqg","pricing_plan_id":"cebpf4jnsgd1na2vs0mg"},{"bike_id":"8d75fef8-c2f5-45cf-b2a4-51168253db7c","system_id":"levelo_inurba_marseille","lat":43.28952,"lon":5.36381,"is_reserved":false,"is_disabled":false,"rental_uris":{"android":"levelo://app?vid=8d75fef8-c2f5-45cf-b2a4-51168253db7c","ios":"levelo://app?vid=8d75fef8-c2f5-45cf-b2a4-51168253db7c"},"vehicle_type_id":"4","last_reported":1748297389,"current_range_meters":14400,"station_id":"ce4bhc92rcd13ifvqetg","pricing_plan_id":"cebpf4jnsgd1na2vs0mg"},{"bike_id":"938b3173-692e-4a87-9a60-a38151af17be","system_id":"levelo_inurba_marseille","lat":43.2784,"lon":5.39203,"is_reserved":false,"is_disabled":false,"rental_uris":{"android":"levelo://app?vid=938b3173-692e-4a87-9a60-a38151af17be","ios":"levelo://app?vid=938b3173-692e-4a87-9a60-a38151af17be"},"vehicle_type_id":"4","last_reported":1748297389,"current_range_meters":14000,"station_id":"ce4bhjp2rcd13ifvqga0","pricing_plan_id":"cebpf4jnsgd1na2vs0mg"},{"bike_id":"a9bc0159-8b51-476f-8052-dbefa4d3810d","system_id":"levelo_inurba_marseille","lat":43.29275,"lon":5.36837,"is_reserved":false,"is_disabled":true,"rental_uris":{"android":"levelo://app?vid=a9bc0159-8b51-476f-8052-dbefa4d3810d","ios":"levelo://app?vid=a9bc0159-8b51-476f-8052-dbefa4d3810d"},"vehicle_type_id":"4","last_reported":1748297389,"current_range_meters":14400,"station_id":"ce4bhbp2rcd13ifvqesg","pricing_plan_id":"cebpf4jnsgd1na2vs0mg"},{"bike_id":"3f855aa9-a03a-4d28-bbc8-2f3b26d07315","system_id":"levelo_inurba_marseille","lat":43.22937,"lon":5.3537,"is_reserved":false,"is_disabled":false,"rental_uris":{"android":"levelo://app?vid=3f855aa9-a03a-4d28-bbc8-2f3b26d07315","ios":"levelo://app?vid=3f855aa9-a03a-4d28-bbc8-2f3b26d07315"},"vehicle_type_id":"4","last_reported":1748297389,"current_range_meters":14400,"station_id":"cpo3532slgdg3j2ikp40","pricing_plan_id":"cebpf4jnsgd1na2vs0mg"},{"bike_id":"437216e2-e983-40e8-88f6-26e568fae1de","system_id":"levelo_inurba_marseille","lat":43.29466,"lon":5.39188,"is_reserved":false,"is_disabled":false,"rental_uris":{"android":"levelo://app?vid=437216e2-e983-40e8-88f6-26e568fae1de","ios":"levelo://app?vid=437216e2-e983-40e8-88f6-26e568fae1de"},"vehicle_type_id":"4","last_reported":1748297389,"current_range_meters":14800,"station_id":"","pricing_plan_id":"cebpf4jnsgd1na2vs0mg"},{"bike_id":"0fe2df1a-8f2b-4b34-9aaa-c5cbe7be0ae7","system_id":"levelo_inurba_marseille","lat":43.31887,"lon":5.40726,"is_reserved":false,"is_disabled":false,"rental_uris":{"android":"levelo://app?vid=0fe2df1a-8f2b-4b34-9aaa-c5cbe7be0ae7","ios":"levelo://app?vid=0fe2df1a-8f2b-4b34-9aaa-c5cbe7be0ae7"},"vehicle_type_id":"4","last_reported":1748297389,"current_range_meters":14800,"station_id":"ce4bhq12rcd13ifvqhig","pricing_plan_id":"cebpf4jnsgd1na2vs0mg"},{"bike_id":"6b482028-512e-4dbe-b943-3138dd0f6f46","system_id":"levelo_inurba_marseille","lat":43.2969,"lon":5.36883,"is_reserved":false,"is_disabled":false,"rental_uris":{"android":"levelo://app?vid=6b482028-512e-4dbe-b943-3138dd0f6f46","ios":"levelo://app?vid=6b482028-512e-4dbe-b943-3138dd0f6f46"},"vehicle_type_id":"4","last_reported":1748297389,"current_range_meters":14800,"station_id":"","pricing_plan_id":"cebpf4jnsgd1na2vs0mg"},{"bike_id":"ceb81090-b40e-47dd-bc35-8598d269ef58","system_id":"levelo_inurba_marseille","lat":43.26663,"lon":5.38431,"is_reserved":false,"is_disabled":false,"rental_uris":{"android":"levelo://app?vid=ceb81090-b40e-47dd-bc35-8598d269ef58","ios":"levelo://app?vid=ceb81090-b40e-47dd-bc35-8598d269ef58"},"vehicle_type_id":"4","last_reported":1748297389,"current_range_meters":15200,"station_id":"","pricing_plan_id":"cebpf4jnsgd1na2vs0mg"},{"bike_id":"24695fcc-1634-4887-9a04-00f71eb609f0","system_id":"levelo_inurba_marseille","lat":43.23183,"lon":5.39984,"is_reserved":false,"is_disabled":false,"rental_uris":{"android":"levelo://app?vid=24695fcc-1634-4887-9a04-00f71eb609f0","ios":"levelo://app?vid=24695fcc-1634-4887-9a04-00f71eb609f0"},"vehicle_type_id":"4","last_reported":1748297389,"current_range_meters":15200,"station_id":"ce4bhn12rcd13ifvqgqg","pricing_plan_id":"cebpf4jnsgd1na2vs0mg"},{"bike_id":"d7a6b3d0-14b4-4f72-956a-aa32818ac9ac","system_id":"levelo_inurba_marseille","lat":43.30307,"lon":5.36888,"is_reserved":false,"is_disabled":false,"rental_uris":{"android":"levelo://app?vid=d7a6b3d0-14b4-4f72-956a-aa32818ac9ac","ios":"levelo://app?vid=d7a6b3d0-14b4-4f72-956a-aa32818ac9ac"},"vehicle_type_id":"4","last_reported":1748297389,"current_range_meters":15200,"station_id":"ce4bgqh2rcd13ifvqc5g","pricing_plan_id":"cebpf4jnsgd1na2vs0mg"},{"bike_id":"e74ac73e-0bca-44b2-961a-d5d173ac8942","system_id":"levelo_inurba_marseille","lat":43.3025,"lon":5.40038,"is_reserved":false,"is_disabled":false,"rental_uris":{"android":"levelo://app?vid=e74ac73e-0bca-44b2-961a-d5d173ac8942","ios":"levelo://app?vid=e74ac73e-0bca-44b2-961a-d5d173ac8942"},"vehicle_type_id":"4","last_reported":1748297389,"current_range_meters":15200,"station_id":"ce4bgvh2rcd13ifvqcs0","pricing_plan_id":"cebpf4jnsgd1na2vs0mg"},{"bike_id":"c9a58fbd-dd3f-438a-b6d5-6d0e5ccbc30d","system_id":"levelo_inurba_marseille","lat":43.29264,"lon":5.40138,"is_reserved":false,"is_disabled":false,"rental_uris":{"android":"levelo://app?vid=c9a58fbd-dd3f-438a-b6d5-6d0e5ccbc30d","ios":"levelo://app?vid=c9a58fbd-dd3f-438a-b6d5-6d0e5ccbc30d"},"vehicle_type_id":"4","last_reported":1748297389,"current_range_meters":15200,"station_id":"ce4bh312rcd13ifvqdk0","pricing_plan_id":"cebpf4jnsgd1na2vs0mg"},{"bike_id":"cfe00305-12b1-4126-859e-2d93d2cfec7e","system_id":"levelo_inurba_marseille","lat":43.2928,"lon":5.37186,"is_reserved":false,"is_disabled":true,"rental_uris":{"android":"levelo://app?vid=cfe00305-12b1-4126-859e-2d93d2cfec7e","ios":"levelo://app?vid=cfe00305-12b1-4126-859e-2d93d2cfec7e"},"vehicle_type_id":"4","last_reported":1748297389,"current_range_meters":15200,"station_id":"ce4bgh92rcd13ifvqb40","pricing_plan_id":"cebpf4jnsgd1na2vs0mg"},{"bike_id":"dc8a29eb-81b6-493a-b552-66c1f15bcf5a","system_id":"levelo_inurba_marseille","lat":43.297396,"lon":5.376876,"is_reserved":false,"is_disabled":true,"rental_uris":{"android":"levelo://app?vid=dc8a29eb-81b6-493a-b552-66c1f15bcf5a","ios":"levelo://app?vid=dc8a29eb-81b6-493a-b552-66c1f15bcf5a"},"vehicle_type_id":"4","last_reported":1748297389,"current_range_meters":15200,"station_id":"ce4bgkh2rcd13ifvqbl0","pricing_plan_id":"cebpf4jnsgd1na2vs0mg"},{"bike_id":"befad2e3-2d4f-4f79-b5b5-857fcd95330a","system_id":"levelo_inurba_marseille","lat":43.28442,"lon":5.39207,"is_reserved":false,"is_disabled":false,"rental_uris":{"android":"levelo://app?vid=befad2e3-2d4f-4f79-b5b5-857fcd95330a","ios":"levelo://app?vid=befad2e3-2d4f-4f79-b5b5-857fcd95330a"},"vehicle_type_id":"4","last_reported":1748297389,"current_range_meters":15200,"station_id":"ce4bhoh2rcd13ifvqh5g","pricing_plan_id":"cebpf4jnsgd1na2vs0mg"},{"bike_id":"1cc33275-da76-4d6d-8c06-1074210e7a25","system_id":"levelo_inurba_marseille","lat":43.2455,"lon":5.3953,"is_reserved":false,"is_disabled":false,"rental_uris":{"android":"levelo://app?vid=1cc33275-da76-4d6d-8c06-1074210e7a25","ios":"levelo://app?vid=1cc33275-da76-4d6d-8c06-1074210e7a25"},"vehicle_type_id":"4","last_reported":1748297389,"current_range_meters":16000,"station_id":"ce4bhlp2rcd13ifvqgjg","pricing_plan_id":"cebpf4jnsgd1na2vs0mg"},{"bike_id":"8751b621-da59-406e-a864-41dc5121ff9b","system_id":"levelo_inurba_marseille","lat":43.28031,"lon":5.36953,"is_reserved":false,"is_disabled":false,"rental_uris":{"android":"levelo://app?vid=8751b621-da59-406e-a864-41dc5121ff9b","ios":"levelo://app?vid=8751b621-da59-406e-a864-41dc5121ff9b"},"vehicle_type_id":"4","last_reported":1748297389,"current_range_meters":16000,"station_id":"ce4bha12rcd13ifvqef0","pricing_plan_id":"cebpf4jnsgd1na2vs0mg"},{"bike_id":"9177a060-7aa8-43fd-84dc-358fa5559160","system_id":"levelo_inurba_marseille","lat":43.31716,"lon":5.43711,"is_reserved":false,"is_disabled":false,"rental_uris":{"android":"levelo://app?vid=9177a060-7aa8-43fd-84dc-358fa5559160","ios":"levelo://app?vid=9177a060-7aa8-43fd-84dc-358fa5559160"},"vehicle_type_id":"4","last_reported":1748297389,"current_range_meters":16000,"station_id":"ce4bhp92rcd13ifvqhcg","pricing_plan_id":"cebpf4jnsgd1na2vs0mg"},{"bike_id":"d415bbc8-6965-4b80-bc72-015476d0efd7","system_id":"levelo_inurba_marseille","lat":43.28924,"lon":5.38393,"is_reserved":false,"is_disabled":true,"rental_uris":{"android":"levelo://app?vid=d415bbc8-6965-4b80-bc72-015476d0efd7","ios":"levelo://app?vid=d415bbc8-6965-4b80-bc72-015476d0efd7"},"vehicle_type_id":"4","last_reported":1748297389,"current_range_meters":16000,"station_id":"ce4bh612rcd13ifvqe6g","pricing_plan_id":"cebpf4jnsgd1na2vs0mg"},{"bike_id":"f8440d74-6946-4cc3-835a-107397f711e7","system_id":"levelo_inurba_marseille","lat":43.28418,"lon":5.375231,"is_reserved":false,"is_disabled":false,"rental_uris":{"android":"levelo://app?vid=f8440d74-6946-4cc3-835a-107397f711e7","ios":"levelo://app?vid=f8440d74-6946-4cc3-835a-107397f711e7"},"vehicle_type_id":"4","last_reported":1748297389,"current_range_meters":16000,"station_id":"ce4bh412rcd13ifvqds0","pricing_plan_id":"cebpf4jnsgd1na2vs0mg"},{"bike_id":"12b020ad-9167-483e-9dbb-b5e29668d675","system_id":"levelo_inurba_marseille","lat":43.3042,"lon":5.39749,"is_reserved":false,"is_disabled":false,"rental_uris":{"android":"levelo://app?vid=12b020ad-9167-483e-9dbb-b5e29668d675","ios":"levelo://app?vid=12b020ad-9167-483e-9dbb-b5e29668d675"},"vehicle_type_id":"4","last_reported":1748297389,"current_range_meters":16400,"station_id":"ce4bh092rcd13ifvqd20","pricing_plan_id":"cebpf4jnsgd1na2vs0mg"},{"bike_id":"30e949a6-9a21-45c6-8b78-d17c7d943515","system_id":"levelo_inurba_marseille","lat":43.26807,"lon":5.40251,"is_reserved":false,"is_disabled":false,"rental_uris":{"android":"levelo://app?vid=30e949a6-9a21-45c6-8b78-d17c7d943515","ios":"levelo://app?vid=30e949a6-9a21-45c6-8b78-d17c7d943515"},"vehicle_type_id":"4","last_reported":1748297389,"current_range_meters":16000,"station_id":"ce501612rcd8frsf0b60","pricing_plan_id":"cebpf4jnsgd1na2vs0mg"},{"bike_id":"6443dad9-aa0c-4786-9534-13315961d247","system_id":"levelo_inurba_marseille","lat":43.28953,"lon":5.39631,"is_reserved":false,"is_disabled":true,"rental_uris":{"android":"levelo://app?vid=6443dad9-aa0c-4786-9534-13315961d247","ios":"levelo://app?vid=6443dad9-aa0c-4786-9534-13315961d247"},"vehicle_type_id":"4","last_reported":1748297389,"current_range_meters":16000,"station_id":"ce4bh3h2rcd13ifvqdn0","pricing_plan_id":"cebpf4jnsgd1na2vs0mg"},{"bike_id":"87050943-8d90-41f7-814f-9286c05d1b99","system_id":"levelo_inurba_marseille","lat":43.30778,"lon":5.3764,"is_reserved":false,"is_disabled":false,"rental_uris":{"android":"levelo://app?vid=87050943-8d90-41f7-814f-9286c05d1b99","ios":"levelo://app?vid=87050943-8d90-41f7-814f-9286c05d1b99"},"vehicle_type_id":"4","last_reported":1748297389,"current_range_meters":16000,"station_id":"ce4bgv92rcd13ifvqcq0","pricing_plan_id":"cebpf4jnsgd1na2vs0mg"},{"bike_id":"6d2977b8-b405-496c-bf31-3eacba5c9601","system_id":"levelo_inurba_marseille","lat":43.284239,"lon":5.349771,"is_reserved":false,"is_disabled":true,"rental_uris":{"android":"levelo://app?vid=6d2977b8-b405-496c-bf31-3eacba5c9601","ios":"levelo://app?vid=6d2977b8-b405-496c-bf31-3eacba5c9601"},"vehicle_type_id":"4","last_reported":1748297389,"current_range_meters":16000,"station_id":"ce4bhbh2rcd13ifvqepg","pricing_plan_id":"cebpf4jnsgd1na2vs0mg"},{"bike_id":"fcb1e5b0-c753-46a3-a32a-b6e1368adede","system_id":"levelo_inurba_marseille","lat":43.30899,"lon":5.36854,"is_reserved":false,"is_disabled":false,"rental_uris":{"android":"levelo://app?vid=fcb1e5b0-c753-46a3-a32a-b6e1368adede","ios":"levelo://app?vid=fcb1e5b0-c753-46a3-a32a-b6e1368adede"},"vehicle_type_id":"4","last_reported":1748297389,"current_range_meters":16000,"station_id":"ce4bgn92rcd13ifvqbvg","pricing_plan_id":"cebpf4jnsgd1na2vs0mg"},{"bike_id":"292c8764-438e-418e-bc65-c0d649e1fc36","system_id":"levelo_inurba_marseille","lat":43.3026,"lon":5.40035,"is_reserved":false,"is_disabled":false,"rental_uris":{"android":"levelo://app?vid=292c8764-438e-418e-bc65-c0d649e1fc36","ios":"levelo://app?vid=292c8764-438e-418e-bc65-c0d649e1fc36"},"vehicle_type_id":"4","last_reported":1748297389,"current_range_meters":16000,"station_id":"ce4bgvh2rcd13ifvqcs0","pricing_plan_id":"cebpf4jnsgd1na2vs0mg"},{"bike_id":"a3a1e2f8-c082-4657-9cf8-ceb282e14a71","system_id":"levelo_inurba_marseille","lat":43.23188,"lon":5.39986,"is_reserved":false,"is_disabled":false,"rental_uris":{"android":"levelo://app?vid=a3a1e2f8-c082-4657-9cf8-ceb282e14a71","ios":"levelo://app?vid=a3a1e2f8-c082-4657-9cf8-ceb282e14a71"},"vehicle_type_id":"4","last_reported":1748297389,"current_range_meters":16000,"station_id":"ce4bhn12rcd13ifvqgqg","pricing_plan_id":"cebpf4jnsgd1na2vs0mg"},{"bike_id":"a37d7072-fa8d-48ce-882a-f8346c36ab41","system_id":"levelo_inurba_marseille","lat":43.23309,"lon":5.3615,"is_reserved":false,"is_disabled":false,"rental_uris":{"android":"levelo://app?vid=a37d7072-fa8d-48ce-882a-f8346c36ab41","ios":"levelo://app?vid=a37d7072-fa8d-48ce-882a-f8346c36ab41"},"vehicle_type_id":"4","last_reported":1748297389,"current_range_meters":16000,"station_id":"","pricing_plan_id":"cebpf4jnsgd1na2vs0mg"},{"bike_id":"e54a37d7-0b8f-4a8e-ada3-f57136b30871","system_id":"levelo_inurba_marseille","lat":43.28402,"lon":5.37509,"is_reserved":false,"is_disabled":false,"rental_uris":{"android":"levelo://app?vid=e54a37d7-0b8f-4a8e-ada3-f57136b30871","ios":"levelo://app?vid=e54a37d7-0b8f-4a8e-ada3-f57136b30871"},"vehicle_type_id":"4","last_reported":1748297389,"current_range_meters":16000,"station_id":"ce4bh412rcd13ifvqds0","pricing_plan_id":"cebpf4jnsgd1na2vs0mg"},{"bike_id":"1df886f0-c73c-42ce-b8d0-9f868b8a5b8b","system_id":"levelo_inurba_marseille","lat":43.287005,"lon":5.373853,"is_reserved":false,"is_disabled":false,"rental_uris":{"android":"levelo://app?vid=1df886f0-c73c-42ce-b8d0-9f868b8a5b8b","ios":"levelo://app?vid=1df886f0-c73c-42ce-b8d0-9f868b8a5b8b"},"vehicle_type_id":"4","last_reported":1748297389,"current_range_meters":16400,"station_id":"ce4bh3p2rcd13ifvqdq0","pricing_plan_id":"cebpf4jnsgd1na2vs0mg"},{"bike_id":"4bf0b867-d2dd-43f1-bd29-2bd8ae44c7ae","system_id":"levelo_inurba_marseille","lat":43.29281,"lon":5.40125,"is_reserved":false,"is_disabled":false,"rental_uris":{"android":"levelo://app?vid=4bf0b867-d2dd-43f1-bd29-2bd8ae44c7ae","ios":"levelo://app?vid=4bf0b867-d2dd-43f1-bd29-2bd8ae44c7ae"},"vehicle_type_id":"4","last_reported":1748297389,"current_range_meters":16000,"station_id":"ce4bh312rcd13ifvqdk0","pricing_plan_id":"cebpf4jnsgd1na2vs0mg"},{"bike_id":"accd3c89-be48-40f9-b305-7af7de2a1444","system_id":"levelo_inurba_marseille","lat":43.30127,"lon":5.38786,"is_reserved":false,"is_disabled":true,"rental_uris":{"android":"levelo://app?vid=accd3c89-be48-40f9-b305-7af7de2a1444","ios":"levelo://app?vid=accd3c89-be48-40f9-b305-7af7de2a1444"},"vehicle_type_id":"4","last_reported":1748297389,"current_range_meters":16400,"station_id":"ce4bghh2rcd13ifvqb60","pricing_plan_id":"cebpf4jnsgd1na2vs0mg"},{"bike_id":"ffacc216-1483-4e23-ae61-7b7dc828880c","system_id":"levelo_inurba_marseille","lat":43.292591,"lon":5.409034,"is_reserved":false,"is_disabled":false,"rental_uris":{"android":"levelo://app?vid=ffacc216-1483-4e23-ae61-7b7dc828880c","ios":"levelo://app?vid=ffacc216-1483-4e23-ae61-7b7dc828880c"},"vehicle_type_id":"4","last_reported":1748297389,"current_range_meters":16400,"station_id":"ce4bh192rcd13ifvqdc0","pricing_plan_id":"cebpf4jnsgd1na2vs0mg"},{"bike_id":"6f490198-620a-4e36-8ecc-b1be1d67f047","system_id":"levelo_inurba_marseille","lat":43.28942,"lon":5.36597,"is_reserved":false,"is_disabled":false,"rental_uris":{"android":"levelo://app?vid=6f490198-620a-4e36-8ecc-b1be1d67f047","ios":"levelo://app?vid=6f490198-620a-4e36-8ecc-b1be1d67f047"},"vehicle_type_id":"4","last_reported":1748297389,"current_range_meters":16400,"station_id":"ce4bhap2rcd13ifvqek0","pricing_plan_id":"cebpf4jnsgd1na2vs0mg"},{"bike_id":"e5c82b4c-e30f-487a-ae65-76f66da567ea","system_id":"levelo_inurba_marseille","lat":43.32356,"lon":5.36742,"is_reserved":false,"is_disabled":false,"rental_uris":{"android":"levelo://app?vid=e5c82b4c-e30f-487a-ae65-76f66da567ea","ios":"levelo://app?vid=e5c82b4c-e30f-487a-ae65-76f66da567ea"},"vehicle_type_id":"4","last_reported":1748297389,"current_range_meters":16400,"station_id":"ce4bhsh2rcd13ifvqi2g","pricing_plan_id":"cebpf4jnsgd1na2vs0mg"},{"bike_id":"0eec6b14-b954-4520-b0f6-390b437f2472","system_id":"levelo_inurba_marseille","lat":43.29787,"lon":5.39335,"is_reserved":false,"is_disabled":false,"rental_uris":{"android":"levelo://app?vid=0eec6b14-b954-4520-b0f6-390b437f2472","ios":"levelo://app?vid=0eec6b14-b954-4520-b0f6-390b437f2472"},"vehicle_type_id":"4","last_reported":1748297389,"current_range_meters":16400,"station_id":"chh1huq6cuj3fo74tm60","pricing_plan_id":"cebpf4jnsgd1na2vs0mg"},{"bike_id":"78b26c2f-243b-4801-a50e-f35a1c4e0310","system_id":"levelo_inurba_marseille","lat":43.3133,"lon":5.39683,"is_reserved":false,"is_disabled":false,"rental_uris":{"android":"levelo://app?vid=78b26c2f-243b-4801-a50e-f35a1c4e0310","ios":"levelo://app?vid=78b26c2f-243b-4801-a50e-f35a1c4e0310"},"vehicle_type_id":"4","last_reported":1748297389,"current_range_meters":16000,"station_id":"ce4bgvp2rcd13ifvqcu0","pricing_plan_id":"cebpf4jnsgd1na2vs0mg"},{"bike_id":"6d78c794-5960-45cf-8357-00701a047b0f","system_id":"levelo_inurba_marseille","lat":43.28406,"lon":5.37516,"is_reserved":false,"is_disabled":false,"rental_uris":{"android":"levelo://app?vid=6d78c794-5960-45cf-8357-00701a047b0f","ios":"levelo://app?vid=6d78c794-5960-45cf-8357-00701a047b0f"},"vehicle_type_id":"4","last_reported":1748297389,"current_range_meters":16400,"station_id":"ce4bh412rcd13ifvqds0","pricing_plan_id":"cebpf4jnsgd1na2vs0mg"},{"bike_id":"d76f1bc6-399a-4bb1-bdd7-894697024b4b","system_id":"levelo_inurba_marseille","lat":43.29279,"lon":5.40126,"is_reserved":false,"is_disabled":false,"rental_uris":{"android":"levelo://app?vid=d76f1bc6-399a-4bb1-bdd7-894697024b4b","ios":"levelo://app?vid=d76f1bc6-399a-4bb1-bdd7-894697024b4b"},"vehicle_type_id":"4","last_reported":1748297389,"current_range_meters":16000,"station_id":"ce4bh312rcd13ifvqdk0","pricing_plan_id":"cebpf4jnsgd1na2vs0mg"},{"bike_id":"6fc34b34-951f-41db-b15d-d6b47c28ebb7","system_id":"levelo_inurba_marseille","lat":43.28483,"lon":5.384416,"is_reserved":false,"is_disabled":true,"rental_uris":{"android":"levelo://app?vid=6fc34b34-951f-41db-b15d-d6b47c28ebb7","ios":"levelo://app?vid=6fc34b34-951f-41db-b15d-d6b47c28ebb7"},"vehicle_type_id":"4","last_reported":1748297389,"current_range_meters":16400,"station_id":"ce4bh512rcd13ifvqe3g","pricing_plan_id":"cebpf4jnsgd1na2vs0mg"},{"bike_id":"ebc8c9a5-1024-472e-a00e-2d5a4d26d29e","system_id":"levelo_inurba_marseille","lat":43.27486,"lon":5.42462,"is_reserved":false,"is_disabled":false,"rental_uris":{"android":"levelo://app?vid=ebc8c9a5-1024-472e-a00e-2d5a4d26d29e","ios":"levelo://app?vid=ebc8c9a5-1024-472e-a00e-2d5a4d26d29e"},"vehicle_type_id":"4","last_reported":1748297389,"current_range_meters":16400,"station_id":"ce4bhn92rcd13ifvqgrg","pricing_plan_id":"cebpf4jnsgd1na2vs0mg"},{"bike_id":"a40588ee-00f9-4620-a7e7-03b577ebbb6e","system_id":"levelo_inurba_marseille","lat":43.23201,"lon":5.40008,"is_reserved":false,"is_disabled":false,"rental_uris":{"android":"levelo://app?vid=a40588ee-00f9-4620-a7e7-03b577ebbb6e","ios":"levelo://app?vid=a40588ee-00f9-4620-a7e7-03b577ebbb6e"},"vehicle_type_id":"4","last_reported":1748297389,"current_range_meters":16400,"station_id":"ce4bhn12rcd13ifvqgqg","pricing_plan_id":"cebpf4jnsgd1na2vs0mg"},{"bike_id":"064e6fa0-0d7c-4ec8-b1ad-7f69178c75b7","system_id":"levelo_inurba_marseille","lat":43.298995,"lon":5.436633,"is_reserved":false,"is_disabled":true,"rental_uris":{"android":"levelo://app?vid=064e6fa0-0d7c-4ec8-b1ad-7f69178c75b7","ios":"levelo://app?vid=064e6fa0-0d7c-4ec8-b1ad-7f69178c75b7"},"vehicle_type_id":"4","last_reported":1748297389,"current_range_meters":16400,"station_id":"ce4bhpp2rcd13ifvqhfg","pricing_plan_id":"cebpf4jnsgd1na2vs0mg"},{"bike_id":"f8558fca-9663-41f8-9076-21c4b617eabe","system_id":"levelo_inurba_marseille","lat":43.26209,"lon":5.37924,"is_reserved":false,"is_disabled":false,"rental_uris":{"android":"levelo://app?vid=f8558fca-9663-41f8-9076-21c4b617eabe","ios":"levelo://app?vid=f8558fca-9663-41f8-9076-21c4b617eabe"},"vehicle_type_id":"4","last_reported":1748297389,"current_range_meters":16800,"station_id":"ce4bhjp2rcd13ifvqg90","pricing_plan_id":"cebpf4jnsgd1na2vs0mg"},{"bike_id":"628508a1-7147-4606-91f3-4d85e7870b3b","system_id":"levelo_inurba_marseille","lat":43.29785,"lon":5.39349,"is_reserved":false,"is_disabled":false,"rental_uris":{"android":"levelo://app?vid=628508a1-7147-4606-91f3-4d85e7870b3b","ios":"levelo://app?vid=628508a1-7147-4606-91f3-4d85e7870b3b"},"vehicle_type_id":"4","last_reported":1748297389,"current_range_meters":16800,"station_id":"chh1huq6cuj3fo74tm60","pricing_plan_id":"cebpf4jnsgd1na2vs0mg"},{"bike_id":"9198b550-c5cf-463c-bb76-767cf162342b","system_id":"levelo_inurba_marseille","lat":43.25572,"lon":5.38224,"is_reserved":false,"is_disabled":false,"rental_uris":{"android":"levelo://app?vid=9198b550-c5cf-463c-bb76-767cf162342b","ios":"levelo://app?vid=9198b550-c5cf-463c-bb76-767cf162342b"},"vehicle_type_id":"4","last_reported":1748297389,"current_range_meters":16800,"station_id":"ce4bhih2rcd13ifvqfs0","pricing_plan_id":"cebpf4jnsgd1na2vs0mg"},{"bike_id":"80621190-6360-4663-8ad5-fab22cb6eefd","system_id":"levelo_inurba_marseille","lat":43.27372,"lon":5.36256,"is_reserved":false,"is_disabled":true,"rental_uris":{"android":"levelo://app?vid=80621190-6360-4663-8ad5-fab22cb6eefd","ios":"levelo://app?vid=80621190-6360-4663-8ad5-fab22cb6eefd"},"vehicle_type_id":"4","last_reported":1748297389,"current_range_meters":16800,"station_id":"ce4bhbh2rcd13ifvqeo0","pricing_plan_id":"cebpf4jnsgd1na2vs0mg"},{"bike_id":"f8e34032-04f9-4cb5-bb13-6df28602b318","system_id":"levelo_inurba_marseille","lat":43.29934,"lon":5.36548,"is_reserved":false,"is_disabled":false,"rental_uris":{"android":"levelo://app?vid=f8e34032-04f9-4cb5-bb13-6df28602b318","ios":"levelo://app?vid=f8e34032-04f9-4cb5-bb13-6df28602b318"},"vehicle_type_id":"4","last_reported":1748297389,"current_range_meters":16800,"station_id":"ce4bgm92rcd13ifvqbr0","pricing_plan_id":"cebpf4jnsgd1na2vs0mg"},{"bike_id":"2296b000-9418-4e25-b3a0-ff6599969b36","system_id":"levelo_inurba_marseille","lat":43.28821,"lon":5.35249,"is_reserved":false,"is_disabled":false,"rental_uris":{"android":"levelo://app?vid=2296b000-9418-4e25-b3a0-ff6599969b36","ios":"levelo://app?vid=2296b000-9418-4e25-b3a0-ff6599969b36"},"vehicle_type_id":"4","last_reported":1748297389,"current_range_meters":16800,"station_id":"","pricing_plan_id":"cebpf4jnsgd1na2vs0mg"},{"bike_id":"1b05e3ef-3fd2-4e90-a77a-07d06f8b93fd","system_id":"levelo_inurba_marseille","lat":43.28566,"lon":5.39496,"is_reserved":false,"is_disabled":false,"rental_uris":{"android":"levelo://app?vid=1b05e3ef-3fd2-4e90-a77a-07d06f8b93fd","ios":"levelo://app?vid=1b05e3ef-3fd2-4e90-a77a-07d06f8b93fd"},"vehicle_type_id":"4","last_reported":1748297389,"current_range_meters":16800,"station_id":"ce4bh292rcd13ifvqdg0","pricing_plan_id":"cebpf4jnsgd1na2vs0mg"},{"bike_id":"10635929-632e-4cec-a18a-e7b0f091b703","system_id":"levelo_inurba_marseille","lat":43.23199,"lon":5.3998,"is_reserved":false,"is_disabled":false,"rental_uris":{"android":"levelo://app?vid=10635929-632e-4cec-a18a-e7b0f091b703","ios":"levelo://app?vid=10635929-632e-4cec-a18a-e7b0f091b703"},"vehicle_type_id":"4","last_reported":1748297389,"current_range_meters":16800,"station_id":"ce4bhn12rcd13ifvqgqg","pricing_plan_id":"cebpf4jnsgd1na2vs0mg"},{"bike_id":"91d118f0-ea08-4ded-b282-aa3e98235efa","system_id":"levelo_inurba_marseille","lat":43.28608,"lon":5.37055,"is_reserved":false,"is_disabled":true,"rental_uris":{"android":"levelo://app?vid=91d118f0-ea08-4ded-b282-aa3e98235efa","ios":"levelo://app?vid=91d118f0-ea08-4ded-b282-aa3e98235efa"},"vehicle_type_id":"4","last_reported":1748297389,"current_range_meters":16800,"station_id":"ce4bht12rcd13ifvqi60","pricing_plan_id":"cebpf4jnsgd1na2vs0mg"},{"bike_id":"91778dc6-5ac3-4d73-a11f-9b1ddc717184","system_id":"levelo_inurba_marseille","lat":43.23184,"lon":5.39969,"is_reserved":false,"is_disabled":false,"rental_uris":{"android":"levelo://app?vid=91778dc6-5ac3-4d73-a11f-9b1ddc717184","ios":"levelo://app?vid=91778dc6-5ac3-4d73-a11f-9b1ddc717184"},"vehicle_type_id":"4","last_reported":1748297389,"current_range_meters":16800,"station_id":"ce4bhn12rcd13ifvqgqg","pricing_plan_id":"cebpf4jnsgd1na2vs0mg"},{"bike_id":"892ebb6d-3d8b-45d2-9e2f-8bc34d10d083","system_id":"levelo_inurba_marseille","lat":43.28715,"lon":5.37403,"is_reserved":false,"is_disabled":false,"rental_uris":{"android":"levelo://app?vid=892ebb6d-3d8b-45d2-9e2f-8bc34d10d083","ios":"levelo://app?vid=892ebb6d-3d8b-45d2-9e2f-8bc34d10d083"},"vehicle_type_id":"4","last_reported":1748297389,"current_range_meters":17200,"station_id":"ce4bh3p2rcd13ifvqdq0","pricing_plan_id":"cebpf4jnsgd1na2vs0mg"},{"bike_id":"7576d53b-fe1e-45e9-9d31-f8d7a7fc0cb1","system_id":"levelo_inurba_marseille","lat":43.30927,"lon":5.40151,"is_reserved":false,"is_disabled":false,"rental_uris":{"android":"levelo://app?vid=7576d53b-fe1e-45e9-9d31-f8d7a7fc0cb1","ios":"levelo://app?vid=7576d53b-fe1e-45e9-9d31-f8d7a7fc0cb1"},"vehicle_type_id":"4","last_reported":1748297389,"current_range_meters":17200,"station_id":"ce4bgvp2rcd13ifvqct0","pricing_plan_id":"cebpf4jnsgd1na2vs0mg"},{"bike_id":"a547bb4b-430a-4271-a6c4-8f3eeb3e62d2","system_id":"levelo_inurba_marseille","lat":43.28942,"lon":5.3639,"is_reserved":false,"is_disabled":true,"rental_uris":{"android":"levelo://app?vid=a547bb4b-430a-4271-a6c4-8f3eeb3e62d2","ios":"levelo://app?vid=a547bb4b-430a-4271-a6c4-8f3eeb3e62d2"},"vehicle_type_id":"4","last_reported":1748297389,"current_range_meters":17200,"station_id":"ce4bhc92rcd13ifvqetg","pricing_plan_id":"cebpf4jnsgd1na2vs0mg"},{"bike_id":"fba377c1-28d3-4f00-9612-c33bbafc4551","system_id":"levelo_inurba_marseille","lat":43.2803,"lon":5.36951,"is_reserved":false,"is_disabled":false,"rental_uris":{"android":"levelo://app?vid=fba377c1-28d3-4f00-9612-c33bbafc4551","ios":"levelo://app?vid=fba377c1-28d3-4f00-9612-c33bbafc4551"},"vehicle_type_id":"4","last_reported":1748297389,"current_range_meters":17200,"station_id":"ce4bha12rcd13ifvqef0","pricing_plan_id":"cebpf4jnsgd1na2vs0mg"},{"bike_id":"dbd981d1-4a17-4a2c-b76c-c938013a6d75","system_id":"levelo_inurba_marseille","lat":43.30157,"lon":5.37422,"is_reserved":false,"is_disabled":false,"rental_uris":{"android":"levelo://app?vid=dbd981d1-4a17-4a2c-b76c-c938013a6d75","ios":"levelo://app?vid=dbd981d1-4a17-4a2c-b76c-c938013a6d75"},"vehicle_type_id":"4","last_reported":1748297389,"current_range_meters":16800,"station_id":"ce4bgs92rcd13ifvqcc0","pricing_plan_id":"cebpf4jnsgd1na2vs0mg"},{"bike_id":"7a81e5d4-b5d6-436a-9e23-205ce41315b1","system_id":"levelo_inurba_marseille","lat":43.30867,"lon":5.39658,"is_reserved":false,"is_disabled":false,"rental_uris":{"android":"levelo://app?vid=7a81e5d4-b5d6-436a-9e23-205ce41315b1","ios":"levelo://app?vid=7a81e5d4-b5d6-436a-9e23-205ce41315b1"},"vehicle_type_id":"4","last_reported":1748297389,"current_range_meters":17600,"station_id":"ce4bh012rcd13ifvqcv0","pricing_plan_id":"cebpf4jnsgd1na2vs0mg"},{"bike_id":"439ab198-fb47-480c-a3cc-fe0a890d76d3","system_id":"levelo_inurba_marseille","lat":43.29434,"lon":5.39751,"is_reserved":false,"is_disabled":false,"rental_uris":{"android":"levelo://app?vid=439ab198-fb47-480c-a3cc-fe0a890d76d3","ios":"levelo://app?vid=439ab198-fb47-480c-a3cc-fe0a890d76d3"},"vehicle_type_id":"4","last_reported":1748297389,"current_range_meters":17600,"station_id":"ce4bh3h2rcd13ifvqdo0","pricing_plan_id":"cebpf4jnsgd1na2vs0mg"},{"bike_id":"74909085-c918-4a04-8042-d1324b5788d3","system_id":"levelo_inurba_marseille","lat":43.31169,"lon":5.38708,"is_reserved":false,"is_disabled":false,"rental_uris":{"android":"levelo://app?vid=74909085-c918-4a04-8042-d1324b5788d3","ios":"levelo://app?vid=74909085-c918-4a04-8042-d1324b5788d3"},"vehicle_type_id":"4","last_reported":1748297389,"current_range_meters":17600,"station_id":"ce4bgv12rcd13ifvqcp0","pricing_plan_id":"cebpf4jnsgd1na2vs0mg"},{"bike_id":"370aab44-d50a-40a7-ae82-256f11887768","system_id":"levelo_inurba_marseille","lat":43.30594,"lon":5.39362,"is_reserved":false,"is_disabled":false,"rental_uris":{"android":"levelo://app?vid=370aab44-d50a-40a7-ae82-256f11887768","ios":"levelo://app?vid=370aab44-d50a-40a7-ae82-256f11887768"},"vehicle_type_id":"4","last_reported":1748297389,"current_range_meters":17600,"station_id":"ce4bh0p2rcd13ifvqd80","pricing_plan_id":"cebpf4jnsgd1na2vs0mg"},{"bike_id":"0d3e9119-2afa-4e8e-85a1-4e44e78b8c70","system_id":"levelo_inurba_marseille","lat":43.31351,"lon":5.38498,"is_reserved":false,"is_disabled":true,"rental_uris":{"android":"levelo://app?vid=0d3e9119-2afa-4e8e-85a1-4e44e78b8c70","ios":"levelo://app?vid=0d3e9119-2afa-4e8e-85a1-4e44e78b8c70"},"vehicle_type_id":"4","last_reported":1748297389,"current_range_meters":17600,"station_id":"ce4bgt92rcd13ifvqcf0","pricing_plan_id":"cebpf4jnsgd1na2vs0mg"},{"bike_id":"d9cc438c-b860-45a4-8e0d-3d21bcc4bec6","system_id":"levelo_inurba_marseille","lat":43.29192,"lon":5.39328,"is_reserved":false,"is_disabled":false,"rental_uris":{"android":"levelo://app?vid=d9cc438c-b860-45a4-8e0d-3d21bcc4bec6","ios":"levelo://app?vid=d9cc438c-b860-45a4-8e0d-3d21bcc4bec6"},"vehicle_type_id":"4","last_reported":1748297389,"current_range_meters":17600,"station_id":"ce4bh192rcd13ifvqdd0","pricing_plan_id":"cebpf4jnsgd1na2vs0mg"},{"bike_id":"26ed3af1-405e-4427-8cba-c7d12af2638f","system_id":"levelo_inurba_marseille","lat":43.32471,"lon":5.3658,"is_reserved":false,"is_disabled":false,"rental_uris":{"android":"levelo://app?vid=26ed3af1-405e-4427-8cba-c7d12af2638f","ios":"levelo://app?vid=26ed3af1-405e-4427-8cba-c7d12af2638f"},"vehicle_type_id":"4","last_reported":1748297389,"current_range_meters":17600,"station_id":"ce4bhs12rcd13ifvqhvg","pricing_plan_id":"cebpf4jnsgd1na2vs0mg"},{"bike_id":"3d6b297f-65b3-44a6-ac68-6666715444d7","system_id":"levelo_inurba_marseille","lat":43.28154,"lon":5.42648,"is_reserved":false,"is_disabled":false,"rental_uris":{"android":"levelo://app?vid=3d6b297f-65b3-44a6-ac68-6666715444d7","ios":"levelo://app?vid=3d6b297f-65b3-44a6-ac68-6666715444d7"},"vehicle_type_id":"4","last_reported":1748297389,"current_range_meters":18000,"station_id":"ce4bhnh2rcd13ifvqgug","pricing_plan_id":"cebpf4jnsgd1na2vs0mg"},{"bike_id":"3cff5ae3-fe26-4deb-b460-f9318244d3e4","system_id":"levelo_inurba_marseille","lat":43.30882,"lon":5.39645,"is_reserved":false,"is_disabled":true,"rental_uris":{"android":"levelo://app?vid=3cff5ae3-fe26-4deb-b460-f9318244d3e4","ios":"levelo://app?vid=3cff5ae3-fe26-4deb-b460-f9318244d3e4"},"vehicle_type_id":"4","last_reported":1748297389,"current_range_meters":18000,"station_id":"ce4bh012rcd13ifvqcv0","pricing_plan_id":"cebpf4jnsgd1na2vs0mg"},{"bike_id":"b0c06015-92f7-4a76-b580-f9828ce50a0b","system_id":"levelo_inurba_marseille","lat":43.29451,"lon":5.39741,"is_reserved":false,"is_disabled":false,"rental_uris":{"android":"levelo://app?vid=b0c06015-92f7-4a76-b580-f9828ce50a0b","ios":"levelo://app?vid=b0c06015-92f7-4a76-b580-f9828ce50a0b"},"vehicle_type_id":"4","last_reported":1748297389,"current_range_meters":18000,"station_id":"ce4bh3h2rcd13ifvqdo0","pricing_plan_id":"cebpf4jnsgd1na2vs0mg"},{"bike_id":"53864ff9-0bd7-4116-a714-8c93c9f18c2e","system_id":"levelo_inurba_marseille","lat":43.29303,"lon":5.37182,"is_reserved":false,"is_disabled":true,"rental_uris":{"android":"levelo://app?vid=53864ff9-0bd7-4116-a714-8c93c9f18c2e","ios":"levelo://app?vid=53864ff9-0bd7-4116-a714-8c93c9f18c2e"},"vehicle_type_id":"4","last_reported":1748297389,"current_range_meters":18000,"station_id":"ce4bgh92rcd13ifvqb40","pricing_plan_id":"cebpf4jnsgd1na2vs0mg"},{"bike_id":"e9daa0e8-a115-4482-913d-9aa71dd6093c","system_id":"levelo_inurba_marseille","lat":43.292613,"lon":5.37624,"is_reserved":false,"is_disabled":false,"rental_uris":{"android":"levelo://app?vid=e9daa0e8-a115-4482-913d-9aa71dd6093c","ios":"levelo://app?vid=e9daa0e8-a115-4482-913d-9aa71dd6093c"},"vehicle_type_id":"4","last_reported":1748297389,"current_range_meters":18000,"station_id":"ce4bgi12rcd13ifvqb80","pricing_plan_id":"cebpf4jnsgd1na2vs0mg"},{"bike_id":"71bb6bec-3d3c-4c3e-b70a-ad5ed90c2100","system_id":"levelo_inurba_marseille","lat":43.31377,"lon":5.402651,"is_reserved":false,"is_disabled":false,"rental_uris":{"android":"levelo://app?vid=71bb6bec-3d3c-4c3e-b70a-ad5ed90c2100","ios":"levelo://app?vid=71bb6bec-3d3c-4c3e-b70a-ad5ed90c2100"},"vehicle_type_id":"4","last_reported":1748297389,"current_range_meters":19200,"station_id":"","pricing_plan_id":"cebpf4jnsgd1na2vs0mg"},{"bike_id":"fee11c40-d115-46f4-862a-8b01807e5d5b","system_id":"levelo_inurba_marseille","lat":43.289693,"lon":5.378329,"is_reserved":false,"is_disabled":false,"rental_uris":{"android":"levelo://app?vid=fee11c40-d115-46f4-862a-8b01807e5d5b","ios":"levelo://app?vid=fee11c40-d115-46f4-862a-8b01807e5d5b"},"vehicle_type_id":"4","last_reported":1748297389,"current_range_meters":18000,"station_id":"ce4bhmh2rcd13ifvqgmg","pricing_plan_id":"cebpf4jnsgd1na2vs0mg"},{"bike_id":"f1f6394d-bab9-409c-ae86-bd0045c7215f","system_id":"levelo_inurba_marseille","lat":43.30096,"lon":5.39071,"is_reserved":false,"is_disabled":false,"rental_uris":{"android":"levelo://app?vid=f1f6394d-bab9-409c-ae86-bd0045c7215f","ios":"levelo://app?vid=f1f6394d-bab9-409c-ae86-bd0045c7215f"},"vehicle_type_id":"4","last_reported":1748297389,"current_range_meters":18000,"station_id":"ce4bh192rcd13ifvqdb0","pricing_plan_id":"cebpf4jnsgd1na2vs0mg"},{"bike_id":"087eea61-3830-4133-9eba-7ab72c7b1540","system_id":"levelo_inurba_marseille","lat":43.30641,"lon":5.40092,"is_reserved":false,"is_disabled":false,"rental_uris":{"android":"levelo://app?vid=087eea61-3830-4133-9eba-7ab72c7b1540","ios":"levelo://app?vid=087eea61-3830-4133-9eba-7ab72c7b1540"},"vehicle_type_id":"4","last_reported":1748297389,"current_range_meters":17600,"station_id":"ce4bh112rcd13ifvqda0","pricing_plan_id":"cebpf4jnsgd1na2vs0mg"},{"bike_id":"2351cd58-02da-46d6-bad8-384e88a17b53","system_id":"levelo_inurba_marseille","lat":43.30925,"lon":5.40142,"is_reserved":false,"is_disabled":false,"rental_uris":{"android":"levelo://app?vid=2351cd58-02da-46d6-bad8-384e88a17b53","ios":"levelo://app?vid=2351cd58-02da-46d6-bad8-384e88a17b53"},"vehicle_type_id":"4","last_reported":1748297389,"current_range_meters":18000,"station_id":"ce4bgvp2rcd13ifvqct0","pricing_plan_id":"cebpf4jnsgd1na2vs0mg"},{"bike_id":"c55bb7b9-2210-44a0-9436-033983c9cb1d","system_id":"levelo_inurba_marseille","lat":43.298737,"lon":5.39723,"is_reserved":false,"is_disabled":false,"rental_uris":{"android":"levelo://app?vid=c55bb7b9-2210-44a0-9436-033983c9cb1d","ios":"levelo://app?vid=c55bb7b9-2210-44a0-9436-033983c9cb1d"},"vehicle_type_id":"4","last_reported":1748297389,"current_range_meters":18000,"station_id":"ce4bh0h2rcd13ifvqd50","pricing_plan_id":"cebpf4jnsgd1na2vs0mg"},{"bike_id":"4f4d4c0f-d183-423b-95c6-6ea876bdf09c","system_id":"levelo_inurba_marseille","lat":43.32359,"lon":5.38888,"is_reserved":false,"is_disabled":false,"rental_uris":{"android":"levelo://app?vid=4f4d4c0f-d183-423b-95c6-6ea876bdf09c","ios":"levelo://app?vid=4f4d4c0f-d183-423b-95c6-6ea876bdf09c"},"vehicle_type_id":"4","last_reported":1748297389,"current_range_meters":18000,"station_id":"ce4bhqp2rcd13ifvqhog","pricing_plan_id":"cebpf4jnsgd1na2vs0mg"},{"bike_id":"b9feece3-8db7-4d9c-b5c4-3d592ac61b90","system_id":"levelo_inurba_marseille","lat":43.291848,"lon":5.358085,"is_reserved":false,"is_disabled":false,"rental_uris":{"android":"levelo://app?vid=b9feece3-8db7-4d9c-b5c4-3d592ac61b90","ios":"levelo://app?vid=b9feece3-8db7-4d9c-b5c4-3d592ac61b90"},"vehicle_type_id":"4","last_reported":1748297389,"current_range_meters":18000,"station_id":"","pricing_plan_id":"cebpf4jnsgd1na2vs0mg"},{"bike_id":"bcaed641-032b-433f-8a0a-283ee03d0a12","system_id":"levelo_inurba_marseille","lat":43.21191,"lon":5.350745,"is_reserved":false,"is_disabled":false,"rental_uris":{"android":"levelo://app?vid=bcaed641-032b-433f-8a0a-283ee03d0a12","ios":"levelo://app?vid=bcaed641-032b-433f-8a0a-283ee03d0a12"},"vehicle_type_id":"4","last_reported":1748297389,"current_range_meters":18800,"station_id":"","pricing_plan_id":"cebpf4jnsgd1na2vs0mg"},{"bike_id":"61f1e136-5548-4263-90b5-c33c7081206a","system_id":"levelo_inurba_marseille","lat":43.31323,"lon":5.39692,"is_reserved":false,"is_disabled":false,"rental_uris":{"android":"levelo://app?vid=61f1e136-5548-4263-90b5-c33c7081206a","ios":"levelo://app?vid=61f1e136-5548-4263-90b5-c33c7081206a"},"vehicle_type_id":"4","last_reported":1748297389,"current_range_meters":18800,"station_id":"ce4bgvp2rcd13ifvqcu0","pricing_plan_id":"cebpf4jnsgd1na2vs0mg"},{"bike_id":"27abeae6-466d-4b6a-ae60-2082531fac2e","system_id":"levelo_inurba_marseille","lat":43.305974,"lon":5.372356,"is_reserved":false,"is_disabled":false,"rental_uris":{"android":"levelo://app?vid=27abeae6-466d-4b6a-ae60-2082531fac2e","ios":"levelo://app?vid=27abeae6-466d-4b6a-ae60-2082531fac2e"},"vehicle_type_id":"4","last_reported":1748297389,"current_range_meters":18000,"station_id":"ce4bgqh2rcd13ifvqc4g","pricing_plan_id":"cebpf4jnsgd1na2vs0mg"},{"bike_id":"134c70cc-46f1-414c-ba60-b99ba2b4a992","system_id":"levelo_inurba_marseille","lat":43.3481,"lon":5.35175,"is_reserved":false,"is_disabled":false,"rental_uris":{"android":"levelo://app?vid=134c70cc-46f1-414c-ba60-b99ba2b4a992","ios":"levelo://app?vid=134c70cc-46f1-414c-ba60-b99ba2b4a992"},"vehicle_type_id":"4","last_reported":1748297389,"current_range_meters":18800,"station_id":"","pricing_plan_id":"cebpf4jnsgd1na2vs0mg"},{"bike_id":"8cd13c87-9af6-4676-80cf-f046d195fac0","system_id":"levelo_inurba_marseille","lat":43.31539,"lon":5.40369,"is_reserved":false,"is_disabled":false,"rental_uris":{"android":"levelo://app?vid=8cd13c87-9af6-4676-80cf-f046d195fac0","ios":"levelo://app?vid=8cd13c87-9af6-4676-80cf-f046d195fac0"},"vehicle_type_id":"4","last_reported":1748297389,"current_range_meters":19600,"station_id":"","pricing_plan_id":"cebpf4jnsgd1na2vs0mg"},{"bike_id":"93a9d007-0ff4-46a9-a218-6c118a0a5856","system_id":"levelo_inurba_marseille","lat":43.26197,"lon":5.37431,"is_reserved":false,"is_disabled":false,"rental_uris":{"android":"levelo://app?vid=93a9d007-0ff4-46a9-a218-6c118a0a5856","ios":"levelo://app?vid=93a9d007-0ff4-46a9-a218-6c118a0a5856"},"vehicle_type_id":"4","last_reported":1748297389,"current_range_meters":19200,"station_id":"ce4bhgp2rcd13ifvqfc0","pricing_plan_id":"cebpf4jnsgd1na2vs0mg"},{"bike_id":"fd4f52a7-a2f4-4f66-8d2c-38b379123ee4","system_id":"levelo_inurba_marseille","lat":43.22517,"lon":5.34787,"is_reserved":false,"is_disabled":false,"rental_uris":{"android":"levelo://app?vid=fd4f52a7-a2f4-4f66-8d2c-38b379123ee4","ios":"levelo://app?vid=fd4f52a7-a2f4-4f66-8d2c-38b379123ee4"},"vehicle_type_id":"4","last_reported":1748297389,"current_range_meters":19200,"station_id":"st_cvj5dfep6f1abm77gieg","pricing_plan_id":"cebpf4jnsgd1na2vs0mg"},