{"last_updated":1727554139,"ttl":60,"version":"2.2","data":{"bikes":[{"bike_id":"2713031b-7879-48ff-8abe-6c9306427eba","system_id":"levelo_inurba_marseille","lat":43.31881,"lon":5.40741,"is_reserved":false,"is_disabled":false,"rental_uris":{"android":"levelo://app?vid=2713031b-7879-48ff-8abe-6c9306427eba","ios":"levelo://app?vid=2713031b-7879-48ff-8abe-6c9306427eba"},"vehicle_type_id":"4","last_reported":1727554140,"current_range_meters":24800,"station_id":"ce4bhq12rcd13ifvqhig","pricing_plan_id":"cebpf4jnsgd1na2vs0mg"},{"bike_id":"6103b553-d24f-40fb-9867-6ef9176545d9","system_id":"levelo_inurba_marseille","lat":43.27911,"lon":5.39552,"is_reserved":false,"is_disabled":false,"rental_uris":{"android":"levelo://app?vid=6103b553-d24f-40fb-9867-6ef9176545d9","ios":"levelo://app?vid=6103b553-d24f-40fb-9867-6ef9176545d9"},"vehicle_type_id":"4","last_reported":1727554140,"current_range_meters":38800,"station_id":"ce4bhf92rcd13ifvqf40","pricing_plan_id":"cebpf4jnsgd1na2vs0mg"},{"bike_id":"409f8e56-7b05-4fc8-983d-fadc6468525f","system_id":"levelo_inurba_marseille","lat":43.28442,"lon":5.39183,"is_reserved":false,"is_disabled":false,"rental_uris":{"android":"levelo://app?vid=409f8e56-7b05-4fc8-983d-fadc6468525f","ios":"levelo://app?vid=409f8e56-7b05-4fc8-983d-fadc6468525f"},"vehicle_type_id":"4","last_reported":1727554140,"current_range_meters":39200,"station_id":"ce4bhoh2rcd13ifvqh5g","pricing_plan_id":"cebpf4jnsgd1na2vs0mg"},{"bike_id":"d3c2fe0e-3f4e-4303-ae23-7f25f368fade","system_id":"levelo_inurba_marseille","lat":43.32364,"lon":5.38883,"is_reserved":false,"is_disabled":false,"rental_uris":{"android":"levelo://app?vid=d3c2fe0e-3f4e-4303-ae23-7f25f368fade","ios":"levelo://app?vid=d3c2fe0e-3f4e-4303-ae23-7f25f368fade"},"vehicle_type_id":"4","last_reported":1727554140,"current_range_meters":6400,"station_id":"ce4bhqp2rcd13ifvqhog","pricing_plan_id":"cebpf4jnsgd1na2vs0mg"},{"bike_id":"acf0da7d-e6b3-48a2-8905-5de8bc3b795a","system_id":"levelo_inurba_marseille","lat":43.31995,"lon":5.38158,"is_reserved":false,"is_disabled":false,"rental_uris":{"android":"levelo://app?vid=acf0da7d-e6b3-48a2-8905-5de8bc3b795a","ios":"levelo://app?vid=acf0da7d-e6b3-48a2-8905-5de8bc3b795a"},"vehicle_type_id":"4","last_reported":1727554140,"current_range_meters":12000,"station_id":"ce4bhr12rcd13ifvqhpg","pricing_plan_id":"cebpf4jnsgd1na2vs0mg"},{"bike_id":"0ea9e4c4-cc08-41d9-862d-a80f7d54740c","system_id":"levelo_inurba_marseille","lat":43.32295,"lon":5.38274,"is_reserved":false,"is_disabled":false,"rental_uris":{"android":"levelo://app?vid=0ea9e4c4-cc08-41d9-862d-a80f7d54740c","ios":"levelo://app?vid=0ea9e4c4-cc08-41d9-862d-a80f7d54740c"},"vehicle_type_id":"4","last_reported":1727554140,"current_range_meters":38400,"station_id":"ce4bhr12rcd13ifvqhqg","pricing_plan_id":"cebpf4jnsgd1na2vs0mg"},{"bike_id":"37694d63-0afb-4106-ad7c-bb3e51e3dd4a","system_id":"levelo_inurba_marseille","lat":43.29295,"lon":5.37461,"is_reserved":false,"is_disabled":false,"rental_uris":{"android":"levelo://app?vid=37694d63-0afb-4106-ad7c-bb3e51e3dd4a","ios":"levelo://app?vid=37694d63-0afb-4106-ad7c-bb3e51e3dd4a"},"vehicle_type_id":"4","last_reported":1727554140,"current_range_meters":4000,"station_id":"ce4bgi12rcd13ifvqb70","pricing_plan_id":"cebpf4jnsgd1na2vs0mg"},{"bike_id":"a7f78ba6-f302-4191-9898-adba7098a8f9","system_id":"levelo_inurba_marseille","lat":43.25001,"lon":5.38932,"is_reserved":false,"is_disabled":false,"rental_uris":{"android":"levelo://app?vid=a7f78ba6-f302-4191-9898-adba7098a8f9","ios":"levelo://app?vid=a7f78ba6-f302-4191-9898-adba7098a8f9"},"vehicle_type_id":"4","last_reported":1727554140,"current_range_meters":16800,"station_id":"ce4bhgp2rcd13ifvqfd0","pricing_plan_id":"cebpf4jnsgd1na2vs0mg"},{"bike_id":"e8f339a7-5e65-4275-8576-718fc09f5e43","system_id":"levelo_inurba_marseille","lat":43.27614,"lon":5.36115,"is_reserved":false,"is_disabled":false,"rental_uris":{"android":"levelo://app?vid=e8f339a7-5e65-4275-8576-718fc09f5e43","ios":"levelo://app?vid=e8f339a7-5e65-4275-8576-718fc09f5e43"},"vehicle_type_id":"4","last_reported":1727554140,"current_range_meters":12800,"station_id":"ce4bgj92rcd13ifvqbe0","pricing_plan_id":"cebpf4jnsgd1na2vs0mg"},{"bike_id":"9b5f5642-2491-4749-8ae4-e6530ea426af","system_id":"levelo_inurba_marseille","lat":43.24392,"lon":5.37062,"is_reserved":false,"is_disabled":false,"rental_uris":{"android":"levelo://app?vid=9b5f5642-2491-4749-8ae4-e6530ea426af","ios":"levelo://app?vid=9b5f5642-2491-4749-8ae4-e6530ea426af"},"vehicle_type_id":"4","last_reported":1727554140,"current_range_meters":9200,"station_id":"ce4bhhh2rcd13ifvqfk0","pricing_plan_id":"cebpf4jnsgd1na2vs0mg"},{"bike_id":"8fb9a0ee-a314-472a-99d5-f99430eaf598","system_id":"levelo_inurba_marseille","lat":43.29027,"lon":5.38136,"is_reserved":false,"is_disabled":false,"rental_uris":{"android":"levelo://app?vid=8fb9a0ee-a314-472a-99d5-f99430eaf598","ios":"levelo://app?vid=8fb9a0ee-a314-472a-99d5-f99430eaf598"},"vehicle_type_id":"4","last_reported":1727554140,"current_range_meters":38800,"station_id":"ce4bh4p2rcd13ifvqe1g","pricing_plan_id":"cebpf4jnsgd1na2vs0mg"},{"bike_id":"9a47dcb1-61bb-411f-affb-55731480b4cc","system_id":"levelo_inurba_marseille","lat":43.23959,"lon":5.36626,"is_reserved":false,"is_disabled":false,"rental_uris":{"android":"levelo://app?vid=9a47dcb1-61bb-411f-affb-55731480b4cc","ios":"levelo://app?vid=9a47dcb1-61bb-411f-affb-55731480b4cc"},"vehicle_type_id":"4","last_reported":1727554140,"current_range_meters":38800,"station_id":"ce4bhi12rcd13ifvqfp0","pricing_plan_id":"cebpf4jnsgd1na2vs0mg"},{"bike_id":"3e441b3c-4ce5-46fc-bb1b-9e3c0c2f740d","system_id":"levelo_inurba_marseille","lat":43.29619,"lon":5.37152,"is_reserved":false,"is_disabled":false,"rental_uris":{"android":"levelo://app?vid=3e441b3c-4ce5-46fc-bb1b-9e3c0c2f740d","ios":"levelo://app?vid=3e441b3c-4ce5-46fc-bb1b-9e3c0c2f740d"},"vehicle_type_id":"4","last_reported":1727554140,"current_range_meters":16400,"station_id":"ce4bgnh2rcd13ifvqc0g","pricing_plan_id":"cebpf4jnsgd1na2vs0mg"},{"bike_id":"0b884d4c-97d5-4135-b358-992584157dce","system_id":"levelo_inurba_marseille","lat":43.290222,"lon":5.381357,"is_reserved":false,"is_disabled":false,"rental_uris":{"android":"levelo://app?vid=0b884d4c-97d5-4135-b358-992584157dce","ios":"levelo://app?vid=0b884d4c-97d5-4135-b358-992584157dce"},"vehicle_type_id":"4","last_reported":1727554140,"current_range_meters":22400,"station_id":"ce4bh4p2rcd13ifvqe1g","pricing_plan_id":"cebpf4jnsgd1na2vs0mg"},{"bike_id":"2ef8c22b-ee0f-43d0-a1b3-a6abeaa841c5","system_id":"levelo_inurba_marseille","lat":43.29311,"lon":5.37179,"is_reserved":false,"is_disabled":false,"rental_uris":{"android":"levelo://app?vid=2ef8c22b-ee0f-43d0-a1b3-a6abeaa841c5","ios":"levelo://app?vid=2ef8c22b-ee0f-43d0-a1b3-a6abeaa841c5"},"vehicle_type_id":"4","last_reported":1727554140,"current_range_meters":30000,"station_id":"ce4bgh92rcd13ifvqb40","pricing_plan_id":"cebpf4jnsgd1na2vs0mg"},{"bike_id":"333115ee-3a28-4881-86d9-800979274e52","system_id":"levelo_inurba_marseille","lat":43.273233,"lon":5.390673,"is_reserved":false,"is_disabled":false,"rental_uris":{"android":"levelo://app?vid=333115ee-3a28-4881-86d9-800979274e52","ios":"levelo://app?vid=333115ee-3a28-4881-86d9-800979274e52"},"vehicle_type_id":"4","last_reported":1727554140,"current_range_meters":38800,"station_id":"ce4bhgp2rcd13ifvqfe0","pricing_plan_id":"cebpf4jnsgd1na2vs0mg"},{"bike_id":"db169553-a4bd-4bfa-a94b-a9ae2476daab","system_id":"levelo_inurba_marseille","lat":43.30265,"lon":5.37722,"is_reserved":false,"is_disabled":false,"rental_uris":{"android":"levelo://app?vid=db169553-a4bd-4bfa-a94b-a9ae2476daab","ios":"levelo://app?vid=db169553-a4bd-4bfa-a94b-a9ae2476daab"},"vehicle_type_id":"4","last_reported":1727554140,"current_range_meters":28400,"station_id":"ce4bguh2rcd13ifvqcj0","pricing_plan_id":"cebpf4jnsgd1na2vs0mg"},{"bike_id":"576374d5-b88c-4f97-93c5-4616825c8fc9","system_id":"levelo_inurba_marseille","lat":43.27439,"lon":5.39415,"is_reserved":false,"is_disabled":false,"rental_uris":{"android":"levelo://app?vid=576374d5-b88c-4f97-93c5-4616825c8fc9","ios":"levelo://app?vid=576374d5-b88c-4f97-93c5-4616825c8fc9"},"vehicle_type_id":"4","last_reported":1727554140,"current_range_meters":39200,"station_id":"ce4bhdp2rcd13ifvqf20","pricing_plan_id":"cebpf4jnsgd1na2vs0mg"},{"bike_id":"e75e5ceb-3df5-4155-ab37-19d9646e9df1","system_id":"levelo_inurba_marseille","lat":43.28679,"lon":5.38343,"is_reserved":false,"is_disabled":false,"rental_uris":{"android":"levelo://app?vid=e75e5ceb-3df5-4155-ab37-19d9646e9df1","ios":"levelo://app?vid=e75e5ceb-3df5-4155-ab37-19d9646e9df1"},"vehicle_type_id":"4","last_reported":1727554140,"current_range_meters":14000,"station_id":"","pricing_plan_id":"cebpf4jnsgd1na2vs0mg"},{"bike_id":"71f1bb4d-b9bc-43a2-b6e8-4d2a49f0a45c","system_id":"levelo_inurba_marseille","lat":43.27336,"lon":5.39066,"is_reserved":false,"is_disabled":false,"rental_uris":{"android":"levelo://app?vid=71f1bb4d-b9bc-43a2-b6e8-4d2a49f0a45c","ios":"levelo://app?vid=71f1bb4d-b9bc-43a2-b6e8-4d2a49f0a45c"},"vehicle_type_id":"4","last_reported":1727554140,"current_range_meters":38800,"station_id":"ce4bhgp2rcd13ifvqfe0","pricing_plan_id":"cebpf4jnsgd1na2vs0mg"},{"bike_id":"65b9b958-16f1-411c-a2c7-3c2353d4d07c","system_id":"levelo_inurba_marseille","lat":43.3176,"lon":5.3901,"is_reserved":false,"is_disabled":false,"rental_uris":{"android":"levelo://app?vid=65b9b958-16f1-411c-a2c7-3c2353d4d07c","ios":"levelo://app?vid=65b9b958-16f1-411c-a2c7-3c2353d4d07c"},"vehicle_type_id":"4","last_reported":1727554140,"current_range_meters":8000,"station_id":"ce4bhqp2rcd13ifvqhng","pricing_plan_id":"cebpf4jnsgd1na2vs0mg"},{"bike_id":"a5564a9a-3d9e-405c-b3bf-4c7bb6eae734","system_id":"levelo_inurba_marseille","lat":43.286072,"lon":5.37064,"is_reserved":false,"is_disabled":false,"rental_uris":{"android":"levelo://app?vid=a5564a9a-3d9e-405c-b3bf-4c7bb6eae734","ios":"levelo://app?vid=a5564a9a-3d9e-405c-b3bf-4c7bb6eae734"},"vehicle_type_id":"4","last_reported":1727554140,"current_range_meters":14400,"station_id":"ce4bht12rcd13ifvqi60","pricing_plan_id":"cebpf4jnsgd1na2vs0mg"},{"bike_id":"068708ae-427f-4495-a710-061be8d8cd5c","system_id":"levelo_inurba_marseille","lat":43.28702,"lon":5.39988,"is_reserved":false,"is_disabled":false,"rental_uris":{"android":"levelo://app?vid=068708ae-427f-4495-a710-061be8d8cd5c","ios":"levelo://app?vid=068708ae-427f-4495-a710-061be8d8cd5c"},"vehicle_type_id":"4","last_reported":1727554140,"current_range_meters":22000,"station_id":"ce4bho92rcd13ifvqh3g","pricing_plan_id":"cebpf4jnsgd1na2vs0mg"},{"bike_id":"bd5bccde-8df1-429f-89fc-ae35dbc83735","system_id":"levelo_inurba_marseille","lat":43.27204,"lon":5.39187,"is_reserved":false,"is_disabled":false,"rental_uris":{"android":"levelo://app?vid=bd5bccde-8df1-429f-89fc-ae35dbc83735","ios":"levelo://app?vid=bd5bccde-8df1-429f-89fc-ae35dbc83735"},"vehicle_type_id":"4","last_reported":1727554140,"current_range_meters":38800,"station_id":"ce4bhhp2rcd13ifvqfm0","pricing_plan_id":"cebpf4jnsgd1na2vs0mg"},{"bike_id":"7bdb6542-34d4-409e-96e4-4aeb97032ede","system_id":"levelo_inurba_marseille","lat":43.29553,"lon":5.42292,"is_reserved":false,"is_disabled":false,"rental_uris":{"android":"levelo://app?vid=7bdb6542-34d4-409e-96e4-4aeb97032ede","ios":"levelo://app?vid=7bdb6542-34d4-409e-96e4-4aeb97032ede"},"vehicle_type_id":"4","last_reported":1727554140,"current_range_meters":8800,"station_id":"ce4bhph2rcd13ifvqhdg","pricing_plan_id":"cebpf4jnsgd1na2vs0mg"},{"bike_id":"0a3bbd0b-1bcc-4c92-ad6a-e711dedcf760","system_id":"levelo_inurba_marseille","lat":43.29619,"lon":5.37151,"is_reserved":false,"is_disabled":false,"rental_uris":{"android":"levelo://app?vid=0a3bbd0b-1bcc-4c92-ad6a-e711dedcf760","ios":"levelo://app?vid=0a3bbd0b-1bcc-4c92-ad6a-e711dedcf760"},"vehicle_type_id":"4","last_reported":1727554140,"current_range_meters":9600,"station_id":"ce4bgnh2rcd13ifvqc0g","pricing_plan_id":"cebpf4jnsgd1na2vs0mg"},{"bike_id":"c529090c-5370-45e9-ba3f-f55585b5289b","system_id":"levelo_inurba_marseille","lat":43.25001,"lon":5.3893,"is_reserved":false,"is_disabled":false,"rental_uris":{"android":"levelo://app?vid=c529090c-5370-45e9-ba3f-f55585b5289b","ios":"levelo://app?vid=c529090c-5370-45e9-ba3f-f55585b5289b"},"vehicle_type_id":"4","last_reported":1727554140,"current_range_meters":30400,"station_id":"ce4bhgp2rcd13ifvqfd0","pricing_plan_id":"cebpf4jnsgd1na2vs0mg"},{"bike_id":"9d4bebe4-4cbe-4aba-9ace-d74e45fb3e99","system_id":"levelo_inurba_marseille","lat":43.29977,"lon":5.37181,"is_reserved":false,"is_disabled":false,"rental_uris":{"android":"levelo://app?vid=9d4bebe4-4cbe-4aba-9ace-d74e45fb3e99","ios":"levelo://app?vid=9d4bebe4-4cbe-4aba-9ace-d74e45fb3e99"},"vehicle_type_id":"4","last_reported":1727554140,"current_range_meters":30400,"station_id":"ce4bgr92rcd13ifvqc7g","pricing_plan_id":"cebpf4jnsgd1na2vs0mg"},{"bike_id":"c43bfb47-f661-42db-9c96-07abfa6154d1","system_id":"levelo_inurba_marseille","lat":43.28709,"lon":5.39984,"is_reserved":false,"is_disabled":false,"rental_uris":{"android":"levelo://app?vid=c43bfb47-f661-42db-9c96-07abfa6154d1","ios":"levelo://app?vid=c43bfb47-f661-42db-9c96-07abfa6154d1"},"vehicle_type_id":"4","last_reported":1727554140,"current_range_meters":15200,"station_id":"ce4bho92rcd13ifvqh3g","pricing_plan_id":"cebpf4jnsgd1na2vs0mg"},{"bike_id":"92ba4272-04fe-4574-9211-466b7ece27d8","system_id":"levelo_inurba_marseille","lat":43.31089,"lon":5.38358,"is_reserved":false,"is_disabled":false,"rental_uris":{"android":"levelo://app?vid=92ba4272-04fe-4574-9211-466b7ece27d8","ios":"levelo://app?vid=92ba4272-04fe-4574-9211-466b7ece27d8"},"vehicle_type_id":"4","last_reported":1727554140,"current_range_meters":34000,"station_id":"ce4bgv92rcd13ifvqcr0","pricing_plan_id":"cebpf4jnsgd1na2vs0mg"},{"bike_id":"1ce7c25b-6bd2-4b64-b4ae-543ea784fc5d","system_id":"levelo_inurba_marseille","lat":43.337444,"lon":5.374475,"is_reserved":false,"is_disabled":false,"rental_uris":{"android":"levelo://app?vid=1ce7c25b-6bd2-4b64-b4ae-543ea784fc5d","ios":"levelo://app?vid=1ce7c25b-6bd2-4b64-b4ae-543ea784fc5d"},"vehicle_type_id":"4","last_reported":1727554140,"current_range_meters":35600,"station_id":"","pricing_plan_id":"cebpf4jnsgd1na2vs0mg"},{"bike_id":"a1c3dd20-86c0-4dad-a795-b2047bec3f5b","system_id":"levelo_inurba_marseille","lat":43.31759,"lon":5.39025,"is_reserved":false,"is_disabled":false,"rental_uris":{"android":"levelo://app?vid=a1c3dd20-86c0-4dad-a795-b2047bec3f5b","ios":"levelo://app?vid=a1c3dd20-86c0-4dad-a795-b2047bec3f5b"},"vehicle_type_id":"4","last_reported":1727554140,"current_range_meters":15200,"station_id":"ce4bhqp2rcd13ifvqhng","pricing_plan_id":"cebpf4jnsgd1na2vs0mg"},{"bike_id":"8a019057-df41-4cd9-8391-6e887f9eb193","system_id":"levelo_inurba_marseille","lat":43.29308,"lon":5.3718,"is_reserved":false,"is_disabled":false,"rental_uris":{"android":"levelo://app?vid=8a019057-df41-4cd9-8391-6e887f9eb193","ios":"levelo://app?vid=8a019057-df41-4cd9-8391-6e887f9eb193"},"vehicle_type_id":"4","last_reported":1727554140,"current_range_meters":8800,"station_id":"ce4bgh92rcd13ifvqb40","pricing_plan_id":"cebpf4jnsgd1na2vs0mg"},{"bike_id":"35a6ca74-a0b6-4f73-bcf2-e86397ec7a04","system_id":"levelo_inurba_marseille","lat":43.24811,"lon":5.37466,"is_reserved":false,"is_disabled":false,"rental_uris":{"android":"levelo://app?vid=35a6ca74-a0b6-4f73-bcf2-e86397ec7a04","ios":"levelo://app?vid=35a6ca74-a0b6-4f73-bcf2-e86397ec7a04"},"vehicle_type_id":"4","last_reported":1727554140,"current_range_meters":6000,"station_id":"ce4bhgh2rcd13ifvqfb0","pricing_plan_id":"cebpf4jnsgd1na2vs0mg"},{"bike_id":"0c6a3edd-0259-43fd-a8d1-3d4bb6023605","system_id":"levelo_inurba_marseille","lat":43.24388,"lon":5.37051,"is_reserved":false,"is_disabled":false,"rental_uris":{"android":"levelo://app?vid=0c6a3edd-0259-43fd-a8d1-3d4bb6023605","ios":"levelo://app?vid=0c6a3edd-0259-43fd-a8d1-3d4bb6023605"},"vehicle_type_id":"4","last_reported":1727554140,"current_range_meters":39200,"station_id":"ce4bhhh2rcd13ifvqfk0","pricing_plan_id":"cebpf4jnsgd1na2vs0mg"},{"bike_id":"8a035201-6951-4d72-b1c6-11fa2fef3d64","system_id":"levelo_inurba_marseille","lat":43.29514,"lon":5.39399,"is_reserved":false,"is_disabled":false,"rental_uris":{"android":"levelo://app?vid=8a035201-6951-4d72-b1c6-11fa2fef3d64","ios":"levelo://app?vid=8a035201-6951-4d72-b1c6-11fa2fef3d64"},"vehicle_type_id":"4","last_reported":1727554140,"current_range_meters":8400,"station_id":"ce4bh292rcd13ifvqdf0","pricing_plan_id":"cebpf4jnsgd1na2vs0mg"},{"bike_id":"dfb89af8-93a3-4994-a4ce-dfae5a768631","system_id":"levelo_inurba_marseille","lat":43.26951,"lon":5.38631,"is_reserved":false,"is_disabled":false,"rental_uris":{"android":"levelo://app?vid=dfb89af8-93a3-4994-a4ce-dfae5a768631","ios":"levelo://app?vid=dfb89af8-93a3-4994-a4ce-dfae5a768631"},"vehicle_type_id":"4","last_reported":1727554140,"current_range_meters":32800,"station_id":"ce4bhh92rcd13ifvqfh0","pricing_plan_id":"cebpf4jnsgd1na2vs0mg"},{"bike_id":"b66932d9-32db-446e-b439-29b88a88e699","system_id":"levelo_inurba_marseille","lat":43.26947,"lon":5.40256,"is_reserved":false,"is_disabled":false,"rental_uris":{"android":"levelo://app?vid=b66932d9-32db-446e-b439-29b88a88e699","ios":"levelo://app?vid=b66932d9-32db-446e-b439-29b88a88e699"},"vehicle_type_id":"4","last_reported":1727554140,"current_range_meters":20000,"station_id":"cjm6bp8fraef2m0cb0m0","pricing_plan_id":"cebpf4jnsgd1na2vs0mg"},{"bike_id":"e0e8ee0e-e8e5-480a-a56b-328e71d7897b","system_id":"levelo_inurba_marseille","lat":43.29414,"lon":5.38631,"is_reserved":false,"is_disabled":false,"rental_uris":{"android":"levelo://app?vid=e0e8ee0e-e8e5-480a-a56b-328e71d7897b","ios":"levelo://app?vid=e0e8ee0e-e8e5-480a-a56b-328e71d7897b"},"vehicle_type_id":"4","last_reported":1727554140,"current_range_meters":24800,"station_id":"ce4bh2h2rcd13ifvqdh0","pricing_plan_id":"cebpf4jnsgd1na2vs0mg"},{"bike_id":"ed2c929d-ccf1-4bc4-8bed-19cb9b4ec13a","system_id":"levelo_inurba_marseille","lat":43.2927,"lon":5.38446,"is_reserved":false,"is_disabled":false,"rental_uris":{"android":"levelo://app?vid=ed2c929d-ccf1-4bc4-8bed-19cb9b4ec13a","ios":"levelo://app?vid=ed2c929d-ccf1-4bc4-8bed-19cb9b4ec13a"},"vehicle_type_id":"4","last_reported":1727554140,"current_range_meters":6800,"station_id":"ce4bh692rcd13ifvqea0","pricing_plan_id":"cebpf4jnsgd1na2vs0mg"},{"bike_id":"6a52f468-9bf5-46c2-819d-2c732c18128e","system_id":"levelo_inurba_marseille","lat":43.23961,"lon":5.3663,"is_reserved":false,"is_disabled":false,"rental_uris":{"android":"levelo://app?vid=6a52f468-9bf5-46c2-819d-2c732c18128e","ios":"levelo://app?vid=6a52f468-9bf5-46c2-819d-2c732c18128e"},"vehicle_type_id":"4","last_reported":1727554140,"current_range_meters":38400,"station_id":"ce4bhi12rcd13ifvqfp0","pricing_plan_id":"cebpf4jnsgd1na2vs0mg"},{"bike_id":"d17cbdf5-a8e2-4cf3-a396-9646ddb8f67e","system_id":"levelo_inurba_marseille","lat":43.29575,"lon":5.37498,"is_reserved":false,"is_disabled":false,"rental_uris":{"android":"levelo://app?vid=d17cbdf5-a8e2-4cf3-a396-9646ddb8f67e","ios":"levelo://app?vid=d17cbdf5-a8e2-4cf3-a396-9646ddb8f67e"},"vehicle_type_id":"4","last_reported":1727554140,"current_range_meters":28400,"station_id":"ce4bgh92rcd13ifvqb50","pricing_plan_id":"cebpf4jnsgd1na2vs0mg"},{"bike_id":"5eb476b5-6595-49e9-8157-3ba9890ecfa8","system_id":"levelo_inurba_marseille","lat":43.30632,"lon":5.40086,"is_reserved":false,"is_disabled":false,"rental_uris":{"android":"levelo://app?vid=5eb476b5-6595-49e9-8157-3ba9890ecfa8","ios":"levelo://app?vid=5eb476b5-6595-49e9-8157-3ba9890ecfa8"},"vehicle_type_id":"4","last_reported":1727554140,"current_range_meters":16800,"station_id":"ce4bh112rcd13ifvqda0","pricing_plan_id":"cebpf4jnsgd1na2vs0mg"},{"bike_id":"72be6392-a3f1-4c72-9845-ba02653fbb3f","system_id":"levelo_inurba_marseille","lat":43.2927,"lon":5.38445,"is_reserved":false,"is_disabled":false,"rental_uris":{"android":"levelo://app?vid=72be6392-a3f1-4c72-9845-ba02653fbb3f","ios":"levelo://app?vid=72be6392-a3f1-4c72-9845-ba02653fbb3f"},"vehicle_type_id":"4","last_reported":1727554140,"current_range_meters":39200,"station_id":"ce4bh692rcd13ifvqea0","pricing_plan_id":"cebpf4jnsgd1na2vs0mg"},{"bike_id":"67b9eb05-c36e-4582-9b61-98d56d57348d","system_id":"levelo_inurba_marseille","lat":43.26058,"lon":5.39397,"is_reserved":false,"is_disabled":false,"rental_uris":{"android":"levelo://app?vid=67b9eb05-c36e-4582-9b61-98d56d57348d","ios":"levelo://app?vid=67b9eb05-c36e-4582-9b61-98d56d57348d"},"vehicle_type_id":"4","last_reported":1727554140,"current_range_meters":39200,"station_id":"ce4bhh92rcd13ifvqfj0","pricing_plan_id":"cebpf4jnsgd1na2vs0mg"},{"bike_id":"4d4842cd-4e24-4ddf-ada9-4c71cb2f461d","system_id":"levelo_inurba_marseille","lat":43.309415,"lon":5.390215,"is_reserved":false,"is_disabled":false,"rental_uris":{"android":"levelo://app?vid=4d4842cd-4e24-4ddf-ada9-4c71cb2f461d","ios":"levelo://app?vid=4d4842cd-4e24-4ddf-ada9-4c71cb2f461d"},"vehicle_type_id":"4","last_reported":1727554140,"current_range_meters":28400,"station_id":"ce4bgup2rcd13ifvqco0","pricing_plan_id":"cebpf4jnsgd1na2vs0mg"},{"bike_id":"6811c9ec-ea64-44b4-93d3-158194024def","system_id":"levelo_inurba_marseille","lat":43.30532,"lon":5.38428,"is_reserved":false,"is_disabled":false,"rental_uris":{"android":"levelo://app?vid=6811c9ec-ea64-44b4-93d3-158194024def","ios":"levelo://app?vid=6811c9ec-ea64-44b4-93d3-158194024def"},"vehicle_type_id":"4","last_reported":1727554140,"current_range_meters":38800,"station_id":"ce4bgg92rcd13ifvqb30","pricing_plan_id":"cebpf4jnsgd1na2vs0mg"},{"bike_id":"1a08eb27-5616-4615-8c7f-aaa33811054b","system_id":"levelo_inurba_marseille","lat":43.24805,"lon":5.37462,"is_reserved":false,"is_disabled":false,"rental_uris":{"android":"levelo://app?vid=1a08eb27-5616-4615-8c7f-aaa33811054b","ios":"levelo://app?vid=1a08eb27-5616-4615-8c7f-aaa33811054b"},"vehicle_type_id":"4","last_reported":1727554140,"current_range_meters":37600,"station_id":"ce4bhgh2rcd13ifvqfb0","pricing_plan_id":"cebpf4jnsgd1na2vs0mg"},{"bike_id":"b088e504-ed91-4dd2-acf2-4022dbc311c9","system_id":"levelo_inurba_marseille","lat":43.32283,"lon":5.38272,"is_reserved":false,"is_disabled":false,"rental_uris":{"android":"levelo://app?vid=b088e504-ed91-4dd2-acf2-4022dbc311c9","ios":"levelo://app?vid=b088e504-ed91-4dd2-acf2-4022dbc311c9"},"vehicle_type_id":"4","last_reported":1727554140,"current_range_meters":2800,"station_id":"ce4bhr12rcd13ifvqhqg","pricing_plan_id":"cebpf4jnsgd1na2vs0mg"},{"bike_id":"a79cd993-7ebd-4a8d-9fbf-95a06dc866e6","system_id":"levelo_inurba_marseille","lat":43.30596,"lon":5.39351,"is_reserved":false,"is_disabled":false,"rental_uris":{"android":"levelo://app?vid=a79cd993-7ebd-4a8d-9fbf-95a06dc866e6","ios":"levelo://app?vid=a79cd993-7ebd-4a8d-9fbf-95a06dc866e6"},"vehicle_type_id":"4","last_reported":1727554140,"current_range_meters":31200,"station_id":"ce4bh0p2rcd13ifvqd80","pricing_plan_id":"cebpf4jnsgd1na2vs0mg"},{"bike_id":"dfec0b75-7b49-4cda-b4d9-0b1e8e3505cf","system_id":"levelo_inurba_marseille","lat":43.29597,"lon":5.38096,"is_reserved":false,"is_disabled":false,"rental_uris":{"android":"levelo://app?vid=dfec0b75-7b49-4cda-b4d9-0b1e8e3505cf","ios":"levelo://app?vid=dfec0b75-7b49-4cda-b4d9-0b1e8e3505cf"},"vehicle_type_id":"4","last_reported":1727554140,"current_range_meters":27600,"station_id":"ce4bgl12rcd13ifvqbo0","pricing_plan_id":"cebpf4jnsgd1na2vs0mg"},{"bike_id":"84fe5dbc-6da3-4064-b700-83e5e6284ff0","system_id":"levelo_inurba_marseille","lat":43.28931,"lon":5.38408,"is_reserved":false,"is_disabled":false,"rental_uris":{"android":"levelo://app?vid=84fe5dbc-6da3-4064-b700-83e5e6284ff0","ios":"levelo://app?vid=84fe5dbc-6da3-4064-b700-83e5e6284ff0"},"vehicle_type_id":"4","last_reported":1727554140,"current_range_meters":28000,"station_id":"ce4bh612rcd13ifvqe6g","pricing_plan_id":"cebpf4jnsgd1na2vs0mg"},{"bike_id":"ec893285-8db7-4fa4-8b09-f0fd5536ceaa","system_id":"levelo_inurba_marseille","lat":43.29422,"lon":5.38628,"is_reserved":false,"is_disabled":false,"rental_uris":{"android":"levelo://app?vid=ec893285-8db7-4fa4-8b09-f0fd5536ceaa","ios":"levelo://app?vid=ec893285-8db7-4fa4-8b09-f0fd5536ceaa"},"vehicle_type_id":"4","last_reported":1727554140,"current_range_meters":28000,"station_id":"ce4bh2h2rcd13ifvqdh0","pricing_plan_id":"cebpf4jnsgd1na2vs0mg"},{"bike_id":"80174867-478e-4b18-98ab-2ea7779a0f88","system_id":"levelo_inurba_marseille","lat":43.28694,"lon":5.37389,"is_reserved":false,"is_disabled":false,"rental_uris":{"android":"levelo://app?vid=80174867-478e-4b18-98ab-2ea7779a0f88","ios":"levelo://app?vid=80174867-478e-4b18-98ab-2ea7779a0f88"},"vehicle_type_id":"4","last_reported":1727554140,"current_range_meters":38800,"station_id":"ce4bh3p2rcd13ifvqdq0","pricing_plan_id":"cebpf4jnsgd1na2vs0mg"},{"bike_id":"c461601d-3770-42d3-b850-f6196138e0e3","system_id":"levelo_inurba_marseille","lat":43.31326,"lon":5.397,"is_reserved":false,"is_disabled":false,"rental_uris":{"android":"levelo://app?vid=c461601d-3770-42d3-b850-f6196138e0e3","ios":"levelo://app?vid=c461601d-3770-42d3-b850-f6196138e0e3"},"vehicle_type_id":"4","last_reported":1727554140,"current_range_meters":26800,"station_id":"ce4bgvp2rcd13ifvqcu0","pricing_plan_id":"cebpf4jnsgd1na2vs0mg"},{"bike_id":"29634a5f-ecdb-444c-85c8-b343d02f7b33","system_id":"levelo_inurba_marseille","lat":43.31761,"lon":5.39016,"is_reserved":false,"is_disabled":false,"rental_uris":{"android":"levelo://app?vid=29634a5f-ecdb-444c-85c8-b343d02f7b33","ios":"levelo://app?vid=29634a5f-ecdb-444c-85c8-b343d02f7b33"},"vehicle_type_id":"4","last_reported":1727554140,"current_range_meters":2000,"station_id":"ce4bhqp2rcd13ifvqhng","pricing_plan_id":"cebpf4jnsgd1na2vs0mg"},{"bike_id":"3b041a03-b658-4fb5-8668-a5cefdafc23a","system_id":"levelo_inurba_marseille","lat":43.27805,"lon":5.3921,"is_reserved":false,"is_disabled":false,"rental_uris":{"android":"levelo://app?vid=3b041a03-b658-4fb5-8668-a5cefdafc23a","ios":"levelo://app?vid=3b041a03-b658-4fb5-8668-a5cefdafc23a"},"vehicle_type_id":"4","last_reported":1727554140,"current_range_meters":38800,"station_id":"ce4bhjp2rcd13ifvqga0","pricing_plan_id":"cebpf4jnsgd1na2vs0mg"},{"bike_id":"002edf54-c8dd-4517-bbd7-b08941990a52","system_id":"levelo_inurba_marseille","lat":43.28264,"lon":5.35046,"is_reserved":false,"is_disabled":false,"rental_uris":{"android":"levelo://app?vid=002edf54-c8dd-4517-bbd7-b08941990a52","ios":"levelo://app?vid=002edf54-c8dd-4517-bbd7-b08941990a52"},"vehicle_type_id":"4","last_reported":1727554140,"current_range_meters":9200,"station_id":"ce4bhbp2rcd13ifvqerg","pricing_plan_id":"cebpf4jnsgd1na2vs0mg"},{"bike_id":"23eedc40-86ab-4d96-a0c9-7d9c089c1d01","system_id":"levelo_inurba_marseille","lat":43.26954,"lon":5.38634,"is_reserved":false,"is_disabled":false,"rental_uris":{"android":"levelo://app?vid=23eedc40-86ab-4d96-a0c9-7d9c089c1d01","ios":"levelo://app?vid=23eedc40-86ab-4d96-a0c9-7d9c089c1d01"},"vehicle_type_id":"4","last_reported":1727554140,"current_range_meters":25600,"station_id":"ce4bhh92rcd13ifvqfh0","pricing_plan_id":"cebpf4jnsgd1na2vs0mg"},{"bike_id":"cf2a99f0-171d-46e2-b5f9-b8e518581e33","system_id":"levelo_inurba_marseille","lat":43.23956,"lon":5.36633,"is_reserved":false,"is_disabled":false,"rental_uris":{"android":"levelo://app?vid=cf2a99f0-171d-46e2-b5f9-b8e518581e33","ios":"levelo://app?vid=cf2a99f0-171d-46e2-b5f9-b8e518581e33"},"vehicle_type_id":"4","last_reported":1727554140,"current_range_meters":36400,"station_id":"ce4bhi12rcd13ifvqfp0","pricing_plan_id":"cebpf4jnsgd1na2vs0mg"},{"bike_id":"e5f96fcd-0538-4d74-8ab8-d19e4df7cc95","system_id":"levelo_inurba_marseille","lat":43.31763,"lon":5.39011,"is_reserved":false,"is_disabled":false,"rental_uris":{"android":"levelo://app?vid=e5f96fcd-0538-4d74-8ab8-d19e4df7cc95","ios":"levelo://app?vid=e5f96fcd-0538-4d74-8ab8-d19e4df7cc95"},"vehicle_type_id":"4","last_reported":1727554140,"current_range_meters":14800,"station_id":"ce4bhqp2rcd13ifvqhng","pricing_plan_id":"cebpf4jnsgd1na2vs0mg"},{"bike_id":"a1585792-a705-409d-93a4-c31da8100088","system_id":"levelo_inurba_marseille","lat":43.23191,"lon":5.35552,"is_reserved":false,"is_disabled":false,"rental_uris":{"android":"levelo://app?vid=a1585792-a705-409d-93a4-c31da8100088","ios":"levelo://app?vid=a1585792-a705-409d-93a4-c31da8100088"},"vehicle_type_id":"4","last_reported":1727554140,"current_range_meters":14000,"station_id":"ce4bhu92rcd13ifvqi70","pricing_plan_id":"cebpf4jnsgd1na2vs0mg"},{"bike_id":"fdb61897-97d0-4689-adc4-02e79ee31d57","system_id":"levelo_inurba_marseille","lat":43.239551,"lon":5.366341,"is_reserved":false,"is_disabled":false,"rental_uris":{"android":"levelo://app?vid=fdb61897-97d0-4689-adc4-02e79ee31d57","ios":"levelo://app?vid=fdb61897-97d0-4689-adc4-02e79ee31d57"},"vehicle_type_id":"4","last_reported":1727554140,"current_range_meters":38400,"station_id":"ce4bhi12rcd13ifvqfp0","pricing_plan_id":"cebpf4jnsgd1na2vs0mg"},{"bike_id":"52f17877-110a-422d-89ae-fdeda162e6f3","system_id":"levelo_inurba_marseille","lat":43.23956,"lon":5.36641,"is_reserved":false,"is_disabled":false,"rental_uris":{"android":"levelo://app?vid=52f17877-110a-422d-89ae-fdeda162e6f3","ios":"levelo://app?vid=52f17877-110a-422d-89ae-fdeda162e6f3"},"vehicle_type_id":"4","last_reported":1727554140,"current_range_meters":9600,"station_id":"ce4bhi12rcd13ifvqfp0","pricing_plan_id":"cebpf4jnsgd1na2vs0mg"},{"bike_id":"7a8f28c6-ab6f-49c3-b59d-8e597cfc4655","system_id":"levelo_inurba_marseille","lat":43.33724,"lon":5.39178,"is_reserved":false,"is_disabled":false,"rental_uris":{"android":"levelo://app?vid=7a8f28c6-ab6f-49c3-b59d-8e597cfc4655","ios":"levelo://app?vid=7a8f28c6-ab6f-49c3-b59d-8e597cfc4655"},"vehicle_type_id":"4","last_reported":1727554140,"current_range_meters":22400,"station_id":"ce4bhr92rcd13ifvqhsg","pricing_plan_id":"cebpf4jnsgd1na2vs0mg"},{"bike_id":"a6291ccb-3e5c-4644-a68b-317a34485088","system_id":"levelo_inurba_marseille","lat":43.30794,"lon":5.38164,"is_reserved":false,"is_disabled":false,"rental_uris":{"android":"levelo://app?vid=a6291ccb-3e5c-4644-a68b-317a34485088","ios":"levelo://app?vid=a6291ccb-3e5c-4644-a68b-317a34485088"},"vehicle_type_id":"4","last_reported":1727554140,"current_range_meters":36800,"station_id":"ce4bgt12rcd13ifvqce0","pricing_plan_id":"cebpf4jnsgd1na2vs0mg"},{"bike_id":"ab994941-8182-4cf4-af2e-1d33fc2c5393","system_id":"levelo_inurba_marseille","lat":43.2573,"lon":5.41111,"is_reserved":false,"is_disabled":false,"rental_uris":{"android":"levelo://app?vid=ab994941-8182-4cf4-af2e-1d33fc2c5393","ios":"levelo://app?vid=ab994941-8182-4cf4-af2e-1d33fc2c5393"},"vehicle_type_id":"4","last_reported":1727554140,"current_range_meters":6800,"station_id":"ce4bhkp2rcd13ifvqgd0","pricing_plan_id":"cebpf4jnsgd1na2vs0mg"},{"bike_id":"1347408c-e17f-4890-9dba-2621d2b63fef","system_id":"levelo_inurba_marseille","lat":43.28076,"lon":5.39665,"is_reserved":false,"is_disabled":false,"rental_uris":{"android":"levelo://app?vid=1347408c-e17f-4890-9dba-2621d2b63fef","ios":"levelo://app?vid=1347408c-e17f-4890-9dba-2621d2b63fef"},"vehicle_type_id":"4","last_reported":1727554140,"current_range_meters":28000,"station_id":"ce4bho12rcd13ifvqh2g","pricing_plan_id":"cebpf4jnsgd1na2vs0mg"},{"bike_id":"8706dbad-74a1-4401-bd4a-b4ae01455ac4","system_id":"levelo_inurba_marseille","lat":43.27622,"lon":5.36108,"is_reserved":false,"is_disabled":false,"rental_uris":{"android":"levelo://app?vid=8706dbad-74a1-4401-bd4a-b4ae01455ac4","ios":"levelo://app?vid=8706dbad-74a1-4401-bd4a-b4ae01455ac4"},"vehicle_type_id":"4","last_reported":1727554140,"current_range_meters":19600,"station_id":"ce4bgj92rcd13ifvqbe0","pricing_plan_id":"cebpf4jnsgd1na2vs0mg"},{"bike_id":"9e0e602a-711e-4e75-a4b3-f0d70db8f823","system_id":"levelo_inurba_marseille","lat":43.23958,"lon":5.36641,"is_reserved":false,"is_disabled":false,"rental_uris":{"android":"levelo://app?vid=9e0e602a-711e-4e75-a4b3-f0d70db8f823","ios":"levelo://app?vid=9e0e602a-711e-4e75-a4b3-f0d70db8f823"},"vehicle_type_id":"4","last_reported":1727554140,"current_range_meters":18000,"station_id":"ce4bhi12rcd13ifvqfp0","pricing_plan_id":"cebpf4jnsgd1na2vs0mg"},{"bike_id":"0b70659b-826c-4cb0-8faa-bce4f3dbdbd5","system_id":"levelo_inurba_marseille","lat":43.29305,"lon":5.3718,"is_reserved":false,"is_disabled":false,"rental_uris":{"android":"levelo://app?vid=0b70659b-826c-4cb0-8faa-bce4f3dbdbd5","ios":"levelo://app?vid=0b70659b-826c-4cb0-8faa-bce4f3dbdbd5"},"vehicle_type_id":"4","last_reported":1727554140,"current_range_meters":8000,"station_id":"ce4bgh92rcd13ifvqb40","pricing_plan_id":"cebpf4jnsgd1na2vs0mg"},{"bike_id":"594923ab-6151-46ef-b1e9-625586026106","system_id":"levelo_inurba_marseille","lat":43.31325,"lon":5.39692,"is_reserved":false,"is_disabled":false,"rental_uris":{"android":"levelo://app?vid=594923ab-6151-46ef-b1e9-625586026106","ios":"levelo://app?vid=594923ab-6151-46ef-b1e9-625586026106"},"vehicle_type_id":"4","last_reported":1727554140,"current_range_meters":11600,"station_id":"ce4bgvp2rcd13ifvqcu0","pricing_plan_id":"cebpf4jnsgd1na2vs0mg"},{"bike_id":"2d527b57-f1c3-402a-bdb7-1a17c2c3785a","system_id":"levelo_inurba_marseille","lat":43.30604,"lon":5.39366,"is_reserved":false,"is_disabled":false,"rental_uris":{"android":"levelo://app?vid=2d527b57-f1c3-402a-bdb7-1a17c2c3785a","ios":"levelo://app?vid=2d527b57-f1c3-402a-bdb7-1a17c2c3785a"},"vehicle_type_id":"4","last_reported":1727554140,"current_range_meters":37600,"station_id":"ce4bh0p2rcd13ifvqd80","pricing_plan_id":"cebpf4jnsgd1na2vs0mg"},{"bike_id":"8a35be95-6cd2-4041-8200-c2aa9e20d412","system_id":"levelo_inurba_marseille","lat":43.31363,"lon":5.38491,"is_reserved":false,"is_disabled":false,"rental_uris":{"android":"levelo://app?vid=8a35be95-6cd2-4041-8200-c2aa9e20d412","ios":"levelo://app?vid=8a35be95-6cd2-4041-8200-c2aa9e20d412"},"vehicle_type_id":"4","last_reported":1727554140,"current_range_meters":26000,"station_id":"ce4bgt92rcd13ifvqcf0","pricing_plan_id":"cebpf4jnsgd1na2vs0mg"},{"bike_id":"c0ec6a01-d163-4a51-aaae-770298e876cf","system_id":"levelo_inurba_marseille","lat":43.29267,"lon":5.38435,"is_reserved":false,"is_disabled":false,"rental_uris":{"android":"levelo://app?vid=c0ec6a01-d163-4a51-aaae-770298e876cf","ios":"levelo://app?vid=c0ec6a01-d163-4a51-aaae-770298e876cf"},"vehicle_type_id":"4","last_reported":1727554140,"current_range_meters":29600,"station_id":"ce4bh692rcd13ifvqea0","pricing_plan_id":"cebpf4jnsgd1na2vs0mg"},{"bike_id":"ce987245-adda-45c6-9c5d-48d5eda057cd","system_id":"levelo_inurba_marseille","lat":43.27437,"lon":5.39403,"is_reserved":false,"is_disabled":false,"rental_uris":{"android":"levelo://app?vid=ce987245-adda-45c6-9c5d-48d5eda057cd","ios":"levelo://app?vid=ce987245-adda-45c6-9c5d-48d5eda057cd"},"vehicle_type_id":"4","last_reported":1727554140,"current_range_meters":24000,"station_id":"ce4bhdp2rcd13ifvqf20","pricing_plan_id":"cebpf4jnsgd1na2vs0mg"},{"bike_id":"801dee94-6df9-4ac7-b8ff-19b18de3acb6","system_id":"levelo_inurba_marseille","lat":43.32001,"lon":5.38158,"is_reserved":false,"is_disabled":false,"rental_uris":{"android":"levelo://app?vid=801dee94-6df9-4ac7-b8ff-19b18de3acb6","ios":"levelo://app?vid=801dee94-6df9-4ac7-b8ff-19b18de3acb6"},"vehicle_type_id":"4","last_reported":1727554140,"current_range_meters":26000,"station_id":"ce4bhr12rcd13ifvqhpg","pricing_plan_id":"cebpf4jnsgd1na2vs0mg"},{"bike_id":"76702d69-028a-4093-a56a-5e5d34d277ec","system_id":"levelo_inurba_marseille","lat":43.29602,"lon":5.38103,"is_reserved":false,"is_disabled":false,"rental_uris":{"android":"levelo://app?vid=76702d69-028a-4093-a56a-5e5d34d277ec","ios":"levelo://app?vid=76702d69-028a-4093-a56a-5e5d34d277ec"},"vehicle_type_id":"4","last_reported":1727554140,"current_range_meters":18000,"station_id":"ce4bgl12rcd13ifvqbo0","pricing_plan_id":"cebpf4jnsgd1na2vs0mg"},{"bike_id":"848da01c-249f-40a1-a74f-e4a7991db9ba","system_id":"levelo_inurba_marseille","lat":43.27565,"lon":5.38418,"is_reserved":false,"is_disabled":false,"rental_uris":{"android":"levelo://app?vid=848da01c-249f-40a1-a74f-e4a7991db9ba","ios":"levelo://app?vid=848da01c-249f-40a1-a74f-e4a7991db9ba"},"vehicle_type_id":"4","last_reported":1727554140,"current_range_meters":8800,"station_id":"ce4bhh92rcd13ifvqfi0","pricing_plan_id":"cebpf4jnsgd1na2vs0mg"},{"bike_id":"92e94053-03d5-4b18-9f9d-c68736addb44","system_id":"levelo_inurba_marseille","lat":43.2894,"lon":5.39631,"is_reserved":false,"is_disabled":false,"rental_uris":{"android":"levelo://app?vid=92e94053-03d5-4b18-9f9d-c68736addb44","ios":"levelo://app?vid=92e94053-03d5-4b18-9f9d-c68736addb44"},"vehicle_type_id":"4","last_reported":1727554140,"current_range_meters":22400,"station_id":"ce4bh3h2rcd13ifvqdn0","pricing_plan_id":"cebpf4jnsgd1na2vs0mg"},{"bike_id":"258e025d-f605-4338-84a0-17f713af0b8d","system_id":"levelo_inurba_marseille","lat":43.24806,"lon":5.37452,"is_reserved":false,"is_disabled":false,"rental_uris":{"android":"levelo://app?vid=258e025d-f605-4338-84a0-17f713af0b8d","ios":"levelo://app?vid=258e025d-f605-4338-84a0-17f713af0b8d"},"vehicle_type_id":"4","last_reported":1727554140,"current_range_meters":38400,"station_id":"ce4bhgh2rcd13ifvqfb0","pricing_plan_id":"cebpf4jnsgd1na2vs0mg"},{"bike_id":"48ac0a00-7daa-4c12-9a4d-5dab28220f2e","system_id":"levelo_inurba_marseille","lat":43.32371,"lon":5.38885,"is_reserved":false,"is_disabled":false,"rental_uris":{"android":"levelo://app?vid=48ac0a00-7daa-4c12-9a4d-5dab28220f2e","ios":"levelo://app?vid=48ac0a00-7daa-4c12-9a4d-5dab28220f2e"},"vehicle_type_id":"4","last_reported":1727554140,"current_range_meters":9600,"station_id":"ce4bhqp2rcd13ifvqhog","pricing_plan_id":"cebpf4jnsgd1na2vs0mg"},{"bike_id":"e4b45857-e73a-4ad5-94a9-b83516dbb585","system_id":"levelo_inurba_marseille","lat":43.29309,"lon":5.3718,"is_reserved":false,"is_disabled":false,"rental_uris":{"android":"levelo://app?vid=e4b45857-e73a-4ad5-94a9-b83516dbb585","ios":"levelo://app?vid=e4b45857-e73a-4ad5-94a9-b83516dbb585"},"vehicle_type_id":"4","last_reported":1727554140,"current_range_meters":3200,"station_id":"ce4bgh92rcd13ifvqb40","pricing_plan_id":"cebpf4jnsgd1na2vs0mg"},{"bike_id":"937ae9ba-4750-482e-be10-8463290fb54f","system_id":"levelo_inurba_marseille","lat":43.28856,"lon":5.39305,"is_reserved":false,"is_disabled":false,"rental_uris":{"android":"levelo://app?vid=937ae9ba-4750-482e-be10-8463290fb54f","ios":"levelo://app?vid=937ae9ba-4750-482e-be10-8463290fb54f"},"vehicle_type_id":"4","last_reported":1727554140,"current_range_meters":38800,"station_id":"ce4bh2p2rcd13ifvqdi0","pricing_plan_id":"cebpf4jnsgd1na2vs0mg"},{"bike_id":"1f313afb-1cf8-4bb7-8831-2c9f193c2d0c","system_id":"levelo_inurba_marseille","lat":43.24807,"lon":5.37456,"is_reserved":false,"is_disabled":false,"rental_uris":{"android":"levelo://app?vid=1f313afb-1cf8-4bb7-8831-2c9f193c2d0c","ios":"levelo://app?vid=1f313afb-1cf8-4bb7-8831-2c9f193c2d0c"},"vehicle_type_id":"4","last_reported":1727554140,"current_range_meters":38800,"station_id":"ce4bhgh2rcd13ifvqfb0","pricing_plan_id":"cebpf4jnsgd1na2vs0mg"},{"bike_id":"a63d4449-4f5a-4f1c-9a3c-27c8d74bd2a3","system_id":"levelo_inurba_marseille","lat":43.2439,"lon":5.37066,"is_reserved":false,"is_disabled":false,"rental_uris":{"android":"levelo://app?vid=a63d4449-4f5a-4f1c-9a3c-27c8d74bd2a3","ios":"levelo://app?vid=a63d4449-4f5a-4f1c-9a3c-27c8d74bd2a3"},"vehicle_type_id":"4","last_reported":1727554140,"current_range_meters":14000,"station_id":"ce4bhhh2rcd13ifvqfk0","pricing_plan_id":"cebpf4jnsgd1na2vs0mg"},{"bike_id":"3e741017-2423-453a-bb3a-7aec8a140001","system_id":"levelo_inurba_marseille","lat":43.28984,"lon":5.37841,"is_reserved":false,"is_disabled":false,"rental_uris":{"android":"levelo://app?vid=3e741017-2423-453a-bb3a-7aec8a140001","ios":"levelo://app?vid=3e741017-2423-453a-bb3a-7aec8a140001"},"vehicle_type_id":"4","last_reported":1727554140,"current_range_meters":39200,"station_id":"ce4bh9p2rcd13ifvqed0","pricing_plan_id":"cebpf4jnsgd1na2vs0mg"},{"bike_id":"3f889fa7-0afe-47d8-8179-bf94a4fbd22a","system_id":"levelo_inurba_marseille","lat":43.2971,"lon":5.3661,"is_reserved":false,"is_disabled":false,"rental_uris":{"android":"levelo://app?vid=3f889fa7-0afe-47d8-8179-bf94a4fbd22a","ios":"levelo://app?vid=3f889fa7-0afe-47d8-8179-bf94a4fbd22a"},"vehicle_type_id":"4","last_reported":1727554140,"current_range_meters":5600,"station_id":"ce4bgn12rcd13ifvqbt0","pricing_plan_id":"cebpf4jnsgd1na2vs0mg"},{"bike_id":"1531371c-e0c1-475b-9f80-1624051c7abc","system_id":"levelo_inurba_marseille","lat":43.297132,"lon":5.377373,"is_reserved":false,"is_disabled":false,"rental_uris":{"android":"levelo://app?vid=1531371c-e0c1-475b-9f80-1624051c7abc","ios":"levelo://app?vid=1531371c-e0c1-475b-9f80-1624051c7abc"},"vehicle_type_id":"4","last_reported":1727554140,"current_range_meters":25200,"station_id":"ce4bgkh2rcd13ifvqbl0","pricing_plan_id":"cebpf4jnsgd1na2vs0mg"},{"bike_id":"bc7dc6a9-589f-4649-9e06-6ce7434d3293","system_id":"levelo_inurba_marseille","lat":43.2866,"lon":5.36351,"is_reserved":false,"is_disabled":false,"rental_uris":{"android":"levelo://app?vid=bc7dc6a9-589f-4649-9e06-6ce7434d3293","ios":"levelo://app?vid=bc7dc6a9-589f-4649-9e06-6ce7434d3293"},"vehicle_type_id":"4","last_reported":1727554140,"current_range_meters":24400,"station_id":"ce4bhah2rcd13ifvqej0","pricing_plan_id":"cebpf4jnsgd1na2vs0mg"},{"bike_id":"f8cd1665-2182-42bb-993d-799437deb95c","system_id":"levelo_inurba_marseille","lat":43.23178,"lon":5.35589,"is_reserved":false,"is_disabled":false,"rental_uris":{"android":"levelo://app?vid=f8cd1665-2182-42bb-993d-799437deb95c","ios":"levelo://app?vid=f8cd1665-2182-42bb-993d-799437deb95c"},"vehicle_type_id":"4","last_reported":1727554140,"current_range_meters":6800,"station_id":"ce4bhu92rcd13ifvqi70","pricing_plan_id":"cebpf4jnsgd1na2vs0mg"},{"bike_id":"7d072fc5-ac0b-4d8f-8800-2b8d73fff42b","system_id":"levelo_inurba_marseille","lat":43.28101,"lon":5.37842,"is_reserved":false,"is_disabled":false,"rental_uris":{"android":"levelo://app?vid=7d072fc5-ac0b-4d8f-8800-2b8d73fff42b","ios":"levelo://app?vid=7d072fc5-ac0b-4d8f-8800-2b8d73fff42b"},"vehicle_type_id":"4","last_reported":1727554140,"current_range_meters":12800,"station_id":"ce4bha12rcd13ifvqee0","pricing_plan_id":"cebpf4jnsgd1na2vs0mg"},{"bike_id":"0769877c-c4e7-47ae-99ae-b7d49750ae44","system_id":"levelo_inurba_marseille","lat":43.28699,"lon":5.39977,"is_reserved":false,"is_disabled":false,"rental_uris":{"android":"levelo://app?vid=0769877c-c4e7-47ae-99ae-b7d49750ae44","ios":"levelo://app?vid=0769877c-c4e7-47ae-99ae-b7d49750ae44"},"vehicle_type_id":"4","last_reported":1727554140,"current_range_meters":8000,"station_id":"ce4bho92rcd13ifvqh3g","pricing_plan_id":"cebpf4jnsgd1na2vs0mg"},{"bike_id":"20fbba53-04bc-47d0-8a67-cbe1d7faf56d","system_id":"levelo_inurba_marseille","lat":43.29867,"lon":5.39729,"is_reserved":false,"is_disabled":false,"rental_uris":{"android":"levelo://app?vid=20fbba53-04bc-47d0-8a67-cbe1d7faf56d","ios":"levelo://app?vid=20fbba53-04bc-47d0-8a67-cbe1d7faf56d"},"vehicle_type_id":"4","last_reported":1727554140,"current_range_meters":14400,"station_id":"ce4bh0h2rcd13ifvqd50","pricing_plan_id":"cebpf4jnsgd1na2vs0mg"},{"bike_id":"0f4e199b-0bc7-49f3-a139-fa917d88defd","system_id":"levelo_inurba_marseille","lat":43.29018,"lon":5.38645,"is_reserved":false,"is_disabled":false,"rental_uris":{"android":"levelo://app?vid=0f4e199b-0bc7-49f3-a139-fa917d88defd","ios":"levelo://app?vid=0f4e199b-0bc7-49f3-a139-fa917d88defd"},"vehicle_type_id":"4","last_reported":1727554140,"current_range_meters":2800,"station_id":"ce4bh4p2rcd13ifvqe0g","pricing_plan_id":"cebpf4jnsgd1na2vs0mg"},{"bike_id":"7f1a273c-6d29-4bd9-aaa2-8c0d0a42fb80","system_id":"levelo_inurba_marseille","lat":43.26563,"lon":5.39013,"is_reserved":false,"is_disabled":false,"rental_uris":{"android":"levelo://app?vid=7f1a273c-6d29-4bd9-aaa2-8c0d0a42fb80","ios":"levelo://app?vid=7f1a273c-6d29-4bd9-aaa2-8c0d0a42fb80"},"vehicle_type_id":"4","last_reported":1727554140,"current_range_meters":25200,"station_id":"ce4bhe12rcd13ifvqf30","pricing_plan_id":"cebpf4jnsgd1na2vs0mg"},{"bike_id":"3b170ecf-4bbb-421f-886d-94818fba1de8","system_id":"levelo_inurba_marseille","lat":43.28486,"lon":5.40042,"is_reserved":false,"is_disabled":false,"rental_uris":{"android":"levelo://app?vid=3b170ecf-4bbb-421f-886d-94818fba1de8","ios":"levelo://app?vid=3b170ecf-4bbb-421f-886d-94818fba1de8"},"vehicle_type_id":"4","last_reported":1727554140,"current_range_meters":36000,"station_id":"ce4bh2h2rcd13ifvqdh0","pricing_plan_id":"cebpf4jnsgd1na2vs0mg"},{"bike_id":"3d8c04ca-d2d1-4a3b-b928-49302d184469","system_id":"levelo_inurba_marseille","lat":43.30949,"lon":5.39035,"is_reserved":false,"is_disabled":false,"rental_uris":{"android":"levelo://app?vid=3d8c04ca-d2d1-4a3b-b928-49302d184469","ios":"levelo://app?vid=3d8c04ca-d2d1-4a3b-b928-49302d184469"},"vehicle_type_id":"4","last_reported":1727554140,"current_range_meters":30400,"station_id":"ce4bgup2rcd13ifvqco0","pricing_plan_id":"cebpf4jnsgd1na2vs0mg"},{"bike_id":"a84742ce-84eb-4d21-873c-4e72b449188c","system_id":"levelo_inurba_marseille","lat":43.26196,"lon":5.37932,"is_reserved":false,"is_disabled":false,"rental_uris":{"android":"levelo://app?vid=a84742ce-84eb-4d21-873c-4e72b449188c","ios":"levelo://app?vid=a84742ce-84eb-4d21-873c-4e72b449188c"},"vehicle_type_id":"4","last_reported":1727554140,"current_range_meters":38000,"station_id":"ce4bhjp2rcd13ifvqg90","pricing_plan_id":"cebpf4jnsgd1na2vs0mg"},{"bike_id":"de704d9e-d5ce-4f43-a84a-56dc0f451b48","system_id":"levelo_inurba_marseille","lat":43.29415,"lon":5.38632,"is_reserved":false,"is_disabled":false,"rental_uris":{"android":"levelo://app?vid=de704d9e-d5ce-4f43-a84a-56dc0f451b48","ios":"levelo://app?vid=de704d9e-d5ce-4f43-a84a-56dc0f451b48"},"vehicle_type_id":"4","last_reported":1727554140,"current_range_meters":38400,"station_id":"ce4bh2h2rcd13ifvqdh0","pricing_plan_id":"cebpf4jnsgd1na2vs0mg"},{"bike_id":"291b0669-267b-4d10-92ff-a9888859827b","system_id":"levelo_inurba_marseille","lat":43.296,"lon":5.3811,"is_reserved":false,"is_disabled":false,"rental_uris":{"android":"levelo://app?vid=291b0669-267b-4d10-92ff-a9888859827b","ios":"levelo://app?vid=291b0669-267b-4d10-92ff-a9888859827b"},"vehicle_type_id":"4","last_reported":1727554140,"current_range_meters":6400,"station_id":"ce4bgl12rcd13ifvqbo0","pricing_plan_id":"cebpf4jnsgd1na2vs0mg"},{"bike_id":"d40ceebd-8d5f-44eb-b89c-f03636e27a7f","system_id":"levelo_inurba_marseille","lat":43.2953,"lon":5.38537,"is_reserved":false,"is_disabled":false,"rental_uris":{"android":"levelo://app?vid=d40ceebd-8d5f-44eb-b89c-f03636e27a7f","ios":"levelo://app?vid=d40ceebd-8d5f-44eb-b89c-f03636e27a7f"},"vehicle_type_id":"4","last_reported":1727554140,"current_range_meters":38800,"station_id":"ce4bgih2rcd13ifvqba0","pricing_plan_id":"cebpf4jnsgd1na2vs0mg"},{"bike_id":"de3ca0ce-601a-4c2d-9698-5635c756a39e","system_id":"levelo_inurba_marseille","lat":43.28268,"lon":5.35074,"is_reserved":false,"is_disabled":false,"rental_uris":{"android":"levelo://app?vid=de3ca0ce-601a-4c2d-9698-5635c756a39e","ios":"levelo://app?vid=de3ca0ce-601a-4c2d-9698-5635c756a39e"},"vehicle_type_id":"4","last_reported":1727554140,"current_range_meters":38800,"station_id":"ce4bhbp2rcd13ifvqerg","pricing_plan_id":"cebpf4jnsgd1na2vs0mg"},{"bike_id":"8f1adf28-1e5a-4a9e-b3d1-69d9e33a370b","system_id":"levelo_inurba_marseille","lat":43.29256,"lon":5.3844,"is_reserved":false,"is_disabled":false,"rental_uris":{"android":"levelo://app?vid=8f1adf28-1e5a-4a9e-b3d1-69d9e33a370b","ios":"levelo://app?vid=8f1adf28-1e5a-4a9e-b3d1-69d9e33a370b"},"vehicle_type_id":"4","last_reported":1727554140,"current_range_meters":39200,"station_id":"ce4bh692rcd13ifvqea0","pricing_plan_id":"cebpf4jnsgd1na2vs0mg"},{"bike_id":"5ecbc28a-05b5-4078-b0cc-a4c909caf3c4","system_id":"levelo_inurba_marseille","lat":43.28727,"lon":5.36085,"is_reserved":false,"is_disabled":false,"rental_uris":{"android":"levelo://app?vid=5ecbc28a-05b5-4078-b0cc-a4c909caf3c4","ios":"levelo://app?vid=5ecbc28a-05b5-4078-b0cc-a4c909caf3c4"},"vehicle_type_id":"4","last_reported":1727554140,"current_range_meters":30000,"station_id":"cki0cbj6b192h4jlfktg","pricing_plan_id":"cebpf4jnsgd1na2vs0mg"},{"bike_id":"717434f7-984e-494a-bdf3-d68848066a35","system_id":"levelo_inurba_marseille","lat":43.30137,"lon":5.37422,"is_reserved":false,"is_disabled":false,"rental_uris":{"android":"levelo://app?vid=717434f7-984e-494a-bdf3-d68848066a35","ios":"levelo://app?vid=717434f7-984e-494a-bdf3-d68848066a35"},"vehicle_type_id":"4","last_reported":1727554140,"current_range_meters":18000,"station_id":"ce4bgs92rcd13ifvqcc0","pricing_plan_id":"cebpf4jnsgd1na2vs0mg"},{"bike_id":"e8369901-f00f-4c98-b72b-d50466b1ab0f","system_id":"levelo_inurba_marseille","lat":43.29583,"lon":5.37506,"is_reserved":false,"is_disabled":false,"rental_uris":{"android":"levelo://app?vid=e8369901-f00f-4c98-b72b-d50466b1ab0f","ios":"levelo://app?vid=e8369901-f00f-4c98-b72b-d50466b1ab0f"},"vehicle_type_id":"4","last_reported":1727554140,"current_range_meters":36400,"station_id":"ce4bgh92rcd13ifvqb50","pricing_plan_id":"cebpf4jnsgd1na2vs0mg"},{"bike_id":"c4a8f360-1206-4f4f-a92d-ac3dc185d9ac","system_id":"levelo_inurba_marseille","lat":43.30951,"lon":5.39033,"is_reserved":false,"is_disabled":false,"rental_uris":{"android":"levelo://app?vid=c4a8f360-1206-4f4f-a92d-ac3dc185d9ac","ios":"levelo://app?vid=c4a8f360-1206-4f4f-a92d-ac3dc185d9ac"},"vehicle_type_id":"4","last_reported":1727554140,"current_range_meters":31200,"station_id":"ce4bgup2rcd13ifvqco0","pricing_plan_id":"cebpf4jnsgd1na2vs0mg"},{"bike_id":"fff7ca58-9a03-4aea-a8e5-eccdf53b0b4b","system_id":"levelo_inurba_marseille","lat":43.28439,"lon":5.39186,"is_reserved":false,"is_disabled":false,"rental_uris":{"android":"levelo://app?vid=fff7ca58-9a03-4aea-a8e5-eccdf53b0b4b","ios":"levelo://app?vid=fff7ca58-9a03-4aea-a8e5-eccdf53b0b4b"},"vehicle_type_id":"4","last_reported":1727554140,"current_range_meters":38000,"station_id":"ce4bhoh2rcd13ifvqh5g","pricing_plan_id":"cebpf4jnsgd1na2vs0mg"},{"bike_id":"eb35b74a-e100-4849-baf8-86135e114bef","system_id":"levelo_inurba_marseille","lat":43.23157,"lon":5.437,"is_reserved":false,"is_disabled":false,"rental_uris":{"android":"levelo://app?vid=eb35b74a-e100-4849-baf8-86135e114bef","ios":"levelo://app?vid=eb35b74a-e100-4849-baf8-86135e114bef"},"vehicle_type_id":"4","last_reported":1727554140,"current_range_meters":36000,"station_id":"ce4bhmp2rcd13ifvqgog","pricing_plan_id":"cebpf4jnsgd1na2vs0mg"},{"bike_id":"5f100a7d-87ee-479e-9cb8-27f83060cd0d","system_id":"levelo_inurba_marseille","lat":43.29529,"lon":5.38546,"is_reserved":false,"is_disabled":false,"rental_uris":{"android":"levelo://app?vid=5f100a7d-87ee-479e-9cb8-27f83060cd0d","ios":"levelo://app?vid=5f100a7d-87ee-479e-9cb8-27f83060cd0d"},"vehicle_type_id":"4","last_reported":1727554140,"current_range_meters":38800,"station_id":"ce4bgih2rcd13ifvqba0","pricing_plan_id":"cebpf4jnsgd1na2vs0mg"},{"bike_id":"21f5ad32-b40f-48fe-b398-7e037effba14","system_id":"levelo_inurba_marseille","lat":43.29595,"lon":5.38106,"is_reserved":false,"is_disabled":false,"rental_uris":{"android":"levelo://app?vid=21f5ad32-b40f-48fe-b398-7e037effba14","ios":"levelo://app?vid=21f5ad32-b40f-48fe-b398-7e037effba14"},"vehicle_type_id":"4","last_reported":1727554140,"current_range_meters":38800,"station_id":"ce4bgl12rcd13ifvqbo0","pricing_plan_id":"cebpf4jnsgd1na2vs0mg"},{"bike_id":"e5043f39-22d0-4e86-91b1-40a84b7b455c","system_id":"levelo_inurba_marseille","lat":43.27906,"lon":5.37998,"is_reserved":false,"is_disabled":false,"rental_uris":{"android":"levelo://app?vid=e5043f39-22d0-4e86-91b1-40a84b7b455c","ios":"levelo://app?vid=e5043f39-22d0-4e86-91b1-40a84b7b455c"},"vehicle_type_id":"4","last_reported":1727554140,"current_range_meters":8000,"station_id":"ce4bhf92rcd13ifvqf50","pricing_plan_id":"cebpf4jnsgd1na2vs0mg"},{"bike_id":"2c5a97ac-60a9-441b-b0fa-526625f2f517","system_id":"levelo_inurba_marseille","lat":43.32334,"lon":5.40623,"is_reserved":false,"is_disabled":false,"rental_uris":{"android":"levelo://app?vid=2c5a97ac-60a9-441b-b0fa-526625f2f517","ios":"levelo://app?vid=2c5a97ac-60a9-441b-b0fa-526625f2f517"},"vehicle_type_id":"4","last_reported":1727554140,"current_range_meters":14000,"station_id":"ce4bhq92rcd13ifvqhjg","pricing_plan_id":"cebpf4jnsgd1na2vs0mg"},{"bike_id":"59998bdc-d049-40f7-9da7-aa9e63efc581","system_id":"levelo_inurba_marseille","lat":43.28103,"lon":5.37836,"is_reserved":false,"is_disabled":false,"rental_uris":{"android":"levelo://app?vid=59998bdc-d049-40f7-9da7-aa9e63efc581","ios":"levelo://app?vid=59998bdc-d049-40f7-9da7-aa9e63efc581"},"vehicle_type_id":"4","last_reported":1727554140,"current_range_meters":15200,"station_id":"ce4bgkh2rcd13ifvqbl0","pricing_plan_id":"cebpf4jnsgd1na2vs0mg"},{"bike_id":"7693f59b-c15a-45d6-9445-65e029568445","system_id":"levelo_inurba_marseille","lat":43.29962,"lon":5.41323,"is_reserved":false,"is_disabled":false,"rental_uris":{"android":"levelo://app?vid=7693f59b-c15a-45d6-9445-65e029568445","ios":"levelo://app?vid=7693f59b-c15a-45d6-9445-65e029568445"},"vehicle_type_id":"4","last_reported":1727554140,"current_range_meters":17200,"station_id":"ce4bhp12rcd13ifvqh9g","pricing_plan_id":"cebpf4jnsgd1na2vs0mg"},{"bike_id":"b111bd89-ce69-4b37-b523-f450dff78368","system_id":"levelo_inurba_marseille","lat":43.29253,"lon":5.38434,"is_reserved":false,"is_disabled":false,"rental_uris":{"android":"levelo://app?vid=b111bd89-ce69-4b37-b523-f450dff78368","ios":"levelo://app?vid=b111bd89-ce69-4b37-b523-f450dff78368"},"vehicle_type_id":"4","last_reported":1727554140,"current_range_meters":36000,"station_id":"ce4bh692rcd13ifvqea0","pricing_plan_id":"cebpf4jnsgd1na2vs0mg"},{"bike_id":"8eb5911f-c95e-4f31-a6d6-b3cd459f46bc","system_id":"levelo_inurba_marseille","lat":43.3248,"lon":5.36554,"is_reserved":false,"is_disabled":false,"rental_uris":{"android":"levelo://app?vid=8eb5911f-c95e-4f31-a6d6-b3cd459f46bc","ios":"levelo://app?vid=8eb5911f-c95e-4f31-a6d6-b3cd459f46bc"},"vehicle_type_id":"4","last_reported":1727554140,"current_range_meters":27600,"station_id":"ce4bhs12rcd13ifvqhvg","pricing_plan_id":"cebpf4jnsgd1na2vs0mg"},{"bike_id":"45ba24be-2fca-441a-a9fd-6f1c591e15ef","system_id":"levelo_inurba_marseille","lat":43.30141,"lon":5.398783,"is_reserved":false,"is_disabled":false,"rental_uris":{"android":"levelo://app?vid=45ba24be-2fca-441a-a9fd-6f1c591e15ef","ios":"levelo://app?vid=45ba24be-2fca-441a-a9fd-6f1c591e15ef"},"vehicle_type_id":"4","last_reported":1727554140,"current_range_meters":12400,"station_id":"ce4bh0h2rcd13ifvqd40","pricing_plan_id":"cebpf4jnsgd1na2vs0mg"},{"bike_id":"5f64a3f2-14f7-4b0f-8a26-518a6dfa9da8","system_id":"levelo_inurba_marseille","lat":43.29595,"lon":5.38111,"is_reserved":false,"is_disabled":false,"rental_uris":{"android":"levelo://app?vid=5f64a3f2-14f7-4b0f-8a26-518a6dfa9da8","ios":"levelo://app?vid=5f64a3f2-14f7-4b0f-8a26-518a6dfa9da8"},"vehicle_type_id":"4","last_reported":1727554140,"current_range_meters":38800,"station_id":"ce4bgl12rcd13ifvqbo0","pricing_plan_id":"cebpf4jnsgd1na2vs0mg"},{"bike_id":"12e93208-c1ce-41ff-aad9-0a3045a85909","system_id":"levelo_inurba_marseille","lat":43.29255,"lon":5.3844,"is_reserved":false,"is_disabled":false,"rental_uris":{"android":"levelo://app?vid=12e93208-c1ce-41ff-aad9-0a3045a85909","ios":"levelo://app?vid=12e93208-c1ce-41ff-aad9-0a3045a85909"},"vehicle_type_id":"4","last_reported":1727554140,"current_range_meters":8400,"station_id":"ce4bh692rcd13ifvqea0","pricing_plan_id":"cebpf4jnsgd1na2vs0mg"},{"bike_id":"942e28e3-5b42-4bee-8272-f073c6090652","system_id":"levelo_inurba_marseille","lat":43.28962,"lon":5.37839,"is_reserved":false,"is_disabled":false,"rental_uris":{"android":"levelo://app?vid=942e28e3-5b42-4bee-8272-f073c6090652","ios":"levelo://app?vid=942e28e3-5b42-4bee-8272-f073c6090652"},"vehicle_type_id":"4","last_reported":1727554140,"current_range_meters":19600,"station_id":"ce4bh9p2rcd13ifvqed0","pricing_plan_id":"cebpf4jnsgd1na2vs0mg"},{"bike_id":"f7f63f2c-2e97-4548-b04e-a5a0c6c8da59","system_id":"levelo_inurba_marseille","lat":43.29027,"lon":5.38641,"is_reserved":false,"is_disabled":false,"rental_uris":{"android":"levelo://app?vid=f7f63f2c-2e97-4548-b04e-a5a0c6c8da59","ios":"levelo://app?vid=f7f63f2c-2e97-4548-b04e-a5a0c6c8da59"},"vehicle_type_id":"4","last_reported":1727554140,"current_range_meters":16800,"station_id":"ce4bh4p2rcd13ifvqe0g","pricing_plan_id":"cebpf4jnsgd1na2vs0mg"},{"bike_id":"c0117ef1-a20d-4df0-8965-82062dfc7d03","system_id":"levelo_inurba_marseille","lat":43.28981,"lon":5.37839,"is_reserved":false,"is_disabled":false,"rental_uris":{"android":"levelo://app?vid=c0117ef1-a20d-4df0-8965-82062dfc7d03","ios":"levelo://app?vid=c0117ef1-a20d-4df0-8965-82062dfc7d03"},"vehicle_type_id":"4","last_reported":1727554140,"current_range_meters":38800,"station_id":"ce4bh9p2rcd13ifvqed0","pricing_plan_id":"cebpf4jnsgd1na2vs0mg"},{"bike_id":"1875ea61-a62f-4e6b-aae7-2b68085784a8","system_id":"levelo_inurba_marseille","lat":43.29889,"lon":5.39738,"is_reserved":false,"is_disabled":false,"rental_uris":{"android":"levelo://app?vid=1875ea61-a62f-4e6b-aae7-2b68085784a8","ios":"levelo://app?vid=1875ea61-a62f-4e6b-aae7-2b68085784a8"},"vehicle_type_id":"4","last_reported":1727554140,"current_range_meters":36000,"station_id":"ce4bh0h2rcd13ifvqd50","pricing_plan_id":"cebpf4jnsgd1na2vs0mg"},{"bike_id":"cf14aa84-81e8-44fc-87a1-fe3250a6d504","system_id":"levelo_inurba_marseille","lat":43.29416,"lon":5.38634,"is_reserved":false,"is_disabled":false,"rental_uris":{"android":"levelo://app?vid=cf14aa84-81e8-44fc-87a1-fe3250a6d504","ios":"levelo://app?vid=cf14aa84-81e8-44fc-87a1-fe3250a6d504"},"vehicle_type_id":"4","last_reported":1727554140,"current_range_meters":14400,"station_id":"ce4bh2h2rcd13ifvqdh0","pricing_plan_id":"cebpf4jnsgd1na2vs0mg"},{"bike_id":"9efdf05c-571e-4c3a-a0bf-af0e0fbc032d","system_id":"levelo_inurba_marseille","lat":43.25092,"lon":5.39515,"is_reserved":false,"is_disabled":false,"rental_uris":{"android":"levelo://app?vid=9efdf05c-571e-4c3a-a0bf-af0e0fbc032d","ios":"levelo://app?vid=9efdf05c-571e-4c3a-a0bf-af0e0fbc032d"},"vehicle_type_id":"4","last_reported":1727554140,"current_range_meters":22000,"station_id":"ce4bhm12rcd13ifvqgkg","pricing_plan_id":"cebpf4jnsgd1na2vs0mg"},{"bike_id":"f429bdb6-7808-4367-8637-adab7a63bac2","system_id":"levelo_inurba_marseille","lat":43.29306,"lon":5.37185,"is_reserved":false,"is_disabled":false,"rental_uris":{"android":"levelo://app?vid=f429bdb6-7808-4367-8637-adab7a63bac2","ios":"levelo://app?vid=f429bdb6-7808-4367-8637-adab7a63bac2"},"vehicle_type_id":"4","last_reported":1727554140,"current_range_meters":24000,"station_id":"ce4bgh92rcd13ifvqb40","pricing_plan_id":"cebpf4jnsgd1na2vs0mg"},{"bike_id":"7c232bca-ae5a-4af3-a924-7129efbb1806","system_id":"levelo_inurba_marseille","lat":43.29301,"lon":5.3746,"is_reserved":false,"is_disabled":false,"rental_uris":{"android":"levelo://app?vid=7c232bca-ae5a-4af3-a924-7129efbb1806","ios":"levelo://app?vid=7c232bca-ae5a-4af3-a924-7129efbb1806"},"vehicle_type_id":"4","last_reported":1727554140,"current_range_meters":29600,"station_id":"ce4bgi12rcd13ifvqb70","pricing_plan_id":"cebpf4jnsgd1na2vs0mg"},{"bike_id":"8537bd26-c143-480b-ac7c-86d2b5338011","system_id":"levelo_inurba_marseille","lat":43.26214,"lon":5.37444,"is_reserved":false,"is_disabled":false,"rental_uris":{"android":"levelo://app?vid=8537bd26-c143-480b-ac7c-86d2b5338011","ios":"levelo://app?vid=8537bd26-c143-480b-ac7c-86d2b5338011"},"vehicle_type_id":"4","last_reported":1727554140,"current_range_meters":38800,"station_id":"ce4bhgp2rcd13ifvqfc0","pricing_plan_id":"cebpf4jnsgd1na2vs0mg"},{"bike_id":"199f764e-7942-4511-a407-33ff4a7dc457","system_id":"levelo_inurba_marseille","lat":43.26028,"lon":5.37557,"is_reserved":false,"is_disabled":false,"rental_uris":{"android":"levelo://app?vid=199f764e-7942-4511-a407-33ff4a7dc457","ios":"levelo://app?vid=199f764e-7942-4511-a407-33ff4a7dc457"},"vehicle_type_id":"4","last_reported":1727554140,"current_range_meters":38800,"station_id":"ce4bhgh2rcd13ifvqfa0","pricing_plan_id":"cebpf4jnsgd1na2vs0mg"},{"bike_id":"000095aa-5437-4a81-883b-ac275ad3635e","system_id":"levelo_inurba_marseille","lat":43.29026,"lon":5.38139,"is_reserved":false,"is_disabled":false,"rental_uris":{"android":"levelo://app?vid=000095aa-5437-4a81-883b-ac275ad3635e","ios":"levelo://app?vid=000095aa-5437-4a81-883b-ac275ad3635e"},"vehicle_type_id":"4","last_reported":1727554140,"current_range_meters":40000,"station_id":"ce4bh4p2rcd13ifvqe1g","pricing_plan_id":"cebpf4jnsgd1na2vs0mg"},{"bike_id":"0701cf2a-674c-4c9d-af1e-6650acbaaf74","system_id":"levelo_inurba_marseille","lat":43.28382,"lon":5.37296,"is_reserved":false,"is_disabled":false,"rental_uris":{"android":"levelo://app?vid=0701cf2a-674c-4c9d-af1e-6650acbaaf74","ios":"levelo://app?vid=0701cf2a-674c-4c9d-af1e-6650acbaaf74"},"vehicle_type_id":"4","last_reported":1727554140,"current_range_meters":14000,"station_id":"","pricing_plan_id":"cebpf4jnsgd1na2vs0mg"},{"bike_id":"26d19603-8175-4b6f-aa29-c8a304bccb18","system_id":"levelo_inurba_marseille","lat":43.2418,"lon":5.39732,"is_reserved":false,"is_disabled":false,"rental_uris":{"android":"levelo://app?vid=26d19603-8175-4b6f-aa29-c8a304bccb18","ios":"levelo://app?vid=26d19603-8175-4b6f-aa29-c8a304bccb18"},"vehicle_type_id":"4","last_reported":1727554140,"current_range_meters":10800,"station_id":"ce4bhn12rcd13ifvqgpg","pricing_plan_id":"cebpf4jnsgd1na2vs0mg"},{"bike_id":"ee82ecf8-e972-4eda-806a-9e2e765291b5","system_id":"levelo_inurba_marseille","lat":43.27998,"lon":5.40012,"is_reserved":false,"is_disabled":false,"rental_uris":{"android":"levelo://app?vid=ee82ecf8-e972-4eda-806a-9e2e765291b5","ios":"levelo://app?vid=ee82ecf8-e972-4eda-806a-9e2e765291b5"},"vehicle_type_id":"4","last_reported":1727554140,"current_range_meters":6400,"station_id":"ce4bho92rcd13ifvqh4g","pricing_plan_id":"cebpf4jnsgd1na2vs0mg"},{"bike_id":"8dc67aea-8c43-4618-97ea-d8c40591f0a3","system_id":"levelo_inurba_marseille","lat":43.30884,"lon":5.39654,"is_reserved":false,"is_disabled":false,"rental_uris":{"android":"levelo://app?vid=8dc67aea-8c43-4618-97ea-d8c40591f0a3","ios":"levelo://app?vid=8dc67aea-8c43-4618-97ea-d8c40591f0a3"},"vehicle_type_id":"4","last_reported":1727554140,"current_range_meters":14800,"station_id":"ce4bh012rcd13ifvqcv0","pricing_plan_id":"cebpf4jnsgd1na2vs0mg"},{"bike_id":"795ff2c4-0d09-498e-9b72-cd1048707130","system_id":"levelo_inurba_marseille","lat":43.3013,"lon":5.398716,"is_reserved":false,"is_disabled":false,"rental_uris":{"android":"levelo://app?vid=795ff2c4-0d09-498e-9b72-cd1048707130","ios":"levelo://app?vid=795ff2c4-0d09-498e-9b72-cd1048707130"},"vehicle_type_id":"4","last_reported":1727554140,"current_range_meters":19200,"station_id":"ce4bh3p2rcd13ifvqdp0","pricing_plan_id":"cebpf4jnsgd1na2vs0mg"},{"bike_id":"4a3e896c-55be-4d15-adbd-1e7afff39a6d","system_id":"levelo_inurba_marseille","lat":43.29373,"lon":5.37833,"is_reserved":false,"is_disabled":false,"rental_uris":{"android":"levelo://app?vid=4a3e896c-55be-4d15-adbd-1e7afff39a6d","ios":"levelo://app?vid=4a3e896c-55be-4d15-adbd-1e7afff39a6d"},"vehicle_type_id":"4","last_reported":1727554140,"current_range_meters":38800,"station_id":"ce4bgjh2rcd13ifvqbf0","pricing_plan_id":"cebpf4jnsgd1na2vs0mg"},{"bike_id":"c2a71a7c-85a9-4c8b-98eb-fa2fc4fa3a0c","system_id":"levelo_inurba_marseille","lat":43.31366,"lon":5.3849,"is_reserved":false,"is_disabled":false,"rental_uris":{"android":"levelo://app?vid=c2a71a7c-85a9-4c8b-98eb-fa2fc4fa3a0c","ios":"levelo://app?vid=c2a71a7c-85a9-4c8b-98eb-fa2fc4fa3a0c"},"vehicle_type_id":"4","last_reported":1727554140,"current_range_meters":9600,"station_id":"ce4bgt92rcd13ifvqcf0","pricing_plan_id":"cebpf4jnsgd1na2vs0mg"},{"bike_id":"6cdca13d-24d1-4302-912a-54d18c748242","system_id":"levelo_inurba_marseille","lat":43.31083,"lon":5.40132,"is_reserved":false,"is_disabled":false,"rental_uris":{"android":"levelo://app?vid=6cdca13d-24d1-4302-912a-54d18c748242","ios":"levelo://app?vid=6cdca13d-24d1-4302-912a-54d18c748242"},"vehicle_type_id":"4","last_reported":1727554140,"current_range_meters":8000,"station_id":"","pricing_plan_id":"cebpf4jnsgd1na2vs0mg"},{"bike_id":"8db0e5cd-2187-4a1e-887b-1a2f8d3b39de","system_id":"levelo_inurba_marseille","lat":43.32287,"lon":5.38274,"is_reserved":false,"is_disabled":false,"rental_uris":{"android":"levelo://app?vid=8db0e5cd-2187-4a1e-887b-1a2f8d3b39de","ios":"levelo://app?vid=8db0e5cd-2187-4a1e-887b-1a2f8d3b39de"},"vehicle_type_id":"4","last_reported":1727554140,"current_range_meters":22800,"station_id":"ce4bhr12rcd13ifvqhqg","pricing_plan_id":"cebpf4jnsgd1na2vs0mg"},{"bike_id":"ee62f405-8239-4a06-be32-2aa9ede402f9","system_id":"levelo_inurba_marseille","lat":43.27431,"lon":5.39418,"is_reserved":false,"is_disabled":false,"rental_uris":{"android":"levelo://app?vid=ee62f405-8239-4a06-be32-2aa9ede402f9","ios":"levelo://app?vid=ee62f405-8239-4a06-be32-2aa9ede402f9"},"vehicle_type_id":"4","last_reported":1727554140,"current_range_meters":39200,"station_id":"ce4bhdp2rcd13ifvqf20","pricing_plan_id":"cebpf4jnsgd1na2vs0mg"},{"bike_id":"7a00023f-56c4-4783-b2a5-18ce5d78331a","system_id":"levelo_inurba_marseille","lat":43.25088,"lon":5.39529,"is_reserved":false,"is_disabled":false,"rental_uris":{"android":"levelo://app?vid=7a00023f-56c4-4783-b2a5-18ce5d78331a","ios":"levelo://app?vid=7a00023f-56c4-4783-b2a5-18ce5d78331a"},"vehicle_type_id":"4","last_reported":1727554140,"current_range_meters":6000,"station_id":"ce4bhm12rcd13ifvqgkg","pricing_plan_id":"cebpf4jnsgd1na2vs0mg"},{"bike_id":"5c4b4520-5701-44e2-8c04-9dcd21888866","system_id":"levelo_inurba_marseille","lat":43.273081,"lon":5.39079,"is_reserved":false,"is_disabled":false,"rental_uris":{"android":"levelo://app?vid=5c4b4520-5701-44e2-8c04-9dcd21888866","ios":"levelo://app?vid=5c4b4520-5701-44e2-8c04-9dcd21888866"},"vehicle_type_id":"4","last_reported":1727554140,"current_range_meters":9600,"station_id":"ce4bhgp2rcd13ifvqfe0","pricing_plan_id":"cebpf4jnsgd1na2vs0mg"},{"bike_id":"4189ce78-ba10-4b9f-926a-8ccc721e2613","system_id":"levelo_inurba_marseille","lat":43.27996,"lon":5.40009,"is_reserved":false,"is_disabled":false,"rental_uris":{"android":"levelo://app?vid=4189ce78-ba10-4b9f-926a-8ccc721e2613","ios":"levelo://app?vid=4189ce78-ba10-4b9f-926a-8ccc721e2613"},"vehicle_type_id":"4","last_reported":1727554140,"current_range_meters":38400,"station_id":"ce4bho92rcd13ifvqh4g","pricing_plan_id":"cebpf4jnsgd1na2vs0mg"},{"bike_id":"d95cafd2-6ec0-4b24-8abf-5f45e8563d38","system_id":"levelo_inurba_marseille","lat":43.26034,"lon":5.3755,"is_reserved":false,"is_disabled":false,"rental_uris":{"android":"levelo://app?vid=d95cafd2-6ec0-4b24-8abf-5f45e8563d38","ios":"levelo://app?vid=d95cafd2-6ec0-4b24-8abf-5f45e8563d38"},"vehicle_type_id":"4","last_reported":1727554140,"current_range_meters":36400,"station_id":"ce4bhgh2rcd13ifvqfa0","pricing_plan_id":"cebpf4jnsgd1na2vs0mg"},{"bike_id":"86b89f8f-9b5e-4240-b590-327a9ab59701","system_id":"levelo_inurba_marseille","lat":43.29029,"lon":5.38643,"is_reserved":false,"is_disabled":false,"rental_uris":{"android":"levelo://app?vid=86b89f8f-9b5e-4240-b590-327a9ab59701","ios":"levelo://app?vid=86b89f8f-9b5e-4240-b590-327a9ab59701"},"vehicle_type_id":"4","last_reported":1727554140,"current_range_meters":38400,"station_id":"ce4bh4p2rcd13ifvqe0g","pricing_plan_id":"cebpf4jnsgd1na2vs0mg"},{"bike_id":"2bc23b8a-1f68-44d1-8dbc-dcb97d4ac5cf","system_id":"levelo_inurba_marseille","lat":43.2835,"lon":5.38107,"is_reserved":false,"is_disabled":false,"rental_uris":{"android":"levelo://app?vid=2bc23b8a-1f68-44d1-8dbc-dcb97d4ac5cf","ios":"levelo://app?vid=2bc23b8a-1f68-44d1-8dbc-dcb97d4ac5cf"},"vehicle_type_id":"4","last_reported":1727554140,"current_range_meters":2800,"station_id":"ce4bh412rcd13ifvqdr0","pricing_plan_id":"cebpf4jnsgd1na2vs0mg"},{"bike_id":"5220e7ba-5183-450c-986e-1a09b217d618","system_id":"levelo_inurba_marseille","lat":43.28265,"lon":5.35076,"is_reserved":false,"is_disabled":false,"rental_uris":{"android":"levelo://app?vid=5220e7ba-5183-450c-986e-1a09b217d618","ios":"levelo://app?vid=5220e7ba-5183-450c-986e-1a09b217d618"},"vehicle_type_id":"4","last_reported":1727554140,"current_range_meters":4400,"station_id":"ce4bhbp2rcd13ifvqerg","pricing_plan_id":"cebpf4jnsgd1na2vs0mg"},{"bike_id":"3407da71-e9f5-4375-9956-506983640a2f","system_id":"levelo_inurba_marseille","lat":43.28993,"lon":5.37578,"is_reserved":false,"is_disabled":false,"rental_uris":{"android":"levelo://app?vid=3407da71-e9f5-4375-9956-506983640a2f","ios":"levelo://app?vid=3407da71-e9f5-4375-9956-506983640a2f"},"vehicle_type_id":"4","last_reported":1727554140,"current_range_meters":27600,"station_id":"ce4bh692rcd13ifvqe90","pricing_plan_id":"cebpf4jnsgd1na2vs0mg"},{"bike_id":"e2ec1377-333c-4f48-91f4-d041b1187c20","system_id":"levelo_inurba_marseille","lat":43.29036,"lon":5.38638,"is_reserved":false,"is_disabled":false,"rental_uris":{"android":"levelo://app?vid=e2ec1377-333c-4f48-91f4-d041b1187c20","ios":"levelo://app?vid=e2ec1377-333c-4f48-91f4-d041b1187c20"},"vehicle_type_id":"4","last_reported":1727554140,"current_range_meters":17200,"station_id":"ce4bh4p2rcd13ifvqe0g","pricing_plan_id":"cebpf4jnsgd1na2vs0mg"},{"bike_id":"ee2f8330-2870-49b5-b581-1c03a8521f52","system_id":"levelo_inurba_marseille","lat":43.29523,"lon":5.39414,"is_reserved":false,"is_disabled":false,"rental_uris":{"android":"levelo://app?vid=ee2f8330-2870-49b5-b581-1c03a8521f52","ios":"levelo://app?vid=ee2f8330-2870-49b5-b581-1c03a8521f52"},"vehicle_type_id":"4","last_reported":1727554140,"current_range_meters":33600,"station_id":"ce4bh292rcd13ifvqdf0","pricing_plan_id":"cebpf4jnsgd1na2vs0mg"},{"bike_id":"50706d55-3aa6-40fe-9c0c-e224fd895e38","system_id":"levelo_inurba_marseille","lat":43.31378,"lon":5.38497,"is_reserved":false,"is_disabled":false,"rental_uris":{"android":"levelo://app?vid=50706d55-3aa6-40fe-9c0c-e224fd895e38","ios":"levelo://app?vid=50706d55-3aa6-40fe-9c0c-e224fd895e38"},"vehicle_type_id":"4","last_reported":1727554140,"current_range_meters":30800,"station_id":"ce4bgt92rcd13ifvqcf0","pricing_plan_id":"cebpf4jnsgd1na2vs0mg"},{"bike_id":"26326c90-bb63-484c-9875-ccc10d641a81","system_id":"levelo_inurba_marseille","lat":43.30139,"lon":5.39872,"is_reserved":false,"is_disabled":false,"rental_uris":{"android":"levelo://app?vid=26326c90-bb63-484c-9875-ccc10d641a81","ios":"levelo://app?vid=26326c90-bb63-484c-9875-ccc10d641a81"},"vehicle_type_id":"4","last_reported":1727554140,"current_range_meters":33200,"station_id":"ce4bgl92rcd13ifvqbq0","pricing_plan_id":"cebpf4jnsgd1na2vs0mg"},{"bike_id":"bc5da6ab-0372-430c-b640-347419abe71f","system_id":"levelo_inurba_marseille","lat":43.29526,"lon":5.38549,"is_reserved":false,"is_disabled":false,"rental_uris":{"android":"levelo://app?vid=bc5da6ab-0372-430c-b640-347419abe71f","ios":"levelo://app?vid=bc5da6ab-0372-430c-b640-347419abe71f"},"vehicle_type_id":"4","last_reported":1727554140,"current_range_meters":17200,"station_id":"ce4bgih2rcd13ifvqba0","pricing_plan_id":"cebpf4jnsgd1na2vs0mg"},{"bike_id":"7363d669-645a-4bd6-bbf6-8d817ca7e68e","system_id":"levelo_inurba_marseille","lat":43.30433,"lon":5.38892,"is_reserved":false,"is_disabled":false,"rental_uris":{"android":"levelo://app?vid=7363d669-645a-4bd6-bbf6-8d817ca7e68e","ios":"levelo://app?vid=7363d669-645a-4bd6-bbf6-8d817ca7e68e"},"vehicle_type_id":"4","last_reported":1727554140,"current_range_meters":14000,"station_id":"ce4bgk12rcd13ifvqbi0","pricing_plan_id":"cebpf4jnsgd1na2vs0mg"},{"bike_id":"2dca567d-5e8f-4e9a-b56b-05df524039c5","system_id":"levelo_inurba_marseille","lat":43.2586,"lon":5.39894,"is_reserved":false,"is_disabled":false,"rental_uris":{"android":"levelo://app?vid=2dca567d-5e8f-4e9a-b56b-05df524039c5","ios":"levelo://app?vid=2dca567d-5e8f-4e9a-b56b-05df524039c5"},"vehicle_type_id":"4","last_reported":1727554140,"current_range_meters":28400,"station_id":"ce4bhl92rcd13ifvqghg","pricing_plan_id":"cebpf4jnsgd1na2vs0mg"},{"bike_id":"bfd00496-1643-434b-86b2-4b91a4b3a05e","system_id":"levelo_inurba_marseille","lat":43.2318,"lon":5.39989,"is_reserved":false,"is_disabled":false,"rental_uris":{"android":"levelo://app?vid=bfd00496-1643-434b-86b2-4b91a4b3a05e","ios":"levelo://app?vid=bfd00496-1643-434b-86b2-4b91a4b3a05e"},"vehicle_type_id":"4","last_reported":1727554140,"current_range_meters":17200,"station_id":"ce4bhn12rcd13ifvqgqg","pricing_plan_id":"cebpf4jnsgd1na2vs0mg"},{"bike_id":"aae90e6e-5ff8-43fc-9699-95b911a6f5ee","system_id":"levelo_inurba_marseille","lat":43.24181,"lon":5.39727,"is_reserved":false,"is_disabled":false,"rental_uris":{"android":"levelo://app?vid=aae90e6e-5ff8-43fc-9699-95b911a6f5ee","ios":"levelo://app?vid=aae90e6e-5ff8-43fc-9699-95b911a6f5ee"},"vehicle_type_id":"4","last_reported":1727554140,"current_range_meters":19600,"station_id":"ce4bhn12rcd13ifvqgpg","pricing_plan_id":"cebpf4jnsgd1na2vs0mg"},{"bike_id":"b530e230-ce7e-42f6-a909-0a6704b2fe4a","system_id":"levelo_inurba_marseille","lat":43.27424,"lon":5.39418,"is_reserved":false,"is_disabled":false,"rental_uris":{"android":"levelo://app?vid=b530e230-ce7e-42f6-a909-0a6704b2fe4a","ios":"levelo://app?vid=b530e230-ce7e-42f6-a909-0a6704b2fe4a"},"vehicle_type_id":"4","last_reported":1727554140,"current_range_meters":38800,"station_id":"ce4bhdp2rcd13ifvqf20","pricing_plan_id":"cebpf4jnsgd1na2vs0mg"},{"bike_id":"275b0a25-1a9f-498c-9202-be550b06c3de","system_id":"levelo_inurba_marseille","lat":43.32294,"lon":5.3828,"is_reserved":false,"is_disabled":false,"rental_uris":{"android":"levelo://app?vid=275b0a25-1a9f-498c-9202-be550b06c3de","ios":"levelo://app?vid=275b0a25-1a9f-498c-9202-be550b06c3de"},"vehicle_type_id":"4","last_reported":1727554140,"current_range_meters":39200,"station_id":"ce4bhr12rcd13ifvqhqg","pricing_plan_id":"cebpf4jnsgd1na2vs0mg"},{"bike_id":"cb9bad39-690b-4d5c-b4b7-1c96e9f87e0c","system_id":"levelo_inurba_marseille","lat":43.25088,"lon":5.39527,"is_reserved":false,"is_disabled":false,"rental_uris":{"android":"levelo://app?vid=cb9bad39-690b-4d5c-b4b7-1c96e9f87e0c","ios":"levelo://app?vid=cb9bad39-690b-4d5c-b4b7-1c96e9f87e0c"},"vehicle_type_id":"4","last_reported":1727554140,"current_range_meters":39200,"station_id":"ce4bhm12rcd13ifvqgkg","pricing_plan_id":"cebpf4jnsgd1na2vs0mg"},{"bike_id":"e0448498-1923-4013-96e2-5aec4fc93af7","system_id":"levelo_inurba_marseille","lat":43.24804,"lon":5.37454,"is_reserved":false,"is_disabled":false,"rental_uris":{"android":"levelo://app?vid=e0448498-1923-4013-96e2-5aec4fc93af7","ios":"levelo://app?vid=e0448498-1923-4013-96e2-5aec4fc93af7"},"vehicle_type_id":"4","last_reported":1727554140,"current_range_meters":38000,"station_id":"ce4bhgh2rcd13ifvqfb0","pricing_plan_id":"cebpf4jnsgd1na2vs0mg"},{"bike_id":"0c3f0369-7cdf-4cba-a0db-09435ab8c8da","system_id":"levelo_inurba_marseille","lat":43.23192,"lon":5.39999,"is_reserved":false,"is_disabled":false,"rental_uris":{"android":"levelo://app?vid=0c3f0369-7cdf-4cba-a0db-09435ab8c8da","ios":"levelo://app?vid=0c3f0369-7cdf-4cba-a0db-09435ab8c8da"},"vehicle_type_id":"4","last_reported":1727554140,"current_range_meters":29600,"station_id":"ce4bhn12rcd13ifvqgqg","pricing_plan_id":"cebpf4jnsgd1na2vs0mg"},{"bike_id":"67086ea4-1554-4a6b-b41f-670f22fa3e6e","system_id":"levelo_inurba_marseille","lat":43.31076,"lon":5.38356,"is_reserved":false,"is_disabled":false,"rental_uris":{"android":"levelo://app?vid=67086ea4-1554-4a6b-b41f-670f22fa3e6e","ios":"levelo://app?vid=67086ea4-1554-4a6b-b41f-670f22fa3e6e"},"vehicle_type_id":"4","last_reported":1727554140,"current_range_meters":20400,"station_id":"ce4bgv92rcd13ifvqcr0","pricing_plan_id":"cebpf4jnsgd1na2vs0mg"},{"bike_id":"77643dcd-0518-4c6a-8cec-2c2c74faa607","system_id":"levelo_inurba_marseille","lat":43.3089,"lon":5.39657,"is_reserved":false,"is_disabled":false,"rental_uris":{"android":"levelo://app?vid=77643dcd-0518-4c6a-8cec-2c2c74faa607","ios":"levelo://app?vid=77643dcd-0518-4c6a-8cec-2c2c74faa607"},"vehicle_type_id":"4","last_reported":1727554140,"current_range_meters":14400,"station_id":"ce4bh012rcd13ifvqcv0","pricing_plan_id":"cebpf4jnsgd1na2vs0mg"},{"bike_id":"5a82e63b-00bc-4dd6-999c-0f820645be1c","system_id":"levelo_inurba_marseille","lat":43.31362,"lon":5.38495,"is_reserved":false,"is_disabled":false,"rental_uris":{"android":"levelo://app?vid=5a82e63b-00bc-4dd6-999c-0f820645be1c","ios":"levelo://app?vid=5a82e63b-00bc-4dd6-999c-0f820645be1c"},"vehicle_type_id":"4","last_reported":1727554140,"current_range_meters":9200,"station_id":"ce4bgt92rcd13ifvqcf0","pricing_plan_id":"cebpf4jnsgd1na2vs0mg"},{"bike_id":"f5b41eb4-be31-4c55-a4e4-e7132075784f","system_id":"levelo_inurba_marseille","lat":43.29274,"lon":5.40127,"is_reserved":false,"is_disabled":false,"rental_uris":{"android":"levelo://app?vid=f5b41eb4-be31-4c55-a4e4-e7132075784f","ios":"levelo://app?vid=f5b41eb4-be31-4c55-a4e4-e7132075784f"},"vehicle_type_id":"4","last_reported":1727554140,"current_range_meters":38800,"station_id":"ce4bh312rcd13ifvqdk0","pricing_plan_id":"cebpf4jnsgd1na2vs0mg"},{"bike_id":"2ba60df9-b1a6-4107-b93b-9feb97ba85f8","system_id":"levelo_inurba_marseille","lat":43.25493,"lon":5.37645,"is_reserved":false,"is_disabled":false,"rental_uris":{"android":"levelo://app?vid=2ba60df9-b1a6-4107-b93b-9feb97ba85f8","ios":"levelo://app?vid=2ba60df9-b1a6-4107-b93b-9feb97ba85f8"},"vehicle_type_id":"4","last_reported":1727554140,"current_range_meters":38800,"station_id":"ce4bhh12rcd13ifvqff0","pricing_plan_id":"cebpf4jnsgd1na2vs0mg"},{"bike_id":"d8e32f1c-4c32-4777-922d-4d90b15b71c7","system_id":"levelo_inurba_marseille","lat":43.30863,"lon":5.3685,"is_reserved":false,"is_disabled":false,"rental_uris":{"android":"levelo://app?vid=d8e32f1c-4c32-4777-922d-4d90b15b71c7","ios":"levelo://app?vid=d8e32f1c-4c32-4777-922d-4d90b15b71c7"},"vehicle_type_id":"4","last_reported":1727554140,"current_range_meters":8400,"station_id":"ce4bgn92rcd13ifvqbvg","pricing_plan_id":"cebpf4jnsgd1na2vs0mg"},{"bike_id":"b470945e-f45c-4291-ac95-d7061c9aab44","system_id":"levelo_inurba_marseille","lat":43.2737,"lon":5.41219,"is_reserved":false,"is_disabled":false,"rental_uris":{"android":"levelo://app?vid=b470945e-f45c-4291-ac95-d7061c9aab44","ios":"levelo://app?vid=b470945e-f45c-4291-ac95-d7061c9aab44"},"vehicle_type_id":"4","last_reported":1727554140,"current_range_meters":27200,"station_id":"","pricing_plan_id":"cebpf4jnsgd1na2vs0mg"},{"bike_id":"ba48508c-4bf3-4e93-b06c-a1aca97b82ff","system_id":"levelo_inurba_marseille","lat":43.26555,"lon":5.37285,"is_reserved":false,"is_disabled":false,"rental_uris":{"android":"levelo://app?vid=ba48508c-4bf3-4e93-b06c-a1aca97b82ff","ios":"levelo://app?vid=ba48508c-4bf3-4e93-b06c-a1aca97b82ff"},"vehicle_type_id":"4","last_reported":1727554140,"current_range_meters":38800,"station_id":"ce4bhg12rcd13ifvqf70","pricing_plan_id":"cebpf4jnsgd1na2vs0mg"},{"bike_id":"a48cae50-cd12-420a-8f76-b956ec86646b","system_id":"levelo_inurba_marseille","lat":43.29881,"lon":5.39744,"is_reserved":false,"is_disabled":false,"rental_uris":{"android":"levelo://app?vid=a48cae50-cd12-420a-8f76-b956ec86646b","ios":"levelo://app?vid=a48cae50-cd12-420a-8f76-b956ec86646b"},"vehicle_type_id":"4","last_reported":1727554140,"current_range_meters":7200,"station_id":"ce4bh0h2rcd13ifvqd50","pricing_plan_id":"cebpf4jnsgd1na2vs0mg"},{"bike_id":"e4361fa2-90d9-45ff-9d8a-e7b112f4e011","system_id":"levelo_inurba_marseille","lat":43.28522,"lon":5.39139,"is_reserved":false,"is_disabled":false,"rental_uris":{"android":"levelo://app?vid=e4361fa2-90d9-45ff-9d8a-e7b112f4e011","ios":"levelo://app?vid=e4361fa2-90d9-45ff-9d8a-e7b112f4e011"},"vehicle_type_id":"4","last_reported":1727554140,"current_range_meters":31200,"station_id":"ce4bh3p2rcd13ifvqdp0","pricing_plan_id":"cebpf4jnsgd1na2vs0mg"},{"bike_id":"65f828c7-d12b-47c9-87f8-27b2e7121317","system_id":"levelo_inurba_marseille","lat":43.249973,"lon":5.389302,"is_reserved":false,"is_disabled":false,"rental_uris":{"android":"levelo://app?vid=65f828c7-d12b-47c9-87f8-27b2e7121317","ios":"levelo://app?vid=65f828c7-d12b-47c9-87f8-27b2e7121317"},"vehicle_type_id":"4","last_reported":1727554140,"current_range_meters":12400,"station_id":"ce4bhgp2rcd13ifvqfd0","pricing_plan_id":"cebpf4jnsgd1na2vs0mg"},{"bike_id":"e857968e-f56b-4d87-9c77-58233f291fc5","system_id":"levelo_inurba_marseille","lat":43.28696,"lon":5.37396,"is_reserved":false,"is_disabled":false,"rental_uris":{"android":"levelo://app?vid=e857968e-f56b-4d87-9c77-58233f291fc5","ios":"levelo://app?vid=e857968e-f56b-4d87-9c77-58233f291fc5"},"vehicle_type_id":"4","last_reported":1727554140,"current_range_meters":6000,"station_id":"ce4bh3p2rcd13ifvqdq0","pricing_plan_id":"cebpf4jnsgd1na2vs0mg"},{"bike_id":"448a84a5-9284-4c0d-9eda-d45097c9ec80","system_id":"levelo_inurba_marseille","lat":43.3012,"lon":5.39854,"is_reserved":false,"is_disabled":false,"rental_uris":{"android":"levelo://app?vid=448a84a5-9284-4c0d-9eda-d45097c9ec80","ios":"levelo://app?vid=448a84a5-9284-4c0d-9eda-d45097c9ec80"},"vehicle_type_id":"4","last_reported":1727554140,"current_range_meters":8400,"station_id":"ce4bh0h2rcd13ifvqd40","pricing_plan_id":"cebpf4jnsgd1na2vs0mg"},{"bike_id":"6eff8d2d-61fa-4715-9388-b30a052d3e98","system_id":"levelo_inurba_marseille","lat":43.337444,"lon":5.374475,"is_reserved":false,"is_disabled":false,"rental_uris":{"android":"levelo://app?vid=6eff8d2d-61fa-4715-9388-b30a052d3e98","ios":"levelo://app?vid=6eff8d2d-61fa-4715-9388-b30a052d3e98"},"vehicle_type_id":"4","last_reported":1727554140,"current_range_meters":31200,"station_id":"","pricing_plan_id":"cebpf4jnsgd1na2vs0mg"},{"bike_id":"3fbe2bcb-7d20-4523-aec1-1148610f9d0a","system_id":"levelo_inurba_marseille","lat":43.28465,"lon":5.35897,"is_reserved":false,"is_disabled":false,"rental_uris":{"android":"levelo://app?vid=3fbe2bcb-7d20-4523-aec1-1148610f9d0a","ios":"levelo://app?vid=3fbe2bcb-7d20-4523-aec1-1148610f9d0a"},"vehicle_type_id":"4","last_reported":1727554140,"current_range_meters":17600,"station_id":"ce4bhah2rcd13ifvqei0","pricing_plan_id":"cebpf4jnsgd1na2vs0mg"},{"bike_id":"3b2e1edd-c16b-40fb-bd6a-61381a15ff3d","system_id":"levelo_inurba_marseille","lat":43.30635,"lon":5.40089,"is_reserved":false,"is_disabled":false,"rental_uris":{"android":"levelo://app?vid=3b2e1edd-c16b-40fb-bd6a-61381a15ff3d","ios":"levelo://app?vid=3b2e1edd-c16b-40fb-bd6a-61381a15ff3d"},"vehicle_type_id":"4","last_reported":1727554140,"current_range_meters":16000,"station_id":"ce4bh112rcd13ifvqda0","pricing_plan_id":"cebpf4jnsgd1na2vs0mg"},{"bike_id":"49103c36-092f-43a6-a665-96ac4218adb8","system_id":"levelo_inurba_marseille","lat":43.3229,"lon":5.38272,"is_reserved":false,"is_disabled":false,"rental_uris":{"android":"levelo://app?vid=49103c36-092f-43a6-a665-96ac4218adb8","ios":"levelo://app?vid=49103c36-092f-43a6-a665-96ac4218adb8"},"vehicle_type_id":"4","last_reported":1727554140,"current_range_meters":39200,"station_id":"ce4bhr12rcd13ifvqhqg","pricing_plan_id":"cebpf4jnsgd1na2vs0mg"},{"bike_id":"64d9af74-931d-4678-a8f3-1e8e13b457ef","system_id":"levelo_inurba_marseille","lat":43.2903,"lon":5.38634,"is_reserved":false,"is_disabled":false,"rental_uris":{"android":"levelo://app?vid=64d9af74-931d-4678-a8f3-1e8e13b457ef","ios":"levelo://app?vid=64d9af74-931d-4678-a8f3-1e8e13b457ef"},"vehicle_type_id":"4","last_reported":1727554140,"current_range_meters":38800,"station_id":"ce4bh4p2rcd13ifvqe0g","pricing_plan_id":"cebpf4jnsgd1na2vs0mg"},{"bike_id":"2a00fd59-4c54-4575-87c9-585c6b45dd35","system_id":"levelo_inurba_marseille","lat":43.28968,"lon":5.37833,"is_reserved":false,"is_disabled":false,"rental_uris":{"android":"levelo://app?vid=2a00fd59-4c54-4575-87c9-585c6b45dd35","ios":"levelo://app?vid=2a00fd59-4c54-4575-87c9-585c6b45dd35"},"vehicle_type_id":"4","last_reported":1727554140,"current_range_meters":7200,"station_id":"ce4bh9p2rcd13ifvqed0","pricing_plan_id":"cebpf4jnsgd1na2vs0mg"},{"bike_id":"5fa471df-cf43-43ff-ae69-e9dd21d084b6","system_id":"levelo_inurba_marseille","lat":43.27208,"lon":5.39188,"is_reserved":false,"is_disabled":false,"rental_uris":{"android":"levelo://app?vid=5fa471df-cf43-43ff-ae69-e9dd21d084b6","ios":"levelo://app?vid=5fa471df-cf43-43ff-ae69-e9dd21d084b6"},"vehicle_type_id":"4","last_reported":1727554140,"current_range_meters":39200,"station_id":"ce4bhhp2rcd13ifvqfm0","pricing_plan_id":"cebpf4jnsgd1na2vs0mg"},{"bike_id":"8828e883-3306-483e-9cef-ac3e121f5b11","system_id":"levelo_inurba_marseille","lat":43.29268,"lon":5.38433,"is_reserved":false,"is_disabled":false,"rental_uris":{"android":"levelo://app?vid=8828e883-3306-483e-9cef-ac3e121f5b11","ios":"levelo://app?vid=8828e883-3306-483e-9cef-ac3e121f5b11"},"vehicle_type_id":"4","last_reported":1727554140,"current_range_meters":30800,"station_id":"ce4bh692rcd13ifvqea0","pricing_plan_id":"cebpf4jnsgd1na2vs0mg"},{"bike_id":"6f0f9c32-de70-4574-9b89-cca29ab0554e","system_id":"levelo_inurba_marseille","lat":43.337444,"lon":5.374475,"is_reserved":false,"is_disabled":false,"rental_uris":{"android":"levelo://app?vid=6f0f9c32-de70-4574-9b89-cca29ab0554e","ios":"levelo://app?vid=6f0f9c32-de70-4574-9b89-cca29ab0554e"},"vehicle_type_id":"4","last_reported":1727554140,"current_range_meters":29600,"station_id":"","pricing_plan_id":"cebpf4jnsgd1na2vs0mg"},{"bike_id":"f8bfb65a-2e90-4742-813e-fefe47c5dbfb","system_id":"levelo_inurba_marseille","lat":43.31683,"lon":5.4047,"is_reserved":false,"is_disabled":false,"rental_uris":{"android":"levelo://app?vid=f8bfb65a-2e90-4742-813e-fefe47c5dbfb","ios":"levelo://app?vid=f8bfb65a-2e90-4742-813e-fefe47c5dbfb"},"vehicle_type_id":"4","last_reported":1727554140,"current_range_meters":37600,"station_id":"ce4bh012rcd13ifvqd00","pricing_plan_id":"cebpf4jnsgd1na2vs0mg"},{"bike_id":"44839918-e841-4578-a34d-4d8014b09bc8","system_id":"levelo_inurba_marseille","lat":43.31232,"lon":5.3685,"is_reserved":false,"is_disabled":false,"rental_uris":{"android":"levelo://app?vid=44839918-e841-4578-a34d-4d8014b09bc8","ios":"levelo://app?vid=44839918-e841-4578-a34d-4d8014b09bc8"},"vehicle_type_id":"4","last_reported":1727554140,"current_range_meters":38800,"station_id":"ce4bgl92rcd13ifvqbq0","pricing_plan_id":"cebpf4jnsgd1na2vs0mg"},{"bike_id":"b9897cf6-b27e-4987-8a36-ce737823aa7b","system_id":"levelo_inurba_marseille","lat":43.32299,"lon":5.3825,"is_reserved":false,"is_disabled":false,"rental_uris":{"android":"levelo://app?vid=b9897cf6-b27e-4987-8a36-ce737823aa7b","ios":"levelo://app?vid=b9897cf6-b27e-4987-8a36-ce737823aa7b"},"vehicle_type_id":"4","last_reported":1727554140,"current_range_meters":36400,"station_id":"ce4bhr12rcd13ifvqhqg","pricing_plan_id":"cebpf4jnsgd1na2vs0mg"},{"bike_id":"0687a646-be72-47a3-8907-22e0afb02a46","system_id":"levelo_inurba_marseille","lat":43.23954,"lon":5.36636,"is_reserved":false,"is_disabled":false,"rental_uris":{"android":"levelo://app?vid=0687a646-be72-47a3-8907-22e0afb02a46","ios":"levelo://app?vid=0687a646-be72-47a3-8907-22e0afb02a46"},"vehicle_type_id":"4","last_reported":1727554140,"current_range_meters":34800,"station_id":"ce4bhi12rcd13ifvqfp0","pricing_plan_id":"cebpf4jnsgd1na2vs0mg"},{"bike_id":"cd00f807-363f-44a3-a6d4-09923ffae01c","system_id":"levelo_inurba_marseille","lat":43.288514,"lon":5.393167,"is_reserved":false,"is_disabled":false,"rental_uris":{"android":"levelo://app?vid=cd00f807-363f-44a3-a6d4-09923ffae01c","ios":"levelo://app?vid=cd00f807-363f-44a3-a6d4-09923ffae01c"},"vehicle_type_id":"4","last_reported":1727554140,"current_range_meters":6000,"station_id":"ce4bh2p2rcd13ifvqdi0","pricing_plan_id":"cebpf4jnsgd1na2vs0mg"},{"bike_id":"a056ca3e-bfa1-4f94-8d7b-b557439f640b","system_id":"levelo_inurba_marseille","lat":43.29314,"lon":5.37184,"is_reserved":false,"is_disabled":false,"rental_uris":{"android":"levelo://app?vid=a056ca3e-bfa1-4f94-8d7b-b557439f640b","ios":"levelo://app?vid=a056ca3e-bfa1-4f94-8d7b-b557439f640b"},"vehicle_type_id":"4","last_reported":1727554140,"current_range_meters":11600,"station_id":"ce4bgh92rcd13ifvqb40","pricing_plan_id":"cebpf4jnsgd1na2vs0mg"},{"bike_id":"90c05d40-f5db-4a12-95b3-f8d41ae2e51b","system_id":"levelo_inurba_marseille","lat":43.32377,"lon":5.3892,"is_reserved":false,"is_disabled":false,"rental_uris":{"android":"levelo://app?vid=90c05d40-f5db-4a12-95b3-f8d41ae2e51b","ios":"levelo://app?vid=90c05d40-f5db-4a12-95b3-f8d41ae2e51b"},"vehicle_type_id":"4","last_reported":1727554140,"current_range_meters":33200,"station_id":"ce4bhqp2rcd13ifvqhog","pricing_plan_id":"cebpf4jnsgd1na2vs0mg"},{"bike_id":"b9794d86-fb3c-4cbe-a645-3968cde6cee1","system_id":"levelo_inurba_marseille","lat":43.29475,"lon":5.38591,"is_reserved":false,"is_disabled":false,"rental_uris":{"android":"levelo://app?vid=b9794d86-fb3c-4cbe-a645-3968cde6cee1","ios":"levelo://app?vid=b9794d86-fb3c-4cbe-a645-3968cde6cee1"},"vehicle_type_id":"4","last_reported":1727554140,"current_range_meters":17600,"station_id":"ce4bh0h2rcd13ifvqd40","pricing_plan_id":"cebpf4jnsgd1na2vs0mg"},{"bike_id":"a74d10f0-ac26-44fc-8904-ea95d1a07492","system_id":"levelo_inurba_marseille","lat":43.29572,"lon":5.3999,"is_reserved":false,"is_disabled":false,"rental_uris":{"android":"levelo://app?vid=a74d10f0-ac26-44fc-8904-ea95d1a07492","ios":"levelo://app?vid=a74d10f0-ac26-44fc-8904-ea95d1a07492"},"vehicle_type_id":"4","last_reported":1727554140,"current_range_meters":28000,"station_id":"ce4bh312rcd13ifvqdj0","pricing_plan_id":"cebpf4jnsgd1na2vs0mg"},{"bike_id":"35bd4a4a-8e88-4b15-b586-81c736deec56","system_id":"levelo_inurba_marseille","lat":43.27061,"lon":5.40263,"is_reserved":false,"is_disabled":false,"rental_uris":{"android":"levelo://app?vid=35bd4a4a-8e88-4b15-b586-81c736deec56","ios":"levelo://app?vid=35bd4a4a-8e88-4b15-b586-81c736deec56"},"vehicle_type_id":"4","last_reported":1727554140,"current_range_meters":38800,"station_id":"ce4bhk92rcd13ifvqgc0","pricing_plan_id":"cebpf4jnsgd1na2vs0mg"},{"bike_id":"ee4b8fca-631f-4ede-a09e-e9ab5660ce8e","system_id":"levelo_inurba_marseille","lat":43.30881,"lon":5.39663,"is_reserved":false,"is_disabled":false,"rental_uris":{"android":"levelo://app?vid=ee4b8fca-631f-4ede-a09e-e9ab5660ce8e","ios":"levelo://app?vid=ee4b8fca-631f-4ede-a09e-e9ab5660ce8e"},"vehicle_type_id":"4","last_reported":1727554140,"current_range_meters":38800,"station_id":"ce4bh012rcd13ifvqcv0","pricing_plan_id":"cebpf4jnsgd1na2vs0mg"},{"bike_id":"bc2c241a-a5bc-4b91-8a1f-15557bc35b2c","system_id":"levelo_inurba_marseille","lat":43.31177,"lon":5.38718,"is_reserved":false,"is_disabled":false,"rental_uris":{"android":"levelo://app?vid=bc2c241a-a5bc-4b91-8a1f-15557bc35b2c","ios":"levelo://app?vid=bc2c241a-a5bc-4b91-8a1f-15557bc35b2c"},"vehicle_type_id":"4","last_reported":1727554140,"current_range_meters":6800,"station_id":"ce4bgv12rcd13ifvqcp0","pricing_plan_id":"cebpf4jnsgd1na2vs0mg"},{"bike_id":"8f8dbdbf-cd41-48d3-8068-7fe58722ae8d","system_id":"levelo_inurba_marseille","lat":43.25494,"lon":5.37652,"is_reserved":false,"is_disabled":false,"rental_uris":{"android":"levelo://app?vid=8f8dbdbf-cd41-48d3-8068-7fe58722ae8d","ios":"levelo://app?vid=8f8dbdbf-cd41-48d3-8068-7fe58722ae8d"},"vehicle_type_id":"4","last_reported":1727554140,"current_range_meters":38800,"station_id":"ce4bhh12rcd13ifvqff0","pricing_plan_id":"cebpf4jnsgd1na2vs0mg"},{"bike_id":"a5a150f6-b2ee-4d41-b02c-c5259f7e4d0b","system_id":"levelo_inurba_marseille","lat":43.2603,"lon":5.37551,"is_reserved":false,"is_disabled":false,"rental_uris":{"android":"levelo://app?vid=a5a150f6-b2ee-4d41-b02c-c5259f7e4d0b","ios":"levelo://app?vid=a5a150f6-b2ee-4d41-b02c-c5259f7e4d0b"},"vehicle_type_id":"4","last_reported":1727554140,"current_range_meters":38800,"station_id":"ce4bhgh2rcd13ifvqfa0","pricing_plan_id":"cebpf4jnsgd1na2vs0mg"},{"bike_id":"028d212c-707e-4101-9a89-51abe4ea2ac4","system_id":"levelo_inurba_marseille","lat":43.31168,"lon":5.38705,"is_reserved":false,"is_disabled":false,"rental_uris":{"android":"levelo://app?vid=028d212c-707e-4101-9a89-51abe4ea2ac4","ios":"levelo://app?vid=028d212c-707e-4101-9a89-51abe4ea2ac4"},"vehicle_type_id":"4","last_reported":1727554140,"current_range_meters":16800,"station_id":"ce4bgv12rcd13ifvqcp0","pricing_plan_id":"cebpf4jnsgd1na2vs0mg"},{"bike_id":"3357c55b-6f49-4ceb-ad5b-5378b86c00e0","system_id":"levelo_inurba_marseille","lat":43.26828,"lon":5.41114,"is_reserved":false,"is_disabled":false,"rental_uris":{"android":"levelo://app?vid=3357c55b-6f49-4ceb-ad5b-5378b86c00e0","ios":"levelo://app?vid=3357c55b-6f49-4ceb-ad5b-5378b86c00e0"},"vehicle_type_id":"4","last_reported":1727554140,"current_range_meters":20800,"station_id":"","pricing_plan_id":"cebpf4jnsgd1na2vs0mg"},{"bike_id":"0bd3aeea-82cb-4f0a-a1f2-0ce638de257d","system_id":"levelo_inurba_marseille","lat":43.27559,"lon":5.38414,"is_reserved":false,"is_disabled":false,"rental_uris":{"android":"levelo://app?vid=0bd3aeea-82cb-4f0a-a1f2-0ce638de257d","ios":"levelo://app?vid=0bd3aeea-82cb-4f0a-a1f2-0ce638de257d"},"vehicle_type_id":"4","last_reported":1727554140,"current_range_meters":29600,"station_id":"ce4bhh92rcd13ifvqfi0","pricing_plan_id":"cebpf4jnsgd1na2vs0mg"},{"bike_id":"67bc7233-8ceb-44ef-854a-9f21dd25b18b","system_id":"levelo_inurba_marseille","lat":43.28718,"lon":5.36084,"is_reserved":false,"is_disabled":false,"rental_uris":{"android":"levelo://app?vid=67bc7233-8ceb-44ef-854a-9f21dd25b18b","ios":"levelo://app?vid=67bc7233-8ceb-44ef-854a-9f21dd25b18b"},"vehicle_type_id":"4","last_reported":1727554140,"current_range_meters":37600,"station_id":"cki0cbj6b192h4jlfktg","pricing_plan_id":"cebpf4jnsgd1na2vs0mg"},{"bike_id":"9d933d2a-f72c-492c-ae3d-eb238dac3442","system_id":"levelo_inurba_marseille","lat":43.317589,"lon":5.390251,"is_reserved":false,"is_disabled":false,"rental_uris":{"android":"levelo://app?vid=9d933d2a-f72c-492c-ae3d-eb238dac3442","ios":"levelo://app?vid=9d933d2a-f72c-492c-ae3d-eb238dac3442"},"vehicle_type_id":"4","last_reported":1727554140,"current_range_meters":16400,"station_id":"ce4bhqp2rcd13ifvqhng","pricing_plan_id":"cebpf4jnsgd1na2vs0mg"},{"bike_id":"0a71bbf4-40bf-4e8e-9d71-87a87c2646aa","system_id":"levelo_inurba_marseille","lat":43.28075,"lon":5.40985,"is_reserved":false,"is_disabled":false,"rental_uris":{"android":"levelo://app?vid=0a71bbf4-40bf-4e8e-9d71-87a87c2646aa","ios":"levelo://app?vid=0a71bbf4-40bf-4e8e-9d71-87a87c2646aa"},"vehicle_type_id":"4","last_reported":1727554140,"current_range_meters":8000,"station_id":"","pricing_plan_id":"cebpf4jnsgd1na2vs0mg"},{"bike_id":"995a3cf2-841d-43a4-816e-52b1c2fd4df7","system_id":"levelo_inurba_marseille","lat":43.273234,"lon":5.390757,"is_reserved":false,"is_disabled":false,"rental_uris":{"android":"levelo://app?vid=995a3cf2-841d-43a4-816e-52b1c2fd4df7","ios":"levelo://app?vid=995a3cf2-841d-43a4-816e-52b1c2fd4df7"},"vehicle_type_id":"4","last_reported":1727554140,"current_range_meters":38800,"station_id":"ce4bhgp2rcd13ifvqfe0","pricing_plan_id":"cebpf4jnsgd1na2vs0mg"},{"bike_id":"46fe4869-fb3d-4da5-ae05-5cf92fe3947b","system_id":"levelo_inurba_marseille","lat":43.27565,"lon":5.3842,"is_reserved":false,"is_disabled":false,"rental_uris":{"android":"levelo://app?vid=46fe4869-fb3d-4da5-ae05-5cf92fe3947b","ios":"levelo://app?vid=46fe4869-fb3d-4da5-ae05-5cf92fe3947b"},"vehicle_type_id":"4","last_reported":1727554140,"current_range_meters":11600,"station_id":"ce4bhh92rcd13ifvqfi0","pricing_plan_id":"cebpf4jnsgd1na2vs0mg"},{"bike_id":"0e710ec6-8b89-4605-a2eb-4e2018123c98","system_id":"levelo_inurba_marseille","lat":43.2938,"lon":5.37835,"is_reserved":false,"is_disabled":false,"rental_uris":{"android":"levelo://app?vid=0e710ec6-8b89-4605-a2eb-4e2018123c98","ios":"levelo://app?vid=0e710ec6-8b89-4605-a2eb-4e2018123c98"},"vehicle_type_id":"4","last_reported":1727554140,"current_range_meters":38800,"station_id":"ce4bgjh2rcd13ifvqbf0","pricing_plan_id":"cebpf4jnsgd1na2vs0mg"},{"bike_id":"0a5ac62e-7e07-43c2-8081-3fd2d7701a3b","system_id":"levelo_inurba_marseille","lat":43.26938,"lon":5.38918,"is_reserved":false,"is_disabled":false,"rental_uris":{"android":"levelo://app?vid=0a5ac62e-7e07-43c2-8081-3fd2d7701a3b","ios":"levelo://app?vid=0a5ac62e-7e07-43c2-8081-3fd2d7701a3b"},"vehicle_type_id":"4","last_reported":1727554140,"current_range_meters":32800,"station_id":"ce4bhhh2rcd13ifvqfl0","pricing_plan_id":"cebpf4jnsgd1na2vs0mg"},{"bike_id":"27c48c26-5a20-4bc6-bf6b-c86c4e62eaa7","system_id":"levelo_inurba_marseille","lat":43.3266,"lon":5.40994,"is_reserved":false,"is_disabled":false,"rental_uris":{"android":"levelo://app?vid=27c48c26-5a20-4bc6-bf6b-c86c4e62eaa7","ios":"levelo://app?vid=27c48c26-5a20-4bc6-bf6b-c86c4e62eaa7"},"vehicle_type_id":"4","last_reported":1727554140,"current_range_meters":34800,"station_id":"ce4bhpp2rcd13ifvqhgg","pricing_plan_id":"cebpf4jnsgd1na2vs0mg"},{"bike_id":"9bdb7d14-749e-4ade-a872-a76379b4d98e","system_id":"levelo_inurba_marseille","lat":43.28157,"lon":5.42647,"is_reserved":false,"is_disabled":false,"rental_uris":{"android":"levelo://app?vid=9bdb7d14-749e-4ade-a872-a76379b4d98e","ios":"levelo://app?vid=9bdb7d14-749e-4ade-a872-a76379b4d98e"},"vehicle_type_id":"4","last_reported":1727554140,"current_range_meters":37600,"station_id":"ce4bhnh2rcd13ifvqgug","pricing_plan_id":"cebpf4jnsgd1na2vs0mg"},{"bike_id":"b172130c-c554-4940-a068-0fb271c8c738","system_id":"levelo_inurba_marseille","lat":43.29376,"lon":5.37842,"is_reserved":false,"is_disabled":false,"rental_uris":{"android":"levelo://app?vid=b172130c-c554-4940-a068-0fb271c8c738","ios":"levelo://app?vid=b172130c-c554-4940-a068-0fb271c8c738"},"vehicle_type_id":"4","last_reported":1727554140,"current_range_meters":28000,"station_id":"ce4bgjh2rcd13ifvqbf0","pricing_plan_id":"cebpf4jnsgd1na2vs0mg"},{"bike_id":"5edaa8cc-f5df-48f0-9402-402223e8bcfd","system_id":"levelo_inurba_marseille","lat":43.29182,"lon":5.39309,"is_reserved":false,"is_disabled":false,"rental_uris":{"android":"levelo://app?vid=5edaa8cc-f5df-48f0-9402-402223e8bcfd","ios":"levelo://app?vid=5edaa8cc-f5df-48f0-9402-402223e8bcfd"},"vehicle_type_id":"4","last_reported":1727554140,"current_range_meters":34800,"station_id":"ce4bh192rcd13ifvqdd0","pricing_plan_id":"cebpf4jnsgd1na2vs0mg"},{"bike_id":"ae420688-5730-4c04-90f7-fb439220597f","system_id":"levelo_inurba_marseille","lat":43.337444,"lon":5.374475,"is_reserved":false,"is_disabled":false,"rental_uris":{"android":"levelo://app?vid=ae420688-5730-4c04-90f7-fb439220597f","ios":"levelo://app?vid=ae420688-5730-4c04-90f7-fb439220597f"},"vehicle_type_id":"4","last_reported":1727554140,"current_range_meters":32000,"station_id":"","pricing_plan_id":"cebpf4jnsgd1na2vs0mg"},{"bike_id":"64c5a41d-9764-4555-8564-e0109a27d62f","system_id":"levelo_inurba_marseille","lat":43.32263,"lon":5.382825,"is_reserved":false,"is_disabled":false,"rental_uris":{"android":"levelo://app?vid=64c5a41d-9764-4555-8564-e0109a27d62f","ios":"levelo://app?vid=64c5a41d-9764-4555-8564-e0109a27d62f"},"vehicle_type_id":"4","last_reported":1727554140,"current_range_meters":19200,"station_id":"ce4bhr12rcd13ifvqhqg","pricing_plan_id":"cebpf4jnsgd1na2vs0mg"},{"bike_id":"f602a99a-8945-4d4f-8888-b097e0039ba6","system_id":"levelo_inurba_marseille","lat":43.29668,"lon":5.40046,"is_reserved":false,"is_disabled":false,"rental_uris":{"android":"levelo://app?vid=f602a99a-8945-4d4f-8888-b097e0039ba6","ios":"levelo://app?vid=f602a99a-8945-4d4f-8888-b097e0039ba6"},"vehicle_type_id":"4","last_reported":1727554140,"current_range_meters":25200,"station_id":"ce4bh312rcd13ifvqdj0","pricing_plan_id":"cebpf4jnsgd1na2vs0mg"},{"bike_id":"86a71ee8-d43f-4ebe-bee2-169dfe2232ae","system_id":"levelo_inurba_marseille","lat":43.23965,"lon":5.36626,"is_reserved":false,"is_disabled":false,"rental_uris":{"android":"levelo://app?vid=86a71ee8-d43f-4ebe-bee2-169dfe2232ae","ios":"levelo://app?vid=86a71ee8-d43f-4ebe-bee2-169dfe2232ae"},"vehicle_type_id":"4","last_reported":1727554140,"current_range_meters":37600,"station_id":"ce4bhi12rcd13ifvqfp0","pricing_plan_id":"cebpf4jnsgd1na2vs0mg"},{"bike_id":"ad2bb6dc-1bbc-471d-9143-c37b570e7321","system_id":"levelo_inurba_marseille","lat":43.29129,"lon":5.38548,"is_reserved":false,"is_disabled":false,"rental_uris":{"android":"levelo://app?vid=ad2bb6dc-1bbc-471d-9143-c37b570e7321","ios":"levelo://app?vid=ad2bb6dc-1bbc-471d-9143-c37b570e7321"},"vehicle_type_id":"4","last_reported":1727554140,"current_range_meters":2800,"station_id":"ce4bh4p2rcd13ifvqe0g","pricing_plan_id":"cebpf4jnsgd1na2vs0mg"},