{"last_updated":1761066559,"ttl":60,"version":"2.2","data":{"bikes":[{"bike_id":"d8a0f4f8-3964-402e-924c-3470748785aa","system_id":"levelo_inurba_marseille","lat":43.337444,"lon":5.374475,"is_reserved":false,"is_disabled":false,"rental_uris":{"android":"levelo://app?vid=d8a0f4f8-3964-402e-924c-3470748785aa","ios":"levelo://app?vid=d8a0f4f8-3964-402e-924c-3470748785aa"},"vehicle_type_id":"4","last_reported":1761066559,"current_range_meters":0,"station_id":"","pricing_plan_id":"cebpf4jnsgd1na2vs0mg"},{"bike_id":"f5af877b-b9e3-4c29-bf90-284c4119658f","system_id":"levelo_inurba_marseille","lat":43.303291,"lon":5.37887,"is_reserved":false,"is_disabled":false,"rental_uris":{"android":"levelo://app?vid=f5af877b-b9e3-4c29-bf90-284c4119658f","ios":"levelo://app?vid=f5af877b-b9e3-4c29-bf90-284c4119658f"},"vehicle_type_id":"4","last_reported":1761066559,"current_range_meters":2800,"station_id":"ce4bguh2rcd13ifvqcj0","pricing_plan_id":"cebpf4jnsgd1na2vs0mg"},{"bike_id":"c6508856-7f7c-4391-88e6-2a31444b2758","system_id":"levelo_inurba_marseille","lat":43.2481,"lon":5.37457,"is_reserved":false,"is_disabled":false,"rental_uris":{"android":"levelo://app?vid=c6508856-7f7c-4391-88e6-2a31444b2758","ios":"levelo://app?vid=c6508856-7f7c-4391-88e6-2a31444b2758"},"vehicle_type_id":"4","last_reported":1761066559,"current_range_meters":2800,"station_id":"ce4bhgh2rcd13ifvqfb0","pricing_plan_id":"cebpf4jnsgd1na2vs0mg"},{"bike_id":"2944137e-85b5-457a-8516-a65ba1f3e945","system_id":"levelo_inurba_marseille","lat":43.30214,"lon":5.394719,"is_reserved":false,"is_disabled":false,"rental_uris":{"android":"levelo://app?vid=2944137e-85b5-457a-8516-a65ba1f3e945","ios":"levelo://app?vid=2944137e-85b5-457a-8516-a65ba1f3e945"},"vehicle_type_id":"4","last_reported":1761066559,"current_range_meters":3200,"station_id":"ce4bh0p2rcd13ifvqd70","pricing_plan_id":"cebpf4jnsgd1na2vs0mg"},{"bike_id":"1ca07a2f-3f0c-4b9c-b594-fd6590fe1a61","system_id":"levelo_inurba_marseille","lat":43.28077,"lon":5.39662,"is_reserved":false,"is_disabled":false,"rental_uris":{"android":"levelo://app?vid=1ca07a2f-3f0c-4b9c-b594-fd6590fe1a61","ios":"levelo://app?vid=1ca07a2f-3f0c-4b9c-b594-fd6590fe1a61"},"vehicle_type_id":"4","last_reported":1761066559,"current_range_meters":3200,"station_id":"ce4bho12rcd13ifvqh2g","pricing_plan_id":"cebpf4jnsgd1na2vs0mg"},{"bike_id":"fca75470-f3a7-4d74-bdfc-fc54a4bb5053","system_id":"levelo_inurba_marseille","lat":43.28937,"lon":5.36625,"is_reserved":false,"is_disabled":false,"rental_uris":{"android":"levelo://app?vid=fca75470-f3a7-4d74-bdfc-fc54a4bb5053","ios":"levelo://app?vid=fca75470-f3a7-4d74-bdfc-fc54a4bb5053"},"vehicle_type_id":"4","last_reported":1761066559,"current_range_meters":3200,"station_id":"ce4bhap2rcd13ifvqek0","pricing_plan_id":"cebpf4jnsgd1na2vs0mg"},{"bike_id":"90c8c078-b7b1-4b3f-a18d-d8b13d30f7d9","system_id":"levelo_inurba_marseille","lat":43.25869,"lon":5.39893,"is_reserved":false,"is_disabled":false,"rental_uris":{"android":"levelo://app?vid=90c8c078-b7b1-4b3f-a18d-d8b13d30f7d9","ios":"levelo://app?vid=90c8c078-b7b1-4b3f-a18d-d8b13d30f7d9"},"vehicle_type_id":"4","last_reported":1761066559,"current_range_meters":3200,"station_id":"ce4bhl92rcd13ifvqghg","pricing_plan_id":"cebpf4jnsgd1na2vs0mg"},{"bike_id":"b29d61ea-4560-4409-a1fe-8864d4844e76","system_id":"levelo_inurba_marseille","lat":43.28717,"lon":5.40004,"is_reserved":false,"is_disabled":false,"rental_uris":{"android":"levelo://app?vid=b29d61ea-4560-4409-a1fe-8864d4844e76","ios":"levelo://app?vid=b29d61ea-4560-4409-a1fe-8864d4844e76"},"vehicle_type_id":"4","last_reported":1761066559,"current_range_meters":3200,"station_id":"ce4bho92rcd13ifvqh3g","pricing_plan_id":"cebpf4jnsgd1na2vs0mg"},{"bike_id":"91f69060-3543-4e34-b988-d49287b314e8","system_id":"levelo_inurba_marseille","lat":43.28858,"lon":5.42523,"is_reserved":false,"is_disabled":false,"rental_uris":{"android":"levelo://app?vid=91f69060-3543-4e34-b988-d49287b314e8","ios":"levelo://app?vid=91f69060-3543-4e34-b988-d49287b314e8"},"vehicle_type_id":"4","last_reported":1761066559,"current_range_meters":3200,"station_id":"st_d3b462108ojc7389ooeg","pricing_plan_id":"cebpf4jnsgd1na2vs0mg"},{"bike_id":"782dcdf3-a9ba-4150-8299-00fb0a6dec0c","system_id":"levelo_inurba_marseille","lat":43.2884,"lon":5.38301,"is_reserved":false,"is_disabled":false,"rental_uris":{"android":"levelo://app?vid=782dcdf3-a9ba-4150-8299-00fb0a6dec0c","ios":"levelo://app?vid=782dcdf3-a9ba-4150-8299-00fb0a6dec0c"},"vehicle_type_id":"4","last_reported":1761066559,"current_range_meters":3600,"station_id":"","pricing_plan_id":"cebpf4jnsgd1na2vs0mg"},{"bike_id":"fbb75000-48f5-4dbe-aa37-aa4a8d769d08","system_id":"levelo_inurba_marseille","lat":43.21193,"lon":5.35064,"is_reserved":false,"is_disabled":false,"rental_uris":{"android":"levelo://app?vid=fbb75000-48f5-4dbe-aa37-aa4a8d769d08","ios":"levelo://app?vid=fbb75000-48f5-4dbe-aa37-aa4a8d769d08"},"vehicle_type_id":"4","last_reported":1761066559,"current_range_meters":3600,"station_id":"st_cvj6sg6p6f1abm77japg","pricing_plan_id":"cebpf4jnsgd1na2vs0mg"},{"bike_id":"78a0dc8b-3b9d-41f7-a3a3-18ec054e3617","system_id":"levelo_inurba_marseille","lat":43.30968,"lon":5.3812,"is_reserved":false,"is_disabled":false,"rental_uris":{"android":"levelo://app?vid=78a0dc8b-3b9d-41f7-a3a3-18ec054e3617","ios":"levelo://app?vid=78a0dc8b-3b9d-41f7-a3a3-18ec054e3617"},"vehicle_type_id":"4","last_reported":1761066559,"current_range_meters":3600,"station_id":"","pricing_plan_id":"cebpf4jnsgd1na2vs0mg"},{"bike_id":"306b6de0-dd25-428b-abb9-3b6a6cfc8a54","system_id":"levelo_inurba_marseille","lat":43.26577,"lon":5.39009,"is_reserved":false,"is_disabled":false,"rental_uris":{"android":"levelo://app?vid=306b6de0-dd25-428b-abb9-3b6a6cfc8a54","ios":"levelo://app?vid=306b6de0-dd25-428b-abb9-3b6a6cfc8a54"},"vehicle_type_id":"4","last_reported":1761066559,"current_range_meters":3600,"station_id":"ce4bhe12rcd13ifvqf30","pricing_plan_id":"cebpf4jnsgd1na2vs0mg"},{"bike_id":"c3aa2214-996d-4e19-aabe-b8102ef612ef","system_id":"levelo_inurba_marseille","lat":43.29297,"lon":5.37469,"is_reserved":false,"is_disabled":false,"rental_uris":{"android":"levelo://app?vid=c3aa2214-996d-4e19-aabe-b8102ef612ef","ios":"levelo://app?vid=c3aa2214-996d-4e19-aabe-b8102ef612ef"},"vehicle_type_id":"4","last_reported":1761066559,"current_range_meters":4000,"station_id":"ce4bgi12rcd13ifvqb70","pricing_plan_id":"cebpf4jnsgd1na2vs0mg"},{"bike_id":"7b98492a-a58e-4093-adf8-3ccaec2ec3c6","system_id":"levelo_inurba_marseille","lat":43.29029,"lon":5.38651,"is_reserved":false,"is_disabled":false,"rental_uris":{"android":"levelo://app?vid=7b98492a-a58e-4093-adf8-3ccaec2ec3c6","ios":"levelo://app?vid=7b98492a-a58e-4093-adf8-3ccaec2ec3c6"},"vehicle_type_id":"4","last_reported":1761066559,"current_range_meters":4000,"station_id":"ce4bh4p2rcd13ifvqe0g","pricing_plan_id":"cebpf4jnsgd1na2vs0mg"},{"bike_id":"a360f084-dcb4-41bf-89fb-f309801d51d6","system_id":"levelo_inurba_marseille","lat":43.31168,"lon":5.38724,"is_reserved":false,"is_disabled":false,"rental_uris":{"android":"levelo://app?vid=a360f084-dcb4-41bf-89fb-f309801d51d6","ios":"levelo://app?vid=a360f084-dcb4-41bf-89fb-f309801d51d6"},"vehicle_type_id":"4","last_reported":1761066559,"current_range_meters":4000,"station_id":"ce4bgv12rcd13ifvqcp0","pricing_plan_id":"cebpf4jnsgd1na2vs0mg"},{"bike_id":"cd98264f-76e6-42f5-9285-92bc7fec2983","system_id":"levelo_inurba_marseille","lat":43.32475,"lon":5.36602,"is_reserved":false,"is_disabled":false,"rental_uris":{"android":"levelo://app?vid=cd98264f-76e6-42f5-9285-92bc7fec2983","ios":"levelo://app?vid=cd98264f-76e6-42f5-9285-92bc7fec2983"},"vehicle_type_id":"4","last_reported":1761066559,"current_range_meters":4400,"station_id":"ce4bhs12rcd13ifvqhvg","pricing_plan_id":"cebpf4jnsgd1na2vs0mg"},{"bike_id":"91311cb8-2bd6-451b-8bf4-a9c62b0ca068","system_id":"levelo_inurba_marseille","lat":43.30466,"lon":5.37903,"is_reserved":false,"is_disabled":false,"rental_uris":{"android":"levelo://app?vid=91311cb8-2bd6-451b-8bf4-a9c62b0ca068","ios":"levelo://app?vid=91311cb8-2bd6-451b-8bf4-a9c62b0ca068"},"vehicle_type_id":"4","last_reported":1761066559,"current_range_meters":4400,"station_id":"ce4bgup2rcd13ifvqcn0","pricing_plan_id":"cebpf4jnsgd1na2vs0mg"},{"bike_id":"f3ebe117-12a7-45ec-8429-26f230af099b","system_id":"levelo_inurba_marseille","lat":43.26776,"lon":5.39418,"is_reserved":false,"is_disabled":false,"rental_uris":{"android":"levelo://app?vid=f3ebe117-12a7-45ec-8429-26f230af099b","ios":"levelo://app?vid=f3ebe117-12a7-45ec-8429-26f230af099b"},"vehicle_type_id":"4","last_reported":1761066559,"current_range_meters":4400,"station_id":"ce4bhh12rcd13ifvqfg0","pricing_plan_id":"cebpf4jnsgd1na2vs0mg"},{"bike_id":"2f2dd1a0-a4d9-4ad0-bae9-c04e88859c2d","system_id":"levelo_inurba_marseille","lat":43.265279,"lon":5.395235,"is_reserved":false,"is_disabled":false,"rental_uris":{"android":"levelo://app?vid=2f2dd1a0-a4d9-4ad0-bae9-c04e88859c2d","ios":"levelo://app?vid=2f2dd1a0-a4d9-4ad0-bae9-c04e88859c2d"},"vehicle_type_id":"4","last_reported":1761066559,"current_range_meters":4400,"station_id":"ce4bhi12rcd13ifvqfq0","pricing_plan_id":"cebpf4jnsgd1na2vs0mg"},{"bike_id":"560d3a54-d5ff-4b0f-85f0-c3590a4861ab","system_id":"levelo_inurba_marseille","lat":43.29803,"lon":5.38092,"is_reserved":false,"is_disabled":false,"rental_uris":{"android":"levelo://app?vid=560d3a54-d5ff-4b0f-85f0-c3590a4861ab","ios":"levelo://app?vid=560d3a54-d5ff-4b0f-85f0-c3590a4861ab"},"vehicle_type_id":"4","last_reported":1761066559,"current_range_meters":4400,"station_id":"ce4bgip2rcd13ifvqbb0","pricing_plan_id":"cebpf4jnsgd1na2vs0mg"},{"bike_id":"990ef726-42c9-4392-be96-42cc88140271","system_id":"levelo_inurba_marseille","lat":43.29022,"lon":5.38633,"is_reserved":false,"is_disabled":false,"rental_uris":{"android":"levelo://app?vid=990ef726-42c9-4392-be96-42cc88140271","ios":"levelo://app?vid=990ef726-42c9-4392-be96-42cc88140271"},"vehicle_type_id":"4","last_reported":1761066559,"current_range_meters":4400,"station_id":"ce4bh4p2rcd13ifvqe0g","pricing_plan_id":"cebpf4jnsgd1na2vs0mg"},{"bike_id":"7be01084-961d-4d6b-938c-8c529b7b1dd5","system_id":"levelo_inurba_marseille","lat":43.30553,"lon":5.36527,"is_reserved":false,"is_disabled":false,"rental_uris":{"android":"levelo://app?vid=7be01084-961d-4d6b-938c-8c529b7b1dd5","ios":"levelo://app?vid=7be01084-961d-4d6b-938c-8c529b7b1dd5"},"vehicle_type_id":"4","last_reported":1761066559,"current_range_meters":4800,"station_id":"ce4bgs12rcd13ifvqcag","pricing_plan_id":"cebpf4jnsgd1na2vs0mg"},{"bike_id":"ec9365c5-b4e5-4f98-9336-cedd0d96c8dd","system_id":"levelo_inurba_marseille","lat":43.31163,"lon":5.38714,"is_reserved":false,"is_disabled":false,"rental_uris":{"android":"levelo://app?vid=ec9365c5-b4e5-4f98-9336-cedd0d96c8dd","ios":"levelo://app?vid=ec9365c5-b4e5-4f98-9336-cedd0d96c8dd"},"vehicle_type_id":"4","last_reported":1761066559,"current_range_meters":4800,"station_id":"ce4bgv12rcd13ifvqcp0","pricing_plan_id":"cebpf4jnsgd1na2vs0mg"},{"bike_id":"fbd6d247-f10e-4e59-8a1e-6161a9ae3d0e","system_id":"levelo_inurba_marseille","lat":43.28619,"lon":5.35107,"is_reserved":false,"is_disabled":false,"rental_uris":{"android":"levelo://app?vid=fbd6d247-f10e-4e59-8a1e-6161a9ae3d0e","ios":"levelo://app?vid=fbd6d247-f10e-4e59-8a1e-6161a9ae3d0e"},"vehicle_type_id":"4","last_reported":1761066559,"current_range_meters":4800,"station_id":"ce4bhch2rcd13ifvqeug","pricing_plan_id":"cebpf4jnsgd1na2vs0mg"},{"bike_id":"8a830d4f-ddab-46b9-9d0f-77194401daa1","system_id":"levelo_inurba_marseille","lat":43.3473,"lon":5.36606,"is_reserved":false,"is_disabled":false,"rental_uris":{"android":"levelo://app?vid=8a830d4f-ddab-46b9-9d0f-77194401daa1","ios":"levelo://app?vid=8a830d4f-ddab-46b9-9d0f-77194401daa1"},"vehicle_type_id":"4","last_reported":1761066559,"current_range_meters":5600,"station_id":"","pricing_plan_id":"cebpf4jnsgd1na2vs0mg"},{"bike_id":"562e9d0e-d4ae-47a1-afaf-8911cf6f0034","system_id":"levelo_inurba_marseille","lat":43.246596,"lon":5.381606,"is_reserved":false,"is_disabled":false,"rental_uris":{"android":"levelo://app?vid=562e9d0e-d4ae-47a1-afaf-8911cf6f0034","ios":"levelo://app?vid=562e9d0e-d4ae-47a1-afaf-8911cf6f0034"},"vehicle_type_id":"4","last_reported":1761066559,"current_range_meters":5600,"station_id":"ce4bhih2rcd13ifvqfr0","pricing_plan_id":"cebpf4jnsgd1na2vs0mg"},{"bike_id":"70d4b5e5-72e6-4e24-a923-096be6e51d8e","system_id":"levelo_inurba_marseille","lat":43.29594,"lon":5.38084,"is_reserved":false,"is_disabled":false,"rental_uris":{"android":"levelo://app?vid=70d4b5e5-72e6-4e24-a923-096be6e51d8e","ios":"levelo://app?vid=70d4b5e5-72e6-4e24-a923-096be6e51d8e"},"vehicle_type_id":"4","last_reported":1761066559,"current_range_meters":5600,"station_id":"ce4bgl12rcd13ifvqbo0","pricing_plan_id":"cebpf4jnsgd1na2vs0mg"},{"bike_id":"212a9329-66c4-44b3-8186-4a3357c4630e","system_id":"levelo_inurba_marseille","lat":43.292162,"lon":5.380859,"is_reserved":false,"is_disabled":false,"rental_uris":{"android":"levelo://app?vid=212a9329-66c4-44b3-8186-4a3357c4630e","ios":"levelo://app?vid=212a9329-66c4-44b3-8186-4a3357c4630e"},"vehicle_type_id":"4","last_reported":1761066559,"current_range_meters":5600,"station_id":"","pricing_plan_id":"cebpf4jnsgd1na2vs0mg"},{"bike_id":"2163cee1-36bf-49aa-85c0-3b2412b7de2b","system_id":"levelo_inurba_marseille","lat":43.2894,"lon":5.36646,"is_reserved":false,"is_disabled":true,"rental_uris":{"android":"levelo://app?vid=2163cee1-36bf-49aa-85c0-3b2412b7de2b","ios":"levelo://app?vid=2163cee1-36bf-49aa-85c0-3b2412b7de2b"},"vehicle_type_id":"4","last_reported":1761066559,"current_range_meters":5600,"station_id":"ce4bhap2rcd13ifvqek0","pricing_plan_id":"cebpf4jnsgd1na2vs0mg"},{"bike_id":"14647ca8-80cc-4f32-9d7c-449daddc4f49","system_id":"levelo_inurba_marseille","lat":43.28651,"lon":5.36366,"is_reserved":false,"is_disabled":false,"rental_uris":{"android":"levelo://app?vid=14647ca8-80cc-4f32-9d7c-449daddc4f49","ios":"levelo://app?vid=14647ca8-80cc-4f32-9d7c-449daddc4f49"},"vehicle_type_id":"4","last_reported":1761066559,"current_range_meters":6000,"station_id":"ce4bhah2rcd13ifvqej0","pricing_plan_id":"cebpf4jnsgd1na2vs0mg"},{"bike_id":"07400bae-6660-48e7-b291-4f4876e146d8","system_id":"levelo_inurba_marseille","lat":43.310742,"lon":5.424341,"is_reserved":false,"is_disabled":true,"rental_uris":{"android":"levelo://app?vid=07400bae-6660-48e7-b291-4f4876e146d8","ios":"levelo://app?vid=07400bae-6660-48e7-b291-4f4876e146d8"},"vehicle_type_id":"4","last_reported":1761066559,"current_range_meters":6000,"station_id":"","pricing_plan_id":"cebpf4jnsgd1na2vs0mg"},{"bike_id":"7caedf13-0e6c-4e85-89b1-5b84714fee23","system_id":"levelo_inurba_marseille","lat":43.286087,"lon":5.370657,"is_reserved":false,"is_disabled":false,"rental_uris":{"android":"levelo://app?vid=7caedf13-0e6c-4e85-89b1-5b84714fee23","ios":"levelo://app?vid=7caedf13-0e6c-4e85-89b1-5b84714fee23"},"vehicle_type_id":"4","last_reported":1761066559,"current_range_meters":6000,"station_id":"ce4bht12rcd13ifvqi60","pricing_plan_id":"cebpf4jnsgd1na2vs0mg"},{"bike_id":"6548ee16-4e8c-4bac-837d-5f0b70169bc7","system_id":"levelo_inurba_marseille","lat":43.28624,"lon":5.35103,"is_reserved":false,"is_disabled":false,"rental_uris":{"android":"levelo://app?vid=6548ee16-4e8c-4bac-837d-5f0b70169bc7","ios":"levelo://app?vid=6548ee16-4e8c-4bac-837d-5f0b70169bc7"},"vehicle_type_id":"4","last_reported":1761066559,"current_range_meters":6000,"station_id":"ce4bhch2rcd13ifvqeug","pricing_plan_id":"cebpf4jnsgd1na2vs0mg"},{"bike_id":"8244c0e2-4b19-48eb-a071-d4f8e82af87f","system_id":"levelo_inurba_marseille","lat":43.26493,"lon":5.39543,"is_reserved":false,"is_disabled":false,"rental_uris":{"android":"levelo://app?vid=8244c0e2-4b19-48eb-a071-d4f8e82af87f","ios":"levelo://app?vid=8244c0e2-4b19-48eb-a071-d4f8e82af87f"},"vehicle_type_id":"4","last_reported":1761066559,"current_range_meters":6000,"station_id":"ce4bhi12rcd13ifvqfq0","pricing_plan_id":"cebpf4jnsgd1na2vs0mg"},{"bike_id":"3b8a8f78-c60d-4b51-a763-fe6640429e19","system_id":"levelo_inurba_marseille","lat":43.26587,"lon":5.39011,"is_reserved":false,"is_disabled":false,"rental_uris":{"android":"levelo://app?vid=3b8a8f78-c60d-4b51-a763-fe6640429e19","ios":"levelo://app?vid=3b8a8f78-c60d-4b51-a763-fe6640429e19"},"vehicle_type_id":"4","last_reported":1761066559,"current_range_meters":6400,"station_id":"ce4bhe12rcd13ifvqf30","pricing_plan_id":"cebpf4jnsgd1na2vs0mg"},{"bike_id":"c037874f-e454-4d1e-9f03-b485b4dbd4f2","system_id":"levelo_inurba_marseille","lat":43.29175,"lon":5.37055,"is_reserved":false,"is_disabled":false,"rental_uris":{"android":"levelo://app?vid=c037874f-e454-4d1e-9f03-b485b4dbd4f2","ios":"levelo://app?vid=c037874f-e454-4d1e-9f03-b485b4dbd4f2"},"vehicle_type_id":"4","last_reported":1761066559,"current_range_meters":6400,"station_id":"","pricing_plan_id":"cebpf4jnsgd1na2vs0mg"},{"bike_id":"80d8e384-dc9c-47e6-a911-199f6b46e5d4","system_id":"levelo_inurba_marseille","lat":43.28698,"lon":5.37403,"is_reserved":false,"is_disabled":false,"rental_uris":{"android":"levelo://app?vid=80d8e384-dc9c-47e6-a911-199f6b46e5d4","ios":"levelo://app?vid=80d8e384-dc9c-47e6-a911-199f6b46e5d4"},"vehicle_type_id":"4","last_reported":1761066559,"current_range_meters":6400,"station_id":"ce4bh3p2rcd13ifvqdq0","pricing_plan_id":"cebpf4jnsgd1na2vs0mg"},{"bike_id":"9f4880cd-eb80-4a97-a192-8cbac81b1fcf","system_id":"levelo_inurba_marseille","lat":43.24393,"lon":5.37055,"is_reserved":false,"is_disabled":false,"rental_uris":{"android":"levelo://app?vid=9f4880cd-eb80-4a97-a192-8cbac81b1fcf","ios":"levelo://app?vid=9f4880cd-eb80-4a97-a192-8cbac81b1fcf"},"vehicle_type_id":"4","last_reported":1761066559,"current_range_meters":6400,"station_id":"ce4bhhh2rcd13ifvqfk0","pricing_plan_id":"cebpf4jnsgd1na2vs0mg"},{"bike_id":"bc99f514-5fe9-4539-a9be-1c56cadfc6b4","system_id":"levelo_inurba_marseille","lat":43.30192,"lon":5.36604,"is_reserved":false,"is_disabled":false,"rental_uris":{"android":"levelo://app?vid=bc99f514-5fe9-4539-a9be-1c56cadfc6b4","ios":"levelo://app?vid=bc99f514-5fe9-4539-a9be-1c56cadfc6b4"},"vehicle_type_id":"4","last_reported":1761066559,"current_range_meters":6400,"station_id":"ce4bgrh2rcd13ifvqc8g","pricing_plan_id":"cebpf4jnsgd1na2vs0mg"},{"bike_id":"98490d11-db71-4361-ab96-f0addd49d050","system_id":"levelo_inurba_marseille","lat":43.29978,"lon":5.37371,"is_reserved":false,"is_disabled":false,"rental_uris":{"android":"levelo://app?vid=98490d11-db71-4361-ab96-f0addd49d050","ios":"levelo://app?vid=98490d11-db71-4361-ab96-f0addd49d050"},"vehicle_type_id":"4","last_reported":1761066559,"current_range_meters":6400,"station_id":"","pricing_plan_id":"cebpf4jnsgd1na2vs0mg"},{"bike_id":"23d2e327-9a1c-43f9-a1d7-2fca27e96f84","system_id":"levelo_inurba_marseille","lat":43.27376,"lon":5.41502,"is_reserved":false,"is_disabled":false,"rental_uris":{"android":"levelo://app?vid=23d2e327-9a1c-43f9-a1d7-2fca27e96f84","ios":"levelo://app?vid=23d2e327-9a1c-43f9-a1d7-2fca27e96f84"},"vehicle_type_id":"4","last_reported":1761066559,"current_range_meters":6800,"station_id":"","pricing_plan_id":"cebpf4jnsgd1na2vs0mg"},{"bike_id":"9c59ddbf-c83e-447d-a9c1-c625093a647f","system_id":"levelo_inurba_marseille","lat":43.26493,"lon":5.39543,"is_reserved":false,"is_disabled":false,"rental_uris":{"android":"levelo://app?vid=9c59ddbf-c83e-447d-a9c1-c625093a647f","ios":"levelo://app?vid=9c59ddbf-c83e-447d-a9c1-c625093a647f"},"vehicle_type_id":"4","last_reported":1761066559,"current_range_meters":6800,"station_id":"ce4bhi12rcd13ifvqfq0","pricing_plan_id":"cebpf4jnsgd1na2vs0mg"},{"bike_id":"32fe13f3-1998-41d4-a763-4eea85838a36","system_id":"levelo_inurba_marseille","lat":43.28608,"lon":5.37067,"is_reserved":false,"is_disabled":false,"rental_uris":{"android":"levelo://app?vid=32fe13f3-1998-41d4-a763-4eea85838a36","ios":"levelo://app?vid=32fe13f3-1998-41d4-a763-4eea85838a36"},"vehicle_type_id":"4","last_reported":1761066559,"current_range_meters":6800,"station_id":"ce4bht12rcd13ifvqi60","pricing_plan_id":"cebpf4jnsgd1na2vs0mg"},{"bike_id":"8952652d-181d-4647-99e0-dd7c8dc8f72d","system_id":"levelo_inurba_marseille","lat":43.28532,"lon":5.44126,"is_reserved":false,"is_disabled":false,"rental_uris":{"android":"levelo://app?vid=8952652d-181d-4647-99e0-dd7c8dc8f72d","ios":"levelo://app?vid=8952652d-181d-4647-99e0-dd7c8dc8f72d"},"vehicle_type_id":"4","last_reported":1761066559,"current_range_meters":7200,"station_id":"st_d3j3df2ikq2c7380ej80","pricing_plan_id":"cebpf4jnsgd1na2vs0mg"},{"bike_id":"ffa86b5a-71c1-4610-a209-d75a1b8b3618","system_id":"levelo_inurba_marseille","lat":43.24623,"lon":5.43148,"is_reserved":false,"is_disabled":false,"rental_uris":{"android":"levelo://app?vid=ffa86b5a-71c1-4610-a209-d75a1b8b3618","ios":"levelo://app?vid=ffa86b5a-71c1-4610-a209-d75a1b8b3618"},"vehicle_type_id":"4","last_reported":1761066559,"current_range_meters":7200,"station_id":"st_d2m6c4gdas8pm72e190g","pricing_plan_id":"cebpf4jnsgd1na2vs0mg"},{"bike_id":"3dce95df-7659-446e-9010-516137ea4310","system_id":"levelo_inurba_marseille","lat":43.30969,"lon":5.39041,"is_reserved":false,"is_disabled":true,"rental_uris":{"android":"levelo://app?vid=3dce95df-7659-446e-9010-516137ea4310","ios":"levelo://app?vid=3dce95df-7659-446e-9010-516137ea4310"},"vehicle_type_id":"4","last_reported":1761066559,"current_range_meters":7200,"station_id":"ce4bgup2rcd13ifvqco0","pricing_plan_id":"cebpf4jnsgd1na2vs0mg"},{"bike_id":"6d8da19b-0143-43ba-a2b6-b774a32597d4","system_id":"levelo_inurba_marseille","lat":43.281515,"lon":5.347682,"is_reserved":false,"is_disabled":false,"rental_uris":{"android":"levelo://app?vid=6d8da19b-0143-43ba-a2b6-b774a32597d4","ios":"levelo://app?vid=6d8da19b-0143-43ba-a2b6-b774a32597d4"},"vehicle_type_id":"4","last_reported":1761066559,"current_range_meters":7200,"station_id":"","pricing_plan_id":"cebpf4jnsgd1na2vs0mg"},{"bike_id":"25e520cf-42f0-4e8e-b270-61ba4df424e0","system_id":"levelo_inurba_marseille","lat":43.246676,"lon":5.385475,"is_reserved":false,"is_disabled":false,"rental_uris":{"android":"levelo://app?vid=25e520cf-42f0-4e8e-b270-61ba4df424e0","ios":"levelo://app?vid=25e520cf-42f0-4e8e-b270-61ba4df424e0"},"vehicle_type_id":"4","last_reported":1761066559,"current_range_meters":7200,"station_id":"ce4bhg12rcd13ifvqf60","pricing_plan_id":"cebpf4jnsgd1na2vs0mg"},{"bike_id":"9918574a-f642-4db1-beee-27c077b12a06","system_id":"levelo_inurba_marseille","lat":43.27626,"lon":5.36107,"is_reserved":false,"is_disabled":false,"rental_uris":{"android":"levelo://app?vid=9918574a-f642-4db1-beee-27c077b12a06","ios":"levelo://app?vid=9918574a-f642-4db1-beee-27c077b12a06"},"vehicle_type_id":"4","last_reported":1761066559,"current_range_meters":7200,"station_id":"ce4bgj92rcd13ifvqbe0","pricing_plan_id":"cebpf4jnsgd1na2vs0mg"},{"bike_id":"04018adf-9b7e-4f75-95a6-f2dca1881420","system_id":"levelo_inurba_marseille","lat":43.21757,"lon":5.34608,"is_reserved":false,"is_disabled":true,"rental_uris":{"android":"levelo://app?vid=04018adf-9b7e-4f75-95a6-f2dca1881420","ios":"levelo://app?vid=04018adf-9b7e-4f75-95a6-f2dca1881420"},"vehicle_type_id":"4","last_reported":1761066559,"current_range_meters":7200,"station_id":"st_cvj6r9ubvosntc0bgbag","pricing_plan_id":"cebpf4jnsgd1na2vs0mg"},{"bike_id":"4ec51632-582a-46fc-b449-e2521ddffd2f","system_id":"levelo_inurba_marseille","lat":43.29555,"lon":5.42296,"is_reserved":false,"is_disabled":false,"rental_uris":{"android":"levelo://app?vid=4ec51632-582a-46fc-b449-e2521ddffd2f","ios":"levelo://app?vid=4ec51632-582a-46fc-b449-e2521ddffd2f"},"vehicle_type_id":"4","last_reported":1761066559,"current_range_meters":8000,"station_id":"ce4bhph2rcd13ifvqhdg","pricing_plan_id":"cebpf4jnsgd1na2vs0mg"},{"bike_id":"e74f9469-80d9-44f9-a914-dc87b9046524","system_id":"levelo_inurba_marseille","lat":43.28252,"lon":5.35057,"is_reserved":false,"is_disabled":true,"rental_uris":{"android":"levelo://app?vid=e74f9469-80d9-44f9-a914-dc87b9046524","ios":"levelo://app?vid=e74f9469-80d9-44f9-a914-dc87b9046524"},"vehicle_type_id":"4","last_reported":1761066559,"current_range_meters":8000,"station_id":"ce4bhbp2rcd13ifvqerg","pricing_plan_id":"cebpf4jnsgd1na2vs0mg"},{"bike_id":"377fec0a-131c-4bf8-afb3-69ed825c6594","system_id":"levelo_inurba_marseille","lat":43.28569,"lon":5.39496,"is_reserved":false,"is_disabled":false,"rental_uris":{"android":"levelo://app?vid=377fec0a-131c-4bf8-afb3-69ed825c6594","ios":"levelo://app?vid=377fec0a-131c-4bf8-afb3-69ed825c6594"},"vehicle_type_id":"4","last_reported":1761066559,"current_range_meters":8000,"station_id":"ce4bh292rcd13ifvqdg0","pricing_plan_id":"cebpf4jnsgd1na2vs0mg"},{"bike_id":"e0d04ceb-bcdb-4c7f-a745-9cfd726619b6","system_id":"levelo_inurba_marseille","lat":43.29273,"lon":5.40901,"is_reserved":false,"is_disabled":false,"rental_uris":{"android":"levelo://app?vid=e0d04ceb-bcdb-4c7f-a745-9cfd726619b6","ios":"levelo://app?vid=e0d04ceb-bcdb-4c7f-a745-9cfd726619b6"},"vehicle_type_id":"4","last_reported":1761066559,"current_range_meters":8000,"station_id":"ce4bh192rcd13ifvqdc0","pricing_plan_id":"cebpf4jnsgd1na2vs0mg"},{"bike_id":"c668849d-d4a7-43a9-b3d6-c6a119317f32","system_id":"levelo_inurba_marseille","lat":43.28231,"lon":5.39081,"is_reserved":false,"is_disabled":false,"rental_uris":{"android":"levelo://app?vid=c668849d-d4a7-43a9-b3d6-c6a119317f32","ios":"levelo://app?vid=c668849d-d4a7-43a9-b3d6-c6a119317f32"},"vehicle_type_id":"4","last_reported":1761066559,"current_range_meters":8400,"station_id":"ce4bhn92rcd13ifvqgsg","pricing_plan_id":"cebpf4jnsgd1na2vs0mg"},{"bike_id":"bf8ec125-d0e1-4669-93ef-7d5ad0ddea3a","system_id":"levelo_inurba_marseille","lat":43.272303,"lon":5.400579,"is_reserved":false,"is_disabled":false,"rental_uris":{"android":"levelo://app?vid=bf8ec125-d0e1-4669-93ef-7d5ad0ddea3a","ios":"levelo://app?vid=bf8ec125-d0e1-4669-93ef-7d5ad0ddea3a"},"vehicle_type_id":"4","last_reported":1761066559,"current_range_meters":8400,"station_id":"","pricing_plan_id":"cebpf4jnsgd1na2vs0mg"},{"bike_id":"5e131e24-c311-4dc6-9fd3-a3d6efc69fb1","system_id":"levelo_inurba_marseille","lat":43.251081,"lon":5.403273,"is_reserved":false,"is_disabled":false,"rental_uris":{"android":"levelo://app?vid=5e131e24-c311-4dc6-9fd3-a3d6efc69fb1","ios":"levelo://app?vid=5e131e24-c311-4dc6-9fd3-a3d6efc69fb1"},"vehicle_type_id":"4","last_reported":1761066559,"current_range_meters":8400,"station_id":"ce4bhlh2rcd13ifvqgig","pricing_plan_id":"cebpf4jnsgd1na2vs0mg"},{"bike_id":"e7cb61d9-84d9-41c0-8427-00fc6a9e436b","system_id":"levelo_inurba_marseille","lat":43.31072,"lon":5.37569,"is_reserved":false,"is_disabled":false,"rental_uris":{"android":"levelo://app?vid=e7cb61d9-84d9-41c0-8427-00fc6a9e436b","ios":"levelo://app?vid=e7cb61d9-84d9-41c0-8427-00fc6a9e436b"},"vehicle_type_id":"4","last_reported":1761066559,"current_range_meters":8400,"station_id":"","pricing_plan_id":"cebpf4jnsgd1na2vs0mg"},{"bike_id":"5b9c3d5c-6d17-4ffa-8e1b-300f623be3d0","system_id":"levelo_inurba_marseille","lat":43.23151,"lon":5.43705,"is_reserved":false,"is_disabled":false,"rental_uris":{"android":"levelo://app?vid=5b9c3d5c-6d17-4ffa-8e1b-300f623be3d0","ios":"levelo://app?vid=5b9c3d5c-6d17-4ffa-8e1b-300f623be3d0"},"vehicle_type_id":"4","last_reported":1761066559,"current_range_meters":8400,"station_id":"ce4bhmp2rcd13ifvqgog","pricing_plan_id":"cebpf4jnsgd1na2vs0mg"},{"bike_id":"92e468a1-5c65-4773-80fe-e306086d5e60","system_id":"levelo_inurba_marseille","lat":43.27911,"lon":5.38012,"is_reserved":false,"is_disabled":false,"rental_uris":{"android":"levelo://app?vid=92e468a1-5c65-4773-80fe-e306086d5e60","ios":"levelo://app?vid=92e468a1-5c65-4773-80fe-e306086d5e60"},"vehicle_type_id":"4","last_reported":1761066559,"current_range_meters":8400,"station_id":"ce4bhf92rcd13ifvqf50","pricing_plan_id":"cebpf4jnsgd1na2vs0mg"},{"bike_id":"c4432b73-0adb-475d-83b3-18f6e7bba483","system_id":"levelo_inurba_marseille","lat":43.33011,"lon":5.39574,"is_reserved":false,"is_disabled":false,"rental_uris":{"android":"levelo://app?vid=c4432b73-0adb-475d-83b3-18f6e7bba483","ios":"levelo://app?vid=c4432b73-0adb-475d-83b3-18f6e7bba483"},"vehicle_type_id":"4","last_reported":1761066559,"current_range_meters":8400,"station_id":"","pricing_plan_id":"cebpf4jnsgd1na2vs0mg"},{"bike_id":"0231df7a-5832-4003-8207-54e6db7d8491","system_id":"levelo_inurba_marseille","lat":43.260598,"lon":5.394091,"is_reserved":false,"is_disabled":false,"rental_uris":{"android":"levelo://app?vid=0231df7a-5832-4003-8207-54e6db7d8491","ios":"levelo://app?vid=0231df7a-5832-4003-8207-54e6db7d8491"},"vehicle_type_id":"4","last_reported":1761066559,"current_range_meters":8800,"station_id":"ce4bhh92rcd13ifvqfj0","pricing_plan_id":"cebpf4jnsgd1na2vs0mg"},{"bike_id":"faafaab3-2765-4e63-92f5-e8aca18c08f2","system_id":"levelo_inurba_marseille","lat":43.3208,"lon":5.36762,"is_reserved":false,"is_disabled":true,"rental_uris":{"android":"levelo://app?vid=faafaab3-2765-4e63-92f5-e8aca18c08f2","ios":"levelo://app?vid=faafaab3-2765-4e63-92f5-e8aca18c08f2"},"vehicle_type_id":"4","last_reported":1761066559,"current_range_meters":8800,"station_id":"ce4bhrh2rcd13ifvqhug","pricing_plan_id":"cebpf4jnsgd1na2vs0mg"},{"bike_id":"79c51b69-0679-4128-b28a-491a52cfc149","system_id":"levelo_inurba_marseille","lat":43.304308,"lon":5.405861,"is_reserved":false,"is_disabled":false,"rental_uris":{"android":"levelo://app?vid=79c51b69-0679-4128-b28a-491a52cfc149","ios":"levelo://app?vid=79c51b69-0679-4128-b28a-491a52cfc149"},"vehicle_type_id":"4","last_reported":1761066559,"current_range_meters":8800,"station_id":"","pricing_plan_id":"cebpf4jnsgd1na2vs0mg"},{"bike_id":"7305d454-7ccb-49b1-b116-9ef8aacbbbbd","system_id":"levelo_inurba_marseille","lat":43.281964,"lon":5.391073,"is_reserved":false,"is_disabled":false,"rental_uris":{"android":"levelo://app?vid=7305d454-7ccb-49b1-b116-9ef8aacbbbbd","ios":"levelo://app?vid=7305d454-7ccb-49b1-b116-9ef8aacbbbbd"},"vehicle_type_id":"4","last_reported":1761066559,"current_range_meters":8800,"station_id":"ce4bhh92rcd13ifvqfi0","pricing_plan_id":"cebpf4jnsgd1na2vs0mg"},{"bike_id":"30830ff4-2949-4c72-95f8-c70c201d8afe","system_id":"levelo_inurba_marseille","lat":43.31884,"lon":5.40741,"is_reserved":false,"is_disabled":false,"rental_uris":{"android":"levelo://app?vid=30830ff4-2949-4c72-95f8-c70c201d8afe","ios":"levelo://app?vid=30830ff4-2949-4c72-95f8-c70c201d8afe"},"vehicle_type_id":"4","last_reported":1761066559,"current_range_meters":8800,"station_id":"ce4bhq12rcd13ifvqhig","pricing_plan_id":"cebpf4jnsgd1na2vs0mg"},{"bike_id":"44ae004f-d3ba-4bb8-8fab-7e7bb7dc5680","system_id":"levelo_inurba_marseille","lat":43.25862,"lon":5.399,"is_reserved":false,"is_disabled":false,"rental_uris":{"android":"levelo://app?vid=44ae004f-d3ba-4bb8-8fab-7e7bb7dc5680","ios":"levelo://app?vid=44ae004f-d3ba-4bb8-8fab-7e7bb7dc5680"},"vehicle_type_id":"4","last_reported":1761066559,"current_range_meters":8800,"station_id":"ce4bhl92rcd13ifvqghg","pricing_plan_id":"cebpf4jnsgd1na2vs0mg"},{"bike_id":"338bcdf3-e67a-4895-a644-18bfffd604dc","system_id":"levelo_inurba_marseille","lat":43.27959,"lon":5.38742,"is_reserved":false,"is_disabled":false,"rental_uris":{"android":"levelo://app?vid=338bcdf3-e67a-4895-a644-18bfffd604dc","ios":"levelo://app?vid=338bcdf3-e67a-4895-a644-18bfffd604dc"},"vehicle_type_id":"4","last_reported":1761066559,"current_range_meters":8800,"station_id":"ce4bhg12rcd13ifvqf80","pricing_plan_id":"cebpf4jnsgd1na2vs0mg"},{"bike_id":"468df8c8-4b51-4441-b752-488d4c101564","system_id":"levelo_inurba_marseille","lat":43.31354,"lon":5.38503,"is_reserved":false,"is_disabled":false,"rental_uris":{"android":"levelo://app?vid=468df8c8-4b51-4441-b752-488d4c101564","ios":"levelo://app?vid=468df8c8-4b51-4441-b752-488d4c101564"},"vehicle_type_id":"4","last_reported":1761066559,"current_range_meters":9200,"station_id":"ce4bgt92rcd13ifvqcf0","pricing_plan_id":"cebpf4jnsgd1na2vs0mg"},{"bike_id":"52cb45b6-9190-4916-b7e1-dc8d3ebc6407","system_id":"levelo_inurba_marseille","lat":43.28712,"lon":5.37939,"is_reserved":false,"is_disabled":false,"rental_uris":{"android":"levelo://app?vid=52cb45b6-9190-4916-b7e1-dc8d3ebc6407","ios":"levelo://app?vid=52cb45b6-9190-4916-b7e1-dc8d3ebc6407"},"vehicle_type_id":"4","last_reported":1761066559,"current_range_meters":9200,"station_id":"ce4bh9p2rcd13ifvqec0","pricing_plan_id":"cebpf4jnsgd1na2vs0mg"},{"bike_id":"bedab86a-a42b-4d3b-a255-7e555fb6da4b","system_id":"levelo_inurba_marseille","lat":43.28828,"lon":5.45181,"is_reserved":false,"is_disabled":false,"rental_uris":{"android":"levelo://app?vid=bedab86a-a42b-4d3b-a255-7e555fb6da4b","ios":"levelo://app?vid=bedab86a-a42b-4d3b-a255-7e555fb6da4b"},"vehicle_type_id":"4","last_reported":1761066559,"current_range_meters":9200,"station_id":"","pricing_plan_id":"cebpf4jnsgd1na2vs0mg"},{"bike_id":"a2e131f8-3c9f-478a-b394-6a9db5f46a7a","system_id":"levelo_inurba_marseille","lat":43.30131,"lon":5.37428,"is_reserved":false,"is_disabled":true,"rental_uris":{"android":"levelo://app?vid=a2e131f8-3c9f-478a-b394-6a9db5f46a7a","ios":"levelo://app?vid=a2e131f8-3c9f-478a-b394-6a9db5f46a7a"},"vehicle_type_id":"4","last_reported":1761066559,"current_range_meters":9200,"station_id":"ce4bgs92rcd13ifvqcc0","pricing_plan_id":"cebpf4jnsgd1na2vs0mg"},{"bike_id":"2c67b074-a4dd-4d9d-ba23-32cd446af508","system_id":"levelo_inurba_marseille","lat":43.246595,"lon":5.381709,"is_reserved":false,"is_disabled":false,"rental_uris":{"android":"levelo://app?vid=2c67b074-a4dd-4d9d-ba23-32cd446af508","ios":"levelo://app?vid=2c67b074-a4dd-4d9d-ba23-32cd446af508"},"vehicle_type_id":"4","last_reported":1761066559,"current_range_meters":9200,"station_id":"ce4bhih2rcd13ifvqfr0","pricing_plan_id":"cebpf4jnsgd1na2vs0mg"},{"bike_id":"f2ff0ade-5361-46d8-ab78-69bd403c3483","system_id":"levelo_inurba_marseille","lat":43.28206,"lon":5.34996,"is_reserved":false,"is_disabled":false,"rental_uris":{"android":"levelo://app?vid=f2ff0ade-5361-46d8-ab78-69bd403c3483","ios":"levelo://app?vid=f2ff0ade-5361-46d8-ab78-69bd403c3483"},"vehicle_type_id":"4","last_reported":1761066559,"current_range_meters":9200,"station_id":"","pricing_plan_id":"cebpf4jnsgd1na2vs0mg"},{"bike_id":"4e7f83e5-a850-4d91-8ada-b28ef84ab519","system_id":"levelo_inurba_marseille","lat":43.24662,"lon":5.38163,"is_reserved":false,"is_disabled":false,"rental_uris":{"android":"levelo://app?vid=4e7f83e5-a850-4d91-8ada-b28ef84ab519","ios":"levelo://app?vid=4e7f83e5-a850-4d91-8ada-b28ef84ab519"},"vehicle_type_id":"4","last_reported":1761066559,"current_range_meters":9600,"station_id":"ce4bhih2rcd13ifvqfr0","pricing_plan_id":"cebpf4jnsgd1na2vs0mg"},{"bike_id":"8d22dd48-d2ef-4987-bfaf-e79a4344b191","system_id":"levelo_inurba_marseille","lat":43.29631,"lon":5.40596,"is_reserved":false,"is_disabled":false,"rental_uris":{"android":"levelo://app?vid=8d22dd48-d2ef-4987-bfaf-e79a4344b191","ios":"levelo://app?vid=8d22dd48-d2ef-4987-bfaf-e79a4344b191"},"vehicle_type_id":"4","last_reported":1761066559,"current_range_meters":9600,"station_id":"ce4bh0h2rcd13ifvqd60","pricing_plan_id":"cebpf4jnsgd1na2vs0mg"},{"bike_id":"4154d683-e72a-4592-9e60-2a3872848698","system_id":"levelo_inurba_marseille","lat":43.28474,"lon":5.48393,"is_reserved":false,"is_disabled":false,"rental_uris":{"android":"levelo://app?vid=4154d683-e72a-4592-9e60-2a3872848698","ios":"levelo://app?vid=4154d683-e72a-4592-9e60-2a3872848698"},"vehicle_type_id":"4","last_reported":1761066559,"current_range_meters":9600,"station_id":"st_d3jp68qikq2c7381ktn0","pricing_plan_id":"cebpf4jnsgd1na2vs0mg"},{"bike_id":"2f2cd53b-bf8d-472a-8c70-97638c6ae795","system_id":"levelo_inurba_marseille","lat":43.31875,"lon":5.39993,"is_reserved":false,"is_disabled":false,"rental_uris":{"android":"levelo://app?vid=2f2cd53b-bf8d-472a-8c70-97638c6ae795","ios":"levelo://app?vid=2f2cd53b-bf8d-472a-8c70-97638c6ae795"},"vehicle_type_id":"4","last_reported":1761066559,"current_range_meters":9600,"station_id":"","pricing_plan_id":"cebpf4jnsgd1na2vs0mg"},{"bike_id":"2e25bc97-b9f5-4f97-a493-c2d3c04c9f6d","system_id":"levelo_inurba_marseille","lat":43.29595,"lon":5.38096,"is_reserved":false,"is_disabled":false,"rental_uris":{"android":"levelo://app?vid=2e25bc97-b9f5-4f97-a493-c2d3c04c9f6d","ios":"levelo://app?vid=2e25bc97-b9f5-4f97-a493-c2d3c04c9f6d"},"vehicle_type_id":"4","last_reported":1761066559,"current_range_meters":9600,"station_id":"ce4bgl12rcd13ifvqbo0","pricing_plan_id":"cebpf4jnsgd1na2vs0mg"},{"bike_id":"616ad029-a002-4e23-8e48-0689fb9064f3","system_id":"levelo_inurba_marseille","lat":43.29528,"lon":5.38552,"is_reserved":false,"is_disabled":false,"rental_uris":{"android":"levelo://app?vid=616ad029-a002-4e23-8e48-0689fb9064f3","ios":"levelo://app?vid=616ad029-a002-4e23-8e48-0689fb9064f3"},"vehicle_type_id":"4","last_reported":1761066559,"current_range_meters":9600,"station_id":"ce4bgih2rcd13ifvqba0","pricing_plan_id":"cebpf4jnsgd1na2vs0mg"},{"bike_id":"0e3eb862-f8b4-4f43-ad89-0e0c43d8e0e9","system_id":"levelo_inurba_marseille","lat":43.29093,"lon":5.38152,"is_reserved":false,"is_disabled":false,"rental_uris":{"android":"levelo://app?vid=0e3eb862-f8b4-4f43-ad89-0e0c43d8e0e9","ios":"levelo://app?vid=0e3eb862-f8b4-4f43-ad89-0e0c43d8e0e9"},"vehicle_type_id":"4","last_reported":1761066559,"current_range_meters":9600,"station_id":"ce4bh512rcd13ifvqe2g","pricing_plan_id":"cebpf4jnsgd1na2vs0mg"},{"bike_id":"adb6da43-a790-4bbe-8cdb-8fa1e5d17796","system_id":"levelo_inurba_marseille","lat":43.3175,"lon":5.38585,"is_reserved":false,"is_disabled":true,"rental_uris":{"android":"levelo://app?vid=adb6da43-a790-4bbe-8cdb-8fa1e5d17796","ios":"levelo://app?vid=adb6da43-a790-4bbe-8cdb-8fa1e5d17796"},"vehicle_type_id":"4","last_reported":1761066559,"current_range_meters":9600,"station_id":"","pricing_plan_id":"cebpf4jnsgd1na2vs0mg"},{"bike_id":"d6060722-8bf7-41ed-ba9d-563684df7ccb","system_id":"levelo_inurba_marseille","lat":43.26059,"lon":5.39396,"is_reserved":false,"is_disabled":false,"rental_uris":{"android":"levelo://app?vid=d6060722-8bf7-41ed-ba9d-563684df7ccb","ios":"levelo://app?vid=d6060722-8bf7-41ed-ba9d-563684df7ccb"},"vehicle_type_id":"4","last_reported":1761066559,"current_range_meters":10000,"station_id":"ce4bhh92rcd13ifvqfj0","pricing_plan_id":"cebpf4jnsgd1na2vs0mg"},{"bike_id":"94a2edac-73d0-47c4-851f-dd14bb60d2ec","system_id":"levelo_inurba_marseille","lat":43.293396,"lon":5.371622,"is_reserved":false,"is_disabled":false,"rental_uris":{"android":"levelo://app?vid=94a2edac-73d0-47c4-851f-dd14bb60d2ec","ios":"levelo://app?vid=94a2edac-73d0-47c4-851f-dd14bb60d2ec"},"vehicle_type_id":"4","last_reported":1761066559,"current_range_meters":10000,"station_id":"ce4bgh92rcd13ifvqb40","pricing_plan_id":"cebpf4jnsgd1na2vs0mg"},{"bike_id":"1e9bfffa-fe46-4cca-8d70-a5ba74081670","system_id":"levelo_inurba_marseille","lat":43.31236,"lon":5.36851,"is_reserved":false,"is_disabled":true,"rental_uris":{"android":"levelo://app?vid=1e9bfffa-fe46-4cca-8d70-a5ba74081670","ios":"levelo://app?vid=1e9bfffa-fe46-4cca-8d70-a5ba74081670"},"vehicle_type_id":"4","last_reported":1761066559,"current_range_meters":10000,"station_id":"ce4bgl92rcd13ifvqbq0","pricing_plan_id":"cebpf4jnsgd1na2vs0mg"},{"bike_id":"a145089b-e99d-4070-9191-7c8fa0dcb309","system_id":"levelo_inurba_marseille","lat":43.21188,"lon":5.35073,"is_reserved":false,"is_disabled":false,"rental_uris":{"android":"levelo://app?vid=a145089b-e99d-4070-9191-7c8fa0dcb309","ios":"levelo://app?vid=a145089b-e99d-4070-9191-7c8fa0dcb309"},"vehicle_type_id":"4","last_reported":1761066559,"current_range_meters":10000,"station_id":"","pricing_plan_id":"cebpf4jnsgd1na2vs0mg"},{"bike_id":"4461a492-bc79-47b3-8698-5fea1796b179","system_id":"levelo_inurba_marseille","lat":43.30431,"lon":5.38896,"is_reserved":false,"is_disabled":false,"rental_uris":{"android":"levelo://app?vid=4461a492-bc79-47b3-8698-5fea1796b179","ios":"levelo://app?vid=4461a492-bc79-47b3-8698-5fea1796b179"},"vehicle_type_id":"4","last_reported":1761066559,"current_range_meters":10000,"station_id":"ce4bgk12rcd13ifvqbi0","pricing_plan_id":"cebpf4jnsgd1na2vs0mg"},{"bike_id":"3d068a7d-8c2c-4f97-8d7d-54140fa95800","system_id":"levelo_inurba_marseille","lat":43.27359,"lon":5.39875,"is_reserved":false,"is_disabled":false,"rental_uris":{"android":"levelo://app?vid=3d068a7d-8c2c-4f97-8d7d-54140fa95800","ios":"levelo://app?vid=3d068a7d-8c2c-4f97-8d7d-54140fa95800"},"vehicle_type_id":"4","last_reported":1761066559,"current_range_meters":10000,"station_id":"","pricing_plan_id":"cebpf4jnsgd1na2vs0mg"},{"bike_id":"c80368f1-e3e1-42d1-80a9-d213fb74c7e2","system_id":"levelo_inurba_marseille","lat":43.25104,"lon":5.40321,"is_reserved":false,"is_disabled":false,"rental_uris":{"android":"levelo://app?vid=c80368f1-e3e1-42d1-80a9-d213fb74c7e2","ios":"levelo://app?vid=c80368f1-e3e1-42d1-80a9-d213fb74c7e2"},"vehicle_type_id":"4","last_reported":1761066559,"current_range_meters":10000,"station_id":"ce4bhlh2rcd13ifvqgig","pricing_plan_id":"cebpf4jnsgd1na2vs0mg"},{"bike_id":"b3368da1-faef-43a4-ada4-73d0de7687c7","system_id":"levelo_inurba_marseille","lat":43.31571,"lon":5.38755,"is_reserved":false,"is_disabled":true,"rental_uris":{"android":"levelo://app?vid=b3368da1-faef-43a4-ada4-73d0de7687c7","ios":"levelo://app?vid=b3368da1-faef-43a4-ada4-73d0de7687c7"},"vehicle_type_id":"4","last_reported":1761066559,"current_range_meters":10000,"station_id":"","pricing_plan_id":"cebpf4jnsgd1na2vs0mg"},{"bike_id":"03b035a6-eeb6-4f09-b8ba-5d59cdd70512","system_id":"levelo_inurba_marseille","lat":43.2511,"lon":5.4032,"is_reserved":false,"is_disabled":false,"rental_uris":{"android":"levelo://app?vid=03b035a6-eeb6-4f09-b8ba-5d59cdd70512","ios":"levelo://app?vid=03b035a6-eeb6-4f09-b8ba-5d59cdd70512"},"vehicle_type_id":"4","last_reported":1761066559,"current_range_meters":10000,"station_id":"ce4bhlh2rcd13ifvqgig","pricing_plan_id":"cebpf4jnsgd1na2vs0mg"},{"bike_id":"5130cfd4-f1de-40ba-8467-f856b2c55f5a","system_id":"levelo_inurba_marseille","lat":43.28858,"lon":5.3586,"is_reserved":false,"is_disabled":false,"rental_uris":{"android":"levelo://app?vid=5130cfd4-f1de-40ba-8467-f856b2c55f5a","ios":"levelo://app?vid=5130cfd4-f1de-40ba-8467-f856b2c55f5a"},"vehicle_type_id":"4","last_reported":1761066559,"current_range_meters":10000,"station_id":"ce4bhb12rcd13ifvqem0","pricing_plan_id":"cebpf4jnsgd1na2vs0mg"},{"bike_id":"609e8845-7ae3-4c4f-97f5-856dd3a8b490","system_id":"levelo_inurba_marseille","lat":43.28864,"lon":5.425128,"is_reserved":false,"is_disabled":false,"rental_uris":{"android":"levelo://app?vid=609e8845-7ae3-4c4f-97f5-856dd3a8b490","ios":"levelo://app?vid=609e8845-7ae3-4c4f-97f5-856dd3a8b490"},"vehicle_type_id":"4","last_reported":1761066559,"current_range_meters":10800,"station_id":"st_d3b462108ojc7389ooeg","pricing_plan_id":"cebpf4jnsgd1na2vs0mg"},{"bike_id":"b7e41c34-cad5-468c-aadc-3ef8a1845b5a","system_id":"levelo_inurba_marseille","lat":43.28157,"lon":5.361267,"is_reserved":false,"is_disabled":false,"rental_uris":{"android":"levelo://app?vid=b7e41c34-cad5-468c-aadc-3ef8a1845b5a","ios":"levelo://app?vid=b7e41c34-cad5-468c-aadc-3ef8a1845b5a"},"vehicle_type_id":"4","last_reported":1761066559,"current_range_meters":10800,"station_id":"","pricing_plan_id":"cebpf4jnsgd1na2vs0mg"},{"bike_id":"fe998b17-9d85-477f-b92c-87f6ebb6e1b3","system_id":"levelo_inurba_marseille","lat":43.24476,"lon":5.36946,"is_reserved":false,"is_disabled":false,"rental_uris":{"android":"levelo://app?vid=fe998b17-9d85-477f-b92c-87f6ebb6e1b3","ios":"levelo://app?vid=fe998b17-9d85-477f-b92c-87f6ebb6e1b3"},"vehicle_type_id":"4","last_reported":1761066559,"current_range_meters":10800,"station_id":"","pricing_plan_id":"cebpf4jnsgd1na2vs0mg"},{"bike_id":"03aaa562-7851-43dc-9eeb-d042f4ac5aa2","system_id":"levelo_inurba_marseille","lat":43.25332,"lon":5.42181,"is_reserved":false,"is_disabled":false,"rental_uris":{"android":"levelo://app?vid=03aaa562-7851-43dc-9eeb-d042f4ac5aa2","ios":"levelo://app?vid=03aaa562-7851-43dc-9eeb-d042f4ac5aa2"},"vehicle_type_id":"4","last_reported":1761066559,"current_range_meters":10800,"station_id":"st_d2m65c5bi1j21697t3ng","pricing_plan_id":"cebpf4jnsgd1na2vs0mg"},{"bike_id":"54a7471e-8675-4b3b-a7a5-316aa76bbcbc","system_id":"levelo_inurba_marseille","lat":43.27904,"lon":5.4044,"is_reserved":false,"is_disabled":false,"rental_uris":{"android":"levelo://app?vid=54a7471e-8675-4b3b-a7a5-316aa76bbcbc","ios":"levelo://app?vid=54a7471e-8675-4b3b-a7a5-316aa76bbcbc"},"vehicle_type_id":"4","last_reported":1761066559,"current_range_meters":10800,"station_id":"","pricing_plan_id":"cebpf4jnsgd1na2vs0mg"},{"bike_id":"19840955-f9d6-49c1-86e8-b7616b7da32c","system_id":"levelo_inurba_marseille","lat":43.33134,"lon":5.39115,"is_reserved":false,"is_disabled":true,"rental_uris":{"android":"levelo://app?vid=19840955-f9d6-49c1-86e8-b7616b7da32c","ios":"levelo://app?vid=19840955-f9d6-49c1-86e8-b7616b7da32c"},"vehicle_type_id":"4","last_reported":1761066559,"current_range_meters":10800,"station_id":"","pricing_plan_id":"cebpf4jnsgd1na2vs0mg"},{"bike_id":"66bec76d-d7e9-4a1e-a715-39e56334bf96","system_id":"levelo_inurba_marseille","lat":43.283,"lon":5.39655,"is_reserved":false,"is_disabled":false,"rental_uris":{"android":"levelo://app?vid=66bec76d-d7e9-4a1e-a715-39e56334bf96","ios":"levelo://app?vid=66bec76d-d7e9-4a1e-a715-39e56334bf96"},"vehicle_type_id":"4","last_reported":1761066559,"current_range_meters":11200,"station_id":"","pricing_plan_id":"cebpf4jnsgd1na2vs0mg"},{"bike_id":"da3c5d5d-639d-4a11-88e1-f7b9c2ad220a","system_id":"levelo_inurba_marseille","lat":43.31688,"lon":5.377564,"is_reserved":false,"is_disabled":true,"rental_uris":{"android":"levelo://app?vid=da3c5d5d-639d-4a11-88e1-f7b9c2ad220a","ios":"levelo://app?vid=da3c5d5d-639d-4a11-88e1-f7b9c2ad220a"},"vehicle_type_id":"4","last_reported":1761066559,"current_range_meters":11200,"station_id":"ce4bgth2rcd13ifvqch0","pricing_plan_id":"cebpf4jnsgd1na2vs0mg"},{"bike_id":"f434a13c-41b9-41a3-8212-055ca998b49b","system_id":"levelo_inurba_marseille","lat":43.286286,"lon":5.407334,"is_reserved":false,"is_disabled":false,"rental_uris":{"android":"levelo://app?vid=f434a13c-41b9-41a3-8212-055ca998b49b","ios":"levelo://app?vid=f434a13c-41b9-41a3-8212-055ca998b49b"},"vehicle_type_id":"4","last_reported":1761066559,"current_range_meters":11200,"station_id":"","pricing_plan_id":"cebpf4jnsgd1na2vs0mg"},{"bike_id":"0de7aa9a-7ec8-4ced-9fd3-496e84eeeeaa","system_id":"levelo_inurba_marseille","lat":43.29876,"lon":5.39736,"is_reserved":false,"is_disabled":false,"rental_uris":{"android":"levelo://app?vid=0de7aa9a-7ec8-4ced-9fd3-496e84eeeeaa","ios":"levelo://app?vid=0de7aa9a-7ec8-4ced-9fd3-496e84eeeeaa"},"vehicle_type_id":"4","last_reported":1761066559,"current_range_meters":11200,"station_id":"ce4bh0h2rcd13ifvqd50","pricing_plan_id":"cebpf4jnsgd1na2vs0mg"},{"bike_id":"13098d1b-07dc-4793-a6ca-aa372b094d4a","system_id":"levelo_inurba_marseille","lat":43.29309,"lon":5.37183,"is_reserved":false,"is_disabled":false,"rental_uris":{"android":"levelo://app?vid=13098d1b-07dc-4793-a6ca-aa372b094d4a","ios":"levelo://app?vid=13098d1b-07dc-4793-a6ca-aa372b094d4a"},"vehicle_type_id":"4","last_reported":1761066559,"current_range_meters":11200,"station_id":"ce4bgh92rcd13ifvqb40","pricing_plan_id":"cebpf4jnsgd1na2vs0mg"},{"bike_id":"205b1473-d545-40a3-928a-5906ceaad67a","system_id":"levelo_inurba_marseille","lat":43.32075,"lon":5.40932,"is_reserved":false,"is_disabled":false,"rental_uris":{"android":"levelo://app?vid=205b1473-d545-40a3-928a-5906ceaad67a","ios":"levelo://app?vid=205b1473-d545-40a3-928a-5906ceaad67a"},"vehicle_type_id":"4","last_reported":1761066559,"current_range_meters":11200,"station_id":"","pricing_plan_id":"cebpf4jnsgd1na2vs0mg"},{"bike_id":"c4d17d81-19cf-4697-a9b1-d780d189ed78","system_id":"levelo_inurba_marseille","lat":43.251174,"lon":5.403288,"is_reserved":false,"is_disabled":true,"rental_uris":{"android":"levelo://app?vid=c4d17d81-19cf-4697-a9b1-d780d189ed78","ios":"levelo://app?vid=c4d17d81-19cf-4697-a9b1-d780d189ed78"},"vehicle_type_id":"4","last_reported":1761066559,"current_range_meters":11600,"station_id":"ce4bhlh2rcd13ifvqgig","pricing_plan_id":"cebpf4jnsgd1na2vs0mg"},{"bike_id":"4ec51689-c2c1-4052-8d13-8baddd9746dd","system_id":"levelo_inurba_marseille","lat":43.28265,"lon":5.35053,"is_reserved":false,"is_disabled":false,"rental_uris":{"android":"levelo://app?vid=4ec51689-c2c1-4052-8d13-8baddd9746dd","ios":"levelo://app?vid=4ec51689-c2c1-4052-8d13-8baddd9746dd"},"vehicle_type_id":"4","last_reported":1761066559,"current_range_meters":11600,"station_id":"ce4bhbp2rcd13ifvqerg","pricing_plan_id":"cebpf4jnsgd1na2vs0mg"},{"bike_id":"e2934bcd-edea-4607-a647-8dbb7cee60d5","system_id":"levelo_inurba_marseille","lat":43.29526,"lon":5.39028,"is_reserved":false,"is_disabled":false,"rental_uris":{"android":"levelo://app?vid=e2934bcd-edea-4607-a647-8dbb7cee60d5","ios":"levelo://app?vid=e2934bcd-edea-4607-a647-8dbb7cee60d5"},"vehicle_type_id":"4","last_reported":1761066559,"current_range_meters":11600,"station_id":"ce4bh3p2rcd13ifvqdp0","pricing_plan_id":"cebpf4jnsgd1na2vs0mg"},{"bike_id":"5cd2e400-0e1a-45a7-96a4-b44cdbfd68cd","system_id":"levelo_inurba_marseille","lat":43.29531,"lon":5.3855,"is_reserved":false,"is_disabled":false,"rental_uris":{"android":"levelo://app?vid=5cd2e400-0e1a-45a7-96a4-b44cdbfd68cd","ios":"levelo://app?vid=5cd2e400-0e1a-45a7-96a4-b44cdbfd68cd"},"vehicle_type_id":"4","last_reported":1761066559,"current_range_meters":12000,"station_id":"ce4bgih2rcd13ifvqba0","pricing_plan_id":"cebpf4jnsgd1na2vs0mg"},{"bike_id":"37aaf329-bef8-43df-b170-e11e1e495b69","system_id":"levelo_inurba_marseille","lat":43.28943,"lon":5.36628,"is_reserved":false,"is_disabled":false,"rental_uris":{"android":"levelo://app?vid=37aaf329-bef8-43df-b170-e11e1e495b69","ios":"levelo://app?vid=37aaf329-bef8-43df-b170-e11e1e495b69"},"vehicle_type_id":"4","last_reported":1761066559,"current_range_meters":12000,"station_id":"ce4bhap2rcd13ifvqek0","pricing_plan_id":"cebpf4jnsgd1na2vs0mg"},{"bike_id":"e4fd31b1-5269-4672-9a6a-30f5ea17dc84","system_id":"levelo_inurba_marseille","lat":43.28109,"lon":5.37841,"is_reserved":false,"is_disabled":false,"rental_uris":{"android":"levelo://app?vid=e4fd31b1-5269-4672-9a6a-30f5ea17dc84","ios":"levelo://app?vid=e4fd31b1-5269-4672-9a6a-30f5ea17dc84"},"vehicle_type_id":"4","last_reported":1761066559,"current_range_meters":12000,"station_id":"ce4bha12rcd13ifvqee0","pricing_plan_id":"cebpf4jnsgd1na2vs0mg"},{"bike_id":"e6f107ef-554f-4a02-9907-6d80b8b4c7ee","system_id":"levelo_inurba_marseille","lat":43.32572,"lon":5.424,"is_reserved":false,"is_disabled":false,"rental_uris":{"android":"levelo://app?vid=e6f107ef-554f-4a02-9907-6d80b8b4c7ee","ios":"levelo://app?vid=e6f107ef-554f-4a02-9907-6d80b8b4c7ee"},"vehicle_type_id":"4","last_reported":1761066559,"current_range_meters":12000,"station_id":"","pricing_plan_id":"cebpf4jnsgd1na2vs0mg"},{"bike_id":"e87a9ec0-3981-463e-a0e7-a7a69ed1ef4f","system_id":"levelo_inurba_marseille","lat":43.31784,"lon":5.39016,"is_reserved":false,"is_disabled":false,"rental_uris":{"android":"levelo://app?vid=e87a9ec0-3981-463e-a0e7-a7a69ed1ef4f","ios":"levelo://app?vid=e87a9ec0-3981-463e-a0e7-a7a69ed1ef4f"},"vehicle_type_id":"4","last_reported":1761066559,"current_range_meters":12000,"station_id":"ce4bhqp2rcd13ifvqhng","pricing_plan_id":"cebpf4jnsgd1na2vs0mg"},{"bike_id":"2f09c01d-689c-4521-97af-b4ef07cad168","system_id":"levelo_inurba_marseille","lat":43.22572,"lon":5.41627,"is_reserved":false,"is_disabled":false,"rental_uris":{"android":"levelo://app?vid=2f09c01d-689c-4521-97af-b4ef07cad168","ios":"levelo://app?vid=2f09c01d-689c-4521-97af-b4ef07cad168"},"vehicle_type_id":"4","last_reported":1761066559,"current_range_meters":12000,"station_id":"st_d2o4gvlbi1j2169b742g","pricing_plan_id":"cebpf4jnsgd1na2vs0mg"},{"bike_id":"5df8d2bd-c3c3-45d4-b3bb-7cb639ab5c47","system_id":"levelo_inurba_marseille","lat":43.31603,"lon":5.38893,"is_reserved":false,"is_disabled":false,"rental_uris":{"android":"levelo://app?vid=5df8d2bd-c3c3-45d4-b3bb-7cb639ab5c47","ios":"levelo://app?vid=5df8d2bd-c3c3-45d4-b3bb-7cb639ab5c47"},"vehicle_type_id":"4","last_reported":1761066559,"current_range_meters":12000,"station_id":"","pricing_plan_id":"cebpf4jnsgd1na2vs0mg"},{"bike_id":"6c77e5ac-d5cd-4f63-91cb-55eed8382cc5","system_id":"levelo_inurba_marseille","lat":43.25594,"lon":5.38234,"is_reserved":false,"is_disabled":false,"rental_uris":{"android":"levelo://app?vid=6c77e5ac-d5cd-4f63-91cb-55eed8382cc5","ios":"levelo://app?vid=6c77e5ac-d5cd-4f63-91cb-55eed8382cc5"},"vehicle_type_id":"4","last_reported":1761066559,"current_range_meters":12000,"station_id":"ce4bhih2rcd13ifvqfs0","pricing_plan_id":"cebpf4jnsgd1na2vs0mg"},{"bike_id":"6dda31ac-2b1f-4a4e-91ea-ced8629aa74b","system_id":"levelo_inurba_marseille","lat":43.28708,"lon":5.37389,"is_reserved":false,"is_disabled":false,"rental_uris":{"android":"levelo://app?vid=6dda31ac-2b1f-4a4e-91ea-ced8629aa74b","ios":"levelo://app?vid=6dda31ac-2b1f-4a4e-91ea-ced8629aa74b"},"vehicle_type_id":"4","last_reported":1761066559,"current_range_meters":12400,"station_id":"ce4bh3p2rcd13ifvqdq0","pricing_plan_id":"cebpf4jnsgd1na2vs0mg"},{"bike_id":"c1e50517-4e93-4d80-8a13-e000cb4d0ca0","system_id":"levelo_inurba_marseille","lat":43.29631,"lon":5.40591,"is_reserved":false,"is_disabled":false,"rental_uris":{"android":"levelo://app?vid=c1e50517-4e93-4d80-8a13-e000cb4d0ca0","ios":"levelo://app?vid=c1e50517-4e93-4d80-8a13-e000cb4d0ca0"},"vehicle_type_id":"4","last_reported":1761066559,"current_range_meters":12400,"station_id":"ce4bh0h2rcd13ifvqd60","pricing_plan_id":"cebpf4jnsgd1na2vs0mg"},{"bike_id":"83933163-fad8-44b5-9f90-b50cf024ca56","system_id":"levelo_inurba_marseille","lat":43.29026,"lon":5.38641,"is_reserved":false,"is_disabled":false,"rental_uris":{"android":"levelo://app?vid=83933163-fad8-44b5-9f90-b50cf024ca56","ios":"levelo://app?vid=83933163-fad8-44b5-9f90-b50cf024ca56"},"vehicle_type_id":"4","last_reported":1761066559,"current_range_meters":12400,"station_id":"ce4bh4p2rcd13ifvqe0g","pricing_plan_id":"cebpf4jnsgd1na2vs0mg"},{"bike_id":"1cb53150-83a7-4a86-8d2f-4aad73c61d8d","system_id":"levelo_inurba_marseille","lat":43.300939,"lon":5.388966,"is_reserved":false,"is_disabled":false,"rental_uris":{"android":"levelo://app?vid=1cb53150-83a7-4a86-8d2f-4aad73c61d8d","ios":"levelo://app?vid=1cb53150-83a7-4a86-8d2f-4aad73c61d8d"},"vehicle_type_id":"4","last_reported":1761066559,"current_range_meters":12400,"station_id":"ce4bh0h2rcd13ifvqd50","pricing_plan_id":"cebpf4jnsgd1na2vs0mg"},{"bike_id":"779dc679-3d99-40fd-bad7-12c2fe23d321","system_id":"levelo_inurba_marseille","lat":43.28573,"lon":5.39498,"is_reserved":false,"is_disabled":false,"rental_uris":{"android":"levelo://app?vid=779dc679-3d99-40fd-bad7-12c2fe23d321","ios":"levelo://app?vid=779dc679-3d99-40fd-bad7-12c2fe23d321"},"vehicle_type_id":"4","last_reported":1761066559,"current_range_meters":12400,"station_id":"ce4bh292rcd13ifvqdg0","pricing_plan_id":"cebpf4jnsgd1na2vs0mg"},{"bike_id":"de40891e-3417-435a-a159-52f2a8eb2589","system_id":"levelo_inurba_marseille","lat":43.26056,"lon":5.39397,"is_reserved":false,"is_disabled":false,"rental_uris":{"android":"levelo://app?vid=de40891e-3417-435a-a159-52f2a8eb2589","ios":"levelo://app?vid=de40891e-3417-435a-a159-52f2a8eb2589"},"vehicle_type_id":"4","last_reported":1761066559,"current_range_meters":12400,"station_id":"ce4bhh92rcd13ifvqfj0","pricing_plan_id":"cebpf4jnsgd1na2vs0mg"},{"bike_id":"d0e5bfe1-0d12-411e-bc0b-4d2411cd5f59","system_id":"levelo_inurba_marseille","lat":43.21176,"lon":5.35067,"is_reserved":false,"is_disabled":false,"rental_uris":{"android":"levelo://app?vid=d0e5bfe1-0d12-411e-bc0b-4d2411cd5f59","ios":"levelo://app?vid=d0e5bfe1-0d12-411e-bc0b-4d2411cd5f59"},"vehicle_type_id":"4","last_reported":1761066559,"current_range_meters":12800,"station_id":"","pricing_plan_id":"cebpf4jnsgd1na2vs0mg"},{"bike_id":"b8457e49-45d1-4539-8d31-1eb0283df508","system_id":"levelo_inurba_marseille","lat":43.331602,"lon":5.35497,"is_reserved":false,"is_disabled":false,"rental_uris":{"android":"levelo://app?vid=b8457e49-45d1-4539-8d31-1eb0283df508","ios":"levelo://app?vid=b8457e49-45d1-4539-8d31-1eb0283df508"},"vehicle_type_id":"4","last_reported":1761066559,"current_range_meters":12800,"station_id":"","pricing_plan_id":"cebpf4jnsgd1na2vs0mg"},{"bike_id":"61514534-f567-4442-b01d-a486a7ec48bb","system_id":"levelo_inurba_marseille","lat":43.29026,"lon":5.3865,"is_reserved":false,"is_disabled":false,"rental_uris":{"android":"levelo://app?vid=61514534-f567-4442-b01d-a486a7ec48bb","ios":"levelo://app?vid=61514534-f567-4442-b01d-a486a7ec48bb"},"vehicle_type_id":"4","last_reported":1761066559,"current_range_meters":12800,"station_id":"ce4bh4p2rcd13ifvqe0g","pricing_plan_id":"cebpf4jnsgd1na2vs0mg"},{"bike_id":"dd49e2de-ed66-49e2-9a4b-879ab188f019","system_id":"levelo_inurba_marseille","lat":43.289877,"lon":5.378233,"is_reserved":false,"is_disabled":false,"rental_uris":{"android":"levelo://app?vid=dd49e2de-ed66-49e2-9a4b-879ab188f019","ios":"levelo://app?vid=dd49e2de-ed66-49e2-9a4b-879ab188f019"},"vehicle_type_id":"4","last_reported":1761066559,"current_range_meters":12800,"station_id":"ce4bh9p2rcd13ifvqed0","pricing_plan_id":"cebpf4jnsgd1na2vs0mg"},{"bike_id":"8e4ec8a8-e68d-4f48-9e6c-ca2d16ad44cd","system_id":"levelo_inurba_marseille","lat":43.29263,"lon":5.38448,"is_reserved":false,"is_disabled":false,"rental_uris":{"android":"levelo://app?vid=8e4ec8a8-e68d-4f48-9e6c-ca2d16ad44cd","ios":"levelo://app?vid=8e4ec8a8-e68d-4f48-9e6c-ca2d16ad44cd"},"vehicle_type_id":"4","last_reported":1761066559,"current_range_meters":13600,"station_id":"ce4bh692rcd13ifvqea0","pricing_plan_id":"cebpf4jnsgd1na2vs0mg"},{"bike_id":"4c0a5d73-60b7-4822-a290-6e489f4a946f","system_id":"levelo_inurba_marseille","lat":43.28477,"lon":5.38519,"is_reserved":false,"is_disabled":true,"rental_uris":{"android":"levelo://app?vid=4c0a5d73-60b7-4822-a290-6e489f4a946f","ios":"levelo://app?vid=4c0a5d73-60b7-4822-a290-6e489f4a946f"},"vehicle_type_id":"4","last_reported":1761066559,"current_range_meters":13600,"station_id":"ce4bh8p2rcd13ifvqeb0","pricing_plan_id":"cebpf4jnsgd1na2vs0mg"},{"bike_id":"39a657f4-7d0e-4d62-ae6f-1eb108d651fe","system_id":"levelo_inurba_marseille","lat":43.29569,"lon":5.39989,"is_reserved":false,"is_disabled":false,"rental_uris":{"android":"levelo://app?vid=39a657f4-7d0e-4d62-ae6f-1eb108d651fe","ios":"levelo://app?vid=39a657f4-7d0e-4d62-ae6f-1eb108d651fe"},"vehicle_type_id":"4","last_reported":1761066559,"current_range_meters":13600,"station_id":"ce4bh312rcd13ifvqdj0","pricing_plan_id":"cebpf4jnsgd1na2vs0mg"},{"bike_id":"bdfdd3c5-8cef-4200-aeb8-e97f9a2352b5","system_id":"levelo_inurba_marseille","lat":43.29032,"lon":5.37563,"is_reserved":false,"is_disabled":false,"rental_uris":{"android":"levelo://app?vid=bdfdd3c5-8cef-4200-aeb8-e97f9a2352b5","ios":"levelo://app?vid=bdfdd3c5-8cef-4200-aeb8-e97f9a2352b5"},"vehicle_type_id":"4","last_reported":1761066559,"current_range_meters":13600,"station_id":"ce4bh692rcd13ifvqe90","pricing_plan_id":"cebpf4jnsgd1na2vs0mg"},{"bike_id":"2fb1642f-772b-4697-9e87-9cc3d448aa74","system_id":"levelo_inurba_marseille","lat":43.26064,"lon":5.39399,"is_reserved":false,"is_disabled":false,"rental_uris":{"android":"levelo://app?vid=2fb1642f-772b-4697-9e87-9cc3d448aa74","ios":"levelo://app?vid=2fb1642f-772b-4697-9e87-9cc3d448aa74"},"vehicle_type_id":"4","last_reported":1761066559,"current_range_meters":14000,"station_id":"ce4bhh92rcd13ifvqfj0","pricing_plan_id":"cebpf4jnsgd1na2vs0mg"},{"bike_id":"52622e13-b296-4b0e-a3b3-0c24f5a8b1ab","system_id":"levelo_inurba_marseille","lat":43.28938,"lon":5.36636,"is_reserved":false,"is_disabled":false,"rental_uris":{"android":"levelo://app?vid=52622e13-b296-4b0e-a3b3-0c24f5a8b1ab","ios":"levelo://app?vid=52622e13-b296-4b0e-a3b3-0c24f5a8b1ab"},"vehicle_type_id":"4","last_reported":1761066559,"current_range_meters":14000,"station_id":"ce4bhap2rcd13ifvqek0","pricing_plan_id":"cebpf4jnsgd1na2vs0mg"},{"bike_id":"69ce3fc8-8cb7-4874-aed6-5d18ac6921ef","system_id":"levelo_inurba_marseille","lat":43.28859,"lon":5.35849,"is_reserved":false,"is_disabled":false,"rental_uris":{"android":"levelo://app?vid=69ce3fc8-8cb7-4874-aed6-5d18ac6921ef","ios":"levelo://app?vid=69ce3fc8-8cb7-4874-aed6-5d18ac6921ef"},"vehicle_type_id":"4","last_reported":1761066559,"current_range_meters":14400,"station_id":"ce4bhb12rcd13ifvqem0","pricing_plan_id":"cebpf4jnsgd1na2vs0mg"},{"bike_id":"22c660ad-ddf4-4958-a393-4acd861a2ace","system_id":"levelo_inurba_marseille","lat":43.28091,"lon":5.37792,"is_reserved":false,"is_disabled":false,"rental_uris":{"android":"levelo://app?vid=22c660ad-ddf4-4958-a393-4acd861a2ace","ios":"levelo://app?vid=22c660ad-ddf4-4958-a393-4acd861a2ace"},"vehicle_type_id":"4","last_reported":1761066559,"current_range_meters":14400,"station_id":"ce4bha12rcd13ifvqee0","pricing_plan_id":"cebpf4jnsgd1na2vs0mg"},{"bike_id":"5c664fb3-2c78-4bab-b93f-bebb10ffa958","system_id":"levelo_inurba_marseille","lat":43.29259,"lon":5.3844,"is_reserved":false,"is_disabled":false,"rental_uris":{"android":"levelo://app?vid=5c664fb3-2c78-4bab-b93f-bebb10ffa958","ios":"levelo://app?vid=5c664fb3-2c78-4bab-b93f-bebb10ffa958"},"vehicle_type_id":"4","last_reported":1761066559,"current_range_meters":14400,"station_id":"ce4bh692rcd13ifvqea0","pricing_plan_id":"cebpf4jnsgd1na2vs0mg"},{"bike_id":"02f7835e-8895-43db-bc46-dc0659a292d5","system_id":"levelo_inurba_marseille","lat":43.29331,"lon":5.3707,"is_reserved":false,"is_disabled":false,"rental_uris":{"android":"levelo://app?vid=02f7835e-8895-43db-bc46-dc0659a292d5","ios":"levelo://app?vid=02f7835e-8895-43db-bc46-dc0659a292d5"},"vehicle_type_id":"4","last_reported":1761066559,"current_range_meters":14400,"station_id":"","pricing_plan_id":"cebpf4jnsgd1na2vs0mg"},{"bike_id":"917be935-e287-4fb1-ad3d-e56f7a6ac41e","system_id":"levelo_inurba_marseille","lat":43.28618,"lon":5.351073,"is_reserved":false,"is_disabled":false,"rental_uris":{"android":"levelo://app?vid=917be935-e287-4fb1-ad3d-e56f7a6ac41e","ios":"levelo://app?vid=917be935-e287-4fb1-ad3d-e56f7a6ac41e"},"vehicle_type_id":"4","last_reported":1761066559,"current_range_meters":14800,"station_id":"","pricing_plan_id":"cebpf4jnsgd1na2vs0mg"},{"bike_id":"d38bb17a-4ac6-4da6-829b-fc2ffe260364","system_id":"levelo_inurba_marseille","lat":43.318836,"lon":5.407566,"is_reserved":false,"is_disabled":true,"rental_uris":{"android":"levelo://app?vid=d38bb17a-4ac6-4da6-829b-fc2ffe260364","ios":"levelo://app?vid=d38bb17a-4ac6-4da6-829b-fc2ffe260364"},"vehicle_type_id":"4","last_reported":1761066559,"current_range_meters":14800,"station_id":"ce4bhq12rcd13ifvqhig","pricing_plan_id":"cebpf4jnsgd1na2vs0mg"},{"bike_id":"3201e625-69d5-420e-838c-f4c3f44666ef","system_id":"levelo_inurba_marseille","lat":43.33796,"lon":5.37435,"is_reserved":false,"is_disabled":false,"rental_uris":{"android":"levelo://app?vid=3201e625-69d5-420e-838c-f4c3f44666ef","ios":"levelo://app?vid=3201e625-69d5-420e-838c-f4c3f44666ef"},"vehicle_type_id":"4","last_reported":1761066559,"current_range_meters":14800,"station_id":"","pricing_plan_id":"cebpf4jnsgd1na2vs0mg"},{"bike_id":"bfb49ac8-7cd7-4abf-87fe-e5eac64a56b2","system_id":"levelo_inurba_marseille","lat":43.239657,"lon":5.366365,"is_reserved":false,"is_disabled":false,"rental_uris":{"android":"levelo://app?vid=bfb49ac8-7cd7-4abf-87fe-e5eac64a56b2","ios":"levelo://app?vid=bfb49ac8-7cd7-4abf-87fe-e5eac64a56b2"},"vehicle_type_id":"4","last_reported":1761066559,"current_range_meters":14800,"station_id":"ce4bhi12rcd13ifvqfp0","pricing_plan_id":"cebpf4jnsgd1na2vs0mg"},{"bike_id":"75b1a517-2077-4a5d-b8d4-4408eb059c6f","system_id":"levelo_inurba_marseille","lat":43.30418,"lon":5.41283,"is_reserved":false,"is_disabled":false,"rental_uris":{"android":"levelo://app?vid=75b1a517-2077-4a5d-b8d4-4408eb059c6f","ios":"levelo://app?vid=75b1a517-2077-4a5d-b8d4-4408eb059c6f"},"vehicle_type_id":"4","last_reported":1761066559,"current_range_meters":14800,"station_id":"ce4bhop2rcd13ifvqh8g","pricing_plan_id":"cebpf4jnsgd1na2vs0mg"},{"bike_id":"ccf52927-a9d1-4898-8ca8-889ca18bdda0","system_id":"levelo_inurba_marseille","lat":43.29749,"lon":5.39894,"is_reserved":false,"is_disabled":false,"rental_uris":{"android":"levelo://app?vid=ccf52927-a9d1-4898-8ca8-889ca18bdda0","ios":"levelo://app?vid=ccf52927-a9d1-4898-8ca8-889ca18bdda0"},"vehicle_type_id":"4","last_reported":1761066559,"current_range_meters":14800,"station_id":"","pricing_plan_id":"cebpf4jnsgd1na2vs0mg"},{"bike_id":"fc2311b2-97ae-4c5c-9a6c-3ffb30db039b","system_id":"levelo_inurba_marseille","lat":43.29032,"lon":5.38129,"is_reserved":false,"is_disabled":false,"rental_uris":{"android":"levelo://app?vid=fc2311b2-97ae-4c5c-9a6c-3ffb30db039b","ios":"levelo://app?vid=fc2311b2-97ae-4c5c-9a6c-3ffb30db039b"},"vehicle_type_id":"4","last_reported":1761066559,"current_range_meters":14800,"station_id":"ce4bh4p2rcd13ifvqe1g","pricing_plan_id":"cebpf4jnsgd1na2vs0mg"},{"bike_id":"7ec58b7f-ab0f-4a92-bcdf-ad1e57969d6e","system_id":"levelo_inurba_marseille","lat":43.2964,"lon":5.40605,"is_reserved":false,"is_disabled":false,"rental_uris":{"android":"levelo://app?vid=7ec58b7f-ab0f-4a92-bcdf-ad1e57969d6e","ios":"levelo://app?vid=7ec58b7f-ab0f-4a92-bcdf-ad1e57969d6e"},"vehicle_type_id":"4","last_reported":1761066559,"current_range_meters":15200,"station_id":"ce4bh0h2rcd13ifvqd60","pricing_plan_id":"cebpf4jnsgd1na2vs0mg"},{"bike_id":"d83ba3b5-f05f-4b3f-995a-05ad1a505367","system_id":"levelo_inurba_marseille","lat":43.31724,"lon":5.42411,"is_reserved":false,"is_disabled":false,"rental_uris":{"android":"levelo://app?vid=d83ba3b5-f05f-4b3f-995a-05ad1a505367","ios":"levelo://app?vid=d83ba3b5-f05f-4b3f-995a-05ad1a505367"},"vehicle_type_id":"4","last_reported":1761066559,"current_range_meters":15200,"station_id":"ce4bhp92rcd13ifvqhbg","pricing_plan_id":"cebpf4jnsgd1na2vs0mg"},{"bike_id":"485abd4b-7150-4ea1-aa7c-7bab92e3db5e","system_id":"levelo_inurba_marseille","lat":43.28154,"lon":5.42648,"is_reserved":false,"is_disabled":false,"rental_uris":{"android":"levelo://app?vid=485abd4b-7150-4ea1-aa7c-7bab92e3db5e","ios":"levelo://app?vid=485abd4b-7150-4ea1-aa7c-7bab92e3db5e"},"vehicle_type_id":"4","last_reported":1761066559,"current_range_meters":15200,"station_id":"ce4bhnh2rcd13ifvqgug","pricing_plan_id":"cebpf4jnsgd1na2vs0mg"},{"bike_id":"89dd87c4-c8d0-4de7-8902-2b0447e67475","system_id":"levelo_inurba_marseille","lat":43.31232,"lon":5.36877,"is_reserved":false,"is_disabled":false,"rental_uris":{"android":"levelo://app?vid=89dd87c4-c8d0-4de7-8902-2b0447e67475","ios":"levelo://app?vid=89dd87c4-c8d0-4de7-8902-2b0447e67475"},"vehicle_type_id":"4","last_reported":1761066559,"current_range_meters":15200,"station_id":"","pricing_plan_id":"cebpf4jnsgd1na2vs0mg"},{"bike_id":"c02c1e56-2fb8-4f23-9744-305d2b97e511","system_id":"levelo_inurba_marseille","lat":43.284119,"lon":5.375101,"is_reserved":false,"is_disabled":false,"rental_uris":{"android":"levelo://app?vid=c02c1e56-2fb8-4f23-9744-305d2b97e511","ios":"levelo://app?vid=c02c1e56-2fb8-4f23-9744-305d2b97e511"},"vehicle_type_id":"4","last_reported":1761066559,"current_range_meters":15200,"station_id":"ce4bh412rcd13ifvqds0","pricing_plan_id":"cebpf4jnsgd1na2vs0mg"},{"bike_id":"2c20ce77-04c5-4eed-a053-801c8e8d1b46","system_id":"levelo_inurba_marseille","lat":43.24069,"lon":5.3776,"is_reserved":false,"is_disabled":false,"rental_uris":{"android":"levelo://app?vid=2c20ce77-04c5-4eed-a053-801c8e8d1b46","ios":"levelo://app?vid=2c20ce77-04c5-4eed-a053-801c8e8d1b46"},"vehicle_type_id":"4","last_reported":1761066559,"current_range_meters":15200,"station_id":"ce4bhnp2rcd13ifvqgvg","pricing_plan_id":"cebpf4jnsgd1na2vs0mg"},{"bike_id":"00ec559a-4577-4a8a-80e3-6bc244589d77","system_id":"levelo_inurba_marseille","lat":43.31119,"lon":5.37766,"is_reserved":false,"is_disabled":true,"rental_uris":{"android":"levelo://app?vid=00ec559a-4577-4a8a-80e3-6bc244589d77","ios":"levelo://app?vid=00ec559a-4577-4a8a-80e3-6bc244589d77"},"vehicle_type_id":"4","last_reported":1761066559,"current_range_meters":15200,"station_id":"ce4bgt92rcd13ifvqcg0","pricing_plan_id":"cebpf4jnsgd1na2vs0mg"},{"bike_id":"f85a3da9-8fae-43b7-9359-217f042288cc","system_id":"levelo_inurba_marseille","lat":43.29528,"lon":5.38548,"is_reserved":false,"is_disabled":false,"rental_uris":{"android":"levelo://app?vid=f85a3da9-8fae-43b7-9359-217f042288cc","ios":"levelo://app?vid=f85a3da9-8fae-43b7-9359-217f042288cc"},"vehicle_type_id":"4","last_reported":1761066559,"current_range_meters":15200,"station_id":"ce4bgih2rcd13ifvqba0","pricing_plan_id":"cebpf4jnsgd1na2vs0mg"},{"bike_id":"ad4a6099-d454-411c-ab75-f194d649ada4","system_id":"levelo_inurba_marseille","lat":43.29093,"lon":5.38133,"is_reserved":false,"is_disabled":false,"rental_uris":{"android":"levelo://app?vid=ad4a6099-d454-411c-ab75-f194d649ada4","ios":"levelo://app?vid=ad4a6099-d454-411c-ab75-f194d649ada4"},"vehicle_type_id":"4","last_reported":1761066559,"current_range_meters":16000,"station_id":"ce4bh512rcd13ifvqe2g","pricing_plan_id":"cebpf4jnsgd1na2vs0mg"},{"bike_id":"17e122cf-ac9a-4da7-81fb-7ca2a8cd8045","system_id":"levelo_inurba_marseille","lat":43.28614,"lon":5.35101,"is_reserved":false,"is_disabled":false,"rental_uris":{"android":"levelo://app?vid=17e122cf-ac9a-4da7-81fb-7ca2a8cd8045","ios":"levelo://app?vid=17e122cf-ac9a-4da7-81fb-7ca2a8cd8045"},"vehicle_type_id":"4","last_reported":1761066559,"current_range_meters":16000,"station_id":"ce4bhch2rcd13ifvqeug","pricing_plan_id":"cebpf4jnsgd1na2vs0mg"},{"bike_id":"4859d202-5dad-49c9-9955-c92097024800","system_id":"levelo_inurba_marseille","lat":43.29536,"lon":5.38538,"is_reserved":false,"is_disabled":false,"rental_uris":{"android":"levelo://app?vid=4859d202-5dad-49c9-9955-c92097024800","ios":"levelo://app?vid=4859d202-5dad-49c9-9955-c92097024800"},"vehicle_type_id":"4","last_reported":1761066559,"current_range_meters":16000,"station_id":"ce4bgih2rcd13ifvqba0","pricing_plan_id":"cebpf4jnsgd1na2vs0mg"},{"bike_id":"ca84a29b-f084-4199-a59f-9793698a3d35","system_id":"levelo_inurba_marseille","lat":43.25334,"lon":5.42171,"is_reserved":false,"is_disabled":false,"rental_uris":{"android":"levelo://app?vid=ca84a29b-f084-4199-a59f-9793698a3d35","ios":"levelo://app?vid=ca84a29b-f084-4199-a59f-9793698a3d35"},"vehicle_type_id":"4","last_reported":1761066559,"current_range_meters":16000,"station_id":"st_d2m65c5bi1j21697t3ng","pricing_plan_id":"cebpf4jnsgd1na2vs0mg"},{"bike_id":"e6e1f60b-1b43-4338-b1dd-71378b29ff29","system_id":"levelo_inurba_marseille","lat":43.33028,"lon":5.39038,"is_reserved":false,"is_disabled":false,"rental_uris":{"android":"levelo://app?vid=e6e1f60b-1b43-4338-b1dd-71378b29ff29","ios":"levelo://app?vid=e6e1f60b-1b43-4338-b1dd-71378b29ff29"},"vehicle_type_id":"4","last_reported":1761066559,"current_range_meters":16000,"station_id":"ce4bhr92rcd13ifvqhrg","pricing_plan_id":"cebpf4jnsgd1na2vs0mg"},{"bike_id":"cf3a4a75-d73c-4c66-ac51-2e243e7e1c00","system_id":"levelo_inurba_marseille","lat":43.29537,"lon":5.38547,"is_reserved":false,"is_disabled":false,"rental_uris":{"android":"levelo://app?vid=cf3a4a75-d73c-4c66-ac51-2e243e7e1c00","ios":"levelo://app?vid=cf3a4a75-d73c-4c66-ac51-2e243e7e1c00"},"vehicle_type_id":"4","last_reported":1761066559,"current_range_meters":16400,"station_id":"ce4bgih2rcd13ifvqba0","pricing_plan_id":"cebpf4jnsgd1na2vs0mg"},{"bike_id":"146c2516-bef0-44a7-b04d-fb80b55a97f2","system_id":"levelo_inurba_marseille","lat":43.30123,"lon":5.4312,"is_reserved":false,"is_disabled":false,"rental_uris":{"android":"levelo://app?vid=146c2516-bef0-44a7-b04d-fb80b55a97f2","ios":"levelo://app?vid=146c2516-bef0-44a7-b04d-fb80b55a97f2"},"vehicle_type_id":"4","last_reported":1761066559,"current_range_meters":16400,"station_id":"st_d3js3co5814s73ftftug","pricing_plan_id":"cebpf4jnsgd1na2vs0mg"},{"bike_id":"df1cf366-426f-46ad-9ac9-5dee933e06ed","system_id":"levelo_inurba_marseille","lat":43.31326,"lon":5.39697,"is_reserved":false,"is_disabled":false,"rental_uris":{"android":"levelo://app?vid=df1cf366-426f-46ad-9ac9-5dee933e06ed","ios":"levelo://app?vid=df1cf366-426f-46ad-9ac9-5dee933e06ed"},"vehicle_type_id":"4","last_reported":1761066559,"current_range_meters":16400,"station_id":"ce4bgvp2rcd13ifvqcu0","pricing_plan_id":"cebpf4jnsgd1na2vs0mg"},{"bike_id":"6a0425da-171c-45ae-a3aa-99256da5979a","system_id":"levelo_inurba_marseille","lat":43.297567,"lon":5.427787,"is_reserved":false,"is_disabled":false,"rental_uris":{"android":"levelo://app?vid=6a0425da-171c-45ae-a3aa-99256da5979a","ios":"levelo://app?vid=6a0425da-171c-45ae-a3aa-99256da5979a"},"vehicle_type_id":"4","last_reported":1761066559,"current_range_meters":16400,"station_id":"st_d3md5207bmas73dh9klg","pricing_plan_id":"cebpf4jnsgd1na2vs0mg"},{"bike_id":"64d9e813-4fd3-4955-9199-a35ddf1a26f6","system_id":"levelo_inurba_marseille","lat":43.241625,"lon":5.364099,"is_reserved":false,"is_disabled":false,"rental_uris":{"android":"levelo://app?vid=64d9e813-4fd3-4955-9199-a35ddf1a26f6","ios":"levelo://app?vid=64d9e813-4fd3-4955-9199-a35ddf1a26f6"},"vehicle_type_id":"4","last_reported":1761066559,"current_range_meters":16400,"station_id":"cpo36qri1sfpv3e86is0","pricing_plan_id":"cebpf4jnsgd1na2vs0mg"},{"bike_id":"9c3c6f13-6732-4a05-8800-f23d09b18ab1","system_id":"levelo_inurba_marseille","lat":43.29815,"lon":5.38091,"is_reserved":false,"is_disabled":false,"rental_uris":{"android":"levelo://app?vid=9c3c6f13-6732-4a05-8800-f23d09b18ab1","ios":"levelo://app?vid=9c3c6f13-6732-4a05-8800-f23d09b18ab1"},"vehicle_type_id":"4","last_reported":1761066559,"current_range_meters":16400,"station_id":"ce4bgip2rcd13ifvqbb0","pricing_plan_id":"cebpf4jnsgd1na2vs0mg"},{"bike_id":"197aca6c-07ff-4cc6-97eb-2bdb88d086ec","system_id":"levelo_inurba_marseille","lat":43.284979,"lon":5.35006,"is_reserved":false,"is_disabled":false,"rental_uris":{"android":"levelo://app?vid=197aca6c-07ff-4cc6-97eb-2bdb88d086ec","ios":"levelo://app?vid=197aca6c-07ff-4cc6-97eb-2bdb88d086ec"},"vehicle_type_id":"4","last_reported":1761066559,"current_range_meters":16400,"station_id":"ce4bhbh2rcd13ifvqepg","pricing_plan_id":"cebpf4jnsgd1na2vs0mg"},{"bike_id":"e926c53b-1c89-4612-a861-97ad43cc3d0f","system_id":"levelo_inurba_marseille","lat":43.29016,"lon":5.38644,"is_reserved":false,"is_disabled":false,"rental_uris":{"android":"levelo://app?vid=e926c53b-1c89-4612-a861-97ad43cc3d0f","ios":"levelo://app?vid=e926c53b-1c89-4612-a861-97ad43cc3d0f"},"vehicle_type_id":"4","last_reported":1761066559,"current_range_meters":16400,"station_id":"ce4bh4p2rcd13ifvqe0g","pricing_plan_id":"cebpf4jnsgd1na2vs0mg"},{"bike_id":"bcac21ff-5f96-434a-bbd3-f15b93d38d84","system_id":"levelo_inurba_marseille","lat":43.280642,"lon":5.352788,"is_reserved":false,"is_disabled":false,"rental_uris":{"android":"levelo://app?vid=bcac21ff-5f96-434a-bbd3-f15b93d38d84","ios":"levelo://app?vid=bcac21ff-5f96-434a-bbd3-f15b93d38d84"},"vehicle_type_id":"4","last_reported":1761066559,"current_range_meters":16400,"station_id":"","pricing_plan_id":"cebpf4jnsgd1na2vs0mg"},{"bike_id":"a630ed88-3f05-4926-bbab-8387ab6b6a28","system_id":"levelo_inurba_marseille","lat":43.23152,"lon":5.43709,"is_reserved":false,"is_disabled":true,"rental_uris":{"android":"levelo://app?vid=a630ed88-3f05-4926-bbab-8387ab6b6a28","ios":"levelo://app?vid=a630ed88-3f05-4926-bbab-8387ab6b6a28"},"vehicle_type_id":"4","last_reported":1761066559,"current_range_meters":16400,"station_id":"ce4bhmp2rcd13ifvqgog","pricing_plan_id":"cebpf4jnsgd1na2vs0mg"},{"bike_id":"4e7e8f57-06ea-4923-b3c1-ea91802d5920","system_id":"levelo_inurba_marseille","lat":43.279909,"lon":5.416468,"is_reserved":false,"is_disabled":false,"rental_uris":{"android":"levelo://app?vid=4e7e8f57-06ea-4923-b3c1-ea91802d5920","ios":"levelo://app?vid=4e7e8f57-06ea-4923-b3c1-ea91802d5920"},"vehicle_type_id":"4","last_reported":1761066559,"current_range_meters":16400,"station_id":"ce4bho12rcd13ifvqh1g","pricing_plan_id":"cebpf4jnsgd1na2vs0mg"},{"bike_id":"36ce942d-00e0-4d48-b90b-b36fd0edad7f","system_id":"levelo_inurba_marseille","lat":43.246642,"lon":5.381508,"is_reserved":false,"is_disabled":false,"rental_uris":{"android":"levelo://app?vid=36ce942d-00e0-4d48-b90b-b36fd0edad7f","ios":"levelo://app?vid=36ce942d-00e0-4d48-b90b-b36fd0edad7f"},"vehicle_type_id":"4","last_reported":1761066559,"current_range_meters":16400,"station_id":"ce4bhih2rcd13ifvqfr0","pricing_plan_id":"cebpf4jnsgd1na2vs0mg"},{"bike_id":"f342212e-9ebe-418d-a746-a47febef01fe","system_id":"levelo_inurba_marseille","lat":43.30807,"lon":5.38152,"is_reserved":false,"is_disabled":false,"rental_uris":{"android":"levelo://app?vid=f342212e-9ebe-418d-a746-a47febef01fe","ios":"levelo://app?vid=f342212e-9ebe-418d-a746-a47febef01fe"},"vehicle_type_id":"4","last_reported":1761066559,"current_range_meters":16800,"station_id":"ce4bgt12rcd13ifvqce0","pricing_plan_id":"cebpf4jnsgd1na2vs0mg"},{"bike_id":"5fea8592-f4d8-4bf1-a3dc-1cb4bcfa1dd9","system_id":"levelo_inurba_marseille","lat":43.313628,"lon":5.385976,"is_reserved":false,"is_disabled":false,"rental_uris":{"android":"levelo://app?vid=5fea8592-f4d8-4bf1-a3dc-1cb4bcfa1dd9","ios":"levelo://app?vid=5fea8592-f4d8-4bf1-a3dc-1cb4bcfa1dd9"},"vehicle_type_id":"4","last_reported":1761066559,"current_range_meters":16800,"station_id":"ce4bgt92rcd13ifvqcf0","pricing_plan_id":"cebpf4jnsgd1na2vs0mg"},{"bike_id":"37d01fc8-4b4d-4652-a489-1254eb9d4c80","system_id":"levelo_inurba_marseille","lat":43.34076,"lon":5.40411,"is_reserved":false,"is_disabled":false,"rental_uris":{"android":"levelo://app?vid=37d01fc8-4b4d-4652-a489-1254eb9d4c80","ios":"levelo://app?vid=37d01fc8-4b4d-4652-a489-1254eb9d4c80"},"vehicle_type_id":"4","last_reported":1761066559,"current_range_meters":16800,"station_id":"","pricing_plan_id":"cebpf4jnsgd1na2vs0mg"},{"bike_id":"5f0c4e6e-8342-4b95-87f4-4062bdcd73ed","system_id":"levelo_inurba_marseille","lat":43.29428,"lon":5.38625,"is_reserved":false,"is_disabled":false,"rental_uris":{"android":"levelo://app?vid=5f0c4e6e-8342-4b95-87f4-4062bdcd73ed","ios":"levelo://app?vid=5f0c4e6e-8342-4b95-87f4-4062bdcd73ed"},"vehicle_type_id":"4","last_reported":1761066559,"current_range_meters":16800,"station_id":"","pricing_plan_id":"cebpf4jnsgd1na2vs0mg"},{"bike_id":"94050216-70a4-4d2c-926e-a93cdb249256","system_id":"levelo_inurba_marseille","lat":43.24802,"lon":5.374523,"is_reserved":false,"is_disabled":false,"rental_uris":{"android":"levelo://app?vid=94050216-70a4-4d2c-926e-a93cdb249256","ios":"levelo://app?vid=94050216-70a4-4d2c-926e-a93cdb249256"},"vehicle_type_id":"4","last_reported":1761066559,"current_range_meters":16800,"station_id":"ce4bhgh2rcd13ifvqfb0","pricing_plan_id":"cebpf4jnsgd1na2vs0mg"},{"bike_id":"1a4e96af-d45f-4387-bc3a-74d4a13af415","system_id":"levelo_inurba_marseille","lat":43.276795,"lon":5.388725,"is_reserved":false,"is_disabled":false,"rental_uris":{"android":"levelo://app?vid=1a4e96af-d45f-4387-bc3a-74d4a13af415","ios":"levelo://app?vid=1a4e96af-d45f-4387-bc3a-74d4a13af415"},"vehicle_type_id":"4","last_reported":1761066559,"current_range_meters":16800,"station_id":"","pricing_plan_id":"cebpf4jnsgd1na2vs0mg"},{"bike_id":"46ad3ff2-fb3b-45a2-8997-86d2e7d3c4f0","system_id":"levelo_inurba_marseille","lat":43.25334,"lon":5.42175,"is_reserved":false,"is_disabled":false,"rental_uris":{"android":"levelo://app?vid=46ad3ff2-fb3b-45a2-8997-86d2e7d3c4f0","ios":"levelo://app?vid=46ad3ff2-fb3b-45a2-8997-86d2e7d3c4f0"},"vehicle_type_id":"4","last_reported":1761066559,"current_range_meters":16800,"station_id":"st_d2m65c5bi1j21697t3ng","pricing_plan_id":"cebpf4jnsgd1na2vs0mg"},{"bike_id":"e97fdad0-6b2d-4ae0-8462-b73762c6c8da","system_id":"levelo_inurba_marseille","lat":43.24671,"lon":5.38152,"is_reserved":false,"is_disabled":false,"rental_uris":{"android":"levelo://app?vid=e97fdad0-6b2d-4ae0-8462-b73762c6c8da","ios":"levelo://app?vid=e97fdad0-6b2d-4ae0-8462-b73762c6c8da"},"vehicle_type_id":"4","last_reported":1761066559,"current_range_meters":17200,"station_id":"ce4bhih2rcd13ifvqfr0","pricing_plan_id":"cebpf4jnsgd1na2vs0mg"},{"bike_id":"e97cee2c-2821-4589-ad0d-39b7b7c16139","system_id":"levelo_inurba_marseille","lat":43.29614,"lon":5.37725,"is_reserved":false,"is_disabled":true,"rental_uris":{"android":"levelo://app?vid=e97cee2c-2821-4589-ad0d-39b7b7c16139","ios":"levelo://app?vid=e97cee2c-2821-4589-ad0d-39b7b7c16139"},"vehicle_type_id":"4","last_reported":1761066559,"current_range_meters":17200,"station_id":"ce4bgi92rcd13ifvqb90","pricing_plan_id":"cebpf4jnsgd1na2vs0mg"},{"bike_id":"6692e090-9792-45dd-b639-89e41212fa24","system_id":"levelo_inurba_marseille","lat":43.3128,"lon":5.39702,"is_reserved":false,"is_disabled":true,"rental_uris":{"android":"levelo://app?vid=6692e090-9792-45dd-b639-89e41212fa24","ios":"levelo://app?vid=6692e090-9792-45dd-b639-89e41212fa24"},"vehicle_type_id":"4","last_reported":1761066559,"current_range_meters":17200,"station_id":"","pricing_plan_id":"cebpf4jnsgd1na2vs0mg"},{"bike_id":"396aaa55-c35f-41fc-8337-93bac25c9dde","system_id":"levelo_inurba_marseille","lat":43.29226,"lon":5.35605,"is_reserved":false,"is_disabled":false,"rental_uris":{"android":"levelo://app?vid=396aaa55-c35f-41fc-8337-93bac25c9dde","ios":"levelo://app?vid=396aaa55-c35f-41fc-8337-93bac25c9dde"},"vehicle_type_id":"4","last_reported":1761066559,"current_range_meters":17200,"station_id":"","pricing_plan_id":"cebpf4jnsgd1na2vs0mg"},{"bike_id":"8d4500e4-09c0-4b55-8332-23b3e44ccf45","system_id":"levelo_inurba_marseille","lat":43.29893,"lon":5.4367,"is_reserved":false,"is_disabled":false,"rental_uris":{"android":"levelo://app?vid=8d4500e4-09c0-4b55-8332-23b3e44ccf45","ios":"levelo://app?vid=8d4500e4-09c0-4b55-8332-23b3e44ccf45"},"vehicle_type_id":"4","last_reported":1761066559,"current_range_meters":17200,"station_id":"ce4bhpp2rcd13ifvqhfg","pricing_plan_id":"cebpf4jnsgd1na2vs0mg"},{"bike_id":"a002d0a6-e69e-43c7-80f4-51e9e15a48b6","system_id":"levelo_inurba_marseille","lat":43.25104,"lon":5.40329,"is_reserved":false,"is_disabled":false,"rental_uris":{"android":"levelo://app?vid=a002d0a6-e69e-43c7-80f4-51e9e15a48b6","ios":"levelo://app?vid=a002d0a6-e69e-43c7-80f4-51e9e15a48b6"},"vehicle_type_id":"4","last_reported":1761066559,"current_range_meters":17200,"station_id":"ce4bhlh2rcd13ifvqgig","pricing_plan_id":"cebpf4jnsgd1na2vs0mg"},{"bike_id":"c3ea6a13-2909-4818-a4ac-ba6b4120ef87","system_id":"levelo_inurba_marseille","lat":43.295281,"lon":5.385363,"is_reserved":false,"is_disabled":false,"rental_uris":{"android":"levelo://app?vid=c3ea6a13-2909-4818-a4ac-ba6b4120ef87","ios":"levelo://app?vid=c3ea6a13-2909-4818-a4ac-ba6b4120ef87"},"vehicle_type_id":"4","last_reported":1761066559,"current_range_meters":17600,"station_id":"ce4bgih2rcd13ifvqba0","pricing_plan_id":"cebpf4jnsgd1na2vs0mg"},{"bike_id":"3890c775-bbf6-4e77-bb7c-5dc4178e022a","system_id":"levelo_inurba_marseille","lat":43.2623,"lon":5.40451,"is_reserved":false,"is_disabled":false,"rental_uris":{"android":"levelo://app?vid=3890c775-bbf6-4e77-bb7c-5dc4178e022a","ios":"levelo://app?vid=3890c775-bbf6-4e77-bb7c-5dc4178e022a"},"vehicle_type_id":"4","last_reported":1761066559,"current_range_meters":17600,"station_id":"ce4bhmh2rcd13ifvqgmg","pricing_plan_id":"cebpf4jnsgd1na2vs0mg"},{"bike_id":"464bd8a3-6573-4884-b980-774e68ad4ab1","system_id":"levelo_inurba_marseille","lat":43.27182,"lon":5.40977,"is_reserved":false,"is_disabled":false,"rental_uris":{"android":"levelo://app?vid=464bd8a3-6573-4884-b980-774e68ad4ab1","ios":"levelo://app?vid=464bd8a3-6573-4884-b980-774e68ad4ab1"},"vehicle_type_id":"4","last_reported":1761066559,"current_range_meters":17600,"station_id":"ce4bhl12rcd13ifvqgf0","pricing_plan_id":"cebpf4jnsgd1na2vs0mg"},{"bike_id":"ed7b30e1-64d6-4066-bfec-7cb2806b5b63","system_id":"levelo_inurba_marseille","lat":43.26549,"lon":5.37285,"is_reserved":false,"is_disabled":false,"rental_uris":{"android":"levelo://app?vid=ed7b30e1-64d6-4066-bfec-7cb2806b5b63","ios":"levelo://app?vid=ed7b30e1-64d6-4066-bfec-7cb2806b5b63"},"vehicle_type_id":"4","last_reported":1761066559,"current_range_meters":17600,"station_id":"ce4bhg12rcd13ifvqf70","pricing_plan_id":"cebpf4jnsgd1na2vs0mg"},{"bike_id":"5e2065f8-2869-4265-888a-55436ccc595e","system_id":"levelo_inurba_marseille","lat":43.31884,"lon":5.40799,"is_reserved":false,"is_disabled":false,"rental_uris":{"android":"levelo://app?vid=5e2065f8-2869-4265-888a-55436ccc595e","ios":"levelo://app?vid=5e2065f8-2869-4265-888a-55436ccc595e"},"vehicle_type_id":"4","last_reported":1761066559,"current_range_meters":17600,"station_id":"ce4bhq12rcd13ifvqhig","pricing_plan_id":"cebpf4jnsgd1na2vs0mg"},{"bike_id":"1ae4f4ba-cdf3-4681-97bc-7048fb9fbd77","system_id":"levelo_inurba_marseille","lat":43.27817,"lon":5.39217,"is_reserved":false,"is_disabled":false,"rental_uris":{"android":"levelo://app?vid=1ae4f4ba-cdf3-4681-97bc-7048fb9fbd77","ios":"levelo://app?vid=1ae4f4ba-cdf3-4681-97bc-7048fb9fbd77"},"vehicle_type_id":"4","last_reported":1761066559,"current_range_meters":17600,"station_id":"ce4bhjp2rcd13ifvqga0","pricing_plan_id":"cebpf4jnsgd1na2vs0mg"},{"bike_id":"90865f16-d26e-4726-a94b-75eaed270654","system_id":"levelo_inurba_marseille","lat":43.265,"lon":5.39537,"is_reserved":false,"is_disabled":false,"rental_uris":{"android":"levelo://app?vid=90865f16-d26e-4726-a94b-75eaed270654","ios":"levelo://app?vid=90865f16-d26e-4726-a94b-75eaed270654"},"vehicle_type_id":"4","last_reported":1761066559,"current_range_meters":17600,"station_id":"ce4bhi12rcd13ifvqfq0","pricing_plan_id":"cebpf4jnsgd1na2vs0mg"},{"bike_id":"d00f4c2a-3594-49b4-b41c-198467814d53","system_id":"levelo_inurba_marseille","lat":43.24076,"lon":5.3776,"is_reserved":false,"is_disabled":false,"rental_uris":{"android":"levelo://app?vid=d00f4c2a-3594-49b4-b41c-198467814d53","ios":"levelo://app?vid=d00f4c2a-3594-49b4-b41c-198467814d53"},"vehicle_type_id":"4","last_reported":1761066559,"current_range_meters":18000,"station_id":"ce4bhnp2rcd13ifvqgvg","pricing_plan_id":"cebpf4jnsgd1na2vs0mg"},{"bike_id":"e5f53792-93fc-4d43-9fa0-b5020c2357dc","system_id":"levelo_inurba_marseille","lat":43.28072,"lon":5.39664,"is_reserved":false,"is_disabled":false,"rental_uris":{"android":"levelo://app?vid=e5f53792-93fc-4d43-9fa0-b5020c2357dc","ios":"levelo://app?vid=e5f53792-93fc-4d43-9fa0-b5020c2357dc"},"vehicle_type_id":"4","last_reported":1761066559,"current_range_meters":18000,"station_id":"ce4bho12rcd13ifvqh2g","pricing_plan_id":"cebpf4jnsgd1na2vs0mg"},{"bike_id":"5b2fb394-b654-4cda-abea-19d87e1a4938","system_id":"levelo_inurba_marseille","lat":43.240822,"lon":5.377519,"is_reserved":false,"is_disabled":false,"rental_uris":{"android":"levelo://app?vid=5b2fb394-b654-4cda-abea-19d87e1a4938","ios":"levelo://app?vid=5b2fb394-b654-4cda-abea-19d87e1a4938"},"vehicle_type_id":"4","last_reported":1761066559,"current_range_meters":18000,"station_id":"ce4bhnp2rcd13ifvqgvg","pricing_plan_id":"cebpf4jnsgd1na2vs0mg"},{"bike_id":"a89e38a8-8680-46ea-ae3a-521cb2ea64e1","system_id":"levelo_inurba_marseille","lat":43.27066,"lon":5.42276,"is_reserved":false,"is_disabled":false,"rental_uris":{"android":"levelo://app?vid=a89e38a8-8680-46ea-ae3a-521cb2ea64e1","ios":"levelo://app?vid=a89e38a8-8680-46ea-ae3a-521cb2ea64e1"},"vehicle_type_id":"4","last_reported":1761066559,"current_range_meters":18000,"station_id":"ce4bhk92rcd13ifvqgb0","pricing_plan_id":"cebpf4jnsgd1na2vs0mg"},{"bike_id":"3a66d3e4-4ca6-4add-a0a0-e36a07e17076","system_id":"levelo_inurba_marseille","lat":43.28645,"lon":5.38672,"is_reserved":false,"is_disabled":false,"rental_uris":{"android":"levelo://app?vid=3a66d3e4-4ca6-4add-a0a0-e36a07e17076","ios":"levelo://app?vid=3a66d3e4-4ca6-4add-a0a0-e36a07e17076"},"vehicle_type_id":"4","last_reported":1761066559,"current_range_meters":18000,"station_id":"ce4bh492rcd13ifvqdug","pricing_plan_id":"cebpf4jnsgd1na2vs0mg"},{"bike_id":"b180de58-dccd-4322-9730-0151bb44dfbf","system_id":"levelo_inurba_marseille","lat":43.30435,"lon":5.38888,"is_reserved":false,"is_disabled":false,"rental_uris":{"android":"levelo://app?vid=b180de58-dccd-4322-9730-0151bb44dfbf","ios":"levelo://app?vid=b180de58-dccd-4322-9730-0151bb44dfbf"},"vehicle_type_id":"4","last_reported":1761066559,"current_range_meters":18000,"station_id":"ce4bgk12rcd13ifvqbi0","pricing_plan_id":"cebpf4jnsgd1na2vs0mg"},{"bike_id":"d9684318-7cf9-4107-ade8-bf78adc8f7b1","system_id":"levelo_inurba_marseille","lat":43.28621,"lon":5.35097,"is_reserved":false,"is_disabled":false,"rental_uris":{"android":"levelo://app?vid=d9684318-7cf9-4107-ade8-bf78adc8f7b1","ios":"levelo://app?vid=d9684318-7cf9-4107-ade8-bf78adc8f7b1"},"vehicle_type_id":"4","last_reported":1761066559,"current_range_meters":18000,"station_id":"ce4bhch2rcd13ifvqeug","pricing_plan_id":"cebpf4jnsgd1na2vs0mg"},{"bike_id":"d5d1c7ec-7b32-4e02-a637-6f41329aaece","system_id":"levelo_inurba_marseille","lat":43.29974,"lon":5.37162,"is_reserved":false,"is_disabled":false,"rental_uris":{"android":"levelo://app?vid=d5d1c7ec-7b32-4e02-a637-6f41329aaece","ios":"levelo://app?vid=d5d1c7ec-7b32-4e02-a637-6f41329aaece"},"vehicle_type_id":"4","last_reported":1761066559,"current_range_meters":18000,"station_id":"ce4bgr92rcd13ifvqc7g","pricing_plan_id":"cebpf4jnsgd1na2vs0mg"},{"bike_id":"ca9ec66b-e4f4-4b30-93ef-0865bce333e4","system_id":"levelo_inurba_marseille","lat":43.295319,"lon":5.385429,"is_reserved":false,"is_disabled":false,"rental_uris":{"android":"levelo://app?vid=ca9ec66b-e4f4-4b30-93ef-0865bce333e4","ios":"levelo://app?vid=ca9ec66b-e4f4-4b30-93ef-0865bce333e4"},"vehicle_type_id":"4","last_reported":1761066559,"current_range_meters":18000,"station_id":"ce4bgih2rcd13ifvqba0","pricing_plan_id":"cebpf4jnsgd1na2vs0mg"},{"bike_id":"92fb0336-8362-49cc-8811-3e50d376cc52","system_id":"levelo_inurba_marseille","lat":43.285065,"lon":5.350121,"is_reserved":false,"is_disabled":false,"rental_uris":{"android":"levelo://app?vid=92fb0336-8362-49cc-8811-3e50d376cc52","ios":"levelo://app?vid=92fb0336-8362-49cc-8811-3e50d376cc52"},"vehicle_type_id":"4","last_reported":1761066559,"current_range_meters":18800,"station_id":"ce4bhbh2rcd13ifvqepg","pricing_plan_id":"cebpf4jnsgd1na2vs0mg"},{"bike_id":"b8f42ab0-9a06-4f9b-b679-78ca95e369ed","system_id":"levelo_inurba_marseille","lat":43.302268,"lon":5.395236,"is_reserved":false,"is_disabled":false,"rental_uris":{"android":"levelo://app?vid=b8f42ab0-9a06-4f9b-b679-78ca95e369ed","ios":"levelo://app?vid=b8f42ab0-9a06-4f9b-b679-78ca95e369ed"},"vehicle_type_id":"4","last_reported":1761066559,"current_range_meters":18800,"station_id":"ce4bh092rcd13ifvqd30","pricing_plan_id":"cebpf4jnsgd1na2vs0mg"},{"bike_id":"edcca19b-7b55-4de9-9b7d-c830f6f89bd9","system_id":"levelo_inurba_marseille","lat":43.289274,"lon":5.363256,"is_reserved":false,"is_disabled":false,"rental_uris":{"android":"levelo://app?vid=edcca19b-7b55-4de9-9b7d-c830f6f89bd9","ios":"levelo://app?vid=edcca19b-7b55-4de9-9b7d-c830f6f89bd9"},"vehicle_type_id":"4","last_reported":1761066559,"current_range_meters":18800,"station_id":"ce4bhap2rcd13ifvqek0","pricing_plan_id":"cebpf4jnsgd1na2vs0mg"},{"bike_id":"07e992db-48e1-481b-a50e-3b491cfc1455","system_id":"levelo_inurba_marseille","lat":43.31991,"lon":5.41291,"is_reserved":false,"is_disabled":false,"rental_uris":{"android":"levelo://app?vid=07e992db-48e1-481b-a50e-3b491cfc1455","ios":"levelo://app?vid=07e992db-48e1-481b-a50e-3b491cfc1455"},"vehicle_type_id":"4","last_reported":1761066559,"current_range_meters":18800,"station_id":"","pricing_plan_id":"cebpf4jnsgd1na2vs0mg"},{"bike_id":"f2b380b4-2a3b-43ad-ab92-b6219a11c825","system_id":"levelo_inurba_marseille","lat":43.2294,"lon":5.35401,"is_reserved":false,"is_disabled":false,"rental_uris":{"android":"levelo://app?vid=f2b380b4-2a3b-43ad-ab92-b6219a11c825","ios":"levelo://app?vid=f2b380b4-2a3b-43ad-ab92-b6219a11c825"},"vehicle_type_id":"4","last_reported":1761066559,"current_range_meters":18800,"station_id":"cpo3532slgdg3j2ikp40","pricing_plan_id":"cebpf4jnsgd1na2vs0mg"},{"bike_id":"25b50e7b-9f2c-4e27-93f6-baf568974f16","system_id":"levelo_inurba_marseille","lat":43.26065,"lon":5.39396,"is_reserved":false,"is_disabled":false,"rental_uris":{"android":"levelo://app?vid=25b50e7b-9f2c-4e27-93f6-baf568974f16","ios":"levelo://app?vid=25b50e7b-9f2c-4e27-93f6-baf568974f16"},"vehicle_type_id":"4","last_reported":1761066559,"current_range_meters":18800,"station_id":"ce4bhh92rcd13ifvqfj0","pricing_plan_id":"cebpf4jnsgd1na2vs0mg"},{"bike_id":"32a33d2e-9d70-43b5-82bb-d901dc6532f3","system_id":"levelo_inurba_marseille","lat":43.28122,"lon":5.37818,"is_reserved":false,"is_disabled":false,"rental_uris":{"android":"levelo://app?vid=32a33d2e-9d70-43b5-82bb-d901dc6532f3","ios":"levelo://app?vid=32a33d2e-9d70-43b5-82bb-d901dc6532f3"},"vehicle_type_id":"4","last_reported":1761066559,"current_range_meters":18800,"station_id":"ce4bha12rcd13ifvqee0","pricing_plan_id":"cebpf4jnsgd1na2vs0mg"},{"bike_id":"78098873-797e-4c46-bcc2-82eec3726516","system_id":"levelo_inurba_marseille","lat":43.26221,"lon":5.3744,"is_reserved":false,"is_disabled":false,"rental_uris":{"android":"levelo://app?vid=78098873-797e-4c46-bcc2-82eec3726516","ios":"levelo://app?vid=78098873-797e-4c46-bcc2-82eec3726516"},"vehicle_type_id":"4","last_reported":1761066559,"current_range_meters":19200,"station_id":"ce4bhgp2rcd13ifvqfc0","pricing_plan_id":"cebpf4jnsgd1na2vs0mg"},{"bike_id":"bbd08cf4-31da-4d68-b46e-697f80190f23","system_id":"levelo_inurba_marseille","lat":43.27176,"lon":5.41003,"is_reserved":false,"is_disabled":false,"rental_uris":{"android":"levelo://app?vid=bbd08cf4-31da-4d68-b46e-697f80190f23","ios":"levelo://app?vid=bbd08cf4-31da-4d68-b46e-697f80190f23"},"vehicle_type_id":"4","last_reported":1761066559,"current_range_meters":19200,"station_id":"ce4bhl12rcd13ifvqgf0","pricing_plan_id":"cebpf4jnsgd1na2vs0mg"},{"bike_id":"a4ce3756-b3d8-4bcc-816b-6b10d778077f","system_id":"levelo_inurba_marseille","lat":43.30081,"lon":5.39077,"is_reserved":false,"is_disabled":false,"rental_uris":{"android":"levelo://app?vid=a4ce3756-b3d8-4bcc-816b-6b10d778077f","ios":"levelo://app?vid=a4ce3756-b3d8-4bcc-816b-6b10d778077f"},"vehicle_type_id":"4","last_reported":1761066559,"current_range_meters":19200,"station_id":"ce4bh192rcd13ifvqdb0","pricing_plan_id":"cebpf4jnsgd1na2vs0mg"},{"bike_id":"9870a68d-ae62-4bec-82c3-a7443a850bdc","system_id":"levelo_inurba_marseille","lat":43.31276,"lon":5.37776,"is_reserved":false,"is_disabled":false,"rental_uris":{"android":"levelo://app?vid=9870a68d-ae62-4bec-82c3-a7443a850bdc","ios":"levelo://app?vid=9870a68d-ae62-4bec-82c3-a7443a850bdc"},"vehicle_type_id":"4","last_reported":1761066559,"current_range_meters":19600,"station_id":"","pricing_plan_id":"cebpf4jnsgd1na2vs0mg"},{"bike_id":"0289d540-3ab2-4058-8d5f-f384081982dd","system_id":"levelo_inurba_marseille","lat":43.29525,"lon":5.38545,"is_reserved":false,"is_disabled":false,"rental_uris":{"android":"levelo://app?vid=0289d540-3ab2-4058-8d5f-f384081982dd","ios":"levelo://app?vid=0289d540-3ab2-4058-8d5f-f384081982dd"},"vehicle_type_id":"4","last_reported":1761066559,"current_range_meters":19600,"station_id":"","pricing_plan_id":"cebpf4jnsgd1na2vs0mg"},{"bike_id":"618a9c44-e479-45b6-b144-58d3228e3132","system_id":"levelo_inurba_marseille","lat":43.24664,"lon":5.38974,"is_reserved":false,"is_disabled":false,"rental_uris":{"android":"levelo://app?vid=618a9c44-e479-45b6-b144-58d3228e3132","ios":"levelo://app?vid=618a9c44-e479-45b6-b144-58d3228e3132"},"vehicle_type_id":"4","last_reported":1761066559,"current_range_meters":19600,"station_id":"","pricing_plan_id":"cebpf4jnsgd1na2vs0mg"},{"bike_id":"9d8bcd8e-8ecf-425f-98ef-b7c9398172e2","system_id":"levelo_inurba_marseille","lat":43.32363,"lon":5.36764,"is_reserved":false,"is_disabled":false,"rental_uris":{"android":"levelo://app?vid=9d8bcd8e-8ecf-425f-98ef-b7c9398172e2","ios":"levelo://app?vid=9d8bcd8e-8ecf-425f-98ef-b7c9398172e2"},"vehicle_type_id":"4","last_reported":1761066559,"current_range_meters":19600,"station_id":"ce4bhsh2rcd13ifvqi2g","pricing_plan_id":"cebpf4jnsgd1na2vs0mg"},{"bike_id":"cb17fd28-0b5e-4e87-bc8c-b381606e8147","system_id":"levelo_inurba_marseille","lat":43.24392,"lon":5.37045,"is_reserved":false,"is_disabled":false,"rental_uris":{"android":"levelo://app?vid=cb17fd28-0b5e-4e87-bc8c-b381606e8147","ios":"levelo://app?vid=cb17fd28-0b5e-4e87-bc8c-b381606e8147"},"vehicle_type_id":"4","last_reported":1761066559,"current_range_meters":19600,"station_id":"ce4bhhh2rcd13ifvqfk0","pricing_plan_id":"cebpf4jnsgd1na2vs0mg"},{"bike_id":"f953d15e-aa54-4c4b-a773-879fd19c5ea7","system_id":"levelo_inurba_marseille","lat":43.24176,"lon":5.3973,"is_reserved":false,"is_disabled":false,"rental_uris":{"android":"levelo://app?vid=f953d15e-aa54-4c4b-a773-879fd19c5ea7","ios":"levelo://app?vid=f953d15e-aa54-4c4b-a773-879fd19c5ea7"},"vehicle_type_id":"4","last_reported":1761066559,"current_range_meters":19600,"station_id":"ce4bhn12rcd13ifvqgpg","pricing_plan_id":"cebpf4jnsgd1na2vs0mg"},{"bike_id":"711f0596-1d78-4908-a763-5bdf76c9a52a","system_id":"levelo_inurba_marseille","lat":43.29531,"lon":5.38537,"is_reserved":false,"is_disabled":false,"rental_uris":{"android":"levelo://app?vid=711f0596-1d78-4908-a763-5bdf76c9a52a","ios":"levelo://app?vid=711f0596-1d78-4908-a763-5bdf76c9a52a"},"vehicle_type_id":"4","last_reported":1761066559,"current_range_meters":19600,"station_id":"ce4bgih2rcd13ifvqba0","pricing_plan_id":"cebpf4jnsgd1na2vs0mg"},{"bike_id":"a636a958-0b7c-47a0-9a5f-c39a7df85853","system_id":"levelo_inurba_marseille","lat":43.30808,"lon":5.38151,"is_reserved":false,"is_disabled":false,"rental_uris":{"android":"levelo://app?vid=a636a958-0b7c-47a0-9a5f-c39a7df85853","ios":"levelo://app?vid=a636a958-0b7c-47a0-9a5f-c39a7df85853"},"vehicle_type_id":"4","last_reported":1761066559,"current_range_meters":20000,"station_id":"ce4bgt12rcd13ifvqce0","pricing_plan_id":"cebpf4jnsgd1na2vs0mg"},{"bike_id":"3d7013be-dfe4-430a-97e8-197a834810ee","system_id":"levelo_inurba_marseille","lat":43.24648,"lon":5.38917,"is_reserved":false,"is_disabled":false,"rental_uris":{"android":"levelo://app?vid=3d7013be-dfe4-430a-97e8-197a834810ee","ios":"levelo://app?vid=3d7013be-dfe4-430a-97e8-197a834810ee"},"vehicle_type_id":"4","last_reported":1761066559,"current_range_meters":20000,"station_id":"ce4bhg12rcd13ifvqf60","pricing_plan_id":"cebpf4jnsgd1na2vs0mg"},{"bike_id":"a7852824-e2a4-479b-99b4-cb953138df6f","system_id":"levelo_inurba_marseille","lat":43.22936,"lon":5.35379,"is_reserved":false,"is_disabled":false,"rental_uris":{"android":"levelo://app?vid=a7852824-e2a4-479b-99b4-cb953138df6f","ios":"levelo://app?vid=a7852824-e2a4-479b-99b4-cb953138df6f"},"vehicle_type_id":"4","last_reported":1761066559,"current_range_meters":20000,"station_id":"cpo3532slgdg3j2ikp40","pricing_plan_id":"cebpf4jnsgd1na2vs0mg"},{"bike_id":"7e7b47b2-57e6-45f5-9ba1-37493d7aa34a","system_id":"levelo_inurba_marseille","lat":43.29256,"lon":5.38441,"is_reserved":false,"is_disabled":false,"rental_uris":{"android":"levelo://app?vid=7e7b47b2-57e6-45f5-9ba1-37493d7aa34a","ios":"levelo://app?vid=7e7b47b2-57e6-45f5-9ba1-37493d7aa34a"},"vehicle_type_id":"4","last_reported":1761066559,"current_range_meters":20000,"station_id":"ce4bh692rcd13ifvqea0","pricing_plan_id":"cebpf4jnsgd1na2vs0mg"},{"bike_id":"e01c0407-9fea-4afc-844a-8e1d738fcda5","system_id":"levelo_inurba_marseille","lat":43.24167,"lon":5.36402,"is_reserved":false,"is_disabled":false,"rental_uris":{"android":"levelo://app?vid=e01c0407-9fea-4afc-844a-8e1d738fcda5","ios":"levelo://app?vid=e01c0407-9fea-4afc-844a-8e1d738fcda5"},"vehicle_type_id":"4","last_reported":1761066559,"current_range_meters":20000,"station_id":"cpo36qri1sfpv3e86is0","pricing_plan_id":"cebpf4jnsgd1na2vs0mg"},{"bike_id":"72e9e74e-f521-43f9-afe4-4bb83ba08fa7","system_id":"levelo_inurba_marseille","lat":43.29264,"lon":5.38449,"is_reserved":false,"is_disabled":false,"rental_uris":{"android":"levelo://app?vid=72e9e74e-f521-43f9-afe4-4bb83ba08fa7","ios":"levelo://app?vid=72e9e74e-f521-43f9-afe4-4bb83ba08fa7"},"vehicle_type_id":"4","last_reported":1761066559,"current_range_meters":20000,"station_id":"ce4bh692rcd13ifvqea0","pricing_plan_id":"cebpf4jnsgd1na2vs0mg"},{"bike_id":"5abdff45-e3b2-4306-8743-0926727f2070","system_id":"levelo_inurba_marseille","lat":43.28409,"lon":5.34991,"is_reserved":false,"is_disabled":false,"rental_uris":{"android":"levelo://app?vid=5abdff45-e3b2-4306-8743-0926727f2070","ios":"levelo://app?vid=5abdff45-e3b2-4306-8743-0926727f2070"},