{"last_updated":1752228718,"ttl":60,"version":"2.2","data":{"bikes":[{"bike_id":"d1e862ed-7846-45f2-981c-c5ef0c9adf29","system_id":"levelo_inurba_marseille","lat":43.29708,"lon":5.36587,"is_reserved":false,"is_disabled":false,"rental_uris":{"android":"levelo://app?vid=d1e862ed-7846-45f2-981c-c5ef0c9adf29","ios":"levelo://app?vid=d1e862ed-7846-45f2-981c-c5ef0c9adf29"},"vehicle_type_id":"4","last_reported":1752228718,"current_range_meters":2800,"station_id":"ce4bgn12rcd13ifvqbt0","pricing_plan_id":"cebpf4jnsgd1na2vs0mg"},{"bike_id":"864830cd-471c-4ae8-8ff1-495934107509","system_id":"levelo_inurba_marseille","lat":43.318961,"lon":5.407309,"is_reserved":false,"is_disabled":true,"rental_uris":{"android":"levelo://app?vid=864830cd-471c-4ae8-8ff1-495934107509","ios":"levelo://app?vid=864830cd-471c-4ae8-8ff1-495934107509"},"vehicle_type_id":"4","last_reported":1752228718,"current_range_meters":2800,"station_id":"ce4bhq12rcd13ifvqhig","pricing_plan_id":"cebpf4jnsgd1na2vs0mg"},{"bike_id":"24bb26e8-f9a4-4f56-926d-ba4ea0ec83bb","system_id":"levelo_inurba_marseille","lat":43.28704,"lon":5.386,"is_reserved":false,"is_disabled":false,"rental_uris":{"android":"levelo://app?vid=24bb26e8-f9a4-4f56-926d-ba4ea0ec83bb","ios":"levelo://app?vid=24bb26e8-f9a4-4f56-926d-ba4ea0ec83bb"},"vehicle_type_id":"4","last_reported":1752228718,"current_range_meters":2800,"station_id":"","pricing_plan_id":"cebpf4jnsgd1na2vs0mg"},{"bike_id":"fcb81485-886b-48d0-953f-0287d90bba8e","system_id":"levelo_inurba_marseille","lat":43.28485,"lon":5.38543,"is_reserved":false,"is_disabled":false,"rental_uris":{"android":"levelo://app?vid=fcb81485-886b-48d0-953f-0287d90bba8e","ios":"levelo://app?vid=fcb81485-886b-48d0-953f-0287d90bba8e"},"vehicle_type_id":"4","last_reported":1752228718,"current_range_meters":3200,"station_id":"ce4bh8p2rcd13ifvqeb0","pricing_plan_id":"cebpf4jnsgd1na2vs0mg"},{"bike_id":"2a8b9463-3b47-48a9-a44c-d4877252fdc7","system_id":"levelo_inurba_marseille","lat":43.28262,"lon":5.3506,"is_reserved":false,"is_disabled":false,"rental_uris":{"android":"levelo://app?vid=2a8b9463-3b47-48a9-a44c-d4877252fdc7","ios":"levelo://app?vid=2a8b9463-3b47-48a9-a44c-d4877252fdc7"},"vehicle_type_id":"4","last_reported":1752228718,"current_range_meters":4000,"station_id":"ce4bhbp2rcd13ifvqerg","pricing_plan_id":"cebpf4jnsgd1na2vs0mg"},{"bike_id":"f8850064-2102-4305-b524-c3781d9e22a1","system_id":"levelo_inurba_marseille","lat":43.28853,"lon":5.38428,"is_reserved":false,"is_disabled":false,"rental_uris":{"android":"levelo://app?vid=f8850064-2102-4305-b524-c3781d9e22a1","ios":"levelo://app?vid=f8850064-2102-4305-b524-c3781d9e22a1"},"vehicle_type_id":"4","last_reported":1752228718,"current_range_meters":4000,"station_id":"","pricing_plan_id":"cebpf4jnsgd1na2vs0mg"},{"bike_id":"0ce6b37f-5b8e-4645-a4ec-e3d297b10947","system_id":"levelo_inurba_marseille","lat":43.290537,"lon":5.359278,"is_reserved":false,"is_disabled":false,"rental_uris":{"android":"levelo://app?vid=0ce6b37f-5b8e-4645-a4ec-e3d297b10947","ios":"levelo://app?vid=0ce6b37f-5b8e-4645-a4ec-e3d297b10947"},"vehicle_type_id":"4","last_reported":1752228718,"current_range_meters":4000,"station_id":"ce4bha92rcd13ifvqeg0","pricing_plan_id":"cebpf4jnsgd1na2vs0mg"},{"bike_id":"b8d6bf6b-ecbb-4c40-8ce7-0169ef070b49","system_id":"levelo_inurba_marseille","lat":43.29569,"lon":5.37395,"is_reserved":false,"is_disabled":false,"rental_uris":{"android":"levelo://app?vid=b8d6bf6b-ecbb-4c40-8ce7-0169ef070b49","ios":"levelo://app?vid=b8d6bf6b-ecbb-4c40-8ce7-0169ef070b49"},"vehicle_type_id":"4","last_reported":1752228718,"current_range_meters":4400,"station_id":"","pricing_plan_id":"cebpf4jnsgd1na2vs0mg"},{"bike_id":"6ca609aa-c384-4be4-bb1e-c76cf4949efb","system_id":"levelo_inurba_marseille","lat":43.284268,"lon":5.349794,"is_reserved":false,"is_disabled":false,"rental_uris":{"android":"levelo://app?vid=6ca609aa-c384-4be4-bb1e-c76cf4949efb","ios":"levelo://app?vid=6ca609aa-c384-4be4-bb1e-c76cf4949efb"},"vehicle_type_id":"4","last_reported":1752228718,"current_range_meters":4400,"station_id":"ce4bhbh2rcd13ifvqepg","pricing_plan_id":"cebpf4jnsgd1na2vs0mg"},{"bike_id":"04ecfab3-8d80-428f-87dc-577af155bfc0","system_id":"levelo_inurba_marseille","lat":43.302187,"lon":5.374382,"is_reserved":false,"is_disabled":false,"rental_uris":{"android":"levelo://app?vid=04ecfab3-8d80-428f-87dc-577af155bfc0","ios":"levelo://app?vid=04ecfab3-8d80-428f-87dc-577af155bfc0"},"vehicle_type_id":"4","last_reported":1752228718,"current_range_meters":4400,"station_id":"ce4bgr92rcd13ifvqc6g","pricing_plan_id":"cebpf4jnsgd1na2vs0mg"},{"bike_id":"2bd2509c-8e69-46fb-904c-1c65a6340b60","system_id":"levelo_inurba_marseille","lat":43.21206,"lon":5.3513,"is_reserved":false,"is_disabled":false,"rental_uris":{"android":"levelo://app?vid=2bd2509c-8e69-46fb-904c-1c65a6340b60","ios":"levelo://app?vid=2bd2509c-8e69-46fb-904c-1c65a6340b60"},"vehicle_type_id":"4","last_reported":1752228718,"current_range_meters":4400,"station_id":"st_cvj6sg6p6f1abm77japg","pricing_plan_id":"cebpf4jnsgd1na2vs0mg"},{"bike_id":"04bb0452-6a48-4efb-ba6d-d943b51ae0e0","system_id":"levelo_inurba_marseille","lat":43.296029,"lon":5.380964,"is_reserved":false,"is_disabled":false,"rental_uris":{"android":"levelo://app?vid=04bb0452-6a48-4efb-ba6d-d943b51ae0e0","ios":"levelo://app?vid=04bb0452-6a48-4efb-ba6d-d943b51ae0e0"},"vehicle_type_id":"4","last_reported":1752228718,"current_range_meters":6000,"station_id":"","pricing_plan_id":"cebpf4jnsgd1na2vs0mg"},{"bike_id":"c5c9d487-4001-450c-9711-b9ba38395ae7","system_id":"levelo_inurba_marseille","lat":43.27809,"lon":5.40714,"is_reserved":false,"is_disabled":false,"rental_uris":{"android":"levelo://app?vid=c5c9d487-4001-450c-9711-b9ba38395ae7","ios":"levelo://app?vid=c5c9d487-4001-450c-9711-b9ba38395ae7"},"vehicle_type_id":"4","last_reported":1752228718,"current_range_meters":6000,"station_id":"ce4bhnh2rcd13ifvqgtg","pricing_plan_id":"cebpf4jnsgd1na2vs0mg"},{"bike_id":"c9ec8264-b1f7-41db-a127-5dfa02fc980f","system_id":"levelo_inurba_marseille","lat":43.315693,"lon":5.401758,"is_reserved":false,"is_disabled":false,"rental_uris":{"android":"levelo://app?vid=c9ec8264-b1f7-41db-a127-5dfa02fc980f","ios":"levelo://app?vid=c9ec8264-b1f7-41db-a127-5dfa02fc980f"},"vehicle_type_id":"4","last_reported":1752228718,"current_range_meters":6000,"station_id":"","pricing_plan_id":"cebpf4jnsgd1na2vs0mg"},{"bike_id":"878e989f-39f0-48b6-8aeb-cce41a3d54a3","system_id":"levelo_inurba_marseille","lat":43.27207,"lon":5.39176,"is_reserved":false,"is_disabled":false,"rental_uris":{"android":"levelo://app?vid=878e989f-39f0-48b6-8aeb-cce41a3d54a3","ios":"levelo://app?vid=878e989f-39f0-48b6-8aeb-cce41a3d54a3"},"vehicle_type_id":"4","last_reported":1752228718,"current_range_meters":6000,"station_id":"ce4bhhp2rcd13ifvqfm0","pricing_plan_id":"cebpf4jnsgd1na2vs0mg"},{"bike_id":"3108e78c-759c-4d11-b361-5abb833e983c","system_id":"levelo_inurba_marseille","lat":43.28883,"lon":5.39395,"is_reserved":false,"is_disabled":false,"rental_uris":{"android":"levelo://app?vid=3108e78c-759c-4d11-b361-5abb833e983c","ios":"levelo://app?vid=3108e78c-759c-4d11-b361-5abb833e983c"},"vehicle_type_id":"4","last_reported":1752228718,"current_range_meters":6400,"station_id":"","pricing_plan_id":"cebpf4jnsgd1na2vs0mg"},{"bike_id":"a34f6bf0-e1d7-4758-909c-d720d8d78979","system_id":"levelo_inurba_marseille","lat":43.25121,"lon":5.4031,"is_reserved":false,"is_disabled":false,"rental_uris":{"android":"levelo://app?vid=a34f6bf0-e1d7-4758-909c-d720d8d78979","ios":"levelo://app?vid=a34f6bf0-e1d7-4758-909c-d720d8d78979"},"vehicle_type_id":"4","last_reported":1752228718,"current_range_meters":6400,"station_id":"ce4bhlh2rcd13ifvqgig","pricing_plan_id":"cebpf4jnsgd1na2vs0mg"},{"bike_id":"20763534-4b4f-4a23-86b4-3e729e1b3926","system_id":"levelo_inurba_marseille","lat":43.337444,"lon":5.374475,"is_reserved":false,"is_disabled":true,"rental_uris":{"android":"levelo://app?vid=20763534-4b4f-4a23-86b4-3e729e1b3926","ios":"levelo://app?vid=20763534-4b4f-4a23-86b4-3e729e1b3926"},"vehicle_type_id":"4","last_reported":1752228718,"current_range_meters":6400,"station_id":"","pricing_plan_id":"cebpf4jnsgd1na2vs0mg"},{"bike_id":"78d6e7c8-8477-436d-96d8-0d0ab485a2b5","system_id":"levelo_inurba_marseille","lat":43.21747,"lon":5.34609,"is_reserved":false,"is_disabled":false,"rental_uris":{"android":"levelo://app?vid=78d6e7c8-8477-436d-96d8-0d0ab485a2b5","ios":"levelo://app?vid=78d6e7c8-8477-436d-96d8-0d0ab485a2b5"},"vehicle_type_id":"4","last_reported":1752228718,"current_range_meters":6800,"station_id":"st_cvj6r9ubvosntc0bgbag","pricing_plan_id":"cebpf4jnsgd1na2vs0mg"},{"bike_id":"df712ea8-fa0e-4dc0-9487-73c43f88a2a0","system_id":"levelo_inurba_marseille","lat":43.307868,"lon":5.376507,"is_reserved":false,"is_disabled":false,"rental_uris":{"android":"levelo://app?vid=df712ea8-fa0e-4dc0-9487-73c43f88a2a0","ios":"levelo://app?vid=df712ea8-fa0e-4dc0-9487-73c43f88a2a0"},"vehicle_type_id":"4","last_reported":1752228718,"current_range_meters":6800,"station_id":"ce4bgg92rcd13ifvqb30","pricing_plan_id":"cebpf4jnsgd1na2vs0mg"},{"bike_id":"b697b359-2117-44b5-bb87-bdbf00f86e01","system_id":"levelo_inurba_marseille","lat":43.29292,"lon":5.36873,"is_reserved":false,"is_disabled":false,"rental_uris":{"android":"levelo://app?vid=b697b359-2117-44b5-bb87-bdbf00f86e01","ios":"levelo://app?vid=b697b359-2117-44b5-bb87-bdbf00f86e01"},"vehicle_type_id":"4","last_reported":1752228718,"current_range_meters":7200,"station_id":"ce4bhbp2rcd13ifvqesg","pricing_plan_id":"cebpf4jnsgd1na2vs0mg"},{"bike_id":"21ae54b9-7375-4101-b8a7-bff9d6e1fa32","system_id":"levelo_inurba_marseille","lat":43.29991,"lon":5.37583,"is_reserved":false,"is_disabled":false,"rental_uris":{"android":"levelo://app?vid=21ae54b9-7375-4101-b8a7-bff9d6e1fa32","ios":"levelo://app?vid=21ae54b9-7375-4101-b8a7-bff9d6e1fa32"},"vehicle_type_id":"4","last_reported":1752228718,"current_range_meters":8000,"station_id":"","pricing_plan_id":"cebpf4jnsgd1na2vs0mg"},{"bike_id":"ce65266a-5bea-416b-8bb6-c2f55032c017","system_id":"levelo_inurba_marseille","lat":43.23153,"lon":5.43704,"is_reserved":false,"is_disabled":false,"rental_uris":{"android":"levelo://app?vid=ce65266a-5bea-416b-8bb6-c2f55032c017","ios":"levelo://app?vid=ce65266a-5bea-416b-8bb6-c2f55032c017"},"vehicle_type_id":"4","last_reported":1752228718,"current_range_meters":8000,"station_id":"ce4bhmp2rcd13ifvqgog","pricing_plan_id":"cebpf4jnsgd1na2vs0mg"},{"bike_id":"b757ffbb-2b71-4330-9f60-5f8a9d46d16e","system_id":"levelo_inurba_marseille","lat":43.29657,"lon":5.37079,"is_reserved":false,"is_disabled":false,"rental_uris":{"android":"levelo://app?vid=b757ffbb-2b71-4330-9f60-5f8a9d46d16e","ios":"levelo://app?vid=b757ffbb-2b71-4330-9f60-5f8a9d46d16e"},"vehicle_type_id":"4","last_reported":1752228718,"current_range_meters":8000,"station_id":"","pricing_plan_id":"cebpf4jnsgd1na2vs0mg"},{"bike_id":"c38b0fb1-a051-4885-bb09-653d5a7e6a93","system_id":"levelo_inurba_marseille","lat":43.30902,"lon":5.36846,"is_reserved":false,"is_disabled":false,"rental_uris":{"android":"levelo://app?vid=c38b0fb1-a051-4885-bb09-653d5a7e6a93","ios":"levelo://app?vid=c38b0fb1-a051-4885-bb09-653d5a7e6a93"},"vehicle_type_id":"4","last_reported":1752228718,"current_range_meters":8400,"station_id":"ce4bgn92rcd13ifvqbvg","pricing_plan_id":"cebpf4jnsgd1na2vs0mg"},{"bike_id":"833f97ec-e704-4051-ab3b-2e9eb58f71d0","system_id":"levelo_inurba_marseille","lat":43.30258,"lon":5.37579,"is_reserved":false,"is_disabled":false,"rental_uris":{"android":"levelo://app?vid=833f97ec-e704-4051-ab3b-2e9eb58f71d0","ios":"levelo://app?vid=833f97ec-e704-4051-ab3b-2e9eb58f71d0"},"vehicle_type_id":"4","last_reported":1752228718,"current_range_meters":8400,"station_id":"","pricing_plan_id":"cebpf4jnsgd1na2vs0mg"},{"bike_id":"3501591c-5c1b-48a1-addb-005e724e9fd8","system_id":"levelo_inurba_marseille","lat":43.292708,"lon":5.409097,"is_reserved":false,"is_disabled":false,"rental_uris":{"android":"levelo://app?vid=3501591c-5c1b-48a1-addb-005e724e9fd8","ios":"levelo://app?vid=3501591c-5c1b-48a1-addb-005e724e9fd8"},"vehicle_type_id":"4","last_reported":1752228718,"current_range_meters":8800,"station_id":"ce4bh192rcd13ifvqdc0","pricing_plan_id":"cebpf4jnsgd1na2vs0mg"},{"bike_id":"aefcdd74-6482-42e0-92ee-b3d9efe0d8e2","system_id":"levelo_inurba_marseille","lat":43.32475,"lon":5.36596,"is_reserved":false,"is_disabled":false,"rental_uris":{"android":"levelo://app?vid=aefcdd74-6482-42e0-92ee-b3d9efe0d8e2","ios":"levelo://app?vid=aefcdd74-6482-42e0-92ee-b3d9efe0d8e2"},"vehicle_type_id":"4","last_reported":1752228718,"current_range_meters":8800,"station_id":"ce4bhs12rcd13ifvqhvg","pricing_plan_id":"cebpf4jnsgd1na2vs0mg"},{"bike_id":"30915074-6952-45b9-bcef-68bafc508611","system_id":"levelo_inurba_marseille","lat":43.29105,"lon":5.38116,"is_reserved":false,"is_disabled":false,"rental_uris":{"android":"levelo://app?vid=30915074-6952-45b9-bcef-68bafc508611","ios":"levelo://app?vid=30915074-6952-45b9-bcef-68bafc508611"},"vehicle_type_id":"4","last_reported":1752228718,"current_range_meters":8800,"station_id":"ce4bh512rcd13ifvqe2g","pricing_plan_id":"cebpf4jnsgd1na2vs0mg"},{"bike_id":"40879d2b-6e53-4cee-95ed-4f0a3175b592","system_id":"levelo_inurba_marseille","lat":43.29934,"lon":5.36545,"is_reserved":false,"is_disabled":false,"rental_uris":{"android":"levelo://app?vid=40879d2b-6e53-4cee-95ed-4f0a3175b592","ios":"levelo://app?vid=40879d2b-6e53-4cee-95ed-4f0a3175b592"},"vehicle_type_id":"4","last_reported":1752228718,"current_range_meters":8800,"station_id":"ce4bgm92rcd13ifvqbr0","pricing_plan_id":"cebpf4jnsgd1na2vs0mg"},{"bike_id":"c3898ed2-8480-4d26-a9ec-d2e20757aca9","system_id":"levelo_inurba_marseille","lat":43.28421,"lon":5.3499,"is_reserved":false,"is_disabled":false,"rental_uris":{"android":"levelo://app?vid=c3898ed2-8480-4d26-a9ec-d2e20757aca9","ios":"levelo://app?vid=c3898ed2-8480-4d26-a9ec-d2e20757aca9"},"vehicle_type_id":"4","last_reported":1752228718,"current_range_meters":8800,"station_id":"ce4bhbh2rcd13ifvqepg","pricing_plan_id":"cebpf4jnsgd1na2vs0mg"},{"bike_id":"281b018d-a532-4227-88a0-f8712592a79e","system_id":"levelo_inurba_marseille","lat":43.2315,"lon":5.43691,"is_reserved":false,"is_disabled":false,"rental_uris":{"android":"levelo://app?vid=281b018d-a532-4227-88a0-f8712592a79e","ios":"levelo://app?vid=281b018d-a532-4227-88a0-f8712592a79e"},"vehicle_type_id":"4","last_reported":1752228718,"current_range_meters":9200,"station_id":"ce4bhmp2rcd13ifvqgog","pricing_plan_id":"cebpf4jnsgd1na2vs0mg"},{"bike_id":"9b244fec-614f-41c9-bd85-f47c827c6326","system_id":"levelo_inurba_marseille","lat":43.30155,"lon":5.38075,"is_reserved":false,"is_disabled":false,"rental_uris":{"android":"levelo://app?vid=9b244fec-614f-41c9-bd85-f47c827c6326","ios":"levelo://app?vid=9b244fec-614f-41c9-bd85-f47c827c6326"},"vehicle_type_id":"4","last_reported":1752228718,"current_range_meters":9200,"station_id":"ce4bgjp2rcd13ifvqbh0","pricing_plan_id":"cebpf4jnsgd1na2vs0mg"},{"bike_id":"11fa943a-5d6f-41e0-8dc9-2d51c8fb840a","system_id":"levelo_inurba_marseille","lat":43.29232,"lon":5.3607,"is_reserved":false,"is_disabled":false,"rental_uris":{"android":"levelo://app?vid=11fa943a-5d6f-41e0-8dc9-2d51c8fb840a","ios":"levelo://app?vid=11fa943a-5d6f-41e0-8dc9-2d51c8fb840a"},"vehicle_type_id":"4","last_reported":1752228718,"current_range_meters":9200,"station_id":"ce4bhbh2rcd13ifvqeqg","pricing_plan_id":"cebpf4jnsgd1na2vs0mg"},{"bike_id":"83fd4ad5-cf55-4ca3-8f23-447491946de7","system_id":"levelo_inurba_marseille","lat":43.29228,"lon":5.36059,"is_reserved":false,"is_disabled":false,"rental_uris":{"android":"levelo://app?vid=83fd4ad5-cf55-4ca3-8f23-447491946de7","ios":"levelo://app?vid=83fd4ad5-cf55-4ca3-8f23-447491946de7"},"vehicle_type_id":"4","last_reported":1752228718,"current_range_meters":9200,"station_id":"ce4bhbh2rcd13ifvqeqg","pricing_plan_id":"cebpf4jnsgd1na2vs0mg"},{"bike_id":"e204274b-73ad-4c6f-862d-8af730ce2e2b","system_id":"levelo_inurba_marseille","lat":43.29583,"lon":5.42285,"is_reserved":false,"is_disabled":false,"rental_uris":{"android":"levelo://app?vid=e204274b-73ad-4c6f-862d-8af730ce2e2b","ios":"levelo://app?vid=e204274b-73ad-4c6f-862d-8af730ce2e2b"},"vehicle_type_id":"4","last_reported":1752228718,"current_range_meters":9200,"station_id":"ce4bhph2rcd13ifvqhdg","pricing_plan_id":"cebpf4jnsgd1na2vs0mg"},{"bike_id":"c86f0c56-b5b6-486a-87ad-4f4cbcbb8a65","system_id":"levelo_inurba_marseille","lat":43.30463,"lon":5.37908,"is_reserved":false,"is_disabled":false,"rental_uris":{"android":"levelo://app?vid=c86f0c56-b5b6-486a-87ad-4f4cbcbb8a65","ios":"levelo://app?vid=c86f0c56-b5b6-486a-87ad-4f4cbcbb8a65"},"vehicle_type_id":"4","last_reported":1752228718,"current_range_meters":9600,"station_id":"ce4bgup2rcd13ifvqcn0","pricing_plan_id":"cebpf4jnsgd1na2vs0mg"},{"bike_id":"7e84151e-c609-4bbf-a5ee-7374d779e87d","system_id":"levelo_inurba_marseille","lat":43.23962,"lon":5.36627,"is_reserved":false,"is_disabled":false,"rental_uris":{"android":"levelo://app?vid=7e84151e-c609-4bbf-a5ee-7374d779e87d","ios":"levelo://app?vid=7e84151e-c609-4bbf-a5ee-7374d779e87d"},"vehicle_type_id":"4","last_reported":1752228718,"current_range_meters":9600,"station_id":"ce4bhi12rcd13ifvqfp0","pricing_plan_id":"cebpf4jnsgd1na2vs0mg"},{"bike_id":"40a99723-c87a-4bf9-9b22-a3fc2f47bf5a","system_id":"levelo_inurba_marseille","lat":43.27995,"lon":5.4001,"is_reserved":false,"is_disabled":false,"rental_uris":{"android":"levelo://app?vid=40a99723-c87a-4bf9-9b22-a3fc2f47bf5a","ios":"levelo://app?vid=40a99723-c87a-4bf9-9b22-a3fc2f47bf5a"},"vehicle_type_id":"4","last_reported":1752228718,"current_range_meters":10000,"station_id":"ce4bho92rcd13ifvqh4g","pricing_plan_id":"cebpf4jnsgd1na2vs0mg"},{"bike_id":"ddb9be4f-f3f8-43f9-aa75-a62ae12dac83","system_id":"levelo_inurba_marseille","lat":43.29041,"lon":5.39925,"is_reserved":false,"is_disabled":false,"rental_uris":{"android":"levelo://app?vid=ddb9be4f-f3f8-43f9-aa75-a62ae12dac83","ios":"levelo://app?vid=ddb9be4f-f3f8-43f9-aa75-a62ae12dac83"},"vehicle_type_id":"4","last_reported":1752228718,"current_range_meters":10000,"station_id":"ce4bh392rcd13ifvqdm0","pricing_plan_id":"cebpf4jnsgd1na2vs0mg"},{"bike_id":"6fa0df8f-9ff1-40c3-a15b-344b5a0d383b","system_id":"levelo_inurba_marseille","lat":43.32355,"lon":5.36831,"is_reserved":false,"is_disabled":false,"rental_uris":{"android":"levelo://app?vid=6fa0df8f-9ff1-40c3-a15b-344b5a0d383b","ios":"levelo://app?vid=6fa0df8f-9ff1-40c3-a15b-344b5a0d383b"},"vehicle_type_id":"4","last_reported":1752228718,"current_range_meters":10000,"station_id":"","pricing_plan_id":"cebpf4jnsgd1na2vs0mg"},{"bike_id":"ea7f713a-f8eb-4f16-8168-36d2161084e8","system_id":"levelo_inurba_marseille","lat":43.27859,"lon":5.39492,"is_reserved":false,"is_disabled":false,"rental_uris":{"android":"levelo://app?vid=ea7f713a-f8eb-4f16-8168-36d2161084e8","ios":"levelo://app?vid=ea7f713a-f8eb-4f16-8168-36d2161084e8"},"vehicle_type_id":"4","last_reported":1752228718,"current_range_meters":10000,"station_id":"","pricing_plan_id":"cebpf4jnsgd1na2vs0mg"},{"bike_id":"9585b528-e396-45d7-98d8-45a7d6faba11","system_id":"levelo_inurba_marseille","lat":43.295284,"lon":5.385398,"is_reserved":false,"is_disabled":false,"rental_uris":{"android":"levelo://app?vid=9585b528-e396-45d7-98d8-45a7d6faba11","ios":"levelo://app?vid=9585b528-e396-45d7-98d8-45a7d6faba11"},"vehicle_type_id":"4","last_reported":1752228718,"current_range_meters":10000,"station_id":"ce4bgih2rcd13ifvqba0","pricing_plan_id":"cebpf4jnsgd1na2vs0mg"},{"bike_id":"73fe94e8-74f9-41f0-85e9-7d8c52adf2fc","system_id":"levelo_inurba_marseille","lat":43.21269,"lon":5.35266,"is_reserved":false,"is_disabled":false,"rental_uris":{"android":"levelo://app?vid=73fe94e8-74f9-41f0-85e9-7d8c52adf2fc","ios":"levelo://app?vid=73fe94e8-74f9-41f0-85e9-7d8c52adf2fc"},"vehicle_type_id":"4","last_reported":1752228718,"current_range_meters":10800,"station_id":"","pricing_plan_id":"cebpf4jnsgd1na2vs0mg"},{"bike_id":"f373e4a8-33e3-4f72-ae8e-e7ab386910f4","system_id":"levelo_inurba_marseille","lat":43.22509,"lon":5.34776,"is_reserved":false,"is_disabled":false,"rental_uris":{"android":"levelo://app?vid=f373e4a8-33e3-4f72-ae8e-e7ab386910f4","ios":"levelo://app?vid=f373e4a8-33e3-4f72-ae8e-e7ab386910f4"},"vehicle_type_id":"4","last_reported":1752228718,"current_range_meters":10800,"station_id":"st_cvj5dfep6f1abm77gieg","pricing_plan_id":"cebpf4jnsgd1na2vs0mg"},{"bike_id":"77a895c0-f47c-4ec3-a855-a3289edee2ca","system_id":"levelo_inurba_marseille","lat":43.278448,"lon":5.39188,"is_reserved":false,"is_disabled":true,"rental_uris":{"android":"levelo://app?vid=77a895c0-f47c-4ec3-a855-a3289edee2ca","ios":"levelo://app?vid=77a895c0-f47c-4ec3-a855-a3289edee2ca"},"vehicle_type_id":"4","last_reported":1752228718,"current_range_meters":10800,"station_id":"ce4bhjp2rcd13ifvqga0","pricing_plan_id":"cebpf4jnsgd1na2vs0mg"},{"bike_id":"7c2d071d-3793-47df-b931-9d1ad060c48c","system_id":"levelo_inurba_marseille","lat":43.29565,"lon":5.4227,"is_reserved":false,"is_disabled":false,"rental_uris":{"android":"levelo://app?vid=7c2d071d-3793-47df-b931-9d1ad060c48c","ios":"levelo://app?vid=7c2d071d-3793-47df-b931-9d1ad060c48c"},"vehicle_type_id":"4","last_reported":1752228718,"current_range_meters":10800,"station_id":"ce4bhph2rcd13ifvqhdg","pricing_plan_id":"cebpf4jnsgd1na2vs0mg"},{"bike_id":"b3d60eb0-7aa4-4c31-880d-886f21433e0c","system_id":"levelo_inurba_marseille","lat":43.31698,"lon":5.40481,"is_reserved":false,"is_disabled":false,"rental_uris":{"android":"levelo://app?vid=b3d60eb0-7aa4-4c31-880d-886f21433e0c","ios":"levelo://app?vid=b3d60eb0-7aa4-4c31-880d-886f21433e0c"},"vehicle_type_id":"4","last_reported":1752228718,"current_range_meters":10800,"station_id":"ce4bh012rcd13ifvqd00","pricing_plan_id":"cebpf4jnsgd1na2vs0mg"},{"bike_id":"95ed45be-0cbe-4ada-ab9b-3d6fe6e0c22e","system_id":"levelo_inurba_marseille","lat":43.27618,"lon":5.36113,"is_reserved":false,"is_disabled":true,"rental_uris":{"android":"levelo://app?vid=95ed45be-0cbe-4ada-ab9b-3d6fe6e0c22e","ios":"levelo://app?vid=95ed45be-0cbe-4ada-ab9b-3d6fe6e0c22e"},"vehicle_type_id":"4","last_reported":1752228718,"current_range_meters":10800,"station_id":"ce4bgj92rcd13ifvqbe0","pricing_plan_id":"cebpf4jnsgd1na2vs0mg"},{"bike_id":"0252171e-c9fe-4986-96ae-3b0b1088d0b7","system_id":"levelo_inurba_marseille","lat":43.26548,"lon":5.37291,"is_reserved":false,"is_disabled":false,"rental_uris":{"android":"levelo://app?vid=0252171e-c9fe-4986-96ae-3b0b1088d0b7","ios":"levelo://app?vid=0252171e-c9fe-4986-96ae-3b0b1088d0b7"},"vehicle_type_id":"4","last_reported":1752228718,"current_range_meters":11200,"station_id":"ce4bhg12rcd13ifvqf70","pricing_plan_id":"cebpf4jnsgd1na2vs0mg"},{"bike_id":"2892c59b-e1f7-4d16-baa4-2c49420c8688","system_id":"levelo_inurba_marseille","lat":43.28432,"lon":5.35011,"is_reserved":false,"is_disabled":false,"rental_uris":{"android":"levelo://app?vid=2892c59b-e1f7-4d16-baa4-2c49420c8688","ios":"levelo://app?vid=2892c59b-e1f7-4d16-baa4-2c49420c8688"},"vehicle_type_id":"4","last_reported":1752228718,"current_range_meters":11200,"station_id":"ce4bhbh2rcd13ifvqepg","pricing_plan_id":"cebpf4jnsgd1na2vs0mg"},{"bike_id":"9f5e74ce-2459-4c6f-a171-f6d1e8a1ed83","system_id":"levelo_inurba_marseille","lat":43.31852,"lon":5.3757,"is_reserved":false,"is_disabled":false,"rental_uris":{"android":"levelo://app?vid=9f5e74ce-2459-4c6f-a171-f6d1e8a1ed83","ios":"levelo://app?vid=9f5e74ce-2459-4c6f-a171-f6d1e8a1ed83"},"vehicle_type_id":"4","last_reported":1752228718,"current_range_meters":11200,"station_id":"","pricing_plan_id":"cebpf4jnsgd1na2vs0mg"},{"bike_id":"e8ce8de4-2a03-4969-bc41-ff891c625e9a","system_id":"levelo_inurba_marseille","lat":43.273724,"lon":5.362505,"is_reserved":false,"is_disabled":false,"rental_uris":{"android":"levelo://app?vid=e8ce8de4-2a03-4969-bc41-ff891c625e9a","ios":"levelo://app?vid=e8ce8de4-2a03-4969-bc41-ff891c625e9a"},"vehicle_type_id":"4","last_reported":1752228718,"current_range_meters":11200,"station_id":"ce4bhbh2rcd13ifvqeo0","pricing_plan_id":"cebpf4jnsgd1na2vs0mg"},{"bike_id":"4e209b0c-855f-4b51-8120-2faef8673853","system_id":"levelo_inurba_marseille","lat":43.30603,"lon":5.3688,"is_reserved":false,"is_disabled":false,"rental_uris":{"android":"levelo://app?vid=4e209b0c-855f-4b51-8120-2faef8673853","ios":"levelo://app?vid=4e209b0c-855f-4b51-8120-2faef8673853"},"vehicle_type_id":"4","last_reported":1752228718,"current_range_meters":11200,"station_id":"","pricing_plan_id":"cebpf4jnsgd1na2vs0mg"},{"bike_id":"d0f4a28b-80f4-4968-b5c1-a85bbc558079","system_id":"levelo_inurba_marseille","lat":43.31695,"lon":5.40438,"is_reserved":false,"is_disabled":false,"rental_uris":{"android":"levelo://app?vid=d0f4a28b-80f4-4968-b5c1-a85bbc558079","ios":"levelo://app?vid=d0f4a28b-80f4-4968-b5c1-a85bbc558079"},"vehicle_type_id":"4","last_reported":1752228718,"current_range_meters":11600,"station_id":"ce4bh012rcd13ifvqd00","pricing_plan_id":"cebpf4jnsgd1na2vs0mg"},{"bike_id":"5a7b57ef-a00d-4d19-853c-d49c119db95f","system_id":"levelo_inurba_marseille","lat":43.24566,"lon":5.3734,"is_reserved":false,"is_disabled":false,"rental_uris":{"android":"levelo://app?vid=5a7b57ef-a00d-4d19-853c-d49c119db95f","ios":"levelo://app?vid=5a7b57ef-a00d-4d19-853c-d49c119db95f"},"vehicle_type_id":"4","last_reported":1752228718,"current_range_meters":12000,"station_id":"","pricing_plan_id":"cebpf4jnsgd1na2vs0mg"},{"bike_id":"969c6445-1ed7-4d78-905b-45ce291752b7","system_id":"levelo_inurba_marseille","lat":43.239974,"lon":5.366474,"is_reserved":false,"is_disabled":false,"rental_uris":{"android":"levelo://app?vid=969c6445-1ed7-4d78-905b-45ce291752b7","ios":"levelo://app?vid=969c6445-1ed7-4d78-905b-45ce291752b7"},"vehicle_type_id":"4","last_reported":1752228718,"current_range_meters":12000,"station_id":"ce4bhi12rcd13ifvqfp0","pricing_plan_id":"cebpf4jnsgd1na2vs0mg"},{"bike_id":"52ded562-124e-46e9-8eee-59b1479b9e35","system_id":"levelo_inurba_marseille","lat":43.3248,"lon":5.36554,"is_reserved":false,"is_disabled":false,"rental_uris":{"android":"levelo://app?vid=52ded562-124e-46e9-8eee-59b1479b9e35","ios":"levelo://app?vid=52ded562-124e-46e9-8eee-59b1479b9e35"},"vehicle_type_id":"4","last_reported":1752228718,"current_range_meters":12000,"station_id":"ce4bhs12rcd13ifvqhvg","pricing_plan_id":"cebpf4jnsgd1na2vs0mg"},{"bike_id":"75cb8d37-599c-4257-bd21-faa2d5cd55e4","system_id":"levelo_inurba_marseille","lat":43.287202,"lon":5.360763,"is_reserved":false,"is_disabled":false,"rental_uris":{"android":"levelo://app?vid=75cb8d37-599c-4257-bd21-faa2d5cd55e4","ios":"levelo://app?vid=75cb8d37-599c-4257-bd21-faa2d5cd55e4"},"vehicle_type_id":"4","last_reported":1752228718,"current_range_meters":12000,"station_id":"cki0cbj6b192h4jlfktg","pricing_plan_id":"cebpf4jnsgd1na2vs0mg"},{"bike_id":"2bb19287-b361-45a8-909f-b4442416b598","system_id":"levelo_inurba_marseille","lat":43.292,"lon":5.35796,"is_reserved":false,"is_disabled":false,"rental_uris":{"android":"levelo://app?vid=2bb19287-b361-45a8-909f-b4442416b598","ios":"levelo://app?vid=2bb19287-b361-45a8-909f-b4442416b598"},"vehicle_type_id":"4","last_reported":1752228718,"current_range_meters":12000,"station_id":"ce4bhb12rcd13ifvqel0","pricing_plan_id":"cebpf4jnsgd1na2vs0mg"},{"bike_id":"fa87fcb5-aacb-41a1-a789-0296bbd02085","system_id":"levelo_inurba_marseille","lat":43.24592,"lon":5.37377,"is_reserved":false,"is_disabled":false,"rental_uris":{"android":"levelo://app?vid=fa87fcb5-aacb-41a1-a789-0296bbd02085","ios":"levelo://app?vid=fa87fcb5-aacb-41a1-a789-0296bbd02085"},"vehicle_type_id":"4","last_reported":1752228718,"current_range_meters":12000,"station_id":"","pricing_plan_id":"cebpf4jnsgd1na2vs0mg"},{"bike_id":"1830d799-57e9-4ec2-b486-66d995653d72","system_id":"levelo_inurba_marseille","lat":43.29581,"lon":5.38215,"is_reserved":false,"is_disabled":false,"rental_uris":{"android":"levelo://app?vid=1830d799-57e9-4ec2-b486-66d995653d72","ios":"levelo://app?vid=1830d799-57e9-4ec2-b486-66d995653d72"},"vehicle_type_id":"4","last_reported":1752228718,"current_range_meters":12000,"station_id":"","pricing_plan_id":"cebpf4jnsgd1na2vs0mg"},{"bike_id":"a086063c-8319-4212-8505-feb788fe148e","system_id":"levelo_inurba_marseille","lat":43.28264,"lon":5.35073,"is_reserved":false,"is_disabled":false,"rental_uris":{"android":"levelo://app?vid=a086063c-8319-4212-8505-feb788fe148e","ios":"levelo://app?vid=a086063c-8319-4212-8505-feb788fe148e"},"vehicle_type_id":"4","last_reported":1752228718,"current_range_meters":12000,"station_id":"ce4bhbp2rcd13ifvqerg","pricing_plan_id":"cebpf4jnsgd1na2vs0mg"},{"bike_id":"f0dd4e65-2061-414d-9a9d-f00947f0a126","system_id":"levelo_inurba_marseille","lat":43.29957,"lon":5.4132,"is_reserved":false,"is_disabled":false,"rental_uris":{"android":"levelo://app?vid=f0dd4e65-2061-414d-9a9d-f00947f0a126","ios":"levelo://app?vid=f0dd4e65-2061-414d-9a9d-f00947f0a126"},"vehicle_type_id":"4","last_reported":1752228718,"current_range_meters":12000,"station_id":"ce4bhp12rcd13ifvqh9g","pricing_plan_id":"cebpf4jnsgd1na2vs0mg"},{"bike_id":"8330a68f-2f6e-4337-9657-35d7d87c04ca","system_id":"levelo_inurba_marseille","lat":43.25451,"lon":5.37946,"is_reserved":false,"is_disabled":false,"rental_uris":{"android":"levelo://app?vid=8330a68f-2f6e-4337-9657-35d7d87c04ca","ios":"levelo://app?vid=8330a68f-2f6e-4337-9657-35d7d87c04ca"},"vehicle_type_id":"4","last_reported":1752228718,"current_range_meters":12400,"station_id":"","pricing_plan_id":"cebpf4jnsgd1na2vs0mg"},{"bike_id":"ee1ac907-8623-4d00-ac01-d41dd90be9fe","system_id":"levelo_inurba_marseille","lat":43.21191,"lon":5.35104,"is_reserved":false,"is_disabled":false,"rental_uris":{"android":"levelo://app?vid=ee1ac907-8623-4d00-ac01-d41dd90be9fe","ios":"levelo://app?vid=ee1ac907-8623-4d00-ac01-d41dd90be9fe"},"vehicle_type_id":"4","last_reported":1752228718,"current_range_meters":12400,"station_id":"st_cvj6sg6p6f1abm77japg","pricing_plan_id":"cebpf4jnsgd1na2vs0mg"},{"bike_id":"433927e4-40a7-44fe-b6da-5ea9ace87f1b","system_id":"levelo_inurba_marseille","lat":43.30538,"lon":5.36556,"is_reserved":false,"is_disabled":false,"rental_uris":{"android":"levelo://app?vid=433927e4-40a7-44fe-b6da-5ea9ace87f1b","ios":"levelo://app?vid=433927e4-40a7-44fe-b6da-5ea9ace87f1b"},"vehicle_type_id":"4","last_reported":1752228718,"current_range_meters":12800,"station_id":"ce4bgs12rcd13ifvqcag","pricing_plan_id":"cebpf4jnsgd1na2vs0mg"},{"bike_id":"9a38b8ae-de57-4388-9942-2cd602d3a5ea","system_id":"levelo_inurba_marseille","lat":43.29554,"lon":5.4228,"is_reserved":false,"is_disabled":false,"rental_uris":{"android":"levelo://app?vid=9a38b8ae-de57-4388-9942-2cd602d3a5ea","ios":"levelo://app?vid=9a38b8ae-de57-4388-9942-2cd602d3a5ea"},"vehicle_type_id":"4","last_reported":1752228718,"current_range_meters":12800,"station_id":"ce4bhph2rcd13ifvqhdg","pricing_plan_id":"cebpf4jnsgd1na2vs0mg"},{"bike_id":"24b17f7b-dff1-4936-b27a-7c2c6813a894","system_id":"levelo_inurba_marseille","lat":43.24579,"lon":5.37377,"is_reserved":false,"is_disabled":false,"rental_uris":{"android":"levelo://app?vid=24b17f7b-dff1-4936-b27a-7c2c6813a894","ios":"levelo://app?vid=24b17f7b-dff1-4936-b27a-7c2c6813a894"},"vehicle_type_id":"4","last_reported":1752228718,"current_range_meters":12800,"station_id":"","pricing_plan_id":"cebpf4jnsgd1na2vs0mg"},{"bike_id":"6447aef8-ff90-4ad1-a31b-85fba04a6025","system_id":"levelo_inurba_marseille","lat":43.286087,"lon":5.351031,"is_reserved":false,"is_disabled":false,"rental_uris":{"android":"levelo://app?vid=6447aef8-ff90-4ad1-a31b-85fba04a6025","ios":"levelo://app?vid=6447aef8-ff90-4ad1-a31b-85fba04a6025"},"vehicle_type_id":"4","last_reported":1752228718,"current_range_meters":12800,"station_id":"ce4bhch2rcd13ifvqeug","pricing_plan_id":"cebpf4jnsgd1na2vs0mg"},{"bike_id":"8f89e4f3-495a-4317-bd6d-37a19186d65b","system_id":"levelo_inurba_marseille","lat":43.33719,"lon":5.39204,"is_reserved":false,"is_disabled":false,"rental_uris":{"android":"levelo://app?vid=8f89e4f3-495a-4317-bd6d-37a19186d65b","ios":"levelo://app?vid=8f89e4f3-495a-4317-bd6d-37a19186d65b"},"vehicle_type_id":"4","last_reported":1752228718,"current_range_meters":13600,"station_id":"ce4bhr92rcd13ifvqhsg","pricing_plan_id":"cebpf4jnsgd1na2vs0mg"},{"bike_id":"c3c5b26c-e834-4db6-994b-52abb31f20f1","system_id":"levelo_inurba_marseille","lat":43.24079,"lon":5.37764,"is_reserved":false,"is_disabled":false,"rental_uris":{"android":"levelo://app?vid=c3c5b26c-e834-4db6-994b-52abb31f20f1","ios":"levelo://app?vid=c3c5b26c-e834-4db6-994b-52abb31f20f1"},"vehicle_type_id":"4","last_reported":1752228718,"current_range_meters":14000,"station_id":"ce4bhnp2rcd13ifvqgvg","pricing_plan_id":"cebpf4jnsgd1na2vs0mg"},{"bike_id":"2c702aa4-2ac5-4550-b697-5b3cdcd314b3","system_id":"levelo_inurba_marseille","lat":43.32041,"lon":5.4161,"is_reserved":false,"is_disabled":false,"rental_uris":{"android":"levelo://app?vid=2c702aa4-2ac5-4550-b697-5b3cdcd314b3","ios":"levelo://app?vid=2c702aa4-2ac5-4550-b697-5b3cdcd314b3"},"vehicle_type_id":"4","last_reported":1752228718,"current_range_meters":14000,"station_id":"ce4bhq92rcd13ifvqhkg","pricing_plan_id":"cebpf4jnsgd1na2vs0mg"},{"bike_id":"602d0666-ff20-416c-a27c-b7d143dca28d","system_id":"levelo_inurba_marseille","lat":43.30547,"lon":5.36545,"is_reserved":false,"is_disabled":false,"rental_uris":{"android":"levelo://app?vid=602d0666-ff20-416c-a27c-b7d143dca28d","ios":"levelo://app?vid=602d0666-ff20-416c-a27c-b7d143dca28d"},"vehicle_type_id":"4","last_reported":1752228718,"current_range_meters":14000,"station_id":"ce4bgs12rcd13ifvqcag","pricing_plan_id":"cebpf4jnsgd1na2vs0mg"},{"bike_id":"e16b6c04-3994-4476-9af0-9084b67d8f63","system_id":"levelo_inurba_marseille","lat":43.31224,"lon":5.36821,"is_reserved":false,"is_disabled":false,"rental_uris":{"android":"levelo://app?vid=e16b6c04-3994-4476-9af0-9084b67d8f63","ios":"levelo://app?vid=e16b6c04-3994-4476-9af0-9084b67d8f63"},"vehicle_type_id":"4","last_reported":1752228718,"current_range_meters":14400,"station_id":"ce4bgl92rcd13ifvqbq0","pricing_plan_id":"cebpf4jnsgd1na2vs0mg"},{"bike_id":"6994c34f-7b9e-4588-9c5d-f80e030067a1","system_id":"levelo_inurba_marseille","lat":43.32362,"lon":5.38877,"is_reserved":false,"is_disabled":false,"rental_uris":{"android":"levelo://app?vid=6994c34f-7b9e-4588-9c5d-f80e030067a1","ios":"levelo://app?vid=6994c34f-7b9e-4588-9c5d-f80e030067a1"},"vehicle_type_id":"4","last_reported":1752228718,"current_range_meters":14400,"station_id":"ce4bhqp2rcd13ifvqhog","pricing_plan_id":"cebpf4jnsgd1na2vs0mg"},{"bike_id":"d849a247-c2c0-4619-bac8-f5a6994e0014","system_id":"levelo_inurba_marseille","lat":43.320359,"lon":5.415809,"is_reserved":false,"is_disabled":true,"rental_uris":{"android":"levelo://app?vid=d849a247-c2c0-4619-bac8-f5a6994e0014","ios":"levelo://app?vid=d849a247-c2c0-4619-bac8-f5a6994e0014"},"vehicle_type_id":"4","last_reported":1752228718,"current_range_meters":14400,"station_id":"ce4bhq92rcd13ifvqhkg","pricing_plan_id":"cebpf4jnsgd1na2vs0mg"},{"bike_id":"28af174f-38f1-40d8-8b63-02a55c810b01","system_id":"levelo_inurba_marseille","lat":43.30589,"lon":5.39347,"is_reserved":false,"is_disabled":false,"rental_uris":{"android":"levelo://app?vid=28af174f-38f1-40d8-8b63-02a55c810b01","ios":"levelo://app?vid=28af174f-38f1-40d8-8b63-02a55c810b01"},"vehicle_type_id":"4","last_reported":1752228718,"current_range_meters":14400,"station_id":"ce4bh0p2rcd13ifvqd80","pricing_plan_id":"cebpf4jnsgd1na2vs0mg"},{"bike_id":"46300fd1-5629-472c-937f-7ade2b5ae82a","system_id":"levelo_inurba_marseille","lat":43.27809,"lon":5.40704,"is_reserved":false,"is_disabled":false,"rental_uris":{"android":"levelo://app?vid=46300fd1-5629-472c-937f-7ade2b5ae82a","ios":"levelo://app?vid=46300fd1-5629-472c-937f-7ade2b5ae82a"},"vehicle_type_id":"4","last_reported":1752228718,"current_range_meters":14400,"station_id":"ce4bhnh2rcd13ifvqgtg","pricing_plan_id":"cebpf4jnsgd1na2vs0mg"},{"bike_id":"d263de9c-115f-417f-977b-8d0ef8cd06ed","system_id":"levelo_inurba_marseille","lat":43.30539,"lon":5.36702,"is_reserved":false,"is_disabled":false,"rental_uris":{"android":"levelo://app?vid=d263de9c-115f-417f-977b-8d0ef8cd06ed","ios":"levelo://app?vid=d263de9c-115f-417f-977b-8d0ef8cd06ed"},"vehicle_type_id":"4","last_reported":1752228718,"current_range_meters":14800,"station_id":"ce4bh312rcd13ifvqdj0","pricing_plan_id":"cebpf4jnsgd1na2vs0mg"},{"bike_id":"4d4b9e28-a4f6-4d45-ac6b-64a63a768bd8","system_id":"levelo_inurba_marseille","lat":43.31509,"lon":5.37411,"is_reserved":false,"is_disabled":false,"rental_uris":{"android":"levelo://app?vid=4d4b9e28-a4f6-4d45-ac6b-64a63a768bd8","ios":"levelo://app?vid=4d4b9e28-a4f6-4d45-ac6b-64a63a768bd8"},"vehicle_type_id":"4","last_reported":1752228718,"current_range_meters":14800,"station_id":"","pricing_plan_id":"cebpf4jnsgd1na2vs0mg"},{"bike_id":"595e9351-a7ce-45de-8995-771f7d9fe86e","system_id":"levelo_inurba_marseille","lat":43.309243,"lon":5.378088,"is_reserved":false,"is_disabled":false,"rental_uris":{"android":"levelo://app?vid=595e9351-a7ce-45de-8995-771f7d9fe86e","ios":"levelo://app?vid=595e9351-a7ce-45de-8995-771f7d9fe86e"},"vehicle_type_id":"4","last_reported":1752228718,"current_range_meters":14800,"station_id":"","pricing_plan_id":"cebpf4jnsgd1na2vs0mg"},{"bike_id":"6e44525d-ed45-445a-a877-081b94eb5813","system_id":"levelo_inurba_marseille","lat":43.30375,"lon":5.41832,"is_reserved":false,"is_disabled":true,"rental_uris":{"android":"levelo://app?vid=6e44525d-ed45-445a-a877-081b94eb5813","ios":"levelo://app?vid=6e44525d-ed45-445a-a877-081b94eb5813"},"vehicle_type_id":"4","last_reported":1752228718,"current_range_meters":14800,"station_id":"ce4bhop2rcd13ifvqh7g","pricing_plan_id":"cebpf4jnsgd1na2vs0mg"},{"bike_id":"b2744915-51cf-4d6c-a617-6a8720cef808","system_id":"levelo_inurba_marseille","lat":43.25931,"lon":5.40878,"is_reserved":false,"is_disabled":false,"rental_uris":{"android":"levelo://app?vid=b2744915-51cf-4d6c-a617-6a8720cef808","ios":"levelo://app?vid=b2744915-51cf-4d6c-a617-6a8720cef808"},"vehicle_type_id":"4","last_reported":1752228718,"current_range_meters":14800,"station_id":"ce4bhm92rcd13ifvqglg","pricing_plan_id":"cebpf4jnsgd1na2vs0mg"},{"bike_id":"c6a80404-0b82-4bac-a58d-0caa47987300","system_id":"levelo_inurba_marseille","lat":43.30131,"lon":5.37425,"is_reserved":false,"is_disabled":false,"rental_uris":{"android":"levelo://app?vid=c6a80404-0b82-4bac-a58d-0caa47987300","ios":"levelo://app?vid=c6a80404-0b82-4bac-a58d-0caa47987300"},"vehicle_type_id":"4","last_reported":1752228718,"current_range_meters":14800,"station_id":"ce4bgs92rcd13ifvqcc0","pricing_plan_id":"cebpf4jnsgd1na2vs0mg"},{"bike_id":"c7fa7c2d-e78f-472c-9ae0-fac80b2fa10e","system_id":"levelo_inurba_marseille","lat":43.294147,"lon":5.386272,"is_reserved":false,"is_disabled":false,"rental_uris":{"android":"levelo://app?vid=c7fa7c2d-e78f-472c-9ae0-fac80b2fa10e","ios":"levelo://app?vid=c7fa7c2d-e78f-472c-9ae0-fac80b2fa10e"},"vehicle_type_id":"4","last_reported":1752228718,"current_range_meters":15200,"station_id":"ce4bh2h2rcd13ifvqdh0","pricing_plan_id":"cebpf4jnsgd1na2vs0mg"},{"bike_id":"cab820d9-ce4c-4ec5-b20c-1a247c21af93","system_id":"levelo_inurba_marseille","lat":43.26568,"lon":5.39006,"is_reserved":false,"is_disabled":false,"rental_uris":{"android":"levelo://app?vid=cab820d9-ce4c-4ec5-b20c-1a247c21af93","ios":"levelo://app?vid=cab820d9-ce4c-4ec5-b20c-1a247c21af93"},"vehicle_type_id":"4","last_reported":1752228718,"current_range_meters":15200,"station_id":"ce4bhe12rcd13ifvqf30","pricing_plan_id":"cebpf4jnsgd1na2vs0mg"},{"bike_id":"36fe32df-464c-4ea4-97c6-2b8f05b97098","system_id":"levelo_inurba_marseille","lat":43.28855,"lon":5.39297,"is_reserved":false,"is_disabled":false,"rental_uris":{"android":"levelo://app?vid=36fe32df-464c-4ea4-97c6-2b8f05b97098","ios":"levelo://app?vid=36fe32df-464c-4ea4-97c6-2b8f05b97098"},"vehicle_type_id":"4","last_reported":1752228718,"current_range_meters":15200,"station_id":"ce4bh2p2rcd13ifvqdi0","pricing_plan_id":"cebpf4jnsgd1na2vs0mg"},{"bike_id":"5423e7d5-07f9-4264-9d42-219884898d7f","system_id":"levelo_inurba_marseille","lat":43.24167,"lon":5.36461,"is_reserved":false,"is_disabled":false,"rental_uris":{"android":"levelo://app?vid=5423e7d5-07f9-4264-9d42-219884898d7f","ios":"levelo://app?vid=5423e7d5-07f9-4264-9d42-219884898d7f"},"vehicle_type_id":"4","last_reported":1752228718,"current_range_meters":15200,"station_id":"cpo36qri1sfpv3e86is0","pricing_plan_id":"cebpf4jnsgd1na2vs0mg"},{"bike_id":"544ec108-796d-413d-8a7c-7e4ffa805fe3","system_id":"levelo_inurba_marseille","lat":43.2733,"lon":5.39284,"is_reserved":false,"is_disabled":false,"rental_uris":{"android":"levelo://app?vid=544ec108-796d-413d-8a7c-7e4ffa805fe3","ios":"levelo://app?vid=544ec108-796d-413d-8a7c-7e4ffa805fe3"},"vehicle_type_id":"4","last_reported":1752228718,"current_range_meters":15200,"station_id":"","pricing_plan_id":"cebpf4jnsgd1na2vs0mg"},{"bike_id":"e3a75ee9-c614-467b-8cc2-f813bcef2ab1","system_id":"levelo_inurba_marseille","lat":43.33743,"lon":5.3919,"is_reserved":false,"is_disabled":false,"rental_uris":{"android":"levelo://app?vid=e3a75ee9-c614-467b-8cc2-f813bcef2ab1","ios":"levelo://app?vid=e3a75ee9-c614-467b-8cc2-f813bcef2ab1"},"vehicle_type_id":"4","last_reported":1752228718,"current_range_meters":15200,"station_id":"ce4bhr92rcd13ifvqhsg","pricing_plan_id":"cebpf4jnsgd1na2vs0mg"},{"bike_id":"a12604ab-dd3a-420d-aba7-8c60ec3f799f","system_id":"levelo_inurba_marseille","lat":43.28419,"lon":5.34969,"is_reserved":false,"is_disabled":false,"rental_uris":{"android":"levelo://app?vid=a12604ab-dd3a-420d-aba7-8c60ec3f799f","ios":"levelo://app?vid=a12604ab-dd3a-420d-aba7-8c60ec3f799f"},"vehicle_type_id":"4","last_reported":1752228718,"current_range_meters":15200,"station_id":"ce4bhbh2rcd13ifvqepg","pricing_plan_id":"cebpf4jnsgd1na2vs0mg"},{"bike_id":"184e2297-eded-4566-a165-0bfc47cfc547","system_id":"levelo_inurba_marseille","lat":43.301461,"lon":5.380824,"is_reserved":false,"is_disabled":false,"rental_uris":{"android":"levelo://app?vid=184e2297-eded-4566-a165-0bfc47cfc547","ios":"levelo://app?vid=184e2297-eded-4566-a165-0bfc47cfc547"},"vehicle_type_id":"4","last_reported":1752228718,"current_range_meters":15200,"station_id":"ce4bgjp2rcd13ifvqbh0","pricing_plan_id":"cebpf4jnsgd1na2vs0mg"},{"bike_id":"530fdaa0-3dcf-48bd-ae6d-18f67ca1c283","system_id":"levelo_inurba_marseille","lat":43.297111,"lon":5.366155,"is_reserved":false,"is_disabled":false,"rental_uris":{"android":"levelo://app?vid=530fdaa0-3dcf-48bd-ae6d-18f67ca1c283","ios":"levelo://app?vid=530fdaa0-3dcf-48bd-ae6d-18f67ca1c283"},"vehicle_type_id":"4","last_reported":1752228718,"current_range_meters":16000,"station_id":"","pricing_plan_id":"cebpf4jnsgd1na2vs0mg"},{"bike_id":"65516a12-86b1-4674-a81b-7c255b747901","system_id":"levelo_inurba_marseille","lat":43.32119,"lon":5.36804,"is_reserved":false,"is_disabled":false,"rental_uris":{"android":"levelo://app?vid=65516a12-86b1-4674-a81b-7c255b747901","ios":"levelo://app?vid=65516a12-86b1-4674-a81b-7c255b747901"},"vehicle_type_id":"4","last_reported":1752228718,"current_range_meters":16000,"station_id":"ce4bhrh2rcd13ifvqhug","pricing_plan_id":"cebpf4jnsgd1na2vs0mg"},{"bike_id":"7097363b-955f-4a5e-8ede-9bb14b7f1708","system_id":"levelo_inurba_marseille","lat":43.21192,"lon":5.35083,"is_reserved":false,"is_disabled":false,"rental_uris":{"android":"levelo://app?vid=7097363b-955f-4a5e-8ede-9bb14b7f1708","ios":"levelo://app?vid=7097363b-955f-4a5e-8ede-9bb14b7f1708"},"vehicle_type_id":"4","last_reported":1752228718,"current_range_meters":16000,"station_id":"st_cvj6sg6p6f1abm77japg","pricing_plan_id":"cebpf4jnsgd1na2vs0mg"},{"bike_id":"bd69f1e7-b901-41a0-b2c9-aee4bd027443","system_id":"levelo_inurba_marseille","lat":43.21181,"lon":5.3507,"is_reserved":false,"is_disabled":false,"rental_uris":{"android":"levelo://app?vid=bd69f1e7-b901-41a0-b2c9-aee4bd027443","ios":"levelo://app?vid=bd69f1e7-b901-41a0-b2c9-aee4bd027443"},"vehicle_type_id":"4","last_reported":1752228718,"current_range_meters":16000,"station_id":"st_cvj6sg6p6f1abm77japg","pricing_plan_id":"cebpf4jnsgd1na2vs0mg"},{"bike_id":"2f8a5f2d-3e40-49a3-af7d-3f339ed1b4f8","system_id":"levelo_inurba_marseille","lat":43.31697,"lon":5.37769,"is_reserved":false,"is_disabled":false,"rental_uris":{"android":"levelo://app?vid=2f8a5f2d-3e40-49a3-af7d-3f339ed1b4f8","ios":"levelo://app?vid=2f8a5f2d-3e40-49a3-af7d-3f339ed1b4f8"},"vehicle_type_id":"4","last_reported":1752228718,"current_range_meters":16000,"station_id":"ce4bgth2rcd13ifvqch0","pricing_plan_id":"cebpf4jnsgd1na2vs0mg"},{"bike_id":"b028bb3a-cf94-4441-b472-ccb65423fc59","system_id":"levelo_inurba_marseille","lat":43.23186,"lon":5.35533,"is_reserved":false,"is_disabled":false,"rental_uris":{"android":"levelo://app?vid=b028bb3a-cf94-4441-b472-ccb65423fc59","ios":"levelo://app?vid=b028bb3a-cf94-4441-b472-ccb65423fc59"},"vehicle_type_id":"4","last_reported":1752228718,"current_range_meters":16000,"station_id":"ce4bhu92rcd13ifvqi70","pricing_plan_id":"cebpf4jnsgd1na2vs0mg"},{"bike_id":"647a1903-1834-4730-b34e-6397917620f0","system_id":"levelo_inurba_marseille","lat":43.31674,"lon":5.37014,"is_reserved":false,"is_disabled":false,"rental_uris":{"android":"levelo://app?vid=647a1903-1834-4730-b34e-6397917620f0","ios":"levelo://app?vid=647a1903-1834-4730-b34e-6397917620f0"},"vehicle_type_id":"4","last_reported":1752228718,"current_range_meters":16400,"station_id":"","pricing_plan_id":"cebpf4jnsgd1na2vs0mg"},{"bike_id":"ecec5a70-47e2-4076-ac88-b63310387724","system_id":"levelo_inurba_marseille","lat":43.21746,"lon":5.34607,"is_reserved":false,"is_disabled":false,"rental_uris":{"android":"levelo://app?vid=ecec5a70-47e2-4076-ac88-b63310387724","ios":"levelo://app?vid=ecec5a70-47e2-4076-ac88-b63310387724"},"vehicle_type_id":"4","last_reported":1752228718,"current_range_meters":16400,"station_id":"st_cvj6r9ubvosntc0bgbag","pricing_plan_id":"cebpf4jnsgd1na2vs0mg"},{"bike_id":"20680127-388b-4c3d-826d-da1f8ee9afa9","system_id":"levelo_inurba_marseille","lat":43.3015,"lon":5.38084,"is_reserved":false,"is_disabled":false,"rental_uris":{"android":"levelo://app?vid=20680127-388b-4c3d-826d-da1f8ee9afa9","ios":"levelo://app?vid=20680127-388b-4c3d-826d-da1f8ee9afa9"},"vehicle_type_id":"4","last_reported":1752228718,"current_range_meters":16400,"station_id":"ce4bgjp2rcd13ifvqbh0","pricing_plan_id":"cebpf4jnsgd1na2vs0mg"},{"bike_id":"405dbd18-f6e1-4f7d-ab36-07194d21eec1","system_id":"levelo_inurba_marseille","lat":43.29199,"lon":5.358004,"is_reserved":false,"is_disabled":false,"rental_uris":{"android":"levelo://app?vid=405dbd18-f6e1-4f7d-ab36-07194d21eec1","ios":"levelo://app?vid=405dbd18-f6e1-4f7d-ab36-07194d21eec1"},"vehicle_type_id":"4","last_reported":1752228718,"current_range_meters":16400,"station_id":"","pricing_plan_id":"cebpf4jnsgd1na2vs0mg"},{"bike_id":"485e458e-2aaa-4260-b411-6909bcda375c","system_id":"levelo_inurba_marseille","lat":43.30508,"lon":5.36505,"is_reserved":false,"is_disabled":false,"rental_uris":{"android":"levelo://app?vid=485e458e-2aaa-4260-b411-6909bcda375c","ios":"levelo://app?vid=485e458e-2aaa-4260-b411-6909bcda375c"},"vehicle_type_id":"4","last_reported":1752228718,"current_range_meters":16400,"station_id":"","pricing_plan_id":"cebpf4jnsgd1na2vs0mg"},{"bike_id":"3c6e4553-abf9-4155-b89f-921082cec37f","system_id":"levelo_inurba_marseille","lat":43.27052,"lon":5.40301,"is_reserved":false,"is_disabled":false,"rental_uris":{"android":"levelo://app?vid=3c6e4553-abf9-4155-b89f-921082cec37f","ios":"levelo://app?vid=3c6e4553-abf9-4155-b89f-921082cec37f"},"vehicle_type_id":"4","last_reported":1752228718,"current_range_meters":16400,"station_id":"ce4bhk92rcd13ifvqgc0","pricing_plan_id":"cebpf4jnsgd1na2vs0mg"},{"bike_id":"199fc732-b1f9-4b43-a682-43aab23bc41d","system_id":"levelo_inurba_marseille","lat":43.30547,"lon":5.3669,"is_reserved":false,"is_disabled":false,"rental_uris":{"android":"levelo://app?vid=199fc732-b1f9-4b43-a682-43aab23bc41d","ios":"levelo://app?vid=199fc732-b1f9-4b43-a682-43aab23bc41d"},"vehicle_type_id":"4","last_reported":1752228718,"current_range_meters":16400,"station_id":"ce4bgrp2rcd13ifvqc9g","pricing_plan_id":"cebpf4jnsgd1na2vs0mg"},{"bike_id":"eda0ea69-6404-43e6-9ede-2655d170d444","system_id":"levelo_inurba_marseille","lat":43.28851,"lon":5.35806,"is_reserved":false,"is_disabled":true,"rental_uris":{"android":"levelo://app?vid=eda0ea69-6404-43e6-9ede-2655d170d444","ios":"levelo://app?vid=eda0ea69-6404-43e6-9ede-2655d170d444"},"vehicle_type_id":"4","last_reported":1752228718,"current_range_meters":16400,"station_id":"ce4bhb12rcd13ifvqem0","pricing_plan_id":"cebpf4jnsgd1na2vs0mg"},{"bike_id":"0218405b-8196-457b-9403-772b177cf636","system_id":"levelo_inurba_marseille","lat":43.23147,"lon":5.43709,"is_reserved":false,"is_disabled":false,"rental_uris":{"android":"levelo://app?vid=0218405b-8196-457b-9403-772b177cf636","ios":"levelo://app?vid=0218405b-8196-457b-9403-772b177cf636"},"vehicle_type_id":"4","last_reported":1752228718,"current_range_meters":16800,"station_id":"ce4bhmp2rcd13ifvqgog","pricing_plan_id":"cebpf4jnsgd1na2vs0mg"},{"bike_id":"e8e03632-b9d1-480f-a4da-da482a543464","system_id":"levelo_inurba_marseille","lat":43.290277,"lon":5.375517,"is_reserved":false,"is_disabled":true,"rental_uris":{"android":"levelo://app?vid=e8e03632-b9d1-480f-a4da-da482a543464","ios":"levelo://app?vid=e8e03632-b9d1-480f-a4da-da482a543464"},"vehicle_type_id":"4","last_reported":1752228718,"current_range_meters":16800,"station_id":"ce4bh692rcd13ifvqe90","pricing_plan_id":"cebpf4jnsgd1na2vs0mg"},{"bike_id":"8929c1bf-fd4d-44e4-aa66-b3eb6538c998","system_id":"levelo_inurba_marseille","lat":43.2857,"lon":5.42969,"is_reserved":false,"is_disabled":false,"rental_uris":{"android":"levelo://app?vid=8929c1bf-fd4d-44e4-aa66-b3eb6538c998","ios":"levelo://app?vid=8929c1bf-fd4d-44e4-aa66-b3eb6538c998"},"vehicle_type_id":"4","last_reported":1752228718,"current_range_meters":16800,"station_id":"","pricing_plan_id":"cebpf4jnsgd1na2vs0mg"},{"bike_id":"388da5fd-54e1-4106-9f06-3e9f9ee2fc42","system_id":"levelo_inurba_marseille","lat":43.31348,"lon":5.36758,"is_reserved":false,"is_disabled":false,"rental_uris":{"android":"levelo://app?vid=388da5fd-54e1-4106-9f06-3e9f9ee2fc42","ios":"levelo://app?vid=388da5fd-54e1-4106-9f06-3e9f9ee2fc42"},"vehicle_type_id":"4","last_reported":1752228718,"current_range_meters":16800,"station_id":"ce4bgr92rcd13ifvqc6g","pricing_plan_id":"cebpf4jnsgd1na2vs0mg"},{"bike_id":"f7e18c78-51df-4602-bbb1-34276ef1f704","system_id":"levelo_inurba_marseille","lat":43.29048,"lon":5.35899,"is_reserved":false,"is_disabled":false,"rental_uris":{"android":"levelo://app?vid=f7e18c78-51df-4602-bbb1-34276ef1f704","ios":"levelo://app?vid=f7e18c78-51df-4602-bbb1-34276ef1f704"},"vehicle_type_id":"4","last_reported":1752228718,"current_range_meters":16800,"station_id":"ce4bha92rcd13ifvqeg0","pricing_plan_id":"cebpf4jnsgd1na2vs0mg"},{"bike_id":"f84d414b-b83e-4804-9933-e2e4067ccad4","system_id":"levelo_inurba_marseille","lat":43.3172,"lon":5.40437,"is_reserved":false,"is_disabled":false,"rental_uris":{"android":"levelo://app?vid=f84d414b-b83e-4804-9933-e2e4067ccad4","ios":"levelo://app?vid=f84d414b-b83e-4804-9933-e2e4067ccad4"},"vehicle_type_id":"4","last_reported":1752228718,"current_range_meters":16800,"station_id":"ce4bh012rcd13ifvqd00","pricing_plan_id":"cebpf4jnsgd1na2vs0mg"},{"bike_id":"af1cde33-5506-4304-9bde-62aa1392a4b6","system_id":"levelo_inurba_marseille","lat":43.32389,"lon":5.38844,"is_reserved":false,"is_disabled":false,"rental_uris":{"android":"levelo://app?vid=af1cde33-5506-4304-9bde-62aa1392a4b6","ios":"levelo://app?vid=af1cde33-5506-4304-9bde-62aa1392a4b6"},"vehicle_type_id":"4","last_reported":1752228718,"current_range_meters":16800,"station_id":"ce4bhqp2rcd13ifvqhog","pricing_plan_id":"cebpf4jnsgd1na2vs0mg"},{"bike_id":"dafa5a87-b26d-4379-9a6b-1f02133b78a6","system_id":"levelo_inurba_marseille","lat":43.21192,"lon":5.35068,"is_reserved":false,"is_disabled":false,"rental_uris":{"android":"levelo://app?vid=dafa5a87-b26d-4379-9a6b-1f02133b78a6","ios":"levelo://app?vid=dafa5a87-b26d-4379-9a6b-1f02133b78a6"},"vehicle_type_id":"4","last_reported":1752228718,"current_range_meters":16800,"station_id":"st_cvj6sg6p6f1abm77japg","pricing_plan_id":"cebpf4jnsgd1na2vs0mg"},{"bike_id":"7b5cd6ce-df57-4328-854d-cb2d1407ab18","system_id":"levelo_inurba_marseille","lat":43.33026,"lon":5.39044,"is_reserved":false,"is_disabled":false,"rental_uris":{"android":"levelo://app?vid=7b5cd6ce-df57-4328-854d-cb2d1407ab18","ios":"levelo://app?vid=7b5cd6ce-df57-4328-854d-cb2d1407ab18"},"vehicle_type_id":"4","last_reported":1752228718,"current_range_meters":16800,"station_id":"ce4bhr92rcd13ifvqhrg","pricing_plan_id":"cebpf4jnsgd1na2vs0mg"},{"bike_id":"3b7bf651-6938-43f8-a187-93c03b2fd4c1","system_id":"levelo_inurba_marseille","lat":43.25899,"lon":5.40926,"is_reserved":false,"is_disabled":false,"rental_uris":{"android":"levelo://app?vid=3b7bf651-6938-43f8-a187-93c03b2fd4c1","ios":"levelo://app?vid=3b7bf651-6938-43f8-a187-93c03b2fd4c1"},"vehicle_type_id":"4","last_reported":1752228718,"current_range_meters":17200,"station_id":"ce4bhm92rcd13ifvqglg","pricing_plan_id":"cebpf4jnsgd1na2vs0mg"},{"bike_id":"e9fd0cf8-573b-4177-88a6-f1faf33e8aca","system_id":"levelo_inurba_marseille","lat":43.29023,"lon":5.35603,"is_reserved":false,"is_disabled":true,"rental_uris":{"android":"levelo://app?vid=e9fd0cf8-573b-4177-88a6-f1faf33e8aca","ios":"levelo://app?vid=e9fd0cf8-573b-4177-88a6-f1faf33e8aca"},"vehicle_type_id":"4","last_reported":1752228718,"current_range_meters":17200,"station_id":"ce4bhb92rcd13ifvqen0","pricing_plan_id":"cebpf4jnsgd1na2vs0mg"},{"bike_id":"c8d528b7-6d12-4041-95cb-f4c9825b8956","system_id":"levelo_inurba_marseille","lat":43.27053,"lon":5.40263,"is_reserved":false,"is_disabled":false,"rental_uris":{"android":"levelo://app?vid=c8d528b7-6d12-4041-95cb-f4c9825b8956","ios":"levelo://app?vid=c8d528b7-6d12-4041-95cb-f4c9825b8956"},"vehicle_type_id":"4","last_reported":1752228718,"current_range_meters":17200,"station_id":"ce4bhk92rcd13ifvqgc0","pricing_plan_id":"cebpf4jnsgd1na2vs0mg"},{"bike_id":"2719b67f-90e1-4bd7-99b7-35777b5be959","system_id":"levelo_inurba_marseille","lat":43.2928,"lon":5.37453,"is_reserved":false,"is_disabled":false,"rental_uris":{"android":"levelo://app?vid=2719b67f-90e1-4bd7-99b7-35777b5be959","ios":"levelo://app?vid=2719b67f-90e1-4bd7-99b7-35777b5be959"},"vehicle_type_id":"4","last_reported":1752228718,"current_range_meters":17200,"station_id":"ce4bgi12rcd13ifvqb70","pricing_plan_id":"cebpf4jnsgd1na2vs0mg"},{"bike_id":"43b90c82-97e0-4fa7-8b67-2448f07d529e","system_id":"levelo_inurba_marseille","lat":43.21191,"lon":5.35066,"is_reserved":false,"is_disabled":false,"rental_uris":{"android":"levelo://app?vid=43b90c82-97e0-4fa7-8b67-2448f07d529e","ios":"levelo://app?vid=43b90c82-97e0-4fa7-8b67-2448f07d529e"},"vehicle_type_id":"4","last_reported":1752228718,"current_range_meters":17200,"station_id":"","pricing_plan_id":"cebpf4jnsgd1na2vs0mg"},{"bike_id":"2a16ae50-7dbe-4fc6-bba2-cf897e5fa99d","system_id":"levelo_inurba_marseille","lat":43.29018,"lon":5.38158,"is_reserved":false,"is_disabled":true,"rental_uris":{"android":"levelo://app?vid=2a16ae50-7dbe-4fc6-bba2-cf897e5fa99d","ios":"levelo://app?vid=2a16ae50-7dbe-4fc6-bba2-cf897e5fa99d"},"vehicle_type_id":"4","last_reported":1752228718,"current_range_meters":17200,"station_id":"ce4bh4p2rcd13ifvqe1g","pricing_plan_id":"cebpf4jnsgd1na2vs0mg"},{"bike_id":"37b84a38-055a-4a6e-a56a-8ff3d0c1b2ec","system_id":"levelo_inurba_marseille","lat":43.21203,"lon":5.35072,"is_reserved":false,"is_disabled":false,"rental_uris":{"android":"levelo://app?vid=37b84a38-055a-4a6e-a56a-8ff3d0c1b2ec","ios":"levelo://app?vid=37b84a38-055a-4a6e-a56a-8ff3d0c1b2ec"},"vehicle_type_id":"4","last_reported":1752228718,"current_range_meters":17200,"station_id":"st_cvj6sg6p6f1abm77japg","pricing_plan_id":"cebpf4jnsgd1na2vs0mg"},{"bike_id":"8fccf46e-4269-459a-bd9a-cdd93f6b32bc","system_id":"levelo_inurba_marseille","lat":43.303635,"lon":5.418845,"is_reserved":false,"is_disabled":true,"rental_uris":{"android":"levelo://app?vid=8fccf46e-4269-459a-bd9a-cdd93f6b32bc","ios":"levelo://app?vid=8fccf46e-4269-459a-bd9a-cdd93f6b32bc"},"vehicle_type_id":"4","last_reported":1752228718,"current_range_meters":17600,"station_id":"ce4bhop2rcd13ifvqh7g","pricing_plan_id":"cebpf4jnsgd1na2vs0mg"},{"bike_id":"5f9facdb-d1e1-40e1-8ceb-766e4b9ac193","system_id":"levelo_inurba_marseille","lat":43.21754,"lon":5.345992,"is_reserved":false,"is_disabled":false,"rental_uris":{"android":"levelo://app?vid=5f9facdb-d1e1-40e1-8ceb-766e4b9ac193","ios":"levelo://app?vid=5f9facdb-d1e1-40e1-8ceb-766e4b9ac193"},"vehicle_type_id":"4","last_reported":1752228718,"current_range_meters":17600,"station_id":"","pricing_plan_id":"cebpf4jnsgd1na2vs0mg"},{"bike_id":"eb6a2290-40e2-4780-bdeb-a149c699215d","system_id":"levelo_inurba_marseille","lat":43.27974,"lon":5.41065,"is_reserved":false,"is_disabled":false,"rental_uris":{"android":"levelo://app?vid=eb6a2290-40e2-4780-bdeb-a149c699215d","ios":"levelo://app?vid=eb6a2290-40e2-4780-bdeb-a149c699215d"},"vehicle_type_id":"4","last_reported":1752228718,"current_range_meters":17600,"station_id":"ce4bhnp2rcd13ifvqh0g","pricing_plan_id":"cebpf4jnsgd1na2vs0mg"},{"bike_id":"dbba3321-20c7-4989-a7b5-ea9ab2c4b3e8","system_id":"levelo_inurba_marseille","lat":43.261935,"lon":5.374477,"is_reserved":false,"is_disabled":false,"rental_uris":{"android":"levelo://app?vid=dbba3321-20c7-4989-a7b5-ea9ab2c4b3e8","ios":"levelo://app?vid=dbba3321-20c7-4989-a7b5-ea9ab2c4b3e8"},"vehicle_type_id":"4","last_reported":1752228718,"current_range_meters":17600,"station_id":"ce4bhgp2rcd13ifvqfc0","pricing_plan_id":"cebpf4jnsgd1na2vs0mg"},{"bike_id":"e7628d59-1f53-4a3e-bac9-cc30ae8a4212","system_id":"levelo_inurba_marseille","lat":43.31222,"lon":5.36869,"is_reserved":false,"is_disabled":false,"rental_uris":{"android":"levelo://app?vid=e7628d59-1f53-4a3e-bac9-cc30ae8a4212","ios":"levelo://app?vid=e7628d59-1f53-4a3e-bac9-cc30ae8a4212"},"vehicle_type_id":"4","last_reported":1752228718,"current_range_meters":18000,"station_id":"ce4bgl92rcd13ifvqbq0","pricing_plan_id":"cebpf4jnsgd1na2vs0mg"},{"bike_id":"1340328c-b4a2-450b-8825-6452832aa83f","system_id":"levelo_inurba_marseille","lat":43.27056,"lon":5.40273,"is_reserved":false,"is_disabled":false,"rental_uris":{"android":"levelo://app?vid=1340328c-b4a2-450b-8825-6452832aa83f","ios":"levelo://app?vid=1340328c-b4a2-450b-8825-6452832aa83f"},"vehicle_type_id":"4","last_reported":1752228718,"current_range_meters":18000,"station_id":"ce4bhk92rcd13ifvqgc0","pricing_plan_id":"cebpf4jnsgd1na2vs0mg"},{"bike_id":"e5aa6fcc-52da-4541-8217-b024d7af709b","system_id":"levelo_inurba_marseille","lat":43.31121,"lon":5.37761,"is_reserved":false,"is_disabled":false,"rental_uris":{"android":"levelo://app?vid=e5aa6fcc-52da-4541-8217-b024d7af709b","ios":"levelo://app?vid=e5aa6fcc-52da-4541-8217-b024d7af709b"},"vehicle_type_id":"4","last_reported":1752228718,"current_range_meters":18000,"station_id":"ce4bgt92rcd13ifvqcg0","pricing_plan_id":"cebpf4jnsgd1na2vs0mg"},{"bike_id":"4aa7e33b-6a86-482c-af49-a7305880140c","system_id":"levelo_inurba_marseille","lat":43.28416,"lon":5.34978,"is_reserved":false,"is_disabled":false,"rental_uris":{"android":"levelo://app?vid=4aa7e33b-6a86-482c-af49-a7305880140c","ios":"levelo://app?vid=4aa7e33b-6a86-482c-af49-a7305880140c"},"vehicle_type_id":"4","last_reported":1752228718,"current_range_meters":18000,"station_id":"ce4bhbh2rcd13ifvqepg","pricing_plan_id":"cebpf4jnsgd1na2vs0mg"},{"bike_id":"a581eef9-f0fb-4e5d-8be0-84b96bfd2d41","system_id":"levelo_inurba_marseille","lat":43.29375,"lon":5.37852,"is_reserved":false,"is_disabled":true,"rental_uris":{"android":"levelo://app?vid=a581eef9-f0fb-4e5d-8be0-84b96bfd2d41","ios":"levelo://app?vid=a581eef9-f0fb-4e5d-8be0-84b96bfd2d41"},"vehicle_type_id":"4","last_reported":1752228718,"current_range_meters":18000,"station_id":"ce4bgjh2rcd13ifvqbf0","pricing_plan_id":"cebpf4jnsgd1na2vs0mg"},{"bike_id":"61198919-e72c-4fce-bc96-126627987dc0","system_id":"levelo_inurba_marseille","lat":43.29591,"lon":5.37892,"is_reserved":false,"is_disabled":false,"rental_uris":{"android":"levelo://app?vid=61198919-e72c-4fce-bc96-126627987dc0","ios":"levelo://app?vid=61198919-e72c-4fce-bc96-126627987dc0"},"vehicle_type_id":"4","last_reported":1752228718,"current_range_meters":18000,"station_id":"","pricing_plan_id":"cebpf4jnsgd1na2vs0mg"},{"bike_id":"f5742157-e5fa-49f5-959a-500d766f92f6","system_id":"levelo_inurba_marseille","lat":43.2619,"lon":5.37454,"is_reserved":false,"is_disabled":false,"rental_uris":{"android":"levelo://app?vid=f5742157-e5fa-49f5-959a-500d766f92f6","ios":"levelo://app?vid=f5742157-e5fa-49f5-959a-500d766f92f6"},"vehicle_type_id":"4","last_reported":1752228718,"current_range_meters":18000,"station_id":"ce4bhgp2rcd13ifvqfc0","pricing_plan_id":"cebpf4jnsgd1na2vs0mg"},{"bike_id":"452e8211-4f44-45d0-814a-3e9e25b8c44e","system_id":"levelo_inurba_marseille","lat":43.21201,"lon":5.35072,"is_reserved":false,"is_disabled":false,"rental_uris":{"android":"levelo://app?vid=452e8211-4f44-45d0-814a-3e9e25b8c44e","ios":"levelo://app?vid=452e8211-4f44-45d0-814a-3e9e25b8c44e"},"vehicle_type_id":"4","last_reported":1752228718,"current_range_meters":18000,"station_id":"st_cvj6sg6p6f1abm77japg","pricing_plan_id":"cebpf4jnsgd1na2vs0mg"},{"bike_id":"e86ba8c9-208d-482c-a826-4c100938472a","system_id":"levelo_inurba_marseille","lat":43.21198,"lon":5.35083,"is_reserved":false,"is_disabled":false,"rental_uris":{"android":"levelo://app?vid=e86ba8c9-208d-482c-a826-4c100938472a","ios":"levelo://app?vid=e86ba8c9-208d-482c-a826-4c100938472a"},"vehicle_type_id":"4","last_reported":1752228718,"current_range_meters":18000,"station_id":"st_cvj6sg6p6f1abm77japg","pricing_plan_id":"cebpf4jnsgd1na2vs0mg"},{"bike_id":"d2e8f5b4-fa3f-42f7-bbe6-f1de007db237","system_id":"levelo_inurba_marseille","lat":43.25928,"lon":5.40914,"is_reserved":false,"is_disabled":false,"rental_uris":{"android":"levelo://app?vid=d2e8f5b4-fa3f-42f7-bbe6-f1de007db237","ios":"levelo://app?vid=d2e8f5b4-fa3f-42f7-bbe6-f1de007db237"},"vehicle_type_id":"4","last_reported":1752228718,"current_range_meters":18000,"station_id":"ce4bhm92rcd13ifvqglg","pricing_plan_id":"cebpf4jnsgd1na2vs0mg"},{"bike_id":"f85b2096-8de8-4d98-8226-2b684d969be6","system_id":"levelo_inurba_marseille","lat":43.30646,"lon":5.40097,"is_reserved":false,"is_disabled":false,"rental_uris":{"android":"levelo://app?vid=f85b2096-8de8-4d98-8226-2b684d969be6","ios":"levelo://app?vid=f85b2096-8de8-4d98-8226-2b684d969be6"},"vehicle_type_id":"4","last_reported":1752228718,"current_range_meters":18800,"station_id":"ce4bh112rcd13ifvqda0","pricing_plan_id":"cebpf4jnsgd1na2vs0mg"},{"bike_id":"45bd0438-fe24-427a-8297-3b88d8b7fbf5","system_id":"levelo_inurba_marseille","lat":43.283607,"lon":5.386402,"is_reserved":false,"is_disabled":false,"rental_uris":{"android":"levelo://app?vid=45bd0438-fe24-427a-8297-3b88d8b7fbf5","ios":"levelo://app?vid=45bd0438-fe24-427a-8297-3b88d8b7fbf5"},"vehicle_type_id":"4","last_reported":1752228718,"current_range_meters":18800,"station_id":"ce4bh492rcd13ifvqdvg","pricing_plan_id":"cebpf4jnsgd1na2vs0mg"},{"bike_id":"9d0d85e3-ee19-452d-93c5-fbfc98a09acf","system_id":"levelo_inurba_marseille","lat":43.295051,"lon":5.438568,"is_reserved":false,"is_disabled":false,"rental_uris":{"android":"levelo://app?vid=9d0d85e3-ee19-452d-93c5-fbfc98a09acf","ios":"levelo://app?vid=9d0d85e3-ee19-452d-93c5-fbfc98a09acf"},"vehicle_type_id":"4","last_reported":1752228718,"current_range_meters":18800,"station_id":"","pricing_plan_id":"cebpf4jnsgd1na2vs0mg"},{"bike_id":"97c0318f-1fd4-4f1d-bd16-7f3127e8bcf3","system_id":"levelo_inurba_marseille","lat":43.312395,"lon":5.368697,"is_reserved":false,"is_disabled":false,"rental_uris":{"android":"levelo://app?vid=97c0318f-1fd4-4f1d-bd16-7f3127e8bcf3","ios":"levelo://app?vid=97c0318f-1fd4-4f1d-bd16-7f3127e8bcf3"},"vehicle_type_id":"4","last_reported":1752228718,"current_range_meters":18800,"station_id":"ce4bgl92rcd13ifvqbq0","pricing_plan_id":"cebpf4jnsgd1na2vs0mg"},{"bike_id":"a81ede20-43a9-47cd-942d-8fb15c54f5f7","system_id":"levelo_inurba_marseille","lat":43.300651,"lon":5.451639,"is_reserved":false,"is_disabled":false,"rental_uris":{"android":"levelo://app?vid=a81ede20-43a9-47cd-942d-8fb15c54f5f7","ios":"levelo://app?vid=a81ede20-43a9-47cd-942d-8fb15c54f5f7"},"vehicle_type_id":"4","last_reported":1752228718,"current_range_meters":19200,"station_id":"","pricing_plan_id":"cebpf4jnsgd1na2vs0mg"},{"bike_id":"2a4f42a7-07aa-47c8-b675-42c02aa2b2e5","system_id":"levelo_inurba_marseille","lat":43.25935,"lon":5.40934,"is_reserved":false,"is_disabled":false,"rental_uris":{"android":"levelo://app?vid=2a4f42a7-07aa-47c8-b675-42c02aa2b2e5","ios":"levelo://app?vid=2a4f42a7-07aa-47c8-b675-42c02aa2b2e5"},"vehicle_type_id":"4","last_reported":1752228718,"current_range_meters":19200,"station_id":"ce4bhm92rcd13ifvqglg","pricing_plan_id":"cebpf4jnsgd1na2vs0mg"},{"bike_id":"3775d7b6-5bd8-4a8d-9184-9f85fa3dec11","system_id":"levelo_inurba_marseille","lat":43.34141,"lon":5.40908,"is_reserved":false,"is_disabled":false,"rental_uris":{"android":"levelo://app?vid=3775d7b6-5bd8-4a8d-9184-9f85fa3dec11","ios":"levelo://app?vid=3775d7b6-5bd8-4a8d-9184-9f85fa3dec11"},"vehicle_type_id":"4","last_reported":1752228718,"current_range_meters":19200,"station_id":"ce4bhqh2rcd13ifvqhlg","pricing_plan_id":"cebpf4jnsgd1na2vs0mg"},{"bike_id":"f103b4ae-0b6d-4aaa-98cd-42f017b63415","system_id":"levelo_inurba_marseille","lat":43.28699,"lon":5.39976,"is_reserved":false,"is_disabled":false,"rental_uris":{"android":"levelo://app?vid=f103b4ae-0b6d-4aaa-98cd-42f017b63415","ios":"levelo://app?vid=f103b4ae-0b6d-4aaa-98cd-42f017b63415"},"vehicle_type_id":"4","last_reported":1752228718,"current_range_meters":19200,"station_id":"ce4bho92rcd13ifvqh3g","pricing_plan_id":"cebpf4jnsgd1na2vs0mg"},{"bike_id":"c5a2b6c5-0fc5-4dd0-8cc1-046d877830ff","system_id":"levelo_inurba_marseille","lat":43.31078,"lon":5.38358,"is_reserved":false,"is_disabled":false,"rental_uris":{"android":"levelo://app?vid=c5a2b6c5-0fc5-4dd0-8cc1-046d877830ff","ios":"levelo://app?vid=c5a2b6c5-0fc5-4dd0-8cc1-046d877830ff"},"vehicle_type_id":"4","last_reported":1752228718,"current_range_meters":19200,"station_id":"ce4bgv92rcd13ifvqcr0","pricing_plan_id":"cebpf4jnsgd1na2vs0mg"},{"bike_id":"f1872e4d-c216-45ab-a1c9-2657f0ed30ec","system_id":"levelo_inurba_marseille","lat":43.23968,"lon":5.36631,"is_reserved":false,"is_disabled":false,"rental_uris":{"android":"levelo://app?vid=f1872e4d-c216-45ab-a1c9-2657f0ed30ec","ios":"levelo://app?vid=f1872e4d-c216-45ab-a1c9-2657f0ed30ec"},"vehicle_type_id":"4","last_reported":1752228718,"current_range_meters":19600,"station_id":"ce4bhi12rcd13ifvqfp0","pricing_plan_id":"cebpf4jnsgd1na2vs0mg"},{"bike_id":"00550b7d-b654-4af5-81b3-f33fcfb3bc68","system_id":"levelo_inurba_marseille","lat":43.29849,"lon":5.36286,"is_reserved":false,"is_disabled":false,"rental_uris":{"android":"levelo://app?vid=00550b7d-b654-4af5-81b3-f33fcfb3bc68","ios":"levelo://app?vid=00550b7d-b654-4af5-81b3-f33fcfb3bc68"},"vehicle_type_id":"4","last_reported":1752228718,"current_range_meters":19600,"station_id":"ce4bgpp2rcd13ifvqc3g","pricing_plan_id":"cebpf4jnsgd1na2vs0mg"},{"bike_id":"6fd9b755-ff89-4eb1-89e4-a0f6b7e20a37","system_id":"levelo_inurba_marseille","lat":43.30543,"lon":5.36541,"is_reserved":false,"is_disabled":false,"rental_uris":{"android":"levelo://app?vid=6fd9b755-ff89-4eb1-89e4-a0f6b7e20a37","ios":"levelo://app?vid=6fd9b755-ff89-4eb1-89e4-a0f6b7e20a37"},"vehicle_type_id":"4","last_reported":1752228718,"current_range_meters":19600,"station_id":"ce4bgs12rcd13ifvqcag","pricing_plan_id":"cebpf4jnsgd1na2vs0mg"},{"bike_id":"9650b502-d4a4-449f-86de-f6f453b01c3e","system_id":"levelo_inurba_marseille","lat":43.28671,"lon":5.38654,"is_reserved":false,"is_disabled":false,"rental_uris":{"android":"levelo://app?vid=9650b502-d4a4-449f-86de-f6f453b01c3e","ios":"levelo://app?vid=9650b502-d4a4-449f-86de-f6f453b01c3e"},"vehicle_type_id":"4","last_reported":1752228718,"current_range_meters":19600,"station_id":"ce4bh492rcd13ifvqdug","pricing_plan_id":"cebpf4jnsgd1na2vs0mg"},{"bike_id":"9afaabbe-0683-404e-aee2-9b7c5171cfc9","system_id":"levelo_inurba_marseille","lat":43.28268,"lon":5.35059,"is_reserved":false,"is_disabled":false,"rental_uris":{"android":"levelo://app?vid=9afaabbe-0683-404e-aee2-9b7c5171cfc9","ios":"levelo://app?vid=9afaabbe-0683-404e-aee2-9b7c5171cfc9"},"vehicle_type_id":"4","last_reported":1752228718,"current_range_meters":19600,"station_id":"ce4bhbp2rcd13ifvqerg","pricing_plan_id":"cebpf4jnsgd1na2vs0mg"},{"bike_id":"2a017920-d6e1-44c4-afe4-55b429419e31","system_id":"levelo_inurba_marseille","lat":43.25935,"lon":5.40902,"is_reserved":false,"is_disabled":false,"rental_uris":{"android":"levelo://app?vid=2a017920-d6e1-44c4-afe4-55b429419e31","ios":"levelo://app?vid=2a017920-d6e1-44c4-afe4-55b429419e31"},"vehicle_type_id":"4","last_reported":1752228718,"current_range_meters":19600,"station_id":"ce4bhm92rcd13ifvqglg","pricing_plan_id":"cebpf4jnsgd1na2vs0mg"},{"bike_id":"01343c14-f263-4918-bc5c-adf80fc592d8","system_id":"levelo_inurba_marseille","lat":43.29308,"lon":5.37459,"is_reserved":false,"is_disabled":false,"rental_uris":{"android":"levelo://app?vid=01343c14-f263-4918-bc5c-adf80fc592d8","ios":"levelo://app?vid=01343c14-f263-4918-bc5c-adf80fc592d8"},"vehicle_type_id":"4","last_reported":1752228718,"current_range_meters":20000,"station_id":"ce4bgi12rcd13ifvqb70","pricing_plan_id":"cebpf4jnsgd1na2vs0mg"},{"bike_id":"ad023729-3d33-44a6-99ca-a047715b7f88","system_id":"levelo_inurba_marseille","lat":43.21181,"lon":5.35065,"is_reserved":false,"is_disabled":false,"rental_uris":{"android":"levelo://app?vid=ad023729-3d33-44a6-99ca-a047715b7f88","ios":"levelo://app?vid=ad023729-3d33-44a6-99ca-a047715b7f88"},"vehicle_type_id":"4","last_reported":1752228718,"current_range_meters":20000,"station_id":"st_cvj6sg6p6f1abm77japg","pricing_plan_id":"cebpf4jnsgd1na2vs0mg"},{"bike_id":"6f1a61cb-8659-4a40-af8e-582b66592a49","system_id":"levelo_inurba_marseille","lat":43.29431,"lon":5.3863,"is_reserved":false,"is_disabled":false,"rental_uris":{"android":"levelo://app?vid=6f1a61cb-8659-4a40-af8e-582b66592a49","ios":"levelo://app?vid=6f1a61cb-8659-4a40-af8e-582b66592a49"},"vehicle_type_id":"4","last_reported":1752228718,"current_range_meters":20400,"station_id":"ce4bh2h2rcd13ifvqdh0","pricing_plan_id":"cebpf4jnsgd1na2vs0mg"},{"bike_id":"a32fff8f-fe3f-4268-a515-369106b6ec45","system_id":"levelo_inurba_marseille","lat":43.28298,"lon":5.35093,"is_reserved":false,"is_disabled":false,"rental_uris":{"android":"levelo://app?vid=a32fff8f-fe3f-4268-a515-369106b6ec45","ios":"levelo://app?vid=a32fff8f-fe3f-4268-a515-369106b6ec45"},"vehicle_type_id":"4","last_reported":1752228718,"current_range_meters":20400,"station_id":"ce4bhbp2rcd13ifvqerg","pricing_plan_id":"cebpf4jnsgd1na2vs0mg"},{"bike_id":"69a83999-47a8-4fce-8203-fe823f4afa59","system_id":"levelo_inurba_marseille","lat":43.29098,"lon":5.38139,"is_reserved":false,"is_disabled":false,"rental_uris":{"android":"levelo://app?vid=69a83999-47a8-4fce-8203-fe823f4afa59","ios":"levelo://app?vid=69a83999-47a8-4fce-8203-fe823f4afa59"},"vehicle_type_id":"4","last_reported":1752228718,"current_range_meters":20400,"station_id":"ce4bh512rcd13ifvqe2g","pricing_plan_id":"cebpf4jnsgd1na2vs0mg"},{"bike_id":"2c660449-ac16-44e8-84fe-c2ea4f8155e6","system_id":"levelo_inurba_marseille","lat":43.251254,"lon":5.403144,"is_reserved":false,"is_disabled":false,"rental_uris":{"android":"levelo://app?vid=2c660449-ac16-44e8-84fe-c2ea4f8155e6","ios":"levelo://app?vid=2c660449-ac16-44e8-84fe-c2ea4f8155e6"},"vehicle_type_id":"4","last_reported":1752228718,"current_range_meters":20400,"station_id":"ce4bhlh2rcd13ifvqgig","pricing_plan_id":"cebpf4jnsgd1na2vs0mg"},{"bike_id":"d802db08-ab94-4998-93bd-248897782258","system_id":"levelo_inurba_marseille","lat":43.27811,"lon":5.4071,"is_reserved":false,"is_disabled":false,"rental_uris":{"android":"levelo://app?vid=d802db08-ab94-4998-93bd-248897782258","ios":"levelo://app?vid=d802db08-ab94-4998-93bd-248897782258"},"vehicle_type_id":"4","last_reported":1752228718,"current_range_meters":20400,"station_id":"ce4bhnh2rcd13ifvqgtg","pricing_plan_id":"cebpf4jnsgd1na2vs0mg"},{"bike_id":"790c377f-77f7-4730-a831-b0f708a46319","system_id":"levelo_inurba_marseille","lat":43.33609,"lon":5.41008,"is_reserved":false,"is_disabled":false,"rental_uris":{"android":"levelo://app?vid=790c377f-77f7-4730-a831-b0f708a46319","ios":"levelo://app?vid=790c377f-77f7-4730-a831-b0f708a46319"},"vehicle_type_id":"4","last_reported":1752228718,"current_range_meters":20400,"station_id":"ce4bhqh2rcd13ifvqhmg","pricing_plan_id":"cebpf4jnsgd1na2vs0mg"},{"bike_id":"102900eb-df25-4d95-ad9b-1534803fd8c5","system_id":"levelo_inurba_marseille","lat":43.30524,"lon":5.36715,"is_reserved":false,"is_disabled":false,"rental_uris":{"android":"levelo://app?vid=102900eb-df25-4d95-ad9b-1534803fd8c5","ios":"levelo://app?vid=102900eb-df25-4d95-ad9b-1534803fd8c5"},"vehicle_type_id":"4","last_reported":1752228718,"current_range_meters":20400,"station_id":"ce4bgrp2rcd13ifvqc9g","pricing_plan_id":"cebpf4jnsgd1na2vs0mg"},{"bike_id":"f14b7ba5-2a58-4cb0-83f0-5603ccb60f9b","system_id":"levelo_inurba_marseille","lat":43.29847,"lon":5.36274,"is_reserved":false,"is_disabled":false,"rental_uris":{"android":"levelo://app?vid=f14b7ba5-2a58-4cb0-83f0-5603ccb60f9b","ios":"levelo://app?vid=f14b7ba5-2a58-4cb0-83f0-5603ccb60f9b"},"vehicle_type_id":"4","last_reported":1752228718,"current_range_meters":20800,"station_id":"ce4bgpp2rcd13ifvqc3g","pricing_plan_id":"cebpf4jnsgd1na2vs0mg"},{"bike_id":"7b566721-3c38-4a84-b2ff-60ef60629d97","system_id":"levelo_inurba_marseille","lat":43.28263,"lon":5.3507,"is_reserved":false,"is_disabled":false,"rental_uris":{"android":"levelo://app?vid=7b566721-3c38-4a84-b2ff-60ef60629d97","ios":"levelo://app?vid=7b566721-3c38-4a84-b2ff-60ef60629d97"},"vehicle_type_id":"4","last_reported":1752228718,"current_range_meters":20800,"station_id":"ce4bhbp2rcd13ifvqerg","pricing_plan_id":"cebpf4jnsgd1na2vs0mg"},{"bike_id":"ba3b7e41-84eb-4ca6-9257-4bdd3a87cc15","system_id":"levelo_inurba_marseille","lat":43.27946,"lon":5.4104,"is_reserved":false,"is_disabled":false,"rental_uris":{"android":"levelo://app?vid=ba3b7e41-84eb-4ca6-9257-4bdd3a87cc15","ios":"levelo://app?vid=ba3b7e41-84eb-4ca6-9257-4bdd3a87cc15"},"vehicle_type_id":"4","last_reported":1752228718,"current_range_meters":20800,"station_id":"ce4bhnp2rcd13ifvqh0g","pricing_plan_id":"cebpf4jnsgd1na2vs0mg"},{"bike_id":"00bc0b3b-e317-4a17-a011-a3a9a29d816a","system_id":"levelo_inurba_marseille","lat":43.2119,"lon":5.35077,"is_reserved":false,"is_disabled":false,"rental_uris":{"android":"levelo://app?vid=00bc0b3b-e317-4a17-a011-a3a9a29d816a","ios":"levelo://app?vid=00bc0b3b-e317-4a17-a011-a3a9a29d816a"},"vehicle_type_id":"4","last_reported":1752228718,"current_range_meters":20800,"station_id":"st_cvj6sg6p6f1abm77japg","pricing_plan_id":"cebpf4jnsgd1na2vs0mg"},{"bike_id":"72fa00cd-88a9-4d31-881a-886aa14af7c8","system_id":"levelo_inurba_marseille","lat":43.29631,"lon":5.37162,"is_reserved":false,"is_disabled":false,"rental_uris":{"android":"levelo://app?vid=72fa00cd-88a9-4d31-881a-886aa14af7c8","ios":"levelo://app?vid=72fa00cd-88a9-4d31-881a-886aa14af7c8"},"vehicle_type_id":"4","last_reported":1752228718,"current_range_meters":20000,"station_id":"ce4bgnh2rcd13ifvqc0g","pricing_plan_id":"cebpf4jnsgd1na2vs0mg"},{"bike_id":"8f36ed24-46ce-476e-abea-128d934b1052","system_id":"levelo_inurba_marseille","lat":43.25934,"lon":5.40909,"is_reserved":false,"is_disabled":false,"rental_uris":{"android":"levelo://app?vid=8f36ed24-46ce-476e-abea-128d934b1052","ios":"levelo://app?vid=8f36ed24-46ce-476e-abea-128d934b1052"},"vehicle_type_id":"4","last_reported":1752228718,"current_range_meters":20800,"station_id":"ce4bhm92rcd13ifvqglg","pricing_plan_id":"cebpf4jnsgd1na2vs0mg"},{"bike_id":"078fab8e-0d4a-4bfc-867e-c4adfc2ac53b","system_id":"levelo_inurba_marseille","lat":43.2721,"lon":5.391574,"is_reserved":false,"is_disabled":true,"rental_uris":{"android":"levelo://app?vid=078fab8e-0d4a-4bfc-867e-c4adfc2ac53b","ios":"levelo://app?vid=078fab8e-0d4a-4bfc-867e-c4adfc2ac53b"},"vehicle_type_id":"4","last_reported":1752228718,"current_range_meters":20800,"station_id":"ce4bhhp2rcd13ifvqfm0","pricing_plan_id":"cebpf4jnsgd1na2vs0mg"},{"bike_id":"10eefd02-8707-48e3-9618-a9841669e995","system_id":"levelo_inurba_marseille","lat":43.27812,"lon":5.4071,"is_reserved":false,"is_disabled":false,"rental_uris":{"android":"levelo://app?vid=10eefd02-8707-48e3-9618-a9841669e995","ios":"levelo://app?vid=10eefd02-8707-48e3-9618-a9841669e995"},"vehicle_type_id":"4","last_reported":1752228718,"current_range_meters":21600,"station_id":"ce4bhnh2rcd13ifvqgtg","pricing_plan_id":"cebpf4jnsgd1na2vs0mg"},{"bike_id":"c3e15962-4a88-4818-8c23-26615b781eb8","system_id":"levelo_inurba_marseille","lat":43.2887,"lon":5.38422,"is_reserved":false,"is_disabled":false,"rental_uris":{"android":"levelo://app?vid=c3e15962-4a88-4818-8c23-26615b781eb8","ios":"levelo://app?vid=c3e15962-4a88-4818-8c23-26615b781eb8"},"vehicle_type_id":"4","last_reported":1752228718,"current_range_meters":22000,"station_id":"","pricing_plan_id":"cebpf4jnsgd1na2vs0mg"},{"bike_id":"2a14438a-e7d3-4aae-b41b-3efc99952b6c","system_id":"levelo_inurba_marseille","lat":43.25119,"lon":5.40314,"is_reserved":false,"is_disabled":false,"rental_uris":{"android":"levelo://app?vid=2a14438a-e7d3-4aae-b41b-3efc99952b6c","ios":"levelo://app?vid=2a14438a-e7d3-4aae-b41b-3efc99952b6c"},"vehicle_type_id":"4","last_reported":1752228718,"current_range_meters":21600,"station_id":"ce4bhlh2rcd13ifvqgig","pricing_plan_id":"cebpf4jnsgd1na2vs0mg"},{"bike_id":"24e3b2f1-00cf-4dc1-941d-0810a1eb0857","system_id":"levelo_inurba_marseille","lat":43.297883,"lon":5.393407,"is_reserved":false,"is_disabled":false,"rental_uris":{"android":"levelo://app?vid=24e3b2f1-00cf-4dc1-941d-0810a1eb0857","ios":"levelo://app?vid=24e3b2f1-00cf-4dc1-941d-0810a1eb0857"},"vehicle_type_id":"4","last_reported":1752228718,"current_range_meters":21600,"station_id":"","pricing_plan_id":"cebpf4jnsgd1na2vs0mg"},{"bike_id":"51890362-46b0-4ee7-9f02-afbf036d064e","system_id":"levelo_inurba_marseille","lat":43.211963,"lon":5.350673,"is_reserved":false,"is_disabled":false,"rental_uris":{"android":"levelo://app?vid=51890362-46b0-4ee7-9f02-afbf036d064e","ios":"levelo://app?vid=51890362-46b0-4ee7-9f02-afbf036d064e"},"vehicle_type_id":"4","last_reported":1752228718,"current_range_meters":21600,"station_id":"st_cvj6sg6p6f1abm77japg","pricing_plan_id":"cebpf4jnsgd1na2vs0mg"},{"bike_id":"3a3dfa5a-df5c-4a7f-acf5-a3c87de21f46","system_id":"levelo_inurba_marseille","lat":43.30559,"lon":5.36507,"is_reserved":false,"is_disabled":false,"rental_uris":{"android":"levelo://app?vid=3a3dfa5a-df5c-4a7f-acf5-a3c87de21f46","ios":"levelo://app?vid=3a3dfa5a-df5c-4a7f-acf5-a3c87de21f46"},"vehicle_type_id":"4","last_reported":1752228718,"current_range_meters":21600,"station_id":"ce4bgs12rcd13ifvqcag","pricing_plan_id":"cebpf4jnsgd1na2vs0mg"},{"bike_id":"1550d62c-ac23-4182-a92a-927896c39981","system_id":"levelo_inurba_marseille","lat":43.33035,"lon":5.38072,"is_reserved":false,"is_disabled":false,"rental_uris":{"android":"levelo://app?vid=1550d62c-ac23-4182-a92a-927896c39981","ios":"levelo://app?vid=1550d62c-ac23-4182-a92a-927896c39981"},"vehicle_type_id":"4","last_reported":1752228718,"current_range_meters":21600,"station_id":"","pricing_plan_id":"cebpf4jnsgd1na2vs0mg"},{"bike_id":"85d2aee3-4fe4-4c9f-9f31-cc4fe835c04e","system_id":"levelo_inurba_marseille","lat":43.21186,"lon":5.35061,"is_reserved":false,"is_disabled":false,"rental_uris":{"android":"levelo://app?vid=85d2aee3-4fe4-4c9f-9f31-cc4fe835c04e","ios":"levelo://app?vid=85d2aee3-4fe4-4c9f-9f31-cc4fe835c04e"},"vehicle_type_id":"4","last_reported":1752228718,"current_range_meters":21600,"station_id":"st_cvj6sg6p6f1abm77japg","pricing_plan_id":"cebpf4jnsgd1na2vs0mg"},{"bike_id":"c08bcf55-2902-42d6-8e36-5ac1e4388180","system_id":"levelo_inurba_marseille","lat":43.32331,"lon":5.40622,"is_reserved":false,"is_disabled":false,"rental_uris":{"android":"levelo://app?vid=c08bcf55-2902-42d6-8e36-5ac1e4388180","ios":"levelo://app?vid=c08bcf55-2902-42d6-8e36-5ac1e4388180"},"vehicle_type_id":"4","last_reported":1752228718,"current_range_meters":21600,"station_id":"ce4bhq92rcd13ifvqhjg","pricing_plan_id":"cebpf4jnsgd1na2vs0mg"},{"bike_id":"3a919014-c91f-4fe0-a663-02e4b570a873","system_id":"levelo_inurba_marseille","lat":43.28269,"lon":5.35058,"is_reserved":false,"is_disabled":false,"rental_uris":{"android":"levelo://app?vid=3a919014-c91f-4fe0-a663-02e4b570a873","ios":"levelo://app?vid=3a919014-c91f-4fe0-a663-02e4b570a873"},"vehicle_type_id":"4","last_reported":1752228718,"current_range_meters":22000,"station_id":"ce4bhbp2rcd13ifvqerg","pricing_plan_id":"cebpf4jnsgd1na2vs0mg"},{"bike_id":"e70d744a-af1a-47b5-a6d0-9f7ce37c501e","system_id":"levelo_inurba_marseille","lat":43.32625,"lon":5.37486,"is_reserved":false,"is_disabled":false,"rental_uris":{"android":"levelo://app?vid=e70d744a-af1a-47b5-a6d0-9f7ce37c501e","ios":"levelo://app?vid=e70d744a-af1a-47b5-a6d0-9f7ce37c501e"},"vehicle_type_id":"4","last_reported":1752228718,"current_range_meters":22000,"station_id":"","pricing_plan_id":"cebpf4jnsgd1na2vs0mg"},{"bike_id":"61311c34-8ad3-46f2-97a6-24b285751e2f","system_id":"levelo_inurba_marseille","lat":43.32353,"lon":5.40636,"is_reserved":false,"is_disabled":false,"rental_uris":{"android":"levelo://app?vid=61311c34-8ad3-46f2-97a6-24b285751e2f","ios":"levelo://app?vid=61311c34-8ad3-46f2-97a6-24b285751e2f"},"vehicle_type_id":"4","last_reported":1752228718,"current_range_meters":22000,"station_id":"ce4bhq92rcd13ifvqhjg","pricing_plan_id":"cebpf4jnsgd1na2vs0mg"},{"bike_id":"00bb04d2-087b-4ba0-958b-5c83f2321f0a","system_id":"levelo_inurba_marseille","lat":43.295467,"lon":5.422804,"is_reserved":false,"is_disabled":false,"rental_uris":{"android":"levelo://app?vid=00bb04d2-087b-4ba0-958b-5c83f2321f0a","ios":"levelo://app?vid=00bb04d2-087b-4ba0-958b-5c83f2321f0a"},"vehicle_type_id":"4","last_reported":1752228718,"current_range_meters":22000,"station_id":"ce4bhph2rcd13ifvqhdg","pricing_plan_id":"cebpf4jnsgd1na2vs0mg"},{"bike_id":"028c8301-8e99-4f6b-983c-d8b1eaa0aa1d","system_id":"levelo_inurba_marseille","lat":43.30008,"lon":5.38602,"is_reserved":false,"is_disabled":false,"rental_uris":{"android":"levelo://app?vid=028c8301-8e99-4f6b-983c-d8b1eaa0aa1d","ios":"levelo://app?vid=028c8301-8e99-4f6b-983c-d8b1eaa0aa1d"},"vehicle_type_id":"4","last_reported":1752228718,"current_range_meters":22400,"station_id":"","pricing_plan_id":"cebpf4jnsgd1na2vs0mg"},{"bike_id":"ae790f9d-4b42-408e-8659-37a80e946e03","system_id":"levelo_inurba_marseille","lat":43.32362,"lon":5.38968,"is_reserved":false,"is_disabled":false,"rental_uris":{"android":"levelo://app?vid=ae790f9d-4b42-408e-8659-37a80e946e03","ios":"levelo://app?vid=ae790f9d-4b42-408e-8659-37a80e946e03"},"vehicle_type_id":"4","last_reported":1752228718,"current_range_meters":22000,"station_id":"","pricing_plan_id":"cebpf4jnsgd1na2vs0mg"},{"bike_id":"3f0c3082-11e2-4c70-a164-f3cb52641951","system_id":"levelo_inurba_marseille","lat":43.27312,"lon":5.39084,"is_reserved":false,"is_disabled":false,"rental_uris":{"android":"levelo://app?vid=3f0c3082-11e2-4c70-a164-f3cb52641951","ios":"levelo://app?vid=3f0c3082-11e2-4c70-a164-f3cb52641951"},"vehicle_type_id":"4","last_reported":1752228718,"current_range_meters":22000,"station_id":"ce4bhgp2rcd13ifvqfe0","pricing_plan_id":"cebpf4jnsgd1na2vs0mg"},{"bike_id":"10c0ea60-940c-41b4-9f37-323598e0ca63","system_id":"levelo_inurba_marseille","lat":43.26568,"lon":5.39026,"is_reserved":false,"is_disabled":false,"rental_uris":{"android":"levelo://app?vid=10c0ea60-940c-41b4-9f37-323598e0ca63","ios":"levelo://app?vid=10c0ea60-940c-41b4-9f37-323598e0ca63"},"vehicle_type_id":"4","last_reported":1752228718,"current_range_meters":22000,"station_id":"ce4bhe12rcd13ifvqf30","pricing_plan_id":"cebpf4jnsgd1na2vs0mg"},{"bike_id":"8b37f03f-f226-4bbc-8648-b109da7ba145","system_id":"levelo_inurba_marseille","lat":43.30536,"lon":5.366999,"is_reserved":false,"is_disabled":false,"rental_uris":{"android":"levelo://app?vid=8b37f03f-f226-4bbc-8648-b109da7ba145","ios":"levelo://app?vid=8b37f03f-f226-4bbc-8648-b109da7ba145"},"vehicle_type_id":"4","last_reported":1752228718,"current_range_meters":22000,"station_id":"","pricing_plan_id":"cebpf4jnsgd1na2vs0mg"},{"bike_id":"42abc01b-608e-4eb8-85e4-f45caa02d7fa","system_id":"levelo_inurba_marseille","lat":43.23141,"lon":5.43715,"is_reserved":false,"is_disabled":false,"rental_uris":{"android":"levelo://app?vid=42abc01b-608e-4eb8-85e4-f45caa02d7fa","ios":"levelo://app?vid=42abc01b-608e-4eb8-85e4-f45caa02d7fa"},"vehicle_type_id":"4","last_reported":1752228718,"current_range_meters":22000,"station_id":"ce4bhmp2rcd13ifvqgog","pricing_plan_id":"cebpf4jnsgd1na2vs0mg"},{"bike_id":"d799b321-3a7d-4201-b46e-ffe2ad124f19","system_id":"levelo_inurba_marseille","lat":43.32895,"lon":5.38407,"is_reserved":false,"is_disabled":false,"rental_uris":{"android":"levelo://app?vid=d799b321-3a7d-4201-b46e-ffe2ad124f19","ios":"levelo://app?vid=d799b321-3a7d-4201-b46e-ffe2ad124f19"},"vehicle_type_id":"4","last_reported":1752228718,"current_range_meters":22000,"station_id":"","pricing_plan_id":"cebpf4jnsgd1na2vs0mg"},{"bike_id":"0fd6c78d-9958-4b43-afd1-c57ce2fd1d97","system_id":"levelo_inurba_marseille","lat":43.271799,"lon":5.409839,"is_reserved":false,"is_disabled":false,"rental_uris":{"android":"levelo://app?vid=0fd6c78d-9958-4b43-afd1-c57ce2fd1d97","ios":"levelo://app?vid=0fd6c78d-9958-4b43-afd1-c57ce2fd1d97"},"vehicle_type_id":"4","last_reported":1752228718,"current_range_meters":22000,"station_id":"ce4bhl12rcd13ifvqgf0","pricing_plan_id":"cebpf4jnsgd1na2vs0mg"},{"bike_id":"a53663f9-708d-4eee-a699-2a5efa6d1abc","system_id":"levelo_inurba_marseille","lat":43.30154,"lon":5.38079,"is_reserved":false,"is_disabled":false,"rental_uris":{"android":"levelo://app?vid=a53663f9-708d-4eee-a699-2a5efa6d1abc","ios":"levelo://app?vid=a53663f9-708d-4eee-a699-2a5efa6d1abc"},"vehicle_type_id":"4","last_reported":1752228718,"current_range_meters":22400,"station_id":"ce4bgjp2rcd13ifvqbh0","pricing_plan_id":"cebpf4jnsgd1na2vs0mg"},{"bike_id":"5642ad56-a997-4ea1-aa10-6c552c50ffab","system_id":"levelo_inurba_marseille","lat":43.32493,"lon":5.36567,"is_reserved":false,"is_disabled":false,"rental_uris":{"android":"levelo://app?vid=5642ad56-a997-4ea1-aa10-6c552c50ffab","ios":"levelo://app?vid=5642ad56-a997-4ea1-aa10-6c552c50ffab"},"vehicle_type_id":"4","last_reported":1752228718,"current_range_meters":22400,"station_id":"ce4bhs12rcd13ifvqhvg","pricing_plan_id":"cebpf4jnsgd1na2vs0mg"},{"bike_id":"9c306d2c-4c4a-458b-8440-eb87e2f8e252","system_id":"levelo_inurba_marseille","lat":43.2984,"lon":5.36263,"is_reserved":false,"is_disabled":false,"rental_uris":{"android":"levelo://app?vid=9c306d2c-4c4a-458b-8440-eb87e2f8e252","ios":"levelo://app?vid=9c306d2c-4c4a-458b-8440-eb87e2f8e252"},"vehicle_type_id":"4","last_reported":1752228718,"current_range_meters":22400,"station_id":"ce4bgpp2rcd13ifvqc3g","pricing_plan_id":"cebpf4jnsgd1na2vs0mg"},{"bike_id":"ee5338dd-18a1-4b48-a5b0-f8c72f7b1319","system_id":"levelo_inurba_marseille","lat":43.31783,"lon":5.36819,"is_reserved":false,"is_disabled":false,"rental_uris":{"android":"levelo://app?vid=ee5338dd-18a1-4b48-a5b0-f8c72f7b1319","ios":"levelo://app?vid=ee5338dd-18a1-4b48-a5b0-f8c72f7b1319"},"vehicle_type_id":"4","last_reported":1752228718,"current_range_meters":22400,"station_id":"","pricing_plan_id":"cebpf4jnsgd1na2vs0mg"},{"bike_id":"fca7f33a-4f3d-44ac-bf6b-be967adaabdb","system_id":"levelo_inurba_marseille","lat":43.24075,"lon":5.37757,"is_reserved":false,"is_disabled":false,"rental_uris":{"android":"levelo://app?vid=fca7f33a-4f3d-44ac-bf6b-be967adaabdb","ios":"levelo://app?vid=fca7f33a-4f3d-44ac-bf6b-be967adaabdb"},"vehicle_type_id":"4","last_reported":1752228718,"current_range_meters":22400,"station_id":"ce4bhnp2rcd13ifvqgvg","pricing_plan_id":"cebpf4jnsgd1na2vs0mg"},{"bike_id":"c5a39dec-666e-4b0f-bdf8-74f98f49d293","system_id":"levelo_inurba_marseille","lat":43.28613,"lon":5.3511,"is_reserved":false,"is_disabled":false,"rental_uris":{"android":"levelo://app?vid=c5a39dec-666e-4b0f-bdf8-74f98f49d293","ios":"levelo://app?vid=c5a39dec-666e-4b0f-bdf8-74f98f49d293"},"vehicle_type_id":"4","last_reported":1752228718,"current_range_meters":22400,"station_id":"ce4bhch2rcd13ifvqeug","pricing_plan_id":"cebpf4jnsgd1na2vs0mg"},{"bike_id":"0b5568ad-5cb1-43dd-96ea-ac921d768809","system_id":"levelo_inurba_marseille","lat":43.304775,"lon":5.37905,"is_reserved":false,"is_disabled":false,"rental_uris":{"android":"levelo://app?vid=0b5568ad-5cb1-43dd-96ea-ac921d768809","ios":"levelo://app?vid=0b5568ad-5cb1-43dd-96ea-ac921d768809"},"vehicle_type_id":"4","last_reported":1752228718,"current_range_meters":22400,"station_id":"ce4bgup2rcd13ifvqcn0","pricing_plan_id":"cebpf4jnsgd1na2vs0mg"},{"bike_id":"d0151706-e426-4aac-aab0-942118aa0874","system_id":"levelo_inurba_marseille","lat":43.30539,"lon":5.365483,"is_reserved":false,"is_disabled":false,"rental_uris":{"android":"levelo://app?vid=d0151706-e426-4aac-aab0-942118aa0874","ios":"levelo://app?vid=d0151706-e426-4aac-aab0-942118aa0874"},"vehicle_type_id":"4","last_reported":1752228718,"current_range_meters":22400,"station_id":"ce4bgs12rcd13ifvqcag","pricing_plan_id":"cebpf4jnsgd1na2vs0mg"},{"bike_id":"a0137104-c9f4-434a-a5e3-80725cd5a2b4","system_id":"levelo_inurba_marseille","lat":43.21194,"lon":5.35087,"is_reserved":false,"is_disabled":false,"rental_uris":{"android":"levelo://app?vid=a0137104-c9f4-434a-a5e3-80725cd5a2b4","ios":"levelo://app?vid=a0137104-c9f4-434a-a5e3-80725cd5a2b4"},"vehicle_type_id":"4","last_reported":1752228718,"current_range_meters":22400,"station_id":"st_cvj6sg6p6f1abm77japg","pricing_plan_id":"cebpf4jnsgd1na2vs0mg"},{"bike_id":"f13872ab-8eaa-44e3-b5c1-b3018fdd74ad","system_id":"levelo_inurba_marseille","lat":43.32494,"lon":5.36554,"is_reserved":false,"is_disabled":false,"rental_uris":{"android":"levelo://app?vid=f13872ab-8eaa-44e3-b5c1-b3018fdd74ad","ios":"levelo://app?vid=f13872ab-8eaa-44e3-b5c1-b3018fdd74ad"},"vehicle_type_id":"4","last_reported":1752228718,"current_range_meters":22400,"station_id":"ce4bhs12rcd13ifvqhvg","pricing_plan_id":"cebpf4jnsgd1na2vs0mg"},{"bike_id":"ff1b1348-affc-404b-b779-57825373ffda","system_id":"levelo_inurba_marseille","lat":43.32537,"lon":5.41429,"is_reserved":false,"is_disabled":false,"rental_uris":{"android":"levelo://app?vid=ff1b1348-affc-404b-b779-57825373ffda","ios":"levelo://app?vid=ff1b1348-affc-404b-b779-57825373ffda"},"vehicle_type_id":"4","last_reported":1752228718,"current_range_meters":22400,"station_id":"ce4bhq12rcd13ifvqhhg","pricing_plan_id":"cebpf4jnsgd1na2vs0mg"},{"bike_id":"72b39aad-c91e-4545-8fe5-aa395b7d62ba","system_id":"levelo_inurba_marseille","lat":43.31927,"lon":5.37638,"is_reserved":false,"is_disabled":false,"rental_uris":{"android":"levelo://app?vid=72b39aad-c91e-4545-8fe5-aa395b7d62ba","ios":"levelo://app?vid=72b39aad-c91e-4545-8fe5-aa395b7d62ba"},"vehicle_type_id":"4","last_reported":1752228718,"current_range_meters":22800,"station_id":"","pricing_plan_id":"cebpf4jnsgd1na2vs0mg"},{"bike_id":"12b85acd-5450-41f3-a095-6932f0a1abab","system_id":"levelo_inurba_marseille","lat":43.3022,"lon":5.37998,"is_reserved":false,"is_disabled":false,"rental_uris":{"android":"levelo://app?vid=12b85acd-5450-41f3-a095-6932f0a1abab","ios":"levelo://app?vid=12b85acd-5450-41f3-a095-6932f0a1abab"},"vehicle_type_id":"4","last_reported":1752228718,"current_range_meters":22800,"station_id":"ce4bgjp2rcd13ifvqbh0","pricing_plan_id":"cebpf4jnsgd1na2vs0mg"},{"bike_id":"1b4a5a61-9876-4c7e-bdbe-b2d0cb8dc927","system_id":"levelo_inurba_marseille","lat":43.29869,"lon":5.39724,"is_reserved":false,"is_disabled":false,"rental_uris":{"android":"levelo://app?vid=1b4a5a61-9876-4c7e-bdbe-b2d0cb8dc927","ios":"levelo://app?vid=1b4a5a61-9876-4c7e-bdbe-b2d0cb8dc927"},"vehicle_type_id":"4","last_reported":1752228718,"current_range_meters":22800,"station_id":"ce4bh0h2rcd13ifvqd50","pricing_plan_id":"cebpf4jnsgd1na2vs0mg"},{"bike_id":"9a149b69-bef9-4f43-b5f8-fb02eb13bb5a","system_id":"levelo_inurba_marseille","lat":43.29851,"lon":5.36283,"is_reserved":false,"is_disabled":false,"rental_uris":{"android":"levelo://app?vid=9a149b69-bef9-4f43-b5f8-fb02eb13bb5a","ios":"levelo://app?vid=9a149b69-bef9-4f43-b5f8-fb02eb13bb5a"},"vehicle_type_id":"4","last_reported":1752228718,"current_range_meters":22800,"station_id":"ce4bgpp2rcd13ifvqc3g","pricing_plan_id":"cebpf4jnsgd1na2vs0mg"},{"bike_id":"64b5aef6-e300-41a9-a308-e78c5106a024","system_id":"levelo_inurba_marseille","lat":43.314453,"lon":5.380012,"is_reserved":false,"is_disabled":false,"rental_uris":{"android":"levelo://app?vid=64b5aef6-e300-41a9-a308-e78c5106a024","ios":"levelo://app?vid=64b5aef6-e300-41a9-a308-e78c5106a024"},"vehicle_type_id":"4","last_reported":1752228718,"current_range_meters":22800,"station_id":"ce4bhsp2rcd13ifvqi50","pricing_plan_id":"cebpf4jnsgd1na2vs0mg"},{"bike_id":"72e95b8b-8554-4472-861b-33ddc5882252","system_id":"levelo_inurba_marseille","lat":43.31483,"lon":5.37273,"is_reserved":false,"is_disabled":false,"rental_uris":{"android":"levelo://app?vid=72e95b8b-8554-4472-861b-33ddc5882252","ios":"levelo://app?vid=72e95b8b-8554-4472-861b-33ddc5882252"},"vehicle_type_id":"4","last_reported":1752228718,"current_range_meters":22800,"station_id":"ce4bgt12rcd13ifvqcd0","pricing_plan_id":"cebpf4jnsgd1na2vs0mg"},{"bike_id":"aff799c6-624c-406e-b77d-09615957b9b1","system_id":"levelo_inurba_marseille","lat":43.28268,"lon":5.35035,"is_reserved":false,"is_disabled":false,"rental_uris":{"android":"levelo://app?vid=aff799c6-624c-406e-b77d-09615957b9b1","ios":"levelo://app?vid=aff799c6-624c-406e-b77d-09615957b9b1"},"vehicle_type_id":"4","last_reported":1752228718,"current_range_meters":22800,"station_id":"ce4bhbp2rcd13ifvqerg","pricing_plan_id":"cebpf4jnsgd1na2vs0mg"},{"bike_id":"0cff087f-6041-4b4e-94bc-08ba6d8fd72b","system_id":"levelo_inurba_marseille","lat":43.281542,"lon":5.426045,"is_reserved":false,"is_disabled":false,"rental_uris":{"android":"levelo://app?vid=0cff087f-6041-4b4e-94bc-08ba6d8fd72b","ios":"levelo://app?vid=0cff087f-6041-4b4e-94bc-08ba6d8fd72b"},"vehicle_type_id":"4","last_reported":1752228718,"current_range_meters":22800,"station_id":"ce4bhnh2rcd13ifvqgug","pricing_plan_id":"cebpf4jnsgd1na2vs0mg"},{"bike_id":"1cc9134c-99c9-416c-8dad-09de38c72057","system_id":"levelo_inurba_marseille","lat":43.31171,"lon":5.38711,"is_reserved":false,"is_disabled":false,"rental_uris":{"android":"levelo://app?vid=1cc9134c-99c9-416c-8dad-09de38c72057","ios":"levelo://app?vid=1cc9134c-99c9-416c-8dad-09de38c72057"},"vehicle_type_id":"4","last_reported":1752228718,"current_range_meters":22800,"station_id":"ce4bgv12rcd13ifvqcp0","pricing_plan_id":"cebpf4jnsgd1na2vs0mg"},{"bike_id":"184e68d0-e2b8-4ceb-8c2f-81a7a6818fb9","system_id":"levelo_inurba_marseille","lat":43.28856,"lon":5.35849,"is_reserved":false,"is_disabled":false,"rental_uris":{"android":"levelo://app?vid=184e68d0-e2b8-4ceb-8c2f-81a7a6818fb9","ios":"levelo://app?vid=184e68d0-e2b8-4ceb-8c2f-81a7a6818fb9"},"vehicle_type_id":"4","last_reported":1752228718,"current_range_meters":22800,"station_id":"ce4bhb12rcd13ifvqem0","pricing_plan_id":"cebpf4jnsgd1na2vs0mg"},{"bike_id":"43927ded-789d-4fe6-878e-cd8581ef1602","system_id":"levelo_inurba_marseille","lat":43.29724,"lon":5.37685,"is_reserved":false,"is_disabled":false,"rental_uris":{"android":"levelo://app?vid=43927ded-789d-4fe6-878e-cd8581ef1602","ios":"levelo://app?vid=43927ded-789d-4fe6-878e-cd8581ef1602"},"vehicle_type_id":"4","last_reported":1752228718,"current_range_meters":21600,"station_id":"ce4bgkh2rcd13ifvqbl0","pricing_plan_id":"cebpf4jnsgd1na2vs0mg"},{"bike_id":"4953d402-46d5-4d00-828b-0bb72289f727","system_id":"levelo_inurba_marseille","lat":43.30145,"lon":5.38065,"is_reserved":false,"is_disabled":false,"rental_uris":{"android":"levelo://app?vid=4953d402-46d5-4d00-828b-0bb72289f727","ios":"levelo://app?vid=4953d402-46d5-4d00-828b-0bb72289f727"},"vehicle_type_id":"4","last_reported":1752228718,"current_range_meters":23200,"station_id":"ce4bgjp2rcd13ifvqbh0","pricing_plan_id":"cebpf4jnsgd1na2vs0mg"},{"bike_id":"4b8da722-ee9e-48a4-a5e5-3a8a10364708","system_id":"levelo_inurba_marseille","lat":43.31242,"lon":5.37813,"is_reserved":false,"is_disabled":false,"rental_uris":{"android":"levelo://app?vid=4b8da722-ee9e-48a4-a5e5-3a8a10364708","ios":"levelo://app?vid=4b8da722-ee9e-48a4-a5e5-3a8a10364708"},"vehicle_type_id":"4","last_reported":1752228718,"current_range_meters":23200,"station_id":"","pricing_plan_id":"cebpf4jnsgd1na2vs0mg"},{"bike_id":"3d7dfd26-98ec-4a75-83ca-23888c03c36b","system_id":"levelo_inurba_marseille","lat":43.2791,"lon":5.39583,"is_reserved":false,"is_disabled":false,"rental_uris":{"android":"levelo://app?vid=3d7dfd26-98ec-4a75-83ca-23888c03c36b","ios":"levelo://app?vid=3d7dfd26-98ec-4a75-83ca-23888c03c36b"},"vehicle_type_id":"4","last_reported":1752228718,"current_range_meters":23200,"station_id":"ce4bhf92rcd13ifvqf40","pricing_plan_id":"cebpf4jnsgd1na2vs0mg"},{"bike_id":"5006382d-ac24-4c94-a268-7b2a07055c8a","system_id":"levelo_inurba_marseille","lat":43.2512,"lon":5.40321,"is_reserved":false,"is_disabled":false,"rental_uris":{"android":"levelo://app?vid=5006382d-ac24-4c94-a268-7b2a07055c8a","ios":"levelo://app?vid=5006382d-ac24-4c94-a268-7b2a07055c8a"},"vehicle_type_id":"4","last_reported":1752228718,"current_range_meters":23200,"station_id":"ce4bhlh2rcd13ifvqgig","pricing_plan_id":"cebpf4jnsgd1na2vs0mg"},{"bike_id":"448de875-8707-4910-904b-03c70c46afab","system_id":"levelo_inurba_marseille","lat":43.28268,"lon":5.35093,"is_reserved":false,"is_disabled":false,"rental_uris":{"android":"levelo://app?vid=448de875-8707-4910-904b-03c70c46afab","ios":"levelo://app?vid=448de875-8707-4910-904b-03c70c46afab"},"vehicle_type_id":"4","last_reported":1752228718,"current_range_meters":23200,"station_id":"ce4bhbp2rcd13ifvqerg","pricing_plan_id":"cebpf4jnsgd1na2vs0mg"},{"bike_id":"01f802b2-e1bd-4941-87e8-460a90ed8043","system_id":"levelo_inurba_marseille","lat":43.29302,"lon":5.37473,"is_reserved":false,"is_disabled":false,"rental_uris":{"android":"levelo://app?vid=01f802b2-e1bd-4941-87e8-460a90ed8043","ios":"levelo://app?vid=01f802b2-e1bd-4941-87e8-460a90ed8043"},"vehicle_type_id":"4","last_reported":1752228718,"current_range_meters":24000,"station_id":"ce4bgi12rcd13ifvqb70","pricing_plan_id":"cebpf4jnsgd1na2vs0mg"},{"bike_id":"d603e9d4-8ad6-48e2-a0cb-89b4426e45c5","system_id":"levelo_inurba_marseille","lat":43.25935,"lon":5.40904,"is_reserved":false,"is_disabled":false,"rental_uris":{"android":"levelo://app?vid=d603e9d4-8ad6-48e2-a0cb-89b4426e45c5","ios":"levelo://app?vid=d603e9d4-8ad6-48e2-a0cb-89b4426e45c5"},"vehicle_type_id":"4","last_reported":1752228718,"current_range_meters":24000,"station_id":"ce4bhm92rcd13ifvqglg","pricing_plan_id":"cebpf4jnsgd1na2vs0mg"},{"bike_id":"bb531fa5-d9db-445b-a2fd-0a40420040cb","system_id":"levelo_inurba_marseille","lat":43.30515,"lon":5.36549,"is_reserved":false,"is_disabled":false,"rental_uris":{"android":"levelo://app?vid=bb531fa5-d9db-445b-a2fd-0a40420040cb","ios":"levelo://app?vid=bb531fa5-d9db-445b-a2fd-0a40420040cb"},"vehicle_type_id":"4","last_reported":1752228718,"current_range_meters":24000,"station_id":"","pricing_plan_id":"cebpf4jnsgd1na2vs0mg"},{"bike_id":"b917b90f-fc6c-426e-bf8d-98724e231651","system_id":"levelo_inurba_marseille","lat":43.23153,"lon":5.43734,"is_reserved":false,"is_disabled":false,"rental_uris":{"android":"levelo://app?vid=b917b90f-fc6c-426e-bf8d-98724e231651","ios":"levelo://app?vid=b917b90f-fc6c-426e-bf8d-98724e231651"},"vehicle_type_id":"4","last_reported":1752228718,"current_range_meters":24000,"station_id":"ce4bhmp2rcd13ifvqgog","pricing_plan_id":"cebpf4jnsgd1na2vs0mg"},