{"last_updated":1729163310,"ttl":60,"version":"2.2","data":{"bikes":[{"bike_id":"91318656-e89d-4173-8734-97b714b4dfb9","system_id":"levelo_inurba_marseille","lat":43.257294,"lon":5.41108,"is_reserved":false,"is_disabled":false,"rental_uris":{"android":"levelo://app?vid=91318656-e89d-4173-8734-97b714b4dfb9","ios":"levelo://app?vid=91318656-e89d-4173-8734-97b714b4dfb9"},"vehicle_type_id":"4","last_reported":1729163310,"current_range_meters":35600,"station_id":"ce4bhkp2rcd13ifvqgd0","pricing_plan_id":"cebpf4jnsgd1na2vs0mg"},{"bike_id":"2fb4ca25-2ce0-4c9a-b2e0-60a958dcf51a","system_id":"levelo_inurba_marseille","lat":43.25004,"lon":5.38931,"is_reserved":false,"is_disabled":false,"rental_uris":{"android":"levelo://app?vid=2fb4ca25-2ce0-4c9a-b2e0-60a958dcf51a","ios":"levelo://app?vid=2fb4ca25-2ce0-4c9a-b2e0-60a958dcf51a"},"vehicle_type_id":"4","last_reported":1729163310,"current_range_meters":38800,"station_id":"ce4bhgp2rcd13ifvqfd0","pricing_plan_id":"cebpf4jnsgd1na2vs0mg"},{"bike_id":"d3e57f79-eca2-40c3-af9a-535e84a0b2a7","system_id":"levelo_inurba_marseille","lat":43.3047,"lon":5.37909,"is_reserved":false,"is_disabled":false,"rental_uris":{"android":"levelo://app?vid=d3e57f79-eca2-40c3-af9a-535e84a0b2a7","ios":"levelo://app?vid=d3e57f79-eca2-40c3-af9a-535e84a0b2a7"},"vehicle_type_id":"4","last_reported":1729163310,"current_range_meters":8000,"station_id":"ce4bgup2rcd13ifvqcn0","pricing_plan_id":"cebpf4jnsgd1na2vs0mg"},{"bike_id":"07916009-96ca-407b-aeab-7d7c374148f1","system_id":"levelo_inurba_marseille","lat":43.30467,"lon":5.37909,"is_reserved":false,"is_disabled":false,"rental_uris":{"android":"levelo://app?vid=07916009-96ca-407b-aeab-7d7c374148f1","ios":"levelo://app?vid=07916009-96ca-407b-aeab-7d7c374148f1"},"vehicle_type_id":"4","last_reported":1729163310,"current_range_meters":29600,"station_id":"ce4bgup2rcd13ifvqcn0","pricing_plan_id":"cebpf4jnsgd1na2vs0mg"},{"bike_id":"676ec6c4-6b42-43e0-81fe-327782965da5","system_id":"levelo_inurba_marseille","lat":43.337444,"lon":5.374475,"is_reserved":false,"is_disabled":false,"rental_uris":{"android":"levelo://app?vid=676ec6c4-6b42-43e0-81fe-327782965da5","ios":"levelo://app?vid=676ec6c4-6b42-43e0-81fe-327782965da5"},"vehicle_type_id":"4","last_reported":1729163310,"current_range_meters":16800,"station_id":"","pricing_plan_id":"cebpf4jnsgd1na2vs0mg"},{"bike_id":"9d14cfb8-7a20-4ee5-8f0a-15d082c27676","system_id":"levelo_inurba_marseille","lat":43.28617,"lon":5.35101,"is_reserved":false,"is_disabled":false,"rental_uris":{"android":"levelo://app?vid=9d14cfb8-7a20-4ee5-8f0a-15d082c27676","ios":"levelo://app?vid=9d14cfb8-7a20-4ee5-8f0a-15d082c27676"},"vehicle_type_id":"4","last_reported":1729163310,"current_range_meters":3600,"station_id":"ce4bhch2rcd13ifvqeug","pricing_plan_id":"cebpf4jnsgd1na2vs0mg"},{"bike_id":"3a70df77-8d58-4e19-a561-d0eeef63c042","system_id":"levelo_inurba_marseille","lat":43.29228,"lon":5.36063,"is_reserved":false,"is_disabled":false,"rental_uris":{"android":"levelo://app?vid=3a70df77-8d58-4e19-a561-d0eeef63c042","ios":"levelo://app?vid=3a70df77-8d58-4e19-a561-d0eeef63c042"},"vehicle_type_id":"4","last_reported":1729163310,"current_range_meters":29600,"station_id":"ce4bhbh2rcd13ifvqeqg","pricing_plan_id":"cebpf4jnsgd1na2vs0mg"},{"bike_id":"319bcf6e-3cdb-4d52-bfd1-b41d9210f02d","system_id":"levelo_inurba_marseille","lat":43.29257,"lon":5.40916,"is_reserved":false,"is_disabled":false,"rental_uris":{"android":"levelo://app?vid=319bcf6e-3cdb-4d52-bfd1-b41d9210f02d","ios":"levelo://app?vid=319bcf6e-3cdb-4d52-bfd1-b41d9210f02d"},"vehicle_type_id":"4","last_reported":1729163310,"current_range_meters":21600,"station_id":"ce4bh192rcd13ifvqdc0","pricing_plan_id":"cebpf4jnsgd1na2vs0mg"},{"bike_id":"a39d0b51-4ce0-4f37-bb2b-d5b4aa47de9d","system_id":"levelo_inurba_marseille","lat":43.29522,"lon":5.39033,"is_reserved":false,"is_disabled":false,"rental_uris":{"android":"levelo://app?vid=a39d0b51-4ce0-4f37-bb2b-d5b4aa47de9d","ios":"levelo://app?vid=a39d0b51-4ce0-4f37-bb2b-d5b4aa47de9d"},"vehicle_type_id":"4","last_reported":1729163310,"current_range_meters":38800,"station_id":"ce4bh3p2rcd13ifvqdp0","pricing_plan_id":"cebpf4jnsgd1na2vs0mg"},{"bike_id":"2f775abc-fff9-4a0c-87c5-59605f0cce77","system_id":"levelo_inurba_marseille","lat":43.29005,"lon":5.35608,"is_reserved":false,"is_disabled":false,"rental_uris":{"android":"levelo://app?vid=2f775abc-fff9-4a0c-87c5-59605f0cce77","ios":"levelo://app?vid=2f775abc-fff9-4a0c-87c5-59605f0cce77"},"vehicle_type_id":"4","last_reported":1729163310,"current_range_meters":6400,"station_id":"ce4bhb92rcd13ifvqen0","pricing_plan_id":"cebpf4jnsgd1na2vs0mg"},{"bike_id":"7326fcbe-48fe-4d8e-8a02-852c1a199c8f","system_id":"levelo_inurba_marseille","lat":43.29877,"lon":5.3891,"is_reserved":false,"is_disabled":false,"rental_uris":{"android":"levelo://app?vid=7326fcbe-48fe-4d8e-8a02-852c1a199c8f","ios":"levelo://app?vid=7326fcbe-48fe-4d8e-8a02-852c1a199c8f"},"vehicle_type_id":"4","last_reported":1729163310,"current_range_meters":32000,"station_id":"ce4bh392rcd13ifvqdl0","pricing_plan_id":"cebpf4jnsgd1na2vs0mg"},{"bike_id":"09b834d1-2303-45f6-a9e6-50021bda6cd2","system_id":"levelo_inurba_marseille","lat":43.3047,"lon":5.37908,"is_reserved":false,"is_disabled":false,"rental_uris":{"android":"levelo://app?vid=09b834d1-2303-45f6-a9e6-50021bda6cd2","ios":"levelo://app?vid=09b834d1-2303-45f6-a9e6-50021bda6cd2"},"vehicle_type_id":"4","last_reported":1729163310,"current_range_meters":20000,"station_id":"ce4bgup2rcd13ifvqcn0","pricing_plan_id":"cebpf4jnsgd1na2vs0mg"},{"bike_id":"5141d305-5e23-4381-8698-16fe1c0fd3cd","system_id":"levelo_inurba_marseille","lat":43.31181,"lon":5.38726,"is_reserved":false,"is_disabled":false,"rental_uris":{"android":"levelo://app?vid=5141d305-5e23-4381-8698-16fe1c0fd3cd","ios":"levelo://app?vid=5141d305-5e23-4381-8698-16fe1c0fd3cd"},"vehicle_type_id":"4","last_reported":1729163310,"current_range_meters":28800,"station_id":"ce4bgv12rcd13ifvqcp0","pricing_plan_id":"cebpf4jnsgd1na2vs0mg"},{"bike_id":"90f115d4-4af8-473a-a7da-763f1a797bff","system_id":"levelo_inurba_marseille","lat":43.30554,"lon":5.36537,"is_reserved":false,"is_disabled":false,"rental_uris":{"android":"levelo://app?vid=90f115d4-4af8-473a-a7da-763f1a797bff","ios":"levelo://app?vid=90f115d4-4af8-473a-a7da-763f1a797bff"},"vehicle_type_id":"4","last_reported":1729163310,"current_range_meters":19200,"station_id":"ce4bgs12rcd13ifvqcag","pricing_plan_id":"cebpf4jnsgd1na2vs0mg"},{"bike_id":"8da93fe4-2744-4301-b12b-7c549653ff96","system_id":"levelo_inurba_marseille","lat":43.30448,"lon":5.39752,"is_reserved":false,"is_disabled":false,"rental_uris":{"android":"levelo://app?vid=8da93fe4-2744-4301-b12b-7c549653ff96","ios":"levelo://app?vid=8da93fe4-2744-4301-b12b-7c549653ff96"},"vehicle_type_id":"4","last_reported":1729163310,"current_range_meters":30800,"station_id":"ce4bh092rcd13ifvqd20","pricing_plan_id":"cebpf4jnsgd1na2vs0mg"},{"bike_id":"069ee1d2-fc78-45cc-bf18-09ba8d8bae53","system_id":"levelo_inurba_marseille","lat":43.25084,"lon":5.39514,"is_reserved":false,"is_disabled":false,"rental_uris":{"android":"levelo://app?vid=069ee1d2-fc78-45cc-bf18-09ba8d8bae53","ios":"levelo://app?vid=069ee1d2-fc78-45cc-bf18-09ba8d8bae53"},"vehicle_type_id":"4","last_reported":1729163310,"current_range_meters":8400,"station_id":"ce4bhm12rcd13ifvqgkg","pricing_plan_id":"cebpf4jnsgd1na2vs0mg"},{"bike_id":"b11dc318-bc95-421d-8543-f510ab40f75e","system_id":"levelo_inurba_marseille","lat":43.29191,"lon":5.35808,"is_reserved":false,"is_disabled":false,"rental_uris":{"android":"levelo://app?vid=b11dc318-bc95-421d-8543-f510ab40f75e","ios":"levelo://app?vid=b11dc318-bc95-421d-8543-f510ab40f75e"},"vehicle_type_id":"4","last_reported":1729163310,"current_range_meters":24000,"station_id":"ce4bhb12rcd13ifvqel0","pricing_plan_id":"cebpf4jnsgd1na2vs0mg"},{"bike_id":"ba191648-4e78-4f30-855c-028b661fd681","system_id":"levelo_inurba_marseille","lat":43.30317,"lon":5.3689,"is_reserved":false,"is_disabled":false,"rental_uris":{"android":"levelo://app?vid=ba191648-4e78-4f30-855c-028b661fd681","ios":"levelo://app?vid=ba191648-4e78-4f30-855c-028b661fd681"},"vehicle_type_id":"4","last_reported":1729163310,"current_range_meters":6000,"station_id":"ce4bgqh2rcd13ifvqc5g","pricing_plan_id":"cebpf4jnsgd1na2vs0mg"},{"bike_id":"8a46872d-5d6e-4776-9976-389902d8c096","system_id":"levelo_inurba_marseille","lat":43.23147,"lon":5.43721,"is_reserved":false,"is_disabled":false,"rental_uris":{"android":"levelo://app?vid=8a46872d-5d6e-4776-9976-389902d8c096","ios":"levelo://app?vid=8a46872d-5d6e-4776-9976-389902d8c096"},"vehicle_type_id":"4","last_reported":1729163310,"current_range_meters":16000,"station_id":"ce4bhmp2rcd13ifvqgog","pricing_plan_id":"cebpf4jnsgd1na2vs0mg"},{"bike_id":"4ae2c184-8c50-452d-87fb-8f7bf4f540f3","system_id":"levelo_inurba_marseille","lat":43.24656,"lon":5.38897,"is_reserved":false,"is_disabled":false,"rental_uris":{"android":"levelo://app?vid=4ae2c184-8c50-452d-87fb-8f7bf4f540f3","ios":"levelo://app?vid=4ae2c184-8c50-452d-87fb-8f7bf4f540f3"},"vehicle_type_id":"4","last_reported":1729163310,"current_range_meters":38800,"station_id":"ce4bhg12rcd13ifvqf60","pricing_plan_id":"cebpf4jnsgd1na2vs0mg"},{"bike_id":"fde8d09b-4235-450e-a4e9-07961a536a9d","system_id":"levelo_inurba_marseille","lat":43.31317,"lon":5.40539,"is_reserved":false,"is_disabled":false,"rental_uris":{"android":"levelo://app?vid=fde8d09b-4235-450e-a4e9-07961a536a9d","ios":"levelo://app?vid=fde8d09b-4235-450e-a4e9-07961a536a9d"},"vehicle_type_id":"4","last_reported":1729163310,"current_range_meters":2800,"station_id":"ce4bhqh2rcd13ifvqhlg","pricing_plan_id":"cebpf4jnsgd1na2vs0mg"},{"bike_id":"6eb2826c-dc8e-4ec2-85c7-37b863a3445b","system_id":"levelo_inurba_marseille","lat":43.290443,"lon":5.359227,"is_reserved":false,"is_disabled":false,"rental_uris":{"android":"levelo://app?vid=6eb2826c-dc8e-4ec2-85c7-37b863a3445b","ios":"levelo://app?vid=6eb2826c-dc8e-4ec2-85c7-37b863a3445b"},"vehicle_type_id":"4","last_reported":1729163310,"current_range_meters":39200,"station_id":"ce4bha92rcd13ifvqeg0","pricing_plan_id":"cebpf4jnsgd1na2vs0mg"},{"bike_id":"59a91fae-488c-4d5f-819b-3df7ee95c91f","system_id":"levelo_inurba_marseille","lat":43.2952,"lon":5.39034,"is_reserved":false,"is_disabled":false,"rental_uris":{"android":"levelo://app?vid=59a91fae-488c-4d5f-819b-3df7ee95c91f","ios":"levelo://app?vid=59a91fae-488c-4d5f-819b-3df7ee95c91f"},"vehicle_type_id":"4","last_reported":1729163310,"current_range_meters":39200,"station_id":"ce4bh3p2rcd13ifvqdp0","pricing_plan_id":"cebpf4jnsgd1na2vs0mg"},{"bike_id":"56da5a5d-e301-4452-8c07-d6a5a0f92928","system_id":"levelo_inurba_marseille","lat":43.30547,"lon":5.36709,"is_reserved":false,"is_disabled":false,"rental_uris":{"android":"levelo://app?vid=56da5a5d-e301-4452-8c07-d6a5a0f92928","ios":"levelo://app?vid=56da5a5d-e301-4452-8c07-d6a5a0f92928"},"vehicle_type_id":"4","last_reported":1729163310,"current_range_meters":38800,"station_id":"ce4bgrp2rcd13ifvqc9g","pricing_plan_id":"cebpf4jnsgd1na2vs0mg"},{"bike_id":"052b3563-392a-4857-8174-027696f961ab","system_id":"levelo_inurba_marseille","lat":43.24651,"lon":5.3891,"is_reserved":false,"is_disabled":false,"rental_uris":{"android":"levelo://app?vid=052b3563-392a-4857-8174-027696f961ab","ios":"levelo://app?vid=052b3563-392a-4857-8174-027696f961ab"},"vehicle_type_id":"4","last_reported":1729163310,"current_range_meters":24000,"station_id":"ce4bhg12rcd13ifvqf60","pricing_plan_id":"cebpf4jnsgd1na2vs0mg"},{"bike_id":"7088a2f7-553c-47a2-a80a-ed0ece411348","system_id":"levelo_inurba_marseille","lat":43.27182,"lon":5.40992,"is_reserved":false,"is_disabled":false,"rental_uris":{"android":"levelo://app?vid=7088a2f7-553c-47a2-a80a-ed0ece411348","ios":"levelo://app?vid=7088a2f7-553c-47a2-a80a-ed0ece411348"},"vehicle_type_id":"4","last_reported":1729163310,"current_range_meters":14400,"station_id":"ce4bhl12rcd13ifvqgf0","pricing_plan_id":"cebpf4jnsgd1na2vs0mg"},{"bike_id":"ac5cccbe-7013-43ae-ade3-3f454ea3d67c","system_id":"levelo_inurba_marseille","lat":43.29525,"lon":5.39039,"is_reserved":false,"is_disabled":false,"rental_uris":{"android":"levelo://app?vid=ac5cccbe-7013-43ae-ade3-3f454ea3d67c","ios":"levelo://app?vid=ac5cccbe-7013-43ae-ade3-3f454ea3d67c"},"vehicle_type_id":"4","last_reported":1729163310,"current_range_meters":39200,"station_id":"ce4bh3p2rcd13ifvqdp0","pricing_plan_id":"cebpf4jnsgd1na2vs0mg"},{"bike_id":"1c19b709-4b2c-41c2-a05e-20ba53344a40","system_id":"levelo_inurba_marseille","lat":43.27499,"lon":5.42451,"is_reserved":false,"is_disabled":false,"rental_uris":{"android":"levelo://app?vid=1c19b709-4b2c-41c2-a05e-20ba53344a40","ios":"levelo://app?vid=1c19b709-4b2c-41c2-a05e-20ba53344a40"},"vehicle_type_id":"4","last_reported":1729163310,"current_range_meters":28000,"station_id":"ce4bhn92rcd13ifvqgrg","pricing_plan_id":"cebpf4jnsgd1na2vs0mg"},{"bike_id":"61e062bc-75a6-4a18-aa93-657a98c67858","system_id":"levelo_inurba_marseille","lat":43.3062,"lon":5.37207,"is_reserved":false,"is_disabled":false,"rental_uris":{"android":"levelo://app?vid=61e062bc-75a6-4a18-aa93-657a98c67858","ios":"levelo://app?vid=61e062bc-75a6-4a18-aa93-657a98c67858"},"vehicle_type_id":"4","last_reported":1729163310,"current_range_meters":9200,"station_id":"ce4bgqh2rcd13ifvqc4g","pricing_plan_id":"cebpf4jnsgd1na2vs0mg"},{"bike_id":"020b2e33-6789-499b-b75d-70502554203a","system_id":"levelo_inurba_marseille","lat":43.29867,"lon":5.38904,"is_reserved":false,"is_disabled":false,"rental_uris":{"android":"levelo://app?vid=020b2e33-6789-499b-b75d-70502554203a","ios":"levelo://app?vid=020b2e33-6789-499b-b75d-70502554203a"},"vehicle_type_id":"4","last_reported":1729163310,"current_range_meters":28800,"station_id":"ce4bh392rcd13ifvqdl0","pricing_plan_id":"cebpf4jnsgd1na2vs0mg"},{"bike_id":"86b18091-b909-4f1b-886b-9d9625948362","system_id":"levelo_inurba_marseille","lat":43.25589,"lon":5.38228,"is_reserved":false,"is_disabled":false,"rental_uris":{"android":"levelo://app?vid=86b18091-b909-4f1b-886b-9d9625948362","ios":"levelo://app?vid=86b18091-b909-4f1b-886b-9d9625948362"},"vehicle_type_id":"4","last_reported":1729163310,"current_range_meters":12000,"station_id":"ce4bhih2rcd13ifvqfs0","pricing_plan_id":"cebpf4jnsgd1na2vs0mg"},{"bike_id":"f8616bb9-c63b-416b-b8c4-507ff62f07bf","system_id":"levelo_inurba_marseille","lat":43.30533,"lon":5.36547,"is_reserved":false,"is_disabled":false,"rental_uris":{"android":"levelo://app?vid=f8616bb9-c63b-416b-b8c4-507ff62f07bf","ios":"levelo://app?vid=f8616bb9-c63b-416b-b8c4-507ff62f07bf"},"vehicle_type_id":"4","last_reported":1729163310,"current_range_meters":39200,"station_id":"ce4bgs12rcd13ifvqcag","pricing_plan_id":"cebpf4jnsgd1na2vs0mg"},{"bike_id":"cab7e945-e3ef-4c40-a865-e7aa16a8b7c6","system_id":"levelo_inurba_marseille","lat":43.29552,"lon":5.38628,"is_reserved":false,"is_disabled":false,"rental_uris":{"android":"levelo://app?vid=cab7e945-e3ef-4c40-a865-e7aa16a8b7c6","ios":"levelo://app?vid=cab7e945-e3ef-4c40-a865-e7aa16a8b7c6"},"vehicle_type_id":"4","last_reported":1729163310,"current_range_meters":17200,"station_id":"ce4bgs12rcd13ifvqcag","pricing_plan_id":"cebpf4jnsgd1na2vs0mg"},{"bike_id":"eaa677eb-d031-4170-9bfa-9305bf3b65ac","system_id":"levelo_inurba_marseille","lat":43.23152,"lon":5.43719,"is_reserved":false,"is_disabled":false,"rental_uris":{"android":"levelo://app?vid=eaa677eb-d031-4170-9bfa-9305bf3b65ac","ios":"levelo://app?vid=eaa677eb-d031-4170-9bfa-9305bf3b65ac"},"vehicle_type_id":"4","last_reported":1729163310,"current_range_meters":19600,"station_id":"ce4bhmp2rcd13ifvqgog","pricing_plan_id":"cebpf4jnsgd1na2vs0mg"},{"bike_id":"16ba020f-51d2-4beb-9f97-08a01d014ed6","system_id":"levelo_inurba_marseille","lat":43.30885,"lon":5.39632,"is_reserved":false,"is_disabled":false,"rental_uris":{"android":"levelo://app?vid=16ba020f-51d2-4beb-9f97-08a01d014ed6","ios":"levelo://app?vid=16ba020f-51d2-4beb-9f97-08a01d014ed6"},"vehicle_type_id":"4","last_reported":1729163310,"current_range_meters":23200,"station_id":"ce4bh012rcd13ifvqcv0","pricing_plan_id":"cebpf4jnsgd1na2vs0mg"},{"bike_id":"5d1a07f0-dd47-4a26-af61-6095deca3399","system_id":"levelo_inurba_marseille","lat":43.29553,"lon":5.42285,"is_reserved":false,"is_disabled":false,"rental_uris":{"android":"levelo://app?vid=5d1a07f0-dd47-4a26-af61-6095deca3399","ios":"levelo://app?vid=5d1a07f0-dd47-4a26-af61-6095deca3399"},"vehicle_type_id":"4","last_reported":1729163310,"current_range_meters":11600,"station_id":"ce4bhph2rcd13ifvqhdg","pricing_plan_id":"cebpf4jnsgd1na2vs0mg"},{"bike_id":"b99b6698-7b7c-4e45-a57f-959e41d8bf5b","system_id":"levelo_inurba_marseille","lat":43.26209,"lon":5.37444,"is_reserved":false,"is_disabled":false,"rental_uris":{"android":"levelo://app?vid=b99b6698-7b7c-4e45-a57f-959e41d8bf5b","ios":"levelo://app?vid=b99b6698-7b7c-4e45-a57f-959e41d8bf5b"},"vehicle_type_id":"4","last_reported":1729163310,"current_range_meters":9200,"station_id":"ce4bhgp2rcd13ifvqfc0","pricing_plan_id":"cebpf4jnsgd1na2vs0mg"},{"bike_id":"2fa100d4-7645-41b8-8fc4-64d2fc317362","system_id":"levelo_inurba_marseille","lat":43.24665,"lon":5.38158,"is_reserved":false,"is_disabled":false,"rental_uris":{"android":"levelo://app?vid=2fa100d4-7645-41b8-8fc4-64d2fc317362","ios":"levelo://app?vid=2fa100d4-7645-41b8-8fc4-64d2fc317362"},"vehicle_type_id":"4","last_reported":1729163310,"current_range_meters":17200,"station_id":"ce4bhih2rcd13ifvqfr0","pricing_plan_id":"cebpf4jnsgd1na2vs0mg"},{"bike_id":"a5a88789-715d-4db8-95df-e2f98629e2ac","system_id":"levelo_inurba_marseille","lat":43.309063,"lon":5.368444,"is_reserved":false,"is_disabled":false,"rental_uris":{"android":"levelo://app?vid=a5a88789-715d-4db8-95df-e2f98629e2ac","ios":"levelo://app?vid=a5a88789-715d-4db8-95df-e2f98629e2ac"},"vehicle_type_id":"4","last_reported":1729163310,"current_range_meters":28400,"station_id":"ce4bgop2rcd13ifvqc1g","pricing_plan_id":"cebpf4jnsgd1na2vs0mg"},{"bike_id":"73ef4567-982a-4187-a030-dba6d8fafa37","system_id":"levelo_inurba_marseille","lat":43.23151,"lon":5.43721,"is_reserved":false,"is_disabled":false,"rental_uris":{"android":"levelo://app?vid=73ef4567-982a-4187-a030-dba6d8fafa37","ios":"levelo://app?vid=73ef4567-982a-4187-a030-dba6d8fafa37"},"vehicle_type_id":"4","last_reported":1729163310,"current_range_meters":14400,"station_id":"ce4bhmp2rcd13ifvqgog","pricing_plan_id":"cebpf4jnsgd1na2vs0mg"},{"bike_id":"e371bd4b-4485-4c8b-8e23-26c25e523a51","system_id":"levelo_inurba_marseille","lat":43.25927,"lon":5.4091,"is_reserved":false,"is_disabled":false,"rental_uris":{"android":"levelo://app?vid=e371bd4b-4485-4c8b-8e23-26c25e523a51","ios":"levelo://app?vid=e371bd4b-4485-4c8b-8e23-26c25e523a51"},"vehicle_type_id":"4","last_reported":1729163310,"current_range_meters":18000,"station_id":"ce4bhm92rcd13ifvqglg","pricing_plan_id":"cebpf4jnsgd1na2vs0mg"},{"bike_id":"d18293c8-0c23-4c61-98fc-93df91cd73cd","system_id":"levelo_inurba_marseille","lat":43.26033,"lon":5.37553,"is_reserved":false,"is_disabled":false,"rental_uris":{"android":"levelo://app?vid=d18293c8-0c23-4c61-98fc-93df91cd73cd","ios":"levelo://app?vid=d18293c8-0c23-4c61-98fc-93df91cd73cd"},"vehicle_type_id":"4","last_reported":1729163310,"current_range_meters":38800,"station_id":"ce4bhgh2rcd13ifvqfa0","pricing_plan_id":"cebpf4jnsgd1na2vs0mg"},{"bike_id":"6c0cb852-8a6d-4147-92b5-d0bcf163ea0b","system_id":"levelo_inurba_marseille","lat":43.26198,"lon":5.37922,"is_reserved":false,"is_disabled":false,"rental_uris":{"android":"levelo://app?vid=6c0cb852-8a6d-4147-92b5-d0bcf163ea0b","ios":"levelo://app?vid=6c0cb852-8a6d-4147-92b5-d0bcf163ea0b"},"vehicle_type_id":"4","last_reported":1729163310,"current_range_meters":37600,"station_id":"ce4bhjp2rcd13ifvqg90","pricing_plan_id":"cebpf4jnsgd1na2vs0mg"},{"bike_id":"26c61c8a-36e1-4c3c-971e-b0e70e0798bf","system_id":"levelo_inurba_marseille","lat":43.25726,"lon":5.4111,"is_reserved":false,"is_disabled":false,"rental_uris":{"android":"levelo://app?vid=26c61c8a-36e1-4c3c-971e-b0e70e0798bf","ios":"levelo://app?vid=26c61c8a-36e1-4c3c-971e-b0e70e0798bf"},"vehicle_type_id":"4","last_reported":1729163310,"current_range_meters":38800,"station_id":"ce4bhkp2rcd13ifvqgd0","pricing_plan_id":"cebpf4jnsgd1na2vs0mg"},{"bike_id":"89afbd8f-6971-4f60-8444-197b2ba0ce71","system_id":"levelo_inurba_marseille","lat":43.29292,"lon":5.37463,"is_reserved":false,"is_disabled":false,"rental_uris":{"android":"levelo://app?vid=89afbd8f-6971-4f60-8444-197b2ba0ce71","ios":"levelo://app?vid=89afbd8f-6971-4f60-8444-197b2ba0ce71"},"vehicle_type_id":"4","last_reported":1729163310,"current_range_meters":6800,"station_id":"ce4bgi12rcd13ifvqb70","pricing_plan_id":"cebpf4jnsgd1na2vs0mg"},{"bike_id":"55c5585e-e16e-435a-8f48-ce57c692cd0e","system_id":"levelo_inurba_marseille","lat":43.30557,"lon":5.36544,"is_reserved":false,"is_disabled":false,"rental_uris":{"android":"levelo://app?vid=55c5585e-e16e-435a-8f48-ce57c692cd0e","ios":"levelo://app?vid=55c5585e-e16e-435a-8f48-ce57c692cd0e"},"vehicle_type_id":"4","last_reported":1729163310,"current_range_meters":37600,"station_id":"ce4bgs12rcd13ifvqcag","pricing_plan_id":"cebpf4jnsgd1na2vs0mg"},{"bike_id":"b3b8591c-5379-4a69-90ab-ae3253c0799a","system_id":"levelo_inurba_marseille","lat":43.23155,"lon":5.43696,"is_reserved":false,"is_disabled":false,"rental_uris":{"android":"levelo://app?vid=b3b8591c-5379-4a69-90ab-ae3253c0799a","ios":"levelo://app?vid=b3b8591c-5379-4a69-90ab-ae3253c0799a"},"vehicle_type_id":"4","last_reported":1729163310,"current_range_meters":8000,"station_id":"ce4bhmp2rcd13ifvqgog","pricing_plan_id":"cebpf4jnsgd1na2vs0mg"},{"bike_id":"c93f1b58-6b91-4209-8bde-fcf272aa10b6","system_id":"levelo_inurba_marseille","lat":43.30306,"lon":5.3691,"is_reserved":false,"is_disabled":false,"rental_uris":{"android":"levelo://app?vid=c93f1b58-6b91-4209-8bde-fcf272aa10b6","ios":"levelo://app?vid=c93f1b58-6b91-4209-8bde-fcf272aa10b6"},"vehicle_type_id":"4","last_reported":1729163310,"current_range_meters":20400,"station_id":"ce4bgqh2rcd13ifvqc5g","pricing_plan_id":"cebpf4jnsgd1na2vs0mg"},{"bike_id":"c0aea6bf-9822-4eef-a7c6-ea0b29185a8d","system_id":"levelo_inurba_marseille","lat":43.27942,"lon":5.41043,"is_reserved":false,"is_disabled":false,"rental_uris":{"android":"levelo://app?vid=c0aea6bf-9822-4eef-a7c6-ea0b29185a8d","ios":"levelo://app?vid=c0aea6bf-9822-4eef-a7c6-ea0b29185a8d"},"vehicle_type_id":"4","last_reported":1729163310,"current_range_meters":28400,"station_id":"ce4bhnp2rcd13ifvqh0g","pricing_plan_id":"cebpf4jnsgd1na2vs0mg"},{"bike_id":"90263e99-d5aa-44b8-a4c8-0353aa3b308c","system_id":"levelo_inurba_marseille","lat":43.2307,"lon":5.35496,"is_reserved":false,"is_disabled":false,"rental_uris":{"android":"levelo://app?vid=90263e99-d5aa-44b8-a4c8-0353aa3b308c","ios":"levelo://app?vid=90263e99-d5aa-44b8-a4c8-0353aa3b308c"},"vehicle_type_id":"4","last_reported":1729163310,"current_range_meters":9200,"station_id":"cpo3342slgdg3j2ifvpg","pricing_plan_id":"cebpf4jnsgd1na2vs0mg"},{"bike_id":"2871640c-a4f3-4f61-a342-156b39b491e5","system_id":"levelo_inurba_marseille","lat":43.23149,"lon":5.43714,"is_reserved":false,"is_disabled":false,"rental_uris":{"android":"levelo://app?vid=2871640c-a4f3-4f61-a342-156b39b491e5","ios":"levelo://app?vid=2871640c-a4f3-4f61-a342-156b39b491e5"},"vehicle_type_id":"4","last_reported":1729163310,"current_range_meters":13600,"station_id":"ce4bhmp2rcd13ifvqgog","pricing_plan_id":"cebpf4jnsgd1na2vs0mg"},{"bike_id":"c3fff5d8-cab2-4f28-ba74-c63121352df9","system_id":"levelo_inurba_marseille","lat":43.24076,"lon":5.37759,"is_reserved":false,"is_disabled":false,"rental_uris":{"android":"levelo://app?vid=c3fff5d8-cab2-4f28-ba74-c63121352df9","ios":"levelo://app?vid=c3fff5d8-cab2-4f28-ba74-c63121352df9"},"vehicle_type_id":"4","last_reported":1729163310,"current_range_meters":14000,"station_id":"ce4bhnp2rcd13ifvqgvg","pricing_plan_id":"cebpf4jnsgd1na2vs0mg"},{"bike_id":"65d1f81d-d2b1-4ff9-a9c2-06806c720474","system_id":"levelo_inurba_marseille","lat":43.29713,"lon":5.37689,"is_reserved":false,"is_disabled":false,"rental_uris":{"android":"levelo://app?vid=65d1f81d-d2b1-4ff9-a9c2-06806c720474","ios":"levelo://app?vid=65d1f81d-d2b1-4ff9-a9c2-06806c720474"},"vehicle_type_id":"4","last_reported":1729163310,"current_range_meters":22800,"station_id":"ce4bgkh2rcd13ifvqbl0","pricing_plan_id":"cebpf4jnsgd1na2vs0mg"},{"bike_id":"aabf9ae0-919d-4c32-b002-92d60b23897d","system_id":"levelo_inurba_marseille","lat":43.30802,"lon":5.37656,"is_reserved":false,"is_disabled":false,"rental_uris":{"android":"levelo://app?vid=aabf9ae0-919d-4c32-b002-92d60b23897d","ios":"levelo://app?vid=aabf9ae0-919d-4c32-b002-92d60b23897d"},"vehicle_type_id":"4","last_reported":1729163310,"current_range_meters":24400,"station_id":"ce4bgv92rcd13ifvqcq0","pricing_plan_id":"cebpf4jnsgd1na2vs0mg"},{"bike_id":"1cd343c8-245e-4510-bed9-dcc94a7ab19d","system_id":"levelo_inurba_marseille","lat":43.25932,"lon":5.40904,"is_reserved":false,"is_disabled":false,"rental_uris":{"android":"levelo://app?vid=1cd343c8-245e-4510-bed9-dcc94a7ab19d","ios":"levelo://app?vid=1cd343c8-245e-4510-bed9-dcc94a7ab19d"},"vehicle_type_id":"4","last_reported":1729163310,"current_range_meters":8400,"station_id":"ce4bhm92rcd13ifvqglg","pricing_plan_id":"cebpf4jnsgd1na2vs0mg"},{"bike_id":"bd87ad93-9bf3-4f94-a5cf-333f98fcdaf6","system_id":"levelo_inurba_marseille","lat":43.2928,"lon":5.40117,"is_reserved":false,"is_disabled":false,"rental_uris":{"android":"levelo://app?vid=bd87ad93-9bf3-4f94-a5cf-333f98fcdaf6","ios":"levelo://app?vid=bd87ad93-9bf3-4f94-a5cf-333f98fcdaf6"},"vehicle_type_id":"4","last_reported":1729163310,"current_range_meters":3200,"station_id":"ce4bh312rcd13ifvqdk0","pricing_plan_id":"cebpf4jnsgd1na2vs0mg"},{"bike_id":"259adaf4-2099-4724-93a6-9b4c595d6c04","system_id":"levelo_inurba_marseille","lat":43.2466,"lon":5.38167,"is_reserved":false,"is_disabled":false,"rental_uris":{"android":"levelo://app?vid=259adaf4-2099-4724-93a6-9b4c595d6c04","ios":"levelo://app?vid=259adaf4-2099-4724-93a6-9b4c595d6c04"},"vehicle_type_id":"4","last_reported":1729163310,"current_range_meters":30000,"station_id":"ce4bhih2rcd13ifvqfr0","pricing_plan_id":"cebpf4jnsgd1na2vs0mg"},{"bike_id":"df8adece-9866-4131-88ad-9e4f198de9a1","system_id":"levelo_inurba_marseille","lat":43.23149,"lon":5.43708,"is_reserved":false,"is_disabled":false,"rental_uris":{"android":"levelo://app?vid=df8adece-9866-4131-88ad-9e4f198de9a1","ios":"levelo://app?vid=df8adece-9866-4131-88ad-9e4f198de9a1"},"vehicle_type_id":"4","last_reported":1729163310,"current_range_meters":8400,"station_id":"ce4bhmp2rcd13ifvqgog","pricing_plan_id":"cebpf4jnsgd1na2vs0mg"},{"bike_id":"c8d56133-9d5b-45ba-83e5-6e68a64ee67c","system_id":"levelo_inurba_marseille","lat":43.24074,"lon":5.37753,"is_reserved":false,"is_disabled":false,"rental_uris":{"android":"levelo://app?vid=c8d56133-9d5b-45ba-83e5-6e68a64ee67c","ios":"levelo://app?vid=c8d56133-9d5b-45ba-83e5-6e68a64ee67c"},"vehicle_type_id":"4","last_reported":1729163310,"current_range_meters":26800,"station_id":"ce4bhnp2rcd13ifvqgvg","pricing_plan_id":"cebpf4jnsgd1na2vs0mg"},{"bike_id":"fa7bbdc9-afbe-404d-8676-647037cc76a9","system_id":"levelo_inurba_marseille","lat":43.23195,"lon":5.35547,"is_reserved":false,"is_disabled":false,"rental_uris":{"android":"levelo://app?vid=fa7bbdc9-afbe-404d-8676-647037cc76a9","ios":"levelo://app?vid=fa7bbdc9-afbe-404d-8676-647037cc76a9"},"vehicle_type_id":"4","last_reported":1729163310,"current_range_meters":34000,"station_id":"ce4bhu92rcd13ifvqi70","pricing_plan_id":"cebpf4jnsgd1na2vs0mg"},{"bike_id":"6f8eb3c8-20ae-412f-b25d-63bcb868bd12","system_id":"levelo_inurba_marseille","lat":43.31761,"lon":5.3902,"is_reserved":false,"is_disabled":false,"rental_uris":{"android":"levelo://app?vid=6f8eb3c8-20ae-412f-b25d-63bcb868bd12","ios":"levelo://app?vid=6f8eb3c8-20ae-412f-b25d-63bcb868bd12"},"vehicle_type_id":"4","last_reported":1729163310,"current_range_meters":24000,"station_id":"ce4bhqp2rcd13ifvqhng","pricing_plan_id":"cebpf4jnsgd1na2vs0mg"},{"bike_id":"931ad2f4-35ea-42b5-bc1a-1fdec477398a","system_id":"levelo_inurba_marseille","lat":43.33756,"lon":5.37457,"is_reserved":false,"is_disabled":false,"rental_uris":{"android":"levelo://app?vid=931ad2f4-35ea-42b5-bc1a-1fdec477398a","ios":"levelo://app?vid=931ad2f4-35ea-42b5-bc1a-1fdec477398a"},"vehicle_type_id":"4","last_reported":1729163310,"current_range_meters":30400,"station_id":"","pricing_plan_id":"cebpf4jnsgd1na2vs0mg"},{"bike_id":"a74de21c-b9fb-46e8-b1a4-51feff2807fa","system_id":"levelo_inurba_marseille","lat":43.31084,"lon":5.42427,"is_reserved":false,"is_disabled":false,"rental_uris":{"android":"levelo://app?vid=a74de21c-b9fb-46e8-b1a4-51feff2807fa","ios":"levelo://app?vid=a74de21c-b9fb-46e8-b1a4-51feff2807fa"},"vehicle_type_id":"4","last_reported":1729163310,"current_range_meters":8000,"station_id":"ce4bhp92rcd13ifvqhag","pricing_plan_id":"cebpf4jnsgd1na2vs0mg"},{"bike_id":"aeac146b-929a-4e36-bdcd-73d6b78806ba","system_id":"levelo_inurba_marseille","lat":43.26209,"lon":5.37445,"is_reserved":false,"is_disabled":false,"rental_uris":{"android":"levelo://app?vid=aeac146b-929a-4e36-bdcd-73d6b78806ba","ios":"levelo://app?vid=aeac146b-929a-4e36-bdcd-73d6b78806ba"},"vehicle_type_id":"4","last_reported":1729163310,"current_range_meters":36800,"station_id":"ce4bhgp2rcd13ifvqfc0","pricing_plan_id":"cebpf4jnsgd1na2vs0mg"},{"bike_id":"c7671745-53fc-4e7c-8000-63dbb88ab13f","system_id":"levelo_inurba_marseille","lat":43.27619,"lon":5.36107,"is_reserved":false,"is_disabled":false,"rental_uris":{"android":"levelo://app?vid=c7671745-53fc-4e7c-8000-63dbb88ab13f","ios":"levelo://app?vid=c7671745-53fc-4e7c-8000-63dbb88ab13f"},"vehicle_type_id":"4","last_reported":1729163310,"current_range_meters":38800,"station_id":"ce4bgj92rcd13ifvqbe0","pricing_plan_id":"cebpf4jnsgd1na2vs0mg"},{"bike_id":"f0d513f9-bae3-4a0e-9653-78af44e9a44e","system_id":"levelo_inurba_marseille","lat":43.30464,"lon":5.37904,"is_reserved":false,"is_disabled":false,"rental_uris":{"android":"levelo://app?vid=f0d513f9-bae3-4a0e-9653-78af44e9a44e","ios":"levelo://app?vid=f0d513f9-bae3-4a0e-9653-78af44e9a44e"},"vehicle_type_id":"4","last_reported":1729163310,"current_range_meters":22800,"station_id":"ce4bgup2rcd13ifvqcn0","pricing_plan_id":"cebpf4jnsgd1na2vs0mg"},{"bike_id":"8c1ec6cb-2291-4814-837b-be8625c706f3","system_id":"levelo_inurba_marseille","lat":43.23197,"lon":5.35542,"is_reserved":false,"is_disabled":false,"rental_uris":{"android":"levelo://app?vid=8c1ec6cb-2291-4814-837b-be8625c706f3","ios":"levelo://app?vid=8c1ec6cb-2291-4814-837b-be8625c706f3"},"vehicle_type_id":"4","last_reported":1729163310,"current_range_meters":37600,"station_id":"ce4bhu92rcd13ifvqi70","pricing_plan_id":"cebpf4jnsgd1na2vs0mg"},{"bike_id":"4be62110-08cc-42eb-ab67-273d9bf9c6f2","system_id":"levelo_inurba_marseille","lat":43.25086,"lon":5.39512,"is_reserved":false,"is_disabled":false,"rental_uris":{"android":"levelo://app?vid=4be62110-08cc-42eb-ab67-273d9bf9c6f2","ios":"levelo://app?vid=4be62110-08cc-42eb-ab67-273d9bf9c6f2"},"vehicle_type_id":"4","last_reported":1729163310,"current_range_meters":8000,"station_id":"ce4bhm12rcd13ifvqgkg","pricing_plan_id":"cebpf4jnsgd1na2vs0mg"},{"bike_id":"6aad7b35-09a3-4656-912f-91689d5fb051","system_id":"levelo_inurba_marseille","lat":43.26209,"lon":5.37919,"is_reserved":false,"is_disabled":false,"rental_uris":{"android":"levelo://app?vid=6aad7b35-09a3-4656-912f-91689d5fb051","ios":"levelo://app?vid=6aad7b35-09a3-4656-912f-91689d5fb051"},"vehicle_type_id":"4","last_reported":1729163310,"current_range_meters":22400,"station_id":"ce4bhjp2rcd13ifvqg90","pricing_plan_id":"cebpf4jnsgd1na2vs0mg"},{"bike_id":"1a9c173c-b98f-490b-80ad-b6e10c59b5f1","system_id":"levelo_inurba_marseille","lat":43.29714,"lon":5.36598,"is_reserved":false,"is_disabled":false,"rental_uris":{"android":"levelo://app?vid=1a9c173c-b98f-490b-80ad-b6e10c59b5f1","ios":"levelo://app?vid=1a9c173c-b98f-490b-80ad-b6e10c59b5f1"},"vehicle_type_id":"4","last_reported":1729163310,"current_range_meters":38800,"station_id":"ce4bgn12rcd13ifvqbt0","pricing_plan_id":"cebpf4jnsgd1na2vs0mg"},{"bike_id":"c1b4d58c-7d67-4800-b5de-bf664ea422e8","system_id":"levelo_inurba_marseille","lat":43.24653,"lon":5.38881,"is_reserved":false,"is_disabled":false,"rental_uris":{"android":"levelo://app?vid=c1b4d58c-7d67-4800-b5de-bf664ea422e8","ios":"levelo://app?vid=c1b4d58c-7d67-4800-b5de-bf664ea422e8"},"vehicle_type_id":"4","last_reported":1729163310,"current_range_meters":12400,"station_id":"ce4bhg12rcd13ifvqf60","pricing_plan_id":"cebpf4jnsgd1na2vs0mg"},{"bike_id":"4dff3f2d-8f80-481e-a769-c8fed23ab2fa","system_id":"levelo_inurba_marseille","lat":43.26195,"lon":5.37918,"is_reserved":false,"is_disabled":false,"rental_uris":{"android":"levelo://app?vid=4dff3f2d-8f80-481e-a769-c8fed23ab2fa","ios":"levelo://app?vid=4dff3f2d-8f80-481e-a769-c8fed23ab2fa"},"vehicle_type_id":"4","last_reported":1729163310,"current_range_meters":20000,"station_id":"ce4bhjp2rcd13ifvqg90","pricing_plan_id":"cebpf4jnsgd1na2vs0mg"},{"bike_id":"94c93578-e8f1-4bc1-b75e-2336ebf1d42f","system_id":"levelo_inurba_marseille","lat":43.2919,"lon":5.35806,"is_reserved":false,"is_disabled":false,"rental_uris":{"android":"levelo://app?vid=94c93578-e8f1-4bc1-b75e-2336ebf1d42f","ios":"levelo://app?vid=94c93578-e8f1-4bc1-b75e-2336ebf1d42f"},"vehicle_type_id":"4","last_reported":1729163310,"current_range_meters":22400,"station_id":"ce4bhb12rcd13ifvqel0","pricing_plan_id":"cebpf4jnsgd1na2vs0mg"},{"bike_id":"d372c23a-dc85-401e-bc89-b7954e57f68b","system_id":"levelo_inurba_marseille","lat":43.30548,"lon":5.36704,"is_reserved":false,"is_disabled":false,"rental_uris":{"android":"levelo://app?vid=d372c23a-dc85-401e-bc89-b7954e57f68b","ios":"levelo://app?vid=d372c23a-dc85-401e-bc89-b7954e57f68b"},"vehicle_type_id":"4","last_reported":1729163310,"current_range_meters":28800,"station_id":"ce4bgrp2rcd13ifvqc9g","pricing_plan_id":"cebpf4jnsgd1na2vs0mg"},{"bike_id":"9e1a9053-a22e-4a9b-98a7-d370811bc374","system_id":"levelo_inurba_marseille","lat":43.27183,"lon":5.40984,"is_reserved":false,"is_disabled":false,"rental_uris":{"android":"levelo://app?vid=9e1a9053-a22e-4a9b-98a7-d370811bc374","ios":"levelo://app?vid=9e1a9053-a22e-4a9b-98a7-d370811bc374"},"vehicle_type_id":"4","last_reported":1729163310,"current_range_meters":9200,"station_id":"ce4bhl12rcd13ifvqgf0","pricing_plan_id":"cebpf4jnsgd1na2vs0mg"},{"bike_id":"ea70e375-b2fc-4a98-8ab3-05a36c945da6","system_id":"levelo_inurba_marseille","lat":43.28403,"lon":5.37513,"is_reserved":false,"is_disabled":false,"rental_uris":{"android":"levelo://app?vid=ea70e375-b2fc-4a98-8ab3-05a36c945da6","ios":"levelo://app?vid=ea70e375-b2fc-4a98-8ab3-05a36c945da6"},"vehicle_type_id":"4","last_reported":1729163310,"current_range_meters":24000,"station_id":"ce4bh412rcd13ifvqds0","pricing_plan_id":"cebpf4jnsgd1na2vs0mg"},{"bike_id":"1a99aeda-ce73-4e38-9022-50f9105e8ee6","system_id":"levelo_inurba_marseille","lat":43.30536,"lon":5.36698,"is_reserved":false,"is_disabled":false,"rental_uris":{"android":"levelo://app?vid=1a99aeda-ce73-4e38-9022-50f9105e8ee6","ios":"levelo://app?vid=1a99aeda-ce73-4e38-9022-50f9105e8ee6"},"vehicle_type_id":"4","last_reported":1729163310,"current_range_meters":28800,"station_id":"ce4bgrp2rcd13ifvqc9g","pricing_plan_id":"cebpf4jnsgd1na2vs0mg"},{"bike_id":"fec6f51b-1072-44c6-a7b0-4049f3835f7e","system_id":"levelo_inurba_marseille","lat":43.26212,"lon":5.37444,"is_reserved":false,"is_disabled":false,"rental_uris":{"android":"levelo://app?vid=fec6f51b-1072-44c6-a7b0-4049f3835f7e","ios":"levelo://app?vid=fec6f51b-1072-44c6-a7b0-4049f3835f7e"},"vehicle_type_id":"4","last_reported":1729163310,"current_range_meters":38400,"station_id":"ce4bhgp2rcd13ifvqfc0","pricing_plan_id":"cebpf4jnsgd1na2vs0mg"},{"bike_id":"874494de-7452-4f47-9fec-c5ec79478035","system_id":"levelo_inurba_marseille","lat":43.2397,"lon":5.36627,"is_reserved":false,"is_disabled":false,"rental_uris":{"android":"levelo://app?vid=874494de-7452-4f47-9fec-c5ec79478035","ios":"levelo://app?vid=874494de-7452-4f47-9fec-c5ec79478035"},"vehicle_type_id":"4","last_reported":1729163310,"current_range_meters":28400,"station_id":"ce4bhi12rcd13ifvqfp0","pricing_plan_id":"cebpf4jnsgd1na2vs0mg"},{"bike_id":"38f2a4ce-0eca-440a-a6cf-96856f1ec943","system_id":"levelo_inurba_marseille","lat":43.30542,"lon":5.36539,"is_reserved":false,"is_disabled":false,"rental_uris":{"android":"levelo://app?vid=38f2a4ce-0eca-440a-a6cf-96856f1ec943","ios":"levelo://app?vid=38f2a4ce-0eca-440a-a6cf-96856f1ec943"},"vehicle_type_id":"4","last_reported":1729163310,"current_range_meters":33600,"station_id":"ce4bgs12rcd13ifvqcag","pricing_plan_id":"cebpf4jnsgd1na2vs0mg"},{"bike_id":"9cab4e9f-1e69-4842-82e4-ee6684a3dc1f","system_id":"levelo_inurba_marseille","lat":43.25934,"lon":5.40904,"is_reserved":false,"is_disabled":false,"rental_uris":{"android":"levelo://app?vid=9cab4e9f-1e69-4842-82e4-ee6684a3dc1f","ios":"levelo://app?vid=9cab4e9f-1e69-4842-82e4-ee6684a3dc1f"},"vehicle_type_id":"4","last_reported":1729163310,"current_range_meters":30800,"station_id":"ce4bhm92rcd13ifvqglg","pricing_plan_id":"cebpf4jnsgd1na2vs0mg"},{"bike_id":"08ae83cb-f31d-469e-8b8d-1172d9f867d3","system_id":"levelo_inurba_marseille","lat":43.23965,"lon":5.36629,"is_reserved":false,"is_disabled":false,"rental_uris":{"android":"levelo://app?vid=08ae83cb-f31d-469e-8b8d-1172d9f867d3","ios":"levelo://app?vid=08ae83cb-f31d-469e-8b8d-1172d9f867d3"},"vehicle_type_id":"4","last_reported":1729163310,"current_range_meters":17200,"station_id":"ce4bhi12rcd13ifvqfp0","pricing_plan_id":"cebpf4jnsgd1na2vs0mg"},{"bike_id":"0994d7f0-fa2e-480f-b967-2b1e1b476b78","system_id":"levelo_inurba_marseille","lat":43.23194,"lon":5.35548,"is_reserved":false,"is_disabled":false,"rental_uris":{"android":"levelo://app?vid=0994d7f0-fa2e-480f-b967-2b1e1b476b78","ios":"levelo://app?vid=0994d7f0-fa2e-480f-b967-2b1e1b476b78"},"vehicle_type_id":"4","last_reported":1729163310,"current_range_meters":15200,"station_id":"ce4bhu92rcd13ifvqi70","pricing_plan_id":"cebpf4jnsgd1na2vs0mg"},{"bike_id":"66ccc46d-618e-4760-b09c-27382152bdab","system_id":"levelo_inurba_marseille","lat":43.23199,"lon":5.35548,"is_reserved":false,"is_disabled":false,"rental_uris":{"android":"levelo://app?vid=66ccc46d-618e-4760-b09c-27382152bdab","ios":"levelo://app?vid=66ccc46d-618e-4760-b09c-27382152bdab"},"vehicle_type_id":"4","last_reported":1729163310,"current_range_meters":33600,"station_id":"ce4bhu92rcd13ifvqi70","pricing_plan_id":"cebpf4jnsgd1na2vs0mg"},{"bike_id":"bbec8368-24e1-4123-a98b-9b0233608058","system_id":"levelo_inurba_marseille","lat":43.291,"lon":5.38146,"is_reserved":false,"is_disabled":false,"rental_uris":{"android":"levelo://app?vid=bbec8368-24e1-4123-a98b-9b0233608058","ios":"levelo://app?vid=bbec8368-24e1-4123-a98b-9b0233608058"},"vehicle_type_id":"4","last_reported":1729163310,"current_range_meters":26800,"station_id":"ce4bh512rcd13ifvqe2g","pricing_plan_id":"cebpf4jnsgd1na2vs0mg"},{"bike_id":"e3481a70-d492-4dfa-ba76-f8d71b92ab60","system_id":"levelo_inurba_marseille","lat":43.28323,"lon":5.41136,"is_reserved":false,"is_disabled":false,"rental_uris":{"android":"levelo://app?vid=e3481a70-d492-4dfa-ba76-f8d71b92ab60","ios":"levelo://app?vid=e3481a70-d492-4dfa-ba76-f8d71b92ab60"},"vehicle_type_id":"4","last_reported":1729163310,"current_range_meters":8000,"station_id":"","pricing_plan_id":"cebpf4jnsgd1na2vs0mg"},{"bike_id":"fa1cccfe-fba8-45fc-a9c3-92c1523ced97","system_id":"levelo_inurba_marseille","lat":43.29974,"lon":5.37182,"is_reserved":false,"is_disabled":false,"rental_uris":{"android":"levelo://app?vid=fa1cccfe-fba8-45fc-a9c3-92c1523ced97","ios":"levelo://app?vid=fa1cccfe-fba8-45fc-a9c3-92c1523ced97"},"vehicle_type_id":"4","last_reported":1729163310,"current_range_meters":10800,"station_id":"ce4bgr92rcd13ifvqc7g","pricing_plan_id":"cebpf4jnsgd1na2vs0mg"},{"bike_id":"30404aca-08a3-4264-987a-aa6acb1f5cf1","system_id":"levelo_inurba_marseille","lat":43.25939,"lon":5.40902,"is_reserved":false,"is_disabled":false,"rental_uris":{"android":"levelo://app?vid=30404aca-08a3-4264-987a-aa6acb1f5cf1","ios":"levelo://app?vid=30404aca-08a3-4264-987a-aa6acb1f5cf1"},"vehicle_type_id":"4","last_reported":1729163310,"current_range_meters":20000,"station_id":"ce4bhm92rcd13ifvqglg","pricing_plan_id":"cebpf4jnsgd1na2vs0mg"},{"bike_id":"6300df2c-b9fe-4275-916d-dd75e59140c9","system_id":"levelo_inurba_marseille","lat":43.23196,"lon":5.35548,"is_reserved":false,"is_disabled":false,"rental_uris":{"android":"levelo://app?vid=6300df2c-b9fe-4275-916d-dd75e59140c9","ios":"levelo://app?vid=6300df2c-b9fe-4275-916d-dd75e59140c9"},"vehicle_type_id":"4","last_reported":1729163310,"current_range_meters":33600,"station_id":"ce4bhu92rcd13ifvqi70","pricing_plan_id":"cebpf4jnsgd1na2vs0mg"},{"bike_id":"9639a337-6ab9-4f66-9e6e-d0bf5dde7ef3","system_id":"levelo_inurba_marseille","lat":43.28615,"lon":5.35108,"is_reserved":false,"is_disabled":false,"rental_uris":{"android":"levelo://app?vid=9639a337-6ab9-4f66-9e6e-d0bf5dde7ef3","ios":"levelo://app?vid=9639a337-6ab9-4f66-9e6e-d0bf5dde7ef3"},"vehicle_type_id":"4","last_reported":1729163310,"current_range_meters":38800,"station_id":"ce4bhch2rcd13ifvqeug","pricing_plan_id":"cebpf4jnsgd1na2vs0mg"},{"bike_id":"5752344a-d3c4-4667-b030-c9004bf4b230","system_id":"levelo_inurba_marseille","lat":43.25823,"lon":5.3944,"is_reserved":false,"is_disabled":false,"rental_uris":{"android":"levelo://app?vid=5752344a-d3c4-4667-b030-c9004bf4b230","ios":"levelo://app?vid=5752344a-d3c4-4667-b030-c9004bf4b230"},"vehicle_type_id":"4","last_reported":1729163310,"current_range_meters":36400,"station_id":"ce4bhip2rcd13ifvqft0","pricing_plan_id":"cebpf4jnsgd1na2vs0mg"},{"bike_id":"f4a39c4d-f6dd-4388-98f1-8383eb0ae09f","system_id":"levelo_inurba_marseille","lat":43.30982,"lon":5.40156,"is_reserved":false,"is_disabled":false,"rental_uris":{"android":"levelo://app?vid=f4a39c4d-f6dd-4388-98f1-8383eb0ae09f","ios":"levelo://app?vid=f4a39c4d-f6dd-4388-98f1-8383eb0ae09f"},"vehicle_type_id":"4","last_reported":1729163310,"current_range_meters":30800,"station_id":"ce4bgvp2rcd13ifvqct0","pricing_plan_id":"cebpf4jnsgd1na2vs0mg"},{"bike_id":"c1114e50-6deb-45e1-bf77-04f79fc4cc50","system_id":"levelo_inurba_marseille","lat":43.30941,"lon":5.40142,"is_reserved":false,"is_disabled":false,"rental_uris":{"android":"levelo://app?vid=c1114e50-6deb-45e1-bf77-04f79fc4cc50","ios":"levelo://app?vid=c1114e50-6deb-45e1-bf77-04f79fc4cc50"},"vehicle_type_id":"4","last_reported":1729163310,"current_range_meters":6400,"station_id":"ce4bgvp2rcd13ifvqct0","pricing_plan_id":"cebpf4jnsgd1na2vs0mg"},{"bike_id":"20c29f99-0e3c-45bb-837b-976b5cc98468","system_id":"levelo_inurba_marseille","lat":43.23151,"lon":5.4371,"is_reserved":false,"is_disabled":false,"rental_uris":{"android":"levelo://app?vid=20c29f99-0e3c-45bb-837b-976b5cc98468","ios":"levelo://app?vid=20c29f99-0e3c-45bb-837b-976b5cc98468"},"vehicle_type_id":"4","last_reported":1729163310,"current_range_meters":38400,"station_id":"ce4bhmp2rcd13ifvqgog","pricing_plan_id":"cebpf4jnsgd1na2vs0mg"},{"bike_id":"18666086-ee5b-4930-b3aa-e27d6f666049","system_id":"levelo_inurba_marseille","lat":43.27941,"lon":5.41042,"is_reserved":false,"is_disabled":false,"rental_uris":{"android":"levelo://app?vid=18666086-ee5b-4930-b3aa-e27d6f666049","ios":"levelo://app?vid=18666086-ee5b-4930-b3aa-e27d6f666049"},"vehicle_type_id":"4","last_reported":1729163310,"current_range_meters":38400,"station_id":"ce4bhnp2rcd13ifvqh0g","pricing_plan_id":"cebpf4jnsgd1na2vs0mg"},{"bike_id":"a2b2864f-6afb-46e5-a502-9789958951c7","system_id":"levelo_inurba_marseille","lat":43.25927,"lon":5.409,"is_reserved":false,"is_disabled":false,"rental_uris":{"android":"levelo://app?vid=a2b2864f-6afb-46e5-a502-9789958951c7","ios":"levelo://app?vid=a2b2864f-6afb-46e5-a502-9789958951c7"},"vehicle_type_id":"4","last_reported":1729163310,"current_range_meters":38000,"station_id":"ce4bhm92rcd13ifvqglg","pricing_plan_id":"cebpf4jnsgd1na2vs0mg"},{"bike_id":"4562e9bb-7c1e-4e0e-95e1-858d0f8d86d1","system_id":"levelo_inurba_marseille","lat":43.23196,"lon":5.35553,"is_reserved":false,"is_disabled":false,"rental_uris":{"android":"levelo://app?vid=4562e9bb-7c1e-4e0e-95e1-858d0f8d86d1","ios":"levelo://app?vid=4562e9bb-7c1e-4e0e-95e1-858d0f8d86d1"},"vehicle_type_id":"4","last_reported":1729163310,"current_range_meters":8000,"station_id":"ce4bhu92rcd13ifvqi70","pricing_plan_id":"cebpf4jnsgd1na2vs0mg"},{"bike_id":"52968dc5-b789-4d8b-aa70-892e14623757","system_id":"levelo_inurba_marseille","lat":43.29524,"lon":5.39045,"is_reserved":false,"is_disabled":false,"rental_uris":{"android":"levelo://app?vid=52968dc5-b789-4d8b-aa70-892e14623757","ios":"levelo://app?vid=52968dc5-b789-4d8b-aa70-892e14623757"},"vehicle_type_id":"4","last_reported":1729163310,"current_range_meters":39200,"station_id":"ce4bh3p2rcd13ifvqdp0","pricing_plan_id":"cebpf4jnsgd1na2vs0mg"},{"bike_id":"c60ae59c-5f3f-493b-82be-9fdc769a1273","system_id":"levelo_inurba_marseille","lat":43.24087,"lon":5.37753,"is_reserved":false,"is_disabled":false,"rental_uris":{"android":"levelo://app?vid=c60ae59c-5f3f-493b-82be-9fdc769a1273","ios":"levelo://app?vid=c60ae59c-5f3f-493b-82be-9fdc769a1273"},"vehicle_type_id":"4","last_reported":1729163310,"current_range_meters":8000,"station_id":"ce4bhnp2rcd13ifvqgvg","pricing_plan_id":"cebpf4jnsgd1na2vs0mg"},{"bike_id":"2140b6a3-5118-4150-823e-9225aeb56201","system_id":"levelo_inurba_marseille","lat":43.23188,"lon":5.35542,"is_reserved":false,"is_disabled":false,"rental_uris":{"android":"levelo://app?vid=2140b6a3-5118-4150-823e-9225aeb56201","ios":"levelo://app?vid=2140b6a3-5118-4150-823e-9225aeb56201"},"vehicle_type_id":"4","last_reported":1729163310,"current_range_meters":36800,"station_id":"ce4bhu92rcd13ifvqi70","pricing_plan_id":"cebpf4jnsgd1na2vs0mg"},{"bike_id":"858cdf1c-bd75-40f0-8c1e-51844cf6634f","system_id":"levelo_inurba_marseille","lat":43.26213,"lon":5.37443,"is_reserved":false,"is_disabled":false,"rental_uris":{"android":"levelo://app?vid=858cdf1c-bd75-40f0-8c1e-51844cf6634f","ios":"levelo://app?vid=858cdf1c-bd75-40f0-8c1e-51844cf6634f"},"vehicle_type_id":"4","last_reported":1729163310,"current_range_meters":35600,"station_id":"ce4bhgp2rcd13ifvqfc0","pricing_plan_id":"cebpf4jnsgd1na2vs0mg"},{"bike_id":"f9148906-508d-4f88-91f0-461be4ae64a1","system_id":"levelo_inurba_marseille","lat":43.273748,"lon":5.362646,"is_reserved":false,"is_disabled":false,"rental_uris":{"android":"levelo://app?vid=f9148906-508d-4f88-91f0-461be4ae64a1","ios":"levelo://app?vid=f9148906-508d-4f88-91f0-461be4ae64a1"},"vehicle_type_id":"4","last_reported":1729163310,"current_range_meters":38000,"station_id":"ce4bhbh2rcd13ifvqeo0","pricing_plan_id":"cebpf4jnsgd1na2vs0mg"},{"bike_id":"b3832c97-d362-4616-975f-d40917d3f4e3","system_id":"levelo_inurba_marseille","lat":43.28108,"lon":5.37834,"is_reserved":false,"is_disabled":false,"rental_uris":{"android":"levelo://app?vid=b3832c97-d362-4616-975f-d40917d3f4e3","ios":"levelo://app?vid=b3832c97-d362-4616-975f-d40917d3f4e3"},"vehicle_type_id":"4","last_reported":1729163310,"current_range_meters":38800,"station_id":"ce4bha12rcd13ifvqee0","pricing_plan_id":"cebpf4jnsgd1na2vs0mg"},{"bike_id":"c7c2759f-6756-4905-a201-8ac04e9864d0","system_id":"levelo_inurba_marseille","lat":43.26684,"lon":5.38269,"is_reserved":false,"is_disabled":false,"rental_uris":{"android":"levelo://app?vid=c7c2759f-6756-4905-a201-8ac04e9864d0","ios":"levelo://app?vid=c7c2759f-6756-4905-a201-8ac04e9864d0"},"vehicle_type_id":"4","last_reported":1729163310,"current_range_meters":38800,"station_id":"ce4bhg92rcd13ifvqf90","pricing_plan_id":"cebpf4jnsgd1na2vs0mg"},{"bike_id":"70ec0e77-1894-426b-b4d4-419c7f5f5655","system_id":"levelo_inurba_marseille","lat":43.30597,"lon":5.39358,"is_reserved":false,"is_disabled":false,"rental_uris":{"android":"levelo://app?vid=70ec0e77-1894-426b-b4d4-419c7f5f5655","ios":"levelo://app?vid=70ec0e77-1894-426b-b4d4-419c7f5f5655"},"vehicle_type_id":"4","last_reported":1729163310,"current_range_meters":4000,"station_id":"ce4bh0p2rcd13ifvqd80","pricing_plan_id":"cebpf4jnsgd1na2vs0mg"},{"bike_id":"530c14a9-76d7-472d-9cd7-c830d3988d07","system_id":"levelo_inurba_marseille","lat":43.23181,"lon":5.39985,"is_reserved":false,"is_disabled":false,"rental_uris":{"android":"levelo://app?vid=530c14a9-76d7-472d-9cd7-c830d3988d07","ios":"levelo://app?vid=530c14a9-76d7-472d-9cd7-c830d3988d07"},"vehicle_type_id":"4","last_reported":1729163310,"current_range_meters":34000,"station_id":"ce4bhn12rcd13ifvqgqg","pricing_plan_id":"cebpf4jnsgd1na2vs0mg"},{"bike_id":"f26e0818-679d-49dd-88c4-15f9ba4a8566","system_id":"levelo_inurba_marseille","lat":43.28364,"lon":5.38098,"is_reserved":false,"is_disabled":false,"rental_uris":{"android":"levelo://app?vid=f26e0818-679d-49dd-88c4-15f9ba4a8566","ios":"levelo://app?vid=f26e0818-679d-49dd-88c4-15f9ba4a8566"},"vehicle_type_id":"4","last_reported":1729163310,"current_range_meters":30800,"station_id":"ce4bh412rcd13ifvqdr0","pricing_plan_id":"cebpf4jnsgd1na2vs0mg"},{"bike_id":"d79f5525-0de1-4334-802e-69c7e1b3ac65","system_id":"levelo_inurba_marseille","lat":43.24649,"lon":5.38893,"is_reserved":false,"is_disabled":false,"rental_uris":{"android":"levelo://app?vid=d79f5525-0de1-4334-802e-69c7e1b3ac65","ios":"levelo://app?vid=d79f5525-0de1-4334-802e-69c7e1b3ac65"},"vehicle_type_id":"4","last_reported":1729163310,"current_range_meters":20000,"station_id":"ce4bhg12rcd13ifvqf60","pricing_plan_id":"cebpf4jnsgd1na2vs0mg"},{"bike_id":"21bb0b99-45c2-4f72-9036-ecc8564215e2","system_id":"levelo_inurba_marseille","lat":43.3237,"lon":5.38877,"is_reserved":false,"is_disabled":false,"rental_uris":{"android":"levelo://app?vid=21bb0b99-45c2-4f72-9036-ecc8564215e2","ios":"levelo://app?vid=21bb0b99-45c2-4f72-9036-ecc8564215e2"},"vehicle_type_id":"4","last_reported":1729163310,"current_range_meters":28400,"station_id":"ce4bhqp2rcd13ifvqhog","pricing_plan_id":"cebpf4jnsgd1na2vs0mg"},{"bike_id":"83bcafb6-7740-4133-8b56-4bf302222f17","system_id":"levelo_inurba_marseille","lat":43.23973,"lon":5.36617,"is_reserved":false,"is_disabled":false,"rental_uris":{"android":"levelo://app?vid=83bcafb6-7740-4133-8b56-4bf302222f17","ios":"levelo://app?vid=83bcafb6-7740-4133-8b56-4bf302222f17"},"vehicle_type_id":"4","last_reported":1729163310,"current_range_meters":4400,"station_id":"ce4bhi12rcd13ifvqfp0","pricing_plan_id":"cebpf4jnsgd1na2vs0mg"},{"bike_id":"7772d39f-5e28-445c-af91-069b0cf63793","system_id":"levelo_inurba_marseille","lat":43.33747,"lon":5.37433,"is_reserved":false,"is_disabled":false,"rental_uris":{"android":"levelo://app?vid=7772d39f-5e28-445c-af91-069b0cf63793","ios":"levelo://app?vid=7772d39f-5e28-445c-af91-069b0cf63793"},"vehicle_type_id":"4","last_reported":1729163310,"current_range_meters":16800,"station_id":"","pricing_plan_id":"cebpf4jnsgd1na2vs0mg"},{"bike_id":"81f2a8f6-c511-428d-8c7a-09321d09ac6e","system_id":"levelo_inurba_marseille","lat":43.26215,"lon":5.37445,"is_reserved":false,"is_disabled":false,"rental_uris":{"android":"levelo://app?vid=81f2a8f6-c511-428d-8c7a-09321d09ac6e","ios":"levelo://app?vid=81f2a8f6-c511-428d-8c7a-09321d09ac6e"},"vehicle_type_id":"4","last_reported":1729163310,"current_range_meters":18000,"station_id":"ce4bhgp2rcd13ifvqfc0","pricing_plan_id":"cebpf4jnsgd1na2vs0mg"},{"bike_id":"3213665e-989c-4d22-9f5a-31c8522597dd","system_id":"levelo_inurba_marseille","lat":43.296,"lon":5.36142,"is_reserved":false,"is_disabled":false,"rental_uris":{"android":"levelo://app?vid=3213665e-989c-4d22-9f5a-31c8522597dd","ios":"levelo://app?vid=3213665e-989c-4d22-9f5a-31c8522597dd"},"vehicle_type_id":"4","last_reported":1729163310,"current_range_meters":28800,"station_id":"","pricing_plan_id":"cebpf4jnsgd1na2vs0mg"},{"bike_id":"b1560584-6c8f-4855-9dc9-2f941de9fc86","system_id":"levelo_inurba_marseille","lat":43.30313,"lon":5.36889,"is_reserved":false,"is_disabled":false,"rental_uris":{"android":"levelo://app?vid=b1560584-6c8f-4855-9dc9-2f941de9fc86","ios":"levelo://app?vid=b1560584-6c8f-4855-9dc9-2f941de9fc86"},"vehicle_type_id":"4","last_reported":1729163310,"current_range_meters":36400,"station_id":"ce4bgqh2rcd13ifvqc5g","pricing_plan_id":"cebpf4jnsgd1na2vs0mg"},{"bike_id":"e74891e3-36ab-46c6-b70c-843ede0f2f18","system_id":"levelo_inurba_marseille","lat":43.336029,"lon":5.410359,"is_reserved":false,"is_disabled":false,"rental_uris":{"android":"levelo://app?vid=e74891e3-36ab-46c6-b70c-843ede0f2f18","ios":"levelo://app?vid=e74891e3-36ab-46c6-b70c-843ede0f2f18"},"vehicle_type_id":"4","last_reported":1729163310,"current_range_meters":5600,"station_id":"ce4bhqh2rcd13ifvqhmg","pricing_plan_id":"cebpf4jnsgd1na2vs0mg"},{"bike_id":"0f15efb0-5bc2-4a1f-898d-b8a0e0d02da5","system_id":"levelo_inurba_marseille","lat":43.32054,"lon":5.41546,"is_reserved":false,"is_disabled":false,"rental_uris":{"android":"levelo://app?vid=0f15efb0-5bc2-4a1f-898d-b8a0e0d02da5","ios":"levelo://app?vid=0f15efb0-5bc2-4a1f-898d-b8a0e0d02da5"},"vehicle_type_id":"4","last_reported":1729163310,"current_range_meters":38400,"station_id":"ce4bhq92rcd13ifvqhkg","pricing_plan_id":"cebpf4jnsgd1na2vs0mg"},{"bike_id":"f3ff532f-bf34-44fd-ab2a-11de7aa441aa","system_id":"levelo_inurba_marseille","lat":43.24805,"lon":5.37458,"is_reserved":false,"is_disabled":false,"rental_uris":{"android":"levelo://app?vid=f3ff532f-bf34-44fd-ab2a-11de7aa441aa","ios":"levelo://app?vid=f3ff532f-bf34-44fd-ab2a-11de7aa441aa"},"vehicle_type_id":"4","last_reported":1729163310,"current_range_meters":33600,"station_id":"ce4bhgh2rcd13ifvqfb0","pricing_plan_id":"cebpf4jnsgd1na2vs0mg"},{"bike_id":"bf50d71c-390d-43f9-933f-7d7bfd69bb07","system_id":"levelo_inurba_marseille","lat":43.30554,"lon":5.36556,"is_reserved":false,"is_disabled":false,"rental_uris":{"android":"levelo://app?vid=bf50d71c-390d-43f9-933f-7d7bfd69bb07","ios":"levelo://app?vid=bf50d71c-390d-43f9-933f-7d7bfd69bb07"},"vehicle_type_id":"4","last_reported":1729163310,"current_range_meters":37600,"station_id":"ce4bgs12rcd13ifvqcag","pricing_plan_id":"cebpf4jnsgd1na2vs0mg"},{"bike_id":"1641b826-604a-4181-8231-dca386f637a6","system_id":"levelo_inurba_marseille","lat":43.2319,"lon":5.35555,"is_reserved":false,"is_disabled":false,"rental_uris":{"android":"levelo://app?vid=1641b826-604a-4181-8231-dca386f637a6","ios":"levelo://app?vid=1641b826-604a-4181-8231-dca386f637a6"},"vehicle_type_id":"4","last_reported":1729163310,"current_range_meters":34800,"station_id":"ce4bhu92rcd13ifvqi70","pricing_plan_id":"cebpf4jnsgd1na2vs0mg"},{"bike_id":"89211ee2-076f-4df3-92bd-cd8885f2e76d","system_id":"levelo_inurba_marseille","lat":43.23195,"lon":5.35551,"is_reserved":false,"is_disabled":false,"rental_uris":{"android":"levelo://app?vid=89211ee2-076f-4df3-92bd-cd8885f2e76d","ios":"levelo://app?vid=89211ee2-076f-4df3-92bd-cd8885f2e76d"},"vehicle_type_id":"4","last_reported":1729163310,"current_range_meters":33600,"station_id":"ce4bhu92rcd13ifvqi70","pricing_plan_id":"cebpf4jnsgd1na2vs0mg"},{"bike_id":"ec3c6e4d-1944-4fe9-bdf2-860cb8fa2a68","system_id":"levelo_inurba_marseille","lat":43.29368,"lon":5.37843,"is_reserved":false,"is_disabled":false,"rental_uris":{"android":"levelo://app?vid=ec3c6e4d-1944-4fe9-bdf2-860cb8fa2a68","ios":"levelo://app?vid=ec3c6e4d-1944-4fe9-bdf2-860cb8fa2a68"},"vehicle_type_id":"4","last_reported":1729163310,"current_range_meters":28000,"station_id":"ce4bgjh2rcd13ifvqbf0","pricing_plan_id":"cebpf4jnsgd1na2vs0mg"},{"bike_id":"32a49fe8-5752-4e25-9677-224e653ef32f","system_id":"levelo_inurba_marseille","lat":43.24083,"lon":5.37737,"is_reserved":false,"is_disabled":false,"rental_uris":{"android":"levelo://app?vid=32a49fe8-5752-4e25-9677-224e653ef32f","ios":"levelo://app?vid=32a49fe8-5752-4e25-9677-224e653ef32f"},"vehicle_type_id":"4","last_reported":1729163310,"current_range_meters":19200,"station_id":"ce4bhnp2rcd13ifvqgvg","pricing_plan_id":"cebpf4jnsgd1na2vs0mg"},{"bike_id":"6f502dee-3fea-4917-9a3c-4e160a598658","system_id":"levelo_inurba_marseille","lat":43.29785,"lon":5.37083,"is_reserved":false,"is_disabled":false,"rental_uris":{"android":"levelo://app?vid=6f502dee-3fea-4917-9a3c-4e160a598658","ios":"levelo://app?vid=6f502dee-3fea-4917-9a3c-4e160a598658"},"vehicle_type_id":"4","last_reported":1729163310,"current_range_meters":30400,"station_id":"ce4bgop2rcd13ifvqc1g","pricing_plan_id":"cebpf4jnsgd1na2vs0mg"},{"bike_id":"d39a5687-1116-472f-a8fb-62c0d09c90d0","system_id":"levelo_inurba_marseille","lat":43.23152,"lon":5.43711,"is_reserved":false,"is_disabled":false,"rental_uris":{"android":"levelo://app?vid=d39a5687-1116-472f-a8fb-62c0d09c90d0","ios":"levelo://app?vid=d39a5687-1116-472f-a8fb-62c0d09c90d0"},"vehicle_type_id":"4","last_reported":1729163310,"current_range_meters":36800,"station_id":"ce4bhmp2rcd13ifvqgog","pricing_plan_id":"cebpf4jnsgd1na2vs0mg"},{"bike_id":"f88c7e01-bc8c-4735-8a37-e29425c30c87","system_id":"levelo_inurba_marseille","lat":43.23184,"lon":5.39996,"is_reserved":false,"is_disabled":false,"rental_uris":{"android":"levelo://app?vid=f88c7e01-bc8c-4735-8a37-e29425c30c87","ios":"levelo://app?vid=f88c7e01-bc8c-4735-8a37-e29425c30c87"},"vehicle_type_id":"4","last_reported":1729163310,"current_range_meters":12800,"station_id":"ce4bhn12rcd13ifvqgqg","pricing_plan_id":"cebpf4jnsgd1na2vs0mg"},{"bike_id":"c8687817-23e8-4d53-870b-25e31ac622ca","system_id":"levelo_inurba_marseille","lat":43.28611,"lon":5.35105,"is_reserved":false,"is_disabled":false,"rental_uris":{"android":"levelo://app?vid=c8687817-23e8-4d53-870b-25e31ac622ca","ios":"levelo://app?vid=c8687817-23e8-4d53-870b-25e31ac622ca"},"vehicle_type_id":"4","last_reported":1729163310,"current_range_meters":21600,"station_id":"ce4bhch2rcd13ifvqeug","pricing_plan_id":"cebpf4jnsgd1na2vs0mg"},{"bike_id":"87440bd7-4730-412f-b52f-03b263c3d6ba","system_id":"levelo_inurba_marseille","lat":43.23193,"lon":5.35555,"is_reserved":false,"is_disabled":false,"rental_uris":{"android":"levelo://app?vid=87440bd7-4730-412f-b52f-03b263c3d6ba","ios":"levelo://app?vid=87440bd7-4730-412f-b52f-03b263c3d6ba"},"vehicle_type_id":"4","last_reported":1729163310,"current_range_meters":19600,"station_id":"ce4bhu92rcd13ifvqi70","pricing_plan_id":"cebpf4jnsgd1na2vs0mg"},{"bike_id":"8937c157-fc3b-4704-af92-e339d8163a54","system_id":"levelo_inurba_marseille","lat":43.29587,"lon":5.36735,"is_reserved":false,"is_disabled":false,"rental_uris":{"android":"levelo://app?vid=8937c157-fc3b-4704-af92-e339d8163a54","ios":"levelo://app?vid=8937c157-fc3b-4704-af92-e339d8163a54"},"vehicle_type_id":"4","last_reported":1729163310,"current_range_meters":23200,"station_id":"ce4bgph2rcd13ifvqc2g","pricing_plan_id":"cebpf4jnsgd1na2vs0mg"},{"bike_id":"e96b9f70-bb8b-4c03-ae74-c21d45046e74","system_id":"levelo_inurba_marseille","lat":43.29572,"lon":5.37519,"is_reserved":false,"is_disabled":false,"rental_uris":{"android":"levelo://app?vid=e96b9f70-bb8b-4c03-ae74-c21d45046e74","ios":"levelo://app?vid=e96b9f70-bb8b-4c03-ae74-c21d45046e74"},"vehicle_type_id":"4","last_reported":1729163310,"current_range_meters":37600,"station_id":"ce4bgh92rcd13ifvqb50","pricing_plan_id":"cebpf4jnsgd1na2vs0mg"},{"bike_id":"a57e051e-cba3-4629-93a7-086ce79b55c2","system_id":"levelo_inurba_marseille","lat":43.26196,"lon":5.37449,"is_reserved":false,"is_disabled":false,"rental_uris":{"android":"levelo://app?vid=a57e051e-cba3-4629-93a7-086ce79b55c2","ios":"levelo://app?vid=a57e051e-cba3-4629-93a7-086ce79b55c2"},"vehicle_type_id":"4","last_reported":1729163310,"current_range_meters":33600,"station_id":"ce4bhgp2rcd13ifvqfc0","pricing_plan_id":"cebpf4jnsgd1na2vs0mg"},{"bike_id":"76642a99-74fa-4b2a-a23b-51328c54011e","system_id":"levelo_inurba_marseille","lat":43.29847,"lon":5.36272,"is_reserved":false,"is_disabled":false,"rental_uris":{"android":"levelo://app?vid=76642a99-74fa-4b2a-a23b-51328c54011e","ios":"levelo://app?vid=76642a99-74fa-4b2a-a23b-51328c54011e"},"vehicle_type_id":"4","last_reported":1729163310,"current_range_meters":34000,"station_id":"ce4bgpp2rcd13ifvqc3g","pricing_plan_id":"cebpf4jnsgd1na2vs0mg"},{"bike_id":"3d3c774a-4776-4f49-9e84-f53a9da735b9","system_id":"levelo_inurba_marseille","lat":43.30533,"lon":5.36527,"is_reserved":false,"is_disabled":false,"rental_uris":{"android":"levelo://app?vid=3d3c774a-4776-4f49-9e84-f53a9da735b9","ios":"levelo://app?vid=3d3c774a-4776-4f49-9e84-f53a9da735b9"},"vehicle_type_id":"4","last_reported":1729163310,"current_range_meters":36800,"station_id":"ce4bgs12rcd13ifvqcag","pricing_plan_id":"cebpf4jnsgd1na2vs0mg"},{"bike_id":"e7f36768-34b8-4eaa-91a6-5ea8a6bfc3c7","system_id":"levelo_inurba_marseille","lat":43.24081,"lon":5.37754,"is_reserved":false,"is_disabled":false,"rental_uris":{"android":"levelo://app?vid=e7f36768-34b8-4eaa-91a6-5ea8a6bfc3c7","ios":"levelo://app?vid=e7f36768-34b8-4eaa-91a6-5ea8a6bfc3c7"},"vehicle_type_id":"4","last_reported":1729163310,"current_range_meters":10000,"station_id":"ce4bhnp2rcd13ifvqgvg","pricing_plan_id":"cebpf4jnsgd1na2vs0mg"},{"bike_id":"23d3a54d-0a4f-4241-8871-f6842c949a0e","system_id":"levelo_inurba_marseille","lat":43.30592,"lon":5.37235,"is_reserved":false,"is_disabled":false,"rental_uris":{"android":"levelo://app?vid=23d3a54d-0a4f-4241-8871-f6842c949a0e","ios":"levelo://app?vid=23d3a54d-0a4f-4241-8871-f6842c949a0e"},"vehicle_type_id":"4","last_reported":1729163310,"current_range_meters":22800,"station_id":"ce4bgqh2rcd13ifvqc4g","pricing_plan_id":"cebpf4jnsgd1na2vs0mg"},{"bike_id":"db65d913-a142-43a7-b1c3-54dc85aadcca","system_id":"levelo_inurba_marseille","lat":43.298402,"lon":5.362709,"is_reserved":false,"is_disabled":false,"rental_uris":{"android":"levelo://app?vid=db65d913-a142-43a7-b1c3-54dc85aadcca","ios":"levelo://app?vid=db65d913-a142-43a7-b1c3-54dc85aadcca"},"vehicle_type_id":"4","last_reported":1729163310,"current_range_meters":24400,"station_id":"ce4bhgh2rcd13ifvqfb0","pricing_plan_id":"cebpf4jnsgd1na2vs0mg"},{"bike_id":"bf2089b0-26e1-414a-a423-b4e5749ee546","system_id":"levelo_inurba_marseille","lat":43.28418,"lon":5.34992,"is_reserved":false,"is_disabled":false,"rental_uris":{"android":"levelo://app?vid=bf2089b0-26e1-414a-a423-b4e5749ee546","ios":"levelo://app?vid=bf2089b0-26e1-414a-a423-b4e5749ee546"},"vehicle_type_id":"4","last_reported":1729163310,"current_range_meters":38800,"station_id":"ce4bhbh2rcd13ifvqepg","pricing_plan_id":"cebpf4jnsgd1na2vs0mg"},{"bike_id":"76f97a37-6d0d-4f0b-b7be-162e1d446166","system_id":"levelo_inurba_marseille","lat":43.28075,"lon":5.39655,"is_reserved":false,"is_disabled":false,"rental_uris":{"android":"levelo://app?vid=76f97a37-6d0d-4f0b-b7be-162e1d446166","ios":"levelo://app?vid=76f97a37-6d0d-4f0b-b7be-162e1d446166"},"vehicle_type_id":"4","last_reported":1729163310,"current_range_meters":38800,"station_id":"ce4bho12rcd13ifvqh2g","pricing_plan_id":"cebpf4jnsgd1na2vs0mg"},{"bike_id":"c14ef5f2-0e25-4897-bdf5-11a8cb47f4b9","system_id":"levelo_inurba_marseille","lat":43.28426,"lon":5.3499,"is_reserved":false,"is_disabled":false,"rental_uris":{"android":"levelo://app?vid=c14ef5f2-0e25-4897-bdf5-11a8cb47f4b9","ios":"levelo://app?vid=c14ef5f2-0e25-4897-bdf5-11a8cb47f4b9"},"vehicle_type_id":"4","last_reported":1729163310,"current_range_meters":36000,"station_id":"ce4bhbh2rcd13ifvqepg","pricing_plan_id":"cebpf4jnsgd1na2vs0mg"},{"bike_id":"49c3db25-f66c-4541-ad54-af787a8b9e0e","system_id":"levelo_inurba_marseille","lat":43.27176,"lon":5.40992,"is_reserved":false,"is_disabled":false,"rental_uris":{"android":"levelo://app?vid=49c3db25-f66c-4541-ad54-af787a8b9e0e","ios":"levelo://app?vid=49c3db25-f66c-4541-ad54-af787a8b9e0e"},"vehicle_type_id":"4","last_reported":1729163310,"current_range_meters":28800,"station_id":"ce4bhl12rcd13ifvqgf0","pricing_plan_id":"cebpf4jnsgd1na2vs0mg"},{"bike_id":"9783cd1a-0997-4625-971e-ce9e7a28872e","system_id":"levelo_inurba_marseille","lat":43.286285,"lon":5.399292,"is_reserved":false,"is_disabled":false,"rental_uris":{"android":"levelo://app?vid=9783cd1a-0997-4625-971e-ce9e7a28872e","ios":"levelo://app?vid=9783cd1a-0997-4625-971e-ce9e7a28872e"},"vehicle_type_id":"4","last_reported":1729163310,"current_range_meters":5600,"station_id":"ce4bho92rcd13ifvqh3g","pricing_plan_id":"cebpf4jnsgd1na2vs0mg"},{"bike_id":"f089d4a1-7823-433a-a1c5-4fe27519edd0","system_id":"levelo_inurba_marseille","lat":43.23965,"lon":5.3663,"is_reserved":false,"is_disabled":false,"rental_uris":{"android":"levelo://app?vid=f089d4a1-7823-433a-a1c5-4fe27519edd0","ios":"levelo://app?vid=f089d4a1-7823-433a-a1c5-4fe27519edd0"},"vehicle_type_id":"4","last_reported":1729163310,"current_range_meters":35600,"station_id":"ce4bhi12rcd13ifvqfp0","pricing_plan_id":"cebpf4jnsgd1na2vs0mg"},{"bike_id":"cd1de890-fdf5-4589-a195-980771ff4335","system_id":"levelo_inurba_marseille","lat":43.23151,"lon":5.4371,"is_reserved":false,"is_disabled":false,"rental_uris":{"android":"levelo://app?vid=cd1de890-fdf5-4589-a195-980771ff4335","ios":"levelo://app?vid=cd1de890-fdf5-4589-a195-980771ff4335"},"vehicle_type_id":"4","last_reported":1729163310,"current_range_meters":38800,"station_id":"ce4bhmp2rcd13ifvqgog","pricing_plan_id":"cebpf4jnsgd1na2vs0mg"},{"bike_id":"5a185718-8c80-463e-91ba-f47a5ac6983c","system_id":"levelo_inurba_marseille","lat":43.24478,"lon":5.3801,"is_reserved":false,"is_disabled":false,"rental_uris":{"android":"levelo://app?vid=5a185718-8c80-463e-91ba-f47a5ac6983c","ios":"levelo://app?vid=5a185718-8c80-463e-91ba-f47a5ac6983c"},"vehicle_type_id":"4","last_reported":1729163310,"current_range_meters":36400,"station_id":"","pricing_plan_id":"cebpf4jnsgd1na2vs0mg"},{"bike_id":"53f11546-ee0f-4227-921a-a57d93ed79b4","system_id":"levelo_inurba_marseille","lat":43.23149,"lon":5.43716,"is_reserved":false,"is_disabled":false,"rental_uris":{"android":"levelo://app?vid=53f11546-ee0f-4227-921a-a57d93ed79b4","ios":"levelo://app?vid=53f11546-ee0f-4227-921a-a57d93ed79b4"},"vehicle_type_id":"4","last_reported":1729163310,"current_range_meters":23200,"station_id":"ce4bhmp2rcd13ifvqgog","pricing_plan_id":"cebpf4jnsgd1na2vs0mg"},{"bike_id":"25f491e5-d0ff-4e5e-94b3-5535a7d3231b","system_id":"levelo_inurba_marseille","lat":43.24538,"lon":5.39534,"is_reserved":false,"is_disabled":false,"rental_uris":{"android":"levelo://app?vid=25f491e5-d0ff-4e5e-94b3-5535a7d3231b","ios":"levelo://app?vid=25f491e5-d0ff-4e5e-94b3-5535a7d3231b"},"vehicle_type_id":"4","last_reported":1729163310,"current_range_meters":39200,"station_id":"ce4bhlp2rcd13ifvqgjg","pricing_plan_id":"cebpf4jnsgd1na2vs0mg"},{"bike_id":"8682d4fa-0c87-4d60-8bc7-79b95da44779","system_id":"levelo_inurba_marseille","lat":43.30545,"lon":5.3654,"is_reserved":false,"is_disabled":false,"rental_uris":{"android":"levelo://app?vid=8682d4fa-0c87-4d60-8bc7-79b95da44779","ios":"levelo://app?vid=8682d4fa-0c87-4d60-8bc7-79b95da44779"},"vehicle_type_id":"4","last_reported":1729163310,"current_range_meters":38800,"station_id":"ce4bgs12rcd13ifvqcag","pricing_plan_id":"cebpf4jnsgd1na2vs0mg"},{"bike_id":"f5975b0a-70fb-4fa4-b844-2543247ddda0","system_id":"levelo_inurba_marseille","lat":43.24547,"lon":5.39527,"is_reserved":false,"is_disabled":false,"rental_uris":{"android":"levelo://app?vid=f5975b0a-70fb-4fa4-b844-2543247ddda0","ios":"levelo://app?vid=f5975b0a-70fb-4fa4-b844-2543247ddda0"},"vehicle_type_id":"4","last_reported":1729163310,"current_range_meters":38800,"station_id":"ce4bhlp2rcd13ifvqgjg","pricing_plan_id":"cebpf4jnsgd1na2vs0mg"},{"bike_id":"06bb7500-aaac-4ac4-af5f-b0d62ba39584","system_id":"levelo_inurba_marseille","lat":43.30915,"lon":5.36849,"is_reserved":false,"is_disabled":false,"rental_uris":{"android":"levelo://app?vid=06bb7500-aaac-4ac4-af5f-b0d62ba39584","ios":"levelo://app?vid=06bb7500-aaac-4ac4-af5f-b0d62ba39584"},"vehicle_type_id":"4","last_reported":1729163310,"current_range_meters":38000,"station_id":"ce4bgn92rcd13ifvqbvg","pricing_plan_id":"cebpf4jnsgd1na2vs0mg"},{"bike_id":"f66f225b-c5ea-405e-af04-a1d8cc867613","system_id":"levelo_inurba_marseille","lat":43.29584,"lon":5.36732,"is_reserved":false,"is_disabled":false,"rental_uris":{"android":"levelo://app?vid=f66f225b-c5ea-405e-af04-a1d8cc867613","ios":"levelo://app?vid=f66f225b-c5ea-405e-af04-a1d8cc867613"},"vehicle_type_id":"4","last_reported":1729163310,"current_range_meters":16800,"station_id":"ce4bgph2rcd13ifvqc2g","pricing_plan_id":"cebpf4jnsgd1na2vs0mg"},{"bike_id":"5b7d217b-b6a3-48b2-a7c0-1e484eaaea02","system_id":"levelo_inurba_marseille","lat":43.25936,"lon":5.40897,"is_reserved":false,"is_disabled":false,"rental_uris":{"android":"levelo://app?vid=5b7d217b-b6a3-48b2-a7c0-1e484eaaea02","ios":"levelo://app?vid=5b7d217b-b6a3-48b2-a7c0-1e484eaaea02"},"vehicle_type_id":"4","last_reported":1729163310,"current_range_meters":38400,"station_id":"ce4bhm92rcd13ifvqglg","pricing_plan_id":"cebpf4jnsgd1na2vs0mg"},{"bike_id":"292b9425-1372-40d4-bf0a-fe57aa779a41","system_id":"levelo_inurba_marseille","lat":43.23065,"lon":5.35492,"is_reserved":false,"is_disabled":false,"rental_uris":{"android":"levelo://app?vid=292b9425-1372-40d4-bf0a-fe57aa779a41","ios":"levelo://app?vid=292b9425-1372-40d4-bf0a-fe57aa779a41"},"vehicle_type_id":"4","last_reported":1729163310,"current_range_meters":24400,"station_id":"cpo3342slgdg3j2ifvpg","pricing_plan_id":"cebpf4jnsgd1na2vs0mg"},{"bike_id":"efeaea61-8512-4b75-bae8-c43941554118","system_id":"levelo_inurba_marseille","lat":43.29587,"lon":5.36738,"is_reserved":false,"is_disabled":false,"rental_uris":{"android":"levelo://app?vid=efeaea61-8512-4b75-bae8-c43941554118","ios":"levelo://app?vid=efeaea61-8512-4b75-bae8-c43941554118"},"vehicle_type_id":"4","last_reported":1729163310,"current_range_meters":28000,"station_id":"ce4bgph2rcd13ifvqc2g","pricing_plan_id":"cebpf4jnsgd1na2vs0mg"},{"bike_id":"be26c6fa-8363-4e4b-947f-122887bb0830","system_id":"levelo_inurba_marseille","lat":43.269291,"lon":5.389173,"is_reserved":false,"is_disabled":false,"rental_uris":{"android":"levelo://app?vid=be26c6fa-8363-4e4b-947f-122887bb0830","ios":"levelo://app?vid=be26c6fa-8363-4e4b-947f-122887bb0830"},"vehicle_type_id":"4","last_reported":1729163310,"current_range_meters":10800,"station_id":"ce4bhhh2rcd13ifvqfl0","pricing_plan_id":"cebpf4jnsgd1na2vs0mg"},{"bike_id":"fcd18b26-0204-437d-8ab7-d461f505d763","system_id":"levelo_inurba_marseille","lat":43.33774,"lon":5.37475,"is_reserved":false,"is_disabled":false,"rental_uris":{"android":"levelo://app?vid=fcd18b26-0204-437d-8ab7-d461f505d763","ios":"levelo://app?vid=fcd18b26-0204-437d-8ab7-d461f505d763"},"vehicle_type_id":"4","last_reported":1729163310,"current_range_meters":38000,"station_id":"","pricing_plan_id":"cebpf4jnsgd1na2vs0mg"},{"bike_id":"5e4e3173-0624-44ef-b296-89d3a6ab2edd","system_id":"levelo_inurba_marseille","lat":43.28416,"lon":5.37506,"is_reserved":false,"is_disabled":false,"rental_uris":{"android":"levelo://app?vid=5e4e3173-0624-44ef-b296-89d3a6ab2edd","ios":"levelo://app?vid=5e4e3173-0624-44ef-b296-89d3a6ab2edd"},"vehicle_type_id":"4","last_reported":1729163310,"current_range_meters":6400,"station_id":"ce4bh412rcd13ifvqds0","pricing_plan_id":"cebpf4jnsgd1na2vs0mg"},{"bike_id":"5ab66e45-0165-4216-847f-4e1dfb4defc5","system_id":"levelo_inurba_marseille","lat":43.23155,"lon":5.437,"is_reserved":false,"is_disabled":false,"rental_uris":{"android":"levelo://app?vid=5ab66e45-0165-4216-847f-4e1dfb4defc5","ios":"levelo://app?vid=5ab66e45-0165-4216-847f-4e1dfb4defc5"},"vehicle_type_id":"4","last_reported":1729163310,"current_range_meters":36800,"station_id":"ce4bhmp2rcd13ifvqgog","pricing_plan_id":"cebpf4jnsgd1na2vs0mg"},{"bike_id":"1f37b7e6-9139-4ccd-a095-e8bad37eaf87","system_id":"levelo_inurba_marseille","lat":43.25935,"lon":5.40904,"is_reserved":false,"is_disabled":false,"rental_uris":{"android":"levelo://app?vid=1f37b7e6-9139-4ccd-a095-e8bad37eaf87","ios":"levelo://app?vid=1f37b7e6-9139-4ccd-a095-e8bad37eaf87"},"vehicle_type_id":"4","last_reported":1729163310,"current_range_meters":14800,"station_id":"ce4bhm92rcd13ifvqglg","pricing_plan_id":"cebpf4jnsgd1na2vs0mg"},{"bike_id":"2a428259-c5b4-4c54-809d-d47d6ce7b4f0","system_id":"levelo_inurba_marseille","lat":43.29257,"lon":5.40913,"is_reserved":false,"is_disabled":false,"rental_uris":{"android":"levelo://app?vid=2a428259-c5b4-4c54-809d-d47d6ce7b4f0","ios":"levelo://app?vid=2a428259-c5b4-4c54-809d-d47d6ce7b4f0"},"vehicle_type_id":"4","last_reported":1729163310,"current_range_meters":31200,"station_id":"ce4bh192rcd13ifvqdc0","pricing_plan_id":"cebpf4jnsgd1na2vs0mg"},{"bike_id":"2774b68a-59b3-4787-b785-f42a30b7cb63","system_id":"levelo_inurba_marseille","lat":43.30543,"lon":5.36532,"is_reserved":false,"is_disabled":false,"rental_uris":{"android":"levelo://app?vid=2774b68a-59b3-4787-b785-f42a30b7cb63","ios":"levelo://app?vid=2774b68a-59b3-4787-b785-f42a30b7cb63"},"vehicle_type_id":"4","last_reported":1729163310,"current_range_meters":20400,"station_id":"ce4bgs12rcd13ifvqcag","pricing_plan_id":"cebpf4jnsgd1na2vs0mg"},{"bike_id":"005117c0-90a3-4ee2-af58-362346745aa6","system_id":"levelo_inurba_marseille","lat":43.27382,"lon":5.36258,"is_reserved":false,"is_disabled":false,"rental_uris":{"android":"levelo://app?vid=005117c0-90a3-4ee2-af58-362346745aa6","ios":"levelo://app?vid=005117c0-90a3-4ee2-af58-362346745aa6"},"vehicle_type_id":"4","last_reported":1729163310,"current_range_meters":3600,"station_id":"ce4bhbh2rcd13ifvqeo0","pricing_plan_id":"cebpf4jnsgd1na2vs0mg"},{"bike_id":"bc1080d4-ad20-42fa-9ed3-27d5678423a1","system_id":"levelo_inurba_marseille","lat":43.30548,"lon":5.36539,"is_reserved":false,"is_disabled":false,"rental_uris":{"android":"levelo://app?vid=bc1080d4-ad20-42fa-9ed3-27d5678423a1","ios":"levelo://app?vid=bc1080d4-ad20-42fa-9ed3-27d5678423a1"},"vehicle_type_id":"4","last_reported":1729163310,"current_range_meters":30000,"station_id":"ce4bgs12rcd13ifvqcag","pricing_plan_id":"cebpf4jnsgd1na2vs0mg"},{"bike_id":"d6733a83-dfa1-4662-b556-c5ea479c0c49","system_id":"levelo_inurba_marseille","lat":43.24393,"lon":5.37066,"is_reserved":false,"is_disabled":false,"rental_uris":{"android":"levelo://app?vid=d6733a83-dfa1-4662-b556-c5ea479c0c49","ios":"levelo://app?vid=d6733a83-dfa1-4662-b556-c5ea479c0c49"},"vehicle_type_id":"4","last_reported":1729163310,"current_range_meters":14000,"station_id":"ce4bhhh2rcd13ifvqfk0","pricing_plan_id":"cebpf4jnsgd1na2vs0mg"},{"bike_id":"ad0073bc-4ef1-4232-8b46-10890e5ea15a","system_id":"levelo_inurba_marseille","lat":43.30924,"lon":5.40135,"is_reserved":false,"is_disabled":false,"rental_uris":{"android":"levelo://app?vid=ad0073bc-4ef1-4232-8b46-10890e5ea15a","ios":"levelo://app?vid=ad0073bc-4ef1-4232-8b46-10890e5ea15a"},"vehicle_type_id":"4","last_reported":1729163310,"current_range_meters":4800,"station_id":"ce4bgvp2rcd13ifvqct0","pricing_plan_id":"cebpf4jnsgd1na2vs0mg"},{"bike_id":"c5dc467f-bb84-4580-a7fd-0937f9280ba1","system_id":"levelo_inurba_marseille","lat":43.27909,"lon":5.38023,"is_reserved":false,"is_disabled":false,"rental_uris":{"android":"levelo://app?vid=c5dc467f-bb84-4580-a7fd-0937f9280ba1","ios":"levelo://app?vid=c5dc467f-bb84-4580-a7fd-0937f9280ba1"},"vehicle_type_id":"4","last_reported":1729163310,"current_range_meters":6400,"station_id":"ce4bhf92rcd13ifvqf50","pricing_plan_id":"cebpf4jnsgd1na2vs0mg"},{"bike_id":"5a673800-fe7e-445f-bd0e-ba4725b8a4e8","system_id":"levelo_inurba_marseille","lat":43.2955,"lon":5.422789,"is_reserved":false,"is_disabled":false,"rental_uris":{"android":"levelo://app?vid=5a673800-fe7e-445f-bd0e-ba4725b8a4e8","ios":"levelo://app?vid=5a673800-fe7e-445f-bd0e-ba4725b8a4e8"},"vehicle_type_id":"4","last_reported":1729163310,"current_range_meters":36400,"station_id":"ce4bhph2rcd13ifvqhdg","pricing_plan_id":"cebpf4jnsgd1na2vs0mg"},{"bike_id":"65f38e2e-f3b8-4e20-8036-4a3cc4cc53c4","system_id":"levelo_inurba_marseille","lat":43.30544,"lon":5.36525,"is_reserved":false,"is_disabled":false,"rental_uris":{"android":"levelo://app?vid=65f38e2e-f3b8-4e20-8036-4a3cc4cc53c4","ios":"levelo://app?vid=65f38e2e-f3b8-4e20-8036-4a3cc4cc53c4"},"vehicle_type_id":"4","last_reported":1729163310,"current_range_meters":33200,"station_id":"ce4bgs12rcd13ifvqcag","pricing_plan_id":"cebpf4jnsgd1na2vs0mg"},{"bike_id":"41781d3d-941e-4140-a86a-14bc69c69dfd","system_id":"levelo_inurba_marseille","lat":43.24084,"lon":5.37743,"is_reserved":false,"is_disabled":false,"rental_uris":{"android":"levelo://app?vid=41781d3d-941e-4140-a86a-14bc69c69dfd","ios":"levelo://app?vid=41781d3d-941e-4140-a86a-14bc69c69dfd"},"vehicle_type_id":"4","last_reported":1729163310,"current_range_meters":14000,"station_id":"ce4bhnp2rcd13ifvqgvg","pricing_plan_id":"cebpf4jnsgd1na2vs0mg"},{"bike_id":"9620fd44-1a5e-4cd0-b47f-1054b4c38ea0","system_id":"levelo_inurba_marseille","lat":43.30184,"lon":5.3662,"is_reserved":false,"is_disabled":false,"rental_uris":{"android":"levelo://app?vid=9620fd44-1a5e-4cd0-b47f-1054b4c38ea0","ios":"levelo://app?vid=9620fd44-1a5e-4cd0-b47f-1054b4c38ea0"},"vehicle_type_id":"4","last_reported":1729163310,"current_range_meters":32800,"station_id":"ce4bgrh2rcd13ifvqc8g","pricing_plan_id":"cebpf4jnsgd1na2vs0mg"},{"bike_id":"3664398f-378f-46f2-bd12-30042ad8db9d","system_id":"levelo_inurba_marseille","lat":43.23189,"lon":5.39969,"is_reserved":false,"is_disabled":false,"rental_uris":{"android":"levelo://app?vid=3664398f-378f-46f2-bd12-30042ad8db9d","ios":"levelo://app?vid=3664398f-378f-46f2-bd12-30042ad8db9d"},"vehicle_type_id":"4","last_reported":1729163310,"current_range_meters":36000,"station_id":"ce4bhn12rcd13ifvqgqg","pricing_plan_id":"cebpf4jnsgd1na2vs0mg"},{"bike_id":"507f454f-ca5c-4ce1-8d3e-3581fd751fa1","system_id":"levelo_inurba_marseille","lat":43.27818,"lon":5.40714,"is_reserved":false,"is_disabled":false,"rental_uris":{"android":"levelo://app?vid=507f454f-ca5c-4ce1-8d3e-3581fd751fa1","ios":"levelo://app?vid=507f454f-ca5c-4ce1-8d3e-3581fd751fa1"},"vehicle_type_id":"4","last_reported":1729163310,"current_range_meters":11600,"station_id":"ce4bhnh2rcd13ifvqgtg","pricing_plan_id":"cebpf4jnsgd1na2vs0mg"},{"bike_id":"99183a40-a703-4842-823a-b783ef0459f5","system_id":"levelo_inurba_marseille","lat":43.27833,"lon":5.39213,"is_reserved":false,"is_disabled":false,"rental_uris":{"android":"levelo://app?vid=99183a40-a703-4842-823a-b783ef0459f5","ios":"levelo://app?vid=99183a40-a703-4842-823a-b783ef0459f5"},"vehicle_type_id":"4","last_reported":1729163310,"current_range_meters":26000,"station_id":"ce4bhjp2rcd13ifvqga0","pricing_plan_id":"cebpf4jnsgd1na2vs0mg"},{"bike_id":"a9d80141-cb04-4f88-bcc5-9763572e3517","system_id":"levelo_inurba_marseille","lat":43.23194,"lon":5.35544,"is_reserved":false,"is_disabled":false,"rental_uris":{"android":"levelo://app?vid=a9d80141-cb04-4f88-bcc5-9763572e3517","ios":"levelo://app?vid=a9d80141-cb04-4f88-bcc5-9763572e3517"},"vehicle_type_id":"4","last_reported":1729163310,"current_range_meters":33600,"station_id":"ce4bhu92rcd13ifvqi70","pricing_plan_id":"cebpf4jnsgd1na2vs0mg"},{"bike_id":"e0db5bd3-d427-4f9e-b1f3-02dd007c7e39","system_id":"levelo_inurba_marseille","lat":43.24394,"lon":5.37055,"is_reserved":false,"is_disabled":false,"rental_uris":{"android":"levelo://app?vid=e0db5bd3-d427-4f9e-b1f3-02dd007c7e39","ios":"levelo://app?vid=e0db5bd3-d427-4f9e-b1f3-02dd007c7e39"},"vehicle_type_id":"4","last_reported":1729163310,"current_range_meters":20000,"station_id":"ce4bhhh2rcd13ifvqfk0","pricing_plan_id":"cebpf4jnsgd1na2vs0mg"},{"bike_id":"35a22db4-7e9d-4709-be91-f373b0a75e57","system_id":"levelo_inurba_marseille","lat":43.33756,"lon":5.37446,"is_reserved":false,"is_disabled":false,"rental_uris":{"android":"levelo://app?vid=35a22db4-7e9d-4709-be91-f373b0a75e57","ios":"levelo://app?vid=35a22db4-7e9d-4709-be91-f373b0a75e57"},"vehicle_type_id":"4","last_reported":1729163310,"current_range_meters":32800,"station_id":"","pricing_plan_id":"cebpf4jnsgd1na2vs0mg"},{"bike_id":"004ac328-a89e-4fe7-9175-a79865f1bb8d","system_id":"levelo_inurba_marseille","lat":43.24077,"lon":5.37754,"is_reserved":false,"is_disabled":false,"rental_uris":{"android":"levelo://app?vid=004ac328-a89e-4fe7-9175-a79865f1bb8d","ios":"levelo://app?vid=004ac328-a89e-4fe7-9175-a79865f1bb8d"},"vehicle_type_id":"4","last_reported":1729163310,"current_range_meters":7200,"station_id":"ce4bhnp2rcd13ifvqgvg","pricing_plan_id":"cebpf4jnsgd1na2vs0mg"},{"bike_id":"f7dede7b-4108-44bd-9613-8910b2f6868b","system_id":"levelo_inurba_marseille","lat":43.31487,"lon":5.37308,"is_reserved":false,"is_disabled":false,"rental_uris":{"android":"levelo://app?vid=f7dede7b-4108-44bd-9613-8910b2f6868b","ios":"levelo://app?vid=f7dede7b-4108-44bd-9613-8910b2f6868b"},"vehicle_type_id":"4","last_reported":1729163310,"current_range_meters":38800,"station_id":"ce4bgt12rcd13ifvqcd0","pricing_plan_id":"cebpf4jnsgd1na2vs0mg"},{"bike_id":"9d390ee7-a6b9-4cda-87ae-9e6fd6b700b2","system_id":"levelo_inurba_marseille","lat":43.30528,"lon":5.36544,"is_reserved":false,"is_disabled":false,"rental_uris":{"android":"levelo://app?vid=9d390ee7-a6b9-4cda-87ae-9e6fd6b700b2","ios":"levelo://app?vid=9d390ee7-a6b9-4cda-87ae-9e6fd6b700b2"},"vehicle_type_id":"4","last_reported":1729163310,"current_range_meters":39200,"station_id":"ce4bgs12rcd13ifvqcag","pricing_plan_id":"cebpf4jnsgd1na2vs0mg"},{"bike_id":"716acd60-0f86-41bc-8e8d-9098a52a4d45","system_id":"levelo_inurba_marseille","lat":43.33025,"lon":5.39044,"is_reserved":false,"is_disabled":false,"rental_uris":{"android":"levelo://app?vid=716acd60-0f86-41bc-8e8d-9098a52a4d45","ios":"levelo://app?vid=716acd60-0f86-41bc-8e8d-9098a52a4d45"},"vehicle_type_id":"4","last_reported":1729163310,"current_range_meters":18800,"station_id":"ce4bhr92rcd13ifvqhrg","pricing_plan_id":"cebpf4jnsgd1na2vs0mg"},{"bike_id":"4ce6a8a4-f543-406e-9b3b-bf69a485e2ff","system_id":"levelo_inurba_marseille","lat":43.24652,"lon":5.38894,"is_reserved":false,"is_disabled":false,"rental_uris":{"android":"levelo://app?vid=4ce6a8a4-f543-406e-9b3b-bf69a485e2ff","ios":"levelo://app?vid=4ce6a8a4-f543-406e-9b3b-bf69a485e2ff"},"vehicle_type_id":"4","last_reported":1729163310,"current_range_meters":32000,"station_id":"ce4bhg12rcd13ifvqf60","pricing_plan_id":"cebpf4jnsgd1na2vs0mg"},{"bike_id":"0b3e7fd6-2511-4337-b5d2-b8304124bef5","system_id":"levelo_inurba_marseille","lat":43.25925,"lon":5.40911,"is_reserved":false,"is_disabled":false,"rental_uris":{"android":"levelo://app?vid=0b3e7fd6-2511-4337-b5d2-b8304124bef5","ios":"levelo://app?vid=0b3e7fd6-2511-4337-b5d2-b8304124bef5"},"vehicle_type_id":"4","last_reported":1729163310,"current_range_meters":25200,"station_id":"ce4bhm92rcd13ifvqglg","pricing_plan_id":"cebpf4jnsgd1na2vs0mg"},{"bike_id":"28217642-6f84-475f-b484-09f588f7d774","system_id":"levelo_inurba_marseille","lat":43.283415,"lon":5.381158,"is_reserved":false,"is_disabled":false,"rental_uris":{"android":"levelo://app?vid=28217642-6f84-475f-b484-09f588f7d774","ios":"levelo://app?vid=28217642-6f84-475f-b484-09f588f7d774"},"vehicle_type_id":"4","last_reported":1729163310,"current_range_meters":5600,"station_id":"ce4bgvp2rcd13ifvqcu0","pricing_plan_id":"cebpf4jnsgd1na2vs0mg"},{"bike_id":"0bf30492-c7a1-413f-ac0c-e720bccf7887","system_id":"levelo_inurba_marseille","lat":43.27054,"lon":5.40263,"is_reserved":false,"is_disabled":false,"rental_uris":{"android":"levelo://app?vid=0bf30492-c7a1-413f-ac0c-e720bccf7887","ios":"levelo://app?vid=0bf30492-c7a1-413f-ac0c-e720bccf7887"},"vehicle_type_id":"4","last_reported":1729163310,"current_range_meters":10800,"station_id":"ce4bhk92rcd13ifvqgc0","pricing_plan_id":"cebpf4jnsgd1na2vs0mg"},{"bike_id":"d41309ab-1a1f-4395-acaa-455483c3f8e1","system_id":"levelo_inurba_marseille","lat":43.23194,"lon":5.35559,"is_reserved":false,"is_disabled":false,"rental_uris":{"android":"levelo://app?vid=d41309ab-1a1f-4395-acaa-455483c3f8e1","ios":"levelo://app?vid=d41309ab-1a1f-4395-acaa-455483c3f8e1"},"vehicle_type_id":"4","last_reported":1729163310,"current_range_meters":36800,"station_id":"ce4bhu92rcd13ifvqi70","pricing_plan_id":"cebpf4jnsgd1na2vs0mg"},{"bike_id":"3125f22b-abc1-4b84-8bf2-d6cfbe688a4a","system_id":"levelo_inurba_marseille","lat":43.33781,"lon":5.37429,"is_reserved":false,"is_disabled":false,"rental_uris":{"android":"levelo://app?vid=3125f22b-abc1-4b84-8bf2-d6cfbe688a4a","ios":"levelo://app?vid=3125f22b-abc1-4b84-8bf2-d6cfbe688a4a"},"vehicle_type_id":"4","last_reported":1729163310,"current_range_meters":38800,"station_id":"","pricing_plan_id":"cebpf4jnsgd1na2vs0mg"},{"bike_id":"2dd21b36-b488-441a-a25c-f8c2af01cc94","system_id":"levelo_inurba_marseille","lat":43.30543,"lon":5.36533,"is_reserved":false,"is_disabled":false,"rental_uris":{"android":"levelo://app?vid=2dd21b36-b488-441a-a25c-f8c2af01cc94","ios":"levelo://app?vid=2dd21b36-b488-441a-a25c-f8c2af01cc94"},"vehicle_type_id":"4","last_reported":1729163310,"current_range_meters":27200,"station_id":"ce4bgs12rcd13ifvqcag","pricing_plan_id":"cebpf4jnsgd1na2vs0mg"},{"bike_id":"d7549997-4341-483a-8fd9-86b42a4b9e0d","system_id":"levelo_inurba_marseille","lat":43.31714,"lon":5.43707,"is_reserved":false,"is_disabled":false,"rental_uris":{"android":"levelo://app?vid=d7549997-4341-483a-8fd9-86b42a4b9e0d","ios":"levelo://app?vid=d7549997-4341-483a-8fd9-86b42a4b9e0d"},"vehicle_type_id":"4","last_reported":1729163310,"current_range_meters":35600,"station_id":"ce4bhp92rcd13ifvqhcg","pricing_plan_id":"cebpf4jnsgd1na2vs0mg"},{"bike_id":"4735c182-fae7-4da8-b138-a729e25afc13","system_id":"levelo_inurba_marseille","lat":43.2971,"lon":5.36579,"is_reserved":false,"is_disabled":false,"rental_uris":{"android":"levelo://app?vid=4735c182-fae7-4da8-b138-a729e25afc13","ios":"levelo://app?vid=4735c182-fae7-4da8-b138-a729e25afc13"},"vehicle_type_id":"4","last_reported":1729163310,"current_range_meters":27600,"station_id":"ce4bgn12rcd13ifvqbt0","pricing_plan_id":"cebpf4jnsgd1na2vs0mg"},{"bike_id":"a0c122e3-af93-4618-bbe9-09704639de9c","system_id":"levelo_inurba_marseille","lat":43.25929,"lon":5.40905,"is_reserved":false,"is_disabled":false,"rental_uris":{"android":"levelo://app?vid=a0c122e3-af93-4618-bbe9-09704639de9c","ios":"levelo://app?vid=a0c122e3-af93-4618-bbe9-09704639de9c"},"vehicle_type_id":"4","last_reported":1729163310,"current_range_meters":16400,"station_id":"ce4bhm92rcd13ifvqglg","pricing_plan_id":"cebpf4jnsgd1na2vs0mg"},{"bike_id":"3d51e2f2-2d5a-46dc-99ca-f00168aa3c2b","system_id":"levelo_inurba_marseille","lat":43.31332,"lon":5.3969,"is_reserved":false,"is_disabled":false,"rental_uris":{"android":"levelo://app?vid=3d51e2f2-2d5a-46dc-99ca-f00168aa3c2b","ios":"levelo://app?vid=3d51e2f2-2d5a-46dc-99ca-f00168aa3c2b"},"vehicle_type_id":"4","last_reported":1729163310,"current_range_meters":22000,"station_id":"ce4bgvp2rcd13ifvqcu0","pricing_plan_id":"cebpf4jnsgd1na2vs0mg"},{"bike_id":"6417d612-57e0-4d8f-9c33-e2f5630bbfc3","system_id":"levelo_inurba_marseille","lat":43.29445,"lon":5.39749,"is_reserved":false,"is_disabled":false,"rental_uris":{"android":"levelo://app?vid=6417d612-57e0-4d8f-9c33-e2f5630bbfc3","ios":"levelo://app?vid=6417d612-57e0-4d8f-9c33-e2f5630bbfc3"},"vehicle_type_id":"4","last_reported":1729163310,"current_range_meters":18800,"station_id":"ce4bh3h2rcd13ifvqdo0","pricing_plan_id":"cebpf4jnsgd1na2vs0mg"},{"bike_id":"a8daef43-5a21-4776-8b76-60c76a8caefc","system_id":"levelo_inurba_marseille","lat":43.27833,"lon":5.40713,"is_reserved":false,"is_disabled":false,"rental_uris":{"android":"levelo://app?vid=a8daef43-5a21-4776-8b76-60c76a8caefc","ios":"levelo://app?vid=a8daef43-5a21-4776-8b76-60c76a8caefc"},"vehicle_type_id":"4","last_reported":1729163310,"current_range_meters":6800,"station_id":"ce4bhnh2rcd13ifvqgtg","pricing_plan_id":"cebpf4jnsgd1na2vs0mg"},{"bike_id":"c034bb6e-bc71-4d55-bc8f-ba63cd332fe3","system_id":"levelo_inurba_marseille","lat":43.2315,"lon":5.43721,"is_reserved":false,"is_disabled":false,"rental_uris":{"android":"levelo://app?vid=c034bb6e-bc71-4d55-bc8f-ba63cd332fe3","ios":"levelo://app?vid=c034bb6e-bc71-4d55-bc8f-ba63cd332fe3"},"vehicle_type_id":"4","last_reported":1729163310,"current_range_meters":24000,"station_id":"ce4bhmp2rcd13ifvqgog","pricing_plan_id":"cebpf4jnsgd1na2vs0mg"},{"bike_id":"033a7f68-f273-426e-84a9-8a3b2c56f6f5","system_id":"levelo_inurba_marseille","lat":43.34602,"lon":5.38122,"is_reserved":false,"is_disabled":false,"rental_uris":{"android":"levelo://app?vid=033a7f68-f273-426e-84a9-8a3b2c56f6f5","ios":"levelo://app?vid=033a7f68-f273-426e-84a9-8a3b2c56f6f5"},"vehicle_type_id":"4","last_reported":1729163310,"current_range_meters":10800,"station_id":"","pricing_plan_id":"cebpf4jnsgd1na2vs0mg"},{"bike_id":"0075f473-dc58-4296-93ed-7c7d3a8fa493","system_id":"levelo_inurba_marseille","lat":43.30002,"lon":5.37581,"is_reserved":false,"is_disabled":false,"rental_uris":{"android":"levelo://app?vid=0075f473-dc58-4296-93ed-7c7d3a8fa493","ios":"levelo://app?vid=0075f473-dc58-4296-93ed-7c7d3a8fa493"},"vehicle_type_id":"4","last_reported":1729163310,"current_range_meters":21600,"station_id":"ce4bguh2rcd13ifvqcj0","pricing_plan_id":"cebpf4jnsgd1na2vs0mg"},{"bike_id":"1af2813b-98a0-4b62-aaf8-89652b30f639","system_id":"levelo_inurba_marseille","lat":43.22934,"lon":5.35385,"is_reserved":false,"is_disabled":false,"rental_uris":{"android":"levelo://app?vid=1af2813b-98a0-4b62-aaf8-89652b30f639","ios":"levelo://app?vid=1af2813b-98a0-4b62-aaf8-89652b30f639"},"vehicle_type_id":"4","last_reported":1729163310,"current_range_meters":19200,"station_id":"cpo3532slgdg3j2ikp40","pricing_plan_id":"cebpf4jnsgd1na2vs0mg"},{"bike_id":"e9c7f9fc-b1e5-43b0-8828-fe7f420651b6","system_id":"levelo_inurba_marseille","lat":43.29558,"lon":5.42291,"is_reserved":false,"is_disabled":false,"rental_uris":{"android":"levelo://app?vid=e9c7f9fc-b1e5-43b0-8828-fe7f420651b6","ios":"levelo://app?vid=e9c7f9fc-b1e5-43b0-8828-fe7f420651b6"},"vehicle_type_id":"4","last_reported":1729163310,"current_range_meters":38000,"station_id":"ce4bhph2rcd13ifvqhdg","pricing_plan_id":"cebpf4jnsgd1na2vs0mg"},{"bike_id":"e7e9a469-cbf7-46c4-ad64-4721a8aad91d","system_id":"levelo_inurba_marseille","lat":43.304135,"lon":5.388034,"is_reserved":false,"is_disabled":false,"rental_uris":{"android":"levelo://app?vid=e7e9a469-cbf7-46c4-ad64-4721a8aad91d","ios":"levelo://app?vid=e7e9a469-cbf7-46c4-ad64-4721a8aad91d"},"vehicle_type_id":"4","last_reported":1729163310,"current_range_meters":17600,"station_id":"ce4bhph2rcd13ifvqhdg","pricing_plan_id":"cebpf4jnsgd1na2vs0mg"},{"bike_id":"3f036ca2-87fd-4e7f-b1b9-ffc2f33ba3d5","system_id":"levelo_inurba_marseille","lat":43.31712,"lon":5.43704,"is_reserved":false,"is_disabled":false,"rental_uris":{"android":"levelo://app?vid=3f036ca2-87fd-4e7f-b1b9-ffc2f33ba3d5","ios":"levelo://app?vid=3f036ca2-87fd-4e7f-b1b9-ffc2f33ba3d5"},"vehicle_type_id":"4","last_reported":1729163310,"current_range_meters":8800,"station_id":"ce4bhp92rcd13ifvqhcg","pricing_plan_id":"cebpf4jnsgd1na2vs0mg"},{"bike_id":"f93454e1-a669-4c63-a4ca-b572042c7971","system_id":"levelo_inurba_marseille","lat":43.23191,"lon":5.35561,"is_reserved":false,"is_disabled":false,"rental_uris":{"android":"levelo://app?vid=f93454e1-a669-4c63-a4ca-b572042c7971","ios":"levelo://app?vid=f93454e1-a669-4c63-a4ca-b572042c7971"},"vehicle_type_id":"4","last_reported":1729163310,"current_range_meters":14800,"station_id":"ce4bhu92rcd13ifvqi70","pricing_plan_id":"cebpf4jnsgd1na2vs0mg"},{"bike_id":"b438188a-e463-4ef0-91b3-a7210e47b8fc","system_id":"levelo_inurba_marseille","lat":43.29983,"lon":5.37179,"is_reserved":false,"is_disabled":false,"rental_uris":{"android":"levelo://app?vid=b438188a-e463-4ef0-91b3-a7210e47b8fc","ios":"levelo://app?vid=b438188a-e463-4ef0-91b3-a7210e47b8fc"},"vehicle_type_id":"4","last_reported":1729163310,"current_range_meters":24800,"station_id":"ce4bgr92rcd13ifvqc7g","pricing_plan_id":"cebpf4jnsgd1na2vs0mg"},{"bike_id":"0d61f86b-0ccb-4f3b-bb35-44b75c1f9eb0","system_id":"levelo_inurba_marseille","lat":43.29918,"lon":5.3749,"is_reserved":false,"is_disabled":false,"rental_uris":{"android":"levelo://app?vid=0d61f86b-0ccb-4f3b-bb35-44b75c1f9eb0","ios":"levelo://app?vid=0d61f86b-0ccb-4f3b-bb35-44b75c1f9eb0"},"vehicle_type_id":"4","last_reported":1729163310,"current_range_meters":26000,"station_id":"ce4bgjh2rcd13ifvqbg0","pricing_plan_id":"cebpf4jnsgd1na2vs0mg"},{"bike_id":"2c13c9f9-e648-4cb7-a991-c4892f83ae5b","system_id":"levelo_inurba_marseille","lat":43.23151,"lon":5.43712,"is_reserved":false,"is_disabled":false,"rental_uris":{"android":"levelo://app?vid=2c13c9f9-e648-4cb7-a991-c4892f83ae5b","ios":"levelo://app?vid=2c13c9f9-e648-4cb7-a991-c4892f83ae5b"},"vehicle_type_id":"4","last_reported":1729163310,"current_range_meters":2800,"station_id":"ce4bhmp2rcd13ifvqgog","pricing_plan_id":"cebpf4jnsgd1na2vs0mg"},{"bike_id":"2df24c65-eb44-42c6-8619-faf91b700d65","system_id":"levelo_inurba_marseille","lat":43.29263,"lon":5.40905,"is_reserved":false,"is_disabled":false,"rental_uris":{"android":"levelo://app?vid=2df24c65-eb44-42c6-8619-faf91b700d65","ios":"levelo://app?vid=2df24c65-eb44-42c6-8619-faf91b700d65"},"vehicle_type_id":"4","last_reported":1729163310,"current_range_meters":34000,"station_id":"ce4bh192rcd13ifvqdc0","pricing_plan_id":"cebpf4jnsgd1na2vs0mg"},{"bike_id":"401d617b-728a-48eb-a46c-64c291dfb0af","system_id":"levelo_inurba_marseille","lat":43.29514,"lon":5.39041,"is_reserved":false,"is_disabled":false,"rental_uris":{"android":"levelo://app?vid=401d617b-728a-48eb-a46c-64c291dfb0af","ios":"levelo://app?vid=401d617b-728a-48eb-a46c-64c291dfb0af"},"vehicle_type_id":"4","last_reported":1729163310,"current_range_meters":39200,"station_id":"ce4bh3p2rcd13ifvqdp0","pricing_plan_id":"cebpf4jnsgd1na2vs0mg"},{"bike_id":"e5443f6e-cf86-41b8-b509-b4b3b9d31612","system_id":"levelo_inurba_marseille","lat":43.3134,"lon":5.367,"is_reserved":false,"is_disabled":false,"rental_uris":{"android":"levelo://app?vid=e5443f6e-cf86-41b8-b509-b4b3b9d31612","ios":"levelo://app?vid=e5443f6e-cf86-41b8-b509-b4b3b9d31612"},"vehicle_type_id":"4","last_reported":1729163310,"current_range_meters":27600,"station_id":"ce4bgr92rcd13ifvqc6g","pricing_plan_id":"cebpf4jnsgd1na2vs0mg"},{"bike_id":"0c0a4b97-6821-4f94-83a2-94bdb7d90891","system_id":"levelo_inurba_marseille","lat":43.33756,"lon":5.37461,"is_reserved":false,"is_disabled":false,"rental_uris":{"android":"levelo://app?vid=0c0a4b97-6821-4f94-83a2-94bdb7d90891","ios":"levelo://app?vid=0c0a4b97-6821-4f94-83a2-94bdb7d90891"},"vehicle_type_id":"4","last_reported":1729163310,"current_range_meters":27600,"station_id":"","pricing_plan_id":"cebpf4jnsgd1na2vs0mg"},{"bike_id":"c591cf4d-78d0-444f-9b4d-87b883a6d35a","system_id":"levelo_inurba_marseille","lat":43.24662,"lon":5.38165,"is_reserved":false,"is_disabled":false,"rental_uris":{"android":"levelo://app?vid=c591cf4d-78d0-444f-9b4d-87b883a6d35a","ios":"levelo://app?vid=c591cf4d-78d0-444f-9b4d-87b883a6d35a"},"vehicle_type_id":"4","last_reported":1729163310,"current_range_meters":8000,"station_id":"ce4bhih2rcd13ifvqfr0","pricing_plan_id":"cebpf4jnsgd1na2vs0mg"},{"bike_id":"1ab60f84-fe6e-4ea8-a897-abcbb20167cf","system_id":"levelo_inurba_marseille","lat":43.25589,"lon":5.38229,"is_reserved":false,"is_disabled":false,"rental_uris":{"android":"levelo://app?vid=1ab60f84-fe6e-4ea8-a897-abcbb20167cf","ios":"levelo://app?vid=1ab60f84-fe6e-4ea8-a897-abcbb20167cf"},"vehicle_type_id":"4","last_reported":1729163310,"current_range_meters":17600,"station_id":"ce4bhih2rcd13ifvqfs0","pricing_plan_id":"cebpf4jnsgd1na2vs0mg"},{"bike_id":"a2dd0f75-5c24-49fb-b075-ecd6bd90b6a4","system_id":"levelo_inurba_marseille","lat":43.31225,"lon":5.36861,"is_reserved":false,"is_disabled":false,"rental_uris":{"android":"levelo://app?vid=a2dd0f75-5c24-49fb-b075-ecd6bd90b6a4","ios":"levelo://app?vid=a2dd0f75-5c24-49fb-b075-ecd6bd90b6a4"},"vehicle_type_id":"4","last_reported":1729163310,"current_range_meters":3600,"station_id":"ce4bgl92rcd13ifvqbq0","pricing_plan_id":"cebpf4jnsgd1na2vs0mg"},{"bike_id":"04dd69a6-5ab5-4172-9068-dde51a3d00e4","system_id":"levelo_inurba_marseille","lat":43.24806,"lon":5.37453,"is_reserved":false,"is_disabled":false,"rental_uris":{"android":"levelo://app?vid=04dd69a6-5ab5-4172-9068-dde51a3d00e4","ios":"levelo://app?vid=04dd69a6-5ab5-4172-9068-dde51a3d00e4"},"vehicle_type_id":"4","last_reported":1729163310,"current_range_meters":34800,"station_id":"ce4bhgh2rcd13ifvqfb0","pricing_plan_id":"cebpf4jnsgd1na2vs0mg"},{"bike_id":"2b528934-1d07-4af7-9918-0e8653617b30","system_id":"levelo_inurba_marseille","lat":43.27496,"lon":5.42447,"is_reserved":false,"is_disabled":false,"rental_uris":{"android":"levelo://app?vid=2b528934-1d07-4af7-9918-0e8653617b30","ios":"levelo://app?vid=2b528934-1d07-4af7-9918-0e8653617b30"},"vehicle_type_id":"4","last_reported":1729163310,"current_range_meters":17600,"station_id":"ce4bhn92rcd13ifvqgrg","pricing_plan_id":"cebpf4jnsgd1na2vs0mg"},{"bike_id":"5597f5fc-4a29-4752-b038-bf4c080255d4","system_id":"levelo_inurba_marseille","lat":43.289734,"lon":5.378422,"is_reserved":false,"is_disabled":false,"rental_uris":{"android":"levelo://app?vid=5597f5fc-4a29-4752-b038-bf4c080255d4","ios":"levelo://app?vid=5597f5fc-4a29-4752-b038-bf4c080255d4"},"vehicle_type_id":"4","last_reported":1729163310,"current_range_meters":33600,"station_id":"ce4bh9p2rcd13ifvqed0","pricing_plan_id":"cebpf4jnsgd1na2vs0mg"},{"bike_id":"f36e62b7-1b45-4346-ac40-b85f2efb98eb","system_id":"levelo_inurba_marseille","lat":43.305476,"lon":5.365489,"is_reserved":false,"is_disabled":false,"rental_uris":{"android":"levelo://app?vid=f36e62b7-1b45-4346-ac40-b85f2efb98eb","ios":"levelo://app?vid=f36e62b7-1b45-4346-ac40-b85f2efb98eb"},"vehicle_type_id":"4","last_reported":1729163310,"current_range_meters":28400,"station_id":"ce4bgs12rcd13ifvqcag","pricing_plan_id":"cebpf4jnsgd1na2vs0mg"},{"bike_id":"7aa47fad-5ea0-495d-ba7f-6e348a3e698b","system_id":"levelo_inurba_marseille","lat":43.30137,"lon":5.37423,"is_reserved":false,"is_disabled":false,"rental_uris":{"android":"levelo://app?vid=7aa47fad-5ea0-495d-ba7f-6e348a3e698b","ios":"levelo://app?vid=7aa47fad-5ea0-495d-ba7f-6e348a3e698b"},"vehicle_type_id":"4","last_reported":1729163310,"current_range_meters":20800,"station_id":"ce4bgs92rcd13ifvqcc0","pricing_plan_id":"cebpf4jnsgd1na2vs0mg"},{"bike_id":"2e95d7dd-ddb7-41e1-afb4-e81fcdd0de12","system_id":"levelo_inurba_marseille","lat":43.2695,"lon":5.38624,"is_reserved":false,"is_disabled":false,"rental_uris":{"android":"levelo://app?vid=2e95d7dd-ddb7-41e1-afb4-e81fcdd0de12","ios":"levelo://app?vid=2e95d7dd-ddb7-41e1-afb4-e81fcdd0de12"},"vehicle_type_id":"4","last_reported":1729163310,"current_range_meters":30800,"station_id":"ce4bhh92rcd13ifvqfh0","pricing_plan_id":"cebpf4jnsgd1na2vs0mg"},{"bike_id":"7246ed2f-b3f0-4406-9d35-24eacee88af5","system_id":"levelo_inurba_marseille","lat":43.30532,"lon":5.36537,"is_reserved":false,"is_disabled":false,"rental_uris":{"android":"levelo://app?vid=7246ed2f-b3f0-4406-9d35-24eacee88af5","ios":"levelo://app?vid=7246ed2f-b3f0-4406-9d35-24eacee88af5"},"vehicle_type_id":"4","last_reported":1729163310,"current_range_meters":17200,"station_id":"ce4bgs12rcd13ifvqcag","pricing_plan_id":"cebpf4jnsgd1na2vs0mg"},{"bike_id":"888a2002-d578-4bac-b7e3-126c18e7b077","system_id":"levelo_inurba_marseille","lat":43.24665,"lon":5.38172,"is_reserved":false,"is_disabled":false,"rental_uris":{"android":"levelo://app?vid=888a2002-d578-4bac-b7e3-126c18e7b077","ios":"levelo://app?vid=888a2002-d578-4bac-b7e3-126c18e7b077"},"vehicle_type_id":"4","last_reported":1729163310,"current_range_meters":11600,"station_id":"ce4bhih2rcd13ifvqfr0","pricing_plan_id":"cebpf4jnsgd1na2vs0mg"},{"bike_id":"17feb2d8-d35f-489e-aede-d5402aacec3d","system_id":"levelo_inurba_marseille","lat":43.31327,"lon":5.36722,"is_reserved":false,"is_disabled":false,"rental_uris":{"android":"levelo://app?vid=17feb2d8-d35f-489e-aede-d5402aacec3d","ios":"levelo://app?vid=17feb2d8-d35f-489e-aede-d5402aacec3d"},"vehicle_type_id":"4","last_reported":1729163310,"current_range_meters":36800,"station_id":"ce4bgr92rcd13ifvqc6g","pricing_plan_id":"cebpf4jnsgd1na2vs0mg"},{"bike_id":"cb6afe06-2ff2-4e8b-80d8-520ee7d83486","system_id":"levelo_inurba_marseille","lat":43.3056,"lon":5.36543,"is_reserved":false,"is_disabled":false,"rental_uris":{"android":"levelo://app?vid=cb6afe06-2ff2-4e8b-80d8-520ee7d83486","ios":"levelo://app?vid=cb6afe06-2ff2-4e8b-80d8-520ee7d83486"},"vehicle_type_id":"4","last_reported":1729163310,"current_range_meters":38800,"station_id":"ce4bgs12rcd13ifvqcag","pricing_plan_id":"cebpf4jnsgd1na2vs0mg"},