{"last_updated":1700996699,"ttl":30,"version":"2.2","data":{"bikes":[{"bike_id":"dfb8ed97-e49e-42cb-976c-b7fce0008627","system_id":"levelo_inurba_marseille","lat":43.309076,"lon":5.368465,"is_reserved":false,"is_disabled":false,"rental_uris":{"android":"levelo://app?vid=dfb8ed97-e49e-42cb-976c-b7fce0008627","ios":"levelo://app?vid=dfb8ed97-e49e-42cb-976c-b7fce0008627"},"vehicle_type_id":"4","last_reported":1700996699,"current_range_meters":26800,"station_id":"ce4bgn92rcd13ifvqbvg","pricing_plan_id":"free"},{"bike_id":"3463c553-cc48-4b15-8e04-faeaaff12315","system_id":"levelo_inurba_marseille","lat":43.305712,"lon":5.365641,"is_reserved":false,"is_disabled":false,"rental_uris":{"android":"levelo://app?vid=3463c553-cc48-4b15-8e04-faeaaff12315","ios":"levelo://app?vid=3463c553-cc48-4b15-8e04-faeaaff12315"},"vehicle_type_id":"4","last_reported":1700996699,"current_range_meters":22400,"station_id":"ce4bgs12rcd13ifvqcag","pricing_plan_id":"free"},{"bike_id":"658d29b0-08c1-4e20-a094-40c9ebef41ff","system_id":"levelo_inurba_marseille","lat":43.305712,"lon":5.365641,"is_reserved":false,"is_disabled":false,"rental_uris":{"android":"levelo://app?vid=658d29b0-08c1-4e20-a094-40c9ebef41ff","ios":"levelo://app?vid=658d29b0-08c1-4e20-a094-40c9ebef41ff"},"vehicle_type_id":"4","last_reported":1700996699,"current_range_meters":29200,"station_id":"ce4bgs12rcd13ifvqcag","pricing_plan_id":"free"},{"bike_id":"bdc51e8a-d4d9-414d-83ee-10c3742da7a8","system_id":"levelo_inurba_marseille","lat":43.305712,"lon":5.365641,"is_reserved":false,"is_disabled":false,"rental_uris":{"android":"levelo://app?vid=bdc51e8a-d4d9-414d-83ee-10c3742da7a8","ios":"levelo://app?vid=bdc51e8a-d4d9-414d-83ee-10c3742da7a8"},"vehicle_type_id":"4","last_reported":1700996699,"current_range_meters":28000,"station_id":"ce4bgs12rcd13ifvqcag","pricing_plan_id":"free"},{"bike_id":"573a870a-b6c4-429d-8587-8103772b84bc","system_id":"levelo_inurba_marseille","lat":43.308157,"lon":5.376636,"is_reserved":false,"is_disabled":false,"rental_uris":{"android":"levelo://app?vid=573a870a-b6c4-429d-8587-8103772b84bc","ios":"levelo://app?vid=573a870a-b6c4-429d-8587-8103772b84bc"},"vehicle_type_id":"4","last_reported":1700996699,"current_range_meters":1200,"station_id":"ce4bgv92rcd13ifvqcq0","pricing_plan_id":"free"},{"bike_id":"83388d94-ee96-4b23-8db8-a2dbcf944365","system_id":"levelo_inurba_marseille","lat":43.307945,"lon":5.376487,"is_reserved":false,"is_disabled":false,"rental_uris":{"android":"levelo://app?vid=83388d94-ee96-4b23-8db8-a2dbcf944365","ios":"levelo://app?vid=83388d94-ee96-4b23-8db8-a2dbcf944365"},"vehicle_type_id":"4","last_reported":1700996699,"current_range_meters":31600,"station_id":"ce4bgv92rcd13ifvqcq0","pricing_plan_id":"free"},{"bike_id":"f427a2c3-6e4a-446b-ae2f-9be8aa7f4122","system_id":"levelo_inurba_marseille","lat":43.31719,"lon":5.376813,"is_reserved":false,"is_disabled":false,"rental_uris":{"android":"levelo://app?vid=f427a2c3-6e4a-446b-ae2f-9be8aa7f4122","ios":"levelo://app?vid=f427a2c3-6e4a-446b-ae2f-9be8aa7f4122"},"vehicle_type_id":"4","last_reported":1700996699,"current_range_meters":21200,"station_id":"ce4bgth2rcd13ifvqch0","pricing_plan_id":"free"},{"bike_id":"b898b018-f57d-4901-bab2-fdd15d391de9","system_id":"levelo_inurba_marseille","lat":43.317168,"lon":5.376883,"is_reserved":false,"is_disabled":false,"rental_uris":{"android":"levelo://app?vid=b898b018-f57d-4901-bab2-fdd15d391de9","ios":"levelo://app?vid=b898b018-f57d-4901-bab2-fdd15d391de9"},"vehicle_type_id":"4","last_reported":1700996699,"current_range_meters":23600,"station_id":"ce4bgth2rcd13ifvqch0","pricing_plan_id":"free"},{"bike_id":"844ba463-924b-4262-9802-236136549dc7","system_id":"levelo_inurba_marseille","lat":43.307945,"lon":5.376487,"is_reserved":false,"is_disabled":false,"rental_uris":{"android":"levelo://app?vid=844ba463-924b-4262-9802-236136549dc7","ios":"levelo://app?vid=844ba463-924b-4262-9802-236136549dc7"},"vehicle_type_id":"4","last_reported":1700996699,"current_range_meters":22800,"station_id":"ce4bgv92rcd13ifvqcq0","pricing_plan_id":"free"},{"bike_id":"05198bee-9c82-4cac-abf8-c371dfd0f1c0","system_id":"levelo_inurba_marseille","lat":43.303046,"lon":5.368981,"is_reserved":false,"is_disabled":false,"rental_uris":{"android":"levelo://app?vid=05198bee-9c82-4cac-abf8-c371dfd0f1c0","ios":"levelo://app?vid=05198bee-9c82-4cac-abf8-c371dfd0f1c0"},"vehicle_type_id":"4","last_reported":1700996699,"current_range_meters":26400,"station_id":"ce4bgqh2rcd13ifvqc5g","pricing_plan_id":"free"},{"bike_id":"37b33645-89d7-4706-ad67-8561aeaa3082","system_id":"levelo_inurba_marseille","lat":43.313611,"lon":5.385012,"is_reserved":false,"is_disabled":false,"rental_uris":{"android":"levelo://app?vid=37b33645-89d7-4706-ad67-8561aeaa3082","ios":"levelo://app?vid=37b33645-89d7-4706-ad67-8561aeaa3082"},"vehicle_type_id":"4","last_reported":1700996699,"current_range_meters":0,"station_id":"ce4bgt92rcd13ifvqcf0","pricing_plan_id":"free"},{"bike_id":"46c925e7-2ce5-43fb-8d75-4e1c19811967","system_id":"levelo_inurba_marseille","lat":43.2993,"lon":5.36548,"is_reserved":false,"is_disabled":false,"rental_uris":{"android":"levelo://app?vid=46c925e7-2ce5-43fb-8d75-4e1c19811967","ios":"levelo://app?vid=46c925e7-2ce5-43fb-8d75-4e1c19811967"},"vehicle_type_id":"4","last_reported":1700996699,"current_range_meters":18800,"station_id":"ce4bgm92rcd13ifvqbr0","pricing_plan_id":"free"},{"bike_id":"b997364e-06ab-4cb6-8da4-183bafd5816f","system_id":"levelo_inurba_marseille","lat":43.299169,"lon":5.365593,"is_reserved":false,"is_disabled":false,"rental_uris":{"android":"levelo://app?vid=b997364e-06ab-4cb6-8da4-183bafd5816f","ios":"levelo://app?vid=b997364e-06ab-4cb6-8da4-183bafd5816f"},"vehicle_type_id":"4","last_reported":1700996699,"current_range_meters":19600,"station_id":"ce4bgm92rcd13ifvqbr0","pricing_plan_id":"free"},{"bike_id":"3c0f0e03-19e8-4b31-9bda-a925ec1d2126","system_id":"levelo_inurba_marseille","lat":43.298433,"lon":5.362774,"is_reserved":false,"is_disabled":false,"rental_uris":{"android":"levelo://app?vid=3c0f0e03-19e8-4b31-9bda-a925ec1d2126","ios":"levelo://app?vid=3c0f0e03-19e8-4b31-9bda-a925ec1d2126"},"vehicle_type_id":"4","last_reported":1700996699,"current_range_meters":1200,"station_id":"ce4bgpp2rcd13ifvqc3g","pricing_plan_id":"free"},{"bike_id":"4d1176d8-d007-45e5-b023-1ed1f1fa9ddc","system_id":"levelo_inurba_marseille","lat":43.29851,"lon":5.36288,"is_reserved":false,"is_disabled":false,"rental_uris":{"android":"levelo://app?vid=4d1176d8-d007-45e5-b023-1ed1f1fa9ddc","ios":"levelo://app?vid=4d1176d8-d007-45e5-b023-1ed1f1fa9ddc"},"vehicle_type_id":"4","last_reported":1700996699,"current_range_meters":24000,"station_id":"ce4bgpp2rcd13ifvqc3g","pricing_plan_id":"free"},{"bike_id":"e7f47ecb-a43c-4a16-9ad6-cc6de4f6da1a","system_id":"levelo_inurba_marseille","lat":43.298433,"lon":5.362774,"is_reserved":false,"is_disabled":false,"rental_uris":{"android":"levelo://app?vid=e7f47ecb-a43c-4a16-9ad6-cc6de4f6da1a","ios":"levelo://app?vid=e7f47ecb-a43c-4a16-9ad6-cc6de4f6da1a"},"vehicle_type_id":"4","last_reported":1700996699,"current_range_meters":17200,"station_id":"ce4bgpp2rcd13ifvqc3g","pricing_plan_id":"free"},{"bike_id":"828e663a-c34d-45d1-849c-ab680196da69","system_id":"levelo_inurba_marseille","lat":43.298433,"lon":5.362774,"is_reserved":false,"is_disabled":false,"rental_uris":{"android":"levelo://app?vid=828e663a-c34d-45d1-849c-ab680196da69","ios":"levelo://app?vid=828e663a-c34d-45d1-849c-ab680196da69"},"vehicle_type_id":"4","last_reported":1700996699,"current_range_meters":30000,"station_id":"ce4bgpp2rcd13ifvqc3g","pricing_plan_id":"free"},{"bike_id":"4084e26a-4a5b-4c30-a290-34faaca8cb02","system_id":"levelo_inurba_marseille","lat":43.298433,"lon":5.362774,"is_reserved":false,"is_disabled":false,"rental_uris":{"android":"levelo://app?vid=4084e26a-4a5b-4c30-a290-34faaca8cb02","ios":"levelo://app?vid=4084e26a-4a5b-4c30-a290-34faaca8cb02"},"vehicle_type_id":"4","last_reported":1700996699,"current_range_meters":30800,"station_id":"ce4bgpp2rcd13ifvqc3g","pricing_plan_id":"free"},{"bike_id":"148d2f75-f777-4f2c-bae0-fa6e972ee9d8","system_id":"levelo_inurba_marseille","lat":43.29848,"lon":5.3627,"is_reserved":false,"is_disabled":false,"rental_uris":{"android":"levelo://app?vid=148d2f75-f777-4f2c-bae0-fa6e972ee9d8","ios":"levelo://app?vid=148d2f75-f777-4f2c-bae0-fa6e972ee9d8"},"vehicle_type_id":"4","last_reported":1700996699,"current_range_meters":23600,"station_id":"ce4bgpp2rcd13ifvqc3g","pricing_plan_id":"free"},{"bike_id":"8030f81c-d518-4d48-bae0-5e65620b880d","system_id":"levelo_inurba_marseille","lat":43.29846,"lon":5.36274,"is_reserved":false,"is_disabled":false,"rental_uris":{"android":"levelo://app?vid=8030f81c-d518-4d48-bae0-5e65620b880d","ios":"levelo://app?vid=8030f81c-d518-4d48-bae0-5e65620b880d"},"vehicle_type_id":"4","last_reported":1700996699,"current_range_meters":28000,"station_id":"ce4bgpp2rcd13ifvqc3g","pricing_plan_id":"free"},{"bike_id":"8767343d-8cea-4c53-932d-334baf310059","system_id":"levelo_inurba_marseille","lat":43.297774,"lon":5.370875,"is_reserved":false,"is_disabled":false,"rental_uris":{"android":"levelo://app?vid=8767343d-8cea-4c53-932d-334baf310059","ios":"levelo://app?vid=8767343d-8cea-4c53-932d-334baf310059"},"vehicle_type_id":"4","last_reported":1700996699,"current_range_meters":28800,"station_id":"ce4bgop2rcd13ifvqc1g","pricing_plan_id":"free"},{"bike_id":"7bda58e2-3c43-4d9f-a9a1-13d041db0594","system_id":"levelo_inurba_marseille","lat":43.29783,"lon":5.37106,"is_reserved":false,"is_disabled":false,"rental_uris":{"android":"levelo://app?vid=7bda58e2-3c43-4d9f-a9a1-13d041db0594","ios":"levelo://app?vid=7bda58e2-3c43-4d9f-a9a1-13d041db0594"},"vehicle_type_id":"4","last_reported":1700996699,"current_range_meters":8400,"station_id":"ce4bgop2rcd13ifvqc1g","pricing_plan_id":"free"},{"bike_id":"ca663ccc-b5f4-4f4c-8f28-b379a053147d","system_id":"levelo_inurba_marseille","lat":43.297774,"lon":5.370875,"is_reserved":false,"is_disabled":false,"rental_uris":{"android":"levelo://app?vid=ca663ccc-b5f4-4f4c-8f28-b379a053147d","ios":"levelo://app?vid=ca663ccc-b5f4-4f4c-8f28-b379a053147d"},"vehicle_type_id":"4","last_reported":1700996699,"current_range_meters":0,"station_id":"ce4bgop2rcd13ifvqc1g","pricing_plan_id":"free"},{"bike_id":"40e05c8e-565b-473e-a62b-f2241df0fde1","system_id":"levelo_inurba_marseille","lat":43.297774,"lon":5.370875,"is_reserved":false,"is_disabled":false,"rental_uris":{"android":"levelo://app?vid=40e05c8e-565b-473e-a62b-f2241df0fde1","ios":"levelo://app?vid=40e05c8e-565b-473e-a62b-f2241df0fde1"},"vehicle_type_id":"4","last_reported":1700996699,"current_range_meters":16000,"station_id":"ce4bgop2rcd13ifvqc1g","pricing_plan_id":"free"},{"bike_id":"abf80f4a-3002-4c8a-a2d4-e93119f0ecea","system_id":"levelo_inurba_marseille","lat":43.297163,"lon":5.365866,"is_reserved":false,"is_disabled":false,"rental_uris":{"android":"levelo://app?vid=abf80f4a-3002-4c8a-a2d4-e93119f0ecea","ios":"levelo://app?vid=abf80f4a-3002-4c8a-a2d4-e93119f0ecea"},"vehicle_type_id":"4","last_reported":1700996699,"current_range_meters":28800,"station_id":"ce4bgn12rcd13ifvqbt0","pricing_plan_id":"free"},{"bike_id":"f3ac8bf9-f7c3-4b68-b307-31eec7a6c19b","system_id":"levelo_inurba_marseille","lat":43.297163,"lon":5.365866,"is_reserved":false,"is_disabled":false,"rental_uris":{"android":"levelo://app?vid=f3ac8bf9-f7c3-4b68-b307-31eec7a6c19b","ios":"levelo://app?vid=f3ac8bf9-f7c3-4b68-b307-31eec7a6c19b"},"vehicle_type_id":"4","last_reported":1700996699,"current_range_meters":31600,"station_id":"ce4bgn12rcd13ifvqbt0","pricing_plan_id":"free"},{"bike_id":"2b2a085b-0ba0-4e47-b8c0-ed9727b31028","system_id":"levelo_inurba_marseille","lat":43.2968,"lon":5.37291,"is_reserved":false,"is_disabled":false,"rental_uris":{"android":"levelo://app?vid=2b2a085b-0ba0-4e47-b8c0-ed9727b31028","ios":"levelo://app?vid=2b2a085b-0ba0-4e47-b8c0-ed9727b31028"},"vehicle_type_id":"4","last_reported":1700996699,"current_range_meters":26400,"station_id":"ce4bgk12rcd13ifvqbj0","pricing_plan_id":"free"},{"bike_id":"663d21e8-2e74-4084-92c9-81d38f995fd9","system_id":"levelo_inurba_marseille","lat":43.29573,"lon":5.367355,"is_reserved":false,"is_disabled":false,"rental_uris":{"android":"levelo://app?vid=663d21e8-2e74-4084-92c9-81d38f995fd9","ios":"levelo://app?vid=663d21e8-2e74-4084-92c9-81d38f995fd9"},"vehicle_type_id":"4","last_reported":1700996699,"current_range_meters":31600,"station_id":"ce4bgph2rcd13ifvqc2g","pricing_plan_id":"free"},{"bike_id":"74a6eadd-de0a-4852-9bfa-c9dd403c0892","system_id":"levelo_inurba_marseille","lat":43.29573,"lon":5.367355,"is_reserved":false,"is_disabled":false,"rental_uris":{"android":"levelo://app?vid=74a6eadd-de0a-4852-9bfa-c9dd403c0892","ios":"levelo://app?vid=74a6eadd-de0a-4852-9bfa-c9dd403c0892"},"vehicle_type_id":"4","last_reported":1700996699,"current_range_meters":30400,"station_id":"ce4bgph2rcd13ifvqc2g","pricing_plan_id":"free"},{"bike_id":"8db9fa52-a84f-4b79-873d-a9ae31dde132","system_id":"levelo_inurba_marseille","lat":43.29573,"lon":5.367355,"is_reserved":false,"is_disabled":false,"rental_uris":{"android":"levelo://app?vid=8db9fa52-a84f-4b79-873d-a9ae31dde132","ios":"levelo://app?vid=8db9fa52-a84f-4b79-873d-a9ae31dde132"},"vehicle_type_id":"4","last_reported":1700996699,"current_range_meters":26800,"station_id":"ce4bgph2rcd13ifvqc2g","pricing_plan_id":"free"},{"bike_id":"58034286-d764-400c-92dc-17f57034801c","system_id":"levelo_inurba_marseille","lat":43.29573,"lon":5.367355,"is_reserved":false,"is_disabled":false,"rental_uris":{"android":"levelo://app?vid=58034286-d764-400c-92dc-17f57034801c","ios":"levelo://app?vid=58034286-d764-400c-92dc-17f57034801c"},"vehicle_type_id":"4","last_reported":1700996699,"current_range_meters":31600,"station_id":"ce4bgph2rcd13ifvqc2g","pricing_plan_id":"free"},{"bike_id":"2ed359b4-f75c-48f2-a0c8-62dcf4c5ade5","system_id":"levelo_inurba_marseille","lat":43.29573,"lon":5.367355,"is_reserved":false,"is_disabled":false,"rental_uris":{"android":"levelo://app?vid=2ed359b4-f75c-48f2-a0c8-62dcf4c5ade5","ios":"levelo://app?vid=2ed359b4-f75c-48f2-a0c8-62dcf4c5ade5"},"vehicle_type_id":"4","last_reported":1700996699,"current_range_meters":29600,"station_id":"ce4bgph2rcd13ifvqc2g","pricing_plan_id":"free"},{"bike_id":"b1e22c6c-5113-4ef3-a28e-b67cbfef7a27","system_id":"levelo_inurba_marseille","lat":43.29573,"lon":5.367355,"is_reserved":false,"is_disabled":false,"rental_uris":{"android":"levelo://app?vid=b1e22c6c-5113-4ef3-a28e-b67cbfef7a27","ios":"levelo://app?vid=b1e22c6c-5113-4ef3-a28e-b67cbfef7a27"},"vehicle_type_id":"4","last_reported":1700996699,"current_range_meters":23200,"station_id":"ce4bgph2rcd13ifvqc2g","pricing_plan_id":"free"},{"bike_id":"e0ae1ded-102e-4538-9b67-dc8c5608e8d8","system_id":"levelo_inurba_marseille","lat":43.29573,"lon":5.367355,"is_reserved":false,"is_disabled":false,"rental_uris":{"android":"levelo://app?vid=e0ae1ded-102e-4538-9b67-dc8c5608e8d8","ios":"levelo://app?vid=e0ae1ded-102e-4538-9b67-dc8c5608e8d8"},"vehicle_type_id":"4","last_reported":1700996699,"current_range_meters":23200,"station_id":"ce4bgph2rcd13ifvqc2g","pricing_plan_id":"free"},{"bike_id":"b7eee778-6f81-4e4b-85e4-c951dca06af4","system_id":"levelo_inurba_marseille","lat":43.296935,"lon":5.376544,"is_reserved":false,"is_disabled":false,"rental_uris":{"android":"levelo://app?vid=b7eee778-6f81-4e4b-85e4-c951dca06af4","ios":"levelo://app?vid=b7eee778-6f81-4e4b-85e4-c951dca06af4"},"vehicle_type_id":"4","last_reported":1700996699,"current_range_meters":30400,"station_id":"ce4bgkh2rcd13ifvqbl0","pricing_plan_id":"free"},{"bike_id":"81dd71ab-3525-4059-810d-9ada9f9a118e","system_id":"levelo_inurba_marseille","lat":43.299028,"lon":5.381509,"is_reserved":false,"is_disabled":false,"rental_uris":{"android":"levelo://app?vid=81dd71ab-3525-4059-810d-9ada9f9a118e","ios":"levelo://app?vid=81dd71ab-3525-4059-810d-9ada9f9a118e"},"vehicle_type_id":"4","last_reported":1700996699,"current_range_meters":28000,"station_id":"ce4bgj12rcd13ifvqbc0","pricing_plan_id":"free"},{"bike_id":"88f734fb-94fa-4616-9d4b-c55a7ef218b8","system_id":"levelo_inurba_marseille","lat":43.298037,"lon":5.381066,"is_reserved":false,"is_disabled":false,"rental_uris":{"android":"levelo://app?vid=88f734fb-94fa-4616-9d4b-c55a7ef218b8","ios":"levelo://app?vid=88f734fb-94fa-4616-9d4b-c55a7ef218b8"},"vehicle_type_id":"4","last_reported":1700996699,"current_range_meters":9200,"station_id":"ce4bgip2rcd13ifvqbb0","pricing_plan_id":"free"},{"bike_id":"e35ac614-4ea2-487d-a413-2841355a7f14","system_id":"levelo_inurba_marseille","lat":43.295748,"lon":5.37522,"is_reserved":false,"is_disabled":false,"rental_uris":{"android":"levelo://app?vid=e35ac614-4ea2-487d-a413-2841355a7f14","ios":"levelo://app?vid=e35ac614-4ea2-487d-a413-2841355a7f14"},"vehicle_type_id":"4","last_reported":1700996699,"current_range_meters":22800,"station_id":"ce4bgh92rcd13ifvqb50","pricing_plan_id":"free"},{"bike_id":"90f2108f-36ba-4dac-a826-290bd27baf0c","system_id":"levelo_inurba_marseille","lat":43.30445,"lon":5.38892,"is_reserved":false,"is_disabled":false,"rental_uris":{"android":"levelo://app?vid=90f2108f-36ba-4dac-a826-290bd27baf0c","ios":"levelo://app?vid=90f2108f-36ba-4dac-a826-290bd27baf0c"},"vehicle_type_id":"4","last_reported":1700996699,"current_range_meters":28400,"station_id":"ce4bgk12rcd13ifvqbi0","pricing_plan_id":"free"},{"bike_id":"65320ca7-8e90-4745-a256-99f70542f1f9","system_id":"levelo_inurba_marseille","lat":43.298037,"lon":5.381066,"is_reserved":false,"is_disabled":false,"rental_uris":{"android":"levelo://app?vid=65320ca7-8e90-4745-a256-99f70542f1f9","ios":"levelo://app?vid=65320ca7-8e90-4745-a256-99f70542f1f9"},"vehicle_type_id":"4","last_reported":1700996699,"current_range_meters":30000,"station_id":"ce4bgip2rcd13ifvqbb0","pricing_plan_id":"free"},{"bike_id":"fce7c205-7f17-45f3-b914-9eee3290cb74","system_id":"levelo_inurba_marseille","lat":43.295748,"lon":5.37522,"is_reserved":false,"is_disabled":false,"rental_uris":{"android":"levelo://app?vid=fce7c205-7f17-45f3-b914-9eee3290cb74","ios":"levelo://app?vid=fce7c205-7f17-45f3-b914-9eee3290cb74"},"vehicle_type_id":"4","last_reported":1700996699,"current_range_meters":17200,"station_id":"ce4bgh92rcd13ifvqb50","pricing_plan_id":"free"},{"bike_id":"b881f724-994e-4373-913a-f65f01a34a7d","system_id":"levelo_inurba_marseille","lat":43.295748,"lon":5.37522,"is_reserved":false,"is_disabled":false,"rental_uris":{"android":"levelo://app?vid=b881f724-994e-4373-913a-f65f01a34a7d","ios":"levelo://app?vid=b881f724-994e-4373-913a-f65f01a34a7d"},"vehicle_type_id":"4","last_reported":1700996699,"current_range_meters":14400,"station_id":"ce4bgh92rcd13ifvqb50","pricing_plan_id":"free"},{"bike_id":"5c4a7bca-a8a5-408b-9e60-e696c16b7830","system_id":"levelo_inurba_marseille","lat":43.296263,"lon":5.377094,"is_reserved":false,"is_disabled":false,"rental_uris":{"android":"levelo://app?vid=5c4a7bca-a8a5-408b-9e60-e696c16b7830","ios":"levelo://app?vid=5c4a7bca-a8a5-408b-9e60-e696c16b7830"},"vehicle_type_id":"4","last_reported":1700996699,"current_range_meters":12000,"station_id":"ce4bgi92rcd13ifvqb90","pricing_plan_id":"free"},{"bike_id":"ac5524ca-f15e-45ee-8eaa-6b569de50d80","system_id":"levelo_inurba_marseille","lat":43.296263,"lon":5.377094,"is_reserved":false,"is_disabled":false,"rental_uris":{"android":"levelo://app?vid=ac5524ca-f15e-45ee-8eaa-6b569de50d80","ios":"levelo://app?vid=ac5524ca-f15e-45ee-8eaa-6b569de50d80"},"vehicle_type_id":"4","last_reported":1700996699,"current_range_meters":9600,"station_id":"ce4bgi92rcd13ifvqb90","pricing_plan_id":"free"},{"bike_id":"54564345-3d33-4bd1-a7c0-f3e7945db1d7","system_id":"levelo_inurba_marseille","lat":43.296263,"lon":5.377094,"is_reserved":false,"is_disabled":false,"rental_uris":{"android":"levelo://app?vid=54564345-3d33-4bd1-a7c0-f3e7945db1d7","ios":"levelo://app?vid=54564345-3d33-4bd1-a7c0-f3e7945db1d7"},"vehicle_type_id":"4","last_reported":1700996699,"current_range_meters":20800,"station_id":"ce4bgi92rcd13ifvqb90","pricing_plan_id":"free"},{"bike_id":"188d3606-5c15-44f0-bb46-e3b3240ba13c","system_id":"levelo_inurba_marseille","lat":43.296263,"lon":5.377094,"is_reserved":false,"is_disabled":false,"rental_uris":{"android":"levelo://app?vid=188d3606-5c15-44f0-bb46-e3b3240ba13c","ios":"levelo://app?vid=188d3606-5c15-44f0-bb46-e3b3240ba13c"},"vehicle_type_id":"4","last_reported":1700996699,"current_range_meters":0,"station_id":"ce4bgi92rcd13ifvqb90","pricing_plan_id":"free"},{"bike_id":"b6302a52-60d4-4855-b89b-3a6a22a9f12b","system_id":"levelo_inurba_marseille","lat":43.30432,"lon":5.38903,"is_reserved":false,"is_disabled":false,"rental_uris":{"android":"levelo://app?vid=b6302a52-60d4-4855-b89b-3a6a22a9f12b","ios":"levelo://app?vid=b6302a52-60d4-4855-b89b-3a6a22a9f12b"},"vehicle_type_id":"4","last_reported":1700996699,"current_range_meters":30000,"station_id":"ce4bgk12rcd13ifvqbi0","pricing_plan_id":"free"},{"bike_id":"92efe0dc-32da-4d67-973b-b60bae970ca4","system_id":"levelo_inurba_marseille","lat":43.295748,"lon":5.37522,"is_reserved":false,"is_disabled":false,"rental_uris":{"android":"levelo://app?vid=92efe0dc-32da-4d67-973b-b60bae970ca4","ios":"levelo://app?vid=92efe0dc-32da-4d67-973b-b60bae970ca4"},"vehicle_type_id":"4","last_reported":1700996699,"current_range_meters":26400,"station_id":"ce4bgh92rcd13ifvqb50","pricing_plan_id":"free"},{"bike_id":"6b621983-5e9e-42f7-990d-ad5a093820d2","system_id":"levelo_inurba_marseille","lat":43.293801,"lon":5.363066,"is_reserved":false,"is_disabled":false,"rental_uris":{"android":"levelo://app?vid=6b621983-5e9e-42f7-990d-ad5a093820d2","ios":"levelo://app?vid=6b621983-5e9e-42f7-990d-ad5a093820d2"},"vehicle_type_id":"4","last_reported":1700996699,"current_range_meters":0,"station_id":"","pricing_plan_id":"free"},{"bike_id":"24052701-90b7-4fec-8ece-9b098a6de4f5","system_id":"levelo_inurba_marseille","lat":43.3237,"lon":5.38887,"is_reserved":false,"is_disabled":false,"rental_uris":{"android":"levelo://app?vid=24052701-90b7-4fec-8ece-9b098a6de4f5","ios":"levelo://app?vid=24052701-90b7-4fec-8ece-9b098a6de4f5"},"vehicle_type_id":"4","last_reported":1700996699,"current_range_meters":25600,"station_id":"ce4bhqp2rcd13ifvqhog","pricing_plan_id":"free"},{"bike_id":"7f37c719-fc45-4562-8be3-6a7c4848e985","system_id":"levelo_inurba_marseille","lat":43.286961,"lon":5.373785,"is_reserved":false,"is_disabled":false,"rental_uris":{"android":"levelo://app?vid=7f37c719-fc45-4562-8be3-6a7c4848e985","ios":"levelo://app?vid=7f37c719-fc45-4562-8be3-6a7c4848e985"},"vehicle_type_id":"4","last_reported":1700996699,"current_range_meters":31200,"station_id":"ce4bh3p2rcd13ifvqdq0","pricing_plan_id":"free"},{"bike_id":"15815a4f-9969-48e8-b857-99c234ed4415","system_id":"levelo_inurba_marseille","lat":43.293024,"lon":5.374642,"is_reserved":false,"is_disabled":false,"rental_uris":{"android":"levelo://app?vid=15815a4f-9969-48e8-b857-99c234ed4415","ios":"levelo://app?vid=15815a4f-9969-48e8-b857-99c234ed4415"},"vehicle_type_id":"4","last_reported":1700996699,"current_range_meters":24400,"station_id":"ce4bgi12rcd13ifvqb70","pricing_plan_id":"free"},{"bike_id":"1545eb24-01c8-40db-a9f1-b8401c33f226","system_id":"levelo_inurba_marseille","lat":43.293009,"lon":5.374584,"is_reserved":false,"is_disabled":false,"rental_uris":{"android":"levelo://app?vid=1545eb24-01c8-40db-a9f1-b8401c33f226","ios":"levelo://app?vid=1545eb24-01c8-40db-a9f1-b8401c33f226"},"vehicle_type_id":"4","last_reported":1700996699,"current_range_meters":26000,"station_id":"ce4bgi12rcd13ifvqb70","pricing_plan_id":"free"},{"bike_id":"8b3fc126-0011-43e4-82ea-d6b636609b08","system_id":"levelo_inurba_marseille","lat":43.293009,"lon":5.374584,"is_reserved":false,"is_disabled":false,"rental_uris":{"android":"levelo://app?vid=8b3fc126-0011-43e4-82ea-d6b636609b08","ios":"levelo://app?vid=8b3fc126-0011-43e4-82ea-d6b636609b08"},"vehicle_type_id":"4","last_reported":1700996699,"current_range_meters":16400,"station_id":"ce4bgi12rcd13ifvqb70","pricing_plan_id":"free"},{"bike_id":"0628bbb6-f707-4fc1-8568-15fdccf2defa","system_id":"levelo_inurba_marseille","lat":43.293009,"lon":5.374584,"is_reserved":false,"is_disabled":false,"rental_uris":{"android":"levelo://app?vid=0628bbb6-f707-4fc1-8568-15fdccf2defa","ios":"levelo://app?vid=0628bbb6-f707-4fc1-8568-15fdccf2defa"},"vehicle_type_id":"4","last_reported":1700996699,"current_range_meters":17600,"station_id":"ce4bgi12rcd13ifvqb70","pricing_plan_id":"free"},{"bike_id":"2fe8afe8-5a8c-42a5-9efc-23bee88d09a4","system_id":"levelo_inurba_marseille","lat":43.293009,"lon":5.374584,"is_reserved":false,"is_disabled":false,"rental_uris":{"android":"levelo://app?vid=2fe8afe8-5a8c-42a5-9efc-23bee88d09a4","ios":"levelo://app?vid=2fe8afe8-5a8c-42a5-9efc-23bee88d09a4"},"vehicle_type_id":"4","last_reported":1700996699,"current_range_meters":11600,"station_id":"ce4bgi12rcd13ifvqb70","pricing_plan_id":"free"},{"bike_id":"c427fccc-b5f1-429c-b5d5-04c707de0873","system_id":"levelo_inurba_marseille","lat":43.293009,"lon":5.374584,"is_reserved":false,"is_disabled":false,"rental_uris":{"android":"levelo://app?vid=c427fccc-b5f1-429c-b5d5-04c707de0873","ios":"levelo://app?vid=c427fccc-b5f1-429c-b5d5-04c707de0873"},"vehicle_type_id":"4","last_reported":1700996699,"current_range_meters":6400,"station_id":"ce4bgi12rcd13ifvqb70","pricing_plan_id":"free"},{"bike_id":"6a8d0456-b040-4b85-bbdc-5ce0ee47965a","system_id":"levelo_inurba_marseille","lat":43.293009,"lon":5.374584,"is_reserved":false,"is_disabled":false,"rental_uris":{"android":"levelo://app?vid=6a8d0456-b040-4b85-bbdc-5ce0ee47965a","ios":"levelo://app?vid=6a8d0456-b040-4b85-bbdc-5ce0ee47965a"},"vehicle_type_id":"4","last_reported":1700996699,"current_range_meters":7600,"station_id":"ce4bgi12rcd13ifvqb70","pricing_plan_id":"free"},{"bike_id":"777a88e1-b4ac-44e5-84df-6d1765f9b8d6","system_id":"levelo_inurba_marseille","lat":43.2936,"lon":5.37835,"is_reserved":false,"is_disabled":false,"rental_uris":{"android":"levelo://app?vid=777a88e1-b4ac-44e5-84df-6d1765f9b8d6","ios":"levelo://app?vid=777a88e1-b4ac-44e5-84df-6d1765f9b8d6"},"vehicle_type_id":"4","last_reported":1700996699,"current_range_meters":5200,"station_id":"ce4bgjh2rcd13ifvqbf0","pricing_plan_id":"free"},{"bike_id":"e100b2da-acd7-442a-996c-32ec66579328","system_id":"levelo_inurba_marseille","lat":43.29217,"lon":5.36041,"is_reserved":false,"is_disabled":false,"rental_uris":{"android":"levelo://app?vid=e100b2da-acd7-442a-996c-32ec66579328","ios":"levelo://app?vid=e100b2da-acd7-442a-996c-32ec66579328"},"vehicle_type_id":"4","last_reported":1700996699,"current_range_meters":30400,"station_id":"ce4bhbh2rcd13ifvqeqg","pricing_plan_id":"free"},{"bike_id":"d26050c3-cb6b-41a1-9663-bf65ee2ba8a8","system_id":"levelo_inurba_marseille","lat":43.309038,"lon":5.396546,"is_reserved":false,"is_disabled":false,"rental_uris":{"android":"levelo://app?vid=d26050c3-cb6b-41a1-9663-bf65ee2ba8a8","ios":"levelo://app?vid=d26050c3-cb6b-41a1-9663-bf65ee2ba8a8"},"vehicle_type_id":"4","last_reported":1700996699,"current_range_meters":22800,"station_id":"ce4bh012rcd13ifvqcv0","pricing_plan_id":"free"},{"bike_id":"384aa54a-1d92-4a96-852f-32e25a30f407","system_id":"levelo_inurba_marseille","lat":43.313291,"lon":5.396838,"is_reserved":false,"is_disabled":false,"rental_uris":{"android":"levelo://app?vid=384aa54a-1d92-4a96-852f-32e25a30f407","ios":"levelo://app?vid=384aa54a-1d92-4a96-852f-32e25a30f407"},"vehicle_type_id":"4","last_reported":1700996699,"current_range_meters":18400,"station_id":"ce4bgvp2rcd13ifvqcu0","pricing_plan_id":"free"},{"bike_id":"d004a540-b451-4f1f-a4b2-16e4213cc9bc","system_id":"levelo_inurba_marseille","lat":43.29187,"lon":5.35796,"is_reserved":false,"is_disabled":false,"rental_uris":{"android":"levelo://app?vid=d004a540-b451-4f1f-a4b2-16e4213cc9bc","ios":"levelo://app?vid=d004a540-b451-4f1f-a4b2-16e4213cc9bc"},"vehicle_type_id":"4","last_reported":1700996699,"current_range_meters":28800,"station_id":"ce4bhb12rcd13ifvqel0","pricing_plan_id":"free"},{"bike_id":"30017704-14bf-4e09-8c72-c9af6c814e5a","system_id":"levelo_inurba_marseille","lat":43.29059,"lon":5.37162,"is_reserved":false,"is_disabled":false,"rental_uris":{"android":"levelo://app?vid=30017704-14bf-4e09-8c72-c9af6c814e5a","ios":"levelo://app?vid=30017704-14bf-4e09-8c72-c9af6c814e5a"},"vehicle_type_id":"4","last_reported":1700996699,"current_range_meters":30400,"station_id":"ce4bh5p2rcd13ifvqe4g","pricing_plan_id":"free"},{"bike_id":"f7ce04fe-20ee-4262-acdb-95be2dc1ea8c","system_id":"levelo_inurba_marseille","lat":43.289184,"lon":5.366408,"is_reserved":false,"is_disabled":false,"rental_uris":{"android":"levelo://app?vid=f7ce04fe-20ee-4262-acdb-95be2dc1ea8c","ios":"levelo://app?vid=f7ce04fe-20ee-4262-acdb-95be2dc1ea8c"},"vehicle_type_id":"4","last_reported":1700996699,"current_range_meters":31200,"station_id":"ce4bhap2rcd13ifvqek0","pricing_plan_id":"free"},{"bike_id":"5567392f-42e4-45d6-815a-95cc1a275640","system_id":"levelo_inurba_marseille","lat":43.289184,"lon":5.366408,"is_reserved":false,"is_disabled":false,"rental_uris":{"android":"levelo://app?vid=5567392f-42e4-45d6-815a-95cc1a275640","ios":"levelo://app?vid=5567392f-42e4-45d6-815a-95cc1a275640"},"vehicle_type_id":"4","last_reported":1700996699,"current_range_meters":31600,"station_id":"ce4bhap2rcd13ifvqek0","pricing_plan_id":"free"},{"bike_id":"668188e5-436d-414b-81db-0512de182a55","system_id":"levelo_inurba_marseille","lat":43.289184,"lon":5.366408,"is_reserved":false,"is_disabled":false,"rental_uris":{"android":"levelo://app?vid=668188e5-436d-414b-81db-0512de182a55","ios":"levelo://app?vid=668188e5-436d-414b-81db-0512de182a55"},"vehicle_type_id":"4","last_reported":1700996699,"current_range_meters":20000,"station_id":"ce4bhap2rcd13ifvqek0","pricing_plan_id":"free"},{"bike_id":"5084ff75-9825-417d-8a28-8cca3c40187f","system_id":"levelo_inurba_marseille","lat":43.2894,"lon":5.36403,"is_reserved":false,"is_disabled":false,"rental_uris":{"android":"levelo://app?vid=5084ff75-9825-417d-8a28-8cca3c40187f","ios":"levelo://app?vid=5084ff75-9825-417d-8a28-8cca3c40187f"},"vehicle_type_id":"4","last_reported":1700996699,"current_range_meters":25200,"station_id":"ce4bhc92rcd13ifvqetg","pricing_plan_id":"free"},{"bike_id":"9dc10cab-270b-4096-99ff-06e9818d81d8","system_id":"levelo_inurba_marseille","lat":43.289468,"lon":5.363719,"is_reserved":false,"is_disabled":false,"rental_uris":{"android":"levelo://app?vid=9dc10cab-270b-4096-99ff-06e9818d81d8","ios":"levelo://app?vid=9dc10cab-270b-4096-99ff-06e9818d81d8"},"vehicle_type_id":"4","last_reported":1700996699,"current_range_meters":18400,"station_id":"ce4bhc92rcd13ifvqetg","pricing_plan_id":"free"},{"bike_id":"57edb8d3-2147-4757-8b34-09951bcaa77c","system_id":"levelo_inurba_marseille","lat":43.289468,"lon":5.363719,"is_reserved":false,"is_disabled":false,"rental_uris":{"android":"levelo://app?vid=57edb8d3-2147-4757-8b34-09951bcaa77c","ios":"levelo://app?vid=57edb8d3-2147-4757-8b34-09951bcaa77c"},"vehicle_type_id":"4","last_reported":1700996699,"current_range_meters":27600,"station_id":"ce4bhc92rcd13ifvqetg","pricing_plan_id":"free"},{"bike_id":"1f3e2e2b-059c-4588-aa19-d83336d6f300","system_id":"levelo_inurba_marseille","lat":43.290104,"lon":5.356111,"is_reserved":false,"is_disabled":false,"rental_uris":{"android":"levelo://app?vid=1f3e2e2b-059c-4588-aa19-d83336d6f300","ios":"levelo://app?vid=1f3e2e2b-059c-4588-aa19-d83336d6f300"},"vehicle_type_id":"4","last_reported":1700996699,"current_range_meters":31200,"station_id":"ce4bhb92rcd13ifvqen0","pricing_plan_id":"free"},{"bike_id":"3791a1aa-980f-4d16-bf51-7bd6b97f6aa0","system_id":"levelo_inurba_marseille","lat":43.290103,"lon":5.356114,"is_reserved":false,"is_disabled":false,"rental_uris":{"android":"levelo://app?vid=3791a1aa-980f-4d16-bf51-7bd6b97f6aa0","ios":"levelo://app?vid=3791a1aa-980f-4d16-bf51-7bd6b97f6aa0"},"vehicle_type_id":"4","last_reported":1700996699,"current_range_meters":26400,"station_id":"ce4bhb92rcd13ifvqen0","pricing_plan_id":"free"},{"bike_id":"66e9e321-fb5d-4833-9d20-b51fa8d31cbe","system_id":"levelo_inurba_marseille","lat":43.290104,"lon":5.356111,"is_reserved":false,"is_disabled":false,"rental_uris":{"android":"levelo://app?vid=66e9e321-fb5d-4833-9d20-b51fa8d31cbe","ios":"levelo://app?vid=66e9e321-fb5d-4833-9d20-b51fa8d31cbe"},"vehicle_type_id":"4","last_reported":1700996699,"current_range_meters":27600,"station_id":"ce4bhb92rcd13ifvqen0","pricing_plan_id":"free"},{"bike_id":"860b94c4-c502-461d-9a74-899a464e376f","system_id":"levelo_inurba_marseille","lat":43.33045,"lon":5.38925,"is_reserved":false,"is_disabled":false,"rental_uris":{"android":"levelo://app?vid=860b94c4-c502-461d-9a74-899a464e376f","ios":"levelo://app?vid=860b94c4-c502-461d-9a74-899a464e376f"},"vehicle_type_id":"4","last_reported":1700996699,"current_range_meters":21600,"station_id":"ce4bhr92rcd13ifvqhrg","pricing_plan_id":"free"},{"bike_id":"de8f7486-1e8b-4ee8-a49a-619b558a87ac","system_id":"levelo_inurba_marseille","lat":43.290104,"lon":5.356111,"is_reserved":false,"is_disabled":false,"rental_uris":{"android":"levelo://app?vid=de8f7486-1e8b-4ee8-a49a-619b558a87ac","ios":"levelo://app?vid=de8f7486-1e8b-4ee8-a49a-619b558a87ac"},"vehicle_type_id":"4","last_reported":1700996699,"current_range_meters":27200,"station_id":"ce4bhb92rcd13ifvqen0","pricing_plan_id":"free"},{"bike_id":"93cc5030-c978-49b5-abf2-f74a0637c6f0","system_id":"levelo_inurba_marseille","lat":43.290995,"lon":5.381361,"is_reserved":false,"is_disabled":false,"rental_uris":{"android":"levelo://app?vid=93cc5030-c978-49b5-abf2-f74a0637c6f0","ios":"levelo://app?vid=93cc5030-c978-49b5-abf2-f74a0637c6f0"},"vehicle_type_id":"4","last_reported":1700996699,"current_range_meters":5200,"station_id":"ce4bh512rcd13ifvqe2g","pricing_plan_id":"free"},{"bike_id":"de4934ef-5f8a-47de-aa4e-092ab81beee9","system_id":"levelo_inurba_marseille","lat":43.312609,"lon":5.401662,"is_reserved":false,"is_disabled":false,"rental_uris":{"android":"levelo://app?vid=de4934ef-5f8a-47de-aa4e-092ab81beee9","ios":"levelo://app?vid=de4934ef-5f8a-47de-aa4e-092ab81beee9"},"vehicle_type_id":"4","last_reported":1700996699,"current_range_meters":21200,"station_id":"ce4bh092rcd13ifvqd30","pricing_plan_id":"free"},{"bike_id":"8ea5b783-293f-4ce6-b58c-0cff92e0bb7b","system_id":"levelo_inurba_marseille","lat":43.309371,"lon":5.401449,"is_reserved":false,"is_disabled":false,"rental_uris":{"android":"levelo://app?vid=8ea5b783-293f-4ce6-b58c-0cff92e0bb7b","ios":"levelo://app?vid=8ea5b783-293f-4ce6-b58c-0cff92e0bb7b"},"vehicle_type_id":"4","last_reported":1700996699,"current_range_meters":25200,"station_id":"ce4bgvp2rcd13ifvqct0","pricing_plan_id":"free"},{"bike_id":"a62144bf-8794-40e3-bcd7-29d9816bb72e","system_id":"levelo_inurba_marseille","lat":43.30135,"lon":5.39862,"is_reserved":false,"is_disabled":false,"rental_uris":{"android":"levelo://app?vid=a62144bf-8794-40e3-bcd7-29d9816bb72e","ios":"levelo://app?vid=a62144bf-8794-40e3-bcd7-29d9816bb72e"},"vehicle_type_id":"4","last_reported":1700996699,"current_range_meters":21600,"station_id":"ce4bh0h2rcd13ifvqd40","pricing_plan_id":"free"},{"bike_id":"03324436-7d27-46de-a25c-841060f42faf","system_id":"levelo_inurba_marseille","lat":43.295748,"lon":5.37522,"is_reserved":false,"is_disabled":false,"rental_uris":{"android":"levelo://app?vid=03324436-7d27-46de-a25c-841060f42faf","ios":"levelo://app?vid=03324436-7d27-46de-a25c-841060f42faf"},"vehicle_type_id":"4","last_reported":1700996699,"current_range_meters":22400,"station_id":"ce4bgh92rcd13ifvqb50","pricing_plan_id":"free"},{"bike_id":"831e63b4-0ddb-49df-8208-7abde9faa8bb","system_id":"levelo_inurba_marseille","lat":43.30134,"lon":5.39875,"is_reserved":false,"is_disabled":false,"rental_uris":{"android":"levelo://app?vid=831e63b4-0ddb-49df-8208-7abde9faa8bb","ios":"levelo://app?vid=831e63b4-0ddb-49df-8208-7abde9faa8bb"},"vehicle_type_id":"4","last_reported":1700996699,"current_range_meters":24400,"station_id":"ce4bh0h2rcd13ifvqd40","pricing_plan_id":"free"},{"bike_id":"7d547281-ae41-4296-b000-8337843b83a3","system_id":"levelo_inurba_marseille","lat":43.298801,"lon":5.397353,"is_reserved":false,"is_disabled":false,"rental_uris":{"android":"levelo://app?vid=7d547281-ae41-4296-b000-8337843b83a3","ios":"levelo://app?vid=7d547281-ae41-4296-b000-8337843b83a3"},"vehicle_type_id":"4","last_reported":1700996699,"current_range_meters":22000,"station_id":"ce4bh0h2rcd13ifvqd50","pricing_plan_id":"free"},{"bike_id":"bab17b15-ed56-4655-9cee-3fd3db78f1eb","system_id":"levelo_inurba_marseille","lat":43.302759,"lon":5.400793,"is_reserved":false,"is_disabled":false,"rental_uris":{"android":"levelo://app?vid=bab17b15-ed56-4655-9cee-3fd3db78f1eb","ios":"levelo://app?vid=bab17b15-ed56-4655-9cee-3fd3db78f1eb"},"vehicle_type_id":"4","last_reported":1700996699,"current_range_meters":14400,"station_id":"ce4bgvh2rcd13ifvqcs0","pricing_plan_id":"free"},{"bike_id":"5b5f61b4-b77b-4311-9d47-e2336d8cfbd3","system_id":"levelo_inurba_marseille","lat":43.286039,"lon":5.370679,"is_reserved":false,"is_disabled":false,"rental_uris":{"android":"levelo://app?vid=5b5f61b4-b77b-4311-9d47-e2336d8cfbd3","ios":"levelo://app?vid=5b5f61b4-b77b-4311-9d47-e2336d8cfbd3"},"vehicle_type_id":"4","last_reported":1700996699,"current_range_meters":25600,"station_id":"ce4bht12rcd13ifvqi60","pricing_plan_id":"free"},{"bike_id":"85fb2557-bdd8-48b0-b8b3-cd4ad8a49d82","system_id":"levelo_inurba_marseille","lat":43.286039,"lon":5.370679,"is_reserved":false,"is_disabled":false,"rental_uris":{"android":"levelo://app?vid=85fb2557-bdd8-48b0-b8b3-cd4ad8a49d82","ios":"levelo://app?vid=85fb2557-bdd8-48b0-b8b3-cd4ad8a49d82"},"vehicle_type_id":"4","last_reported":1700996699,"current_range_meters":6800,"station_id":"ce4bht12rcd13ifvqi60","pricing_plan_id":"free"},{"bike_id":"4d8154c5-ad70-4f9f-a448-989c2ffaf2b5","system_id":"levelo_inurba_marseille","lat":43.286039,"lon":5.370679,"is_reserved":false,"is_disabled":false,"rental_uris":{"android":"levelo://app?vid=4d8154c5-ad70-4f9f-a448-989c2ffaf2b5","ios":"levelo://app?vid=4d8154c5-ad70-4f9f-a448-989c2ffaf2b5"},"vehicle_type_id":"4","last_reported":1700996699,"current_range_meters":18400,"station_id":"ce4bht12rcd13ifvqi60","pricing_plan_id":"free"},{"bike_id":"d0cc9fe1-c65d-427d-b65a-80c2d15e8427","system_id":"levelo_inurba_marseille","lat":43.286039,"lon":5.370679,"is_reserved":false,"is_disabled":false,"rental_uris":{"android":"levelo://app?vid=d0cc9fe1-c65d-427d-b65a-80c2d15e8427","ios":"levelo://app?vid=d0cc9fe1-c65d-427d-b65a-80c2d15e8427"},"vehicle_type_id":"4","last_reported":1700996699,"current_range_meters":26800,"station_id":"ce4bht12rcd13ifvqi60","pricing_plan_id":"free"},{"bike_id":"28f6c3b3-e557-4e88-9f35-015252b11903","system_id":"levelo_inurba_marseille","lat":43.287185,"lon":5.379373,"is_reserved":false,"is_disabled":false,"rental_uris":{"android":"levelo://app?vid=28f6c3b3-e557-4e88-9f35-015252b11903","ios":"levelo://app?vid=28f6c3b3-e557-4e88-9f35-015252b11903"},"vehicle_type_id":"4","last_reported":1700996699,"current_range_meters":28400,"station_id":"ce4bh9p2rcd13ifvqec0","pricing_plan_id":"free"},{"bike_id":"b92e7fed-e8fc-4db4-91e7-065b937ca199","system_id":"levelo_inurba_marseille","lat":43.31643,"lon":5.40432,"is_reserved":false,"is_disabled":false,"rental_uris":{"android":"levelo://app?vid=b92e7fed-e8fc-4db4-91e7-065b937ca199","ios":"levelo://app?vid=b92e7fed-e8fc-4db4-91e7-065b937ca199"},"vehicle_type_id":"4","last_reported":1700996699,"current_range_meters":0,"station_id":"ce4bh012rcd13ifvqd00","pricing_plan_id":"free"},{"bike_id":"76d08274-e672-46e0-bbf4-71550f8b127e","system_id":"levelo_inurba_marseille","lat":43.28567,"lon":5.37752,"is_reserved":false,"is_disabled":false,"rental_uris":{"android":"levelo://app?vid=76d08274-e672-46e0-bbf4-71550f8b127e","ios":"levelo://app?vid=76d08274-e672-46e0-bbf4-71550f8b127e"},"vehicle_type_id":"4","last_reported":1700996699,"current_range_meters":24000,"station_id":"","pricing_plan_id":"free"},{"bike_id":"e67eef3d-b21b-4d55-b15a-64d027e6c32a","system_id":"levelo_inurba_marseille","lat":43.291994,"lon":5.392907,"is_reserved":false,"is_disabled":false,"rental_uris":{"android":"levelo://app?vid=e67eef3d-b21b-4d55-b15a-64d027e6c32a","ios":"levelo://app?vid=e67eef3d-b21b-4d55-b15a-64d027e6c32a"},"vehicle_type_id":"4","last_reported":1700996699,"current_range_meters":23200,"station_id":"ce4bh192rcd13ifvqdd0","pricing_plan_id":"free"},{"bike_id":"397ea1cb-51bc-46c2-be27-c1cfa61ecc3c","system_id":"levelo_inurba_marseille","lat":43.294314,"lon":5.397498,"is_reserved":false,"is_disabled":false,"rental_uris":{"android":"levelo://app?vid=397ea1cb-51bc-46c2-be27-c1cfa61ecc3c","ios":"levelo://app?vid=397ea1cb-51bc-46c2-be27-c1cfa61ecc3c"},"vehicle_type_id":"4","last_reported":1700996699,"current_range_meters":10000,"station_id":"ce4bh3h2rcd13ifvqdo0","pricing_plan_id":"free"},{"bike_id":"c6e51b13-6a59-44dd-a319-8c5338eac952","system_id":"levelo_inurba_marseille","lat":43.28616,"lon":5.35106,"is_reserved":false,"is_disabled":false,"rental_uris":{"android":"levelo://app?vid=c6e51b13-6a59-44dd-a319-8c5338eac952","ios":"levelo://app?vid=c6e51b13-6a59-44dd-a319-8c5338eac952"},"vehicle_type_id":"4","last_reported":1700996699,"current_range_meters":1600,"station_id":"ce4bhch2rcd13ifvqeug","pricing_plan_id":"free"},{"bike_id":"276e5b15-1b60-49f2-87a3-c734d040108d","system_id":"levelo_inurba_marseille","lat":43.283998,"lon":5.375062,"is_reserved":false,"is_disabled":false,"rental_uris":{"android":"levelo://app?vid=276e5b15-1b60-49f2-87a3-c734d040108d","ios":"levelo://app?vid=276e5b15-1b60-49f2-87a3-c734d040108d"},"vehicle_type_id":"4","last_reported":1700996699,"current_range_meters":10000,"station_id":"ce4bh412rcd13ifvqds0","pricing_plan_id":"free"},{"bike_id":"0dc68930-23fd-4686-b832-917c005f235f","system_id":"levelo_inurba_marseille","lat":43.292663,"lon":5.376389,"is_reserved":false,"is_disabled":false,"rental_uris":{"android":"levelo://app?vid=0dc68930-23fd-4686-b832-917c005f235f","ios":"levelo://app?vid=0dc68930-23fd-4686-b832-917c005f235f"},"vehicle_type_id":"4","last_reported":1700996699,"current_range_meters":11600,"station_id":"ce4bgi12rcd13ifvqb80","pricing_plan_id":"free"},{"bike_id":"d7291cda-b47c-4b21-ad1d-adea30d670c7","system_id":"levelo_inurba_marseille","lat":43.319179,"lon":5.407725,"is_reserved":false,"is_disabled":false,"rental_uris":{"android":"levelo://app?vid=d7291cda-b47c-4b21-ad1d-adea30d670c7","ios":"levelo://app?vid=d7291cda-b47c-4b21-ad1d-adea30d670c7"},"vehicle_type_id":"4","last_reported":1700996699,"current_range_meters":9200,"station_id":"ce4bhq12rcd13ifvqhig","pricing_plan_id":"free"},{"bike_id":"88115974-303c-419a-ae60-3567b6ed6fd0","system_id":"levelo_inurba_marseille","lat":43.284766,"lon":5.384143,"is_reserved":false,"is_disabled":false,"rental_uris":{"android":"levelo://app?vid=88115974-303c-419a-ae60-3567b6ed6fd0","ios":"levelo://app?vid=88115974-303c-419a-ae60-3567b6ed6fd0"},"vehicle_type_id":"4","last_reported":1700996699,"current_range_meters":30000,"station_id":"ce4bh512rcd13ifvqe3g","pricing_plan_id":"free"},{"bike_id":"84eaf061-f592-45a6-83d5-47bc24fe7d54","system_id":"levelo_inurba_marseille","lat":43.284787,"lon":5.384116,"is_reserved":false,"is_disabled":false,"rental_uris":{"android":"levelo://app?vid=84eaf061-f592-45a6-83d5-47bc24fe7d54","ios":"levelo://app?vid=84eaf061-f592-45a6-83d5-47bc24fe7d54"},"vehicle_type_id":"4","last_reported":1700996699,"current_range_meters":22400,"station_id":"ce4bh512rcd13ifvqe3g","pricing_plan_id":"free"},{"bike_id":"a5d04725-5471-4255-9808-e68a14bb0ad7","system_id":"levelo_inurba_marseille","lat":43.288501,"lon":5.393087,"is_reserved":false,"is_disabled":false,"rental_uris":{"android":"levelo://app?vid=a5d04725-5471-4255-9808-e68a14bb0ad7","ios":"levelo://app?vid=a5d04725-5471-4255-9808-e68a14bb0ad7"},"vehicle_type_id":"4","last_reported":1700996699,"current_range_meters":18800,"station_id":"ce4bh2p2rcd13ifvqdi0","pricing_plan_id":"free"},{"bike_id":"e2284003-4e46-4e0a-93e7-73d05c3666d9","system_id":"levelo_inurba_marseille","lat":43.33508,"lon":5.397755,"is_reserved":false,"is_disabled":false,"rental_uris":{"android":"levelo://app?vid=e2284003-4e46-4e0a-93e7-73d05c3666d9","ios":"levelo://app?vid=e2284003-4e46-4e0a-93e7-73d05c3666d9"},"vehicle_type_id":"4","last_reported":1700996699,"current_range_meters":19200,"station_id":"","pricing_plan_id":"free"},{"bike_id":"8e88dafc-ea02-4d27-ae28-583029450dc5","system_id":"levelo_inurba_marseille","lat":43.289363,"lon":5.396322,"is_reserved":false,"is_disabled":false,"rental_uris":{"android":"levelo://app?vid=8e88dafc-ea02-4d27-ae28-583029450dc5","ios":"levelo://app?vid=8e88dafc-ea02-4d27-ae28-583029450dc5"},"vehicle_type_id":"4","last_reported":1700996699,"current_range_meters":27200,"station_id":"ce4bh3h2rcd13ifvqdn0","pricing_plan_id":"free"},{"bike_id":"285bc52b-dedb-404a-bc04-1625d1d41993","system_id":"levelo_inurba_marseille","lat":43.282754,"lon":5.350519,"is_reserved":false,"is_disabled":false,"rental_uris":{"android":"levelo://app?vid=285bc52b-dedb-404a-bc04-1625d1d41993","ios":"levelo://app?vid=285bc52b-dedb-404a-bc04-1625d1d41993"},"vehicle_type_id":"4","last_reported":1700996699,"current_range_meters":11600,"station_id":"ce4bhbp2rcd13ifvqerg","pricing_plan_id":"free"},{"bike_id":"48c7bd32-5027-4521-b8a7-876db2f87ca0","system_id":"levelo_inurba_marseille","lat":43.282754,"lon":5.350519,"is_reserved":false,"is_disabled":false,"rental_uris":{"android":"levelo://app?vid=48c7bd32-5027-4521-b8a7-876db2f87ca0","ios":"levelo://app?vid=48c7bd32-5027-4521-b8a7-876db2f87ca0"},"vehicle_type_id":"4","last_reported":1700996699,"current_range_meters":26400,"station_id":"ce4bhbp2rcd13ifvqerg","pricing_plan_id":"free"},{"bike_id":"90d09191-fec6-44a2-a37b-d9ede11b4b8f","system_id":"levelo_inurba_marseille","lat":43.28039,"lon":5.369297,"is_reserved":false,"is_disabled":false,"rental_uris":{"android":"levelo://app?vid=90d09191-fec6-44a2-a37b-d9ede11b4b8f","ios":"levelo://app?vid=90d09191-fec6-44a2-a37b-d9ede11b4b8f"},"vehicle_type_id":"4","last_reported":1700996699,"current_range_meters":24400,"station_id":"ce4bha12rcd13ifvqef0","pricing_plan_id":"free"},{"bike_id":"bcd500b3-23bc-4e91-bb16-1c1d37a048b8","system_id":"levelo_inurba_marseille","lat":43.28039,"lon":5.369297,"is_reserved":false,"is_disabled":false,"rental_uris":{"android":"levelo://app?vid=bcd500b3-23bc-4e91-bb16-1c1d37a048b8","ios":"levelo://app?vid=bcd500b3-23bc-4e91-bb16-1c1d37a048b8"},"vehicle_type_id":"4","last_reported":1700996699,"current_range_meters":19600,"station_id":"ce4bha12rcd13ifvqef0","pricing_plan_id":"free"},{"bike_id":"db9334a0-0093-411c-aac9-d2c04233863c","system_id":"levelo_inurba_marseille","lat":43.28039,"lon":5.369297,"is_reserved":false,"is_disabled":false,"rental_uris":{"android":"levelo://app?vid=db9334a0-0093-411c-aac9-d2c04233863c","ios":"levelo://app?vid=db9334a0-0093-411c-aac9-d2c04233863c"},"vehicle_type_id":"4","last_reported":1700996699,"current_range_meters":30400,"station_id":"ce4bha12rcd13ifvqef0","pricing_plan_id":"free"},{"bike_id":"752db139-02d7-4fc2-b740-46737058f155","system_id":"levelo_inurba_marseille","lat":43.28039,"lon":5.369297,"is_reserved":false,"is_disabled":false,"rental_uris":{"android":"levelo://app?vid=752db139-02d7-4fc2-b740-46737058f155","ios":"levelo://app?vid=752db139-02d7-4fc2-b740-46737058f155"},"vehicle_type_id":"4","last_reported":1700996699,"current_range_meters":24400,"station_id":"ce4bha12rcd13ifvqef0","pricing_plan_id":"free"},{"bike_id":"ec3b3fd1-5bfc-4d6f-bc0e-3062bce32f53","system_id":"levelo_inurba_marseille","lat":43.28039,"lon":5.369297,"is_reserved":false,"is_disabled":false,"rental_uris":{"android":"levelo://app?vid=ec3b3fd1-5bfc-4d6f-bc0e-3062bce32f53","ios":"levelo://app?vid=ec3b3fd1-5bfc-4d6f-bc0e-3062bce32f53"},"vehicle_type_id":"4","last_reported":1700996699,"current_range_meters":31600,"station_id":"ce4bha12rcd13ifvqef0","pricing_plan_id":"free"},{"bike_id":"ba4642d8-bc04-4f5e-bf6d-8858ba59cfd2","system_id":"levelo_inurba_marseille","lat":43.281044,"lon":5.378308,"is_reserved":false,"is_disabled":false,"rental_uris":{"android":"levelo://app?vid=ba4642d8-bc04-4f5e-bf6d-8858ba59cfd2","ios":"levelo://app?vid=ba4642d8-bc04-4f5e-bf6d-8858ba59cfd2"},"vehicle_type_id":"4","last_reported":1700996699,"current_range_meters":9600,"station_id":"ce4bha12rcd13ifvqee0","pricing_plan_id":"free"},{"bike_id":"68c58a2f-45c9-4821-bcfc-3681906d7bfa","system_id":"levelo_inurba_marseille","lat":43.281044,"lon":5.378308,"is_reserved":false,"is_disabled":false,"rental_uris":{"android":"levelo://app?vid=68c58a2f-45c9-4821-bcfc-3681906d7bfa","ios":"levelo://app?vid=68c58a2f-45c9-4821-bcfc-3681906d7bfa"},"vehicle_type_id":"4","last_reported":1700996699,"current_range_meters":3200,"station_id":"ce4bha12rcd13ifvqee0","pricing_plan_id":"free"},{"bike_id":"eb605792-d946-497e-b37e-cfe2f8246013","system_id":"levelo_inurba_marseille","lat":43.279087,"lon":5.380114,"is_reserved":false,"is_disabled":false,"rental_uris":{"android":"levelo://app?vid=eb605792-d946-497e-b37e-cfe2f8246013","ios":"levelo://app?vid=eb605792-d946-497e-b37e-cfe2f8246013"},"vehicle_type_id":"4","last_reported":1700996699,"current_range_meters":26400,"station_id":"ce4bhf92rcd13ifvqf50","pricing_plan_id":"free"},{"bike_id":"4db68ac9-b6b9-4c87-b371-b6a4db57b5ac","system_id":"levelo_inurba_marseille","lat":43.279087,"lon":5.380114,"is_reserved":false,"is_disabled":false,"rental_uris":{"android":"levelo://app?vid=4db68ac9-b6b9-4c87-b371-b6a4db57b5ac","ios":"levelo://app?vid=4db68ac9-b6b9-4c87-b371-b6a4db57b5ac"},"vehicle_type_id":"4","last_reported":1700996699,"current_range_meters":20400,"station_id":"ce4bhf92rcd13ifvqf50","pricing_plan_id":"free"},{"bike_id":"477cd6b7-d75d-4002-97a5-e825498e7490","system_id":"levelo_inurba_marseille","lat":43.279087,"lon":5.380114,"is_reserved":false,"is_disabled":false,"rental_uris":{"android":"levelo://app?vid=477cd6b7-d75d-4002-97a5-e825498e7490","ios":"levelo://app?vid=477cd6b7-d75d-4002-97a5-e825498e7490"},"vehicle_type_id":"4","last_reported":1700996699,"current_range_meters":24800,"station_id":"ce4bhf92rcd13ifvqf50","pricing_plan_id":"free"},{"bike_id":"2532c679-1cc7-4268-a49d-9e7b00df2495","system_id":"levelo_inurba_marseille","lat":43.279087,"lon":5.380114,"is_reserved":false,"is_disabled":false,"rental_uris":{"android":"levelo://app?vid=2532c679-1cc7-4268-a49d-9e7b00df2495","ios":"levelo://app?vid=2532c679-1cc7-4268-a49d-9e7b00df2495"},"vehicle_type_id":"4","last_reported":1700996699,"current_range_meters":28800,"station_id":"ce4bhf92rcd13ifvqf50","pricing_plan_id":"free"},{"bike_id":"204493bf-01da-4909-8216-70c6a6afb45e","system_id":"levelo_inurba_marseille","lat":43.287154,"lon":5.399979,"is_reserved":false,"is_disabled":false,"rental_uris":{"android":"levelo://app?vid=204493bf-01da-4909-8216-70c6a6afb45e","ios":"levelo://app?vid=204493bf-01da-4909-8216-70c6a6afb45e"},"vehicle_type_id":"4","last_reported":1700996699,"current_range_meters":23600,"station_id":"ce4bho92rcd13ifvqh3g","pricing_plan_id":"free"},{"bike_id":"6526cad1-2f4b-4db1-8d6b-ce04bc407b31","system_id":"levelo_inurba_marseille","lat":43.34883,"lon":5.37501,"is_reserved":false,"is_disabled":false,"rental_uris":{"android":"levelo://app?vid=6526cad1-2f4b-4db1-8d6b-ce04bc407b31","ios":"levelo://app?vid=6526cad1-2f4b-4db1-8d6b-ce04bc407b31"},"vehicle_type_id":"4","last_reported":1700996699,"current_range_meters":0,"station_id":"","pricing_plan_id":"free"},{"bike_id":"062d6964-a217-4fd7-b47f-eac665d05b08","system_id":"levelo_inurba_marseille","lat":43.292571,"lon":5.409107,"is_reserved":false,"is_disabled":false,"rental_uris":{"android":"levelo://app?vid=062d6964-a217-4fd7-b47f-eac665d05b08","ios":"levelo://app?vid=062d6964-a217-4fd7-b47f-eac665d05b08"},"vehicle_type_id":"4","last_reported":1700996699,"current_range_meters":30000,"station_id":"ce4bh192rcd13ifvqdc0","pricing_plan_id":"free"},{"bike_id":"af96db3f-8e8a-4f09-9fd5-44ed1b445f15","system_id":"levelo_inurba_marseille","lat":43.27614,"lon":5.36102,"is_reserved":false,"is_disabled":false,"rental_uris":{"android":"levelo://app?vid=af96db3f-8e8a-4f09-9fd5-44ed1b445f15","ios":"levelo://app?vid=af96db3f-8e8a-4f09-9fd5-44ed1b445f15"},"vehicle_type_id":"4","last_reported":1700996699,"current_range_meters":25600,"station_id":"ce4bgj92rcd13ifvqbe0","pricing_plan_id":"free"},{"bike_id":"c25ea147-e804-4786-9d25-91f61a8ed59a","system_id":"levelo_inurba_marseille","lat":43.293651,"lon":5.41268,"is_reserved":false,"is_disabled":false,"rental_uris":{"android":"levelo://app?vid=c25ea147-e804-4786-9d25-91f61a8ed59a","ios":"levelo://app?vid=c25ea147-e804-4786-9d25-91f61a8ed59a"},"vehicle_type_id":"4","last_reported":1700996699,"current_range_meters":0,"station_id":"","pricing_plan_id":"free"},{"bike_id":"5f0d2be1-4957-487b-b7e5-14543907a780","system_id":"levelo_inurba_marseille","lat":43.280784,"lon":5.396622,"is_reserved":false,"is_disabled":false,"rental_uris":{"android":"levelo://app?vid=5f0d2be1-4957-487b-b7e5-14543907a780","ios":"levelo://app?vid=5f0d2be1-4957-487b-b7e5-14543907a780"},"vehicle_type_id":"4","last_reported":1700996699,"current_range_meters":28000,"station_id":"ce4bho12rcd13ifvqh2g","pricing_plan_id":"free"},{"bike_id":"96046d29-772d-45f6-b393-4f7a556dbe05","system_id":"levelo_inurba_marseille","lat":43.278399,"lon":5.392139,"is_reserved":false,"is_disabled":false,"rental_uris":{"android":"levelo://app?vid=96046d29-772d-45f6-b393-4f7a556dbe05","ios":"levelo://app?vid=96046d29-772d-45f6-b393-4f7a556dbe05"},"vehicle_type_id":"4","last_reported":1700996699,"current_range_meters":23600,"station_id":"ce4bhjp2rcd13ifvqga0","pricing_plan_id":"free"},{"bike_id":"f3e76cd8-97ba-43bf-87c5-ac145e000bda","system_id":"levelo_inurba_marseille","lat":43.278401,"lon":5.392152,"is_reserved":false,"is_disabled":false,"rental_uris":{"android":"levelo://app?vid=f3e76cd8-97ba-43bf-87c5-ac145e000bda","ios":"levelo://app?vid=f3e76cd8-97ba-43bf-87c5-ac145e000bda"},"vehicle_type_id":"4","last_reported":1700996699,"current_range_meters":15200,"station_id":"ce4bhjp2rcd13ifvqga0","pricing_plan_id":"free"},{"bike_id":"9745d300-5dac-45ec-b047-62faa2e20452","system_id":"levelo_inurba_marseille","lat":43.278399,"lon":5.392139,"is_reserved":false,"is_disabled":false,"rental_uris":{"android":"levelo://app?vid=9745d300-5dac-45ec-b047-62faa2e20452","ios":"levelo://app?vid=9745d300-5dac-45ec-b047-62faa2e20452"},"vehicle_type_id":"4","last_reported":1700996699,"current_range_meters":20000,"station_id":"ce4bhjp2rcd13ifvqga0","pricing_plan_id":"free"},{"bike_id":"d596ceea-6d37-431a-9dca-f3790e540e6f","system_id":"levelo_inurba_marseille","lat":43.27582,"lon":5.38421,"is_reserved":false,"is_disabled":false,"rental_uris":{"android":"levelo://app?vid=d596ceea-6d37-431a-9dca-f3790e540e6f","ios":"levelo://app?vid=d596ceea-6d37-431a-9dca-f3790e540e6f"},"vehicle_type_id":"4","last_reported":1700996699,"current_range_meters":21200,"station_id":"ce4bhh92rcd13ifvqfi0","pricing_plan_id":"free"},{"bike_id":"08fa41ff-767c-4be8-be07-2668a5c56160","system_id":"levelo_inurba_marseille","lat":43.273613,"lon":5.362705,"is_reserved":false,"is_disabled":false,"rental_uris":{"android":"levelo://app?vid=08fa41ff-767c-4be8-be07-2668a5c56160","ios":"levelo://app?vid=08fa41ff-767c-4be8-be07-2668a5c56160"},"vehicle_type_id":"4","last_reported":1700996699,"current_range_meters":27600,"station_id":"ce4bhbh2rcd13ifvqeo0","pricing_plan_id":"free"},{"bike_id":"0be792b7-7001-48d5-b5a7-9c1271564f34","system_id":"levelo_inurba_marseille","lat":43.276771,"lon":5.388799,"is_reserved":false,"is_disabled":false,"rental_uris":{"android":"levelo://app?vid=0be792b7-7001-48d5-b5a7-9c1271564f34","ios":"levelo://app?vid=0be792b7-7001-48d5-b5a7-9c1271564f34"},"vehicle_type_id":"4","last_reported":1700996699,"current_range_meters":10000,"station_id":"ce4bhi12rcd13ifvqfo0","pricing_plan_id":"free"},{"bike_id":"6a016b3a-b2d3-4f01-89cb-938c69fa36d8","system_id":"levelo_inurba_marseille","lat":43.27246,"lon":5.36273,"is_reserved":false,"is_disabled":false,"rental_uris":{"android":"levelo://app?vid=6a016b3a-b2d3-4f01-89cb-938c69fa36d8","ios":"levelo://app?vid=6a016b3a-b2d3-4f01-89cb-938c69fa36d8"},"vehicle_type_id":"4","last_reported":1700996699,"current_range_meters":30400,"station_id":"","pricing_plan_id":"free"},{"bike_id":"2de05027-7797-4106-81c1-0fbaf060e0d4","system_id":"levelo_inurba_marseille","lat":43.31717,"lon":5.42394,"is_reserved":false,"is_disabled":false,"rental_uris":{"android":"levelo://app?vid=2de05027-7797-4106-81c1-0fbaf060e0d4","ios":"levelo://app?vid=2de05027-7797-4106-81c1-0fbaf060e0d4"},"vehicle_type_id":"4","last_reported":1700996699,"current_range_meters":13200,"station_id":"ce4bhp92rcd13ifvqhbg","pricing_plan_id":"free"},{"bike_id":"60395232-e532-4f5a-ae3e-52a22da3b50f","system_id":"levelo_inurba_marseille","lat":43.31084,"lon":5.42426,"is_reserved":false,"is_disabled":false,"rental_uris":{"android":"levelo://app?vid=60395232-e532-4f5a-ae3e-52a22da3b50f","ios":"levelo://app?vid=60395232-e532-4f5a-ae3e-52a22da3b50f"},"vehicle_type_id":"4","last_reported":1700996699,"current_range_meters":31200,"station_id":"ce4bhp92rcd13ifvqhag","pricing_plan_id":"free"},{"bike_id":"2bac63be-2248-4f83-9913-6fa6e719b914","system_id":"levelo_inurba_marseille","lat":43.31082,"lon":5.42427,"is_reserved":false,"is_disabled":false,"rental_uris":{"android":"levelo://app?vid=2bac63be-2248-4f83-9913-6fa6e719b914","ios":"levelo://app?vid=2bac63be-2248-4f83-9913-6fa6e719b914"},"vehicle_type_id":"4","last_reported":1700996699,"current_range_meters":13200,"station_id":"ce4bhp92rcd13ifvqhag","pricing_plan_id":"free"},{"bike_id":"8eb5bdb0-5c9b-4999-93c3-a1a499ccf536","system_id":"levelo_inurba_marseille","lat":43.310785,"lon":5.424305,"is_reserved":false,"is_disabled":false,"rental_uris":{"android":"levelo://app?vid=8eb5bdb0-5c9b-4999-93c3-a1a499ccf536","ios":"levelo://app?vid=8eb5bdb0-5c9b-4999-93c3-a1a499ccf536"},"vehicle_type_id":"4","last_reported":1700996699,"current_range_meters":31200,"station_id":"ce4bhp92rcd13ifvqhag","pricing_plan_id":"free"},{"bike_id":"1f0fd27b-37dc-47d7-b98d-580986aa847c","system_id":"levelo_inurba_marseille","lat":43.27323,"lon":5.39091,"is_reserved":false,"is_disabled":false,"rental_uris":{"android":"levelo://app?vid=1f0fd27b-37dc-47d7-b98d-580986aa847c","ios":"levelo://app?vid=1f0fd27b-37dc-47d7-b98d-580986aa847c"},"vehicle_type_id":"4","last_reported":1700996699,"current_range_meters":12400,"station_id":"ce4bhgp2rcd13ifvqfe0","pricing_plan_id":"free"},{"bike_id":"ff96cd12-6105-4f8f-86e5-0a8369e3984f","system_id":"levelo_inurba_marseille","lat":43.2732,"lon":5.3909,"is_reserved":false,"is_disabled":false,"rental_uris":{"android":"levelo://app?vid=ff96cd12-6105-4f8f-86e5-0a8369e3984f","ios":"levelo://app?vid=ff96cd12-6105-4f8f-86e5-0a8369e3984f"},"vehicle_type_id":"4","last_reported":1700996699,"current_range_meters":29600,"station_id":"ce4bhgp2rcd13ifvqfe0","pricing_plan_id":"free"},{"bike_id":"ce9f8bef-be75-42a4-a53c-1be64df297ab","system_id":"levelo_inurba_marseille","lat":43.30412,"lon":5.42549,"is_reserved":false,"is_disabled":false,"rental_uris":{"android":"levelo://app?vid=ce9f8bef-be75-42a4-a53c-1be64df297ab","ios":"levelo://app?vid=ce9f8bef-be75-42a4-a53c-1be64df297ab"},"vehicle_type_id":"4","last_reported":1700996699,"current_range_meters":12800,"station_id":"ce4bhoh2rcd13ifvqh6g","pricing_plan_id":"free"},{"bike_id":"4a840da3-fdbc-4633-9cc0-12e811d835c6","system_id":"levelo_inurba_marseille","lat":43.304088,"lon":5.425388,"is_reserved":false,"is_disabled":false,"rental_uris":{"android":"levelo://app?vid=4a840da3-fdbc-4633-9cc0-12e811d835c6","ios":"levelo://app?vid=4a840da3-fdbc-4633-9cc0-12e811d835c6"},"vehicle_type_id":"4","last_reported":1700996699,"current_range_meters":20800,"station_id":"ce4bhoh2rcd13ifvqh6g","pricing_plan_id":"free"},{"bike_id":"b0d8de64-7d3c-494c-8008-dc5f6b9121ab","system_id":"levelo_inurba_marseille","lat":43.295523,"lon":5.422926,"is_reserved":false,"is_disabled":false,"rental_uris":{"android":"levelo://app?vid=b0d8de64-7d3c-494c-8008-dc5f6b9121ab","ios":"levelo://app?vid=b0d8de64-7d3c-494c-8008-dc5f6b9121ab"},"vehicle_type_id":"4","last_reported":1700996699,"current_range_meters":30400,"station_id":"ce4bhph2rcd13ifvqhdg","pricing_plan_id":"free"},{"bike_id":"9f33e7be-ccf0-4fd5-b04d-f51287063869","system_id":"levelo_inurba_marseille","lat":43.295511,"lon":5.422926,"is_reserved":false,"is_disabled":false,"rental_uris":{"android":"levelo://app?vid=9f33e7be-ccf0-4fd5-b04d-f51287063869","ios":"levelo://app?vid=9f33e7be-ccf0-4fd5-b04d-f51287063869"},"vehicle_type_id":"4","last_reported":1700996699,"current_range_meters":28400,"station_id":"ce4bhph2rcd13ifvqhdg","pricing_plan_id":"free"},{"bike_id":"ec58e845-6810-4045-a9f7-39fad1d40927","system_id":"levelo_inurba_marseille","lat":43.272116,"lon":5.391763,"is_reserved":false,"is_disabled":false,"rental_uris":{"android":"levelo://app?vid=ec58e845-6810-4045-a9f7-39fad1d40927","ios":"levelo://app?vid=ec58e845-6810-4045-a9f7-39fad1d40927"},"vehicle_type_id":"4","last_reported":1700996699,"current_range_meters":18000,"station_id":"ce4bhhp2rcd13ifvqfm0","pricing_plan_id":"free"},{"bike_id":"35ff0fef-0031-4454-b197-36cc197ade8d","system_id":"levelo_inurba_marseille","lat":43.272129,"lon":5.39182,"is_reserved":false,"is_disabled":false,"rental_uris":{"android":"levelo://app?vid=35ff0fef-0031-4454-b197-36cc197ade8d","ios":"levelo://app?vid=35ff0fef-0031-4454-b197-36cc197ade8d"},"vehicle_type_id":"4","last_reported":1700996699,"current_range_meters":31200,"station_id":"ce4bhhp2rcd13ifvqfm0","pricing_plan_id":"free"},{"bike_id":"1eaff505-c87c-40b9-9a4b-2955df4da829","system_id":"levelo_inurba_marseille","lat":43.269319,"lon":5.389397,"is_reserved":false,"is_disabled":false,"rental_uris":{"android":"levelo://app?vid=1eaff505-c87c-40b9-9a4b-2955df4da829","ios":"levelo://app?vid=1eaff505-c87c-40b9-9a4b-2955df4da829"},"vehicle_type_id":"4","last_reported":1700996699,"current_range_meters":28400,"station_id":"ce4bhhh2rcd13ifvqfl0","pricing_plan_id":"free"},{"bike_id":"d3b55b1e-2d9a-4010-8106-4f5cccffe2ba","system_id":"levelo_inurba_marseille","lat":43.26681,"lon":5.382694,"is_reserved":false,"is_disabled":false,"rental_uris":{"android":"levelo://app?vid=d3b55b1e-2d9a-4010-8106-4f5cccffe2ba","ios":"levelo://app?vid=d3b55b1e-2d9a-4010-8106-4f5cccffe2ba"},"vehicle_type_id":"4","last_reported":1700996699,"current_range_meters":25600,"station_id":"ce4bhg92rcd13ifvqf90","pricing_plan_id":"free"},{"bike_id":"552b9570-5876-4717-a59e-c90d5a6c1b1a","system_id":"levelo_inurba_marseille","lat":43.26681,"lon":5.382694,"is_reserved":false,"is_disabled":false,"rental_uris":{"android":"levelo://app?vid=552b9570-5876-4717-a59e-c90d5a6c1b1a","ios":"levelo://app?vid=552b9570-5876-4717-a59e-c90d5a6c1b1a"},"vehicle_type_id":"4","last_reported":1700996699,"current_range_meters":31600,"station_id":"ce4bhg92rcd13ifvqf90","pricing_plan_id":"free"},{"bike_id":"58eb8a06-6d28-4ec6-a188-66edf966b964","system_id":"levelo_inurba_marseille","lat":43.26681,"lon":5.382694,"is_reserved":false,"is_disabled":false,"rental_uris":{"android":"levelo://app?vid=58eb8a06-6d28-4ec6-a188-66edf966b964","ios":"levelo://app?vid=58eb8a06-6d28-4ec6-a188-66edf966b964"},"vehicle_type_id":"4","last_reported":1700996699,"current_range_meters":28000,"station_id":"ce4bhg92rcd13ifvqf90","pricing_plan_id":"free"},{"bike_id":"0d7dd0fe-70fa-4075-8d3d-0c05a3070ec9","system_id":"levelo_inurba_marseille","lat":43.26681,"lon":5.382694,"is_reserved":false,"is_disabled":false,"rental_uris":{"android":"levelo://app?vid=0d7dd0fe-70fa-4075-8d3d-0c05a3070ec9","ios":"levelo://app?vid=0d7dd0fe-70fa-4075-8d3d-0c05a3070ec9"},"vehicle_type_id":"4","last_reported":1700996699,"current_range_meters":28000,"station_id":"ce4bhg92rcd13ifvqf90","pricing_plan_id":"free"},{"bike_id":"1b96608d-092c-42d9-9260-0f317604350b","system_id":"levelo_inurba_marseille","lat":43.265524,"lon":5.372877,"is_reserved":false,"is_disabled":false,"rental_uris":{"android":"levelo://app?vid=1b96608d-092c-42d9-9260-0f317604350b","ios":"levelo://app?vid=1b96608d-092c-42d9-9260-0f317604350b"},"vehicle_type_id":"4","last_reported":1700996699,"current_range_meters":21200,"station_id":"","pricing_plan_id":"free"},{"bike_id":"f23d8119-b478-4639-98c5-6883279f9f84","system_id":"levelo_inurba_marseille","lat":43.32592,"lon":5.43067,"is_reserved":false,"is_disabled":false,"rental_uris":{"android":"levelo://app?vid=f23d8119-b478-4639-98c5-6883279f9f84","ios":"levelo://app?vid=f23d8119-b478-4639-98c5-6883279f9f84"},"vehicle_type_id":"4","last_reported":1700996699,"current_range_meters":23200,"station_id":"","pricing_plan_id":"free"},{"bike_id":"ed30d6a1-b23a-49e5-9c83-5546be72a734","system_id":"levelo_inurba_marseille","lat":43.3259,"lon":5.43075,"is_reserved":false,"is_disabled":false,"rental_uris":{"android":"levelo://app?vid=ed30d6a1-b23a-49e5-9c83-5546be72a734","ios":"levelo://app?vid=ed30d6a1-b23a-49e5-9c83-5546be72a734"},"vehicle_type_id":"4","last_reported":1700996699,"current_range_meters":18000,"station_id":"","pricing_plan_id":"free"},{"bike_id":"d67469ee-5362-4610-a163-fe05ae3cf4f7","system_id":"levelo_inurba_marseille","lat":43.32604,"lon":5.430817,"is_reserved":false,"is_disabled":false,"rental_uris":{"android":"levelo://app?vid=d67469ee-5362-4610-a163-fe05ae3cf4f7","ios":"levelo://app?vid=d67469ee-5362-4610-a163-fe05ae3cf4f7"},"vehicle_type_id":"4","last_reported":1700996699,"current_range_meters":6400,"station_id":"","pricing_plan_id":"free"},{"bike_id":"6504517e-6283-4126-924a-23a141309885","system_id":"levelo_inurba_marseille","lat":43.280028,"lon":5.416617,"is_reserved":false,"is_disabled":false,"rental_uris":{"android":"levelo://app?vid=6504517e-6283-4126-924a-23a141309885","ios":"levelo://app?vid=6504517e-6283-4126-924a-23a141309885"},"vehicle_type_id":"4","last_reported":1700996699,"current_range_meters":15200,"station_id":"ce4bho12rcd13ifvqh1g","pricing_plan_id":"free"},{"bike_id":"2ce81b26-2847-48e0-8768-f3be7864a8f7","system_id":"levelo_inurba_marseille","lat":43.279916,"lon":5.416539,"is_reserved":false,"is_disabled":false,"rental_uris":{"android":"levelo://app?vid=2ce81b26-2847-48e0-8768-f3be7864a8f7","ios":"levelo://app?vid=2ce81b26-2847-48e0-8768-f3be7864a8f7"},"vehicle_type_id":"4","last_reported":1700996699,"current_range_meters":26800,"station_id":"ce4bho12rcd13ifvqh1g","pricing_plan_id":"free"},{"bike_id":"05d11fc6-bfad-4336-bbb0-16504370a872","system_id":"levelo_inurba_marseille","lat":43.27987,"lon":5.41656,"is_reserved":false,"is_disabled":false,"rental_uris":{"android":"levelo://app?vid=05d11fc6-bfad-4336-bbb0-16504370a872","ios":"levelo://app?vid=05d11fc6-bfad-4336-bbb0-16504370a872"},"vehicle_type_id":"4","last_reported":1700996699,"current_range_meters":27200,"station_id":"ce4bho12rcd13ifvqh1g","pricing_plan_id":"free"},{"bike_id":"1037b41f-ee53-4d23-8a6e-3ed0ac6bf173","system_id":"levelo_inurba_marseille","lat":43.27984,"lon":5.41654,"is_reserved":false,"is_disabled":false,"rental_uris":{"android":"levelo://app?vid=1037b41f-ee53-4d23-8a6e-3ed0ac6bf173","ios":"levelo://app?vid=1037b41f-ee53-4d23-8a6e-3ed0ac6bf173"},"vehicle_type_id":"4","last_reported":1700996699,"current_range_meters":29600,"station_id":"ce4bho12rcd13ifvqh1g","pricing_plan_id":"free"},{"bike_id":"d8b5098a-ad04-43b0-8016-95d267f393c0","system_id":"levelo_inurba_marseille","lat":43.265714,"lon":5.372891,"is_reserved":false,"is_disabled":false,"rental_uris":{"android":"levelo://app?vid=d8b5098a-ad04-43b0-8016-95d267f393c0","ios":"levelo://app?vid=d8b5098a-ad04-43b0-8016-95d267f393c0"},"vehicle_type_id":"4","last_reported":1700996699,"current_range_meters":29600,"station_id":"ce4bhg12rcd13ifvqf70","pricing_plan_id":"free"},{"bike_id":"f9b42e34-c938-4751-a0ed-542b074e380e","system_id":"levelo_inurba_marseille","lat":43.265714,"lon":5.372891,"is_reserved":false,"is_disabled":false,"rental_uris":{"android":"levelo://app?vid=f9b42e34-c938-4751-a0ed-542b074e380e","ios":"levelo://app?vid=f9b42e34-c938-4751-a0ed-542b074e380e"},"vehicle_type_id":"4","last_reported":1700996699,"current_range_meters":22400,"station_id":"ce4bhg12rcd13ifvqf70","pricing_plan_id":"free"},{"bike_id":"eae4233e-5c8e-459b-8d14-731ee6c7e4fe","system_id":"levelo_inurba_marseille","lat":43.265714,"lon":5.372891,"is_reserved":false,"is_disabled":false,"rental_uris":{"android":"levelo://app?vid=eae4233e-5c8e-459b-8d14-731ee6c7e4fe","ios":"levelo://app?vid=eae4233e-5c8e-459b-8d14-731ee6c7e4fe"},"vehicle_type_id":"4","last_reported":1700996699,"current_range_meters":28000,"station_id":"ce4bhg12rcd13ifvqf70","pricing_plan_id":"free"},{"bike_id":"58f09646-198a-4784-9b3b-ea4659d37cf6","system_id":"levelo_inurba_marseille","lat":43.267966,"lon":5.393976,"is_reserved":false,"is_disabled":false,"rental_uris":{"android":"levelo://app?vid=58f09646-198a-4784-9b3b-ea4659d37cf6","ios":"levelo://app?vid=58f09646-198a-4784-9b3b-ea4659d37cf6"},"vehicle_type_id":"4","last_reported":1700996699,"current_range_meters":28400,"station_id":"ce4bhh12rcd13ifvqfg0","pricing_plan_id":"free"},{"bike_id":"a3f89d76-8a6a-4496-a898-4607c6b46081","system_id":"levelo_inurba_marseille","lat":43.267966,"lon":5.393976,"is_reserved":false,"is_disabled":false,"rental_uris":{"android":"levelo://app?vid=a3f89d76-8a6a-4496-a898-4607c6b46081","ios":"levelo://app?vid=a3f89d76-8a6a-4496-a898-4607c6b46081"},"vehicle_type_id":"4","last_reported":1700996699,"current_range_meters":30800,"station_id":"ce4bhh12rcd13ifvqfg0","pricing_plan_id":"free"},{"bike_id":"9d15ea33-7ba0-4268-9f62-c24352901392","system_id":"levelo_inurba_marseille","lat":43.265714,"lon":5.372891,"is_reserved":false,"is_disabled":false,"rental_uris":{"android":"levelo://app?vid=9d15ea33-7ba0-4268-9f62-c24352901392","ios":"levelo://app?vid=9d15ea33-7ba0-4268-9f62-c24352901392"},"vehicle_type_id":"4","last_reported":1700996699,"current_range_meters":15200,"station_id":"ce4bhg12rcd13ifvqf70","pricing_plan_id":"free"},{"bike_id":"2969734d-4a21-4d10-9c5c-9658583eeeef","system_id":"levelo_inurba_marseille","lat":43.267966,"lon":5.393976,"is_reserved":false,"is_disabled":false,"rental_uris":{"android":"levelo://app?vid=2969734d-4a21-4d10-9c5c-9658583eeeef","ios":"levelo://app?vid=2969734d-4a21-4d10-9c5c-9658583eeeef"},"vehicle_type_id":"4","last_reported":1700996699,"current_range_meters":26000,"station_id":"ce4bhh12rcd13ifvqfg0","pricing_plan_id":"free"},{"bike_id":"9c393612-da21-4519-81fd-03f3b5810a56","system_id":"levelo_inurba_marseille","lat":43.267966,"lon":5.393976,"is_reserved":false,"is_disabled":false,"rental_uris":{"android":"levelo://app?vid=9c393612-da21-4519-81fd-03f3b5810a56","ios":"levelo://app?vid=9c393612-da21-4519-81fd-03f3b5810a56"},"vehicle_type_id":"4","last_reported":1700996699,"current_range_meters":12000,"station_id":"ce4bhh12rcd13ifvqfg0","pricing_plan_id":"free"},{"bike_id":"2b5f0b27-ae58-4e9e-bd76-c585f78e8a73","system_id":"levelo_inurba_marseille","lat":43.26386,"lon":5.37454,"is_reserved":false,"is_disabled":false,"rental_uris":{"android":"levelo://app?vid=2b5f0b27-ae58-4e9e-bd76-c585f78e8a73","ios":"levelo://app?vid=2b5f0b27-ae58-4e9e-bd76-c585f78e8a73"},"vehicle_type_id":"4","last_reported":1700996699,"current_range_meters":7200,"station_id":"","pricing_plan_id":"free"},{"bike_id":"9ae2cda8-ba30-4f57-9aaa-5721cc4b2b5a","system_id":"levelo_inurba_marseille","lat":43.308051,"lon":5.43527,"is_reserved":false,"is_disabled":false,"rental_uris":{"android":"levelo://app?vid=9ae2cda8-ba30-4f57-9aaa-5721cc4b2b5a","ios":"levelo://app?vid=9ae2cda8-ba30-4f57-9aaa-5721cc4b2b5a"},"vehicle_type_id":"4","last_reported":1700996699,"current_range_meters":31200,"station_id":"ce4bhph2rcd13ifvqheg","pricing_plan_id":"free"},{"bike_id":"e6ae5fa6-9435-4ad0-836c-d6e0a81870ce","system_id":"levelo_inurba_marseille","lat":43.317104,"lon":5.436818,"is_reserved":false,"is_disabled":false,"rental_uris":{"android":"levelo://app?vid=e6ae5fa6-9435-4ad0-836c-d6e0a81870ce","ios":"levelo://app?vid=e6ae5fa6-9435-4ad0-836c-d6e0a81870ce"},"vehicle_type_id":"4","last_reported":1700996699,"current_range_meters":22400,"station_id":"ce4bhp92rcd13ifvqhcg","pricing_plan_id":"free"},{"bike_id":"770c01ec-945c-44d7-972a-cd512dd5b9a5","system_id":"levelo_inurba_marseille","lat":43.317104,"lon":5.436818,"is_reserved":false,"is_disabled":false,"rental_uris":{"android":"levelo://app?vid=770c01ec-945c-44d7-972a-cd512dd5b9a5","ios":"levelo://app?vid=770c01ec-945c-44d7-972a-cd512dd5b9a5"},"vehicle_type_id":"4","last_reported":1700996699,"current_range_meters":18400,"station_id":"ce4bhp92rcd13ifvqhcg","pricing_plan_id":"free"},{"bike_id":"ec593df7-85d2-4a7c-a892-75fec147bf75","system_id":"levelo_inurba_marseille","lat":43.317104,"lon":5.436818,"is_reserved":false,"is_disabled":false,"rental_uris":{"android":"levelo://app?vid=ec593df7-85d2-4a7c-a892-75fec147bf75","ios":"levelo://app?vid=ec593df7-85d2-4a7c-a892-75fec147bf75"},"vehicle_type_id":"4","last_reported":1700996699,"current_range_meters":31600,"station_id":"ce4bhp92rcd13ifvqhcg","pricing_plan_id":"free"},{"bike_id":"34e9d94a-a716-4b0c-93f4-cd00b136e1d7","system_id":"levelo_inurba_marseille","lat":43.317104,"lon":5.436818,"is_reserved":false,"is_disabled":false,"rental_uris":{"android":"levelo://app?vid=34e9d94a-a716-4b0c-93f4-cd00b136e1d7","ios":"levelo://app?vid=34e9d94a-a716-4b0c-93f4-cd00b136e1d7"},"vehicle_type_id":"4","last_reported":1700996699,"current_range_meters":0,"station_id":"ce4bhp92rcd13ifvqhcg","pricing_plan_id":"free"},{"bike_id":"4266c345-bc2c-48f0-9a59-75c6a9a927d1","system_id":"levelo_inurba_marseille","lat":43.231919,"lon":5.355532,"is_reserved":false,"is_disabled":false,"rental_uris":{"android":"levelo://app?vid=4266c345-bc2c-48f0-9a59-75c6a9a927d1","ios":"levelo://app?vid=4266c345-bc2c-48f0-9a59-75c6a9a927d1"},"vehicle_type_id":"4","last_reported":1700996699,"current_range_meters":21600,"station_id":"ce4bhu92rcd13ifvqi70","pricing_plan_id":"free"},{"bike_id":"69c23016-61c2-4c94-9138-5d76dcb062ac","system_id":"levelo_inurba_marseille","lat":43.262012,"lon":5.379307,"is_reserved":false,"is_disabled":false,"rental_uris":{"android":"levelo://app?vid=69c23016-61c2-4c94-9138-5d76dcb062ac","ios":"levelo://app?vid=69c23016-61c2-4c94-9138-5d76dcb062ac"},"vehicle_type_id":"4","last_reported":1700996699,"current_range_meters":26000,"station_id":"ce4bhjp2rcd13ifvqg90","pricing_plan_id":"free"},{"bike_id":"168519a5-1052-47ea-a7cb-3924cbbe4eda","system_id":"levelo_inurba_marseille","lat":43.271388,"lon":5.409269,"is_reserved":false,"is_disabled":false,"rental_uris":{"android":"levelo://app?vid=168519a5-1052-47ea-a7cb-3924cbbe4eda","ios":"levelo://app?vid=168519a5-1052-47ea-a7cb-3924cbbe4eda"},"vehicle_type_id":"4","last_reported":1700996699,"current_range_meters":28800,"station_id":"ce4bhl12rcd13ifvqgf0","pricing_plan_id":"free"},{"bike_id":"0eecf458-15df-4bcb-a8d0-13de4180fe28","system_id":"levelo_inurba_marseille","lat":43.262012,"lon":5.379307,"is_reserved":false,"is_disabled":false,"rental_uris":{"android":"levelo://app?vid=0eecf458-15df-4bcb-a8d0-13de4180fe28","ios":"levelo://app?vid=0eecf458-15df-4bcb-a8d0-13de4180fe28"},"vehicle_type_id":"4","last_reported":1700996699,"current_range_meters":3600,"station_id":"ce4bhjp2rcd13ifvqg90","pricing_plan_id":"free"},{"bike_id":"9e593d08-8c96-44ca-b16e-7bf16e9cac2f","system_id":"levelo_inurba_marseille","lat":43.271368,"lon":5.40928,"is_reserved":false,"is_disabled":false,"rental_uris":{"android":"levelo://app?vid=9e593d08-8c96-44ca-b16e-7bf16e9cac2f","ios":"levelo://app?vid=9e593d08-8c96-44ca-b16e-7bf16e9cac2f"},"vehicle_type_id":"4","last_reported":1700996699,"current_range_meters":31600,"station_id":"ce4bhl12rcd13ifvqgf0","pricing_plan_id":"free"},{"bike_id":"18f6538e-ace0-449c-9add-ff9f568fd93b","system_id":"levelo_inurba_marseille","lat":43.26202,"lon":5.379299,"is_reserved":false,"is_disabled":false,"rental_uris":{"android":"levelo://app?vid=18f6538e-ace0-449c-9add-ff9f568fd93b","ios":"levelo://app?vid=18f6538e-ace0-449c-9add-ff9f568fd93b"},"vehicle_type_id":"4","last_reported":1700996699,"current_range_meters":31600,"station_id":"ce4bhjp2rcd13ifvqg90","pricing_plan_id":"free"},{"bike_id":"c4f2e3e2-5a8f-470e-966e-fa981e909f6d","system_id":"levelo_inurba_marseille","lat":43.26202,"lon":5.379299,"is_reserved":false,"is_disabled":false,"rental_uris":{"android":"levelo://app?vid=c4f2e3e2-5a8f-470e-966e-fa981e909f6d","ios":"levelo://app?vid=c4f2e3e2-5a8f-470e-966e-fa981e909f6d"},"vehicle_type_id":"4","last_reported":1700996699,"current_range_meters":14800,"station_id":"ce4bhjp2rcd13ifvqg90","pricing_plan_id":"free"},{"bike_id":"5e7f83c2-f638-4366-84e6-1619ce2567b7","system_id":"levelo_inurba_marseille","lat":43.26202,"lon":5.379299,"is_reserved":false,"is_disabled":false,"rental_uris":{"android":"levelo://app?vid=5e7f83c2-f638-4366-84e6-1619ce2567b7","ios":"levelo://app?vid=5e7f83c2-f638-4366-84e6-1619ce2567b7"},"vehicle_type_id":"4","last_reported":1700996699,"current_range_meters":23200,"station_id":"ce4bhjp2rcd13ifvqg90","pricing_plan_id":"free"},{"bike_id":"dbf62bfb-d43b-46dc-b301-0e9e00d707fe","system_id":"levelo_inurba_marseille","lat":43.261779,"lon":5.379015,"is_reserved":false,"is_disabled":false,"rental_uris":{"android":"levelo://app?vid=dbf62bfb-d43b-46dc-b301-0e9e00d707fe","ios":"levelo://app?vid=dbf62bfb-d43b-46dc-b301-0e9e00d707fe"},"vehicle_type_id":"4","last_reported":1700996699,"current_range_meters":24800,"station_id":"ce4bhjp2rcd13ifvqg90","pricing_plan_id":"free"},{"bike_id":"7c5a83ac-336c-4b91-a5ea-82b3c6d6127d","system_id":"levelo_inurba_marseille","lat":43.298768,"lon":5.43643,"is_reserved":false,"is_disabled":false,"rental_uris":{"android":"levelo://app?vid=7c5a83ac-336c-4b91-a5ea-82b3c6d6127d","ios":"levelo://app?vid=7c5a83ac-336c-4b91-a5ea-82b3c6d6127d"},"vehicle_type_id":"4","last_reported":1700996699,"current_range_meters":31200,"station_id":"ce4bhpp2rcd13ifvqhfg","pricing_plan_id":"free"},{"bike_id":"d24921c1-8c61-4b91-941a-2e11a6ed2b73","system_id":"levelo_inurba_marseille","lat":43.29893,"lon":5.43665,"is_reserved":false,"is_disabled":false,"rental_uris":{"android":"levelo://app?vid=d24921c1-8c61-4b91-941a-2e11a6ed2b73","ios":"levelo://app?vid=d24921c1-8c61-4b91-941a-2e11a6ed2b73"},"vehicle_type_id":"4","last_reported":1700996699,"current_range_meters":29600,"station_id":"ce4bhpp2rcd13ifvqhfg","pricing_plan_id":"free"},{"bike_id":"8af0d2ed-93d1-485d-9803-40c71e52d0d9","system_id":"levelo_inurba_marseille","lat":43.29901,"lon":5.43673,"is_reserved":false,"is_disabled":false,"rental_uris":{"android":"levelo://app?vid=8af0d2ed-93d1-485d-9803-40c71e52d0d9","ios":"levelo://app?vid=8af0d2ed-93d1-485d-9803-40c71e52d0d9"},"vehicle_type_id":"4","last_reported":1700996699,"current_range_meters":8800,"station_id":"ce4bhpp2rcd13ifvqhfg","pricing_plan_id":"free"},{"bike_id":"f4f2e1d5-dafa-412d-9b3a-3611814786ce","system_id":"levelo_inurba_marseille","lat":43.298768,"lon":5.43643,"is_reserved":false,"is_disabled":false,"rental_uris":{"android":"levelo://app?vid=f4f2e1d5-dafa-412d-9b3a-3611814786ce","ios":"levelo://app?vid=f4f2e1d5-dafa-412d-9b3a-3611814786ce"},"vehicle_type_id":"4","last_reported":1700996699,"current_range_meters":31200,"station_id":"ce4bhpp2rcd13ifvqhfg","pricing_plan_id":"free"},{"bike_id":"2628fb3a-9b3a-4836-8cca-8b1625de82d4","system_id":"levelo_inurba_marseille","lat":43.28153,"lon":5.42631,"is_reserved":false,"is_disabled":false,"rental_uris":{"android":"levelo://app?vid=2628fb3a-9b3a-4836-8cca-8b1625de82d4","ios":"levelo://app?vid=2628fb3a-9b3a-4836-8cca-8b1625de82d4"},"vehicle_type_id":"4","last_reported":1700996699,"current_range_meters":12400,"station_id":"ce4bhnh2rcd13ifvqgug","pricing_plan_id":"free"},{"bike_id":"842dcf66-28c7-40dc-af0b-7a3c6c857991","system_id":"levelo_inurba_marseille","lat":43.28154,"lon":5.42636,"is_reserved":false,"is_disabled":false,"rental_uris":{"android":"levelo://app?vid=842dcf66-28c7-40dc-af0b-7a3c6c857991","ios":"levelo://app?vid=842dcf66-28c7-40dc-af0b-7a3c6c857991"},"vehicle_type_id":"4","last_reported":1700996699,"current_range_meters":26000,"station_id":"ce4bhnh2rcd13ifvqgug","pricing_plan_id":"free"},{"bike_id":"f68ee4f6-e3d9-4c3c-8264-f88965d8ef31","system_id":"levelo_inurba_marseille","lat":43.28154,"lon":5.42638,"is_reserved":false,"is_disabled":false,"rental_uris":{"android":"levelo://app?vid=f68ee4f6-e3d9-4c3c-8264-f88965d8ef31","ios":"levelo://app?vid=f68ee4f6-e3d9-4c3c-8264-f88965d8ef31"},"vehicle_type_id":"4","last_reported":1700996699,"current_range_meters":11600,"station_id":"ce4bhnh2rcd13ifvqgug","pricing_plan_id":"free"},{"bike_id":"1c8d74f7-5570-450a-a3f0-692cd9a40004","system_id":"levelo_inurba_marseille","lat":43.281548,"lon":5.42643,"is_reserved":false,"is_disabled":false,"rental_uris":{"android":"levelo://app?vid=1c8d74f7-5570-450a-a3f0-692cd9a40004","ios":"levelo://app?vid=1c8d74f7-5570-450a-a3f0-692cd9a40004"},"vehicle_type_id":"4","last_reported":1700996699,"current_range_meters":30800,"station_id":"ce4bhnh2rcd13ifvqgug","pricing_plan_id":"free"},{"bike_id":"c87cdef8-d70c-463e-88fd-987162c81837","system_id":"levelo_inurba_marseille","lat":43.281498,"lon":5.42636,"is_reserved":false,"is_disabled":false,"rental_uris":{"android":"levelo://app?vid=c87cdef8-d70c-463e-88fd-987162c81837","ios":"levelo://app?vid=c87cdef8-d70c-463e-88fd-987162c81837"},"vehicle_type_id":"4","last_reported":1700996699,"current_range_meters":16000,"station_id":"ce4bhnh2rcd13ifvqgug","pricing_plan_id":"free"},{"bike_id":"dc0c3350-5dd6-44a3-9302-c3102229fc54","system_id":"levelo_inurba_marseille","lat":43.281548,"lon":5.42643,"is_reserved":false,"is_disabled":false,"rental_uris":{"android":"levelo://app?vid=dc0c3350-5dd6-44a3-9302-c3102229fc54","ios":"levelo://app?vid=dc0c3350-5dd6-44a3-9302-c3102229fc54"},"vehicle_type_id":"4","last_reported":1700996699,"current_range_meters":26800,"station_id":"ce4bhnh2rcd13ifvqgug","pricing_plan_id":"free"},{"bike_id":"91b404f7-dd69-4e65-9cf1-9f90fef0012e","system_id":"levelo_inurba_marseille","lat":43.281521,"lon":5.426412,"is_reserved":false,"is_disabled":false,"rental_uris":{"android":"levelo://app?vid=91b404f7-dd69-4e65-9cf1-9f90fef0012e","ios":"levelo://app?vid=91b404f7-dd69-4e65-9cf1-9f90fef0012e"},"vehicle_type_id":"4","last_reported":1700996699,"current_range_meters":29200,"station_id":"ce4bhnh2rcd13ifvqgug","pricing_plan_id":"free"},{"bike_id":"5a536cda-8697-449a-9b4d-bb9bb1c9eb96","system_id":"levelo_inurba_marseille","lat":43.2607,"lon":5.393983,"is_reserved":false,"is_disabled":false,"rental_uris":{"android":"levelo://app?vid=5a536cda-8697-449a-9b4d-bb9bb1c9eb96","ios":"levelo://app?vid=5a536cda-8697-449a-9b4d-bb9bb1c9eb96"},"vehicle_type_id":"4","last_reported":1700996699,"current_range_meters":19600,"station_id":"ce4bhh92rcd13ifvqfj0","pricing_plan_id":"free"},{"bike_id":"aa4b30d9-2887-4603-b883-346c4ff549e8","system_id":"levelo_inurba_marseille","lat":43.26058,"lon":5.394,"is_reserved":false,"is_disabled":false,"rental_uris":{"android":"levelo://app?vid=aa4b30d9-2887-4603-b883-346c4ff549e8","ios":"levelo://app?vid=aa4b30d9-2887-4603-b883-346c4ff549e8"},"vehicle_type_id":"4","last_reported":1700996699,"current_range_meters":25600,"station_id":"ce4bhh92rcd13ifvqfj0","pricing_plan_id":"free"},{"bike_id":"25f53fe9-442d-4a6b-bff7-b174c2430662","system_id":"levelo_inurba_marseille","lat":43.2607,"lon":5.393983,"is_reserved":false,"is_disabled":false,"rental_uris":{"android":"levelo://app?vid=25f53fe9-442d-4a6b-bff7-b174c2430662","ios":"levelo://app?vid=25f53fe9-442d-4a6b-bff7-b174c2430662"},"vehicle_type_id":"4","last_reported":1700996699,"current_range_meters":30400,"station_id":"ce4bhh92rcd13ifvqfj0","pricing_plan_id":"free"},{"bike_id":"006f1478-b3a1-4c5b-bb58-6b7da0cc1461","system_id":"levelo_inurba_marseille","lat":43.26055,"lon":5.39394,"is_reserved":false,"is_disabled":false,"rental_uris":{"android":"levelo://app?vid=006f1478-b3a1-4c5b-bb58-6b7da0cc1461","ios":"levelo://app?vid=006f1478-b3a1-4c5b-bb58-6b7da0cc1461"},"vehicle_type_id":"4","last_reported":1700996699,"current_range_meters":21600,"station_id":"ce4bhh92rcd13ifvqfj0","pricing_plan_id":"free"},{"bike_id":"c1adb875-0c34-4f35-aefb-e41572323da8","system_id":"levelo_inurba_marseille","lat":43.260878,"lon":5.397575,"is_reserved":false,"is_disabled":false,"rental_uris":{"android":"levelo://app?vid=c1adb875-0c34-4f35-aefb-e41572323da8","ios":"levelo://app?vid=c1adb875-0c34-4f35-aefb-e41572323da8"},"vehicle_type_id":"4","last_reported":1700996699,"current_range_meters":18400,"station_id":"ce4bhi12rcd13ifvqfq0","pricing_plan_id":"free"},{"bike_id":"503bbd35-5565-42f7-9e59-5026d025b01e","system_id":"levelo_inurba_marseille","lat":43.275028,"lon":5.424534,"is_reserved":false,"is_disabled":false,"rental_uris":{"android":"levelo://app?vid=503bbd35-5565-42f7-9e59-5026d025b01e","ios":"levelo://app?vid=503bbd35-5565-42f7-9e59-5026d025b01e"},"vehicle_type_id":"4","last_reported":1700996699,"current_range_meters":27200,"station_id":"ce4bhn92rcd13ifvqgrg","pricing_plan_id":"free"},{"bike_id":"9ae83bda-b0aa-4bb6-8db1-9e8551b5d543","system_id":"levelo_inurba_marseille","lat":43.260909,"lon":5.397591,"is_reserved":false,"is_disabled":false,"rental_uris":{"android":"levelo://app?vid=9ae83bda-b0aa-4bb6-8db1-9e8551b5d543","ios":"levelo://app?vid=9ae83bda-b0aa-4bb6-8db1-9e8551b5d543"},"vehicle_type_id":"4","last_reported":1700996699,"current_range_meters":29200,"station_id":"ce4bhi12rcd13ifvqfq0","pricing_plan_id":"free"},{"bike_id":"c85f7616-3a9e-47a4-ae16-28a03e51ab4f","system_id":"levelo_inurba_marseille","lat":43.28929,"lon":5.438754,"is_reserved":false,"is_disabled":false,"rental_uris":{"android":"levelo://app?vid=c85f7616-3a9e-47a4-ae16-28a03e51ab4f","ios":"levelo://app?vid=c85f7616-3a9e-47a4-ae16-28a03e51ab4f"},"vehicle_type_id":"4","last_reported":1700996699,"current_range_meters":9200,"station_id":"","pricing_plan_id":"free"},{"bike_id":"2815230e-bf9b-400c-be93-737a58174572","system_id":"levelo_inurba_marseille","lat":43.258315,"lon":5.394258,"is_reserved":false,"is_disabled":false,"rental_uris":{"android":"levelo://app?vid=2815230e-bf9b-400c-be93-737a58174572","ios":"levelo://app?vid=2815230e-bf9b-400c-be93-737a58174572"},"vehicle_type_id":"4","last_reported":1700996699,"current_range_meters":27200,"station_id":"ce4bhip2rcd13ifvqft0","pricing_plan_id":"free"},{"bike_id":"50212635-4160-4083-b7f4-667edaba123a","system_id":"levelo_inurba_marseille","lat":43.2583,"lon":5.3943,"is_reserved":false,"is_disabled":false,"rental_uris":{"android":"levelo://app?vid=50212635-4160-4083-b7f4-667edaba123a","ios":"levelo://app?vid=50212635-4160-4083-b7f4-667edaba123a"},"vehicle_type_id":"4","last_reported":1700996699,"current_range_meters":10800,"station_id":"ce4bhip2rcd13ifvqft0","pricing_plan_id":"free"},{"bike_id":"cc686c65-7b5e-46ec-ba12-69b28869e277","system_id":"levelo_inurba_marseille","lat":43.25585,"lon":5.38228,"is_reserved":false,"is_disabled":false,"rental_uris":{"android":"levelo://app?vid=cc686c65-7b5e-46ec-ba12-69b28869e277","ios":"levelo://app?vid=cc686c65-7b5e-46ec-ba12-69b28869e277"},"vehicle_type_id":"4","last_reported":1700996699,"current_range_meters":25200,"station_id":"ce4bhih2rcd13ifvqfs0","pricing_plan_id":"free"},{"bike_id":"c32181e7-cd0d-465e-9bc3-b5345e6a44e9","system_id":"levelo_inurba_marseille","lat":43.25586,"lon":5.38238,"is_reserved":false,"is_disabled":false,"rental_uris":{"android":"levelo://app?vid=c32181e7-cd0d-465e-9bc3-b5345e6a44e9","ios":"levelo://app?vid=c32181e7-cd0d-465e-9bc3-b5345e6a44e9"},"vehicle_type_id":"4","last_reported":1700996699,"current_range_meters":14400,"station_id":"ce4bhih2rcd13ifvqfs0","pricing_plan_id":"free"},{"bike_id":"3fd3c5a3-cb38-4c28-8b35-b565acf956f4","system_id":"levelo_inurba_marseille","lat":43.25584,"lon":5.38236,"is_reserved":false,"is_disabled":false,"rental_uris":{"android":"levelo://app?vid=3fd3c5a3-cb38-4c28-8b35-b565acf956f4","ios":"levelo://app?vid=3fd3c5a3-cb38-4c28-8b35-b565acf956f4"},"vehicle_type_id":"4","last_reported":1700996699,"current_range_meters":26400,"station_id":"ce4bhih2rcd13ifvqfs0","pricing_plan_id":"free"},{"bike_id":"53ae05c5-1664-4ddb-ae58-547f63e25710","system_id":"levelo_inurba_marseille","lat":43.25826,"lon":5.3943,"is_reserved":false,"is_disabled":false,"rental_uris":{"android":"levelo://app?vid=53ae05c5-1664-4ddb-ae58-547f63e25710","ios":"levelo://app?vid=53ae05c5-1664-4ddb-ae58-547f63e25710"},"vehicle_type_id":"4","last_reported":1700996699,"current_range_meters":27200,"station_id":"ce4bhip2rcd13ifvqft0","pricing_plan_id":"free"},{"bike_id":"56655657-f3ea-43f5-aaa7-b1dc90cfc208","system_id":"levelo_inurba_marseille","lat":43.25502,"lon":5.37651,"is_reserved":false,"is_disabled":false,"rental_uris":{"android":"levelo://app?vid=56655657-f3ea-43f5-aaa7-b1dc90cfc208","ios":"levelo://app?vid=56655657-f3ea-43f5-aaa7-b1dc90cfc208"},"vehicle_type_id":"4","last_reported":1700996699,"current_range_meters":22400,"station_id":"ce4bhh12rcd13ifvqff0","pricing_plan_id":"free"},{"bike_id":"66c4c4bb-d029-41d1-b91a-0c0922bc45c0","system_id":"levelo_inurba_marseille","lat":43.254947,"lon":5.376454,"is_reserved":false,"is_disabled":false,"rental_uris":{"android":"levelo://app?vid=66c4c4bb-d029-41d1-b91a-0c0922bc45c0","ios":"levelo://app?vid=66c4c4bb-d029-41d1-b91a-0c0922bc45c0"},"vehicle_type_id":"4","last_reported":1700996699,"current_range_meters":22400,"station_id":"ce4bhh12rcd13ifvqff0","pricing_plan_id":"free"},{"bike_id":"1a67e33d-612b-495d-99e2-394a4f2f32f3","system_id":"levelo_inurba_marseille","lat":43.25494,"lon":5.37652,"is_reserved":false,"is_disabled":false,"rental_uris":{"android":"levelo://app?vid=1a67e33d-612b-495d-99e2-394a4f2f32f3","ios":"levelo://app?vid=1a67e33d-612b-495d-99e2-394a4f2f32f3"},"vehicle_type_id":"4","last_reported":1700996699,"current_range_meters":22800,"station_id":"ce4bhh12rcd13ifvqff0","pricing_plan_id":"free"},{"bike_id":"5e4358a6-9fee-4f7e-9d89-a4bfe129b7f4","system_id":"levelo_inurba_marseille","lat":43.254947,"lon":5.376454,"is_reserved":false,"is_disabled":false,"rental_uris":{"android":"levelo://app?vid=5e4358a6-9fee-4f7e-9d89-a4bfe129b7f4","ios":"levelo://app?vid=5e4358a6-9fee-4f7e-9d89-a4bfe129b7f4"},"vehicle_type_id":"4","last_reported":1700996699,"current_range_meters":31600,"station_id":"ce4bhh12rcd13ifvqff0","pricing_plan_id":"free"},{"bike_id":"3533a6b9-c640-434b-b433-4e41e36be1b7","system_id":"levelo_inurba_marseille","lat":43.270721,"lon":5.422764,"is_reserved":false,"is_disabled":false,"rental_uris":{"android":"levelo://app?vid=3533a6b9-c640-434b-b433-4e41e36be1b7","ios":"levelo://app?vid=3533a6b9-c640-434b-b433-4e41e36be1b7"},"vehicle_type_id":"4","last_reported":1700996699,"current_range_meters":31200,"station_id":"ce4bhk92rcd13ifvqgb0","pricing_plan_id":"free"},{"bike_id":"fa94e1b3-924d-484c-aa3a-070aacbdbbfd","system_id":"levelo_inurba_marseille","lat":43.270675,"lon":5.422729,"is_reserved":false,"is_disabled":false,"rental_uris":{"android":"levelo://app?vid=fa94e1b3-924d-484c-aa3a-070aacbdbbfd","ios":"levelo://app?vid=fa94e1b3-924d-484c-aa3a-070aacbdbbfd"},"vehicle_type_id":"4","last_reported":1700996699,"current_range_meters":29600,"station_id":"ce4bhk92rcd13ifvqgb0","pricing_plan_id":"free"},{"bike_id":"052bfd08-e7dd-4dd2-b76f-0c8604502707","system_id":"levelo_inurba_marseille","lat":43.270721,"lon":5.422764,"is_reserved":false,"is_disabled":false,"rental_uris":{"android":"levelo://app?vid=052bfd08-e7dd-4dd2-b76f-0c8604502707","ios":"levelo://app?vid=052bfd08-e7dd-4dd2-b76f-0c8604502707"},"vehicle_type_id":"4","last_reported":1700996699,"current_range_meters":24800,"station_id":"ce4bhk92rcd13ifvqgb0","pricing_plan_id":"free"},{"bike_id":"e06a8c78-4d48-491c-8072-84514714cbe8","system_id":"levelo_inurba_marseille","lat":43.270721,"lon":5.422764,"is_reserved":false,"is_disabled":false,"rental_uris":{"android":"levelo://app?vid=e06a8c78-4d48-491c-8072-84514714cbe8","ios":"levelo://app?vid=e06a8c78-4d48-491c-8072-84514714cbe8"},"vehicle_type_id":"4","last_reported":1700996699,"current_range_meters":31200,"station_id":"ce4bhk92rcd13ifvqgb0","pricing_plan_id":"free"},{"bike_id":"3764d48b-8e61-4222-bf2f-e0a7f6536aa8","system_id":"levelo_inurba_marseille","lat":43.27064,"lon":5.42274,"is_reserved":false,"is_disabled":false,"rental_uris":{"android":"levelo://app?vid=3764d48b-8e61-4222-bf2f-e0a7f6536aa8","ios":"levelo://app?vid=3764d48b-8e61-4222-bf2f-e0a7f6536aa8"},"vehicle_type_id":"4","last_reported":1700996699,"current_range_meters":30400,"station_id":"ce4bhk92rcd13ifvqgb0","pricing_plan_id":"free"},{"bike_id":"c683c13a-a9fe-443b-a860-642c2b85e5b7","system_id":"levelo_inurba_marseille","lat":43.27069,"lon":5.42282,"is_reserved":false,"is_disabled":false,"rental_uris":{"android":"levelo://app?vid=c683c13a-a9fe-443b-a860-642c2b85e5b7","ios":"levelo://app?vid=c683c13a-a9fe-443b-a860-642c2b85e5b7"},"vehicle_type_id":"4","last_reported":1700996699,"current_range_meters":11200,"station_id":"ce4bhk92rcd13ifvqgb0","pricing_plan_id":"free"},{"bike_id":"428d60de-228f-4777-b950-10e56fd61025","system_id":"levelo_inurba_marseille","lat":43.259009,"lon":5.40929,"is_reserved":false,"is_disabled":false,"rental_uris":{"android":"levelo://app?vid=428d60de-228f-4777-b950-10e56fd61025","ios":"levelo://app?vid=428d60de-228f-4777-b950-10e56fd61025"},"vehicle_type_id":"4","last_reported":1700996699,"current_range_meters":24000,"station_id":"ce4bhm92rcd13ifvqglg","pricing_plan_id":"free"},{"bike_id":"0b8e004f-c033-4d03-aaed-ee97b6faae0d","system_id":"levelo_inurba_marseille","lat":43.259292,"lon":5.409073,"is_reserved":false,"is_disabled":false,"rental_uris":{"android":"levelo://app?vid=0b8e004f-c033-4d03-aaed-ee97b6faae0d","ios":"levelo://app?vid=0b8e004f-c033-4d03-aaed-ee97b6faae0d"},"vehicle_type_id":"4","last_reported":1700996699,"current_range_meters":20400,"station_id":"ce4bhm92rcd13ifvqglg","pricing_plan_id":"free"},{"bike_id":"22a366ac-5382-4e2c-9fc6-96ed97199718","system_id":"levelo_inurba_marseille","lat":43.25929,"lon":5.4091,"is_reserved":false,"is_disabled":false,"rental_uris":{"android":"levelo://app?vid=22a366ac-5382-4e2c-9fc6-96ed97199718","ios":"levelo://app?vid=22a366ac-5382-4e2c-9fc6-96ed97199718"},"vehicle_type_id":"4","last_reported":1700996699,"current_range_meters":23600,"station_id":"ce4bhm92rcd13ifvqglg","pricing_plan_id":"free"},{"bike_id":"e9b6a1d5-c740-405d-a6f8-282eec5a3660","system_id":"levelo_inurba_marseille","lat":43.25729,"lon":5.41106,"is_reserved":false,"is_disabled":false,"rental_uris":{"android":"levelo://app?vid=e9b6a1d5-c740-405d-a6f8-282eec5a3660","ios":"levelo://app?vid=e9b6a1d5-c740-405d-a6f8-282eec5a3660"},"vehicle_type_id":"4","last_reported":1700996699,"current_range_meters":16400,"station_id":"ce4bhkp2rcd13ifvqgd0","pricing_plan_id":"free"},{"bike_id":"01508755-878a-4406-ba67-87a768ace4a2","system_id":"levelo_inurba_marseille","lat":43.250009,"lon":5.389195,"is_reserved":false,"is_disabled":false,"rental_uris":{"android":"levelo://app?vid=01508755-878a-4406-ba67-87a768ace4a2","ios":"levelo://app?vid=01508755-878a-4406-ba67-87a768ace4a2"},"vehicle_type_id":"4","last_reported":1700996699,"current_range_meters":28400,"station_id":"ce4bhgp2rcd13ifvqfd0","pricing_plan_id":"free"},{"bike_id":"e73fedd1-2514-4584-8cb7-4f60c55dd8f3","system_id":"levelo_inurba_marseille","lat":43.250966,"lon":5.395186,"is_reserved":false,"is_disabled":false,"rental_uris":{"android":"levelo://app?vid=e73fedd1-2514-4584-8cb7-4f60c55dd8f3","ios":"levelo://app?vid=e73fedd1-2514-4584-8cb7-4f60c55dd8f3"},"vehicle_type_id":"4","last_reported":1700996699,"current_range_meters":3200,"station_id":"ce4bhm12rcd13ifvqgkg","pricing_plan_id":"free"},{"bike_id":"da1a1488-178a-466f-8822-df431ae0e100","system_id":"levelo_inurba_marseille","lat":43.250023,"lon":5.38919,"is_reserved":false,"is_disabled":false,"rental_uris":{"android":"levelo://app?vid=da1a1488-178a-466f-8822-df431ae0e100","ios":"levelo://app?vid=da1a1488-178a-466f-8822-df431ae0e100"},"vehicle_type_id":"4","last_reported":1700996699,"current_range_meters":26800,"station_id":"ce4bhgp2rcd13ifvqfd0","pricing_plan_id":"free"},{"bike_id":"a5ec340a-bbad-4124-86f9-d9c0c4d21e8e","system_id":"levelo_inurba_marseille","lat":43.250023,"lon":5.38919,"is_reserved":false,"is_disabled":false,"rental_uris":{"android":"levelo://app?vid=a5ec340a-bbad-4124-86f9-d9c0c4d21e8e","ios":"levelo://app?vid=a5ec340a-bbad-4124-86f9-d9c0c4d21e8e"},"vehicle_type_id":"4","last_reported":1700996699,"current_range_meters":28400,"station_id":"ce4bhgp2rcd13ifvqfd0","pricing_plan_id":"free"},{"bike_id":"544a8121-6b34-43e7-9cf4-f2488b325f73","system_id":"levelo_inurba_marseille","lat":43.250023,"lon":5.38919,"is_reserved":false,"is_disabled":false,"rental_uris":{"android":"levelo://app?vid=544a8121-6b34-43e7-9cf4-f2488b325f73","ios":"levelo://app?vid=544a8121-6b34-43e7-9cf4-f2488b325f73"},"vehicle_type_id":"4","last_reported":1700996699,"current_range_meters":31600,"station_id":"ce4bhgp2rcd13ifvqfd0","pricing_plan_id":"free"},{"bike_id":"4606ad6c-fa8b-4ebc-addb-ea92d3650051","system_id":"levelo_inurba_marseille","lat":43.250023,"lon":5.38919,"is_reserved":false,"is_disabled":false,"rental_uris":{"android":"levelo://app?vid=4606ad6c-fa8b-4ebc-addb-ea92d3650051","ios":"levelo://app?vid=4606ad6c-fa8b-4ebc-addb-ea92d3650051"},"vehicle_type_id":"4","last_reported":1700996699,"current_range_meters":29600,"station_id":"ce4bhgp2rcd13ifvqfd0","pricing_plan_id":"free"},{"bike_id":"2cc13e82-9873-463a-81ab-77c3b95b3a60","system_id":"levelo_inurba_marseille","lat":43.2479,"lon":5.374457,"is_reserved":false,"is_disabled":false,"rental_uris":{"android":"levelo://app?vid=2cc13e82-9873-463a-81ab-77c3b95b3a60","ios":"levelo://app?vid=2cc13e82-9873-463a-81ab-77c3b95b3a60"},"vehicle_type_id":"4","last_reported":1700996699,"current_range_meters":14800,"station_id":"ce4bhgh2rcd13ifvqfb0","pricing_plan_id":"free"},{"bike_id":"ee64a68d-ec0a-45ef-b788-e8ff76d70498","system_id":"levelo_inurba_marseille","lat":43.2479,"lon":5.374457,"is_reserved":false,"is_disabled":false,"rental_uris":{"android":"levelo://app?vid=ee64a68d-ec0a-45ef-b788-e8ff76d70498","ios":"levelo://app?vid=ee64a68d-ec0a-45ef-b788-e8ff76d70498"},"vehicle_type_id":"4","last_reported":1700996699,"current_range_meters":25200,"station_id":"ce4bhgh2rcd13ifvqfb0","pricing_plan_id":"free"},{"bike_id":"ee1f6926-abff-47c6-ab09-d15da4a1eecc","system_id":"levelo_inurba_marseille","lat":43.2479,"lon":5.374457,"is_reserved":false,"is_disabled":false,"rental_uris":{"android":"levelo://app?vid=ee1f6926-abff-47c6-ab09-d15da4a1eecc","ios":"levelo://app?vid=ee1f6926-abff-47c6-ab09-d15da4a1eecc"},"vehicle_type_id":"4","last_reported":1700996699,"current_range_meters":19600,"station_id":"ce4bhgh2rcd13ifvqfb0","pricing_plan_id":"free"},{"bike_id":"2e33ee9a-6702-4ea1-ab8c-bdf6be9beb75","system_id":"levelo_inurba_marseille","lat":43.2479,"lon":5.374457,"is_reserved":false,"is_disabled":false,"rental_uris":{"android":"levelo://app?vid=2e33ee9a-6702-4ea1-ab8c-bdf6be9beb75","ios":"levelo://app?vid=2e33ee9a-6702-4ea1-ab8c-bdf6be9beb75"},"vehicle_type_id":"4","last_reported":1700996699,"current_range_meters":23600,"station_id":"ce4bhgh2rcd13ifvqfb0","pricing_plan_id":"free"},{"bike_id":"169f7830-6e0c-4425-a16f-ed58cb50e706","system_id":"levelo_inurba_marseille","lat":43.2479,"lon":5.374457,"is_reserved":false,"is_disabled":false,"rental_uris":{"android":"levelo://app?vid=169f7830-6e0c-4425-a16f-ed58cb50e706","ios":"levelo://app?vid=169f7830-6e0c-4425-a16f-ed58cb50e706"},"vehicle_type_id":"4","last_reported":1700996699,"current_range_meters":18800,"station_id":"ce4bhgh2rcd13ifvqfb0","pricing_plan_id":"free"},{"bike_id":"80ea0125-127f-4081-818f-c34876a4d71c","system_id":"levelo_inurba_marseille","lat":43.2479,"lon":5.374457,"is_reserved":false,"is_disabled":false,"rental_uris":{"android":"levelo://app?vid=80ea0125-127f-4081-818f-c34876a4d71c","ios":"levelo://app?vid=80ea0125-127f-4081-818f-c34876a4d71c"},"vehicle_type_id":"4","last_reported":1700996699,"current_range_meters":24800,"station_id":"ce4bhgh2rcd13ifvqfb0","pricing_plan_id":"free"},