{"last_updated":1728295828,"ttl":60,"version":"2.2","data":{"bikes":[{"bike_id":"b8993a25-622c-4250-83ea-40d7b18a7329","system_id":"levelo_inurba_marseille","lat":43.29516,"lon":5.37506,"is_reserved":false,"is_disabled":false,"rental_uris":{"android":"levelo://app?vid=b8993a25-622c-4250-83ea-40d7b18a7329","ios":"levelo://app?vid=b8993a25-622c-4250-83ea-40d7b18a7329"},"vehicle_type_id":"4","last_reported":1728295828,"current_range_meters":21600,"station_id":"ce4bgkp2rcd13ifvqbmg","pricing_plan_id":"cebpf4jnsgd1na2vs0mg"},{"bike_id":"601e0a35-ef0a-4c9d-bad9-539b9b5f5dd5","system_id":"levelo_inurba_marseille","lat":43.23149,"lon":5.4372,"is_reserved":false,"is_disabled":false,"rental_uris":{"android":"levelo://app?vid=601e0a35-ef0a-4c9d-bad9-539b9b5f5dd5","ios":"levelo://app?vid=601e0a35-ef0a-4c9d-bad9-539b9b5f5dd5"},"vehicle_type_id":"4","last_reported":1728295828,"current_range_meters":24800,"station_id":"ce4bhmp2rcd13ifvqgog","pricing_plan_id":"cebpf4jnsgd1na2vs0mg"},{"bike_id":"9840128e-20cc-4d85-941b-d961e61c1c08","system_id":"levelo_inurba_marseille","lat":43.23127,"lon":5.43713,"is_reserved":false,"is_disabled":false,"rental_uris":{"android":"levelo://app?vid=9840128e-20cc-4d85-941b-d961e61c1c08","ios":"levelo://app?vid=9840128e-20cc-4d85-941b-d961e61c1c08"},"vehicle_type_id":"4","last_reported":1728295828,"current_range_meters":8000,"station_id":"ce4bhmp2rcd13ifvqgog","pricing_plan_id":"cebpf4jnsgd1na2vs0mg"},{"bike_id":"8a874caf-3db6-4bc3-b3d8-4f7a2a032123","system_id":"levelo_inurba_marseille","lat":43.2293,"lon":5.35371,"is_reserved":false,"is_disabled":false,"rental_uris":{"android":"levelo://app?vid=8a874caf-3db6-4bc3-b3d8-4f7a2a032123","ios":"levelo://app?vid=8a874caf-3db6-4bc3-b3d8-4f7a2a032123"},"vehicle_type_id":"4","last_reported":1728295828,"current_range_meters":38400,"station_id":"cpo3532slgdg3j2ikp40","pricing_plan_id":"cebpf4jnsgd1na2vs0mg"},{"bike_id":"bc1fb249-f4a0-4b02-ab8b-b9a828658584","system_id":"levelo_inurba_marseille","lat":43.29615,"lon":5.37716,"is_reserved":false,"is_disabled":false,"rental_uris":{"android":"levelo://app?vid=bc1fb249-f4a0-4b02-ab8b-b9a828658584","ios":"levelo://app?vid=bc1fb249-f4a0-4b02-ab8b-b9a828658584"},"vehicle_type_id":"4","last_reported":1728295828,"current_range_meters":28000,"station_id":"ce4bgi92rcd13ifvqb90","pricing_plan_id":"cebpf4jnsgd1na2vs0mg"},{"bike_id":"3edccbad-c604-40df-acb2-6e9d91b67298","system_id":"levelo_inurba_marseille","lat":43.23049,"lon":5.35491,"is_reserved":false,"is_disabled":false,"rental_uris":{"android":"levelo://app?vid=3edccbad-c604-40df-acb2-6e9d91b67298","ios":"levelo://app?vid=3edccbad-c604-40df-acb2-6e9d91b67298"},"vehicle_type_id":"4","last_reported":1728295828,"current_range_meters":22000,"station_id":"cpo3342slgdg3j2ifvpg","pricing_plan_id":"cebpf4jnsgd1na2vs0mg"},{"bike_id":"3cf85cd4-6632-4f44-b065-952d912b22ab","system_id":"levelo_inurba_marseille","lat":43.25821,"lon":5.39439,"is_reserved":false,"is_disabled":false,"rental_uris":{"android":"levelo://app?vid=3cf85cd4-6632-4f44-b065-952d912b22ab","ios":"levelo://app?vid=3cf85cd4-6632-4f44-b065-952d912b22ab"},"vehicle_type_id":"4","last_reported":1728295828,"current_range_meters":17600,"station_id":"ce4bhip2rcd13ifvqft0","pricing_plan_id":"cebpf4jnsgd1na2vs0mg"},{"bike_id":"bda68d96-f9d4-4c83-9289-79f4fb5f7c27","system_id":"levelo_inurba_marseille","lat":43.29002,"lon":5.35603,"is_reserved":false,"is_disabled":false,"rental_uris":{"android":"levelo://app?vid=bda68d96-f9d4-4c83-9289-79f4fb5f7c27","ios":"levelo://app?vid=bda68d96-f9d4-4c83-9289-79f4fb5f7c27"},"vehicle_type_id":"4","last_reported":1728295828,"current_range_meters":38800,"station_id":"ce4bhb92rcd13ifvqen0","pricing_plan_id":"cebpf4jnsgd1na2vs0mg"},{"bike_id":"9f45a398-e5bd-45c2-8f43-6b819887b993","system_id":"levelo_inurba_marseille","lat":43.3094,"lon":5.39038,"is_reserved":false,"is_disabled":false,"rental_uris":{"android":"levelo://app?vid=9f45a398-e5bd-45c2-8f43-6b819887b993","ios":"levelo://app?vid=9f45a398-e5bd-45c2-8f43-6b819887b993"},"vehicle_type_id":"4","last_reported":1728295828,"current_range_meters":18000,"station_id":"ce4bhjp2rcd13ifvqga0","pricing_plan_id":"cebpf4jnsgd1na2vs0mg"},{"bike_id":"87e2a629-e9f1-46e0-8b84-5cdd97334da3","system_id":"levelo_inurba_marseille","lat":43.337444,"lon":5.374475,"is_reserved":false,"is_disabled":false,"rental_uris":{"android":"levelo://app?vid=87e2a629-e9f1-46e0-8b84-5cdd97334da3","ios":"levelo://app?vid=87e2a629-e9f1-46e0-8b84-5cdd97334da3"},"vehicle_type_id":"4","last_reported":1728295828,"current_range_meters":12400,"station_id":"ce4bhp12rcd13ifvqh9g","pricing_plan_id":"cebpf4jnsgd1na2vs0mg"},{"bike_id":"3a6ea14f-fa67-4c29-a0ff-b1bb5abfd496","system_id":"levelo_inurba_marseille","lat":43.287018,"lon":5.39985,"is_reserved":false,"is_disabled":false,"rental_uris":{"android":"levelo://app?vid=3a6ea14f-fa67-4c29-a0ff-b1bb5abfd496","ios":"levelo://app?vid=3a6ea14f-fa67-4c29-a0ff-b1bb5abfd496"},"vehicle_type_id":"4","last_reported":1728295828,"current_range_meters":38000,"station_id":"ce4bhk92rcd13ifvqgb0","pricing_plan_id":"cebpf4jnsgd1na2vs0mg"},{"bike_id":"9b90015d-afd1-4ef9-a9ac-a8694f237c16","system_id":"levelo_inurba_marseille","lat":43.2315,"lon":5.43714,"is_reserved":false,"is_disabled":false,"rental_uris":{"android":"levelo://app?vid=9b90015d-afd1-4ef9-a9ac-a8694f237c16","ios":"levelo://app?vid=9b90015d-afd1-4ef9-a9ac-a8694f237c16"},"vehicle_type_id":"4","last_reported":1728295828,"current_range_meters":16800,"station_id":"ce4bhmp2rcd13ifvqgog","pricing_plan_id":"cebpf4jnsgd1na2vs0mg"},{"bike_id":"eecf6576-e26a-4403-ae90-06848eaeed26","system_id":"levelo_inurba_marseille","lat":43.29899,"lon":5.38142,"is_reserved":false,"is_disabled":false,"rental_uris":{"android":"levelo://app?vid=eecf6576-e26a-4403-ae90-06848eaeed26","ios":"levelo://app?vid=eecf6576-e26a-4403-ae90-06848eaeed26"},"vehicle_type_id":"4","last_reported":1728295828,"current_range_meters":36400,"station_id":"ce4bgj12rcd13ifvqbc0","pricing_plan_id":"cebpf4jnsgd1na2vs0mg"},{"bike_id":"0c79aab6-040b-4bde-9e28-12201a8a5e7b","system_id":"levelo_inurba_marseille","lat":43.2558,"lon":5.3825,"is_reserved":false,"is_disabled":false,"rental_uris":{"android":"levelo://app?vid=0c79aab6-040b-4bde-9e28-12201a8a5e7b","ios":"levelo://app?vid=0c79aab6-040b-4bde-9e28-12201a8a5e7b"},"vehicle_type_id":"4","last_reported":1728295828,"current_range_meters":38800,"station_id":"ce4bhih2rcd13ifvqfs0","pricing_plan_id":"cebpf4jnsgd1na2vs0mg"},{"bike_id":"e71732d2-a454-4971-bca9-44577794cb1c","system_id":"levelo_inurba_marseille","lat":43.29566,"lon":5.3751,"is_reserved":false,"is_disabled":false,"rental_uris":{"android":"levelo://app?vid=e71732d2-a454-4971-bca9-44577794cb1c","ios":"levelo://app?vid=e71732d2-a454-4971-bca9-44577794cb1c"},"vehicle_type_id":"4","last_reported":1728295828,"current_range_meters":26000,"station_id":"ce4bgh92rcd13ifvqb50","pricing_plan_id":"cebpf4jnsgd1na2vs0mg"},{"bike_id":"7c3acb4c-8811-42c8-98ab-05cf388495cd","system_id":"levelo_inurba_marseille","lat":43.25928,"lon":5.40907,"is_reserved":false,"is_disabled":false,"rental_uris":{"android":"levelo://app?vid=7c3acb4c-8811-42c8-98ab-05cf388495cd","ios":"levelo://app?vid=7c3acb4c-8811-42c8-98ab-05cf388495cd"},"vehicle_type_id":"4","last_reported":1728295828,"current_range_meters":27600,"station_id":"ce4bhm92rcd13ifvqglg","pricing_plan_id":"cebpf4jnsgd1na2vs0mg"},{"bike_id":"182c9312-1c0f-460c-8f28-44e0e2bc6c77","system_id":"levelo_inurba_marseille","lat":43.26059,"lon":5.39398,"is_reserved":false,"is_disabled":false,"rental_uris":{"android":"levelo://app?vid=182c9312-1c0f-460c-8f28-44e0e2bc6c77","ios":"levelo://app?vid=182c9312-1c0f-460c-8f28-44e0e2bc6c77"},"vehicle_type_id":"4","last_reported":1728295828,"current_range_meters":31200,"station_id":"ce4bhh92rcd13ifvqfj0","pricing_plan_id":"cebpf4jnsgd1na2vs0mg"},{"bike_id":"6b97bfcc-41c4-4724-b5dd-ec2031f2f285","system_id":"levelo_inurba_marseille","lat":43.26488,"lon":5.39541,"is_reserved":false,"is_disabled":false,"rental_uris":{"android":"levelo://app?vid=6b97bfcc-41c4-4724-b5dd-ec2031f2f285","ios":"levelo://app?vid=6b97bfcc-41c4-4724-b5dd-ec2031f2f285"},"vehicle_type_id":"4","last_reported":1728295828,"current_range_meters":28800,"station_id":"ce4bhi12rcd13ifvqfq0","pricing_plan_id":"cebpf4jnsgd1na2vs0mg"},{"bike_id":"2d7375d9-bbde-4e7d-a7bc-a5afb61e7f9e","system_id":"levelo_inurba_marseille","lat":43.30314,"lon":5.3689,"is_reserved":false,"is_disabled":false,"rental_uris":{"android":"levelo://app?vid=2d7375d9-bbde-4e7d-a7bc-a5afb61e7f9e","ios":"levelo://app?vid=2d7375d9-bbde-4e7d-a7bc-a5afb61e7f9e"},"vehicle_type_id":"4","last_reported":1728295828,"current_range_meters":0,"station_id":"ce4bgqh2rcd13ifvqc5g","pricing_plan_id":"cebpf4jnsgd1na2vs0mg"},{"bike_id":"81b07a05-4c57-4e76-99d6-5f6e3acbb201","system_id":"levelo_inurba_marseille","lat":43.2305,"lon":5.35494,"is_reserved":false,"is_disabled":false,"rental_uris":{"android":"levelo://app?vid=81b07a05-4c57-4e76-99d6-5f6e3acbb201","ios":"levelo://app?vid=81b07a05-4c57-4e76-99d6-5f6e3acbb201"},"vehicle_type_id":"4","last_reported":1728295828,"current_range_meters":12800,"station_id":"cpo3342slgdg3j2ifvpg","pricing_plan_id":"cebpf4jnsgd1na2vs0mg"},{"bike_id":"5c8678bb-18e1-45c9-bc77-bfb4ef44b5d4","system_id":"levelo_inurba_marseille","lat":43.28533,"lon":5.38381,"is_reserved":false,"is_disabled":false,"rental_uris":{"android":"levelo://app?vid=5c8678bb-18e1-45c9-bc77-bfb4ef44b5d4","ios":"levelo://app?vid=5c8678bb-18e1-45c9-bc77-bfb4ef44b5d4"},"vehicle_type_id":"4","last_reported":1728295828,"current_range_meters":2800,"station_id":"ce4bhi12rcd13ifvqfo0","pricing_plan_id":"cebpf4jnsgd1na2vs0mg"},{"bike_id":"11a715fe-c5c8-444b-9cc6-a804feeeb444","system_id":"levelo_inurba_marseille","lat":43.26675,"lon":5.38271,"is_reserved":false,"is_disabled":false,"rental_uris":{"android":"levelo://app?vid=11a715fe-c5c8-444b-9cc6-a804feeeb444","ios":"levelo://app?vid=11a715fe-c5c8-444b-9cc6-a804feeeb444"},"vehicle_type_id":"4","last_reported":1728295828,"current_range_meters":18800,"station_id":"ce4bhg92rcd13ifvqf90","pricing_plan_id":"cebpf4jnsgd1na2vs0mg"},{"bike_id":"7b5acb30-7728-4d2f-b8de-cc88114cf385","system_id":"levelo_inurba_marseille","lat":43.23144,"lon":5.43719,"is_reserved":false,"is_disabled":false,"rental_uris":{"android":"levelo://app?vid=7b5acb30-7728-4d2f-b8de-cc88114cf385","ios":"levelo://app?vid=7b5acb30-7728-4d2f-b8de-cc88114cf385"},"vehicle_type_id":"4","last_reported":1728295828,"current_range_meters":38800,"station_id":"ce4bhmp2rcd13ifvqgog","pricing_plan_id":"cebpf4jnsgd1na2vs0mg"},{"bike_id":"c426ae7b-8ec3-41bb-ab24-91d18afc827d","system_id":"levelo_inurba_marseille","lat":43.29277,"lon":5.36843,"is_reserved":false,"is_disabled":false,"rental_uris":{"android":"levelo://app?vid=c426ae7b-8ec3-41bb-ab24-91d18afc827d","ios":"levelo://app?vid=c426ae7b-8ec3-41bb-ab24-91d18afc827d"},"vehicle_type_id":"4","last_reported":1728295828,"current_range_meters":28400,"station_id":"ce4bhbp2rcd13ifvqesg","pricing_plan_id":"cebpf4jnsgd1na2vs0mg"},{"bike_id":"e2200a0d-12da-4459-b8f5-161f17ffb2d2","system_id":"levelo_inurba_marseille","lat":43.31357,"lon":5.36701,"is_reserved":false,"is_disabled":false,"rental_uris":{"android":"levelo://app?vid=e2200a0d-12da-4459-b8f5-161f17ffb2d2","ios":"levelo://app?vid=e2200a0d-12da-4459-b8f5-161f17ffb2d2"},"vehicle_type_id":"4","last_reported":1728295828,"current_range_meters":34000,"station_id":"ce4bgr92rcd13ifvqc6g","pricing_plan_id":"cebpf4jnsgd1na2vs0mg"},{"bike_id":"59a35060-a38e-46d0-aa77-a2259654a5d7","system_id":"levelo_inurba_marseille","lat":43.3063,"lon":5.37277,"is_reserved":false,"is_disabled":false,"rental_uris":{"android":"levelo://app?vid=59a35060-a38e-46d0-aa77-a2259654a5d7","ios":"levelo://app?vid=59a35060-a38e-46d0-aa77-a2259654a5d7"},"vehicle_type_id":"4","last_reported":1728295828,"current_range_meters":6800,"station_id":"ce4bha92rcd13ifvqeh0","pricing_plan_id":"cebpf4jnsgd1na2vs0mg"},{"bike_id":"44c2143e-ced2-40c6-a8b9-5958893ca813","system_id":"levelo_inurba_marseille","lat":43.29554,"lon":5.4229,"is_reserved":false,"is_disabled":false,"rental_uris":{"android":"levelo://app?vid=44c2143e-ced2-40c6-a8b9-5958893ca813","ios":"levelo://app?vid=44c2143e-ced2-40c6-a8b9-5958893ca813"},"vehicle_type_id":"4","last_reported":1728295828,"current_range_meters":4000,"station_id":"ce4bhph2rcd13ifvqhdg","pricing_plan_id":"cebpf4jnsgd1na2vs0mg"},{"bike_id":"3df5753f-615c-4b1b-899c-1486b5ccf3a8","system_id":"levelo_inurba_marseille","lat":43.26491,"lon":5.39538,"is_reserved":false,"is_disabled":false,"rental_uris":{"android":"levelo://app?vid=3df5753f-615c-4b1b-899c-1486b5ccf3a8","ios":"levelo://app?vid=3df5753f-615c-4b1b-899c-1486b5ccf3a8"},"vehicle_type_id":"4","last_reported":1728295828,"current_range_meters":25200,"station_id":"ce4bhi12rcd13ifvqfq0","pricing_plan_id":"cebpf4jnsgd1na2vs0mg"},{"bike_id":"21814611-01da-4a56-bde2-76253f0cdaa1","system_id":"levelo_inurba_marseille","lat":43.27071,"lon":5.42276,"is_reserved":false,"is_disabled":false,"rental_uris":{"android":"levelo://app?vid=21814611-01da-4a56-bde2-76253f0cdaa1","ios":"levelo://app?vid=21814611-01da-4a56-bde2-76253f0cdaa1"},"vehicle_type_id":"4","last_reported":1728295828,"current_range_meters":38800,"station_id":"ce4bhk92rcd13ifvqgb0","pricing_plan_id":"cebpf4jnsgd1na2vs0mg"},{"bike_id":"c8683001-dba9-49aa-ab1e-b2199fb166da","system_id":"levelo_inurba_marseille","lat":43.29028,"lon":5.38656,"is_reserved":false,"is_disabled":false,"rental_uris":{"android":"levelo://app?vid=c8683001-dba9-49aa-ab1e-b2199fb166da","ios":"levelo://app?vid=c8683001-dba9-49aa-ab1e-b2199fb166da"},"vehicle_type_id":"4","last_reported":1728295828,"current_range_meters":35600,"station_id":"ce4bh4p2rcd13ifvqe0g","pricing_plan_id":"cebpf4jnsgd1na2vs0mg"},{"bike_id":"9687f6b7-d883-4f25-8dfa-1fb43adbcc06","system_id":"levelo_inurba_marseille","lat":43.30147,"lon":5.37419,"is_reserved":false,"is_disabled":false,"rental_uris":{"android":"levelo://app?vid=9687f6b7-d883-4f25-8dfa-1fb43adbcc06","ios":"levelo://app?vid=9687f6b7-d883-4f25-8dfa-1fb43adbcc06"},"vehicle_type_id":"4","last_reported":1728295828,"current_range_meters":6800,"station_id":"ce4bgs92rcd13ifvqcc0","pricing_plan_id":"cebpf4jnsgd1na2vs0mg"},{"bike_id":"a34bbe16-f01c-45d8-8352-3f8509060afe","system_id":"levelo_inurba_marseille","lat":43.28979,"lon":5.37844,"is_reserved":false,"is_disabled":false,"rental_uris":{"android":"levelo://app?vid=a34bbe16-f01c-45d8-8352-3f8509060afe","ios":"levelo://app?vid=a34bbe16-f01c-45d8-8352-3f8509060afe"},"vehicle_type_id":"4","last_reported":1728295828,"current_range_meters":8000,"station_id":"ce4bh9p2rcd13ifvqed0","pricing_plan_id":"cebpf4jnsgd1na2vs0mg"},{"bike_id":"ef8c0f4e-40d1-4a2d-8956-5431719ba9e9","system_id":"levelo_inurba_marseille","lat":43.29571,"lon":5.37507,"is_reserved":false,"is_disabled":false,"rental_uris":{"android":"levelo://app?vid=ef8c0f4e-40d1-4a2d-8956-5431719ba9e9","ios":"levelo://app?vid=ef8c0f4e-40d1-4a2d-8956-5431719ba9e9"},"vehicle_type_id":"4","last_reported":1728295828,"current_range_meters":35600,"station_id":"ce4bgh92rcd13ifvqb50","pricing_plan_id":"cebpf4jnsgd1na2vs0mg"},{"bike_id":"25b9a1d6-2d12-4de0-b8e5-ade420c711c5","system_id":"levelo_inurba_marseille","lat":43.29039,"lon":5.37552,"is_reserved":false,"is_disabled":false,"rental_uris":{"android":"levelo://app?vid=25b9a1d6-2d12-4de0-b8e5-ade420c711c5","ios":"levelo://app?vid=25b9a1d6-2d12-4de0-b8e5-ade420c711c5"},"vehicle_type_id":"4","last_reported":1728295828,"current_range_meters":38400,"station_id":"ce4bh692rcd13ifvqe90","pricing_plan_id":"cebpf4jnsgd1na2vs0mg"},{"bike_id":"aea6280b-cdd4-4154-919f-9a5c82db0da6","system_id":"levelo_inurba_marseille","lat":43.33612,"lon":5.41028,"is_reserved":false,"is_disabled":false,"rental_uris":{"android":"levelo://app?vid=aea6280b-cdd4-4154-919f-9a5c82db0da6","ios":"levelo://app?vid=aea6280b-cdd4-4154-919f-9a5c82db0da6"},"vehicle_type_id":"4","last_reported":1728295828,"current_range_meters":34000,"station_id":"ce4bhqh2rcd13ifvqhmg","pricing_plan_id":"cebpf4jnsgd1na2vs0mg"},{"bike_id":"4f7db60f-6145-40f6-b50e-6c901042d2b9","system_id":"levelo_inurba_marseille","lat":43.33723,"lon":5.39195,"is_reserved":false,"is_disabled":false,"rental_uris":{"android":"levelo://app?vid=4f7db60f-6145-40f6-b50e-6c901042d2b9","ios":"levelo://app?vid=4f7db60f-6145-40f6-b50e-6c901042d2b9"},"vehicle_type_id":"4","last_reported":1728295828,"current_range_meters":2800,"station_id":"ce4bhr92rcd13ifvqhsg","pricing_plan_id":"cebpf4jnsgd1na2vs0mg"},{"bike_id":"5742bca4-f39d-4d69-b12a-deb6915cbb3c","system_id":"levelo_inurba_marseille","lat":43.30159,"lon":5.38081,"is_reserved":false,"is_disabled":false,"rental_uris":{"android":"levelo://app?vid=5742bca4-f39d-4d69-b12a-deb6915cbb3c","ios":"levelo://app?vid=5742bca4-f39d-4d69-b12a-deb6915cbb3c"},"vehicle_type_id":"4","last_reported":1728295828,"current_range_meters":28800,"station_id":"ce4bgjp2rcd13ifvqbh0","pricing_plan_id":"cebpf4jnsgd1na2vs0mg"},{"bike_id":"e35d19a8-70fd-4a2f-8d0b-73079330aab2","system_id":"levelo_inurba_marseille","lat":43.2903,"lon":5.38652,"is_reserved":false,"is_disabled":false,"rental_uris":{"android":"levelo://app?vid=e35d19a8-70fd-4a2f-8d0b-73079330aab2","ios":"levelo://app?vid=e35d19a8-70fd-4a2f-8d0b-73079330aab2"},"vehicle_type_id":"4","last_reported":1728295828,"current_range_meters":24000,"station_id":"ce4bh4p2rcd13ifvqe0g","pricing_plan_id":"cebpf4jnsgd1na2vs0mg"},{"bike_id":"4f1d8ba1-6005-4a21-8dbd-3de465e057df","system_id":"levelo_inurba_marseille","lat":43.25115,"lon":5.40319,"is_reserved":false,"is_disabled":false,"rental_uris":{"android":"levelo://app?vid=4f1d8ba1-6005-4a21-8dbd-3de465e057df","ios":"levelo://app?vid=4f1d8ba1-6005-4a21-8dbd-3de465e057df"},"vehicle_type_id":"4","last_reported":1728295828,"current_range_meters":6800,"station_id":"ce4bhlh2rcd13ifvqgig","pricing_plan_id":"cebpf4jnsgd1na2vs0mg"},{"bike_id":"35db5aab-a536-4286-87d7-90ec43783f24","system_id":"levelo_inurba_marseille","lat":43.23193,"lon":5.35557,"is_reserved":false,"is_disabled":false,"rental_uris":{"android":"levelo://app?vid=35db5aab-a536-4286-87d7-90ec43783f24","ios":"levelo://app?vid=35db5aab-a536-4286-87d7-90ec43783f24"},"vehicle_type_id":"4","last_reported":1728295828,"current_range_meters":36400,"station_id":"ce4bhu92rcd13ifvqi70","pricing_plan_id":"cebpf4jnsgd1na2vs0mg"},{"bike_id":"04d04842-662f-45cc-b222-895a4146d4c7","system_id":"levelo_inurba_marseille","lat":43.31489,"lon":5.37296,"is_reserved":false,"is_disabled":false,"rental_uris":{"android":"levelo://app?vid=04d04842-662f-45cc-b222-895a4146d4c7","ios":"levelo://app?vid=04d04842-662f-45cc-b222-895a4146d4c7"},"vehicle_type_id":"4","last_reported":1728295828,"current_range_meters":38800,"station_id":"ce4bgt12rcd13ifvqcd0","pricing_plan_id":"cebpf4jnsgd1na2vs0mg"},{"bike_id":"62dfd99c-f976-4937-b2d0-5b50f5ae699f","system_id":"levelo_inurba_marseille","lat":43.24166,"lon":5.36405,"is_reserved":false,"is_disabled":false,"rental_uris":{"android":"levelo://app?vid=62dfd99c-f976-4937-b2d0-5b50f5ae699f","ios":"levelo://app?vid=62dfd99c-f976-4937-b2d0-5b50f5ae699f"},"vehicle_type_id":"4","last_reported":1728295828,"current_range_meters":10800,"station_id":"cpo36qri1sfpv3e86is0","pricing_plan_id":"cebpf4jnsgd1na2vs0mg"},{"bike_id":"2af27692-67e8-459e-b78a-fc901f24234e","system_id":"levelo_inurba_marseille","lat":43.2951,"lon":5.37505,"is_reserved":false,"is_disabled":false,"rental_uris":{"android":"levelo://app?vid=2af27692-67e8-459e-b78a-fc901f24234e","ios":"levelo://app?vid=2af27692-67e8-459e-b78a-fc901f24234e"},"vehicle_type_id":"4","last_reported":1728295828,"current_range_meters":20800,"station_id":"ce4bgkp2rcd13ifvqbmg","pricing_plan_id":"cebpf4jnsgd1na2vs0mg"},{"bike_id":"efd6c955-24aa-4e5f-a9a0-bc691f57ccee","system_id":"levelo_inurba_marseille","lat":43.290625,"lon":5.371513,"is_reserved":false,"is_disabled":false,"rental_uris":{"android":"levelo://app?vid=efd6c955-24aa-4e5f-a9a0-bc691f57ccee","ios":"levelo://app?vid=efd6c955-24aa-4e5f-a9a0-bc691f57ccee"},"vehicle_type_id":"4","last_reported":1728295828,"current_range_meters":30000,"station_id":"ce4bh692rcd13ifvqea0","pricing_plan_id":"cebpf4jnsgd1na2vs0mg"},{"bike_id":"7f3f8414-15a4-400d-baa2-d8d3034d077b","system_id":"levelo_inurba_marseille","lat":43.29893,"lon":5.38149,"is_reserved":false,"is_disabled":false,"rental_uris":{"android":"levelo://app?vid=7f3f8414-15a4-400d-baa2-d8d3034d077b","ios":"levelo://app?vid=7f3f8414-15a4-400d-baa2-d8d3034d077b"},"vehicle_type_id":"4","last_reported":1728295828,"current_range_meters":35200,"station_id":"ce4bgj12rcd13ifvqbc0","pricing_plan_id":"cebpf4jnsgd1na2vs0mg"},{"bike_id":"3c324bf8-86dd-4109-b29b-58f28634f135","system_id":"levelo_inurba_marseille","lat":43.2603,"lon":5.37545,"is_reserved":false,"is_disabled":false,"rental_uris":{"android":"levelo://app?vid=3c324bf8-86dd-4109-b29b-58f28634f135","ios":"levelo://app?vid=3c324bf8-86dd-4109-b29b-58f28634f135"},"vehicle_type_id":"4","last_reported":1728295828,"current_range_meters":38400,"station_id":"ce4bhgh2rcd13ifvqfa0","pricing_plan_id":"cebpf4jnsgd1na2vs0mg"},{"bike_id":"3b5c2754-0e77-427f-972a-4a42cc508a54","system_id":"levelo_inurba_marseille","lat":43.29028,"lon":5.37556,"is_reserved":false,"is_disabled":false,"rental_uris":{"android":"levelo://app?vid=3b5c2754-0e77-427f-972a-4a42cc508a54","ios":"levelo://app?vid=3b5c2754-0e77-427f-972a-4a42cc508a54"},"vehicle_type_id":"4","last_reported":1728295828,"current_range_meters":38000,"station_id":"ce4bh692rcd13ifvqe90","pricing_plan_id":"cebpf4jnsgd1na2vs0mg"},{"bike_id":"122f2f10-8edd-4b5e-be4d-36a072bf13c8","system_id":"levelo_inurba_marseille","lat":43.30136,"lon":5.37413,"is_reserved":false,"is_disabled":false,"rental_uris":{"android":"levelo://app?vid=122f2f10-8edd-4b5e-be4d-36a072bf13c8","ios":"levelo://app?vid=122f2f10-8edd-4b5e-be4d-36a072bf13c8"},"vehicle_type_id":"4","last_reported":1728295828,"current_range_meters":17600,"station_id":"ce4bgs92rcd13ifvqcc0","pricing_plan_id":"cebpf4jnsgd1na2vs0mg"},{"bike_id":"ae15bf0e-081e-4272-b73c-ff1d32656f13","system_id":"levelo_inurba_marseille","lat":43.24541,"lon":5.39528,"is_reserved":false,"is_disabled":false,"rental_uris":{"android":"levelo://app?vid=ae15bf0e-081e-4272-b73c-ff1d32656f13","ios":"levelo://app?vid=ae15bf0e-081e-4272-b73c-ff1d32656f13"},"vehicle_type_id":"4","last_reported":1728295828,"current_range_meters":38800,"station_id":"ce4bhlp2rcd13ifvqgjg","pricing_plan_id":"cebpf4jnsgd1na2vs0mg"},{"bike_id":"a7d39e11-88db-47a1-b559-47b761427f0e","system_id":"levelo_inurba_marseille","lat":43.25929,"lon":5.40904,"is_reserved":false,"is_disabled":false,"rental_uris":{"android":"levelo://app?vid=a7d39e11-88db-47a1-b559-47b761427f0e","ios":"levelo://app?vid=a7d39e11-88db-47a1-b559-47b761427f0e"},"vehicle_type_id":"4","last_reported":1728295828,"current_range_meters":33600,"station_id":"ce4bhm92rcd13ifvqglg","pricing_plan_id":"cebpf4jnsgd1na2vs0mg"},{"bike_id":"6ecc3250-1b8f-4fe4-9af2-4af6d50ffd76","system_id":"levelo_inurba_marseille","lat":43.2593,"lon":5.40911,"is_reserved":false,"is_disabled":false,"rental_uris":{"android":"levelo://app?vid=6ecc3250-1b8f-4fe4-9af2-4af6d50ffd76","ios":"levelo://app?vid=6ecc3250-1b8f-4fe4-9af2-4af6d50ffd76"},"vehicle_type_id":"4","last_reported":1728295828,"current_range_meters":14400,"station_id":"ce4bhm92rcd13ifvqglg","pricing_plan_id":"cebpf4jnsgd1na2vs0mg"},{"bike_id":"baba7691-81ff-4c7d-90d9-c89eba9696cb","system_id":"levelo_inurba_marseille","lat":43.25923,"lon":5.40908,"is_reserved":false,"is_disabled":false,"rental_uris":{"android":"levelo://app?vid=baba7691-81ff-4c7d-90d9-c89eba9696cb","ios":"levelo://app?vid=baba7691-81ff-4c7d-90d9-c89eba9696cb"},"vehicle_type_id":"4","last_reported":1728295828,"current_range_meters":27600,"station_id":"ce4bhm92rcd13ifvqglg","pricing_plan_id":"cebpf4jnsgd1na2vs0mg"},{"bike_id":"b7792212-086e-408c-bfd6-97418e84521b","system_id":"levelo_inurba_marseille","lat":43.29794,"lon":5.38099,"is_reserved":false,"is_disabled":false,"rental_uris":{"android":"levelo://app?vid=b7792212-086e-408c-bfd6-97418e84521b","ios":"levelo://app?vid=b7792212-086e-408c-bfd6-97418e84521b"},"vehicle_type_id":"4","last_reported":1728295828,"current_range_meters":21600,"station_id":"ce4bgip2rcd13ifvqbb0","pricing_plan_id":"cebpf4jnsgd1na2vs0mg"},{"bike_id":"b1a42782-3ee6-4e5c-aa06-ed242166d1ed","system_id":"levelo_inurba_marseille","lat":43.3211,"lon":5.3677,"is_reserved":false,"is_disabled":false,"rental_uris":{"android":"levelo://app?vid=b1a42782-3ee6-4e5c-aa06-ed242166d1ed","ios":"levelo://app?vid=b1a42782-3ee6-4e5c-aa06-ed242166d1ed"},"vehicle_type_id":"4","last_reported":1728295828,"current_range_meters":33200,"station_id":"ce4bhrh2rcd13ifvqhug","pricing_plan_id":"cebpf4jnsgd1na2vs0mg"},{"bike_id":"fec885cd-387f-4f71-9e64-7a12f33aa81b","system_id":"levelo_inurba_marseille","lat":43.24384,"lon":5.37049,"is_reserved":false,"is_disabled":false,"rental_uris":{"android":"levelo://app?vid=fec885cd-387f-4f71-9e64-7a12f33aa81b","ios":"levelo://app?vid=fec885cd-387f-4f71-9e64-7a12f33aa81b"},"vehicle_type_id":"4","last_reported":1728295828,"current_range_meters":25200,"station_id":"ce4bhhh2rcd13ifvqfk0","pricing_plan_id":"cebpf4jnsgd1na2vs0mg"},{"bike_id":"f51b98f8-901e-4e0f-b366-ba00f69bfd20","system_id":"levelo_inurba_marseille","lat":43.31481,"lon":5.37306,"is_reserved":false,"is_disabled":false,"rental_uris":{"android":"levelo://app?vid=f51b98f8-901e-4e0f-b366-ba00f69bfd20","ios":"levelo://app?vid=f51b98f8-901e-4e0f-b366-ba00f69bfd20"},"vehicle_type_id":"4","last_reported":1728295828,"current_range_meters":36000,"station_id":"ce4bgt12rcd13ifvqcd0","pricing_plan_id":"cebpf4jnsgd1na2vs0mg"},{"bike_id":"66de39cf-e57b-40ec-8e66-0bac92ad2d83","system_id":"levelo_inurba_marseille","lat":43.26057,"lon":5.39393,"is_reserved":false,"is_disabled":false,"rental_uris":{"android":"levelo://app?vid=66de39cf-e57b-40ec-8e66-0bac92ad2d83","ios":"levelo://app?vid=66de39cf-e57b-40ec-8e66-0bac92ad2d83"},"vehicle_type_id":"4","last_reported":1728295828,"current_range_meters":32800,"station_id":"ce4bhh92rcd13ifvqfj0","pricing_plan_id":"cebpf4jnsgd1na2vs0mg"},{"bike_id":"4af55307-045f-4c66-a045-a91d88bb4c16","system_id":"levelo_inurba_marseille","lat":43.229269,"lon":5.353799,"is_reserved":false,"is_disabled":false,"rental_uris":{"android":"levelo://app?vid=4af55307-045f-4c66-a045-a91d88bb4c16","ios":"levelo://app?vid=4af55307-045f-4c66-a045-a91d88bb4c16"},"vehicle_type_id":"4","last_reported":1728295828,"current_range_meters":27200,"station_id":"cpo3532slgdg3j2ikp40","pricing_plan_id":"cebpf4jnsgd1na2vs0mg"},{"bike_id":"fa902769-4735-4ee3-8c64-aeb9d697025e","system_id":"levelo_inurba_marseille","lat":43.30526,"lon":5.36716,"is_reserved":false,"is_disabled":false,"rental_uris":{"android":"levelo://app?vid=fa902769-4735-4ee3-8c64-aeb9d697025e","ios":"levelo://app?vid=fa902769-4735-4ee3-8c64-aeb9d697025e"},"vehicle_type_id":"4","last_reported":1728295828,"current_range_meters":16000,"station_id":"ce4bgrp2rcd13ifvqc9g","pricing_plan_id":"cebpf4jnsgd1na2vs0mg"},{"bike_id":"13a35d1a-1c21-4cdd-9282-17040c700716","system_id":"levelo_inurba_marseille","lat":43.32525,"lon":5.41429,"is_reserved":false,"is_disabled":false,"rental_uris":{"android":"levelo://app?vid=13a35d1a-1c21-4cdd-9282-17040c700716","ios":"levelo://app?vid=13a35d1a-1c21-4cdd-9282-17040c700716"},"vehicle_type_id":"4","last_reported":1728295828,"current_range_meters":30400,"station_id":"ce4bhq12rcd13ifvqhhg","pricing_plan_id":"cebpf4jnsgd1na2vs0mg"},{"bike_id":"6482b1fb-67cb-4384-a7c9-6c0a7b56e3b4","system_id":"levelo_inurba_marseille","lat":43.28846,"lon":5.43323,"is_reserved":false,"is_disabled":false,"rental_uris":{"android":"levelo://app?vid=6482b1fb-67cb-4384-a7c9-6c0a7b56e3b4","ios":"levelo://app?vid=6482b1fb-67cb-4384-a7c9-6c0a7b56e3b4"},"vehicle_type_id":"4","last_reported":1728295828,"current_range_meters":6800,"station_id":"","pricing_plan_id":"cebpf4jnsgd1na2vs0mg"},{"bike_id":"1e592842-3390-46e6-95ec-f120a36922c9","system_id":"levelo_inurba_marseille","lat":43.23151,"lon":5.43704,"is_reserved":false,"is_disabled":false,"rental_uris":{"android":"levelo://app?vid=1e592842-3390-46e6-95ec-f120a36922c9","ios":"levelo://app?vid=1e592842-3390-46e6-95ec-f120a36922c9"},"vehicle_type_id":"4","last_reported":1728295828,"current_range_meters":17600,"station_id":"ce4bhmp2rcd13ifvqgog","pricing_plan_id":"cebpf4jnsgd1na2vs0mg"},{"bike_id":"ad63d807-784d-4c37-994c-e947f1325006","system_id":"levelo_inurba_marseille","lat":43.308021,"lon":5.381496,"is_reserved":false,"is_disabled":false,"rental_uris":{"android":"levelo://app?vid=ad63d807-784d-4c37-994c-e947f1325006","ios":"levelo://app?vid=ad63d807-784d-4c37-994c-e947f1325006"},"vehicle_type_id":"4","last_reported":1728295828,"current_range_meters":4400,"station_id":"ce4bgt12rcd13ifvqce0","pricing_plan_id":"cebpf4jnsgd1na2vs0mg"},{"bike_id":"97ef281f-c717-429c-a078-d6a368902950","system_id":"levelo_inurba_marseille","lat":43.24166,"lon":5.36393,"is_reserved":false,"is_disabled":false,"rental_uris":{"android":"levelo://app?vid=97ef281f-c717-429c-a078-d6a368902950","ios":"levelo://app?vid=97ef281f-c717-429c-a078-d6a368902950"},"vehicle_type_id":"4","last_reported":1728295828,"current_range_meters":20000,"station_id":"cpo36qri1sfpv3e86is0","pricing_plan_id":"cebpf4jnsgd1na2vs0mg"},{"bike_id":"68e7fb09-d99f-46a0-9dc4-bd616ae559ff","system_id":"levelo_inurba_marseille","lat":43.31342,"lon":5.36707,"is_reserved":false,"is_disabled":false,"rental_uris":{"android":"levelo://app?vid=68e7fb09-d99f-46a0-9dc4-bd616ae559ff","ios":"levelo://app?vid=68e7fb09-d99f-46a0-9dc4-bd616ae559ff"},"vehicle_type_id":"4","last_reported":1728295828,"current_range_meters":16400,"station_id":"ce4bgr92rcd13ifvqc6g","pricing_plan_id":"cebpf4jnsgd1na2vs0mg"},{"bike_id":"c12c46a4-bd86-493d-803e-5d507cd7924b","system_id":"levelo_inurba_marseille","lat":43.295044,"lon":5.375088,"is_reserved":false,"is_disabled":false,"rental_uris":{"android":"levelo://app?vid=c12c46a4-bd86-493d-803e-5d507cd7924b","ios":"levelo://app?vid=c12c46a4-bd86-493d-803e-5d507cd7924b"},"vehicle_type_id":"4","last_reported":1728295828,"current_range_meters":30800,"station_id":"ce4bhu92rcd13ifvqi70","pricing_plan_id":"cebpf4jnsgd1na2vs0mg"},{"bike_id":"1b45dc4c-ccfa-4feb-be0d-63b789dd6eb3","system_id":"levelo_inurba_marseille","lat":43.2959,"lon":5.381,"is_reserved":false,"is_disabled":false,"rental_uris":{"android":"levelo://app?vid=1b45dc4c-ccfa-4feb-be0d-63b789dd6eb3","ios":"levelo://app?vid=1b45dc4c-ccfa-4feb-be0d-63b789dd6eb3"},"vehicle_type_id":"4","last_reported":1728295828,"current_range_meters":38400,"station_id":"ce4bgl12rcd13ifvqbo0","pricing_plan_id":"cebpf4jnsgd1na2vs0mg"},{"bike_id":"e0e6b6e8-a26e-4255-b71a-75c0752c9d62","system_id":"levelo_inurba_marseille","lat":43.2465,"lon":5.3889,"is_reserved":false,"is_disabled":false,"rental_uris":{"android":"levelo://app?vid=e0e6b6e8-a26e-4255-b71a-75c0752c9d62","ios":"levelo://app?vid=e0e6b6e8-a26e-4255-b71a-75c0752c9d62"},"vehicle_type_id":"4","last_reported":1728295828,"current_range_meters":38800,"station_id":"ce4bhg12rcd13ifvqf60","pricing_plan_id":"cebpf4jnsgd1na2vs0mg"},{"bike_id":"0d8c132e-6028-490d-b78f-9ee244fd1c97","system_id":"levelo_inurba_marseille","lat":43.25501,"lon":5.37648,"is_reserved":false,"is_disabled":false,"rental_uris":{"android":"levelo://app?vid=0d8c132e-6028-490d-b78f-9ee244fd1c97","ios":"levelo://app?vid=0d8c132e-6028-490d-b78f-9ee244fd1c97"},"vehicle_type_id":"4","last_reported":1728295828,"current_range_meters":38800,"station_id":"ce4bhh12rcd13ifvqff0","pricing_plan_id":"cebpf4jnsgd1na2vs0mg"},{"bike_id":"e8866f89-0b50-4171-8f17-ff8cb3d22a9a","system_id":"levelo_inurba_marseille","lat":43.32488,"lon":5.36566,"is_reserved":false,"is_disabled":false,"rental_uris":{"android":"levelo://app?vid=e8866f89-0b50-4171-8f17-ff8cb3d22a9a","ios":"levelo://app?vid=e8866f89-0b50-4171-8f17-ff8cb3d22a9a"},"vehicle_type_id":"4","last_reported":1728295828,"current_range_meters":16800,"station_id":"ce4bhs12rcd13ifvqhvg","pricing_plan_id":"cebpf4jnsgd1na2vs0mg"},{"bike_id":"85a8b07e-682b-4725-800e-b0749654fba5","system_id":"levelo_inurba_marseille","lat":43.24168,"lon":5.36393,"is_reserved":false,"is_disabled":false,"rental_uris":{"android":"levelo://app?vid=85a8b07e-682b-4725-800e-b0749654fba5","ios":"levelo://app?vid=85a8b07e-682b-4725-800e-b0749654fba5"},"vehicle_type_id":"4","last_reported":1728295828,"current_range_meters":24400,"station_id":"cpo36qri1sfpv3e86is0","pricing_plan_id":"cebpf4jnsgd1na2vs0mg"},{"bike_id":"742b0a39-2ee6-4a7f-970b-979e89ae43ed","system_id":"levelo_inurba_marseille","lat":43.30901,"lon":5.3744,"is_reserved":false,"is_disabled":false,"rental_uris":{"android":"levelo://app?vid=742b0a39-2ee6-4a7f-970b-979e89ae43ed","ios":"levelo://app?vid=742b0a39-2ee6-4a7f-970b-979e89ae43ed"},"vehicle_type_id":"4","last_reported":1728295828,"current_range_meters":17200,"station_id":"","pricing_plan_id":"cebpf4jnsgd1na2vs0mg"},{"bike_id":"fc5a041b-490c-4366-9385-b73e34125d24","system_id":"levelo_inurba_marseille","lat":43.29577,"lon":5.3751,"is_reserved":false,"is_disabled":false,"rental_uris":{"android":"levelo://app?vid=fc5a041b-490c-4366-9385-b73e34125d24","ios":"levelo://app?vid=fc5a041b-490c-4366-9385-b73e34125d24"},"vehicle_type_id":"4","last_reported":1728295828,"current_range_meters":38800,"station_id":"ce4bgh92rcd13ifvqb50","pricing_plan_id":"cebpf4jnsgd1na2vs0mg"},{"bike_id":"3ca5523d-0e87-4645-ad80-9f927d0a21eb","system_id":"levelo_inurba_marseille","lat":43.266296,"lon":5.381292,"is_reserved":false,"is_disabled":false,"rental_uris":{"android":"levelo://app?vid=3ca5523d-0e87-4645-ad80-9f927d0a21eb","ios":"levelo://app?vid=3ca5523d-0e87-4645-ad80-9f927d0a21eb"},"vehicle_type_id":"4","last_reported":1728295828,"current_range_meters":33600,"station_id":"ce4bhih2rcd13ifvqfs0","pricing_plan_id":"cebpf4jnsgd1na2vs0mg"},{"bike_id":"47cf5dd1-85eb-40dc-9cda-ce6305623b64","system_id":"levelo_inurba_marseille","lat":43.29875,"lon":5.38913,"is_reserved":false,"is_disabled":false,"rental_uris":{"android":"levelo://app?vid=47cf5dd1-85eb-40dc-9cda-ce6305623b64","ios":"levelo://app?vid=47cf5dd1-85eb-40dc-9cda-ce6305623b64"},"vehicle_type_id":"4","last_reported":1728295828,"current_range_meters":28000,"station_id":"ce4bh392rcd13ifvqdl0","pricing_plan_id":"cebpf4jnsgd1na2vs0mg"},{"bike_id":"a0fc72de-3bd0-4cb2-a2dc-a30d0f9a952f","system_id":"levelo_inurba_marseille","lat":43.307445,"lon":5.381973,"is_reserved":false,"is_disabled":false,"rental_uris":{"android":"levelo://app?vid=a0fc72de-3bd0-4cb2-a2dc-a30d0f9a952f","ios":"levelo://app?vid=a0fc72de-3bd0-4cb2-a2dc-a30d0f9a952f"},"vehicle_type_id":"4","last_reported":1728295828,"current_range_meters":34000,"station_id":"ce4bgt12rcd13ifvqce0","pricing_plan_id":"cebpf4jnsgd1na2vs0mg"},{"bike_id":"a9c1b894-5e6f-49b5-aa01-a258036ba415","system_id":"levelo_inurba_marseille","lat":43.29578,"lon":5.3751,"is_reserved":false,"is_disabled":false,"rental_uris":{"android":"levelo://app?vid=a9c1b894-5e6f-49b5-aa01-a258036ba415","ios":"levelo://app?vid=a9c1b894-5e6f-49b5-aa01-a258036ba415"},"vehicle_type_id":"4","last_reported":1728295828,"current_range_meters":6400,"station_id":"ce4bgh92rcd13ifvqb50","pricing_plan_id":"cebpf4jnsgd1na2vs0mg"},{"bike_id":"05ddab4b-2219-453e-b9f6-9211ae63c830","system_id":"levelo_inurba_marseille","lat":43.24165,"lon":5.36396,"is_reserved":false,"is_disabled":false,"rental_uris":{"android":"levelo://app?vid=05ddab4b-2219-453e-b9f6-9211ae63c830","ios":"levelo://app?vid=05ddab4b-2219-453e-b9f6-9211ae63c830"},"vehicle_type_id":"4","last_reported":1728295828,"current_range_meters":28400,"station_id":"cpo36qri1sfpv3e86is0","pricing_plan_id":"cebpf4jnsgd1na2vs0mg"},{"bike_id":"155a2030-3f41-4eeb-88a1-e3243c64bd51","system_id":"levelo_inurba_marseille","lat":43.29972,"lon":5.385,"is_reserved":false,"is_disabled":false,"rental_uris":{"android":"levelo://app?vid=155a2030-3f41-4eeb-88a1-e3243c64bd51","ios":"levelo://app?vid=155a2030-3f41-4eeb-88a1-e3243c64bd51"},"vehicle_type_id":"4","last_reported":1728295828,"current_range_meters":34000,"station_id":"ce4bgj92rcd13ifvqbd0","pricing_plan_id":"cebpf4jnsgd1na2vs0mg"},{"bike_id":"7cb5247e-337c-4151-868b-6c0320731586","system_id":"levelo_inurba_marseille","lat":43.2951,"lon":5.39394,"is_reserved":false,"is_disabled":false,"rental_uris":{"android":"levelo://app?vid=7cb5247e-337c-4151-868b-6c0320731586","ios":"levelo://app?vid=7cb5247e-337c-4151-868b-6c0320731586"},"vehicle_type_id":"4","last_reported":1728295828,"current_range_meters":31200,"station_id":"ce4bh292rcd13ifvqdf0","pricing_plan_id":"cebpf4jnsgd1na2vs0mg"},{"bike_id":"cd35eee6-03f0-48eb-87d3-b95e88b2c311","system_id":"levelo_inurba_marseille","lat":43.23148,"lon":5.43715,"is_reserved":false,"is_disabled":false,"rental_uris":{"android":"levelo://app?vid=cd35eee6-03f0-48eb-87d3-b95e88b2c311","ios":"levelo://app?vid=cd35eee6-03f0-48eb-87d3-b95e88b2c311"},"vehicle_type_id":"4","last_reported":1728295828,"current_range_meters":38800,"station_id":"ce4bhmp2rcd13ifvqgog","pricing_plan_id":"cebpf4jnsgd1na2vs0mg"},{"bike_id":"d0ca1193-12e8-4ac2-9a60-4ae6e0040151","system_id":"levelo_inurba_marseille","lat":43.22933,"lon":5.3538,"is_reserved":false,"is_disabled":false,"rental_uris":{"android":"levelo://app?vid=d0ca1193-12e8-4ac2-9a60-4ae6e0040151","ios":"levelo://app?vid=d0ca1193-12e8-4ac2-9a60-4ae6e0040151"},"vehicle_type_id":"4","last_reported":1728295828,"current_range_meters":24000,"station_id":"cpo3532slgdg3j2ikp40","pricing_plan_id":"cebpf4jnsgd1na2vs0mg"},{"bike_id":"2557af00-c03e-42bb-8bb5-4007fd210a1c","system_id":"levelo_inurba_marseille","lat":43.23152,"lon":5.43701,"is_reserved":false,"is_disabled":false,"rental_uris":{"android":"levelo://app?vid=2557af00-c03e-42bb-8bb5-4007fd210a1c","ios":"levelo://app?vid=2557af00-c03e-42bb-8bb5-4007fd210a1c"},"vehicle_type_id":"4","last_reported":1728295828,"current_range_meters":12400,"station_id":"ce4bhmp2rcd13ifvqgog","pricing_plan_id":"cebpf4jnsgd1na2vs0mg"},{"bike_id":"4f0dc714-304a-4e1a-b952-7565e1cc29f9","system_id":"levelo_inurba_marseille","lat":43.30156,"lon":5.38077,"is_reserved":false,"is_disabled":false,"rental_uris":{"android":"levelo://app?vid=4f0dc714-304a-4e1a-b952-7565e1cc29f9","ios":"levelo://app?vid=4f0dc714-304a-4e1a-b952-7565e1cc29f9"},"vehicle_type_id":"4","last_reported":1728295828,"current_range_meters":3200,"station_id":"ce4bgjp2rcd13ifvqbh0","pricing_plan_id":"cebpf4jnsgd1na2vs0mg"},{"bike_id":"7f064da0-8157-4c96-a4e6-591399a3c69d","system_id":"levelo_inurba_marseille","lat":43.25575,"lon":5.38235,"is_reserved":false,"is_disabled":false,"rental_uris":{"android":"levelo://app?vid=7f064da0-8157-4c96-a4e6-591399a3c69d","ios":"levelo://app?vid=7f064da0-8157-4c96-a4e6-591399a3c69d"},"vehicle_type_id":"4","last_reported":1728295828,"current_range_meters":22400,"station_id":"ce4bhih2rcd13ifvqfs0","pricing_plan_id":"cebpf4jnsgd1na2vs0mg"},{"bike_id":"90be245c-016a-48b1-a6b9-91aaecc104ba","system_id":"levelo_inurba_marseille","lat":43.26504,"lon":5.39555,"is_reserved":false,"is_disabled":false,"rental_uris":{"android":"levelo://app?vid=90be245c-016a-48b1-a6b9-91aaecc104ba","ios":"levelo://app?vid=90be245c-016a-48b1-a6b9-91aaecc104ba"},"vehicle_type_id":"4","last_reported":1728295828,"current_range_meters":12400,"station_id":"ce4bhi12rcd13ifvqfq0","pricing_plan_id":"cebpf4jnsgd1na2vs0mg"},{"bike_id":"5426ecb5-4d2e-4c65-a5e5-6fa42a39b860","system_id":"levelo_inurba_marseille","lat":43.23056,"lon":5.35492,"is_reserved":false,"is_disabled":false,"rental_uris":{"android":"levelo://app?vid=5426ecb5-4d2e-4c65-a5e5-6fa42a39b860","ios":"levelo://app?vid=5426ecb5-4d2e-4c65-a5e5-6fa42a39b860"},"vehicle_type_id":"4","last_reported":1728295828,"current_range_meters":8400,"station_id":"cpo3342slgdg3j2ifvpg","pricing_plan_id":"cebpf4jnsgd1na2vs0mg"},{"bike_id":"d8bc2066-a7d9-41d7-b5ad-d46901326b60","system_id":"levelo_inurba_marseille","lat":43.31355,"lon":5.36703,"is_reserved":false,"is_disabled":false,"rental_uris":{"android":"levelo://app?vid=d8bc2066-a7d9-41d7-b5ad-d46901326b60","ios":"levelo://app?vid=d8bc2066-a7d9-41d7-b5ad-d46901326b60"},"vehicle_type_id":"4","last_reported":1728295828,"current_range_meters":21600,"station_id":"ce4bgr92rcd13ifvqc6g","pricing_plan_id":"cebpf4jnsgd1na2vs0mg"},{"bike_id":"5fd97b48-8eeb-44e8-bc7a-e8fa9d0cf5b6","system_id":"levelo_inurba_marseille","lat":43.307246,"lon":5.397043,"is_reserved":false,"is_disabled":false,"rental_uris":{"android":"levelo://app?vid=5fd97b48-8eeb-44e8-bc7a-e8fa9d0cf5b6","ios":"levelo://app?vid=5fd97b48-8eeb-44e8-bc7a-e8fa9d0cf5b6"},"vehicle_type_id":"4","last_reported":1728295828,"current_range_meters":9600,"station_id":"","pricing_plan_id":"cebpf4jnsgd1na2vs0mg"},{"bike_id":"c8a9b141-db7b-47d0-9367-e8aeade551b5","system_id":"levelo_inurba_marseille","lat":43.2582,"lon":5.3944,"is_reserved":false,"is_disabled":false,"rental_uris":{"android":"levelo://app?vid=c8a9b141-db7b-47d0-9367-e8aeade551b5","ios":"levelo://app?vid=c8a9b141-db7b-47d0-9367-e8aeade551b5"},"vehicle_type_id":"4","last_reported":1728295828,"current_range_meters":25600,"station_id":"ce4bhip2rcd13ifvqft0","pricing_plan_id":"cebpf4jnsgd1na2vs0mg"},{"bike_id":"f62f0cfe-e851-4c60-9be2-10d911b5a500","system_id":"levelo_inurba_marseille","lat":43.313568,"lon":5.384895,"is_reserved":false,"is_disabled":false,"rental_uris":{"android":"levelo://app?vid=f62f0cfe-e851-4c60-9be2-10d911b5a500","ios":"levelo://app?vid=f62f0cfe-e851-4c60-9be2-10d911b5a500"},"vehicle_type_id":"4","last_reported":1728295828,"current_range_meters":27200,"station_id":"ce4bgt92rcd13ifvqcf0","pricing_plan_id":"cebpf4jnsgd1na2vs0mg"},{"bike_id":"5186f811-2fbf-41f6-bfb7-9de586c39049","system_id":"levelo_inurba_marseille","lat":43.30949,"lon":5.39028,"is_reserved":false,"is_disabled":false,"rental_uris":{"android":"levelo://app?vid=5186f811-2fbf-41f6-bfb7-9de586c39049","ios":"levelo://app?vid=5186f811-2fbf-41f6-bfb7-9de586c39049"},"vehicle_type_id":"4","last_reported":1728295828,"current_range_meters":38800,"station_id":"ce4bgup2rcd13ifvqco0","pricing_plan_id":"cebpf4jnsgd1na2vs0mg"},{"bike_id":"12bccb3b-8da7-4a19-93a2-2e7f6819408f","system_id":"levelo_inurba_marseille","lat":43.337444,"lon":5.374475,"is_reserved":false,"is_disabled":false,"rental_uris":{"android":"levelo://app?vid=12bccb3b-8da7-4a19-93a2-2e7f6819408f","ios":"levelo://app?vid=12bccb3b-8da7-4a19-93a2-2e7f6819408f"},"vehicle_type_id":"4","last_reported":1728295828,"current_range_meters":38000,"station_id":"","pricing_plan_id":"cebpf4jnsgd1na2vs0mg"},{"bike_id":"e8f38f77-6572-42be-9296-0cbe6e7cb972","system_id":"levelo_inurba_marseille","lat":43.23054,"lon":5.35492,"is_reserved":false,"is_disabled":false,"rental_uris":{"android":"levelo://app?vid=e8f38f77-6572-42be-9296-0cbe6e7cb972","ios":"levelo://app?vid=e8f38f77-6572-42be-9296-0cbe6e7cb972"},"vehicle_type_id":"4","last_reported":1728295828,"current_range_meters":36800,"station_id":"cpo3342slgdg3j2ifvpg","pricing_plan_id":"cebpf4jnsgd1na2vs0mg"},{"bike_id":"72bc0bd3-0841-4928-9e58-cfaff393c2c1","system_id":"levelo_inurba_marseille","lat":43.28707,"lon":5.39982,"is_reserved":false,"is_disabled":false,"rental_uris":{"android":"levelo://app?vid=72bc0bd3-0841-4928-9e58-cfaff393c2c1","ios":"levelo://app?vid=72bc0bd3-0841-4928-9e58-cfaff393c2c1"},"vehicle_type_id":"4","last_reported":1728295828,"current_range_meters":8400,"station_id":"ce4bho92rcd13ifvqh3g","pricing_plan_id":"cebpf4jnsgd1na2vs0mg"},{"bike_id":"85be057c-883a-4a97-b565-c4c3031b9dff","system_id":"levelo_inurba_marseille","lat":43.255096,"lon":5.37623,"is_reserved":false,"is_disabled":false,"rental_uris":{"android":"levelo://app?vid=85be057c-883a-4a97-b565-c4c3031b9dff","ios":"levelo://app?vid=85be057c-883a-4a97-b565-c4c3031b9dff"},"vehicle_type_id":"4","last_reported":1728295828,"current_range_meters":30000,"station_id":"ce4bhh12rcd13ifvqff0","pricing_plan_id":"cebpf4jnsgd1na2vs0mg"},{"bike_id":"b3576681-ace2-4183-b12d-e87c0c5a344d","system_id":"levelo_inurba_marseille","lat":43.25499,"lon":5.37646,"is_reserved":false,"is_disabled":false,"rental_uris":{"android":"levelo://app?vid=b3576681-ace2-4183-b12d-e87c0c5a344d","ios":"levelo://app?vid=b3576681-ace2-4183-b12d-e87c0c5a344d"},"vehicle_type_id":"4","last_reported":1728295828,"current_range_meters":36000,"station_id":"ce4bhh12rcd13ifvqff0","pricing_plan_id":"cebpf4jnsgd1na2vs0mg"},{"bike_id":"1dad735d-481e-47ff-8bf7-942577eed167","system_id":"levelo_inurba_marseille","lat":43.23151,"lon":5.43706,"is_reserved":false,"is_disabled":false,"rental_uris":{"android":"levelo://app?vid=1dad735d-481e-47ff-8bf7-942577eed167","ios":"levelo://app?vid=1dad735d-481e-47ff-8bf7-942577eed167"},"vehicle_type_id":"4","last_reported":1728295828,"current_range_meters":20000,"station_id":"ce4bhmp2rcd13ifvqgog","pricing_plan_id":"cebpf4jnsgd1na2vs0mg"},{"bike_id":"c91f7103-63c0-4e88-ad9d-c5194f82620f","system_id":"levelo_inurba_marseille","lat":43.28427,"lon":5.4108,"is_reserved":false,"is_disabled":false,"rental_uris":{"android":"levelo://app?vid=c91f7103-63c0-4e88-ad9d-c5194f82620f","ios":"levelo://app?vid=c91f7103-63c0-4e88-ad9d-c5194f82620f"},"vehicle_type_id":"4","last_reported":1728295828,"current_range_meters":37600,"station_id":"","pricing_plan_id":"cebpf4jnsgd1na2vs0mg"},{"bike_id":"490889b1-cee9-4892-9db5-299333956c90","system_id":"levelo_inurba_marseille","lat":43.34137,"lon":5.40908,"is_reserved":false,"is_disabled":false,"rental_uris":{"android":"levelo://app?vid=490889b1-cee9-4892-9db5-299333956c90","ios":"levelo://app?vid=490889b1-cee9-4892-9db5-299333956c90"},"vehicle_type_id":"4","last_reported":1728295828,"current_range_meters":39200,"station_id":"ce4bhqh2rcd13ifvqhlg","pricing_plan_id":"cebpf4jnsgd1na2vs0mg"},{"bike_id":"792ac6bc-852c-4d52-a9a2-7a31a48c39d7","system_id":"levelo_inurba_marseille","lat":43.29171,"lon":5.37154,"is_reserved":false,"is_disabled":false,"rental_uris":{"android":"levelo://app?vid=792ac6bc-852c-4d52-a9a2-7a31a48c39d7","ios":"levelo://app?vid=792ac6bc-852c-4d52-a9a2-7a31a48c39d7"},"vehicle_type_id":"4","last_reported":1728295828,"current_range_meters":27600,"station_id":"ce4bha92rcd13ifvqeh0","pricing_plan_id":"cebpf4jnsgd1na2vs0mg"},{"bike_id":"931a1d8e-4090-4299-b271-43413a8cf3bf","system_id":"levelo_inurba_marseille","lat":43.30534,"lon":5.36706,"is_reserved":false,"is_disabled":false,"rental_uris":{"android":"levelo://app?vid=931a1d8e-4090-4299-b271-43413a8cf3bf","ios":"levelo://app?vid=931a1d8e-4090-4299-b271-43413a8cf3bf"},"vehicle_type_id":"4","last_reported":1728295828,"current_range_meters":38800,"station_id":"ce4bgrp2rcd13ifvqc9g","pricing_plan_id":"cebpf4jnsgd1na2vs0mg"},{"bike_id":"ea30e775-8466-430d-96e1-a121d270f1bd","system_id":"levelo_inurba_marseille","lat":43.24642,"lon":5.38888,"is_reserved":false,"is_disabled":false,"rental_uris":{"android":"levelo://app?vid=ea30e775-8466-430d-96e1-a121d270f1bd","ios":"levelo://app?vid=ea30e775-8466-430d-96e1-a121d270f1bd"},"vehicle_type_id":"4","last_reported":1728295828,"current_range_meters":36800,"station_id":"ce4bhg12rcd13ifvqf60","pricing_plan_id":"cebpf4jnsgd1na2vs0mg"},{"bike_id":"4378a0dd-7ddd-4246-9294-1e2af02e0700","system_id":"levelo_inurba_marseille","lat":43.23192,"lon":5.35545,"is_reserved":false,"is_disabled":false,"rental_uris":{"android":"levelo://app?vid=4378a0dd-7ddd-4246-9294-1e2af02e0700","ios":"levelo://app?vid=4378a0dd-7ddd-4246-9294-1e2af02e0700"},"vehicle_type_id":"4","last_reported":1728295828,"current_range_meters":6000,"station_id":"ce4bhu92rcd13ifvqi70","pricing_plan_id":"cebpf4jnsgd1na2vs0mg"},{"bike_id":"594a551f-028c-4b5b-8770-f76d6722f290","system_id":"levelo_inurba_marseille","lat":43.33606,"lon":5.41024,"is_reserved":false,"is_disabled":false,"rental_uris":{"android":"levelo://app?vid=594a551f-028c-4b5b-8770-f76d6722f290","ios":"levelo://app?vid=594a551f-028c-4b5b-8770-f76d6722f290"},"vehicle_type_id":"4","last_reported":1728295828,"current_range_meters":8400,"station_id":"ce4bhqh2rcd13ifvqhmg","pricing_plan_id":"cebpf4jnsgd1na2vs0mg"},{"bike_id":"1fbb66fa-7e57-4df8-9848-092ef367157f","system_id":"levelo_inurba_marseille","lat":43.25931,"lon":5.40913,"is_reserved":false,"is_disabled":false,"rental_uris":{"android":"levelo://app?vid=1fbb66fa-7e57-4df8-9848-092ef367157f","ios":"levelo://app?vid=1fbb66fa-7e57-4df8-9848-092ef367157f"},"vehicle_type_id":"4","last_reported":1728295828,"current_range_meters":19600,"station_id":"ce4bhm92rcd13ifvqglg","pricing_plan_id":"cebpf4jnsgd1na2vs0mg"},{"bike_id":"8517ddea-f7cf-4a22-bfc0-9b6333dc2d30","system_id":"levelo_inurba_marseille","lat":43.23963,"lon":5.36629,"is_reserved":false,"is_disabled":false,"rental_uris":{"android":"levelo://app?vid=8517ddea-f7cf-4a22-bfc0-9b6333dc2d30","ios":"levelo://app?vid=8517ddea-f7cf-4a22-bfc0-9b6333dc2d30"},"vehicle_type_id":"4","last_reported":1728295828,"current_range_meters":38000,"station_id":"ce4bhi12rcd13ifvqfp0","pricing_plan_id":"cebpf4jnsgd1na2vs0mg"},{"bike_id":"003afc6a-8d3b-4663-9d11-e8f26dbf409b","system_id":"levelo_inurba_marseille","lat":43.29224,"lon":5.3606,"is_reserved":false,"is_disabled":false,"rental_uris":{"android":"levelo://app?vid=003afc6a-8d3b-4663-9d11-e8f26dbf409b","ios":"levelo://app?vid=003afc6a-8d3b-4663-9d11-e8f26dbf409b"},"vehicle_type_id":"4","last_reported":1728295828,"current_range_meters":2800,"station_id":"ce4bhbh2rcd13ifvqeqg","pricing_plan_id":"cebpf4jnsgd1na2vs0mg"},{"bike_id":"42d15a18-60a2-4a83-b713-12e79302f026","system_id":"levelo_inurba_marseille","lat":43.25817,"lon":5.3943,"is_reserved":false,"is_disabled":false,"rental_uris":{"android":"levelo://app?vid=42d15a18-60a2-4a83-b713-12e79302f026","ios":"levelo://app?vid=42d15a18-60a2-4a83-b713-12e79302f026"},"vehicle_type_id":"4","last_reported":1728295828,"current_range_meters":38800,"station_id":"ce4bhip2rcd13ifvqft0","pricing_plan_id":"cebpf4jnsgd1na2vs0mg"},{"bike_id":"93d45870-2e1c-4ed1-9664-7b219a4ed443","system_id":"levelo_inurba_marseille","lat":43.22931,"lon":5.35382,"is_reserved":false,"is_disabled":false,"rental_uris":{"android":"levelo://app?vid=93d45870-2e1c-4ed1-9664-7b219a4ed443","ios":"levelo://app?vid=93d45870-2e1c-4ed1-9664-7b219a4ed443"},"vehicle_type_id":"4","last_reported":1728295828,"current_range_meters":36800,"station_id":"cpo3532slgdg3j2ikp40","pricing_plan_id":"cebpf4jnsgd1na2vs0mg"},{"bike_id":"cb9d944b-952c-4679-be1a-b003fbec17f7","system_id":"levelo_inurba_marseille","lat":43.3009,"lon":5.39081,"is_reserved":false,"is_disabled":false,"rental_uris":{"android":"levelo://app?vid=cb9d944b-952c-4679-be1a-b003fbec17f7","ios":"levelo://app?vid=cb9d944b-952c-4679-be1a-b003fbec17f7"},"vehicle_type_id":"4","last_reported":1728295828,"current_range_meters":38800,"station_id":"ce4bh192rcd13ifvqdb0","pricing_plan_id":"cebpf4jnsgd1na2vs0mg"},{"bike_id":"b934bc1d-38fe-466d-9df3-a016d20033ee","system_id":"levelo_inurba_marseille","lat":43.29189,"lon":5.35808,"is_reserved":false,"is_disabled":false,"rental_uris":{"android":"levelo://app?vid=b934bc1d-38fe-466d-9df3-a016d20033ee","ios":"levelo://app?vid=b934bc1d-38fe-466d-9df3-a016d20033ee"},"vehicle_type_id":"4","last_reported":1728295828,"current_range_meters":38800,"station_id":"ce4bhb12rcd13ifvqel0","pricing_plan_id":"cebpf4jnsgd1na2vs0mg"},{"bike_id":"6e512044-ef12-457b-bcca-26bd86c5618a","system_id":"levelo_inurba_marseille","lat":43.23053,"lon":5.35494,"is_reserved":false,"is_disabled":false,"rental_uris":{"android":"levelo://app?vid=6e512044-ef12-457b-bcca-26bd86c5618a","ios":"levelo://app?vid=6e512044-ef12-457b-bcca-26bd86c5618a"},"vehicle_type_id":"4","last_reported":1728295828,"current_range_meters":37600,"station_id":"cpo3342slgdg3j2ifvpg","pricing_plan_id":"cebpf4jnsgd1na2vs0mg"},{"bike_id":"896da170-4e09-49ee-b0cf-cdf6b97e930e","system_id":"levelo_inurba_marseille","lat":43.29698,"lon":5.37692,"is_reserved":false,"is_disabled":false,"rental_uris":{"android":"levelo://app?vid=896da170-4e09-49ee-b0cf-cdf6b97e930e","ios":"levelo://app?vid=896da170-4e09-49ee-b0cf-cdf6b97e930e"},"vehicle_type_id":"4","last_reported":1728295828,"current_range_meters":8400,"station_id":"ce4bgkh2rcd13ifvqbl0","pricing_plan_id":"cebpf4jnsgd1na2vs0mg"},{"bike_id":"8787dab3-0b01-4152-96fd-092693f9a048","system_id":"levelo_inurba_marseille","lat":43.29795,"lon":5.4041,"is_reserved":false,"is_disabled":false,"rental_uris":{"android":"levelo://app?vid=8787dab3-0b01-4152-96fd-092693f9a048","ios":"levelo://app?vid=8787dab3-0b01-4152-96fd-092693f9a048"},"vehicle_type_id":"4","last_reported":1728295828,"current_range_meters":38400,"station_id":"ce4bh112rcd13ifvqd90","pricing_plan_id":"cebpf4jnsgd1na2vs0mg"},{"bike_id":"822c455f-3744-4fc2-b238-838d906f5802","system_id":"levelo_inurba_marseille","lat":43.2937,"lon":5.37847,"is_reserved":false,"is_disabled":false,"rental_uris":{"android":"levelo://app?vid=822c455f-3744-4fc2-b238-838d906f5802","ios":"levelo://app?vid=822c455f-3744-4fc2-b238-838d906f5802"},"vehicle_type_id":"4","last_reported":1728295828,"current_range_meters":12400,"station_id":"ce4bgjh2rcd13ifvqbf0","pricing_plan_id":"cebpf4jnsgd1na2vs0mg"},{"bike_id":"2775781b-d30f-4f5b-a24a-c4830ad4c08f","system_id":"levelo_inurba_marseille","lat":43.25861,"lon":5.39898,"is_reserved":false,"is_disabled":false,"rental_uris":{"android":"levelo://app?vid=2775781b-d30f-4f5b-a24a-c4830ad4c08f","ios":"levelo://app?vid=2775781b-d30f-4f5b-a24a-c4830ad4c08f"},"vehicle_type_id":"4","last_reported":1728295828,"current_range_meters":38800,"station_id":"ce4bhl92rcd13ifvqghg","pricing_plan_id":"cebpf4jnsgd1na2vs0mg"},{"bike_id":"270b90ca-7521-4165-af49-e1c727e5fa34","system_id":"levelo_inurba_marseille","lat":43.24165,"lon":5.36395,"is_reserved":false,"is_disabled":false,"rental_uris":{"android":"levelo://app?vid=270b90ca-7521-4165-af49-e1c727e5fa34","ios":"levelo://app?vid=270b90ca-7521-4165-af49-e1c727e5fa34"},"vehicle_type_id":"4","last_reported":1728295828,"current_range_meters":29600,"station_id":"cpo36qri1sfpv3e86is0","pricing_plan_id":"cebpf4jnsgd1na2vs0mg"},{"bike_id":"e7f6a304-c9ee-40b0-8515-0006b5d18f43","system_id":"levelo_inurba_marseille","lat":43.30135,"lon":5.37423,"is_reserved":false,"is_disabled":false,"rental_uris":{"android":"levelo://app?vid=e7f6a304-c9ee-40b0-8515-0006b5d18f43","ios":"levelo://app?vid=e7f6a304-c9ee-40b0-8515-0006b5d18f43"},"vehicle_type_id":"4","last_reported":1728295828,"current_range_meters":24000,"station_id":"ce4bgs92rcd13ifvqcc0","pricing_plan_id":"cebpf4jnsgd1na2vs0mg"},{"bike_id":"0a38cd33-1a38-4c20-a4cd-680703e64669","system_id":"levelo_inurba_marseille","lat":43.296051,"lon":5.381085,"is_reserved":false,"is_disabled":false,"rental_uris":{"android":"levelo://app?vid=0a38cd33-1a38-4c20-a4cd-680703e64669","ios":"levelo://app?vid=0a38cd33-1a38-4c20-a4cd-680703e64669"},"vehicle_type_id":"4","last_reported":1728295828,"current_range_meters":31200,"station_id":"ce4bgl12rcd13ifvqbo0","pricing_plan_id":"cebpf4jnsgd1na2vs0mg"},{"bike_id":"824e294a-c810-4688-b9ec-efc7382fd889","system_id":"levelo_inurba_marseille","lat":43.31085,"lon":5.42428,"is_reserved":false,"is_disabled":false,"rental_uris":{"android":"levelo://app?vid=824e294a-c810-4688-b9ec-efc7382fd889","ios":"levelo://app?vid=824e294a-c810-4688-b9ec-efc7382fd889"},"vehicle_type_id":"4","last_reported":1728295828,"current_range_meters":26000,"station_id":"ce4bhp92rcd13ifvqhag","pricing_plan_id":"cebpf4jnsgd1na2vs0mg"},{"bike_id":"a91cbab1-3fae-48ae-a91c-7cccec0e5173","system_id":"levelo_inurba_marseille","lat":43.25113,"lon":5.4031,"is_reserved":false,"is_disabled":false,"rental_uris":{"android":"levelo://app?vid=a91cbab1-3fae-48ae-a91c-7cccec0e5173","ios":"levelo://app?vid=a91cbab1-3fae-48ae-a91c-7cccec0e5173"},"vehicle_type_id":"4","last_reported":1728295828,"current_range_meters":10800,"station_id":"ce4bhlh2rcd13ifvqgig","pricing_plan_id":"cebpf4jnsgd1na2vs0mg"},{"bike_id":"aaacb62a-8595-452a-aced-8caffbcdff2f","system_id":"levelo_inurba_marseille","lat":43.26552,"lon":5.37284,"is_reserved":false,"is_disabled":false,"rental_uris":{"android":"levelo://app?vid=aaacb62a-8595-452a-aced-8caffbcdff2f","ios":"levelo://app?vid=aaacb62a-8595-452a-aced-8caffbcdff2f"},"vehicle_type_id":"4","last_reported":1728295828,"current_range_meters":28800,"station_id":"ce4bhg12rcd13ifvqf70","pricing_plan_id":"cebpf4jnsgd1na2vs0mg"},{"bike_id":"8d6ab66c-89f5-4702-94b6-1434034f7235","system_id":"levelo_inurba_marseille","lat":43.320526,"lon":5.415518,"is_reserved":false,"is_disabled":false,"rental_uris":{"android":"levelo://app?vid=8d6ab66c-89f5-4702-94b6-1434034f7235","ios":"levelo://app?vid=8d6ab66c-89f5-4702-94b6-1434034f7235"},"vehicle_type_id":"4","last_reported":1728295828,"current_range_meters":37600,"station_id":"ce4bhq92rcd13ifvqhkg","pricing_plan_id":"cebpf4jnsgd1na2vs0mg"},{"bike_id":"85081b74-3c48-4b75-b6b6-b181683e784a","system_id":"levelo_inurba_marseille","lat":43.25723,"lon":5.41114,"is_reserved":false,"is_disabled":false,"rental_uris":{"android":"levelo://app?vid=85081b74-3c48-4b75-b6b6-b181683e784a","ios":"levelo://app?vid=85081b74-3c48-4b75-b6b6-b181683e784a"},"vehicle_type_id":"4","last_reported":1728295828,"current_range_meters":35200,"station_id":"ce4bhkp2rcd13ifvqgd0","pricing_plan_id":"cebpf4jnsgd1na2vs0mg"},{"bike_id":"ca150432-5632-417f-a220-d6e10e3598a2","system_id":"levelo_inurba_marseille","lat":43.29893,"lon":5.43668,"is_reserved":false,"is_disabled":false,"rental_uris":{"android":"levelo://app?vid=ca150432-5632-417f-a220-d6e10e3598a2","ios":"levelo://app?vid=ca150432-5632-417f-a220-d6e10e3598a2"},"vehicle_type_id":"4","last_reported":1728295828,"current_range_meters":39200,"station_id":"ce4bhpp2rcd13ifvqhfg","pricing_plan_id":"cebpf4jnsgd1na2vs0mg"},{"bike_id":"e209dd5c-0d10-4561-adda-dad860e62fd5","system_id":"levelo_inurba_marseille","lat":43.30543,"lon":5.36708,"is_reserved":false,"is_disabled":false,"rental_uris":{"android":"levelo://app?vid=e209dd5c-0d10-4561-adda-dad860e62fd5","ios":"levelo://app?vid=e209dd5c-0d10-4561-adda-dad860e62fd5"},"vehicle_type_id":"4","last_reported":1728295828,"current_range_meters":38800,"station_id":"ce4bgrp2rcd13ifvqc9g","pricing_plan_id":"cebpf4jnsgd1na2vs0mg"},{"bike_id":"16333a68-6e7d-4387-bc22-9d119bedfd62","system_id":"levelo_inurba_marseille","lat":43.2978,"lon":5.39356,"is_reserved":false,"is_disabled":false,"rental_uris":{"android":"levelo://app?vid=16333a68-6e7d-4387-bc22-9d119bedfd62","ios":"levelo://app?vid=16333a68-6e7d-4387-bc22-9d119bedfd62"},"vehicle_type_id":"4","last_reported":1728295828,"current_range_meters":26000,"station_id":"chh1huq6cuj3fo74tm60","pricing_plan_id":"cebpf4jnsgd1na2vs0mg"},{"bike_id":"9a7c7822-4f3f-4740-b247-3521755ad655","system_id":"levelo_inurba_marseille","lat":43.29278,"lon":5.4012,"is_reserved":false,"is_disabled":false,"rental_uris":{"android":"levelo://app?vid=9a7c7822-4f3f-4740-b247-3521755ad655","ios":"levelo://app?vid=9a7c7822-4f3f-4740-b247-3521755ad655"},"vehicle_type_id":"4","last_reported":1728295828,"current_range_meters":38000,"station_id":"ce4bh312rcd13ifvqdk0","pricing_plan_id":"cebpf4jnsgd1na2vs0mg"},{"bike_id":"7cba0374-be77-4d49-8476-e0da3cccc891","system_id":"levelo_inurba_marseille","lat":43.24168,"lon":5.36393,"is_reserved":false,"is_disabled":false,"rental_uris":{"android":"levelo://app?vid=7cba0374-be77-4d49-8476-e0da3cccc891","ios":"levelo://app?vid=7cba0374-be77-4d49-8476-e0da3cccc891"},"vehicle_type_id":"4","last_reported":1728295828,"current_range_meters":27600,"station_id":"cpo36qri1sfpv3e86is0","pricing_plan_id":"cebpf4jnsgd1na2vs0mg"},{"bike_id":"de7b61ce-9a77-48b8-b281-c8a3b04be6be","system_id":"levelo_inurba_marseille","lat":43.29456,"lon":5.37445,"is_reserved":false,"is_disabled":false,"rental_uris":{"android":"levelo://app?vid=de7b61ce-9a77-48b8-b281-c8a3b04be6be","ios":"levelo://app?vid=de7b61ce-9a77-48b8-b281-c8a3b04be6be"},"vehicle_type_id":"4","last_reported":1728295828,"current_range_meters":20000,"station_id":"ce4bgnh2rcd13ifvqc0g","pricing_plan_id":"cebpf4jnsgd1na2vs0mg"},{"bike_id":"c2eafa11-ad6c-4f3b-b6e4-6e6fc5d9785c","system_id":"levelo_inurba_marseille","lat":43.299,"lon":5.43676,"is_reserved":false,"is_disabled":false,"rental_uris":{"android":"levelo://app?vid=c2eafa11-ad6c-4f3b-b6e4-6e6fc5d9785c","ios":"levelo://app?vid=c2eafa11-ad6c-4f3b-b6e4-6e6fc5d9785c"},"vehicle_type_id":"4","last_reported":1728295828,"current_range_meters":39200,"station_id":"ce4bhpp2rcd13ifvqhfg","pricing_plan_id":"cebpf4jnsgd1na2vs0mg"},{"bike_id":"6a231eb1-bb55-429a-9a26-8ab1386b6a0b","system_id":"levelo_inurba_marseille","lat":43.251,"lon":5.40321,"is_reserved":false,"is_disabled":false,"rental_uris":{"android":"levelo://app?vid=6a231eb1-bb55-429a-9a26-8ab1386b6a0b","ios":"levelo://app?vid=6a231eb1-bb55-429a-9a26-8ab1386b6a0b"},"vehicle_type_id":"4","last_reported":1728295828,"current_range_meters":36000,"station_id":"ce4bhlh2rcd13ifvqgig","pricing_plan_id":"cebpf4jnsgd1na2vs0mg"},{"bike_id":"a25e47d8-0720-4df5-baa4-a99c9ba5e5da","system_id":"levelo_inurba_marseille","lat":43.32487,"lon":5.3656,"is_reserved":false,"is_disabled":false,"rental_uris":{"android":"levelo://app?vid=a25e47d8-0720-4df5-baa4-a99c9ba5e5da","ios":"levelo://app?vid=a25e47d8-0720-4df5-baa4-a99c9ba5e5da"},"vehicle_type_id":"4","last_reported":1728295828,"current_range_meters":33200,"station_id":"ce4bhs12rcd13ifvqhvg","pricing_plan_id":"cebpf4jnsgd1na2vs0mg"},{"bike_id":"d6a904eb-96a5-4bea-a586-e8aaeedf5f4c","system_id":"levelo_inurba_marseille","lat":43.25723,"lon":5.41111,"is_reserved":false,"is_disabled":false,"rental_uris":{"android":"levelo://app?vid=d6a904eb-96a5-4bea-a586-e8aaeedf5f4c","ios":"levelo://app?vid=d6a904eb-96a5-4bea-a586-e8aaeedf5f4c"},"vehicle_type_id":"4","last_reported":1728295828,"current_range_meters":36000,"station_id":"ce4bhkp2rcd13ifvqgd0","pricing_plan_id":"cebpf4jnsgd1na2vs0mg"},{"bike_id":"f6849e98-e59e-4bc2-8e5a-02bcbb272aa6","system_id":"levelo_inurba_marseille","lat":43.33747,"lon":5.3745,"is_reserved":false,"is_disabled":false,"rental_uris":{"android":"levelo://app?vid=f6849e98-e59e-4bc2-8e5a-02bcbb272aa6","ios":"levelo://app?vid=f6849e98-e59e-4bc2-8e5a-02bcbb272aa6"},"vehicle_type_id":"4","last_reported":1728295828,"current_range_meters":38400,"station_id":"","pricing_plan_id":"cebpf4jnsgd1na2vs0mg"},{"bike_id":"f7612392-4f4b-453b-a64c-499de3c2600f","system_id":"levelo_inurba_marseille","lat":43.24163,"lon":5.36391,"is_reserved":false,"is_disabled":false,"rental_uris":{"android":"levelo://app?vid=f7612392-4f4b-453b-a64c-499de3c2600f","ios":"levelo://app?vid=f7612392-4f4b-453b-a64c-499de3c2600f"},"vehicle_type_id":"4","last_reported":1728295828,"current_range_meters":36800,"station_id":"cpo36qri1sfpv3e86is0","pricing_plan_id":"cebpf4jnsgd1na2vs0mg"},{"bike_id":"b4da9d8b-9301-478c-9f01-3fa9f5b15d66","system_id":"levelo_inurba_marseille","lat":43.33599,"lon":5.41026,"is_reserved":false,"is_disabled":false,"rental_uris":{"android":"levelo://app?vid=b4da9d8b-9301-478c-9f01-3fa9f5b15d66","ios":"levelo://app?vid=b4da9d8b-9301-478c-9f01-3fa9f5b15d66"},"vehicle_type_id":"4","last_reported":1728295828,"current_range_meters":36400,"station_id":"ce4bhqh2rcd13ifvqhmg","pricing_plan_id":"cebpf4jnsgd1na2vs0mg"},{"bike_id":"b27a5aba-d6eb-4037-b715-3d6e7f9a73bd","system_id":"levelo_inurba_marseille","lat":43.29563,"lon":5.39983,"is_reserved":false,"is_disabled":false,"rental_uris":{"android":"levelo://app?vid=b27a5aba-d6eb-4037-b715-3d6e7f9a73bd","ios":"levelo://app?vid=b27a5aba-d6eb-4037-b715-3d6e7f9a73bd"},"vehicle_type_id":"4","last_reported":1728295828,"current_range_meters":19600,"station_id":"ce4bh312rcd13ifvqdj0","pricing_plan_id":"cebpf4jnsgd1na2vs0mg"},{"bike_id":"d564790b-0852-4675-98f3-130b2123dbf4","system_id":"levelo_inurba_marseille","lat":43.2558,"lon":5.38233,"is_reserved":false,"is_disabled":false,"rental_uris":{"android":"levelo://app?vid=d564790b-0852-4675-98f3-130b2123dbf4","ios":"levelo://app?vid=d564790b-0852-4675-98f3-130b2123dbf4"},"vehicle_type_id":"4","last_reported":1728295828,"current_range_meters":39200,"station_id":"ce4bhih2rcd13ifvqfs0","pricing_plan_id":"cebpf4jnsgd1na2vs0mg"},{"bike_id":"7601111e-d98e-4343-918e-a1c97dcb54d4","system_id":"levelo_inurba_marseille","lat":43.2937,"lon":5.37843,"is_reserved":false,"is_disabled":false,"rental_uris":{"android":"levelo://app?vid=7601111e-d98e-4343-918e-a1c97dcb54d4","ios":"levelo://app?vid=7601111e-d98e-4343-918e-a1c97dcb54d4"},"vehicle_type_id":"4","last_reported":1728295828,"current_range_meters":38400,"station_id":"ce4bgjh2rcd13ifvqbf0","pricing_plan_id":"cebpf4jnsgd1na2vs0mg"},{"bike_id":"acc4a158-79c4-46ea-892f-f92f49cbf36e","system_id":"levelo_inurba_marseille","lat":43.29847,"lon":5.36287,"is_reserved":false,"is_disabled":false,"rental_uris":{"android":"levelo://app?vid=acc4a158-79c4-46ea-892f-f92f49cbf36e","ios":"levelo://app?vid=acc4a158-79c4-46ea-892f-f92f49cbf36e"},"vehicle_type_id":"4","last_reported":1728295828,"current_range_meters":38800,"station_id":"ce4bgpp2rcd13ifvqc3g","pricing_plan_id":"cebpf4jnsgd1na2vs0mg"},{"bike_id":"0fae0579-21a9-437c-87f5-9c07357a6f20","system_id":"levelo_inurba_marseille","lat":43.25932,"lon":5.40915,"is_reserved":false,"is_disabled":false,"rental_uris":{"android":"levelo://app?vid=0fae0579-21a9-437c-87f5-9c07357a6f20","ios":"levelo://app?vid=0fae0579-21a9-437c-87f5-9c07357a6f20"},"vehicle_type_id":"4","last_reported":1728295828,"current_range_meters":22400,"station_id":"ce4bhm92rcd13ifvqglg","pricing_plan_id":"cebpf4jnsgd1na2vs0mg"},{"bike_id":"a5f43e21-aab5-4ada-a340-8e9929bfea7f","system_id":"levelo_inurba_marseille","lat":43.30534,"lon":5.367,"is_reserved":false,"is_disabled":false,"rental_uris":{"android":"levelo://app?vid=a5f43e21-aab5-4ada-a340-8e9929bfea7f","ios":"levelo://app?vid=a5f43e21-aab5-4ada-a340-8e9929bfea7f"},"vehicle_type_id":"4","last_reported":1728295828,"current_range_meters":38800,"station_id":"ce4bgrp2rcd13ifvqc9g","pricing_plan_id":"cebpf4jnsgd1na2vs0mg"},{"bike_id":"66a81085-1a96-4f65-934a-3195a2059afa","system_id":"levelo_inurba_marseille","lat":43.24651,"lon":5.38903,"is_reserved":false,"is_disabled":false,"rental_uris":{"android":"levelo://app?vid=66a81085-1a96-4f65-934a-3195a2059afa","ios":"levelo://app?vid=66a81085-1a96-4f65-934a-3195a2059afa"},"vehicle_type_id":"4","last_reported":1728295828,"current_range_meters":38800,"station_id":"ce4bhg12rcd13ifvqf60","pricing_plan_id":"cebpf4jnsgd1na2vs0mg"},{"bike_id":"1e2a5ce6-1ec2-4cd8-98c4-133633224597","system_id":"levelo_inurba_marseille","lat":43.27996,"lon":5.41667,"is_reserved":false,"is_disabled":false,"rental_uris":{"android":"levelo://app?vid=1e2a5ce6-1ec2-4cd8-98c4-133633224597","ios":"levelo://app?vid=1e2a5ce6-1ec2-4cd8-98c4-133633224597"},"vehicle_type_id":"4","last_reported":1728295828,"current_range_meters":19600,"station_id":"ce4bho12rcd13ifvqh1g","pricing_plan_id":"cebpf4jnsgd1na2vs0mg"},{"bike_id":"4efafa29-d50e-4395-baa1-04871c4a4e6d","system_id":"levelo_inurba_marseille","lat":43.26026,"lon":5.37546,"is_reserved":false,"is_disabled":false,"rental_uris":{"android":"levelo://app?vid=4efafa29-d50e-4395-baa1-04871c4a4e6d","ios":"levelo://app?vid=4efafa29-d50e-4395-baa1-04871c4a4e6d"},"vehicle_type_id":"4","last_reported":1728295828,"current_range_meters":16400,"station_id":"ce4bhgh2rcd13ifvqfa0","pricing_plan_id":"cebpf4jnsgd1na2vs0mg"},{"bike_id":"6f4a656d-7265-4b3c-9f22-19a5b42b1a59","system_id":"levelo_inurba_marseille","lat":43.2593,"lon":5.40909,"is_reserved":false,"is_disabled":false,"rental_uris":{"android":"levelo://app?vid=6f4a656d-7265-4b3c-9f22-19a5b42b1a59","ios":"levelo://app?vid=6f4a656d-7265-4b3c-9f22-19a5b42b1a59"},"vehicle_type_id":"4","last_reported":1728295828,"current_range_meters":38800,"station_id":"ce4bhm92rcd13ifvqglg","pricing_plan_id":"cebpf4jnsgd1na2vs0mg"},{"bike_id":"2bdb65cd-1e63-4874-80ab-bd72b908164f","system_id":"levelo_inurba_marseille","lat":43.2315,"lon":5.43695,"is_reserved":false,"is_disabled":false,"rental_uris":{"android":"levelo://app?vid=2bdb65cd-1e63-4874-80ab-bd72b908164f","ios":"levelo://app?vid=2bdb65cd-1e63-4874-80ab-bd72b908164f"},"vehicle_type_id":"4","last_reported":1728295828,"current_range_meters":25600,"station_id":"ce4bhmp2rcd13ifvqgog","pricing_plan_id":"cebpf4jnsgd1na2vs0mg"},{"bike_id":"1e237901-05a1-4ed2-aaa3-55fc1e1edbcf","system_id":"levelo_inurba_marseille","lat":43.24387,"lon":5.37057,"is_reserved":false,"is_disabled":false,"rental_uris":{"android":"levelo://app?vid=1e237901-05a1-4ed2-aaa3-55fc1e1edbcf","ios":"levelo://app?vid=1e237901-05a1-4ed2-aaa3-55fc1e1edbcf"},"vehicle_type_id":"4","last_reported":1728295828,"current_range_meters":20400,"station_id":"ce4bhhh2rcd13ifvqfk0","pricing_plan_id":"cebpf4jnsgd1na2vs0mg"},{"bike_id":"025b2914-5a55-4831-9515-ed51afbb3e15","system_id":"levelo_inurba_marseille","lat":43.23149,"lon":5.43704,"is_reserved":false,"is_disabled":false,"rental_uris":{"android":"levelo://app?vid=025b2914-5a55-4831-9515-ed51afbb3e15","ios":"levelo://app?vid=025b2914-5a55-4831-9515-ed51afbb3e15"},"vehicle_type_id":"4","last_reported":1728295828,"current_range_meters":18000,"station_id":"ce4bhmp2rcd13ifvqgog","pricing_plan_id":"cebpf4jnsgd1na2vs0mg"},{"bike_id":"cd84b0c7-d33b-4f78-9278-f70535f1aa7c","system_id":"levelo_inurba_marseille","lat":43.28698,"lon":5.39981,"is_reserved":false,"is_disabled":false,"rental_uris":{"android":"levelo://app?vid=cd84b0c7-d33b-4f78-9278-f70535f1aa7c","ios":"levelo://app?vid=cd84b0c7-d33b-4f78-9278-f70535f1aa7c"},"vehicle_type_id":"4","last_reported":1728295828,"current_range_meters":29600,"station_id":"ce4bho92rcd13ifvqh3g","pricing_plan_id":"cebpf4jnsgd1na2vs0mg"},{"bike_id":"714ca429-1512-493a-b47a-15905dbac610","system_id":"levelo_inurba_marseille","lat":43.26674,"lon":5.38269,"is_reserved":false,"is_disabled":false,"rental_uris":{"android":"levelo://app?vid=714ca429-1512-493a-b47a-15905dbac610","ios":"levelo://app?vid=714ca429-1512-493a-b47a-15905dbac610"},"vehicle_type_id":"4","last_reported":1728295828,"current_range_meters":3600,"station_id":"ce4bhg92rcd13ifvqf90","pricing_plan_id":"cebpf4jnsgd1na2vs0mg"},{"bike_id":"c5735572-dc83-4a5b-8398-11ed9ad4c31d","system_id":"levelo_inurba_marseille","lat":43.29525,"lon":5.37513,"is_reserved":false,"is_disabled":false,"rental_uris":{"android":"levelo://app?vid=c5735572-dc83-4a5b-8398-11ed9ad4c31d","ios":"levelo://app?vid=c5735572-dc83-4a5b-8398-11ed9ad4c31d"},"vehicle_type_id":"4","last_reported":1728295828,"current_range_meters":27600,"station_id":"ce4bgkp2rcd13ifvqbmg","pricing_plan_id":"cebpf4jnsgd1na2vs0mg"},{"bike_id":"27e454fe-53f1-4c58-a3fe-9e10f753b6d5","system_id":"levelo_inurba_marseille","lat":43.27903,"lon":5.39581,"is_reserved":false,"is_disabled":false,"rental_uris":{"android":"levelo://app?vid=27e454fe-53f1-4c58-a3fe-9e10f753b6d5","ios":"levelo://app?vid=27e454fe-53f1-4c58-a3fe-9e10f753b6d5"},"vehicle_type_id":"4","last_reported":1728295828,"current_range_meters":8400,"station_id":"ce4bhf92rcd13ifvqf40","pricing_plan_id":"cebpf4jnsgd1na2vs0mg"},{"bike_id":"43e9938d-d274-4b1c-9a72-5009ec8410d0","system_id":"levelo_inurba_marseille","lat":43.25497,"lon":5.37654,"is_reserved":false,"is_disabled":false,"rental_uris":{"android":"levelo://app?vid=43e9938d-d274-4b1c-9a72-5009ec8410d0","ios":"levelo://app?vid=43e9938d-d274-4b1c-9a72-5009ec8410d0"},"vehicle_type_id":"4","last_reported":1728295828,"current_range_meters":18800,"station_id":"ce4bhh12rcd13ifvqff0","pricing_plan_id":"cebpf4jnsgd1na2vs0mg"},{"bike_id":"13b0039f-a583-46cf-9deb-910985564f65","system_id":"levelo_inurba_marseille","lat":43.29552,"lon":5.42281,"is_reserved":false,"is_disabled":false,"rental_uris":{"android":"levelo://app?vid=13b0039f-a583-46cf-9deb-910985564f65","ios":"levelo://app?vid=13b0039f-a583-46cf-9deb-910985564f65"},"vehicle_type_id":"4","last_reported":1728295828,"current_range_meters":38800,"station_id":"ce4bhph2rcd13ifvqhdg","pricing_plan_id":"cebpf4jnsgd1na2vs0mg"},{"bike_id":"ba307d2c-d81d-467b-8a51-ee7d871190d4","system_id":"levelo_inurba_marseille","lat":43.29001,"lon":5.35623,"is_reserved":false,"is_disabled":false,"rental_uris":{"android":"levelo://app?vid=ba307d2c-d81d-467b-8a51-ee7d871190d4","ios":"levelo://app?vid=ba307d2c-d81d-467b-8a51-ee7d871190d4"},"vehicle_type_id":"4","last_reported":1728295828,"current_range_meters":38800,"station_id":"ce4bhb92rcd13ifvqen0","pricing_plan_id":"cebpf4jnsgd1na2vs0mg"},{"bike_id":"c5d05b8d-17f0-475d-a6d8-f2bc26c12031","system_id":"levelo_inurba_marseille","lat":43.25823,"lon":5.39434,"is_reserved":false,"is_disabled":false,"rental_uris":{"android":"levelo://app?vid=c5d05b8d-17f0-475d-a6d8-f2bc26c12031","ios":"levelo://app?vid=c5d05b8d-17f0-475d-a6d8-f2bc26c12031"},"vehicle_type_id":"4","last_reported":1728295828,"current_range_meters":7200,"station_id":"ce4bhip2rcd13ifvqft0","pricing_plan_id":"cebpf4jnsgd1na2vs0mg"},{"bike_id":"5668e3af-e0f6-4c26-bc59-dada42ad47df","system_id":"levelo_inurba_marseille","lat":43.24071,"lon":5.37754,"is_reserved":false,"is_disabled":false,"rental_uris":{"android":"levelo://app?vid=5668e3af-e0f6-4c26-bc59-dada42ad47df","ios":"levelo://app?vid=5668e3af-e0f6-4c26-bc59-dada42ad47df"},"vehicle_type_id":"4","last_reported":1728295828,"current_range_meters":4000,"station_id":"ce4bhnp2rcd13ifvqgvg","pricing_plan_id":"cebpf4jnsgd1na2vs0mg"},{"bike_id":"19ab3180-048d-4d8a-b271-16960f370501","system_id":"levelo_inurba_marseille","lat":43.33776,"lon":5.37441,"is_reserved":false,"is_disabled":false,"rental_uris":{"android":"levelo://app?vid=19ab3180-048d-4d8a-b271-16960f370501","ios":"levelo://app?vid=19ab3180-048d-4d8a-b271-16960f370501"},"vehicle_type_id":"4","last_reported":1728295828,"current_range_meters":21600,"station_id":"","pricing_plan_id":"cebpf4jnsgd1na2vs0mg"},{"bike_id":"0f1bce6a-0c0c-4e8e-b75d-9b44f69348cc","system_id":"levelo_inurba_marseille","lat":43.26553,"lon":5.37284,"is_reserved":false,"is_disabled":false,"rental_uris":{"android":"levelo://app?vid=0f1bce6a-0c0c-4e8e-b75d-9b44f69348cc","ios":"levelo://app?vid=0f1bce6a-0c0c-4e8e-b75d-9b44f69348cc"},"vehicle_type_id":"4","last_reported":1728295828,"current_range_meters":14800,"station_id":"ce4bhg12rcd13ifvqf70","pricing_plan_id":"cebpf4jnsgd1na2vs0mg"},{"bike_id":"fcb769bd-e567-4fcc-a4bd-aeaa03f693aa","system_id":"levelo_inurba_marseille","lat":43.31337,"lon":5.36707,"is_reserved":false,"is_disabled":false,"rental_uris":{"android":"levelo://app?vid=fcb769bd-e567-4fcc-a4bd-aeaa03f693aa","ios":"levelo://app?vid=fcb769bd-e567-4fcc-a4bd-aeaa03f693aa"},"vehicle_type_id":"4","last_reported":1728295828,"current_range_meters":4400,"station_id":"ce4bgr92rcd13ifvqc6g","pricing_plan_id":"cebpf4jnsgd1na2vs0mg"},{"bike_id":"0c616d3c-0e3b-4340-a2c6-877adb1f96a6","system_id":"levelo_inurba_marseille","lat":43.291,"lon":5.38318,"is_reserved":false,"is_disabled":false,"rental_uris":{"android":"levelo://app?vid=0c616d3c-0e3b-4340-a2c6-877adb1f96a6","ios":"levelo://app?vid=0c616d3c-0e3b-4340-a2c6-877adb1f96a6"},"vehicle_type_id":"4","last_reported":1728295828,"current_range_meters":23200,"station_id":"ce4bh612rcd13ifvqe6g","pricing_plan_id":"cebpf4jnsgd1na2vs0mg"},{"bike_id":"2b42857e-8086-49c9-afc5-b5d06e029f54","system_id":"levelo_inurba_marseille","lat":43.265503,"lon":5.372861,"is_reserved":false,"is_disabled":false,"rental_uris":{"android":"levelo://app?vid=2b42857e-8086-49c9-afc5-b5d06e029f54","ios":"levelo://app?vid=2b42857e-8086-49c9-afc5-b5d06e029f54"},"vehicle_type_id":"4","last_reported":1728295828,"current_range_meters":4000,"station_id":"ce4bhg12rcd13ifvqf70","pricing_plan_id":"cebpf4jnsgd1na2vs0mg"},{"bike_id":"da52153c-5f48-4c0e-9bce-db1d57bf1b95","system_id":"levelo_inurba_marseille","lat":43.24651,"lon":5.38895,"is_reserved":false,"is_disabled":false,"rental_uris":{"android":"levelo://app?vid=da52153c-5f48-4c0e-9bce-db1d57bf1b95","ios":"levelo://app?vid=da52153c-5f48-4c0e-9bce-db1d57bf1b95"},"vehicle_type_id":"4","last_reported":1728295828,"current_range_meters":8400,"station_id":"ce4bhg12rcd13ifvqf60","pricing_plan_id":"cebpf4jnsgd1na2vs0mg"},{"bike_id":"3d43d284-246c-4972-85db-35a5ba553102","system_id":"levelo_inurba_marseille","lat":43.29702,"lon":5.37708,"is_reserved":false,"is_disabled":false,"rental_uris":{"android":"levelo://app?vid=3d43d284-246c-4972-85db-35a5ba553102","ios":"levelo://app?vid=3d43d284-246c-4972-85db-35a5ba553102"},"vehicle_type_id":"4","last_reported":1728295828,"current_range_meters":38000,"station_id":"ce4bgkh2rcd13ifvqbl0","pricing_plan_id":"cebpf4jnsgd1na2vs0mg"},{"bike_id":"4e0c83a2-b0c3-4894-8559-e509681998d3","system_id":"levelo_inurba_marseille","lat":43.3112,"lon":5.3833,"is_reserved":false,"is_disabled":false,"rental_uris":{"android":"levelo://app?vid=4e0c83a2-b0c3-4894-8559-e509681998d3","ios":"levelo://app?vid=4e0c83a2-b0c3-4894-8559-e509681998d3"},"vehicle_type_id":"4","last_reported":1728295828,"current_range_meters":3200,"station_id":"ce4bgv92rcd13ifvqcr0","pricing_plan_id":"cebpf4jnsgd1na2vs0mg"},{"bike_id":"1c28492d-40d4-440d-ae82-192de6a0bc70","system_id":"levelo_inurba_marseille","lat":43.29908,"lon":5.3814,"is_reserved":false,"is_disabled":false,"rental_uris":{"android":"levelo://app?vid=1c28492d-40d4-440d-ae82-192de6a0bc70","ios":"levelo://app?vid=1c28492d-40d4-440d-ae82-192de6a0bc70"},"vehicle_type_id":"4","last_reported":1728295828,"current_range_meters":24400,"station_id":"ce4bgj12rcd13ifvqbc0","pricing_plan_id":"cebpf4jnsgd1na2vs0mg"},{"bike_id":"d4f85512-eff9-43d3-a907-7a6acb590310","system_id":"levelo_inurba_marseille","lat":43.30537,"lon":5.36538,"is_reserved":false,"is_disabled":false,"rental_uris":{"android":"levelo://app?vid=d4f85512-eff9-43d3-a907-7a6acb590310","ios":"levelo://app?vid=d4f85512-eff9-43d3-a907-7a6acb590310"},"vehicle_type_id":"4","last_reported":1728295828,"current_range_meters":38800,"station_id":"ce4bgs12rcd13ifvqcag","pricing_plan_id":"cebpf4jnsgd1na2vs0mg"},{"bike_id":"96187375-27cf-476f-b0df-40c900959d5d","system_id":"levelo_inurba_marseille","lat":43.24085,"lon":5.37754,"is_reserved":false,"is_disabled":false,"rental_uris":{"android":"levelo://app?vid=96187375-27cf-476f-b0df-40c900959d5d","ios":"levelo://app?vid=96187375-27cf-476f-b0df-40c900959d5d"},"vehicle_type_id":"4","last_reported":1728295828,"current_range_meters":36400,"station_id":"ce4bhnp2rcd13ifvqgvg","pricing_plan_id":"cebpf4jnsgd1na2vs0mg"},{"bike_id":"c190b4a1-ea1d-47e2-b2e8-eefa3099f9cc","system_id":"levelo_inurba_marseille","lat":43.23191,"lon":5.35556,"is_reserved":false,"is_disabled":false,"rental_uris":{"android":"levelo://app?vid=c190b4a1-ea1d-47e2-b2e8-eefa3099f9cc","ios":"levelo://app?vid=c190b4a1-ea1d-47e2-b2e8-eefa3099f9cc"},"vehicle_type_id":"4","last_reported":1728295828,"current_range_meters":38800,"station_id":"ce4bhu92rcd13ifvqi70","pricing_plan_id":"cebpf4jnsgd1na2vs0mg"},{"bike_id":"d08e6272-8c8e-4bc3-8151-0aaa0dc207d9","system_id":"levelo_inurba_marseille","lat":43.295258,"lon":5.390331,"is_reserved":false,"is_disabled":false,"rental_uris":{"android":"levelo://app?vid=d08e6272-8c8e-4bc3-8151-0aaa0dc207d9","ios":"levelo://app?vid=d08e6272-8c8e-4bc3-8151-0aaa0dc207d9"},"vehicle_type_id":"4","last_reported":1728295828,"current_range_meters":16000,"station_id":"ce4bh3p2rcd13ifvqdp0","pricing_plan_id":"cebpf4jnsgd1na2vs0mg"},{"bike_id":"637950e6-461d-4fd3-aeb4-7a41f1df4b89","system_id":"levelo_inurba_marseille","lat":43.3053,"lon":5.36703,"is_reserved":false,"is_disabled":false,"rental_uris":{"android":"levelo://app?vid=637950e6-461d-4fd3-aeb4-7a41f1df4b89","ios":"levelo://app?vid=637950e6-461d-4fd3-aeb4-7a41f1df4b89"},"vehicle_type_id":"4","last_reported":1728295828,"current_range_meters":10000,"station_id":"ce4bgrp2rcd13ifvqc9g","pricing_plan_id":"cebpf4jnsgd1na2vs0mg"},{"bike_id":"8b9ad1c5-2ad7-4e21-ad10-2bf9dc7bdbd8","system_id":"levelo_inurba_marseille","lat":43.262044,"lon":5.379244,"is_reserved":false,"is_disabled":false,"rental_uris":{"android":"levelo://app?vid=8b9ad1c5-2ad7-4e21-ad10-2bf9dc7bdbd8","ios":"levelo://app?vid=8b9ad1c5-2ad7-4e21-ad10-2bf9dc7bdbd8"},"vehicle_type_id":"4","last_reported":1728295828,"current_range_meters":32400,"station_id":"ce4bhjp2rcd13ifvqg90","pricing_plan_id":"cebpf4jnsgd1na2vs0mg"},{"bike_id":"a82e262b-b7c1-4737-9203-cbce5abcf5ba","system_id":"levelo_inurba_marseille","lat":43.26945,"lon":5.38631,"is_reserved":false,"is_disabled":false,"rental_uris":{"android":"levelo://app?vid=a82e262b-b7c1-4737-9203-cbce5abcf5ba","ios":"levelo://app?vid=a82e262b-b7c1-4737-9203-cbce5abcf5ba"},"vehicle_type_id":"4","last_reported":1728295828,"current_range_meters":38800,"station_id":"ce4bhh92rcd13ifvqfh0","pricing_plan_id":"cebpf4jnsgd1na2vs0mg"},{"bike_id":"f8f76ece-43e6-44a9-b368-d97ca628cdcf","system_id":"levelo_inurba_marseille","lat":43.23152,"lon":5.43709,"is_reserved":false,"is_disabled":false,"rental_uris":{"android":"levelo://app?vid=f8f76ece-43e6-44a9-b368-d97ca628cdcf","ios":"levelo://app?vid=f8f76ece-43e6-44a9-b368-d97ca628cdcf"},"vehicle_type_id":"4","last_reported":1728295828,"current_range_meters":36800,"station_id":"ce4bhmp2rcd13ifvqgog","pricing_plan_id":"cebpf4jnsgd1na2vs0mg"},{"bike_id":"f1a587de-a4d9-42a8-8fe6-d4518f6dd1b0","system_id":"levelo_inurba_marseille","lat":43.23063,"lon":5.35493,"is_reserved":false,"is_disabled":false,"rental_uris":{"android":"levelo://app?vid=f1a587de-a4d9-42a8-8fe6-d4518f6dd1b0","ios":"levelo://app?vid=f1a587de-a4d9-42a8-8fe6-d4518f6dd1b0"},"vehicle_type_id":"4","last_reported":1728295828,"current_range_meters":12800,"station_id":"cpo3342slgdg3j2ifvpg","pricing_plan_id":"cebpf4jnsgd1na2vs0mg"},{"bike_id":"6b4618ac-bf15-42bd-b8ce-f62f3e28352b","system_id":"levelo_inurba_marseille","lat":43.23192,"lon":5.35542,"is_reserved":false,"is_disabled":false,"rental_uris":{"android":"levelo://app?vid=6b4618ac-bf15-42bd-b8ce-f62f3e28352b","ios":"levelo://app?vid=6b4618ac-bf15-42bd-b8ce-f62f3e28352b"},"vehicle_type_id":"4","last_reported":1728295828,"current_range_meters":34000,"station_id":"ce4bhu92rcd13ifvqi70","pricing_plan_id":"cebpf4jnsgd1na2vs0mg"},{"bike_id":"d81e8b70-0cec-4a83-ac18-c99848066d32","system_id":"levelo_inurba_marseille","lat":43.24079,"lon":5.3775,"is_reserved":false,"is_disabled":false,"rental_uris":{"android":"levelo://app?vid=d81e8b70-0cec-4a83-ac18-c99848066d32","ios":"levelo://app?vid=d81e8b70-0cec-4a83-ac18-c99848066d32"},"vehicle_type_id":"4","last_reported":1728295828,"current_range_meters":38000,"station_id":"ce4bhnp2rcd13ifvqgvg","pricing_plan_id":"cebpf4jnsgd1na2vs0mg"},{"bike_id":"a49eaf76-607e-407c-85d8-153589115262","system_id":"levelo_inurba_marseille","lat":43.25936,"lon":5.40899,"is_reserved":false,"is_disabled":false,"rental_uris":{"android":"levelo://app?vid=a49eaf76-607e-407c-85d8-153589115262","ios":"levelo://app?vid=a49eaf76-607e-407c-85d8-153589115262"},"vehicle_type_id":"4","last_reported":1728295828,"current_range_meters":36400,"station_id":"ce4bhm92rcd13ifvqglg","pricing_plan_id":"cebpf4jnsgd1na2vs0mg"},{"bike_id":"0e53cf03-12b7-4626-87be-c7b21b29ba88","system_id":"levelo_inurba_marseille","lat":43.2958,"lon":5.37517,"is_reserved":false,"is_disabled":false,"rental_uris":{"android":"levelo://app?vid=0e53cf03-12b7-4626-87be-c7b21b29ba88","ios":"levelo://app?vid=0e53cf03-12b7-4626-87be-c7b21b29ba88"},"vehicle_type_id":"4","last_reported":1728295828,"current_range_meters":36800,"station_id":"ce4bgh92rcd13ifvqb50","pricing_plan_id":"cebpf4jnsgd1na2vs0mg"},{"bike_id":"3e0be349-feb8-46fc-a61e-6161d5ce82b7","system_id":"levelo_inurba_marseille","lat":43.29521,"lon":5.39035,"is_reserved":false,"is_disabled":false,"rental_uris":{"android":"levelo://app?vid=3e0be349-feb8-46fc-a61e-6161d5ce82b7","ios":"levelo://app?vid=3e0be349-feb8-46fc-a61e-6161d5ce82b7"},"vehicle_type_id":"4","last_reported":1728295828,"current_range_meters":37600,"station_id":"ce4bh3p2rcd13ifvqdp0","pricing_plan_id":"cebpf4jnsgd1na2vs0mg"},{"bike_id":"e1981508-8176-4aae-a242-53630f7b837d","system_id":"levelo_inurba_marseille","lat":43.32655,"lon":5.40995,"is_reserved":false,"is_disabled":false,"rental_uris":{"android":"levelo://app?vid=e1981508-8176-4aae-a242-53630f7b837d","ios":"levelo://app?vid=e1981508-8176-4aae-a242-53630f7b837d"},"vehicle_type_id":"4","last_reported":1728295828,"current_range_meters":37600,"station_id":"ce4bhpp2rcd13ifvqhgg","pricing_plan_id":"cebpf4jnsgd1na2vs0mg"},{"bike_id":"03452e9b-ead9-48c8-85f0-ac906de515e7","system_id":"levelo_inurba_marseille","lat":43.26055,"lon":5.39402,"is_reserved":false,"is_disabled":false,"rental_uris":{"android":"levelo://app?vid=03452e9b-ead9-48c8-85f0-ac906de515e7","ios":"levelo://app?vid=03452e9b-ead9-48c8-85f0-ac906de515e7"},"vehicle_type_id":"4","last_reported":1728295828,"current_range_meters":28000,"station_id":"ce4bhh92rcd13ifvqfj0","pricing_plan_id":"cebpf4jnsgd1na2vs0mg"},{"bike_id":"21167a17-73e0-4a8a-bc23-694f2a446be5","system_id":"levelo_inurba_marseille","lat":43.3032,"lon":5.36912,"is_reserved":false,"is_disabled":false,"rental_uris":{"android":"levelo://app?vid=21167a17-73e0-4a8a-bc23-694f2a446be5","ios":"levelo://app?vid=21167a17-73e0-4a8a-bc23-694f2a446be5"},"vehicle_type_id":"4","last_reported":1728295828,"current_range_meters":13600,"station_id":"ce4bgqh2rcd13ifvqc5g","pricing_plan_id":"cebpf4jnsgd1na2vs0mg"},{"bike_id":"1d152269-c2fa-4900-bfa9-f20a095e29df","system_id":"levelo_inurba_marseille","lat":43.25723,"lon":5.41103,"is_reserved":false,"is_disabled":false,"rental_uris":{"android":"levelo://app?vid=1d152269-c2fa-4900-bfa9-f20a095e29df","ios":"levelo://app?vid=1d152269-c2fa-4900-bfa9-f20a095e29df"},"vehicle_type_id":"4","last_reported":1728295828,"current_range_meters":36800,"station_id":"ce4bhkp2rcd13ifvqgd0","pricing_plan_id":"cebpf4jnsgd1na2vs0mg"},{"bike_id":"25fca34d-d1d1-4912-9ad1-ead795e3fa9a","system_id":"levelo_inurba_marseille","lat":43.30884,"lon":5.37312,"is_reserved":false,"is_disabled":false,"rental_uris":{"android":"levelo://app?vid=25fca34d-d1d1-4912-9ad1-ead795e3fa9a","ios":"levelo://app?vid=25fca34d-d1d1-4912-9ad1-ead795e3fa9a"},"vehicle_type_id":"4","last_reported":1728295828,"current_range_meters":36400,"station_id":"","pricing_plan_id":"cebpf4jnsgd1na2vs0mg"},{"bike_id":"fd5eca2a-efbf-49f6-b20c-313e16602a60","system_id":"levelo_inurba_marseille","lat":43.23146,"lon":5.43709,"is_reserved":false,"is_disabled":false,"rental_uris":{"android":"levelo://app?vid=fd5eca2a-efbf-49f6-b20c-313e16602a60","ios":"levelo://app?vid=fd5eca2a-efbf-49f6-b20c-313e16602a60"},"vehicle_type_id":"4","last_reported":1728295828,"current_range_meters":28800,"station_id":"ce4bhmp2rcd13ifvqgog","pricing_plan_id":"cebpf4jnsgd1na2vs0mg"},{"bike_id":"ceae7ede-a81e-41c8-b671-3d168e17e516","system_id":"levelo_inurba_marseille","lat":43.24388,"lon":5.37058,"is_reserved":false,"is_disabled":false,"rental_uris":{"android":"levelo://app?vid=ceae7ede-a81e-41c8-b671-3d168e17e516","ios":"levelo://app?vid=ceae7ede-a81e-41c8-b671-3d168e17e516"},"vehicle_type_id":"4","last_reported":1728295828,"current_range_meters":32400,"station_id":"ce4bhhh2rcd13ifvqfk0","pricing_plan_id":"cebpf4jnsgd1na2vs0mg"},{"bike_id":"e03c9d0c-17ae-4003-b903-fd8aa9951041","system_id":"levelo_inurba_marseille","lat":43.33754,"lon":5.37443,"is_reserved":false,"is_disabled":false,"rental_uris":{"android":"levelo://app?vid=e03c9d0c-17ae-4003-b903-fd8aa9951041","ios":"levelo://app?vid=e03c9d0c-17ae-4003-b903-fd8aa9951041"},"vehicle_type_id":"4","last_reported":1728295828,"current_range_meters":24000,"station_id":"","pricing_plan_id":"cebpf4jnsgd1na2vs0mg"},{"bike_id":"926380f0-4ec2-45d5-8c58-de39b75f601e","system_id":"levelo_inurba_marseille","lat":43.23055,"lon":5.35493,"is_reserved":false,"is_disabled":false,"rental_uris":{"android":"levelo://app?vid=926380f0-4ec2-45d5-8c58-de39b75f601e","ios":"levelo://app?vid=926380f0-4ec2-45d5-8c58-de39b75f601e"},"vehicle_type_id":"4","last_reported":1728295828,"current_range_meters":17200,"station_id":"cpo3342slgdg3j2ifvpg","pricing_plan_id":"cebpf4jnsgd1na2vs0mg"},{"bike_id":"a485b0d4-2721-435c-b41c-eed272d33850","system_id":"levelo_inurba_marseille","lat":43.25935,"lon":5.40906,"is_reserved":false,"is_disabled":false,"rental_uris":{"android":"levelo://app?vid=a485b0d4-2721-435c-b41c-eed272d33850","ios":"levelo://app?vid=a485b0d4-2721-435c-b41c-eed272d33850"},"vehicle_type_id":"4","last_reported":1728295828,"current_range_meters":22800,"station_id":"ce4bhm92rcd13ifvqglg","pricing_plan_id":"cebpf4jnsgd1na2vs0mg"},{"bike_id":"4fce74ce-69a6-49ed-b91b-4fb3cbdedd8f","system_id":"levelo_inurba_marseille","lat":43.32475,"lon":5.36577,"is_reserved":false,"is_disabled":false,"rental_uris":{"android":"levelo://app?vid=4fce74ce-69a6-49ed-b91b-4fb3cbdedd8f","ios":"levelo://app?vid=4fce74ce-69a6-49ed-b91b-4fb3cbdedd8f"},"vehicle_type_id":"4","last_reported":1728295828,"current_range_meters":32000,"station_id":"ce4bhs12rcd13ifvqhvg","pricing_plan_id":"cebpf4jnsgd1na2vs0mg"},{"bike_id":"f283baec-7b1e-448a-bc13-1ac5556b74b6","system_id":"levelo_inurba_marseille","lat":43.27988,"lon":5.40004,"is_reserved":false,"is_disabled":false,"rental_uris":{"android":"levelo://app?vid=f283baec-7b1e-448a-bc13-1ac5556b74b6","ios":"levelo://app?vid=f283baec-7b1e-448a-bc13-1ac5556b74b6"},"vehicle_type_id":"4","last_reported":1728295828,"current_range_meters":37600,"station_id":"ce4bho92rcd13ifvqh4g","pricing_plan_id":"cebpf4jnsgd1na2vs0mg"},{"bike_id":"ab6e6edb-0739-4561-acb1-ffa3c039975c","system_id":"levelo_inurba_marseille","lat":43.26034,"lon":5.37548,"is_reserved":false,"is_disabled":false,"rental_uris":{"android":"levelo://app?vid=ab6e6edb-0739-4561-acb1-ffa3c039975c","ios":"levelo://app?vid=ab6e6edb-0739-4561-acb1-ffa3c039975c"},"vehicle_type_id":"4","last_reported":1728295828,"current_range_meters":20800,"station_id":"ce4bhgh2rcd13ifvqfa0","pricing_plan_id":"cebpf4jnsgd1na2vs0mg"},{"bike_id":"e3a6b167-8990-4e32-bca1-442bc2112a6b","system_id":"levelo_inurba_marseille","lat":43.30329,"lon":5.40434,"is_reserved":false,"is_disabled":false,"rental_uris":{"android":"levelo://app?vid=e3a6b167-8990-4e32-bca1-442bc2112a6b","ios":"levelo://app?vid=e3a6b167-8990-4e32-bca1-442bc2112a6b"},"vehicle_type_id":"4","last_reported":1728295828,"current_range_meters":30000,"station_id":"ce4bh012rcd13ifvqd10","pricing_plan_id":"cebpf4jnsgd1na2vs0mg"},{"bike_id":"23d97206-67ad-48c1-8b18-58e64db1fc38","system_id":"levelo_inurba_marseille","lat":43.28919,"lon":5.38388,"is_reserved":false,"is_disabled":false,"rental_uris":{"android":"levelo://app?vid=23d97206-67ad-48c1-8b18-58e64db1fc38","ios":"levelo://app?vid=23d97206-67ad-48c1-8b18-58e64db1fc38"},"vehicle_type_id":"4","last_reported":1728295828,"current_range_meters":12800,"station_id":"ce4bh612rcd13ifvqe6g","pricing_plan_id":"cebpf4jnsgd1na2vs0mg"},{"bike_id":"260ed674-5c80-4eea-baa5-4641d577e36d","system_id":"levelo_inurba_marseille","lat":43.26679,"lon":5.38257,"is_reserved":false,"is_disabled":false,"rental_uris":{"android":"levelo://app?vid=260ed674-5c80-4eea-baa5-4641d577e36d","ios":"levelo://app?vid=260ed674-5c80-4eea-baa5-4641d577e36d"},"vehicle_type_id":"4","last_reported":1728295828,"current_range_meters":38800,"station_id":"ce4bhg92rcd13ifvqf90","pricing_plan_id":"cebpf4jnsgd1na2vs0mg"},{"bike_id":"c145d5ad-f88d-4d83-a078-dd9a7c07eddd","system_id":"levelo_inurba_marseille","lat":43.29633,"lon":5.40595,"is_reserved":false,"is_disabled":false,"rental_uris":{"android":"levelo://app?vid=c145d5ad-f88d-4d83-a078-dd9a7c07eddd","ios":"levelo://app?vid=c145d5ad-f88d-4d83-a078-dd9a7c07eddd"},"vehicle_type_id":"4","last_reported":1728295828,"current_range_meters":21600,"station_id":"ce4bh0h2rcd13ifvqd60","pricing_plan_id":"cebpf4jnsgd1na2vs0mg"},{"bike_id":"56b6fd59-75e4-4531-8391-9ea094f65b50","system_id":"levelo_inurba_marseille","lat":43.25931,"lon":5.40906,"is_reserved":false,"is_disabled":false,"rental_uris":{"android":"levelo://app?vid=56b6fd59-75e4-4531-8391-9ea094f65b50","ios":"levelo://app?vid=56b6fd59-75e4-4531-8391-9ea094f65b50"},"vehicle_type_id":"4","last_reported":1728295828,"current_range_meters":24000,"station_id":"ce4bhm92rcd13ifvqglg","pricing_plan_id":"cebpf4jnsgd1na2vs0mg"},{"bike_id":"ec2d0e6d-c7c0-47e4-a08a-2520de140e57","system_id":"levelo_inurba_marseille","lat":43.27488,"lon":5.42453,"is_reserved":false,"is_disabled":false,"rental_uris":{"android":"levelo://app?vid=ec2d0e6d-c7c0-47e4-a08a-2520de140e57","ios":"levelo://app?vid=ec2d0e6d-c7c0-47e4-a08a-2520de140e57"},"vehicle_type_id":"4","last_reported":1728295828,"current_range_meters":20000,"station_id":"ce4bhn92rcd13ifvqgrg","pricing_plan_id":"cebpf4jnsgd1na2vs0mg"},{"bike_id":"fe0711f2-c9bf-4270-ba88-3dd1cf82ee69","system_id":"levelo_inurba_marseille","lat":43.29367,"lon":5.37845,"is_reserved":false,"is_disabled":false,"rental_uris":{"android":"levelo://app?vid=fe0711f2-c9bf-4270-ba88-3dd1cf82ee69","ios":"levelo://app?vid=fe0711f2-c9bf-4270-ba88-3dd1cf82ee69"},"vehicle_type_id":"4","last_reported":1728295828,"current_range_meters":3200,"station_id":"ce4bgjh2rcd13ifvqbf0","pricing_plan_id":"cebpf4jnsgd1na2vs0mg"},{"bike_id":"3dee1b2a-ef99-48c5-b0e9-db6ea2626874","system_id":"levelo_inurba_marseille","lat":43.25867,"lon":5.39896,"is_reserved":false,"is_disabled":false,"rental_uris":{"android":"levelo://app?vid=3dee1b2a-ef99-48c5-b0e9-db6ea2626874","ios":"levelo://app?vid=3dee1b2a-ef99-48c5-b0e9-db6ea2626874"},"vehicle_type_id":"4","last_reported":1728295828,"current_range_meters":36800,"station_id":"ce4bhl92rcd13ifvqghg","pricing_plan_id":"cebpf4jnsgd1na2vs0mg"},{"bike_id":"5b4357c8-57e1-4ebd-ae93-a48a2c99532e","system_id":"levelo_inurba_marseille","lat":43.29529,"lon":5.39404,"is_reserved":false,"is_disabled":false,"rental_uris":{"android":"levelo://app?vid=5b4357c8-57e1-4ebd-ae93-a48a2c99532e","ios":"levelo://app?vid=5b4357c8-57e1-4ebd-ae93-a48a2c99532e"},"vehicle_type_id":"4","last_reported":1728295828,"current_range_meters":33600,"station_id":"ce4bh292rcd13ifvqdf0","pricing_plan_id":"cebpf4jnsgd1na2vs0mg"},{"bike_id":"f427eab2-bfe4-4bc7-9e5d-2070ae307b0a","system_id":"levelo_inurba_marseille","lat":43.2656,"lon":5.3728,"is_reserved":false,"is_disabled":false,"rental_uris":{"android":"levelo://app?vid=f427eab2-bfe4-4bc7-9e5d-2070ae307b0a","ios":"levelo://app?vid=f427eab2-bfe4-4bc7-9e5d-2070ae307b0a"},"vehicle_type_id":"4","last_reported":1728295828,"current_range_meters":27600,"station_id":"ce4bhg12rcd13ifvqf70","pricing_plan_id":"cebpf4jnsgd1na2vs0mg"},{"bike_id":"212a10c7-bca6-4b73-98a9-8a2d944ff115","system_id":"levelo_inurba_marseille","lat":43.24653,"lon":5.38898,"is_reserved":false,"is_disabled":false,"rental_uris":{"android":"levelo://app?vid=212a10c7-bca6-4b73-98a9-8a2d944ff115","ios":"levelo://app?vid=212a10c7-bca6-4b73-98a9-8a2d944ff115"},"vehicle_type_id":"4","last_reported":1728295828,"current_range_meters":22400,"station_id":"ce4bhg12rcd13ifvqf60","pricing_plan_id":"cebpf4jnsgd1na2vs0mg"},{"bike_id":"af101257-97d8-427d-926c-bfd575a5c827","system_id":"levelo_inurba_marseille","lat":43.231288,"lon":5.354671,"is_reserved":false,"is_disabled":false,"rental_uris":{"android":"levelo://app?vid=af101257-97d8-427d-926c-bfd575a5c827","ios":"levelo://app?vid=af101257-97d8-427d-926c-bfd575a5c827"},"vehicle_type_id":"4","last_reported":1728295828,"current_range_meters":8000,"station_id":"cpo3342slgdg3j2ifvpg","pricing_plan_id":"cebpf4jnsgd1na2vs0mg"},{"bike_id":"79d4ce44-dde0-4856-adfb-9d048612b764","system_id":"levelo_inurba_marseille","lat":43.24171,"lon":5.36393,"is_reserved":false,"is_disabled":false,"rental_uris":{"android":"levelo://app?vid=79d4ce44-dde0-4856-adfb-9d048612b764","ios":"levelo://app?vid=79d4ce44-dde0-4856-adfb-9d048612b764"},"vehicle_type_id":"4","last_reported":1728295828,"current_range_meters":28800,"station_id":"cpo36qri1sfpv3e86is0","pricing_plan_id":"cebpf4jnsgd1na2vs0mg"},{"bike_id":"6362dd7e-711b-4b82-af8e-291ea8f6ea1e","system_id":"levelo_inurba_marseille","lat":43.23068,"lon":5.35493,"is_reserved":false,"is_disabled":false,"rental_uris":{"android":"levelo://app?vid=6362dd7e-711b-4b82-af8e-291ea8f6ea1e","ios":"levelo://app?vid=6362dd7e-711b-4b82-af8e-291ea8f6ea1e"},"vehicle_type_id":"4","last_reported":1728295828,"current_range_meters":26800,"station_id":"cpo3342slgdg3j2ifvpg","pricing_plan_id":"cebpf4jnsgd1na2vs0mg"},{"bike_id":"5cfcb4a3-b491-4bf3-b837-685ae317d86a","system_id":"levelo_inurba_marseille","lat":43.250092,"lon":5.375312,"is_reserved":false,"is_disabled":false,"rental_uris":{"android":"levelo://app?vid=5cfcb4a3-b491-4bf3-b837-685ae317d86a","ios":"levelo://app?vid=5cfcb4a3-b491-4bf3-b837-685ae317d86a"},"vehicle_type_id":"4","last_reported":1728295828,"current_range_meters":32400,"station_id":"ce4bhg92rcd13ifvqf90","pricing_plan_id":"cebpf4jnsgd1na2vs0mg"},{"bike_id":"0ca14155-209c-48ce-8200-84d3a38551ab","system_id":"levelo_inurba_marseille","lat":43.29364,"lon":5.37839,"is_reserved":false,"is_disabled":false,"rental_uris":{"android":"levelo://app?vid=0ca14155-209c-48ce-8200-84d3a38551ab","ios":"levelo://app?vid=0ca14155-209c-48ce-8200-84d3a38551ab"},"vehicle_type_id":"4","last_reported":1728295828,"current_range_meters":17200,"station_id":"ce4bgjh2rcd13ifvqbf0","pricing_plan_id":"cebpf4jnsgd1na2vs0mg"},{"bike_id":"a6eb02c9-05b8-44b0-90b0-1198a1aead23","system_id":"levelo_inurba_marseille","lat":43.26058,"lon":5.3939,"is_reserved":false,"is_disabled":false,"rental_uris":{"android":"levelo://app?vid=a6eb02c9-05b8-44b0-90b0-1198a1aead23","ios":"levelo://app?vid=a6eb02c9-05b8-44b0-90b0-1198a1aead23"},"vehicle_type_id":"4","last_reported":1728295828,"current_range_meters":38800,"station_id":"ce4bhh92rcd13ifvqfj0","pricing_plan_id":"cebpf4jnsgd1na2vs0mg"},{"bike_id":"31b58a9c-5720-4208-9888-2929c39f074e","system_id":"levelo_inurba_marseille","lat":43.30569,"lon":5.39774,"is_reserved":false,"is_disabled":false,"rental_uris":{"android":"levelo://app?vid=31b58a9c-5720-4208-9888-2929c39f074e","ios":"levelo://app?vid=31b58a9c-5720-4208-9888-2929c39f074e"},"vehicle_type_id":"4","last_reported":1728295828,"current_range_meters":24400,"station_id":"ce4bgt12rcd13ifvqce0","pricing_plan_id":"cebpf4jnsgd1na2vs0mg"},{"bike_id":"dfe58ff4-9ce3-4c71-85c5-3b6010bcc761","system_id":"levelo_inurba_marseille","lat":43.31363,"lon":5.36755,"is_reserved":false,"is_disabled":false,"rental_uris":{"android":"levelo://app?vid=dfe58ff4-9ce3-4c71-85c5-3b6010bcc761","ios":"levelo://app?vid=dfe58ff4-9ce3-4c71-85c5-3b6010bcc761"},"vehicle_type_id":"4","last_reported":1728295828,"current_range_meters":9200,"station_id":"ce4bgr92rcd13ifvqc6g","pricing_plan_id":"cebpf4jnsgd1na2vs0mg"},{"bike_id":"fb71e225-5023-46fe-91ec-3c1ac66f4e78","system_id":"levelo_inurba_marseille","lat":43.30132,"lon":5.37418,"is_reserved":false,"is_disabled":false,"rental_uris":{"android":"levelo://app?vid=fb71e225-5023-46fe-91ec-3c1ac66f4e78","ios":"levelo://app?vid=fb71e225-5023-46fe-91ec-3c1ac66f4e78"},"vehicle_type_id":"4","last_reported":1728295828,"current_range_meters":38800,"station_id":"ce4bgs92rcd13ifvqcc0","pricing_plan_id":"cebpf4jnsgd1na2vs0mg"},{"bike_id":"ad39739e-a828-440a-85a4-69c39c45940d","system_id":"levelo_inurba_marseille","lat":43.2936,"lon":5.37836,"is_reserved":false,"is_disabled":false,"rental_uris":{"android":"levelo://app?vid=ad39739e-a828-440a-85a4-69c39c45940d","ios":"levelo://app?vid=ad39739e-a828-440a-85a4-69c39c45940d"},"vehicle_type_id":"4","last_reported":1728295828,"current_range_meters":22000,"station_id":"ce4bgjh2rcd13ifvqbf0","pricing_plan_id":"cebpf4jnsgd1na2vs0mg"},{"bike_id":"45016c20-df00-4b67-9c29-350415710b5d","system_id":"levelo_inurba_marseille","lat":43.29615,"lon":5.37724,"is_reserved":false,"is_disabled":false,"rental_uris":{"android":"levelo://app?vid=45016c20-df00-4b67-9c29-350415710b5d","ios":"levelo://app?vid=45016c20-df00-4b67-9c29-350415710b5d"},"vehicle_type_id":"4","last_reported":1728295828,"current_range_meters":38800,"station_id":"ce4bgi92rcd13ifvqb90","pricing_plan_id":"cebpf4jnsgd1na2vs0mg"},{"bike_id":"fbab334e-6568-46ac-88f7-b856d9d2d598","system_id":"levelo_inurba_marseille","lat":43.23196,"lon":5.35554,"is_reserved":false,"is_disabled":false,"rental_uris":{"android":"levelo://app?vid=fbab334e-6568-46ac-88f7-b856d9d2d598","ios":"levelo://app?vid=fbab334e-6568-46ac-88f7-b856d9d2d598"},"vehicle_type_id":"4","last_reported":1728295828,"current_range_meters":38800,"station_id":"ce4bhu92rcd13ifvqi70","pricing_plan_id":"cebpf4jnsgd1na2vs0mg"},