{"last_updated":1752841346,"ttl":60,"version":"2.2","data":{"bikes":[{"bike_id":"53b742a7-31ae-4272-9bba-7740339e2a2f","system_id":"levelo_inurba_marseille","lat":43.33747,"lon":5.37463,"is_reserved":false,"is_disabled":false,"rental_uris":{"android":"levelo://app?vid=53b742a7-31ae-4272-9bba-7740339e2a2f","ios":"levelo://app?vid=53b742a7-31ae-4272-9bba-7740339e2a2f"},"vehicle_type_id":"1","last_reported":1752841346,"current_range_meters":20000,"station_id":"","pricing_plan_id":"cebpf4jnsgd1na2vs0mg"},{"bike_id":"da581d50-8a7a-4fd1-b852-3e78907ad563","system_id":"levelo_inurba_marseille","lat":43.32491,"lon":5.40877,"is_reserved":false,"is_disabled":false,"rental_uris":{"android":"levelo://app?vid=da581d50-8a7a-4fd1-b852-3e78907ad563","ios":"levelo://app?vid=da581d50-8a7a-4fd1-b852-3e78907ad563"},"vehicle_type_id":"4","last_reported":1752841346,"current_range_meters":3600,"station_id":"","pricing_plan_id":"cebpf4jnsgd1na2vs0mg"},{"bike_id":"d490daa6-d95c-44e3-badc-0c26e3fa8e6e","system_id":"levelo_inurba_marseille","lat":43.23954,"lon":5.36638,"is_reserved":false,"is_disabled":true,"rental_uris":{"android":"levelo://app?vid=d490daa6-d95c-44e3-badc-0c26e3fa8e6e","ios":"levelo://app?vid=d490daa6-d95c-44e3-badc-0c26e3fa8e6e"},"vehicle_type_id":"4","last_reported":1752841346,"current_range_meters":3600,"station_id":"ce4bhi12rcd13ifvqfp0","pricing_plan_id":"cebpf4jnsgd1na2vs0mg"},{"bike_id":"660f974a-52f3-4a77-ad00-1669ae13d5f1","system_id":"levelo_inurba_marseille","lat":43.29722,"lon":5.37692,"is_reserved":false,"is_disabled":false,"rental_uris":{"android":"levelo://app?vid=660f974a-52f3-4a77-ad00-1669ae13d5f1","ios":"levelo://app?vid=660f974a-52f3-4a77-ad00-1669ae13d5f1"},"vehicle_type_id":"4","last_reported":1752841346,"current_range_meters":4000,"station_id":"ce4bgkh2rcd13ifvqbl0","pricing_plan_id":"cebpf4jnsgd1na2vs0mg"},{"bike_id":"51de7427-7c78-40b8-b137-52d7c01a1b54","system_id":"levelo_inurba_marseille","lat":43.29892,"lon":5.43676,"is_reserved":false,"is_disabled":false,"rental_uris":{"android":"levelo://app?vid=51de7427-7c78-40b8-b137-52d7c01a1b54","ios":"levelo://app?vid=51de7427-7c78-40b8-b137-52d7c01a1b54"},"vehicle_type_id":"4","last_reported":1752841346,"current_range_meters":4000,"station_id":"ce4bhpp2rcd13ifvqhfg","pricing_plan_id":"cebpf4jnsgd1na2vs0mg"},{"bike_id":"11dd27a0-af06-4601-a6bd-efca7ec39ede","system_id":"levelo_inurba_marseille","lat":43.29914,"lon":5.37461,"is_reserved":false,"is_disabled":false,"rental_uris":{"android":"levelo://app?vid=11dd27a0-af06-4601-a6bd-efca7ec39ede","ios":"levelo://app?vid=11dd27a0-af06-4601-a6bd-efca7ec39ede"},"vehicle_type_id":"4","last_reported":1752841346,"current_range_meters":4400,"station_id":"ce4bgjh2rcd13ifvqbg0","pricing_plan_id":"cebpf4jnsgd1na2vs0mg"},{"bike_id":"5b43d1e7-f1df-444f-a8c5-1f5e1a26d0b4","system_id":"levelo_inurba_marseille","lat":43.27957,"lon":5.41049,"is_reserved":false,"is_disabled":false,"rental_uris":{"android":"levelo://app?vid=5b43d1e7-f1df-444f-a8c5-1f5e1a26d0b4","ios":"levelo://app?vid=5b43d1e7-f1df-444f-a8c5-1f5e1a26d0b4"},"vehicle_type_id":"4","last_reported":1752841346,"current_range_meters":4800,"station_id":"ce4bhnp2rcd13ifvqh0g","pricing_plan_id":"cebpf4jnsgd1na2vs0mg"},{"bike_id":"2897a775-d2c0-4428-af10-6f98cb0f645e","system_id":"levelo_inurba_marseille","lat":43.313626,"lon":5.384856,"is_reserved":false,"is_disabled":false,"rental_uris":{"android":"levelo://app?vid=2897a775-d2c0-4428-af10-6f98cb0f645e","ios":"levelo://app?vid=2897a775-d2c0-4428-af10-6f98cb0f645e"},"vehicle_type_id":"4","last_reported":1752841346,"current_range_meters":5600,"station_id":"ce4bgt92rcd13ifvqcf0","pricing_plan_id":"cebpf4jnsgd1na2vs0mg"},{"bike_id":"7166ddd2-310b-4b19-94fb-b9af0a468548","system_id":"levelo_inurba_marseille","lat":43.27794,"lon":5.40687,"is_reserved":false,"is_disabled":false,"rental_uris":{"android":"levelo://app?vid=7166ddd2-310b-4b19-94fb-b9af0a468548","ios":"levelo://app?vid=7166ddd2-310b-4b19-94fb-b9af0a468548"},"vehicle_type_id":"4","last_reported":1752841346,"current_range_meters":5600,"station_id":"ce4bhnh2rcd13ifvqgtg","pricing_plan_id":"cebpf4jnsgd1na2vs0mg"},{"bike_id":"a4fd652b-34f8-4c68-a6e6-032a5cc5e418","system_id":"levelo_inurba_marseille","lat":43.31223,"lon":5.368454,"is_reserved":false,"is_disabled":false,"rental_uris":{"android":"levelo://app?vid=a4fd652b-34f8-4c68-a6e6-032a5cc5e418","ios":"levelo://app?vid=a4fd652b-34f8-4c68-a6e6-032a5cc5e418"},"vehicle_type_id":"4","last_reported":1752841346,"current_range_meters":6000,"station_id":"ce4bgl92rcd13ifvqbq0","pricing_plan_id":"cebpf4jnsgd1na2vs0mg"},{"bike_id":"c3a07d1a-19a6-4f2e-aa18-e8d2cf3dc126","system_id":"levelo_inurba_marseille","lat":43.27194,"lon":5.3917,"is_reserved":false,"is_disabled":false,"rental_uris":{"android":"levelo://app?vid=c3a07d1a-19a6-4f2e-aa18-e8d2cf3dc126","ios":"levelo://app?vid=c3a07d1a-19a6-4f2e-aa18-e8d2cf3dc126"},"vehicle_type_id":"4","last_reported":1752841346,"current_range_meters":6000,"station_id":"ce4bhhp2rcd13ifvqfm0","pricing_plan_id":"cebpf4jnsgd1na2vs0mg"},{"bike_id":"7eaa2836-ba6f-423f-a8ce-59c2db7c316f","system_id":"levelo_inurba_marseille","lat":43.284133,"lon":5.349773,"is_reserved":false,"is_disabled":false,"rental_uris":{"android":"levelo://app?vid=7eaa2836-ba6f-423f-a8ce-59c2db7c316f","ios":"levelo://app?vid=7eaa2836-ba6f-423f-a8ce-59c2db7c316f"},"vehicle_type_id":"4","last_reported":1752841346,"current_range_meters":6000,"station_id":"ce4bhbh2rcd13ifvqepg","pricing_plan_id":"cebpf4jnsgd1na2vs0mg"},{"bike_id":"2d142aba-44af-45b5-8668-b28a24584f99","system_id":"levelo_inurba_marseille","lat":43.27673,"lon":5.3886,"is_reserved":false,"is_disabled":false,"rental_uris":{"android":"levelo://app?vid=2d142aba-44af-45b5-8668-b28a24584f99","ios":"levelo://app?vid=2d142aba-44af-45b5-8668-b28a24584f99"},"vehicle_type_id":"4","last_reported":1752841346,"current_range_meters":6000,"station_id":"ce4bhi12rcd13ifvqfo0","pricing_plan_id":"cebpf4jnsgd1na2vs0mg"},{"bike_id":"63161332-6f55-4c99-aa38-e727518d3eb6","system_id":"levelo_inurba_marseille","lat":43.30798,"lon":5.38161,"is_reserved":false,"is_disabled":false,"rental_uris":{"android":"levelo://app?vid=63161332-6f55-4c99-aa38-e727518d3eb6","ios":"levelo://app?vid=63161332-6f55-4c99-aa38-e727518d3eb6"},"vehicle_type_id":"4","last_reported":1752841346,"current_range_meters":6000,"station_id":"ce4bgt12rcd13ifvqce0","pricing_plan_id":"cebpf4jnsgd1na2vs0mg"},{"bike_id":"c51f8c4b-e9d1-49d0-8566-df8070d904a9","system_id":"levelo_inurba_marseille","lat":43.28419,"lon":5.34983,"is_reserved":false,"is_disabled":false,"rental_uris":{"android":"levelo://app?vid=c51f8c4b-e9d1-49d0-8566-df8070d904a9","ios":"levelo://app?vid=c51f8c4b-e9d1-49d0-8566-df8070d904a9"},"vehicle_type_id":"4","last_reported":1752841346,"current_range_meters":6400,"station_id":"ce4bhbh2rcd13ifvqepg","pricing_plan_id":"cebpf4jnsgd1na2vs0mg"},{"bike_id":"b9727f2d-53f4-4784-9f6e-584861fac6df","system_id":"levelo_inurba_marseille","lat":43.29524,"lon":5.394,"is_reserved":false,"is_disabled":false,"rental_uris":{"android":"levelo://app?vid=b9727f2d-53f4-4784-9f6e-584861fac6df","ios":"levelo://app?vid=b9727f2d-53f4-4784-9f6e-584861fac6df"},"vehicle_type_id":"4","last_reported":1752841346,"current_range_meters":6000,"station_id":"ce4bh292rcd13ifvqdf0","pricing_plan_id":"cebpf4jnsgd1na2vs0mg"},{"bike_id":"87cce473-6e1d-4b5b-aca7-8e376480e160","system_id":"levelo_inurba_marseille","lat":43.29033,"lon":5.37562,"is_reserved":false,"is_disabled":false,"rental_uris":{"android":"levelo://app?vid=87cce473-6e1d-4b5b-aca7-8e376480e160","ios":"levelo://app?vid=87cce473-6e1d-4b5b-aca7-8e376480e160"},"vehicle_type_id":"4","last_reported":1752841346,"current_range_meters":6800,"station_id":"ce4bh692rcd13ifvqe90","pricing_plan_id":"cebpf4jnsgd1na2vs0mg"},{"bike_id":"03a96cae-a45b-464d-a020-7fe1cf643dd0","system_id":"levelo_inurba_marseille","lat":43.27622,"lon":5.36105,"is_reserved":false,"is_disabled":false,"rental_uris":{"android":"levelo://app?vid=03a96cae-a45b-464d-a020-7fe1cf643dd0","ios":"levelo://app?vid=03a96cae-a45b-464d-a020-7fe1cf643dd0"},"vehicle_type_id":"4","last_reported":1752841346,"current_range_meters":6400,"station_id":"ce4bgj92rcd13ifvqbe0","pricing_plan_id":"cebpf4jnsgd1na2vs0mg"},{"bike_id":"81f88721-00d0-431c-83bf-446e11578408","system_id":"levelo_inurba_marseille","lat":43.225038,"lon":5.347854,"is_reserved":false,"is_disabled":false,"rental_uris":{"android":"levelo://app?vid=81f88721-00d0-431c-83bf-446e11578408","ios":"levelo://app?vid=81f88721-00d0-431c-83bf-446e11578408"},"vehicle_type_id":"4","last_reported":1752841346,"current_range_meters":6800,"station_id":"st_cvj5dfep6f1abm77gieg","pricing_plan_id":"cebpf4jnsgd1na2vs0mg"},{"bike_id":"bfba91de-577e-4c4a-a723-8bc9ce2ed1bf","system_id":"levelo_inurba_marseille","lat":43.3117,"lon":5.38708,"is_reserved":false,"is_disabled":false,"rental_uris":{"android":"levelo://app?vid=bfba91de-577e-4c4a-a723-8bc9ce2ed1bf","ios":"levelo://app?vid=bfba91de-577e-4c4a-a723-8bc9ce2ed1bf"},"vehicle_type_id":"4","last_reported":1752841346,"current_range_meters":7200,"station_id":"ce4bgv12rcd13ifvqcp0","pricing_plan_id":"cebpf4jnsgd1na2vs0mg"},{"bike_id":"463f629f-c9b6-4e79-97a4-dc706543d47a","system_id":"levelo_inurba_marseille","lat":43.30555,"lon":5.36537,"is_reserved":false,"is_disabled":false,"rental_uris":{"android":"levelo://app?vid=463f629f-c9b6-4e79-97a4-dc706543d47a","ios":"levelo://app?vid=463f629f-c9b6-4e79-97a4-dc706543d47a"},"vehicle_type_id":"4","last_reported":1752841346,"current_range_meters":8000,"station_id":"ce4bgs12rcd13ifvqcag","pricing_plan_id":"cebpf4jnsgd1na2vs0mg"},{"bike_id":"d5973936-46f5-4037-94d6-13ff9b372d7d","system_id":"levelo_inurba_marseille","lat":43.291016,"lon":5.381336,"is_reserved":false,"is_disabled":false,"rental_uris":{"android":"levelo://app?vid=d5973936-46f5-4037-94d6-13ff9b372d7d","ios":"levelo://app?vid=d5973936-46f5-4037-94d6-13ff9b372d7d"},"vehicle_type_id":"4","last_reported":1752841346,"current_range_meters":8000,"station_id":"ce4bh512rcd13ifvqe2g","pricing_plan_id":"cebpf4jnsgd1na2vs0mg"},{"bike_id":"815238f2-56f4-4e48-8be3-1afc030a8899","system_id":"levelo_inurba_marseille","lat":43.30375,"lon":5.4249,"is_reserved":false,"is_disabled":false,"rental_uris":{"android":"levelo://app?vid=815238f2-56f4-4e48-8be3-1afc030a8899","ios":"levelo://app?vid=815238f2-56f4-4e48-8be3-1afc030a8899"},"vehicle_type_id":"4","last_reported":1752841346,"current_range_meters":8000,"station_id":"ce4bhoh2rcd13ifvqh6g","pricing_plan_id":"cebpf4jnsgd1na2vs0mg"},{"bike_id":"04d15a50-cb94-495c-969c-c09473f1fcda","system_id":"levelo_inurba_marseille","lat":43.296196,"lon":5.377039,"is_reserved":false,"is_disabled":true,"rental_uris":{"android":"levelo://app?vid=04d15a50-cb94-495c-969c-c09473f1fcda","ios":"levelo://app?vid=04d15a50-cb94-495c-969c-c09473f1fcda"},"vehicle_type_id":"4","last_reported":1752841346,"current_range_meters":8400,"station_id":"","pricing_plan_id":"cebpf4jnsgd1na2vs0mg"},{"bike_id":"9ab9128b-e248-4c8e-8072-5b77c3ef8591","system_id":"levelo_inurba_marseille","lat":43.29908,"lon":5.38355,"is_reserved":false,"is_disabled":false,"rental_uris":{"android":"levelo://app?vid=9ab9128b-e248-4c8e-8072-5b77c3ef8591","ios":"levelo://app?vid=9ab9128b-e248-4c8e-8072-5b77c3ef8591"},"vehicle_type_id":"4","last_reported":1752841346,"current_range_meters":8800,"station_id":"","pricing_plan_id":"cebpf4jnsgd1na2vs0mg"},{"bike_id":"4d45f1e9-194f-47b9-b021-5eab9e1c0b12","system_id":"levelo_inurba_marseille","lat":43.31219,"lon":5.36884,"is_reserved":false,"is_disabled":false,"rental_uris":{"android":"levelo://app?vid=4d45f1e9-194f-47b9-b021-5eab9e1c0b12","ios":"levelo://app?vid=4d45f1e9-194f-47b9-b021-5eab9e1c0b12"},"vehicle_type_id":"4","last_reported":1752841346,"current_range_meters":8400,"station_id":"ce4bgl92rcd13ifvqbq0","pricing_plan_id":"cebpf4jnsgd1na2vs0mg"},{"bike_id":"555bc53e-5286-4fb6-9154-af42b3fd9792","system_id":"levelo_inurba_marseille","lat":43.30056,"lon":5.37298,"is_reserved":false,"is_disabled":false,"rental_uris":{"android":"levelo://app?vid=555bc53e-5286-4fb6-9154-af42b3fd9792","ios":"levelo://app?vid=555bc53e-5286-4fb6-9154-af42b3fd9792"},"vehicle_type_id":"4","last_reported":1752841346,"current_range_meters":8400,"station_id":"","pricing_plan_id":"cebpf4jnsgd1na2vs0mg"},{"bike_id":"0571c26d-fe68-4e6b-be63-1af388e36695","system_id":"levelo_inurba_marseille","lat":43.31499,"lon":5.37305,"is_reserved":false,"is_disabled":false,"rental_uris":{"android":"levelo://app?vid=0571c26d-fe68-4e6b-be63-1af388e36695","ios":"levelo://app?vid=0571c26d-fe68-4e6b-be63-1af388e36695"},"vehicle_type_id":"4","last_reported":1752841346,"current_range_meters":8400,"station_id":"ce4bgt12rcd13ifvqcd0","pricing_plan_id":"cebpf4jnsgd1na2vs0mg"},{"bike_id":"73ba7542-4162-45d9-a9cf-6bfffb2a1c49","system_id":"levelo_inurba_marseille","lat":43.29275,"lon":5.36842,"is_reserved":false,"is_disabled":false,"rental_uris":{"android":"levelo://app?vid=73ba7542-4162-45d9-a9cf-6bfffb2a1c49","ios":"levelo://app?vid=73ba7542-4162-45d9-a9cf-6bfffb2a1c49"},"vehicle_type_id":"4","last_reported":1752841346,"current_range_meters":8400,"station_id":"ce4bhbp2rcd13ifvqesg","pricing_plan_id":"cebpf4jnsgd1na2vs0mg"},{"bike_id":"3444bdc6-514a-4ba6-9650-f9073305e33d","system_id":"levelo_inurba_marseille","lat":43.29682,"lon":5.3698,"is_reserved":false,"is_disabled":false,"rental_uris":{"android":"levelo://app?vid=3444bdc6-514a-4ba6-9650-f9073305e33d","ios":"levelo://app?vid=3444bdc6-514a-4ba6-9650-f9073305e33d"},"vehicle_type_id":"4","last_reported":1752841346,"current_range_meters":8800,"station_id":"","pricing_plan_id":"cebpf4jnsgd1na2vs0mg"},{"bike_id":"8e6e1ca6-9684-4865-bcc2-4f4c40c74eff","system_id":"levelo_inurba_marseille","lat":43.29671,"lon":5.38759,"is_reserved":false,"is_disabled":false,"rental_uris":{"android":"levelo://app?vid=8e6e1ca6-9684-4865-bcc2-4f4c40c74eff","ios":"levelo://app?vid=8e6e1ca6-9684-4865-bcc2-4f4c40c74eff"},"vehicle_type_id":"4","last_reported":1752841346,"current_range_meters":8800,"station_id":"","pricing_plan_id":"cebpf4jnsgd1na2vs0mg"},{"bike_id":"28d27c17-e6ca-4cec-aec9-f1f6696b8a12","system_id":"levelo_inurba_marseille","lat":43.29928,"lon":5.43649,"is_reserved":false,"is_disabled":true,"rental_uris":{"android":"levelo://app?vid=28d27c17-e6ca-4cec-aec9-f1f6696b8a12","ios":"levelo://app?vid=28d27c17-e6ca-4cec-aec9-f1f6696b8a12"},"vehicle_type_id":"4","last_reported":1752841346,"current_range_meters":8800,"station_id":"","pricing_plan_id":"cebpf4jnsgd1na2vs0mg"},{"bike_id":"211835b4-ac0e-4255-9ad7-921d3af19f4c","system_id":"levelo_inurba_marseille","lat":43.28411,"lon":5.34974,"is_reserved":false,"is_disabled":false,"rental_uris":{"android":"levelo://app?vid=211835b4-ac0e-4255-9ad7-921d3af19f4c","ios":"levelo://app?vid=211835b4-ac0e-4255-9ad7-921d3af19f4c"},"vehicle_type_id":"4","last_reported":1752841346,"current_range_meters":8800,"station_id":"ce4bhbh2rcd13ifvqepg","pricing_plan_id":"cebpf4jnsgd1na2vs0mg"},{"bike_id":"a91f5564-a49f-4e6e-8444-4e68ca541af5","system_id":"levelo_inurba_marseille","lat":43.29027,"lon":5.38128,"is_reserved":false,"is_disabled":false,"rental_uris":{"android":"levelo://app?vid=a91f5564-a49f-4e6e-8444-4e68ca541af5","ios":"levelo://app?vid=a91f5564-a49f-4e6e-8444-4e68ca541af5"},"vehicle_type_id":"4","last_reported":1752841346,"current_range_meters":9200,"station_id":"ce4bh4p2rcd13ifvqe1g","pricing_plan_id":"cebpf4jnsgd1na2vs0mg"},{"bike_id":"c6945189-133a-4982-b46c-80f19f8e2916","system_id":"levelo_inurba_marseille","lat":43.26213,"lon":5.37437,"is_reserved":false,"is_disabled":false,"rental_uris":{"android":"levelo://app?vid=c6945189-133a-4982-b46c-80f19f8e2916","ios":"levelo://app?vid=c6945189-133a-4982-b46c-80f19f8e2916"},"vehicle_type_id":"4","last_reported":1752841346,"current_range_meters":14000,"station_id":"ce4bhgp2rcd13ifvqfc0","pricing_plan_id":"cebpf4jnsgd1na2vs0mg"},{"bike_id":"f2113758-cb2c-4691-a1b4-e939940f922d","system_id":"levelo_inurba_marseille","lat":43.30531,"lon":5.36707,"is_reserved":false,"is_disabled":false,"rental_uris":{"android":"levelo://app?vid=f2113758-cb2c-4691-a1b4-e939940f922d","ios":"levelo://app?vid=f2113758-cb2c-4691-a1b4-e939940f922d"},"vehicle_type_id":"4","last_reported":1752841346,"current_range_meters":9200,"station_id":"ce4bgrp2rcd13ifvqc9g","pricing_plan_id":"cebpf4jnsgd1na2vs0mg"},{"bike_id":"4647030d-4dca-4201-90eb-513b457026a7","system_id":"levelo_inurba_marseille","lat":43.29598,"lon":5.38101,"is_reserved":false,"is_disabled":false,"rental_uris":{"android":"levelo://app?vid=4647030d-4dca-4201-90eb-513b457026a7","ios":"levelo://app?vid=4647030d-4dca-4201-90eb-513b457026a7"},"vehicle_type_id":"4","last_reported":1752841346,"current_range_meters":8800,"station_id":"ce4bgl12rcd13ifvqbo0","pricing_plan_id":"cebpf4jnsgd1na2vs0mg"},{"bike_id":"bc890144-c456-40f6-b05f-5c711b35af81","system_id":"levelo_inurba_marseille","lat":43.29016,"lon":5.38647,"is_reserved":false,"is_disabled":false,"rental_uris":{"android":"levelo://app?vid=bc890144-c456-40f6-b05f-5c711b35af81","ios":"levelo://app?vid=bc890144-c456-40f6-b05f-5c711b35af81"},"vehicle_type_id":"4","last_reported":1752841346,"current_range_meters":9600,"station_id":"ce4bh4p2rcd13ifvqe0g","pricing_plan_id":"cebpf4jnsgd1na2vs0mg"},{"bike_id":"f5ef5638-9c31-4e23-88db-406ba4c69ad0","system_id":"levelo_inurba_marseille","lat":43.28259,"lon":5.3507,"is_reserved":false,"is_disabled":false,"rental_uris":{"android":"levelo://app?vid=f5ef5638-9c31-4e23-88db-406ba4c69ad0","ios":"levelo://app?vid=f5ef5638-9c31-4e23-88db-406ba4c69ad0"},"vehicle_type_id":"4","last_reported":1752841346,"current_range_meters":9600,"station_id":"ce4bhbp2rcd13ifvqerg","pricing_plan_id":"cebpf4jnsgd1na2vs0mg"},{"bike_id":"f99cfdb5-e076-4a80-9acf-210e6dda6547","system_id":"levelo_inurba_marseille","lat":43.29097,"lon":5.3815,"is_reserved":false,"is_disabled":false,"rental_uris":{"android":"levelo://app?vid=f99cfdb5-e076-4a80-9acf-210e6dda6547","ios":"levelo://app?vid=f99cfdb5-e076-4a80-9acf-210e6dda6547"},"vehicle_type_id":"4","last_reported":1752841346,"current_range_meters":9200,"station_id":"ce4bh512rcd13ifvqe2g","pricing_plan_id":"cebpf4jnsgd1na2vs0mg"},{"bike_id":"8d636c2b-3039-4010-9ad3-43725312930f","system_id":"levelo_inurba_marseille","lat":43.2987,"lon":5.39727,"is_reserved":false,"is_disabled":false,"rental_uris":{"android":"levelo://app?vid=8d636c2b-3039-4010-9ad3-43725312930f","ios":"levelo://app?vid=8d636c2b-3039-4010-9ad3-43725312930f"},"vehicle_type_id":"4","last_reported":1752841346,"current_range_meters":9600,"station_id":"ce4bh0h2rcd13ifvqd50","pricing_plan_id":"cebpf4jnsgd1na2vs0mg"},{"bike_id":"07f5ae19-0925-43ef-aab4-48ec58bc62b9","system_id":"levelo_inurba_marseille","lat":43.314501,"lon":5.374346,"is_reserved":false,"is_disabled":false,"rental_uris":{"android":"levelo://app?vid=07f5ae19-0925-43ef-aab4-48ec58bc62b9","ios":"levelo://app?vid=07f5ae19-0925-43ef-aab4-48ec58bc62b9"},"vehicle_type_id":"4","last_reported":1752841346,"current_range_meters":9600,"station_id":"","pricing_plan_id":"cebpf4jnsgd1na2vs0mg"},{"bike_id":"af4c7f23-817b-476f-8575-abdf27335cd7","system_id":"levelo_inurba_marseille","lat":43.30549,"lon":5.36722,"is_reserved":false,"is_disabled":false,"rental_uris":{"android":"levelo://app?vid=af4c7f23-817b-476f-8575-abdf27335cd7","ios":"levelo://app?vid=af4c7f23-817b-476f-8575-abdf27335cd7"},"vehicle_type_id":"4","last_reported":1752841346,"current_range_meters":9600,"station_id":"ce4bgrp2rcd13ifvqc9g","pricing_plan_id":"cebpf4jnsgd1na2vs0mg"},{"bike_id":"763e08db-ad73-4aa5-91fb-39efb8cadfa8","system_id":"levelo_inurba_marseille","lat":43.294422,"lon":5.375892,"is_reserved":false,"is_disabled":false,"rental_uris":{"android":"levelo://app?vid=763e08db-ad73-4aa5-91fb-39efb8cadfa8","ios":"levelo://app?vid=763e08db-ad73-4aa5-91fb-39efb8cadfa8"},"vehicle_type_id":"4","last_reported":1752841346,"current_range_meters":9600,"station_id":"ce4bh692rcd13ifvqe90","pricing_plan_id":"cebpf4jnsgd1na2vs0mg"},{"bike_id":"d1e94785-07c9-4567-977b-a1d086ccac8d","system_id":"levelo_inurba_marseille","lat":43.29895,"lon":5.43667,"is_reserved":false,"is_disabled":false,"rental_uris":{"android":"levelo://app?vid=d1e94785-07c9-4567-977b-a1d086ccac8d","ios":"levelo://app?vid=d1e94785-07c9-4567-977b-a1d086ccac8d"},"vehicle_type_id":"4","last_reported":1752841346,"current_range_meters":10000,"station_id":"ce4bhpp2rcd13ifvqhfg","pricing_plan_id":"cebpf4jnsgd1na2vs0mg"},{"bike_id":"3f5e3247-f9c1-413b-8464-deb3f4eccb3d","system_id":"levelo_inurba_marseille","lat":43.28974,"lon":5.37841,"is_reserved":false,"is_disabled":false,"rental_uris":{"android":"levelo://app?vid=3f5e3247-f9c1-413b-8464-deb3f4eccb3d","ios":"levelo://app?vid=3f5e3247-f9c1-413b-8464-deb3f4eccb3d"},"vehicle_type_id":"4","last_reported":1752841346,"current_range_meters":10000,"station_id":"ce4bh9p2rcd13ifvqed0","pricing_plan_id":"cebpf4jnsgd1na2vs0mg"},{"bike_id":"ba3823fb-c6a3-4066-b41a-411ec979f129","system_id":"levelo_inurba_marseille","lat":43.32344,"lon":5.40631,"is_reserved":false,"is_disabled":false,"rental_uris":{"android":"levelo://app?vid=ba3823fb-c6a3-4066-b41a-411ec979f129","ios":"levelo://app?vid=ba3823fb-c6a3-4066-b41a-411ec979f129"},"vehicle_type_id":"4","last_reported":1752841346,"current_range_meters":10000,"station_id":"ce4bhq92rcd13ifvqhjg","pricing_plan_id":"cebpf4jnsgd1na2vs0mg"},{"bike_id":"b861e845-045e-4bb7-9260-06d3fafca4ef","system_id":"levelo_inurba_marseille","lat":43.29898,"lon":5.43677,"is_reserved":false,"is_disabled":false,"rental_uris":{"android":"levelo://app?vid=b861e845-045e-4bb7-9260-06d3fafca4ef","ios":"levelo://app?vid=b861e845-045e-4bb7-9260-06d3fafca4ef"},"vehicle_type_id":"4","last_reported":1752841346,"current_range_meters":10800,"station_id":"ce4bhpp2rcd13ifvqhfg","pricing_plan_id":"cebpf4jnsgd1na2vs0mg"},{"bike_id":"05a49a86-21b9-49c1-b3d7-44eb8c904301","system_id":"levelo_inurba_marseille","lat":43.29873,"lon":5.43629,"is_reserved":false,"is_disabled":false,"rental_uris":{"android":"levelo://app?vid=05a49a86-21b9-49c1-b3d7-44eb8c904301","ios":"levelo://app?vid=05a49a86-21b9-49c1-b3d7-44eb8c904301"},"vehicle_type_id":"4","last_reported":1752841346,"current_range_meters":10800,"station_id":"ce4bhpp2rcd13ifvqhfg","pricing_plan_id":"cebpf4jnsgd1na2vs0mg"},{"bike_id":"f48de603-927f-4d6d-bea0-8d97c7ec695b","system_id":"levelo_inurba_marseille","lat":43.26058,"lon":5.39396,"is_reserved":false,"is_disabled":false,"rental_uris":{"android":"levelo://app?vid=f48de603-927f-4d6d-bea0-8d97c7ec695b","ios":"levelo://app?vid=f48de603-927f-4d6d-bea0-8d97c7ec695b"},"vehicle_type_id":"4","last_reported":1752841346,"current_range_meters":10800,"station_id":"ce4bhh92rcd13ifvqfj0","pricing_plan_id":"cebpf4jnsgd1na2vs0mg"},{"bike_id":"2ac93549-5c94-4228-8eea-782a21384d10","system_id":"levelo_inurba_marseille","lat":43.29634,"lon":5.37793,"is_reserved":false,"is_disabled":false,"rental_uris":{"android":"levelo://app?vid=2ac93549-5c94-4228-8eea-782a21384d10","ios":"levelo://app?vid=2ac93549-5c94-4228-8eea-782a21384d10"},"vehicle_type_id":"4","last_reported":1752841346,"current_range_meters":10800,"station_id":"","pricing_plan_id":"cebpf4jnsgd1na2vs0mg"},{"bike_id":"b6a87cde-85b3-4939-8d8e-d0ce41dc5b5f","system_id":"levelo_inurba_marseille","lat":43.23151,"lon":5.43708,"is_reserved":false,"is_disabled":false,"rental_uris":{"android":"levelo://app?vid=b6a87cde-85b3-4939-8d8e-d0ce41dc5b5f","ios":"levelo://app?vid=b6a87cde-85b3-4939-8d8e-d0ce41dc5b5f"},"vehicle_type_id":"4","last_reported":1752841346,"current_range_meters":10800,"station_id":"ce4bhmp2rcd13ifvqgog","pricing_plan_id":"cebpf4jnsgd1na2vs0mg"},{"bike_id":"1f072fb9-2291-4eb6-93d6-9707ff7b7ef1","system_id":"levelo_inurba_marseille","lat":43.29772,"lon":5.37092,"is_reserved":false,"is_disabled":false,"rental_uris":{"android":"levelo://app?vid=1f072fb9-2291-4eb6-93d6-9707ff7b7ef1","ios":"levelo://app?vid=1f072fb9-2291-4eb6-93d6-9707ff7b7ef1"},"vehicle_type_id":"4","last_reported":1752841346,"current_range_meters":10800,"station_id":"","pricing_plan_id":"cebpf4jnsgd1na2vs0mg"},{"bike_id":"a03b1af7-12ff-4563-a529-66e87147ac5c","system_id":"levelo_inurba_marseille","lat":43.217495,"lon":5.346026,"is_reserved":false,"is_disabled":false,"rental_uris":{"android":"levelo://app?vid=a03b1af7-12ff-4563-a529-66e87147ac5c","ios":"levelo://app?vid=a03b1af7-12ff-4563-a529-66e87147ac5c"},"vehicle_type_id":"4","last_reported":1752841346,"current_range_meters":10800,"station_id":"st_cvj6r9ubvosntc0bgbag","pricing_plan_id":"cebpf4jnsgd1na2vs0mg"},{"bike_id":"9980ee6c-1e79-4af5-9f93-7034618b081a","system_id":"levelo_inurba_marseille","lat":43.30546,"lon":5.36696,"is_reserved":false,"is_disabled":true,"rental_uris":{"android":"levelo://app?vid=9980ee6c-1e79-4af5-9f93-7034618b081a","ios":"levelo://app?vid=9980ee6c-1e79-4af5-9f93-7034618b081a"},"vehicle_type_id":"4","last_reported":1752841346,"current_range_meters":11200,"station_id":"ce4bgrp2rcd13ifvqc9g","pricing_plan_id":"cebpf4jnsgd1na2vs0mg"},{"bike_id":"b0914e03-5bd0-4e88-bc32-7f75abdc1c21","system_id":"levelo_inurba_marseille","lat":43.27205,"lon":5.39173,"is_reserved":false,"is_disabled":false,"rental_uris":{"android":"levelo://app?vid=b0914e03-5bd0-4e88-bc32-7f75abdc1c21","ios":"levelo://app?vid=b0914e03-5bd0-4e88-bc32-7f75abdc1c21"},"vehicle_type_id":"4","last_reported":1752841346,"current_range_meters":11200,"station_id":"ce4bhhp2rcd13ifvqfm0","pricing_plan_id":"cebpf4jnsgd1na2vs0mg"},{"bike_id":"e555b545-304c-4dce-8496-1643c0f2600e","system_id":"levelo_inurba_marseille","lat":43.337444,"lon":5.374475,"is_reserved":false,"is_disabled":false,"rental_uris":{"android":"levelo://app?vid=e555b545-304c-4dce-8496-1643c0f2600e","ios":"levelo://app?vid=e555b545-304c-4dce-8496-1643c0f2600e"},"vehicle_type_id":"4","last_reported":1752841346,"current_range_meters":11200,"station_id":"","pricing_plan_id":"cebpf4jnsgd1na2vs0mg"},{"bike_id":"90bd8893-02c3-4e4b-ae7c-63f65b9ebe04","system_id":"levelo_inurba_marseille","lat":43.32053,"lon":5.41552,"is_reserved":false,"is_disabled":false,"rental_uris":{"android":"levelo://app?vid=90bd8893-02c3-4e4b-ae7c-63f65b9ebe04","ios":"levelo://app?vid=90bd8893-02c3-4e4b-ae7c-63f65b9ebe04"},"vehicle_type_id":"4","last_reported":1752841346,"current_range_meters":11200,"station_id":"ce4bhq92rcd13ifvqhkg","pricing_plan_id":"cebpf4jnsgd1na2vs0mg"},{"bike_id":"9926ebb3-b641-4ad8-afc5-63a07c72a680","system_id":"levelo_inurba_marseille","lat":43.3061,"lon":5.37222,"is_reserved":false,"is_disabled":false,"rental_uris":{"android":"levelo://app?vid=9926ebb3-b641-4ad8-afc5-63a07c72a680","ios":"levelo://app?vid=9926ebb3-b641-4ad8-afc5-63a07c72a680"},"vehicle_type_id":"4","last_reported":1752841346,"current_range_meters":11200,"station_id":"ce4bgqh2rcd13ifvqc4g","pricing_plan_id":"cebpf4jnsgd1na2vs0mg"},{"bike_id":"2566caac-262b-496b-9742-a8cb45388a48","system_id":"levelo_inurba_marseille","lat":43.28406,"lon":5.37526,"is_reserved":false,"is_disabled":false,"rental_uris":{"android":"levelo://app?vid=2566caac-262b-496b-9742-a8cb45388a48","ios":"levelo://app?vid=2566caac-262b-496b-9742-a8cb45388a48"},"vehicle_type_id":"4","last_reported":1752841346,"current_range_meters":11600,"station_id":"ce4bh412rcd13ifvqds0","pricing_plan_id":"cebpf4jnsgd1na2vs0mg"},{"bike_id":"9c837b99-081f-4caa-a8a3-7d6dc61e9d18","system_id":"levelo_inurba_marseille","lat":43.230633,"lon":5.354956,"is_reserved":false,"is_disabled":false,"rental_uris":{"android":"levelo://app?vid=9c837b99-081f-4caa-a8a3-7d6dc61e9d18","ios":"levelo://app?vid=9c837b99-081f-4caa-a8a3-7d6dc61e9d18"},"vehicle_type_id":"4","last_reported":1752841346,"current_range_meters":11600,"station_id":"cpo3342slgdg3j2ifvpg","pricing_plan_id":"cebpf4jnsgd1na2vs0mg"},{"bike_id":"43247d28-3ff7-43cc-b3c8-b3d0b3a2e701","system_id":"levelo_inurba_marseille","lat":43.28104,"lon":5.37843,"is_reserved":false,"is_disabled":false,"rental_uris":{"android":"levelo://app?vid=43247d28-3ff7-43cc-b3c8-b3d0b3a2e701","ios":"levelo://app?vid=43247d28-3ff7-43cc-b3c8-b3d0b3a2e701"},"vehicle_type_id":"4","last_reported":1752841346,"current_range_meters":11200,"station_id":"ce4bha12rcd13ifvqee0","pricing_plan_id":"cebpf4jnsgd1na2vs0mg"},{"bike_id":"da891840-0cec-4ccc-961c-48903736c6fa","system_id":"levelo_inurba_marseille","lat":43.31139,"lon":5.37692,"is_reserved":false,"is_disabled":false,"rental_uris":{"android":"levelo://app?vid=da891840-0cec-4ccc-961c-48903736c6fa","ios":"levelo://app?vid=da891840-0cec-4ccc-961c-48903736c6fa"},"vehicle_type_id":"4","last_reported":1752841346,"current_range_meters":11600,"station_id":"","pricing_plan_id":"cebpf4jnsgd1na2vs0mg"},{"bike_id":"255f63b3-d391-461e-9168-7b692342f2c5","system_id":"levelo_inurba_marseille","lat":43.21191,"lon":5.3512,"is_reserved":false,"is_disabled":false,"rental_uris":{"android":"levelo://app?vid=255f63b3-d391-461e-9168-7b692342f2c5","ios":"levelo://app?vid=255f63b3-d391-461e-9168-7b692342f2c5"},"vehicle_type_id":"4","last_reported":1752841346,"current_range_meters":12000,"station_id":"st_cvj6sg6p6f1abm77japg","pricing_plan_id":"cebpf4jnsgd1na2vs0mg"},{"bike_id":"5bc3b06f-8e78-41ba-ad44-442d5cc00dcb","system_id":"levelo_inurba_marseille","lat":43.30536,"lon":5.38429,"is_reserved":false,"is_disabled":false,"rental_uris":{"android":"levelo://app?vid=5bc3b06f-8e78-41ba-ad44-442d5cc00dcb","ios":"levelo://app?vid=5bc3b06f-8e78-41ba-ad44-442d5cc00dcb"},"vehicle_type_id":"4","last_reported":1752841346,"current_range_meters":11600,"station_id":"ce4bgg92rcd13ifvqb30","pricing_plan_id":"cebpf4jnsgd1na2vs0mg"},{"bike_id":"dcf92b68-f28c-492f-b52a-170d73e2a7d5","system_id":"levelo_inurba_marseille","lat":43.2795,"lon":5.41044,"is_reserved":false,"is_disabled":false,"rental_uris":{"android":"levelo://app?vid=dcf92b68-f28c-492f-b52a-170d73e2a7d5","ios":"levelo://app?vid=dcf92b68-f28c-492f-b52a-170d73e2a7d5"},"vehicle_type_id":"4","last_reported":1752841346,"current_range_meters":12000,"station_id":"ce4bhnp2rcd13ifvqh0g","pricing_plan_id":"cebpf4jnsgd1na2vs0mg"},{"bike_id":"bbba80a8-fe28-4b64-a93d-150c083da1a6","system_id":"levelo_inurba_marseille","lat":43.3042,"lon":5.41285,"is_reserved":false,"is_disabled":false,"rental_uris":{"android":"levelo://app?vid=bbba80a8-fe28-4b64-a93d-150c083da1a6","ios":"levelo://app?vid=bbba80a8-fe28-4b64-a93d-150c083da1a6"},"vehicle_type_id":"4","last_reported":1752841346,"current_range_meters":12000,"station_id":"ce4bhop2rcd13ifvqh8g","pricing_plan_id":"cebpf4jnsgd1na2vs0mg"},{"bike_id":"e54582ed-ba92-4640-a97f-9e97144ce87f","system_id":"levelo_inurba_marseille","lat":43.32272,"lon":5.40648,"is_reserved":false,"is_disabled":false,"rental_uris":{"android":"levelo://app?vid=e54582ed-ba92-4640-a97f-9e97144ce87f","ios":"levelo://app?vid=e54582ed-ba92-4640-a97f-9e97144ce87f"},"vehicle_type_id":"4","last_reported":1752841346,"current_range_meters":12000,"station_id":"","pricing_plan_id":"cebpf4jnsgd1na2vs0mg"},{"bike_id":"531dca68-8617-41b0-a6cd-abffc94e1d45","system_id":"levelo_inurba_marseille","lat":43.312054,"lon":5.373204,"is_reserved":false,"is_disabled":false,"rental_uris":{"android":"levelo://app?vid=531dca68-8617-41b0-a6cd-abffc94e1d45","ios":"levelo://app?vid=531dca68-8617-41b0-a6cd-abffc94e1d45"},"vehicle_type_id":"4","last_reported":1752841346,"current_range_meters":12000,"station_id":"","pricing_plan_id":"cebpf4jnsgd1na2vs0mg"},{"bike_id":"1d506d86-1a72-499c-931f-8d126d1c617b","system_id":"levelo_inurba_marseille","lat":43.28662,"lon":5.36352,"is_reserved":false,"is_disabled":false,"rental_uris":{"android":"levelo://app?vid=1d506d86-1a72-499c-931f-8d126d1c617b","ios":"levelo://app?vid=1d506d86-1a72-499c-931f-8d126d1c617b"},"vehicle_type_id":"4","last_reported":1752841346,"current_range_meters":11600,"station_id":"ce4bhah2rcd13ifvqej0","pricing_plan_id":"cebpf4jnsgd1na2vs0mg"},{"bike_id":"e96a5904-6246-4962-9ec6-94be4eaa7125","system_id":"levelo_inurba_marseille","lat":43.31494,"lon":5.37301,"is_reserved":false,"is_disabled":false,"rental_uris":{"android":"levelo://app?vid=e96a5904-6246-4962-9ec6-94be4eaa7125","ios":"levelo://app?vid=e96a5904-6246-4962-9ec6-94be4eaa7125"},"vehicle_type_id":"4","last_reported":1752841346,"current_range_meters":12400,"station_id":"ce4bgt12rcd13ifvqcd0","pricing_plan_id":"cebpf4jnsgd1na2vs0mg"},{"bike_id":"0d87ca24-976c-4967-995f-815e40a697aa","system_id":"levelo_inurba_marseille","lat":43.32104,"lon":5.36798,"is_reserved":false,"is_disabled":false,"rental_uris":{"android":"levelo://app?vid=0d87ca24-976c-4967-995f-815e40a697aa","ios":"levelo://app?vid=0d87ca24-976c-4967-995f-815e40a697aa"},"vehicle_type_id":"4","last_reported":1752841346,"current_range_meters":12400,"station_id":"ce4bhrh2rcd13ifvqhug","pricing_plan_id":"cebpf4jnsgd1na2vs0mg"},{"bike_id":"30aaa527-b5d8-48c8-ba50-453cf21ddd86","system_id":"levelo_inurba_marseille","lat":43.292969,"lon":5.374297,"is_reserved":false,"is_disabled":false,"rental_uris":{"android":"levelo://app?vid=30aaa527-b5d8-48c8-ba50-453cf21ddd86","ios":"levelo://app?vid=30aaa527-b5d8-48c8-ba50-453cf21ddd86"},"vehicle_type_id":"4","last_reported":1752841346,"current_range_meters":12400,"station_id":"","pricing_plan_id":"cebpf4jnsgd1na2vs0mg"},{"bike_id":"77952b84-8301-40ce-b504-399e28a60bf7","system_id":"levelo_inurba_marseille","lat":43.27612,"lon":5.36104,"is_reserved":false,"is_disabled":false,"rental_uris":{"android":"levelo://app?vid=77952b84-8301-40ce-b504-399e28a60bf7","ios":"levelo://app?vid=77952b84-8301-40ce-b504-399e28a60bf7"},"vehicle_type_id":"4","last_reported":1752841346,"current_range_meters":12400,"station_id":"ce4bgj92rcd13ifvqbe0","pricing_plan_id":"cebpf4jnsgd1na2vs0mg"},{"bike_id":"9b7a5c76-646b-47e4-9aaf-9e0ac1e776a5","system_id":"levelo_inurba_marseille","lat":43.269416,"lon":5.402507,"is_reserved":false,"is_disabled":false,"rental_uris":{"android":"levelo://app?vid=9b7a5c76-646b-47e4-9aaf-9e0ac1e776a5","ios":"levelo://app?vid=9b7a5c76-646b-47e4-9aaf-9e0ac1e776a5"},"vehicle_type_id":"4","last_reported":1752841346,"current_range_meters":12400,"station_id":"cjm6bp8fraef2m0cb0m0","pricing_plan_id":"cebpf4jnsgd1na2vs0mg"},{"bike_id":"c0a07269-8a71-4e6a-b439-79bdaf1dca97","system_id":"levelo_inurba_marseille","lat":43.25087,"lon":5.39528,"is_reserved":false,"is_disabled":false,"rental_uris":{"android":"levelo://app?vid=c0a07269-8a71-4e6a-b439-79bdaf1dca97","ios":"levelo://app?vid=c0a07269-8a71-4e6a-b439-79bdaf1dca97"},"vehicle_type_id":"4","last_reported":1752841346,"current_range_meters":9200,"station_id":"ce4bhm12rcd13ifvqgkg","pricing_plan_id":"cebpf4jnsgd1na2vs0mg"},{"bike_id":"6517b650-41af-4904-84cd-7dd1cc8ffa38","system_id":"levelo_inurba_marseille","lat":43.30462,"lon":5.37914,"is_reserved":false,"is_disabled":false,"rental_uris":{"android":"levelo://app?vid=6517b650-41af-4904-84cd-7dd1cc8ffa38","ios":"levelo://app?vid=6517b650-41af-4904-84cd-7dd1cc8ffa38"},"vehicle_type_id":"4","last_reported":1752841346,"current_range_meters":12800,"station_id":"ce4bgup2rcd13ifvqcn0","pricing_plan_id":"cebpf4jnsgd1na2vs0mg"},{"bike_id":"4364e90b-e940-4ec4-a296-25dff3328744","system_id":"levelo_inurba_marseille","lat":43.287161,"lon":5.373851,"is_reserved":false,"is_disabled":false,"rental_uris":{"android":"levelo://app?vid=4364e90b-e940-4ec4-a296-25dff3328744","ios":"levelo://app?vid=4364e90b-e940-4ec4-a296-25dff3328744"},"vehicle_type_id":"4","last_reported":1752841346,"current_range_meters":12800,"station_id":"ce4bh3p2rcd13ifvqdq0","pricing_plan_id":"cebpf4jnsgd1na2vs0mg"},{"bike_id":"6214036e-03c9-472c-871e-ee0aaac6837e","system_id":"levelo_inurba_marseille","lat":43.29911,"lon":5.37452,"is_reserved":false,"is_disabled":false,"rental_uris":{"android":"levelo://app?vid=6214036e-03c9-472c-871e-ee0aaac6837e","ios":"levelo://app?vid=6214036e-03c9-472c-871e-ee0aaac6837e"},"vehicle_type_id":"4","last_reported":1752841346,"current_range_meters":13600,"station_id":"ce4bgjh2rcd13ifvqbg0","pricing_plan_id":"cebpf4jnsgd1na2vs0mg"},{"bike_id":"45218cdc-ef6f-4e95-a40f-08c3173b81ed","system_id":"levelo_inurba_marseille","lat":43.31719,"lon":5.42405,"is_reserved":false,"is_disabled":false,"rental_uris":{"android":"levelo://app?vid=45218cdc-ef6f-4e95-a40f-08c3173b81ed","ios":"levelo://app?vid=45218cdc-ef6f-4e95-a40f-08c3173b81ed"},"vehicle_type_id":"4","last_reported":1752841346,"current_range_meters":13600,"station_id":"ce4bhp92rcd13ifvqhbg","pricing_plan_id":"cebpf4jnsgd1na2vs0mg"},{"bike_id":"5ef3054e-7b03-4554-bb76-69eaea283908","system_id":"levelo_inurba_marseille","lat":43.31345,"lon":5.36724,"is_reserved":false,"is_disabled":false,"rental_uris":{"android":"levelo://app?vid=5ef3054e-7b03-4554-bb76-69eaea283908","ios":"levelo://app?vid=5ef3054e-7b03-4554-bb76-69eaea283908"},"vehicle_type_id":"4","last_reported":1752841346,"current_range_meters":13600,"station_id":"ce4bgr92rcd13ifvqc6g","pricing_plan_id":"cebpf4jnsgd1na2vs0mg"},{"bike_id":"3e3ea796-dba7-4b02-b380-ab58b77a4b41","system_id":"levelo_inurba_marseille","lat":43.323587,"lon":5.367561,"is_reserved":false,"is_disabled":false,"rental_uris":{"android":"levelo://app?vid=3e3ea796-dba7-4b02-b380-ab58b77a4b41","ios":"levelo://app?vid=3e3ea796-dba7-4b02-b380-ab58b77a4b41"},"vehicle_type_id":"4","last_reported":1752841346,"current_range_meters":13600,"station_id":"ce4bhsh2rcd13ifvqi2g","pricing_plan_id":"cebpf4jnsgd1na2vs0mg"},{"bike_id":"c657eca0-7786-4d09-a568-d94b65f566c7","system_id":"levelo_inurba_marseille","lat":43.239665,"lon":5.366264,"is_reserved":false,"is_disabled":false,"rental_uris":{"android":"levelo://app?vid=c657eca0-7786-4d09-a568-d94b65f566c7","ios":"levelo://app?vid=c657eca0-7786-4d09-a568-d94b65f566c7"},"vehicle_type_id":"4","last_reported":1752841346,"current_range_meters":13600,"station_id":"ce4bhi12rcd13ifvqfp0","pricing_plan_id":"cebpf4jnsgd1na2vs0mg"},{"bike_id":"22407e8b-091a-49f2-9651-f25ef54abb52","system_id":"levelo_inurba_marseille","lat":43.23959,"lon":5.36639,"is_reserved":false,"is_disabled":false,"rental_uris":{"android":"levelo://app?vid=22407e8b-091a-49f2-9651-f25ef54abb52","ios":"levelo://app?vid=22407e8b-091a-49f2-9651-f25ef54abb52"},"vehicle_type_id":"4","last_reported":1752841346,"current_range_meters":13600,"station_id":"ce4bhi12rcd13ifvqfp0","pricing_plan_id":"cebpf4jnsgd1na2vs0mg"},{"bike_id":"28682a9d-1f72-4001-81b3-ec10d0784999","system_id":"levelo_inurba_marseille","lat":43.23153,"lon":5.43712,"is_reserved":false,"is_disabled":false,"rental_uris":{"android":"levelo://app?vid=28682a9d-1f72-4001-81b3-ec10d0784999","ios":"levelo://app?vid=28682a9d-1f72-4001-81b3-ec10d0784999"},"vehicle_type_id":"4","last_reported":1752841346,"current_range_meters":13600,"station_id":"ce4bhmp2rcd13ifvqgog","pricing_plan_id":"cebpf4jnsgd1na2vs0mg"},{"bike_id":"e08cee39-d6d3-485d-9699-1535fffa655c","system_id":"levelo_inurba_marseille","lat":43.26566,"lon":5.39009,"is_reserved":false,"is_disabled":false,"rental_uris":{"android":"levelo://app?vid=e08cee39-d6d3-485d-9699-1535fffa655c","ios":"levelo://app?vid=e08cee39-d6d3-485d-9699-1535fffa655c"},"vehicle_type_id":"4","last_reported":1752841346,"current_range_meters":14000,"station_id":"ce4bhe12rcd13ifvqf30","pricing_plan_id":"cebpf4jnsgd1na2vs0mg"},{"bike_id":"c6db0f6a-96fe-4e1d-8ded-c2ef38c9bab4","system_id":"levelo_inurba_marseille","lat":43.304183,"lon":5.412838,"is_reserved":false,"is_disabled":true,"rental_uris":{"android":"levelo://app?vid=c6db0f6a-96fe-4e1d-8ded-c2ef38c9bab4","ios":"levelo://app?vid=c6db0f6a-96fe-4e1d-8ded-c2ef38c9bab4"},"vehicle_type_id":"4","last_reported":1752841346,"current_range_meters":14000,"station_id":"ce4bhop2rcd13ifvqh8g","pricing_plan_id":"cebpf4jnsgd1na2vs0mg"},{"bike_id":"b004baab-db70-453e-84a5-9312df4bd1d6","system_id":"levelo_inurba_marseille","lat":43.22503,"lon":5.34786,"is_reserved":false,"is_disabled":false,"rental_uris":{"android":"levelo://app?vid=b004baab-db70-453e-84a5-9312df4bd1d6","ios":"levelo://app?vid=b004baab-db70-453e-84a5-9312df4bd1d6"},"vehicle_type_id":"4","last_reported":1752841346,"current_range_meters":14000,"station_id":"st_cvj5dfep6f1abm77gieg","pricing_plan_id":"cebpf4jnsgd1na2vs0mg"},{"bike_id":"ef00ee27-9bf1-40a6-9b06-b88795860856","system_id":"levelo_inurba_marseille","lat":43.2986,"lon":5.39732,"is_reserved":false,"is_disabled":false,"rental_uris":{"android":"levelo://app?vid=ef00ee27-9bf1-40a6-9b06-b88795860856","ios":"levelo://app?vid=ef00ee27-9bf1-40a6-9b06-b88795860856"},"vehicle_type_id":"4","last_reported":1752841346,"current_range_meters":14000,"station_id":"ce4bh0h2rcd13ifvqd50","pricing_plan_id":"cebpf4jnsgd1na2vs0mg"},{"bike_id":"ce7bd25b-5213-4881-a28b-f582e6a1d712","system_id":"levelo_inurba_marseille","lat":43.31364,"lon":5.3669,"is_reserved":false,"is_disabled":true,"rental_uris":{"android":"levelo://app?vid=ce7bd25b-5213-4881-a28b-f582e6a1d712","ios":"levelo://app?vid=ce7bd25b-5213-4881-a28b-f582e6a1d712"},"vehicle_type_id":"4","last_reported":1752841346,"current_range_meters":14000,"station_id":"ce4bgr92rcd13ifvqc6g","pricing_plan_id":"cebpf4jnsgd1na2vs0mg"},{"bike_id":"00ecada3-8577-4c51-98e2-f760bc2bb718","system_id":"levelo_inurba_marseille","lat":43.294341,"lon":5.432263,"is_reserved":false,"is_disabled":false,"rental_uris":{"android":"levelo://app?vid=00ecada3-8577-4c51-98e2-f760bc2bb718","ios":"levelo://app?vid=00ecada3-8577-4c51-98e2-f760bc2bb718"},"vehicle_type_id":"4","last_reported":1752841346,"current_range_meters":14000,"station_id":"","pricing_plan_id":"cebpf4jnsgd1na2vs0mg"},{"bike_id":"5dda7472-9949-46fe-b9fa-ab272459a5d6","system_id":"levelo_inurba_marseille","lat":43.32357,"lon":5.367563,"is_reserved":false,"is_disabled":false,"rental_uris":{"android":"levelo://app?vid=5dda7472-9949-46fe-b9fa-ab272459a5d6","ios":"levelo://app?vid=5dda7472-9949-46fe-b9fa-ab272459a5d6"},"vehicle_type_id":"4","last_reported":1752841346,"current_range_meters":14000,"station_id":"ce4bhsh2rcd13ifvqi2g","pricing_plan_id":"cebpf4jnsgd1na2vs0mg"},{"bike_id":"396812a8-7b2d-4625-bca2-0e30528d0c67","system_id":"levelo_inurba_marseille","lat":43.28722,"lon":5.37937,"is_reserved":false,"is_disabled":false,"rental_uris":{"android":"levelo://app?vid=396812a8-7b2d-4625-bca2-0e30528d0c67","ios":"levelo://app?vid=396812a8-7b2d-4625-bca2-0e30528d0c67"},"vehicle_type_id":"4","last_reported":1752841346,"current_range_meters":14000,"station_id":"ce4bh9p2rcd13ifvqec0","pricing_plan_id":"cebpf4jnsgd1na2vs0mg"},{"bike_id":"f07a4cc3-3613-4f99-9c00-567c882bea94","system_id":"levelo_inurba_marseille","lat":43.28979,"lon":5.37837,"is_reserved":false,"is_disabled":false,"rental_uris":{"android":"levelo://app?vid=f07a4cc3-3613-4f99-9c00-567c882bea94","ios":"levelo://app?vid=f07a4cc3-3613-4f99-9c00-567c882bea94"},"vehicle_type_id":"4","last_reported":1752841346,"current_range_meters":14400,"station_id":"ce4bh9p2rcd13ifvqed0","pricing_plan_id":"cebpf4jnsgd1na2vs0mg"},{"bike_id":"be60c88c-1453-4626-be80-200258f79626","system_id":"levelo_inurba_marseille","lat":43.231909,"lon":5.355492,"is_reserved":false,"is_disabled":false,"rental_uris":{"android":"levelo://app?vid=be60c88c-1453-4626-be80-200258f79626","ios":"levelo://app?vid=be60c88c-1453-4626-be80-200258f79626"},"vehicle_type_id":"4","last_reported":1752841346,"current_range_meters":14400,"station_id":"ce4bhu92rcd13ifvqi70","pricing_plan_id":"cebpf4jnsgd1na2vs0mg"},{"bike_id":"5ac93e7c-286a-4c1e-b6c0-4e9963e5a9f8","system_id":"levelo_inurba_marseille","lat":43.21192,"lon":5.35095,"is_reserved":false,"is_disabled":false,"rental_uris":{"android":"levelo://app?vid=5ac93e7c-286a-4c1e-b6c0-4e9963e5a9f8","ios":"levelo://app?vid=5ac93e7c-286a-4c1e-b6c0-4e9963e5a9f8"},"vehicle_type_id":"4","last_reported":1752841346,"current_range_meters":14400,"station_id":"st_cvj6sg6p6f1abm77japg","pricing_plan_id":"cebpf4jnsgd1na2vs0mg"},{"bike_id":"c71c3a21-773b-4c27-aa90-391802bdcef4","system_id":"levelo_inurba_marseille","lat":43.29275,"lon":5.36837,"is_reserved":false,"is_disabled":false,"rental_uris":{"android":"levelo://app?vid=c71c3a21-773b-4c27-aa90-391802bdcef4","ios":"levelo://app?vid=c71c3a21-773b-4c27-aa90-391802bdcef4"},"vehicle_type_id":"4","last_reported":1752841346,"current_range_meters":14800,"station_id":"ce4bhbp2rcd13ifvqesg","pricing_plan_id":"cebpf4jnsgd1na2vs0mg"},{"bike_id":"2d95b47d-d06f-40a4-bb6e-c13e954e3c8f","system_id":"levelo_inurba_marseille","lat":43.2772,"lon":5.4142,"is_reserved":false,"is_disabled":false,"rental_uris":{"android":"levelo://app?vid=2d95b47d-d06f-40a4-bb6e-c13e954e3c8f","ios":"levelo://app?vid=2d95b47d-d06f-40a4-bb6e-c13e954e3c8f"},"vehicle_type_id":"4","last_reported":1752841346,"current_range_meters":14800,"station_id":"","pricing_plan_id":"cebpf4jnsgd1na2vs0mg"},{"bike_id":"2ed1350f-0b6e-4182-a8b4-561741333858","system_id":"levelo_inurba_marseille","lat":43.27922,"lon":5.41075,"is_reserved":false,"is_disabled":false,"rental_uris":{"android":"levelo://app?vid=2ed1350f-0b6e-4182-a8b4-561741333858","ios":"levelo://app?vid=2ed1350f-0b6e-4182-a8b4-561741333858"},"vehicle_type_id":"4","last_reported":1752841346,"current_range_meters":14800,"station_id":"ce4bhnp2rcd13ifvqh0g","pricing_plan_id":"cebpf4jnsgd1na2vs0mg"},{"bike_id":"fbf0b7f2-f884-4bd3-a5fa-255e32e8eeed","system_id":"levelo_inurba_marseille","lat":43.24171,"lon":5.364,"is_reserved":false,"is_disabled":false,"rental_uris":{"android":"levelo://app?vid=fbf0b7f2-f884-4bd3-a5fa-255e32e8eeed","ios":"levelo://app?vid=fbf0b7f2-f884-4bd3-a5fa-255e32e8eeed"},"vehicle_type_id":"4","last_reported":1752841346,"current_range_meters":14800,"station_id":"cpo36qri1sfpv3e86is0","pricing_plan_id":"cebpf4jnsgd1na2vs0mg"},{"bike_id":"9e46aa88-7b19-47c3-b789-71b8902b53cb","system_id":"levelo_inurba_marseille","lat":43.28151,"lon":5.42634,"is_reserved":false,"is_disabled":false,"rental_uris":{"android":"levelo://app?vid=9e46aa88-7b19-47c3-b789-71b8902b53cb","ios":"levelo://app?vid=9e46aa88-7b19-47c3-b789-71b8902b53cb"},"vehicle_type_id":"4","last_reported":1752841346,"current_range_meters":14800,"station_id":"ce4bhnh2rcd13ifvqgug","pricing_plan_id":"cebpf4jnsgd1na2vs0mg"},{"bike_id":"65abad83-d8aa-4201-a820-1eaae9fbd799","system_id":"levelo_inurba_marseille","lat":43.28103,"lon":5.37845,"is_reserved":false,"is_disabled":false,"rental_uris":{"android":"levelo://app?vid=65abad83-d8aa-4201-a820-1eaae9fbd799","ios":"levelo://app?vid=65abad83-d8aa-4201-a820-1eaae9fbd799"},"vehicle_type_id":"4","last_reported":1752841346,"current_range_meters":14800,"station_id":"ce4bha12rcd13ifvqee0","pricing_plan_id":"cebpf4jnsgd1na2vs0mg"},{"bike_id":"97c1a85b-41b7-41ec-a9ef-a41722458560","system_id":"levelo_inurba_marseille","lat":43.28696,"lon":5.3998,"is_reserved":false,"is_disabled":false,"rental_uris":{"android":"levelo://app?vid=97c1a85b-41b7-41ec-a9ef-a41722458560","ios":"levelo://app?vid=97c1a85b-41b7-41ec-a9ef-a41722458560"},"vehicle_type_id":"4","last_reported":1752841346,"current_range_meters":14800,"station_id":"ce4bho92rcd13ifvqh3g","pricing_plan_id":"cebpf4jnsgd1na2vs0mg"},{"bike_id":"0affdbf4-e530-4bd6-ba17-f22cde63dec8","system_id":"levelo_inurba_marseille","lat":43.28257,"lon":5.35057,"is_reserved":false,"is_disabled":false,"rental_uris":{"android":"levelo://app?vid=0affdbf4-e530-4bd6-ba17-f22cde63dec8","ios":"levelo://app?vid=0affdbf4-e530-4bd6-ba17-f22cde63dec8"},"vehicle_type_id":"4","last_reported":1752841346,"current_range_meters":15200,"station_id":"ce4bhbp2rcd13ifvqerg","pricing_plan_id":"cebpf4jnsgd1na2vs0mg"},{"bike_id":"6fd66afa-6637-4712-aa56-c95b48a08353","system_id":"levelo_inurba_marseille","lat":43.23141,"lon":5.43726,"is_reserved":false,"is_disabled":false,"rental_uris":{"android":"levelo://app?vid=6fd66afa-6637-4712-aa56-c95b48a08353","ios":"levelo://app?vid=6fd66afa-6637-4712-aa56-c95b48a08353"},"vehicle_type_id":"4","last_reported":1752841346,"current_range_meters":16000,"station_id":"ce4bhmp2rcd13ifvqgog","pricing_plan_id":"cebpf4jnsgd1na2vs0mg"},{"bike_id":"f310b61a-0922-4b58-99ec-3c007edcb4df","system_id":"levelo_inurba_marseille","lat":43.27937,"lon":5.3957,"is_reserved":false,"is_disabled":false,"rental_uris":{"android":"levelo://app?vid=f310b61a-0922-4b58-99ec-3c007edcb4df","ios":"levelo://app?vid=f310b61a-0922-4b58-99ec-3c007edcb4df"},"vehicle_type_id":"4","last_reported":1752841346,"current_range_meters":16000,"station_id":"ce4bhf92rcd13ifvqf40","pricing_plan_id":"cebpf4jnsgd1na2vs0mg"},{"bike_id":"6cd13d7f-1155-433a-bba2-9bb2be544c72","system_id":"levelo_inurba_marseille","lat":43.27077,"lon":5.42269,"is_reserved":false,"is_disabled":false,"rental_uris":{"android":"levelo://app?vid=6cd13d7f-1155-433a-bba2-9bb2be544c72","ios":"levelo://app?vid=6cd13d7f-1155-433a-bba2-9bb2be544c72"},"vehicle_type_id":"4","last_reported":1752841346,"current_range_meters":16000,"station_id":"ce4bhk92rcd13ifvqgb0","pricing_plan_id":"cebpf4jnsgd1na2vs0mg"},{"bike_id":"a25f0b25-d399-4442-83a7-eab549324544","system_id":"levelo_inurba_marseille","lat":43.2826,"lon":5.35064,"is_reserved":false,"is_disabled":false,"rental_uris":{"android":"levelo://app?vid=a25f0b25-d399-4442-83a7-eab549324544","ios":"levelo://app?vid=a25f0b25-d399-4442-83a7-eab549324544"},"vehicle_type_id":"4","last_reported":1752841346,"current_range_meters":16000,"station_id":"ce4bhbp2rcd13ifvqerg","pricing_plan_id":"cebpf4jnsgd1na2vs0mg"},{"bike_id":"a67156ae-789e-45f5-ab3f-ed7d95b24540","system_id":"levelo_inurba_marseille","lat":43.211926,"lon":5.350773,"is_reserved":false,"is_disabled":false,"rental_uris":{"android":"levelo://app?vid=a67156ae-789e-45f5-ab3f-ed7d95b24540","ios":"levelo://app?vid=a67156ae-789e-45f5-ab3f-ed7d95b24540"},"vehicle_type_id":"4","last_reported":1752841346,"current_range_meters":16000,"station_id":"st_cvj6sg6p6f1abm77japg","pricing_plan_id":"cebpf4jnsgd1na2vs0mg"},{"bike_id":"eef93a3e-050a-4594-bd86-e7830dc7a0d1","system_id":"levelo_inurba_marseille","lat":43.29566,"lon":5.37505,"is_reserved":false,"is_disabled":false,"rental_uris":{"android":"levelo://app?vid=eef93a3e-050a-4594-bd86-e7830dc7a0d1","ios":"levelo://app?vid=eef93a3e-050a-4594-bd86-e7830dc7a0d1"},"vehicle_type_id":"4","last_reported":1752841346,"current_range_meters":16000,"station_id":"ce4bgh92rcd13ifvqb50","pricing_plan_id":"cebpf4jnsgd1na2vs0mg"},{"bike_id":"ab40eab5-f236-4422-a5a5-b90da08304bc","system_id":"levelo_inurba_marseille","lat":43.30675,"lon":5.37171,"is_reserved":false,"is_disabled":false,"rental_uris":{"android":"levelo://app?vid=ab40eab5-f236-4422-a5a5-b90da08304bc","ios":"levelo://app?vid=ab40eab5-f236-4422-a5a5-b90da08304bc"},"vehicle_type_id":"4","last_reported":1752841346,"current_range_meters":16000,"station_id":"","pricing_plan_id":"cebpf4jnsgd1na2vs0mg"},{"bike_id":"2e63b041-1327-4fce-a387-69dd4440b330","system_id":"levelo_inurba_marseille","lat":43.27844,"lon":5.38501,"is_reserved":false,"is_disabled":false,"rental_uris":{"android":"levelo://app?vid=2e63b041-1327-4fce-a387-69dd4440b330","ios":"levelo://app?vid=2e63b041-1327-4fce-a387-69dd4440b330"},"vehicle_type_id":"4","last_reported":1752841346,"current_range_meters":16000,"station_id":"","pricing_plan_id":"cebpf4jnsgd1na2vs0mg"},{"bike_id":"cfb52d04-9134-4c86-8269-771716b20f27","system_id":"levelo_inurba_marseille","lat":43.21192,"lon":5.35076,"is_reserved":false,"is_disabled":false,"rental_uris":{"android":"levelo://app?vid=cfb52d04-9134-4c86-8269-771716b20f27","ios":"levelo://app?vid=cfb52d04-9134-4c86-8269-771716b20f27"},"vehicle_type_id":"4","last_reported":1752841346,"current_range_meters":16000,"station_id":"st_cvj6sg6p6f1abm77japg","pricing_plan_id":"cebpf4jnsgd1na2vs0mg"},{"bike_id":"32f5afb1-15c9-4431-a998-25b3b86db8d1","system_id":"levelo_inurba_marseille","lat":43.27375,"lon":5.36259,"is_reserved":false,"is_disabled":false,"rental_uris":{"android":"levelo://app?vid=32f5afb1-15c9-4431-a998-25b3b86db8d1","ios":"levelo://app?vid=32f5afb1-15c9-4431-a998-25b3b86db8d1"},"vehicle_type_id":"4","last_reported":1752841346,"current_range_meters":16000,"station_id":"ce4bhbh2rcd13ifvqeo0","pricing_plan_id":"cebpf4jnsgd1na2vs0mg"},{"bike_id":"4c7d3503-d7ea-42c2-8d65-24d9018c4686","system_id":"levelo_inurba_marseille","lat":43.28719,"lon":5.3794,"is_reserved":false,"is_disabled":false,"rental_uris":{"android":"levelo://app?vid=4c7d3503-d7ea-42c2-8d65-24d9018c4686","ios":"levelo://app?vid=4c7d3503-d7ea-42c2-8d65-24d9018c4686"},"vehicle_type_id":"4","last_reported":1752841346,"current_range_meters":16400,"station_id":"ce4bh9p2rcd13ifvqec0","pricing_plan_id":"cebpf4jnsgd1na2vs0mg"},{"bike_id":"ac0ed4be-466c-4caa-b855-3c6bbe5a11b5","system_id":"levelo_inurba_marseille","lat":43.26741,"lon":5.37172,"is_reserved":false,"is_disabled":false,"rental_uris":{"android":"levelo://app?vid=ac0ed4be-466c-4caa-b855-3c6bbe5a11b5","ios":"levelo://app?vid=ac0ed4be-466c-4caa-b855-3c6bbe5a11b5"},"vehicle_type_id":"4","last_reported":1752841346,"current_range_meters":16400,"station_id":"","pricing_plan_id":"cebpf4jnsgd1na2vs0mg"},{"bike_id":"92409ae6-2f82-4eac-ab73-93e600233f58","system_id":"levelo_inurba_marseille","lat":43.29283,"lon":5.37405,"is_reserved":false,"is_disabled":false,"rental_uris":{"android":"levelo://app?vid=92409ae6-2f82-4eac-ab73-93e600233f58","ios":"levelo://app?vid=92409ae6-2f82-4eac-ab73-93e600233f58"},"vehicle_type_id":"4","last_reported":1752841346,"current_range_meters":16400,"station_id":"ce4bgi12rcd13ifvqb70","pricing_plan_id":"cebpf4jnsgd1na2vs0mg"},{"bike_id":"8ce9b80c-19c6-4985-81c6-50f285c26740","system_id":"levelo_inurba_marseille","lat":43.239639,"lon":5.366338,"is_reserved":false,"is_disabled":false,"rental_uris":{"android":"levelo://app?vid=8ce9b80c-19c6-4985-81c6-50f285c26740","ios":"levelo://app?vid=8ce9b80c-19c6-4985-81c6-50f285c26740"},"vehicle_type_id":"4","last_reported":1752841346,"current_range_meters":16400,"station_id":"ce4bhi12rcd13ifvqfp0","pricing_plan_id":"cebpf4jnsgd1na2vs0mg"},{"bike_id":"91f574b9-61b2-41c6-8baf-bba653d0972a","system_id":"levelo_inurba_marseille","lat":43.28264,"lon":5.35058,"is_reserved":false,"is_disabled":false,"rental_uris":{"android":"levelo://app?vid=91f574b9-61b2-41c6-8baf-bba653d0972a","ios":"levelo://app?vid=91f574b9-61b2-41c6-8baf-bba653d0972a"},"vehicle_type_id":"4","last_reported":1752841346,"current_range_meters":16000,"station_id":"ce4bhbp2rcd13ifvqerg","pricing_plan_id":"cebpf4jnsgd1na2vs0mg"},{"bike_id":"b037d86f-6c16-4f2e-89ba-724ceb19c6e8","system_id":"levelo_inurba_marseille","lat":43.290743,"lon":5.371702,"is_reserved":false,"is_disabled":false,"rental_uris":{"android":"levelo://app?vid=b037d86f-6c16-4f2e-89ba-724ceb19c6e8","ios":"levelo://app?vid=b037d86f-6c16-4f2e-89ba-724ceb19c6e8"},"vehicle_type_id":"4","last_reported":1752841346,"current_range_meters":16400,"station_id":"ce4bh5p2rcd13ifvqe4g","pricing_plan_id":"cebpf4jnsgd1na2vs0mg"},{"bike_id":"edd0079d-996b-4ae3-9a31-d781f3a059ec","system_id":"levelo_inurba_marseille","lat":43.33786,"lon":5.37426,"is_reserved":false,"is_disabled":false,"rental_uris":{"android":"levelo://app?vid=edd0079d-996b-4ae3-9a31-d781f3a059ec","ios":"levelo://app?vid=edd0079d-996b-4ae3-9a31-d781f3a059ec"},"vehicle_type_id":"4","last_reported":1752841346,"current_range_meters":16400,"station_id":"","pricing_plan_id":"cebpf4jnsgd1na2vs0mg"},{"bike_id":"b7fe52dd-f025-4212-9e78-19e7f6f09593","system_id":"levelo_inurba_marseille","lat":43.2119,"lon":5.35073,"is_reserved":false,"is_disabled":false,"rental_uris":{"android":"levelo://app?vid=b7fe52dd-f025-4212-9e78-19e7f6f09593","ios":"levelo://app?vid=b7fe52dd-f025-4212-9e78-19e7f6f09593"},"vehicle_type_id":"4","last_reported":1752841346,"current_range_meters":16400,"station_id":"st_cvj6sg6p6f1abm77japg","pricing_plan_id":"cebpf4jnsgd1na2vs0mg"},{"bike_id":"019b6955-dda2-4312-bb23-dc748c15eed9","system_id":"levelo_inurba_marseille","lat":43.28269,"lon":5.35067,"is_reserved":false,"is_disabled":false,"rental_uris":{"android":"levelo://app?vid=019b6955-dda2-4312-bb23-dc748c15eed9","ios":"levelo://app?vid=019b6955-dda2-4312-bb23-dc748c15eed9"},"vehicle_type_id":"4","last_reported":1752841346,"current_range_meters":16400,"station_id":"ce4bhbp2rcd13ifvqerg","pricing_plan_id":"cebpf4jnsgd1na2vs0mg"},{"bike_id":"abc31c2b-0cbd-4d6e-92c8-2c4a323f4683","system_id":"levelo_inurba_marseille","lat":43.26554,"lon":5.37285,"is_reserved":false,"is_disabled":false,"rental_uris":{"android":"levelo://app?vid=abc31c2b-0cbd-4d6e-92c8-2c4a323f4683","ios":"levelo://app?vid=abc31c2b-0cbd-4d6e-92c8-2c4a323f4683"},"vehicle_type_id":"4","last_reported":1752841346,"current_range_meters":16400,"station_id":"ce4bhg12rcd13ifvqf70","pricing_plan_id":"cebpf4jnsgd1na2vs0mg"},{"bike_id":"6f2b188d-268c-4dbe-b8a1-874e327f8d67","system_id":"levelo_inurba_marseille","lat":43.29942,"lon":5.36546,"is_reserved":false,"is_disabled":false,"rental_uris":{"android":"levelo://app?vid=6f2b188d-268c-4dbe-b8a1-874e327f8d67","ios":"levelo://app?vid=6f2b188d-268c-4dbe-b8a1-874e327f8d67"},"vehicle_type_id":"4","last_reported":1752841346,"current_range_meters":16800,"station_id":"ce4bgm92rcd13ifvqbr0","pricing_plan_id":"cebpf4jnsgd1na2vs0mg"},{"bike_id":"73371026-46a3-49ca-b5b5-2d6b90c8827c","system_id":"levelo_inurba_marseille","lat":43.29945,"lon":5.36531,"is_reserved":false,"is_disabled":false,"rental_uris":{"android":"levelo://app?vid=73371026-46a3-49ca-b5b5-2d6b90c8827c","ios":"levelo://app?vid=73371026-46a3-49ca-b5b5-2d6b90c8827c"},"vehicle_type_id":"4","last_reported":1752841346,"current_range_meters":16800,"station_id":"ce4bgm92rcd13ifvqbr0","pricing_plan_id":"cebpf4jnsgd1na2vs0mg"},{"bike_id":"6d8670a9-4672-480a-9360-dae47754bdf4","system_id":"levelo_inurba_marseille","lat":43.2782,"lon":5.407157,"is_reserved":false,"is_disabled":false,"rental_uris":{"android":"levelo://app?vid=6d8670a9-4672-480a-9360-dae47754bdf4","ios":"levelo://app?vid=6d8670a9-4672-480a-9360-dae47754bdf4"},"vehicle_type_id":"4","last_reported":1752841346,"current_range_meters":16800,"station_id":"ce4bhnh2rcd13ifvqgtg","pricing_plan_id":"cebpf4jnsgd1na2vs0mg"},{"bike_id":"ba9f3e38-527b-4abb-aed1-dabb2d5ce59f","system_id":"levelo_inurba_marseille","lat":43.26916,"lon":5.40304,"is_reserved":false,"is_disabled":false,"rental_uris":{"android":"levelo://app?vid=ba9f3e38-527b-4abb-aed1-dabb2d5ce59f","ios":"levelo://app?vid=ba9f3e38-527b-4abb-aed1-dabb2d5ce59f"},"vehicle_type_id":"4","last_reported":1752841346,"current_range_meters":16800,"station_id":"cjm6bp8fraef2m0cb0m0","pricing_plan_id":"cebpf4jnsgd1na2vs0mg"},{"bike_id":"605ed834-819b-43a6-99ff-85dfd5dbb3cb","system_id":"levelo_inurba_marseille","lat":43.30509,"lon":5.36735,"is_reserved":false,"is_disabled":false,"rental_uris":{"android":"levelo://app?vid=605ed834-819b-43a6-99ff-85dfd5dbb3cb","ios":"levelo://app?vid=605ed834-819b-43a6-99ff-85dfd5dbb3cb"},"vehicle_type_id":"4","last_reported":1752841346,"current_range_meters":17200,"station_id":"ce4bgrp2rcd13ifvqc9g","pricing_plan_id":"cebpf4jnsgd1na2vs0mg"},{"bike_id":"9e36d651-21c9-4512-bd98-a6fa046c0d20","system_id":"levelo_inurba_marseille","lat":43.3135,"lon":5.36695,"is_reserved":false,"is_disabled":false,"rental_uris":{"android":"levelo://app?vid=9e36d651-21c9-4512-bd98-a6fa046c0d20","ios":"levelo://app?vid=9e36d651-21c9-4512-bd98-a6fa046c0d20"},"vehicle_type_id":"4","last_reported":1752841346,"current_range_meters":17200,"station_id":"ce4bgr92rcd13ifvqc6g","pricing_plan_id":"cebpf4jnsgd1na2vs0mg"},{"bike_id":"dadd6356-567d-4390-b685-2bef0f59e600","system_id":"levelo_inurba_marseille","lat":43.30366,"lon":5.42494,"is_reserved":false,"is_disabled":false,"rental_uris":{"android":"levelo://app?vid=dadd6356-567d-4390-b685-2bef0f59e600","ios":"levelo://app?vid=dadd6356-567d-4390-b685-2bef0f59e600"},"vehicle_type_id":"4","last_reported":1752841346,"current_range_meters":17200,"station_id":"ce4bhoh2rcd13ifvqh6g","pricing_plan_id":"cebpf4jnsgd1na2vs0mg"},{"bike_id":"978ef16f-2db4-4544-b66f-199c1f3b9d02","system_id":"levelo_inurba_marseille","lat":43.23136,"lon":5.43709,"is_reserved":false,"is_disabled":false,"rental_uris":{"android":"levelo://app?vid=978ef16f-2db4-4544-b66f-199c1f3b9d02","ios":"levelo://app?vid=978ef16f-2db4-4544-b66f-199c1f3b9d02"},"vehicle_type_id":"4","last_reported":1752841346,"current_range_meters":17200,"station_id":"ce4bhmp2rcd13ifvqgog","pricing_plan_id":"cebpf4jnsgd1na2vs0mg"},{"bike_id":"96b68ee2-d486-4bf3-9bbc-e0fb11cf4a26","system_id":"levelo_inurba_marseille","lat":43.29323,"lon":5.3716,"is_reserved":false,"is_disabled":false,"rental_uris":{"android":"levelo://app?vid=96b68ee2-d486-4bf3-9bbc-e0fb11cf4a26","ios":"levelo://app?vid=96b68ee2-d486-4bf3-9bbc-e0fb11cf4a26"},"vehicle_type_id":"4","last_reported":1752841346,"current_range_meters":17200,"station_id":"ce4bgh92rcd13ifvqb40","pricing_plan_id":"cebpf4jnsgd1na2vs0mg"},{"bike_id":"5ed7e33c-75eb-4f80-9ced-f5eee5190af4","system_id":"levelo_inurba_marseille","lat":43.29551,"lon":5.42284,"is_reserved":false,"is_disabled":false,"rental_uris":{"android":"levelo://app?vid=5ed7e33c-75eb-4f80-9ced-f5eee5190af4","ios":"levelo://app?vid=5ed7e33c-75eb-4f80-9ced-f5eee5190af4"},"vehicle_type_id":"4","last_reported":1752841346,"current_range_meters":17600,"station_id":"ce4bhph2rcd13ifvqhdg","pricing_plan_id":"cebpf4jnsgd1na2vs0mg"},{"bike_id":"6bc7dc9e-3227-44ae-8a5c-33ce43b209e3","system_id":"levelo_inurba_marseille","lat":43.30598,"lon":5.37226,"is_reserved":false,"is_disabled":false,"rental_uris":{"android":"levelo://app?vid=6bc7dc9e-3227-44ae-8a5c-33ce43b209e3","ios":"levelo://app?vid=6bc7dc9e-3227-44ae-8a5c-33ce43b209e3"},"vehicle_type_id":"4","last_reported":1752841346,"current_range_meters":17600,"station_id":"ce4bgqh2rcd13ifvqc4g","pricing_plan_id":"cebpf4jnsgd1na2vs0mg"},{"bike_id":"afc91c81-7042-4270-a28e-07e325ae83c9","system_id":"levelo_inurba_marseille","lat":43.21187,"lon":5.3507,"is_reserved":false,"is_disabled":false,"rental_uris":{"android":"levelo://app?vid=afc91c81-7042-4270-a28e-07e325ae83c9","ios":"levelo://app?vid=afc91c81-7042-4270-a28e-07e325ae83c9"},"vehicle_type_id":"4","last_reported":1752841346,"current_range_meters":17600,"station_id":"st_cvj6sg6p6f1abm77japg","pricing_plan_id":"cebpf4jnsgd1na2vs0mg"},{"bike_id":"1a794689-0399-4bd8-871c-778f85fe0438","system_id":"levelo_inurba_marseille","lat":43.274941,"lon":5.424538,"is_reserved":false,"is_disabled":false,"rental_uris":{"android":"levelo://app?vid=1a794689-0399-4bd8-871c-778f85fe0438","ios":"levelo://app?vid=1a794689-0399-4bd8-871c-778f85fe0438"},"vehicle_type_id":"4","last_reported":1752841346,"current_range_meters":17600,"station_id":"ce4bhn92rcd13ifvqgrg","pricing_plan_id":"cebpf4jnsgd1na2vs0mg"},{"bike_id":"5016f77e-53a9-4155-a2d9-8f4505a7613a","system_id":"levelo_inurba_marseille","lat":43.257295,"lon":5.410978,"is_reserved":false,"is_disabled":false,"rental_uris":{"android":"levelo://app?vid=5016f77e-53a9-4155-a2d9-8f4505a7613a","ios":"levelo://app?vid=5016f77e-53a9-4155-a2d9-8f4505a7613a"},"vehicle_type_id":"4","last_reported":1752841346,"current_range_meters":17600,"station_id":"ce4bhkp2rcd13ifvqgd0","pricing_plan_id":"cebpf4jnsgd1na2vs0mg"},{"bike_id":"558434c8-b1b4-4034-93c4-037d67d00a87","system_id":"levelo_inurba_marseille","lat":43.25498,"lon":5.37648,"is_reserved":false,"is_disabled":false,"rental_uris":{"android":"levelo://app?vid=558434c8-b1b4-4034-93c4-037d67d00a87","ios":"levelo://app?vid=558434c8-b1b4-4034-93c4-037d67d00a87"},"vehicle_type_id":"4","last_reported":1752841346,"current_range_meters":18800,"station_id":"ce4bhh12rcd13ifvqff0","pricing_plan_id":"cebpf4jnsgd1na2vs0mg"},{"bike_id":"f6615826-0148-4509-8ae4-7a80f787f81b","system_id":"levelo_inurba_marseille","lat":43.303,"lon":5.39207,"is_reserved":false,"is_disabled":false,"rental_uris":{"android":"levelo://app?vid=f6615826-0148-4509-8ae4-7a80f787f81b","ios":"levelo://app?vid=f6615826-0148-4509-8ae4-7a80f787f81b"},"vehicle_type_id":"4","last_reported":1752841346,"current_range_meters":18000,"station_id":"ce4bgkh2rcd13ifvqbk0","pricing_plan_id":"cebpf4jnsgd1na2vs0mg"},{"bike_id":"12c9e251-407f-4c7e-8a5a-ebd58daba529","system_id":"levelo_inurba_marseille","lat":43.28614,"lon":5.351,"is_reserved":false,"is_disabled":false,"rental_uris":{"android":"levelo://app?vid=12c9e251-407f-4c7e-8a5a-ebd58daba529","ios":"levelo://app?vid=12c9e251-407f-4c7e-8a5a-ebd58daba529"},"vehicle_type_id":"4","last_reported":1752841346,"current_range_meters":18000,"station_id":"ce4bhch2rcd13ifvqeug","pricing_plan_id":"cebpf4jnsgd1na2vs0mg"},{"bike_id":"06b46bd1-38ed-44f7-9ba1-67361d8158e7","system_id":"levelo_inurba_marseille","lat":43.28416,"lon":5.34995,"is_reserved":false,"is_disabled":false,"rental_uris":{"android":"levelo://app?vid=06b46bd1-38ed-44f7-9ba1-67361d8158e7","ios":"levelo://app?vid=06b46bd1-38ed-44f7-9ba1-67361d8158e7"},"vehicle_type_id":"4","last_reported":1752841346,"current_range_meters":18000,"station_id":"ce4bhbh2rcd13ifvqepg","pricing_plan_id":"cebpf4jnsgd1na2vs0mg"},{"bike_id":"f37ee8e0-2662-4c98-ad7e-ba2a4ce47e5d","system_id":"levelo_inurba_marseille","lat":43.28921,"lon":5.384,"is_reserved":false,"is_disabled":false,"rental_uris":{"android":"levelo://app?vid=f37ee8e0-2662-4c98-ad7e-ba2a4ce47e5d","ios":"levelo://app?vid=f37ee8e0-2662-4c98-ad7e-ba2a4ce47e5d"},"vehicle_type_id":"4","last_reported":1752841346,"current_range_meters":18000,"station_id":"ce4bh612rcd13ifvqe6g","pricing_plan_id":"cebpf4jnsgd1na2vs0mg"},{"bike_id":"94c07cb2-0943-4d24-99f2-97bdab47aa3f","system_id":"levelo_inurba_marseille","lat":43.337444,"lon":5.374475,"is_reserved":false,"is_disabled":false,"rental_uris":{"android":"levelo://app?vid=94c07cb2-0943-4d24-99f2-97bdab47aa3f","ios":"levelo://app?vid=94c07cb2-0943-4d24-99f2-97bdab47aa3f"},"vehicle_type_id":"4","last_reported":1752841346,"current_range_meters":18000,"station_id":"","pricing_plan_id":"cebpf4jnsgd1na2vs0mg"},{"bike_id":"f90f1efc-2add-4576-a300-db6e14a5c471","system_id":"levelo_inurba_marseille","lat":43.3213,"lon":5.3678,"is_reserved":false,"is_disabled":false,"rental_uris":{"android":"levelo://app?vid=f90f1efc-2add-4576-a300-db6e14a5c471","ios":"levelo://app?vid=f90f1efc-2add-4576-a300-db6e14a5c471"},"vehicle_type_id":"4","last_reported":1752841346,"current_range_meters":18800,"station_id":"ce4bhrh2rcd13ifvqhug","pricing_plan_id":"cebpf4jnsgd1na2vs0mg"},{"bike_id":"a6a0a5c3-4893-473a-a9c7-09398e503b08","system_id":"levelo_inurba_marseille","lat":43.31311,"lon":5.401729,"is_reserved":false,"is_disabled":false,"rental_uris":{"android":"levelo://app?vid=a6a0a5c3-4893-473a-a9c7-09398e503b08","ios":"levelo://app?vid=a6a0a5c3-4893-473a-a9c7-09398e503b08"},"vehicle_type_id":"4","last_reported":1752841346,"current_range_meters":18800,"station_id":"ce4bh092rcd13ifvqd30","pricing_plan_id":"cebpf4jnsgd1na2vs0mg"},{"bike_id":"fb4debf2-1f8f-411c-bd26-e8013aa9592a","system_id":"levelo_inurba_marseille","lat":43.273139,"lon":5.390726,"is_reserved":false,"is_disabled":false,"rental_uris":{"android":"levelo://app?vid=fb4debf2-1f8f-411c-bd26-e8013aa9592a","ios":"levelo://app?vid=fb4debf2-1f8f-411c-bd26-e8013aa9592a"},"vehicle_type_id":"4","last_reported":1752841346,"current_range_meters":18800,"station_id":"","pricing_plan_id":"cebpf4jnsgd1na2vs0mg"},{"bike_id":"bd7f0af5-ae40-44b6-bc39-9b4e2b89534b","system_id":"levelo_inurba_marseille","lat":43.29868,"lon":5.39734,"is_reserved":false,"is_disabled":false,"rental_uris":{"android":"levelo://app?vid=bd7f0af5-ae40-44b6-bc39-9b4e2b89534b","ios":"levelo://app?vid=bd7f0af5-ae40-44b6-bc39-9b4e2b89534b"},"vehicle_type_id":"4","last_reported":1752841346,"current_range_meters":18800,"station_id":"","pricing_plan_id":"cebpf4jnsgd1na2vs0mg"},{"bike_id":"7fa8ed68-8cf6-4eac-8550-49e30b22f49e","system_id":"levelo_inurba_marseille","lat":43.30515,"lon":5.36536,"is_reserved":false,"is_disabled":false,"rental_uris":{"android":"levelo://app?vid=7fa8ed68-8cf6-4eac-8550-49e30b22f49e","ios":"levelo://app?vid=7fa8ed68-8cf6-4eac-8550-49e30b22f49e"},"vehicle_type_id":"4","last_reported":1752841346,"current_range_meters":18800,"station_id":"","pricing_plan_id":"cebpf4jnsgd1na2vs0mg"},{"bike_id":"a643101c-dad4-4ae3-b9c4-d6f7d0bbd834","system_id":"levelo_inurba_marseille","lat":43.30152,"lon":5.38078,"is_reserved":false,"is_disabled":false,"rental_uris":{"android":"levelo://app?vid=a643101c-dad4-4ae3-b9c4-d6f7d0bbd834","ios":"levelo://app?vid=a643101c-dad4-4ae3-b9c4-d6f7d0bbd834"},"vehicle_type_id":"4","last_reported":1752841346,"current_range_meters":18800,"station_id":"ce4bgjp2rcd13ifvqbh0","pricing_plan_id":"cebpf4jnsgd1na2vs0mg"},{"bike_id":"1bea52eb-b99a-43e3-8fce-07ed497a87d3","system_id":"levelo_inurba_marseille","lat":43.32327,"lon":5.40618,"is_reserved":false,"is_disabled":false,"rental_uris":{"android":"levelo://app?vid=1bea52eb-b99a-43e3-8fce-07ed497a87d3","ios":"levelo://app?vid=1bea52eb-b99a-43e3-8fce-07ed497a87d3"},"vehicle_type_id":"4","last_reported":1752841346,"current_range_meters":18800,"station_id":"ce4bhq92rcd13ifvqhjg","pricing_plan_id":"cebpf4jnsgd1na2vs0mg"},{"bike_id":"1d219207-082f-4dad-98a2-fb16c401173b","system_id":"levelo_inurba_marseille","lat":43.26946,"lon":5.40246,"is_reserved":false,"is_disabled":false,"rental_uris":{"android":"levelo://app?vid=1d219207-082f-4dad-98a2-fb16c401173b","ios":"levelo://app?vid=1d219207-082f-4dad-98a2-fb16c401173b"},"vehicle_type_id":"4","last_reported":1752841346,"current_range_meters":18800,"station_id":"cjm6bp8fraef2m0cb0m0","pricing_plan_id":"cebpf4jnsgd1na2vs0mg"},{"bike_id":"7360b2c1-827d-4a45-ba07-948ef7d2fc35","system_id":"levelo_inurba_marseille","lat":43.229295,"lon":5.353761,"is_reserved":false,"is_disabled":false,"rental_uris":{"android":"levelo://app?vid=7360b2c1-827d-4a45-ba07-948ef7d2fc35","ios":"levelo://app?vid=7360b2c1-827d-4a45-ba07-948ef7d2fc35"},"vehicle_type_id":"4","last_reported":1752841346,"current_range_meters":18800,"station_id":"","pricing_plan_id":"cebpf4jnsgd1na2vs0mg"},{"bike_id":"82fa2dd1-a60b-4609-896b-9efe58a19369","system_id":"levelo_inurba_marseille","lat":43.30556,"lon":5.36538,"is_reserved":false,"is_disabled":false,"rental_uris":{"android":"levelo://app?vid=82fa2dd1-a60b-4609-896b-9efe58a19369","ios":"levelo://app?vid=82fa2dd1-a60b-4609-896b-9efe58a19369"},"vehicle_type_id":"4","last_reported":1752841346,"current_range_meters":18800,"station_id":"ce4bgs12rcd13ifvqcag","pricing_plan_id":"cebpf4jnsgd1na2vs0mg"},{"bike_id":"96579d04-b9e9-484c-9b9a-af500e5e8552","system_id":"levelo_inurba_marseille","lat":43.326757,"lon":5.364013,"is_reserved":false,"is_disabled":false,"rental_uris":{"android":"levelo://app?vid=96579d04-b9e9-484c-9b9a-af500e5e8552","ios":"levelo://app?vid=96579d04-b9e9-484c-9b9a-af500e5e8552"},"vehicle_type_id":"4","last_reported":1752841346,"current_range_meters":18800,"station_id":"","pricing_plan_id":"cebpf4jnsgd1na2vs0mg"},{"bike_id":"d5cf0ddb-4301-4e01-9253-a4393d968d0a","system_id":"levelo_inurba_marseille","lat":43.22505,"lon":5.34784,"is_reserved":false,"is_disabled":false,"rental_uris":{"android":"levelo://app?vid=d5cf0ddb-4301-4e01-9253-a4393d968d0a","ios":"levelo://app?vid=d5cf0ddb-4301-4e01-9253-a4393d968d0a"},"vehicle_type_id":"4","last_reported":1752841346,"current_range_meters":19200,"station_id":"st_cvj5dfep6f1abm77gieg","pricing_plan_id":"cebpf4jnsgd1na2vs0mg"},{"bike_id":"cb7b541b-4aa0-476b-ac1b-c83b6acaa65d","system_id":"levelo_inurba_marseille","lat":43.24168,"lon":5.36406,"is_reserved":false,"is_disabled":false,"rental_uris":{"android":"levelo://app?vid=cb7b541b-4aa0-476b-ac1b-c83b6acaa65d","ios":"levelo://app?vid=cb7b541b-4aa0-476b-ac1b-c83b6acaa65d"},"vehicle_type_id":"4","last_reported":1752841346,"current_range_meters":19200,"station_id":"cpo36qri1sfpv3e86is0","pricing_plan_id":"cebpf4jnsgd1na2vs0mg"},{"bike_id":"b7409055-6e9c-4a39-a38b-3916fedb65ac","system_id":"levelo_inurba_marseille","lat":43.265683,"lon":5.390033,"is_reserved":false,"is_disabled":false,"rental_uris":{"android":"levelo://app?vid=b7409055-6e9c-4a39-a38b-3916fedb65ac","ios":"levelo://app?vid=b7409055-6e9c-4a39-a38b-3916fedb65ac"},"vehicle_type_id":"4","last_reported":1752841346,"current_range_meters":19200,"station_id":"ce4bhe12rcd13ifvqf30","pricing_plan_id":"cebpf4jnsgd1na2vs0mg"},{"bike_id":"95f2abf1-94ae-41bf-b921-399a9abee03e","system_id":"levelo_inurba_marseille","lat":43.29359,"lon":5.37845,"is_reserved":false,"is_disabled":false,"rental_uris":{"android":"levelo://app?vid=95f2abf1-94ae-41bf-b921-399a9abee03e","ios":"levelo://app?vid=95f2abf1-94ae-41bf-b921-399a9abee03e"},"vehicle_type_id":"4","last_reported":1752841346,"current_range_meters":19600,"station_id":"ce4bgjh2rcd13ifvqbf0","pricing_plan_id":"cebpf4jnsgd1na2vs0mg"},{"bike_id":"81b8982e-0de9-4985-b907-712e742b4afd","system_id":"levelo_inurba_marseille","lat":43.28937,"lon":5.39626,"is_reserved":false,"is_disabled":false,"rental_uris":{"android":"levelo://app?vid=81b8982e-0de9-4985-b907-712e742b4afd","ios":"levelo://app?vid=81b8982e-0de9-4985-b907-712e742b4afd"},"vehicle_type_id":"4","last_reported":1752841346,"current_range_meters":19600,"station_id":"ce4bh3h2rcd13ifvqdn0","pricing_plan_id":"cebpf4jnsgd1na2vs0mg"},{"bike_id":"d622c644-1a34-4d41-81fe-ca1865eb88c8","system_id":"levelo_inurba_marseille","lat":43.27899,"lon":5.38006,"is_reserved":false,"is_disabled":false,"rental_uris":{"android":"levelo://app?vid=d622c644-1a34-4d41-81fe-ca1865eb88c8","ios":"levelo://app?vid=d622c644-1a34-4d41-81fe-ca1865eb88c8"},"vehicle_type_id":"4","last_reported":1752841346,"current_range_meters":19200,"station_id":"ce4bhf92rcd13ifvqf50","pricing_plan_id":"cebpf4jnsgd1na2vs0mg"},{"bike_id":"8ed105f2-4066-4865-ab25-b4fd2acda0ca","system_id":"levelo_inurba_marseille","lat":43.25943,"lon":5.40898,"is_reserved":false,"is_disabled":false,"rental_uris":{"android":"levelo://app?vid=8ed105f2-4066-4865-ab25-b4fd2acda0ca","ios":"levelo://app?vid=8ed105f2-4066-4865-ab25-b4fd2acda0ca"},"vehicle_type_id":"4","last_reported":1752841346,"current_range_meters":19600,"station_id":"ce4bhm92rcd13ifvqglg","pricing_plan_id":"cebpf4jnsgd1na2vs0mg"},{"bike_id":"75c386ec-2b11-4ceb-a42e-98a6dc1d6c01","system_id":"levelo_inurba_marseille","lat":43.21199,"lon":5.35063,"is_reserved":false,"is_disabled":false,"rental_uris":{"android":"levelo://app?vid=75c386ec-2b11-4ceb-a42e-98a6dc1d6c01","ios":"levelo://app?vid=75c386ec-2b11-4ceb-a42e-98a6dc1d6c01"},"vehicle_type_id":"4","last_reported":1752841346,"current_range_meters":19600,"station_id":"st_cvj6sg6p6f1abm77japg","pricing_plan_id":"cebpf4jnsgd1na2vs0mg"},{"bike_id":"45ac8bfe-2d15-40b8-9fb2-21b3aadea50e","system_id":"levelo_inurba_marseille","lat":43.26197,"lon":5.37938,"is_reserved":false,"is_disabled":false,"rental_uris":{"android":"levelo://app?vid=45ac8bfe-2d15-40b8-9fb2-21b3aadea50e","ios":"levelo://app?vid=45ac8bfe-2d15-40b8-9fb2-21b3aadea50e"},"vehicle_type_id":"4","last_reported":1752841346,"current_range_meters":19200,"station_id":"ce4bhjp2rcd13ifvqg90","pricing_plan_id":"cebpf4jnsgd1na2vs0mg"},{"bike_id":"46661889-22f3-4d8f-b11a-c953e76d405e","system_id":"levelo_inurba_marseille","lat":43.30893,"lon":5.36731,"is_reserved":false,"is_disabled":false,"rental_uris":{"android":"levelo://app?vid=46661889-22f3-4d8f-b11a-c953e76d405e","ios":"levelo://app?vid=46661889-22f3-4d8f-b11a-c953e76d405e"},"vehicle_type_id":"4","last_reported":1752841346,"current_range_meters":19600,"station_id":"","pricing_plan_id":"cebpf4jnsgd1na2vs0mg"},{"bike_id":"070514fe-927a-4fb0-9ca7-d8af1cc39ae0","system_id":"levelo_inurba_marseille","lat":43.28265,"lon":5.35067,"is_reserved":false,"is_disabled":false,"rental_uris":{"android":"levelo://app?vid=070514fe-927a-4fb0-9ca7-d8af1cc39ae0","ios":"levelo://app?vid=070514fe-927a-4fb0-9ca7-d8af1cc39ae0"},"vehicle_type_id":"4","last_reported":1752841346,"current_range_meters":19600,"station_id":"ce4bhbp2rcd13ifvqerg","pricing_plan_id":"cebpf4jnsgd1na2vs0mg"},{"bike_id":"a7b92e07-0d22-4b45-8ef1-b763127c437f","system_id":"levelo_inurba_marseille","lat":43.32531,"lon":5.37553,"is_reserved":false,"is_disabled":false,"rental_uris":{"android":"levelo://app?vid=a7b92e07-0d22-4b45-8ef1-b763127c437f","ios":"levelo://app?vid=a7b92e07-0d22-4b45-8ef1-b763127c437f"},"vehicle_type_id":"4","last_reported":1752841346,"current_range_meters":19600,"station_id":"","pricing_plan_id":"cebpf4jnsgd1na2vs0mg"},{"bike_id":"10d391b5-c179-4f9b-944d-e8c56b01a775","system_id":"levelo_inurba_marseille","lat":43.21747,"lon":5.34605,"is_reserved":false,"is_disabled":false,"rental_uris":{"android":"levelo://app?vid=10d391b5-c179-4f9b-944d-e8c56b01a775","ios":"levelo://app?vid=10d391b5-c179-4f9b-944d-e8c56b01a775"},"vehicle_type_id":"4","last_reported":1752841346,"current_range_meters":19600,"station_id":"st_cvj6r9ubvosntc0bgbag","pricing_plan_id":"cebpf4jnsgd1na2vs0mg"},{"bike_id":"aacce92b-4365-4bf0-ae27-3a02b5869286","system_id":"levelo_inurba_marseille","lat":43.33738,"lon":5.39181,"is_reserved":false,"is_disabled":false,"rental_uris":{"android":"levelo://app?vid=aacce92b-4365-4bf0-ae27-3a02b5869286","ios":"levelo://app?vid=aacce92b-4365-4bf0-ae27-3a02b5869286"},"vehicle_type_id":"4","last_reported":1752841346,"current_range_meters":20000,"station_id":"ce4bhr92rcd13ifvqhsg","pricing_plan_id":"cebpf4jnsgd1na2vs0mg"},{"bike_id":"85cceb8a-8d6c-4394-bf2a-8b91b5a7d6d2","system_id":"levelo_inurba_marseille","lat":43.28928,"lon":5.38392,"is_reserved":false,"is_disabled":false,"rental_uris":{"android":"levelo://app?vid=85cceb8a-8d6c-4394-bf2a-8b91b5a7d6d2","ios":"levelo://app?vid=85cceb8a-8d6c-4394-bf2a-8b91b5a7d6d2"},"vehicle_type_id":"4","last_reported":1752841346,"current_range_meters":20000,"station_id":"ce4bh612rcd13ifvqe6g","pricing_plan_id":"cebpf4jnsgd1na2vs0mg"},{"bike_id":"45dea0eb-918d-49f1-8341-001e35c226f0","system_id":"levelo_inurba_marseille","lat":43.21171,"lon":5.3508,"is_reserved":false,"is_disabled":false,"rental_uris":{"android":"levelo://app?vid=45dea0eb-918d-49f1-8341-001e35c226f0","ios":"levelo://app?vid=45dea0eb-918d-49f1-8341-001e35c226f0"},"vehicle_type_id":"4","last_reported":1752841346,"current_range_meters":20000,"station_id":"st_cvj6sg6p6f1abm77japg","pricing_plan_id":"cebpf4jnsgd1na2vs0mg"},{"bike_id":"6c93b69c-e3bf-434b-b869-c98969a1b67c","system_id":"levelo_inurba_marseille","lat":43.29037,"lon":5.39972,"is_reserved":false,"is_disabled":false,"rental_uris":{"android":"levelo://app?vid=6c93b69c-e3bf-434b-b869-c98969a1b67c","ios":"levelo://app?vid=6c93b69c-e3bf-434b-b869-c98969a1b67c"},"vehicle_type_id":"4","last_reported":1752841346,"current_range_meters":19600,"station_id":"ce4bh392rcd13ifvqdm0","pricing_plan_id":"cebpf4jnsgd1na2vs0mg"},{"bike_id":"cace2e7d-7e2a-43ff-bc8f-7502da9fc2d6","system_id":"levelo_inurba_marseille","lat":43.29579,"lon":5.36747,"is_reserved":false,"is_disabled":false,"rental_uris":{"android":"levelo://app?vid=cace2e7d-7e2a-43ff-bc8f-7502da9fc2d6","ios":"levelo://app?vid=cace2e7d-7e2a-43ff-bc8f-7502da9fc2d6"},"vehicle_type_id":"4","last_reported":1752841346,"current_range_meters":20000,"station_id":"ce4bgph2rcd13ifvqc2g","pricing_plan_id":"cebpf4jnsgd1na2vs0mg"},{"bike_id":"53adf772-e559-4105-9924-292b35e64b0e","system_id":"levelo_inurba_marseille","lat":43.28262,"lon":5.35071,"is_reserved":false,"is_disabled":false,"rental_uris":{"android":"levelo://app?vid=53adf772-e559-4105-9924-292b35e64b0e","ios":"levelo://app?vid=53adf772-e559-4105-9924-292b35e64b0e"},"vehicle_type_id":"4","last_reported":1752841346,"current_range_meters":20000,"station_id":"ce4bhbp2rcd13ifvqerg","pricing_plan_id":"cebpf4jnsgd1na2vs0mg"},{"bike_id":"12175aee-81cd-4dc7-bac7-36f50142ec38","system_id":"levelo_inurba_marseille","lat":43.30429,"lon":5.38886,"is_reserved":false,"is_disabled":false,"rental_uris":{"android":"levelo://app?vid=12175aee-81cd-4dc7-bac7-36f50142ec38","ios":"levelo://app?vid=12175aee-81cd-4dc7-bac7-36f50142ec38"},"vehicle_type_id":"4","last_reported":1752841346,"current_range_meters":20000,"station_id":"ce4bgk12rcd13ifvqbi0","pricing_plan_id":"cebpf4jnsgd1na2vs0mg"},{"bike_id":"c563397a-8e95-43de-9482-c447bf9c775e","system_id":"levelo_inurba_marseille","lat":43.293319,"lon":5.411726,"is_reserved":false,"is_disabled":false,"rental_uris":{"android":"levelo://app?vid=c563397a-8e95-43de-9482-c447bf9c775e","ios":"levelo://app?vid=c563397a-8e95-43de-9482-c447bf9c775e"},"vehicle_type_id":"4","last_reported":1752841346,"current_range_meters":20000,"station_id":"","pricing_plan_id":"cebpf4jnsgd1na2vs0mg"},{"bike_id":"9da07ab1-07ba-4c70-9b3e-5095f2a8680b","system_id":"levelo_inurba_marseille","lat":43.30546,"lon":5.36529,"is_reserved":false,"is_disabled":false,"rental_uris":{"android":"levelo://app?vid=9da07ab1-07ba-4c70-9b3e-5095f2a8680b","ios":"levelo://app?vid=9da07ab1-07ba-4c70-9b3e-5095f2a8680b"},"vehicle_type_id":"4","last_reported":1752841346,"current_range_meters":20000,"station_id":"ce4bgs12rcd13ifvqcag","pricing_plan_id":"cebpf4jnsgd1na2vs0mg"},{"bike_id":"bce28990-c259-4e2d-bdfe-a36a64f61f0b","system_id":"levelo_inurba_marseille","lat":43.31712,"lon":5.4045,"is_reserved":false,"is_disabled":false,"rental_uris":{"android":"levelo://app?vid=bce28990-c259-4e2d-bdfe-a36a64f61f0b","ios":"levelo://app?vid=bce28990-c259-4e2d-bdfe-a36a64f61f0b"},"vehicle_type_id":"4","last_reported":1752841346,"current_range_meters":20400,"station_id":"ce4bh012rcd13ifvqd00","pricing_plan_id":"cebpf4jnsgd1na2vs0mg"},{"bike_id":"b8443473-6242-49c7-bd2b-82c32afbbbe8","system_id":"levelo_inurba_marseille","lat":43.30132,"lon":5.38795,"is_reserved":false,"is_disabled":false,"rental_uris":{"android":"levelo://app?vid=b8443473-6242-49c7-bd2b-82c32afbbbe8","ios":"levelo://app?vid=b8443473-6242-49c7-bd2b-82c32afbbbe8"},"vehicle_type_id":"4","last_reported":1752841346,"current_range_meters":20000,"station_id":"ce4bghh2rcd13ifvqb60","pricing_plan_id":"cebpf4jnsgd1na2vs0mg"},{"bike_id":"255c16ba-9911-4256-ba44-ab4896a6c775","system_id":"levelo_inurba_marseille","lat":43.284191,"lon":5.349817,"is_reserved":false,"is_disabled":false,"rental_uris":{"android":"levelo://app?vid=255c16ba-9911-4256-ba44-ab4896a6c775","ios":"levelo://app?vid=255c16ba-9911-4256-ba44-ab4896a6c775"},"vehicle_type_id":"4","last_reported":1752841346,"current_range_meters":20400,"station_id":"","pricing_plan_id":"cebpf4jnsgd1na2vs0mg"},{"bike_id":"4a2af6fb-f040-4dff-9ff5-d70c4f952e83","system_id":"levelo_inurba_marseille","lat":43.315003,"lon":5.373047,"is_reserved":false,"is_disabled":true,"rental_uris":{"android":"levelo://app?vid=4a2af6fb-f040-4dff-9ff5-d70c4f952e83","ios":"levelo://app?vid=4a2af6fb-f040-4dff-9ff5-d70c4f952e83"},"vehicle_type_id":"4","last_reported":1752841346,"current_range_meters":20400,"station_id":"ce4bgt12rcd13ifvqcd0","pricing_plan_id":"cebpf4jnsgd1na2vs0mg"},{"bike_id":"d2fa22aa-c34d-4a77-b023-d06add13aae8","system_id":"levelo_inurba_marseille","lat":43.2454,"lon":5.39518,"is_reserved":false,"is_disabled":false,"rental_uris":{"android":"levelo://app?vid=d2fa22aa-c34d-4a77-b023-d06add13aae8","ios":"levelo://app?vid=d2fa22aa-c34d-4a77-b023-d06add13aae8"},"vehicle_type_id":"4","last_reported":1752841346,"current_range_meters":20400,"station_id":"ce4bhlp2rcd13ifvqgjg","pricing_plan_id":"cebpf4jnsgd1na2vs0mg"},{"bike_id":"7a7fd7cf-f8b9-4749-b31b-4bd24165641e","system_id":"levelo_inurba_marseille","lat":43.26564,"lon":5.39002,"is_reserved":false,"is_disabled":false,"rental_uris":{"android":"levelo://app?vid=7a7fd7cf-f8b9-4749-b31b-4bd24165641e","ios":"levelo://app?vid=7a7fd7cf-f8b9-4749-b31b-4bd24165641e"},"vehicle_type_id":"4","last_reported":1752841346,"current_range_meters":20400,"station_id":"ce4bhe12rcd13ifvqf30","pricing_plan_id":"cebpf4jnsgd1na2vs0mg"},{"bike_id":"90d4f77e-262c-4d22-9803-80c7c88599a7","system_id":"levelo_inurba_marseille","lat":43.337444,"lon":5.374475,"is_reserved":false,"is_disabled":false,"rental_uris":{"android":"levelo://app?vid=90d4f77e-262c-4d22-9803-80c7c88599a7","ios":"levelo://app?vid=90d4f77e-262c-4d22-9803-80c7c88599a7"},"vehicle_type_id":"4","last_reported":1752841346,"current_range_meters":20400,"station_id":"","pricing_plan_id":"cebpf4jnsgd1na2vs0mg"},{"bike_id":"355ef369-5c3d-4081-8461-f9cfabc5f7d7","system_id":"levelo_inurba_marseille","lat":43.29711,"lon":5.36601,"is_reserved":false,"is_disabled":false,"rental_uris":{"android":"levelo://app?vid=355ef369-5c3d-4081-8461-f9cfabc5f7d7","ios":"levelo://app?vid=355ef369-5c3d-4081-8461-f9cfabc5f7d7"},"vehicle_type_id":"4","last_reported":1752841346,"current_range_meters":20400,"station_id":"ce4bgn12rcd13ifvqbt0","pricing_plan_id":"cebpf4jnsgd1na2vs0mg"},{"bike_id":"ae514fe1-85ea-4b12-b065-9e5a24663928","system_id":"levelo_inurba_marseille","lat":43.2119,"lon":5.3506,"is_reserved":false,"is_disabled":false,"rental_uris":{"android":"levelo://app?vid=ae514fe1-85ea-4b12-b065-9e5a24663928","ios":"levelo://app?vid=ae514fe1-85ea-4b12-b065-9e5a24663928"},"vehicle_type_id":"4","last_reported":1752841346,"current_range_meters":20400,"station_id":"st_cvj6sg6p6f1abm77japg","pricing_plan_id":"cebpf4jnsgd1na2vs0mg"},{"bike_id":"44e89ad7-16a2-4910-805f-061f2aee5ab7","system_id":"levelo_inurba_marseille","lat":43.231905,"lon":5.355554,"is_reserved":false,"is_disabled":false,"rental_uris":{"android":"levelo://app?vid=44e89ad7-16a2-4910-805f-061f2aee5ab7","ios":"levelo://app?vid=44e89ad7-16a2-4910-805f-061f2aee5ab7"},"vehicle_type_id":"4","last_reported":1752841346,"current_range_meters":20400,"station_id":"ce4bhu92rcd13ifvqi70","pricing_plan_id":"cebpf4jnsgd1na2vs0mg"},{"bike_id":"91243f73-e066-4646-a12b-37ceb2df5e2a","system_id":"levelo_inurba_marseille","lat":43.29702,"lon":5.36608,"is_reserved":false,"is_disabled":false,"rental_uris":{"android":"levelo://app?vid=91243f73-e066-4646-a12b-37ceb2df5e2a","ios":"levelo://app?vid=91243f73-e066-4646-a12b-37ceb2df5e2a"},"vehicle_type_id":"4","last_reported":1752841346,"current_range_meters":20400,"station_id":"ce4bgn12rcd13ifvqbt0","pricing_plan_id":"cebpf4jnsgd1na2vs0mg"},{"bike_id":"22ab0a30-ae16-4f7e-880b-fb0e1a4ab54f","system_id":"levelo_inurba_marseille","lat":43.21746,"lon":5.34603,"is_reserved":false,"is_disabled":false,"rental_uris":{"android":"levelo://app?vid=22ab0a30-ae16-4f7e-880b-fb0e1a4ab54f","ios":"levelo://app?vid=22ab0a30-ae16-4f7e-880b-fb0e1a4ab54f"},"vehicle_type_id":"4","last_reported":1752841346,"current_range_meters":20400,"station_id":"st_cvj6r9ubvosntc0bgbag","pricing_plan_id":"cebpf4jnsgd1na2vs0mg"},{"bike_id":"a2c797ac-91ff-4987-81ca-78f615ca3bf1","system_id":"levelo_inurba_marseille","lat":43.27566,"lon":5.38445,"is_reserved":false,"is_disabled":false,"rental_uris":{"android":"levelo://app?vid=a2c797ac-91ff-4987-81ca-78f615ca3bf1","ios":"levelo://app?vid=a2c797ac-91ff-4987-81ca-78f615ca3bf1"},"vehicle_type_id":"4","last_reported":1752841346,"current_range_meters":20400,"station_id":"ce4bhh92rcd13ifvqfi0","pricing_plan_id":"cebpf4jnsgd1na2vs0mg"},{"bike_id":"a7245722-efb4-4b5e-b395-d708d3239db4","system_id":"levelo_inurba_marseille","lat":43.32371,"lon":5.38904,"is_reserved":false,"is_disabled":false,"rental_uris":{"android":"levelo://app?vid=a7245722-efb4-4b5e-b395-d708d3239db4","ios":"levelo://app?vid=a7245722-efb4-4b5e-b395-d708d3239db4"},"vehicle_type_id":"4","last_reported":1752841346,"current_range_meters":20800,"station_id":"ce4bhqp2rcd13ifvqhog","pricing_plan_id":"cebpf4jnsgd1na2vs0mg"},{"bike_id":"bd4f2166-3fd0-4dcc-b0eb-f1e53c57f556","system_id":"levelo_inurba_marseille","lat":43.211925,"lon":5.350729,"is_reserved":false,"is_disabled":false,"rental_uris":{"android":"levelo://app?vid=bd4f2166-3fd0-4dcc-b0eb-f1e53c57f556","ios":"levelo://app?vid=bd4f2166-3fd0-4dcc-b0eb-f1e53c57f556"},"vehicle_type_id":"4","last_reported":1752841346,"current_range_meters":20800,"station_id":"st_cvj6sg6p6f1abm77japg","pricing_plan_id":"cebpf4jnsgd1na2vs0mg"},{"bike_id":"a168d389-ea1d-4756-ad9b-cf73a31ab442","system_id":"levelo_inurba_marseille","lat":43.288747,"lon":5.400098,"is_reserved":false,"is_disabled":false,"rental_uris":{"android":"levelo://app?vid=a168d389-ea1d-4756-ad9b-cf73a31ab442","ios":"levelo://app?vid=a168d389-ea1d-4756-ad9b-cf73a31ab442"},"vehicle_type_id":"4","last_reported":1752841346,"current_range_meters":20800,"station_id":"","pricing_plan_id":"cebpf4jnsgd1na2vs0mg"},{"bike_id":"423f1338-219c-4f01-8e6d-d117d7e4897e","system_id":"levelo_inurba_marseille","lat":43.297922,"lon":5.393443,"is_reserved":false,"is_disabled":false,"rental_uris":{"android":"levelo://app?vid=423f1338-219c-4f01-8e6d-d117d7e4897e","ios":"levelo://app?vid=423f1338-219c-4f01-8e6d-d117d7e4897e"},"vehicle_type_id":"4","last_reported":1752841346,"current_range_meters":20800,"station_id":"chh1huq6cuj3fo74tm60","pricing_plan_id":"cebpf4jnsgd1na2vs0mg"},{"bike_id":"b485ab37-376c-4713-ac28-32d2bb4978e2","system_id":"levelo_inurba_marseille","lat":43.29248,"lon":5.36036,"is_reserved":false,"is_disabled":false,"rental_uris":{"android":"levelo://app?vid=b485ab37-376c-4713-ac28-32d2bb4978e2","ios":"levelo://app?vid=b485ab37-376c-4713-ac28-32d2bb4978e2"},"vehicle_type_id":"4","last_reported":1752841346,"current_range_meters":21600,"station_id":"ce4bhbh2rcd13ifvqeqg","pricing_plan_id":"cebpf4jnsgd1na2vs0mg"},{"bike_id":"2b7302bc-13a1-421a-b212-2b92f54a074c","system_id":"levelo_inurba_marseille","lat":43.29923,"lon":5.36567,"is_reserved":false,"is_disabled":false,"rental_uris":{"android":"levelo://app?vid=2b7302bc-13a1-421a-b212-2b92f54a074c","ios":"levelo://app?vid=2b7302bc-13a1-421a-b212-2b92f54a074c"},"vehicle_type_id":"4","last_reported":1752841346,"current_range_meters":21600,"station_id":"ce4bgm92rcd13ifvqbr0","pricing_plan_id":"cebpf4jnsgd1na2vs0mg"},{"bike_id":"e119a308-ad6d-4ac5-8965-22b96b757f74","system_id":"levelo_inurba_marseille","lat":43.22936,"lon":5.35372,"is_reserved":false,"is_disabled":false,"rental_uris":{"android":"levelo://app?vid=e119a308-ad6d-4ac5-8965-22b96b757f74","ios":"levelo://app?vid=e119a308-ad6d-4ac5-8965-22b96b757f74"},"vehicle_type_id":"4","last_reported":1752841346,"current_range_meters":21600,"station_id":"cpo3532slgdg3j2ikp40","pricing_plan_id":"cebpf4jnsgd1na2vs0mg"},{"bike_id":"6928dacf-2e8f-4c40-8774-0d60fdfd8e6d","system_id":"levelo_inurba_marseille","lat":43.29273,"lon":5.42838,"is_reserved":false,"is_disabled":false,"rental_uris":{"android":"levelo://app?vid=6928dacf-2e8f-4c40-8774-0d60fdfd8e6d","ios":"levelo://app?vid=6928dacf-2e8f-4c40-8774-0d60fdfd8e6d"},"vehicle_type_id":"4","last_reported":1752841346,"current_range_meters":22000,"station_id":"","pricing_plan_id":"cebpf4jnsgd1na2vs0mg"},{"bike_id":"aa23c175-03cc-462b-a181-e36b9466b8c7","system_id":"levelo_inurba_marseille","lat":43.295807,"lon":5.375137,"is_reserved":false,"is_disabled":false,"rental_uris":{"android":"levelo://app?vid=aa23c175-03cc-462b-a181-e36b9466b8c7","ios":"levelo://app?vid=aa23c175-03cc-462b-a181-e36b9466b8c7"},"vehicle_type_id":"4","last_reported":1752841346,"current_range_meters":22000,"station_id":"ce4bgh92rcd13ifvqb50","pricing_plan_id":"cebpf4jnsgd1na2vs0mg"},{"bike_id":"5c659bc2-af09-4808-be61-c0434dde65e4","system_id":"levelo_inurba_marseille","lat":43.29268,"lon":5.38439,"is_reserved":false,"is_disabled":false,"rental_uris":{"android":"levelo://app?vid=5c659bc2-af09-4808-be61-c0434dde65e4","ios":"levelo://app?vid=5c659bc2-af09-4808-be61-c0434dde65e4"},"vehicle_type_id":"4","last_reported":1752841346,"current_range_meters":22000,"station_id":"ce4bh692rcd13ifvqea0","pricing_plan_id":"cebpf4jnsgd1na2vs0mg"},{"bike_id":"ed69570e-9aea-4980-8eb9-8acacdfdcbbd","system_id":"levelo_inurba_marseille","lat":43.29848,"lon":5.39723,"is_reserved":false,"is_disabled":false,"rental_uris":{"android":"levelo://app?vid=ed69570e-9aea-4980-8eb9-8acacdfdcbbd","ios":"levelo://app?vid=ed69570e-9aea-4980-8eb9-8acacdfdcbbd"},"vehicle_type_id":"4","last_reported":1752841346,"current_range_meters":22000,"station_id":"ce4bh0h2rcd13ifvqd50","pricing_plan_id":"cebpf4jnsgd1na2vs0mg"},{"bike_id":"3048042a-dacc-4545-8255-571b4445c111","system_id":"levelo_inurba_marseille","lat":43.27172,"lon":5.40993,"is_reserved":false,"is_disabled":false,"rental_uris":{"android":"levelo://app?vid=3048042a-dacc-4545-8255-571b4445c111","ios":"levelo://app?vid=3048042a-dacc-4545-8255-571b4445c111"},"vehicle_type_id":"4","last_reported":1752841346,"current_range_meters":21600,"station_id":"ce4bhl12rcd13ifvqgf0","pricing_plan_id":"cebpf4jnsgd1na2vs0mg"},{"bike_id":"b2d8de19-5228-47c5-a04d-d8664c46de68","system_id":"levelo_inurba_marseille","lat":43.22922,"lon":5.35384,"is_reserved":false,"is_disabled":false,"rental_uris":{"android":"levelo://app?vid=b2d8de19-5228-47c5-a04d-d8664c46de68","ios":"levelo://app?vid=b2d8de19-5228-47c5-a04d-d8664c46de68"},"vehicle_type_id":"4","last_reported":1752841346,"current_range_meters":22000,"station_id":"cpo3532slgdg3j2ikp40","pricing_plan_id":"cebpf4jnsgd1na2vs0mg"},{"bike_id":"158422b9-1628-470c-9ef7-ebee5ce90c1e","system_id":"levelo_inurba_marseille","lat":43.211973,"lon":5.351039,"is_reserved":false,"is_disabled":false,"rental_uris":{"android":"levelo://app?vid=158422b9-1628-470c-9ef7-ebee5ce90c1e","ios":"levelo://app?vid=158422b9-1628-470c-9ef7-ebee5ce90c1e"},"vehicle_type_id":"4","last_reported":1752841346,"current_range_meters":22000,"station_id":"st_cvj6sg6p6f1abm77japg","pricing_plan_id":"cebpf4jnsgd1na2vs0mg"},{"bike_id":"ea37c249-bc61-4eea-862b-e2e11472cda2","system_id":"levelo_inurba_marseille","lat":43.29266,"lon":5.36842,"is_reserved":false,"is_disabled":true,"rental_uris":{"android":"levelo://app?vid=ea37c249-bc61-4eea-862b-e2e11472cda2","ios":"levelo://app?vid=ea37c249-bc61-4eea-862b-e2e11472cda2"},"vehicle_type_id":"4","last_reported":1752841346,"current_range_meters":22000,"station_id":"ce4bhbp2rcd13ifvqesg","pricing_plan_id":"cebpf4jnsgd1na2vs0mg"},{"bike_id":"a123b2c9-57ea-4984-a7e0-c4b564f3eb66","system_id":"levelo_inurba_marseille","lat":43.25011,"lon":5.38923,"is_reserved":false,"is_disabled":false,"rental_uris":{"android":"levelo://app?vid=a123b2c9-57ea-4984-a7e0-c4b564f3eb66","ios":"levelo://app?vid=a123b2c9-57ea-4984-a7e0-c4b564f3eb66"},"vehicle_type_id":"4","last_reported":1752841346,"current_range_meters":22000,"station_id":"ce4bhgp2rcd13ifvqfd0","pricing_plan_id":"cebpf4jnsgd1na2vs0mg"},{"bike_id":"42678463-d922-490b-86c7-a3a84944a69d","system_id":"levelo_inurba_marseille","lat":43.23192,"lon":5.35568,"is_reserved":false,"is_disabled":false,"rental_uris":{"android":"levelo://app?vid=42678463-d922-490b-86c7-a3a84944a69d","ios":"levelo://app?vid=42678463-d922-490b-86c7-a3a84944a69d"},"vehicle_type_id":"4","last_reported":1752841346,"current_range_meters":22400,"station_id":"ce4bhu92rcd13ifvqi70","pricing_plan_id":"cebpf4jnsgd1na2vs0mg"},{"bike_id":"70e725a3-b28a-495f-a8b5-4b197b76f0de","system_id":"levelo_inurba_marseille","lat":43.296,"lon":5.37731,"is_reserved":false,"is_disabled":false,"rental_uris":{"android":"levelo://app?vid=70e725a3-b28a-495f-a8b5-4b197b76f0de","ios":"levelo://app?vid=70e725a3-b28a-495f-a8b5-4b197b76f0de"},"vehicle_type_id":"4","last_reported":1752841346,"current_range_meters":22400,"station_id":"ce4bgi92rcd13ifvqb90","pricing_plan_id":"cebpf4jnsgd1na2vs0mg"},{"bike_id":"7243c05a-9b60-450b-8335-40e91495839d","system_id":"levelo_inurba_marseille","lat":43.22929,"lon":5.35372,"is_reserved":false,"is_disabled":false,"rental_uris":{"android":"levelo://app?vid=7243c05a-9b60-450b-8335-40e91495839d","ios":"levelo://app?vid=7243c05a-9b60-450b-8335-40e91495839d"},"vehicle_type_id":"4","last_reported":1752841346,"current_range_meters":22400,"station_id":"cpo3532slgdg3j2ikp40","pricing_plan_id":"cebpf4jnsgd1na2vs0mg"},{"bike_id":"5ca484d3-ee16-42e3-85fd-68666ef1a0fc","system_id":"levelo_inurba_marseille","lat":43.24677,"lon":5.38151,"is_reserved":false,"is_disabled":false,"rental_uris":{"android":"levelo://app?vid=5ca484d3-ee16-42e3-85fd-68666ef1a0fc","ios":"levelo://app?vid=5ca484d3-ee16-42e3-85fd-68666ef1a0fc"},"vehicle_type_id":"4","last_reported":1752841346,"current_range_meters":22400,"station_id":"ce4bhih2rcd13ifvqfr0","pricing_plan_id":"cebpf4jnsgd1na2vs0mg"},{"bike_id":"b9f946fc-b9ea-4701-936b-08e45a9c43ff","system_id":"levelo_inurba_marseille","lat":43.28152,"lon":5.42648,"is_reserved":false,"is_disabled":false,"rental_uris":{"android":"levelo://app?vid=b9f946fc-b9ea-4701-936b-08e45a9c43ff","ios":"levelo://app?vid=b9f946fc-b9ea-4701-936b-08e45a9c43ff"},"vehicle_type_id":"4","last_reported":1752841346,"current_range_meters":22000,"station_id":"ce4bhnh2rcd13ifvqgug","pricing_plan_id":"cebpf4jnsgd1na2vs0mg"},{"bike_id":"54541dc6-c899-4ffd-a162-4cc49c9286f2","system_id":"levelo_inurba_marseille","lat":43.254768,"lon":5.376548,"is_reserved":false,"is_disabled":false,"rental_uris":{"android":"levelo://app?vid=54541dc6-c899-4ffd-a162-4cc49c9286f2","ios":"levelo://app?vid=54541dc6-c899-4ffd-a162-4cc49c9286f2"},"vehicle_type_id":"4","last_reported":1752841346,"current_range_meters":22400,"station_id":"ce4bhnh2rcd13ifvqgtg","pricing_plan_id":"cebpf4jnsgd1na2vs0mg"},{"bike_id":"9e880e5c-078f-45f5-8b1f-0e4700b79f39","system_id":"levelo_inurba_marseille","lat":43.269516,"lon":5.386326,"is_reserved":false,"is_disabled":false,"rental_uris":{"android":"levelo://app?vid=9e880e5c-078f-45f5-8b1f-0e4700b79f39","ios":"levelo://app?vid=9e880e5c-078f-45f5-8b1f-0e4700b79f39"},"vehicle_type_id":"4","last_reported":1752841346,"current_range_meters":22400,"station_id":"ce4bhh92rcd13ifvqfh0","pricing_plan_id":"cebpf4jnsgd1na2vs0mg"},{"bike_id":"d18a8879-8b17-44c0-93ef-fcb3f8d4370f","system_id":"levelo_inurba_marseille","lat":43.29026,"lon":5.38129,"is_reserved":false,"is_disabled":false,"rental_uris":{"android":"levelo://app?vid=d18a8879-8b17-44c0-93ef-fcb3f8d4370f","ios":"levelo://app?vid=d18a8879-8b17-44c0-93ef-fcb3f8d4370f"},"vehicle_type_id":"4","last_reported":1752841346,"current_range_meters":22400,"station_id":"ce4bh4p2rcd13ifvqe1g","pricing_plan_id":"cebpf4jnsgd1na2vs0mg"},{"bike_id":"95b5bcfa-54af-48c0-bd18-8f73f959ce2b","system_id":"levelo_inurba_marseille","lat":43.31935,"lon":5.37313,"is_reserved":false,"is_disabled":false,"rental_uris":{"android":"levelo://app?vid=95b5bcfa-54af-48c0-bd18-8f73f959ce2b","ios":"levelo://app?vid=95b5bcfa-54af-48c0-bd18-8f73f959ce2b"},"vehicle_type_id":"4","last_reported":1752841346,"current_range_meters":22400,"station_id":"","pricing_plan_id":"cebpf4jnsgd1na2vs0mg"},{"bike_id":"10eab293-d963-46d8-bf07-69713ceade0c","system_id":"levelo_inurba_marseille","lat":43.24396,"lon":5.37063,"is_reserved":false,"is_disabled":true,"rental_uris":{"android":"levelo://app?vid=10eab293-d963-46d8-bf07-69713ceade0c","ios":"levelo://app?vid=10eab293-d963-46d8-bf07-69713ceade0c"},"vehicle_type_id":"4","last_reported":1752841346,"current_range_meters":22400,"station_id":"ce4bhhh2rcd13ifvqfk0","pricing_plan_id":"cebpf4jnsgd1na2vs0mg"},{"bike_id":"a2414d3f-a904-4223-b985-92165b493ace","system_id":"levelo_inurba_marseille","lat":43.30546,"lon":5.36702,"is_reserved":false,"is_disabled":true,"rental_uris":{"android":"levelo://app?vid=a2414d3f-a904-4223-b985-92165b493ace","ios":"levelo://app?vid=a2414d3f-a904-4223-b985-92165b493ace"},"vehicle_type_id":"4","last_reported":1752841346,"current_range_meters":22400,"station_id":"ce4bgrp2rcd13ifvqc9g","pricing_plan_id":"cebpf4jnsgd1na2vs0mg"},{"bike_id":"db6082c9-fd3d-440f-b102-ba0374c47f35","system_id":"levelo_inurba_marseille","lat":43.30387,"lon":5.42491,"is_reserved":false,"is_disabled":false,"rental_uris":{"android":"levelo://app?vid=db6082c9-fd3d-440f-b102-ba0374c47f35","ios":"levelo://app?vid=db6082c9-fd3d-440f-b102-ba0374c47f35"},"vehicle_type_id":"4","last_reported":1752841346,"current_range_meters":22800,"station_id":"ce4bhoh2rcd13ifvqh6g","pricing_plan_id":"cebpf4jnsgd1na2vs0mg"},{"bike_id":"0410237b-1cdc-4f88-b95e-729327c16aa4","system_id":"levelo_inurba_marseille","lat":43.29936,"lon":5.36543,"is_reserved":false,"is_disabled":false,"rental_uris":{"android":"levelo://app?vid=0410237b-1cdc-4f88-b95e-729327c16aa4","ios":"levelo://app?vid=0410237b-1cdc-4f88-b95e-729327c16aa4"},"vehicle_type_id":"4","last_reported":1752841346,"current_range_meters":22800,"station_id":"ce4bgm92rcd13ifvqbr0","pricing_plan_id":"cebpf4jnsgd1na2vs0mg"},{"bike_id":"25c61d91-92f9-47bc-ba2a-34ec5d0a2e05","system_id":"levelo_inurba_marseille","lat":43.21717,"lon":5.34609,"is_reserved":false,"is_disabled":false,"rental_uris":{"android":"levelo://app?vid=25c61d91-92f9-47bc-ba2a-34ec5d0a2e05","ios":"levelo://app?vid=25c61d91-92f9-47bc-ba2a-34ec5d0a2e05"},"vehicle_type_id":"4","last_reported":1752841346,"current_range_meters":22800,"station_id":"st_cvj6r9ubvosntc0bgbag","pricing_plan_id":"cebpf4jnsgd1na2vs0mg"},