{"last_updated":1705435690,"ttl":30,"version":"2.2","data":{"bikes":[{"bike_id":"b583a396-5034-4f77-a306-795f95f6e1aa","system_id":"levelo_inurba_marseille","lat":43.313391,"lon":5.36706,"is_reserved":false,"is_disabled":false,"rental_uris":{"android":"levelo://app?vid=b583a396-5034-4f77-a306-795f95f6e1aa","ios":"levelo://app?vid=b583a396-5034-4f77-a306-795f95f6e1aa"},"vehicle_type_id":"4","last_reported":1705435690,"current_range_meters":5200,"station_id":"ce4bgr92rcd13ifvqc6g","pricing_plan_id":"free"},{"bike_id":"2710a938-40ee-49ce-8aa6-466fc2b681d9","system_id":"levelo_inurba_marseille","lat":43.31341,"lon":5.367098,"is_reserved":false,"is_disabled":false,"rental_uris":{"android":"levelo://app?vid=2710a938-40ee-49ce-8aa6-466fc2b681d9","ios":"levelo://app?vid=2710a938-40ee-49ce-8aa6-466fc2b681d9"},"vehicle_type_id":"4","last_reported":1705435690,"current_range_meters":27600,"station_id":"ce4bgr92rcd13ifvqc6g","pricing_plan_id":"free"},{"bike_id":"2751fe63-7b8e-4a23-aa70-8680c00ee2b6","system_id":"levelo_inurba_marseille","lat":43.31091,"lon":5.37274,"is_reserved":false,"is_disabled":false,"rental_uris":{"android":"levelo://app?vid=2751fe63-7b8e-4a23-aa70-8680c00ee2b6","ios":"levelo://app?vid=2751fe63-7b8e-4a23-aa70-8680c00ee2b6"},"vehicle_type_id":"4","last_reported":1705435690,"current_range_meters":1600,"station_id":"","pricing_plan_id":"free"},{"bike_id":"a0f87143-c1c5-4526-8e08-73f6e8925c73","system_id":"levelo_inurba_marseille","lat":43.31481,"lon":5.37308,"is_reserved":false,"is_disabled":false,"rental_uris":{"android":"levelo://app?vid=a0f87143-c1c5-4526-8e08-73f6e8925c73","ios":"levelo://app?vid=a0f87143-c1c5-4526-8e08-73f6e8925c73"},"vehicle_type_id":"4","last_reported":1705435690,"current_range_meters":22400,"station_id":"ce4bgt12rcd13ifvqcd0","pricing_plan_id":"free"},{"bike_id":"81be9e53-1f19-4022-b40f-71053d34ba8a","system_id":"levelo_inurba_marseille","lat":43.314811,"lon":5.373103,"is_reserved":false,"is_disabled":false,"rental_uris":{"android":"levelo://app?vid=81be9e53-1f19-4022-b40f-71053d34ba8a","ios":"levelo://app?vid=81be9e53-1f19-4022-b40f-71053d34ba8a"},"vehicle_type_id":"4","last_reported":1705435690,"current_range_meters":30800,"station_id":"ce4bgt12rcd13ifvqcd0","pricing_plan_id":"free"},{"bike_id":"95d56360-ae3c-4d1a-a7eb-f0bf609f110f","system_id":"levelo_inurba_marseille","lat":43.305989,"lon":5.37225,"is_reserved":false,"is_disabled":false,"rental_uris":{"android":"levelo://app?vid=95d56360-ae3c-4d1a-a7eb-f0bf609f110f","ios":"levelo://app?vid=95d56360-ae3c-4d1a-a7eb-f0bf609f110f"},"vehicle_type_id":"4","last_reported":1705435690,"current_range_meters":10400,"station_id":"ce4bgqh2rcd13ifvqc4g","pricing_plan_id":"free"},{"bike_id":"bcbcf91b-0e4f-4416-91f5-b5637a08a01a","system_id":"levelo_inurba_marseille","lat":43.305989,"lon":5.37225,"is_reserved":false,"is_disabled":false,"rental_uris":{"android":"levelo://app?vid=bcbcf91b-0e4f-4416-91f5-b5637a08a01a","ios":"levelo://app?vid=bcbcf91b-0e4f-4416-91f5-b5637a08a01a"},"vehicle_type_id":"4","last_reported":1705435690,"current_range_meters":24800,"station_id":"ce4bgqh2rcd13ifvqc4g","pricing_plan_id":"free"},{"bike_id":"b7caad5d-4051-43d5-a2c4-f8f1a38569c0","system_id":"levelo_inurba_marseille","lat":43.305989,"lon":5.37225,"is_reserved":false,"is_disabled":false,"rental_uris":{"android":"levelo://app?vid=b7caad5d-4051-43d5-a2c4-f8f1a38569c0","ios":"levelo://app?vid=b7caad5d-4051-43d5-a2c4-f8f1a38569c0"},"vehicle_type_id":"4","last_reported":1705435690,"current_range_meters":3600,"station_id":"ce4bgqh2rcd13ifvqc4g","pricing_plan_id":"free"},{"bike_id":"f6bad580-c6fb-4202-a6d3-842c2e0fa5fb","system_id":"levelo_inurba_marseille","lat":43.305989,"lon":5.37225,"is_reserved":false,"is_disabled":false,"rental_uris":{"android":"levelo://app?vid=f6bad580-c6fb-4202-a6d3-842c2e0fa5fb","ios":"levelo://app?vid=f6bad580-c6fb-4202-a6d3-842c2e0fa5fb"},"vehicle_type_id":"4","last_reported":1705435690,"current_range_meters":29200,"station_id":"ce4bgqh2rcd13ifvqc4g","pricing_plan_id":"free"},{"bike_id":"ed0176ef-2292-4caf-8008-313fc09ad931","system_id":"levelo_inurba_marseille","lat":43.305989,"lon":5.37225,"is_reserved":false,"is_disabled":false,"rental_uris":{"android":"levelo://app?vid=ed0176ef-2292-4caf-8008-313fc09ad931","ios":"levelo://app?vid=ed0176ef-2292-4caf-8008-313fc09ad931"},"vehicle_type_id":"4","last_reported":1705435690,"current_range_meters":3200,"station_id":"ce4bgqh2rcd13ifvqc4g","pricing_plan_id":"free"},{"bike_id":"29de0205-2074-4d12-a979-af3a6c0b76b2","system_id":"levelo_inurba_marseille","lat":43.31119,"lon":5.37764,"is_reserved":false,"is_disabled":false,"rental_uris":{"android":"levelo://app?vid=29de0205-2074-4d12-a979-af3a6c0b76b2","ios":"levelo://app?vid=29de0205-2074-4d12-a979-af3a6c0b76b2"},"vehicle_type_id":"4","last_reported":1705435690,"current_range_meters":0,"station_id":"ce4bgt92rcd13ifvqcg0","pricing_plan_id":"free"},{"bike_id":"fd0809b1-323f-4145-8109-e2a7364931f2","system_id":"levelo_inurba_marseille","lat":43.311143,"lon":5.37766,"is_reserved":false,"is_disabled":false,"rental_uris":{"android":"levelo://app?vid=fd0809b1-323f-4145-8109-e2a7364931f2","ios":"levelo://app?vid=fd0809b1-323f-4145-8109-e2a7364931f2"},"vehicle_type_id":"4","last_reported":1705435690,"current_range_meters":16800,"station_id":"ce4bgt92rcd13ifvqcg0","pricing_plan_id":"free"},{"bike_id":"94f02d51-1fe1-4475-9412-48cfd175831a","system_id":"levelo_inurba_marseille","lat":43.31119,"lon":5.37768,"is_reserved":false,"is_disabled":false,"rental_uris":{"android":"levelo://app?vid=94f02d51-1fe1-4475-9412-48cfd175831a","ios":"levelo://app?vid=94f02d51-1fe1-4475-9412-48cfd175831a"},"vehicle_type_id":"4","last_reported":1705435690,"current_range_meters":2800,"station_id":"ce4bgt92rcd13ifvqcg0","pricing_plan_id":"free"},{"bike_id":"97f027ac-799c-4c75-9227-34daeb7e60f0","system_id":"levelo_inurba_marseille","lat":43.307945,"lon":5.376487,"is_reserved":false,"is_disabled":false,"rental_uris":{"android":"levelo://app?vid=97f027ac-799c-4c75-9227-34daeb7e60f0","ios":"levelo://app?vid=97f027ac-799c-4c75-9227-34daeb7e60f0"},"vehicle_type_id":"4","last_reported":1705435690,"current_range_meters":20400,"station_id":"ce4bgv92rcd13ifvqcq0","pricing_plan_id":"free"},{"bike_id":"c375c297-0260-43e0-9bf4-f1e24f13fa6a","system_id":"levelo_inurba_marseille","lat":43.307945,"lon":5.376487,"is_reserved":false,"is_disabled":false,"rental_uris":{"android":"levelo://app?vid=c375c297-0260-43e0-9bf4-f1e24f13fa6a","ios":"levelo://app?vid=c375c297-0260-43e0-9bf4-f1e24f13fa6a"},"vehicle_type_id":"4","last_reported":1705435690,"current_range_meters":16800,"station_id":"ce4bgv92rcd13ifvqcq0","pricing_plan_id":"free"},{"bike_id":"35bb317c-078a-49e2-9784-335d49051d8a","system_id":"levelo_inurba_marseille","lat":43.317075,"lon":5.377367,"is_reserved":false,"is_disabled":false,"rental_uris":{"android":"levelo://app?vid=35bb317c-078a-49e2-9784-335d49051d8a","ios":"levelo://app?vid=35bb317c-078a-49e2-9784-335d49051d8a"},"vehicle_type_id":"4","last_reported":1705435690,"current_range_meters":16400,"station_id":"ce4bgth2rcd13ifvqch0","pricing_plan_id":"free"},{"bike_id":"23033bd6-d5d5-4066-95d3-b23920f31b85","system_id":"levelo_inurba_marseille","lat":43.317089,"lon":5.37751,"is_reserved":false,"is_disabled":false,"rental_uris":{"android":"levelo://app?vid=23033bd6-d5d5-4066-95d3-b23920f31b85","ios":"levelo://app?vid=23033bd6-d5d5-4066-95d3-b23920f31b85"},"vehicle_type_id":"4","last_reported":1705435690,"current_range_meters":26000,"station_id":"","pricing_plan_id":"free"},{"bike_id":"6d4bdee6-1100-4243-966c-b06ab7a6a584","system_id":"levelo_inurba_marseille","lat":43.317075,"lon":5.377367,"is_reserved":false,"is_disabled":false,"rental_uris":{"android":"levelo://app?vid=6d4bdee6-1100-4243-966c-b06ab7a6a584","ios":"levelo://app?vid=6d4bdee6-1100-4243-966c-b06ab7a6a584"},"vehicle_type_id":"4","last_reported":1705435690,"current_range_meters":19600,"station_id":"ce4bgth2rcd13ifvqch0","pricing_plan_id":"free"},{"bike_id":"cdd0957b-d457-4035-b933-8512b4239689","system_id":"levelo_inurba_marseille","lat":43.303046,"lon":5.368981,"is_reserved":false,"is_disabled":false,"rental_uris":{"android":"levelo://app?vid=cdd0957b-d457-4035-b933-8512b4239689","ios":"levelo://app?vid=cdd0957b-d457-4035-b933-8512b4239689"},"vehicle_type_id":"4","last_reported":1705435690,"current_range_meters":19200,"station_id":"ce4bgqh2rcd13ifvqc5g","pricing_plan_id":"free"},{"bike_id":"ceead678-c53e-4658-9eaa-9845ca9383fc","system_id":"levelo_inurba_marseille","lat":43.303046,"lon":5.368981,"is_reserved":false,"is_disabled":false,"rental_uris":{"android":"levelo://app?vid=ceead678-c53e-4658-9eaa-9845ca9383fc","ios":"levelo://app?vid=ceead678-c53e-4658-9eaa-9845ca9383fc"},"vehicle_type_id":"4","last_reported":1705435690,"current_range_meters":13600,"station_id":"ce4bgqh2rcd13ifvqc5g","pricing_plan_id":"free"},{"bike_id":"c2e183a7-4d86-4351-891f-3b9ff3cc4029","system_id":"levelo_inurba_marseille","lat":43.303046,"lon":5.368981,"is_reserved":false,"is_disabled":false,"rental_uris":{"android":"levelo://app?vid=c2e183a7-4d86-4351-891f-3b9ff3cc4029","ios":"levelo://app?vid=c2e183a7-4d86-4351-891f-3b9ff3cc4029"},"vehicle_type_id":"4","last_reported":1705435690,"current_range_meters":14400,"station_id":"ce4bgqh2rcd13ifvqc5g","pricing_plan_id":"free"},{"bike_id":"b6ae0f46-d9c5-4dcc-b5b9-14b0e5c4af2c","system_id":"levelo_inurba_marseille","lat":43.30194,"lon":5.36627,"is_reserved":false,"is_disabled":false,"rental_uris":{"android":"levelo://app?vid=b6ae0f46-d9c5-4dcc-b5b9-14b0e5c4af2c","ios":"levelo://app?vid=b6ae0f46-d9c5-4dcc-b5b9-14b0e5c4af2c"},"vehicle_type_id":"4","last_reported":1705435690,"current_range_meters":26000,"station_id":"ce4bgrh2rcd13ifvqc8g","pricing_plan_id":"free"},{"bike_id":"b6665513-6ca2-42dc-9baf-3c5b43a49768","system_id":"levelo_inurba_marseille","lat":43.324771,"lon":5.36557,"is_reserved":false,"is_disabled":false,"rental_uris":{"android":"levelo://app?vid=b6665513-6ca2-42dc-9baf-3c5b43a49768","ios":"levelo://app?vid=b6665513-6ca2-42dc-9baf-3c5b43a49768"},"vehicle_type_id":"4","last_reported":1705435690,"current_range_meters":28400,"station_id":"ce4bhs12rcd13ifvqhvg","pricing_plan_id":"free"},{"bike_id":"61a6e069-1738-4fb4-914c-71544c263cb0","system_id":"levelo_inurba_marseille","lat":43.324771,"lon":5.36557,"is_reserved":false,"is_disabled":false,"rental_uris":{"android":"levelo://app?vid=61a6e069-1738-4fb4-914c-71544c263cb0","ios":"levelo://app?vid=61a6e069-1738-4fb4-914c-71544c263cb0"},"vehicle_type_id":"4","last_reported":1705435690,"current_range_meters":9200,"station_id":"ce4bhs12rcd13ifvqhvg","pricing_plan_id":"free"},{"bike_id":"fa464119-3865-4d78-914a-9227a851e6df","system_id":"levelo_inurba_marseille","lat":43.324771,"lon":5.36557,"is_reserved":false,"is_disabled":false,"rental_uris":{"android":"levelo://app?vid=fa464119-3865-4d78-914a-9227a851e6df","ios":"levelo://app?vid=fa464119-3865-4d78-914a-9227a851e6df"},"vehicle_type_id":"4","last_reported":1705435690,"current_range_meters":22400,"station_id":"ce4bhs12rcd13ifvqhvg","pricing_plan_id":"free"},{"bike_id":"46c6befd-1978-4025-b46c-362d658f43fa","system_id":"levelo_inurba_marseille","lat":43.324771,"lon":5.36557,"is_reserved":false,"is_disabled":false,"rental_uris":{"android":"levelo://app?vid=46c6befd-1978-4025-b46c-362d658f43fa","ios":"levelo://app?vid=46c6befd-1978-4025-b46c-362d658f43fa"},"vehicle_type_id":"4","last_reported":1705435690,"current_range_meters":30400,"station_id":"ce4bhs12rcd13ifvqhvg","pricing_plan_id":"free"},{"bike_id":"ce203f00-9b61-4792-a072-366e23c0f704","system_id":"levelo_inurba_marseille","lat":43.302833,"lon":5.376997,"is_reserved":false,"is_disabled":false,"rental_uris":{"android":"levelo://app?vid=ce203f00-9b61-4792-a072-366e23c0f704","ios":"levelo://app?vid=ce203f00-9b61-4792-a072-366e23c0f704"},"vehicle_type_id":"4","last_reported":1705435690,"current_range_meters":30400,"station_id":"","pricing_plan_id":"free"},{"bike_id":"ed088735-8d57-4811-a38a-1ce5a225f75a","system_id":"levelo_inurba_marseille","lat":43.30143,"lon":5.37413,"is_reserved":false,"is_disabled":false,"rental_uris":{"android":"levelo://app?vid=ed088735-8d57-4811-a38a-1ce5a225f75a","ios":"levelo://app?vid=ed088735-8d57-4811-a38a-1ce5a225f75a"},"vehicle_type_id":"4","last_reported":1705435690,"current_range_meters":0,"station_id":"ce4bgs92rcd13ifvqcc0","pricing_plan_id":"free"},{"bike_id":"108030ef-e04f-40d2-aca4-48abb3cb5aa3","system_id":"levelo_inurba_marseille","lat":43.319935,"lon":5.381699,"is_reserved":false,"is_disabled":false,"rental_uris":{"android":"levelo://app?vid=108030ef-e04f-40d2-aca4-48abb3cb5aa3","ios":"levelo://app?vid=108030ef-e04f-40d2-aca4-48abb3cb5aa3"},"vehicle_type_id":"4","last_reported":1705435690,"current_range_meters":10400,"station_id":"ce4bhr12rcd13ifvqhpg","pricing_plan_id":"free"},{"bike_id":"d2edba53-b6fb-4937-aa17-e4cc1be26aea","system_id":"levelo_inurba_marseille","lat":43.319935,"lon":5.381699,"is_reserved":false,"is_disabled":false,"rental_uris":{"android":"levelo://app?vid=d2edba53-b6fb-4937-aa17-e4cc1be26aea","ios":"levelo://app?vid=d2edba53-b6fb-4937-aa17-e4cc1be26aea"},"vehicle_type_id":"4","last_reported":1705435690,"current_range_meters":17600,"station_id":"ce4bhr12rcd13ifvqhpg","pricing_plan_id":"free"},{"bike_id":"26fb0bd6-1ab7-43fe-824c-80f1a4097f4e","system_id":"levelo_inurba_marseille","lat":43.319935,"lon":5.381699,"is_reserved":false,"is_disabled":false,"rental_uris":{"android":"levelo://app?vid=26fb0bd6-1ab7-43fe-824c-80f1a4097f4e","ios":"levelo://app?vid=26fb0bd6-1ab7-43fe-824c-80f1a4097f4e"},"vehicle_type_id":"4","last_reported":1705435690,"current_range_meters":29600,"station_id":"ce4bhr12rcd13ifvqhpg","pricing_plan_id":"free"},{"bike_id":"8132332f-67fb-4b4d-b78d-90427948e058","system_id":"levelo_inurba_marseille","lat":43.319935,"lon":5.381699,"is_reserved":false,"is_disabled":false,"rental_uris":{"android":"levelo://app?vid=8132332f-67fb-4b4d-b78d-90427948e058","ios":"levelo://app?vid=8132332f-67fb-4b4d-b78d-90427948e058"},"vehicle_type_id":"4","last_reported":1705435690,"current_range_meters":19200,"station_id":"ce4bhr12rcd13ifvqhpg","pricing_plan_id":"free"},{"bike_id":"05e7bf18-c01a-4d0f-af28-ec5522fcca76","system_id":"levelo_inurba_marseille","lat":43.319935,"lon":5.381699,"is_reserved":false,"is_disabled":false,"rental_uris":{"android":"levelo://app?vid=05e7bf18-c01a-4d0f-af28-ec5522fcca76","ios":"levelo://app?vid=05e7bf18-c01a-4d0f-af28-ec5522fcca76"},"vehicle_type_id":"4","last_reported":1705435690,"current_range_meters":10800,"station_id":"ce4bhr12rcd13ifvqhpg","pricing_plan_id":"free"},{"bike_id":"2b2fa4c3-6513-4039-b4c7-d49a15fe0c7d","system_id":"levelo_inurba_marseille","lat":43.319935,"lon":5.381699,"is_reserved":false,"is_disabled":false,"rental_uris":{"android":"levelo://app?vid=2b2fa4c3-6513-4039-b4c7-d49a15fe0c7d","ios":"levelo://app?vid=2b2fa4c3-6513-4039-b4c7-d49a15fe0c7d"},"vehicle_type_id":"4","last_reported":1705435690,"current_range_meters":26800,"station_id":"ce4bhr12rcd13ifvqhpg","pricing_plan_id":"free"},{"bike_id":"1654e7b0-0af2-4f46-8e4a-b119b0d39473","system_id":"levelo_inurba_marseille","lat":43.319935,"lon":5.381699,"is_reserved":false,"is_disabled":false,"rental_uris":{"android":"levelo://app?vid=1654e7b0-0af2-4f46-8e4a-b119b0d39473","ios":"levelo://app?vid=1654e7b0-0af2-4f46-8e4a-b119b0d39473"},"vehicle_type_id":"4","last_reported":1705435690,"current_range_meters":11600,"station_id":"ce4bhr12rcd13ifvqhpg","pricing_plan_id":"free"},{"bike_id":"c98d78a3-68e6-4c31-9191-5f8d5879bbe0","system_id":"levelo_inurba_marseille","lat":43.319935,"lon":5.381699,"is_reserved":false,"is_disabled":false,"rental_uris":{"android":"levelo://app?vid=c98d78a3-68e6-4c31-9191-5f8d5879bbe0","ios":"levelo://app?vid=c98d78a3-68e6-4c31-9191-5f8d5879bbe0"},"vehicle_type_id":"4","last_reported":1705435690,"current_range_meters":19200,"station_id":"ce4bhr12rcd13ifvqhpg","pricing_plan_id":"free"},{"bike_id":"2d1358d6-486c-4836-99a2-49b3916ad706","system_id":"levelo_inurba_marseille","lat":43.313571,"lon":5.384829,"is_reserved":false,"is_disabled":false,"rental_uris":{"android":"levelo://app?vid=2d1358d6-486c-4836-99a2-49b3916ad706","ios":"levelo://app?vid=2d1358d6-486c-4836-99a2-49b3916ad706"},"vehicle_type_id":"4","last_reported":1705435690,"current_range_meters":24000,"station_id":"ce4bgt92rcd13ifvqcf0","pricing_plan_id":"free"},{"bike_id":"c607b0f3-7bf7-4d6f-bcd4-fe869c8de587","system_id":"levelo_inurba_marseille","lat":43.313571,"lon":5.384829,"is_reserved":false,"is_disabled":false,"rental_uris":{"android":"levelo://app?vid=c607b0f3-7bf7-4d6f-bcd4-fe869c8de587","ios":"levelo://app?vid=c607b0f3-7bf7-4d6f-bcd4-fe869c8de587"},"vehicle_type_id":"4","last_reported":1705435690,"current_range_meters":27200,"station_id":"ce4bgt92rcd13ifvqcf0","pricing_plan_id":"free"},{"bike_id":"13cf3211-23a3-4102-bc33-bdb11c1cf262","system_id":"levelo_inurba_marseille","lat":43.313571,"lon":5.384829,"is_reserved":false,"is_disabled":false,"rental_uris":{"android":"levelo://app?vid=13cf3211-23a3-4102-bc33-bdb11c1cf262","ios":"levelo://app?vid=13cf3211-23a3-4102-bc33-bdb11c1cf262"},"vehicle_type_id":"4","last_reported":1705435690,"current_range_meters":28000,"station_id":"ce4bgt92rcd13ifvqcf0","pricing_plan_id":"free"},{"bike_id":"30c4fea0-a0e5-4cd4-a096-65fd2b838e3c","system_id":"levelo_inurba_marseille","lat":43.313571,"lon":5.384829,"is_reserved":false,"is_disabled":false,"rental_uris":{"android":"levelo://app?vid=30c4fea0-a0e5-4cd4-a096-65fd2b838e3c","ios":"levelo://app?vid=30c4fea0-a0e5-4cd4-a096-65fd2b838e3c"},"vehicle_type_id":"4","last_reported":1705435690,"current_range_meters":28400,"station_id":"ce4bgt92rcd13ifvqcf0","pricing_plan_id":"free"},{"bike_id":"d05be7e6-caaa-4779-8fd5-fb8ec23c81a0","system_id":"levelo_inurba_marseille","lat":43.313571,"lon":5.384829,"is_reserved":false,"is_disabled":false,"rental_uris":{"android":"levelo://app?vid=d05be7e6-caaa-4779-8fd5-fb8ec23c81a0","ios":"levelo://app?vid=d05be7e6-caaa-4779-8fd5-fb8ec23c81a0"},"vehicle_type_id":"4","last_reported":1705435690,"current_range_meters":26000,"station_id":"ce4bgt92rcd13ifvqcf0","pricing_plan_id":"free"},{"bike_id":"98a0778f-e8cf-4d5d-ab26-5f5542599ec5","system_id":"levelo_inurba_marseille","lat":43.29943,"lon":5.365505,"is_reserved":false,"is_disabled":false,"rental_uris":{"android":"levelo://app?vid=98a0778f-e8cf-4d5d-ab26-5f5542599ec5","ios":"levelo://app?vid=98a0778f-e8cf-4d5d-ab26-5f5542599ec5"},"vehicle_type_id":"4","last_reported":1705435690,"current_range_meters":16800,"station_id":"ce4bgm92rcd13ifvqbr0","pricing_plan_id":"free"},{"bike_id":"c3c1568e-2033-4e54-a8f1-0c70f1117a1c","system_id":"levelo_inurba_marseille","lat":43.299222,"lon":5.365554,"is_reserved":false,"is_disabled":false,"rental_uris":{"android":"levelo://app?vid=c3c1568e-2033-4e54-a8f1-0c70f1117a1c","ios":"levelo://app?vid=c3c1568e-2033-4e54-a8f1-0c70f1117a1c"},"vehicle_type_id":"4","last_reported":1705435690,"current_range_meters":0,"station_id":"ce4bgm92rcd13ifvqbr0","pricing_plan_id":"free"},{"bike_id":"282d4f24-ba10-48d9-86f1-50c2d2029589","system_id":"levelo_inurba_marseille","lat":43.299222,"lon":5.365554,"is_reserved":false,"is_disabled":false,"rental_uris":{"android":"levelo://app?vid=282d4f24-ba10-48d9-86f1-50c2d2029589","ios":"levelo://app?vid=282d4f24-ba10-48d9-86f1-50c2d2029589"},"vehicle_type_id":"4","last_reported":1705435690,"current_range_meters":30800,"station_id":"ce4bgm92rcd13ifvqbr0","pricing_plan_id":"free"},{"bike_id":"27d224bc-e240-47a8-a8fa-999177c89891","system_id":"levelo_inurba_marseille","lat":43.299222,"lon":5.365554,"is_reserved":false,"is_disabled":false,"rental_uris":{"android":"levelo://app?vid=27d224bc-e240-47a8-a8fa-999177c89891","ios":"levelo://app?vid=27d224bc-e240-47a8-a8fa-999177c89891"},"vehicle_type_id":"4","last_reported":1705435690,"current_range_meters":20400,"station_id":"ce4bgm92rcd13ifvqbr0","pricing_plan_id":"free"},{"bike_id":"3202f5a3-a344-481c-9bdc-a5265d5e0516","system_id":"levelo_inurba_marseille","lat":43.299222,"lon":5.365554,"is_reserved":false,"is_disabled":false,"rental_uris":{"android":"levelo://app?vid=3202f5a3-a344-481c-9bdc-a5265d5e0516","ios":"levelo://app?vid=3202f5a3-a344-481c-9bdc-a5265d5e0516"},"vehicle_type_id":"4","last_reported":1705435690,"current_range_meters":26000,"station_id":"ce4bgm92rcd13ifvqbr0","pricing_plan_id":"free"},{"bike_id":"e9d48811-0301-47f9-b209-35b2add686ad","system_id":"levelo_inurba_marseille","lat":43.299222,"lon":5.365554,"is_reserved":false,"is_disabled":false,"rental_uris":{"android":"levelo://app?vid=e9d48811-0301-47f9-b209-35b2add686ad","ios":"levelo://app?vid=e9d48811-0301-47f9-b209-35b2add686ad"},"vehicle_type_id":"4","last_reported":1705435690,"current_range_meters":28000,"station_id":"ce4bgm92rcd13ifvqbr0","pricing_plan_id":"free"},{"bike_id":"7689dece-7a39-45a7-8683-32b5682b8c41","system_id":"levelo_inurba_marseille","lat":43.299724,"lon":5.371829,"is_reserved":false,"is_disabled":false,"rental_uris":{"android":"levelo://app?vid=7689dece-7a39-45a7-8683-32b5682b8c41","ios":"levelo://app?vid=7689dece-7a39-45a7-8683-32b5682b8c41"},"vehicle_type_id":"4","last_reported":1705435690,"current_range_meters":30400,"station_id":"ce4bgr92rcd13ifvqc7g","pricing_plan_id":"free"},{"bike_id":"33a1df11-82ca-4ffc-b978-a357253496e2","system_id":"levelo_inurba_marseille","lat":43.299222,"lon":5.365554,"is_reserved":false,"is_disabled":false,"rental_uris":{"android":"levelo://app?vid=33a1df11-82ca-4ffc-b978-a357253496e2","ios":"levelo://app?vid=33a1df11-82ca-4ffc-b978-a357253496e2"},"vehicle_type_id":"4","last_reported":1705435690,"current_range_meters":26400,"station_id":"ce4bgm92rcd13ifvqbr0","pricing_plan_id":"free"},{"bike_id":"ffadc66d-21c1-48c0-bb83-0911b55a5fd0","system_id":"levelo_inurba_marseille","lat":43.299222,"lon":5.365554,"is_reserved":false,"is_disabled":false,"rental_uris":{"android":"levelo://app?vid=ffadc66d-21c1-48c0-bb83-0911b55a5fd0","ios":"levelo://app?vid=ffadc66d-21c1-48c0-bb83-0911b55a5fd0"},"vehicle_type_id":"4","last_reported":1705435690,"current_range_meters":14800,"station_id":"ce4bgm92rcd13ifvqbr0","pricing_plan_id":"free"},{"bike_id":"d0cbd224-0fa4-412e-b7db-ab48845f12e6","system_id":"levelo_inurba_marseille","lat":43.299724,"lon":5.371829,"is_reserved":false,"is_disabled":false,"rental_uris":{"android":"levelo://app?vid=d0cbd224-0fa4-412e-b7db-ab48845f12e6","ios":"levelo://app?vid=d0cbd224-0fa4-412e-b7db-ab48845f12e6"},"vehicle_type_id":"4","last_reported":1705435690,"current_range_meters":15600,"station_id":"ce4bgr92rcd13ifvqc7g","pricing_plan_id":"free"},{"bike_id":"9e10fca8-afff-413a-a971-97b89741c75b","system_id":"levelo_inurba_marseille","lat":43.327004,"lon":5.363022,"is_reserved":false,"is_disabled":false,"rental_uris":{"android":"levelo://app?vid=9e10fca8-afff-413a-a971-97b89741c75b","ios":"levelo://app?vid=9e10fca8-afff-413a-a971-97b89741c75b"},"vehicle_type_id":"4","last_reported":1705435690,"current_range_meters":13600,"station_id":"","pricing_plan_id":"free"},{"bike_id":"93acabca-9aa4-4b44-9ca9-609f3da1c3d2","system_id":"levelo_inurba_marseille","lat":43.298433,"lon":5.362774,"is_reserved":false,"is_disabled":false,"rental_uris":{"android":"levelo://app?vid=93acabca-9aa4-4b44-9ca9-609f3da1c3d2","ios":"levelo://app?vid=93acabca-9aa4-4b44-9ca9-609f3da1c3d2"},"vehicle_type_id":"4","last_reported":1705435690,"current_range_meters":31200,"station_id":"ce4bgpp2rcd13ifvqc3g","pricing_plan_id":"free"},{"bike_id":"ed7869df-d6f4-4912-af82-5c37be481eb4","system_id":"levelo_inurba_marseille","lat":43.299243,"lon":5.37481,"is_reserved":false,"is_disabled":false,"rental_uris":{"android":"levelo://app?vid=ed7869df-d6f4-4912-af82-5c37be481eb4","ios":"levelo://app?vid=ed7869df-d6f4-4912-af82-5c37be481eb4"},"vehicle_type_id":"4","last_reported":1705435690,"current_range_meters":11600,"station_id":"ce4bgjh2rcd13ifvqbg0","pricing_plan_id":"free"},{"bike_id":"a0c26355-478d-42a5-b302-04a5a50a34a7","system_id":"levelo_inurba_marseille","lat":43.311722,"lon":5.387247,"is_reserved":false,"is_disabled":false,"rental_uris":{"android":"levelo://app?vid=a0c26355-478d-42a5-b302-04a5a50a34a7","ios":"levelo://app?vid=a0c26355-478d-42a5-b302-04a5a50a34a7"},"vehicle_type_id":"4","last_reported":1705435690,"current_range_meters":24400,"station_id":"ce4bgv12rcd13ifvqcp0","pricing_plan_id":"free"},{"bike_id":"0cd805bb-110f-4df5-b837-20ddf0748d6c","system_id":"levelo_inurba_marseille","lat":43.32722,"lon":5.36285,"is_reserved":false,"is_disabled":false,"rental_uris":{"android":"levelo://app?vid=0cd805bb-110f-4df5-b837-20ddf0748d6c","ios":"levelo://app?vid=0cd805bb-110f-4df5-b837-20ddf0748d6c"},"vehicle_type_id":"4","last_reported":1705435690,"current_range_meters":22000,"station_id":"","pricing_plan_id":"free"},{"bike_id":"a05b759f-d83d-4261-9e36-4d7b8ab94df5","system_id":"levelo_inurba_marseille","lat":43.311722,"lon":5.387247,"is_reserved":false,"is_disabled":false,"rental_uris":{"android":"levelo://app?vid=a05b759f-d83d-4261-9e36-4d7b8ab94df5","ios":"levelo://app?vid=a05b759f-d83d-4261-9e36-4d7b8ab94df5"},"vehicle_type_id":"4","last_reported":1705435690,"current_range_meters":31200,"station_id":"ce4bgv12rcd13ifvqcp0","pricing_plan_id":"free"},{"bike_id":"a7a593ff-9145-4d70-b16b-c11157f4ddc9","system_id":"levelo_inurba_marseille","lat":43.297794,"lon":5.370888,"is_reserved":false,"is_disabled":false,"rental_uris":{"android":"levelo://app?vid=a7a593ff-9145-4d70-b16b-c11157f4ddc9","ios":"levelo://app?vid=a7a593ff-9145-4d70-b16b-c11157f4ddc9"},"vehicle_type_id":"4","last_reported":1705435690,"current_range_meters":29200,"station_id":"ce4bgop2rcd13ifvqc1g","pricing_plan_id":"free"},{"bike_id":"0d666429-792d-477e-b03b-8d07152545bb","system_id":"levelo_inurba_marseille","lat":43.32288,"lon":5.38261,"is_reserved":false,"is_disabled":false,"rental_uris":{"android":"levelo://app?vid=0d666429-792d-477e-b03b-8d07152545bb","ios":"levelo://app?vid=0d666429-792d-477e-b03b-8d07152545bb"},"vehicle_type_id":"4","last_reported":1705435690,"current_range_meters":7600,"station_id":"ce4bhr12rcd13ifvqhqg","pricing_plan_id":"free"},{"bike_id":"34c8b400-5074-46e3-aa02-f5d274dfaa4f","system_id":"levelo_inurba_marseille","lat":43.32291,"lon":5.3826,"is_reserved":false,"is_disabled":false,"rental_uris":{"android":"levelo://app?vid=34c8b400-5074-46e3-aa02-f5d274dfaa4f","ios":"levelo://app?vid=34c8b400-5074-46e3-aa02-f5d274dfaa4f"},"vehicle_type_id":"4","last_reported":1705435690,"current_range_meters":19600,"station_id":"ce4bhr12rcd13ifvqhqg","pricing_plan_id":"free"},{"bike_id":"f85a4350-761e-4ac5-924d-f795e652d954","system_id":"levelo_inurba_marseille","lat":43.322882,"lon":5.38264,"is_reserved":false,"is_disabled":false,"rental_uris":{"android":"levelo://app?vid=f85a4350-761e-4ac5-924d-f795e652d954","ios":"levelo://app?vid=f85a4350-761e-4ac5-924d-f795e652d954"},"vehicle_type_id":"4","last_reported":1705435690,"current_range_meters":800,"station_id":"ce4bhr12rcd13ifvqhqg","pricing_plan_id":"free"},{"bike_id":"c59e915a-05cb-49b2-8b19-dcae4465ebcc","system_id":"levelo_inurba_marseille","lat":43.32291,"lon":5.38266,"is_reserved":false,"is_disabled":false,"rental_uris":{"android":"levelo://app?vid=c59e915a-05cb-49b2-8b19-dcae4465ebcc","ios":"levelo://app?vid=c59e915a-05cb-49b2-8b19-dcae4465ebcc"},"vehicle_type_id":"4","last_reported":1705435690,"current_range_meters":0,"station_id":"ce4bhr12rcd13ifvqhqg","pricing_plan_id":"free"},{"bike_id":"17ee7a8a-cd73-4eb8-b7e0-454634636574","system_id":"levelo_inurba_marseille","lat":43.322872,"lon":5.382756,"is_reserved":false,"is_disabled":false,"rental_uris":{"android":"levelo://app?vid=17ee7a8a-cd73-4eb8-b7e0-454634636574","ios":"levelo://app?vid=17ee7a8a-cd73-4eb8-b7e0-454634636574"},"vehicle_type_id":"4","last_reported":1705435690,"current_range_meters":25200,"station_id":"ce4bhr12rcd13ifvqhqg","pricing_plan_id":"free"},{"bike_id":"26f91de3-6627-4706-9d59-9aefca0a07fd","system_id":"levelo_inurba_marseille","lat":43.322872,"lon":5.382756,"is_reserved":false,"is_disabled":false,"rental_uris":{"android":"levelo://app?vid=26f91de3-6627-4706-9d59-9aefca0a07fd","ios":"levelo://app?vid=26f91de3-6627-4706-9d59-9aefca0a07fd"},"vehicle_type_id":"4","last_reported":1705435690,"current_range_meters":31200,"station_id":"ce4bhr12rcd13ifvqhqg","pricing_plan_id":"free"},{"bike_id":"f675b702-73f1-40c0-8188-e4784f2816f9","system_id":"levelo_inurba_marseille","lat":43.322872,"lon":5.382756,"is_reserved":false,"is_disabled":false,"rental_uris":{"android":"levelo://app?vid=f675b702-73f1-40c0-8188-e4784f2816f9","ios":"levelo://app?vid=f675b702-73f1-40c0-8188-e4784f2816f9"},"vehicle_type_id":"4","last_reported":1705435690,"current_range_meters":32000,"station_id":"ce4bhr12rcd13ifvqhqg","pricing_plan_id":"free"},{"bike_id":"98c634c7-bdbe-4fde-8a9e-66ae5ba58bf4","system_id":"levelo_inurba_marseille","lat":43.322872,"lon":5.382756,"is_reserved":false,"is_disabled":false,"rental_uris":{"android":"levelo://app?vid=98c634c7-bdbe-4fde-8a9e-66ae5ba58bf4","ios":"levelo://app?vid=98c634c7-bdbe-4fde-8a9e-66ae5ba58bf4"},"vehicle_type_id":"4","last_reported":1705435690,"current_range_meters":28000,"station_id":"ce4bhr12rcd13ifvqhqg","pricing_plan_id":"free"},{"bike_id":"eb82efee-7e46-4cef-a643-d731882b95f4","system_id":"levelo_inurba_marseille","lat":43.328216,"lon":5.366765,"is_reserved":false,"is_disabled":false,"rental_uris":{"android":"levelo://app?vid=eb82efee-7e46-4cef-a643-d731882b95f4","ios":"levelo://app?vid=eb82efee-7e46-4cef-a643-d731882b95f4"},"vehicle_type_id":"4","last_reported":1705435690,"current_range_meters":13200,"station_id":"ce4bhs92rcd13ifvqi0g","pricing_plan_id":"free"},{"bike_id":"be5c14c2-d069-4824-b2b4-323fba6ab1b5","system_id":"levelo_inurba_marseille","lat":43.32822,"lon":5.36676,"is_reserved":false,"is_disabled":false,"rental_uris":{"android":"levelo://app?vid=be5c14c2-d069-4824-b2b4-323fba6ab1b5","ios":"levelo://app?vid=be5c14c2-d069-4824-b2b4-323fba6ab1b5"},"vehicle_type_id":"4","last_reported":1705435690,"current_range_meters":8400,"station_id":"ce4bhs92rcd13ifvqi0g","pricing_plan_id":"free"},{"bike_id":"02f97db8-1e1e-4f38-89f3-11868234f7c3","system_id":"levelo_inurba_marseille","lat":43.32825,"lon":5.36668,"is_reserved":false,"is_disabled":false,"rental_uris":{"android":"levelo://app?vid=02f97db8-1e1e-4f38-89f3-11868234f7c3","ios":"levelo://app?vid=02f97db8-1e1e-4f38-89f3-11868234f7c3"},"vehicle_type_id":"4","last_reported":1705435690,"current_range_meters":21200,"station_id":"ce4bhs92rcd13ifvqi0g","pricing_plan_id":"free"},{"bike_id":"8463d0da-e03a-4a02-8a84-4dd7b137838e","system_id":"levelo_inurba_marseille","lat":43.328275,"lon":5.366741,"is_reserved":false,"is_disabled":false,"rental_uris":{"android":"levelo://app?vid=8463d0da-e03a-4a02-8a84-4dd7b137838e","ios":"levelo://app?vid=8463d0da-e03a-4a02-8a84-4dd7b137838e"},"vehicle_type_id":"4","last_reported":1705435690,"current_range_meters":24000,"station_id":"ce4bhs92rcd13ifvqi0g","pricing_plan_id":"free"},{"bike_id":"85cedcff-9e9a-415d-8415-195178ea3cb7","system_id":"levelo_inurba_marseille","lat":43.328278,"lon":5.366813,"is_reserved":false,"is_disabled":false,"rental_uris":{"android":"levelo://app?vid=85cedcff-9e9a-415d-8415-195178ea3cb7","ios":"levelo://app?vid=85cedcff-9e9a-415d-8415-195178ea3cb7"},"vehicle_type_id":"4","last_reported":1705435690,"current_range_meters":24000,"station_id":"ce4bhs92rcd13ifvqi0g","pricing_plan_id":"free"},{"bike_id":"641739e6-19de-47df-9491-35da26c3c9da","system_id":"levelo_inurba_marseille","lat":43.328371,"lon":5.366909,"is_reserved":false,"is_disabled":false,"rental_uris":{"android":"levelo://app?vid=641739e6-19de-47df-9491-35da26c3c9da","ios":"levelo://app?vid=641739e6-19de-47df-9491-35da26c3c9da"},"vehicle_type_id":"4","last_reported":1705435690,"current_range_meters":5200,"station_id":"ce4bhs92rcd13ifvqi0g","pricing_plan_id":"free"},{"bike_id":"947a5c0b-0299-4cd2-aecd-5f351114aaf8","system_id":"levelo_inurba_marseille","lat":43.32828,"lon":5.36678,"is_reserved":false,"is_disabled":false,"rental_uris":{"android":"levelo://app?vid=947a5c0b-0299-4cd2-aecd-5f351114aaf8","ios":"levelo://app?vid=947a5c0b-0299-4cd2-aecd-5f351114aaf8"},"vehicle_type_id":"4","last_reported":1705435690,"current_range_meters":25200,"station_id":"ce4bhs92rcd13ifvqi0g","pricing_plan_id":"free"},{"bike_id":"6b4ea496-3016-42db-af64-ba8beb6e73fc","system_id":"levelo_inurba_marseille","lat":43.328371,"lon":5.366909,"is_reserved":false,"is_disabled":false,"rental_uris":{"android":"levelo://app?vid=6b4ea496-3016-42db-af64-ba8beb6e73fc","ios":"levelo://app?vid=6b4ea496-3016-42db-af64-ba8beb6e73fc"},"vehicle_type_id":"4","last_reported":1705435690,"current_range_meters":27600,"station_id":"ce4bhs92rcd13ifvqi0g","pricing_plan_id":"free"},{"bike_id":"1782ad4d-7cbc-4ac0-af82-b65688e9d34c","system_id":"levelo_inurba_marseille","lat":43.328284,"lon":5.366882,"is_reserved":false,"is_disabled":false,"rental_uris":{"android":"levelo://app?vid=1782ad4d-7cbc-4ac0-af82-b65688e9d34c","ios":"levelo://app?vid=1782ad4d-7cbc-4ac0-af82-b65688e9d34c"},"vehicle_type_id":"4","last_reported":1705435690,"current_range_meters":28800,"station_id":"ce4bhs92rcd13ifvqi0g","pricing_plan_id":"free"},{"bike_id":"2f96f75b-b819-4121-8a76-2302255b230e","system_id":"levelo_inurba_marseille","lat":43.297163,"lon":5.365866,"is_reserved":false,"is_disabled":false,"rental_uris":{"android":"levelo://app?vid=2f96f75b-b819-4121-8a76-2302255b230e","ios":"levelo://app?vid=2f96f75b-b819-4121-8a76-2302255b230e"},"vehicle_type_id":"4","last_reported":1705435690,"current_range_meters":21200,"station_id":"ce4bgn12rcd13ifvqbt0","pricing_plan_id":"free"},{"bike_id":"ea0178f3-2c6b-4af6-b062-91b0b8dde1df","system_id":"levelo_inurba_marseille","lat":43.328288,"lon":5.366818,"is_reserved":false,"is_disabled":false,"rental_uris":{"android":"levelo://app?vid=ea0178f3-2c6b-4af6-b062-91b0b8dde1df","ios":"levelo://app?vid=ea0178f3-2c6b-4af6-b062-91b0b8dde1df"},"vehicle_type_id":"4","last_reported":1705435690,"current_range_meters":10000,"station_id":"ce4bhs92rcd13ifvqi0g","pricing_plan_id":"free"},{"bike_id":"09621f87-561a-4138-9bcf-5568c59432a9","system_id":"levelo_inurba_marseille","lat":43.328287,"lon":5.36677,"is_reserved":false,"is_disabled":false,"rental_uris":{"android":"levelo://app?vid=09621f87-561a-4138-9bcf-5568c59432a9","ios":"levelo://app?vid=09621f87-561a-4138-9bcf-5568c59432a9"},"vehicle_type_id":"4","last_reported":1705435690,"current_range_meters":4400,"station_id":"ce4bhs92rcd13ifvqi0g","pricing_plan_id":"free"},{"bike_id":"9cda7071-0b99-4f13-a66f-99ee8455accb","system_id":"levelo_inurba_marseille","lat":43.32829,"lon":5.366732,"is_reserved":false,"is_disabled":false,"rental_uris":{"android":"levelo://app?vid=9cda7071-0b99-4f13-a66f-99ee8455accb","ios":"levelo://app?vid=9cda7071-0b99-4f13-a66f-99ee8455accb"},"vehicle_type_id":"4","last_reported":1705435690,"current_range_meters":21600,"station_id":"ce4bhs92rcd13ifvqi0g","pricing_plan_id":"free"},{"bike_id":"db79623b-2d08-46cb-b464-e412386772a7","system_id":"levelo_inurba_marseille","lat":43.32832,"lon":5.366737,"is_reserved":false,"is_disabled":false,"rental_uris":{"android":"levelo://app?vid=db79623b-2d08-46cb-b464-e412386772a7","ios":"levelo://app?vid=db79623b-2d08-46cb-b464-e412386772a7"},"vehicle_type_id":"4","last_reported":1705435690,"current_range_meters":31200,"station_id":"ce4bhs92rcd13ifvqi0g","pricing_plan_id":"free"},{"bike_id":"b4f0b234-fd4d-46d9-8ab6-88aa1053670e","system_id":"levelo_inurba_marseille","lat":43.297163,"lon":5.365866,"is_reserved":false,"is_disabled":false,"rental_uris":{"android":"levelo://app?vid=b4f0b234-fd4d-46d9-8ab6-88aa1053670e","ios":"levelo://app?vid=b4f0b234-fd4d-46d9-8ab6-88aa1053670e"},"vehicle_type_id":"4","last_reported":1705435690,"current_range_meters":21200,"station_id":"ce4bgn12rcd13ifvqbt0","pricing_plan_id":"free"},{"bike_id":"88638e12-da12-4596-b7e2-600ab2f62219","system_id":"levelo_inurba_marseille","lat":43.32835,"lon":5.36681,"is_reserved":false,"is_disabled":false,"rental_uris":{"android":"levelo://app?vid=88638e12-da12-4596-b7e2-600ab2f62219","ios":"levelo://app?vid=88638e12-da12-4596-b7e2-600ab2f62219"},"vehicle_type_id":"4","last_reported":1705435690,"current_range_meters":14000,"station_id":"ce4bhs92rcd13ifvqi0g","pricing_plan_id":"free"},{"bike_id":"38082c03-fac1-44d3-a79f-5142b4a113a9","system_id":"levelo_inurba_marseille","lat":43.328373,"lon":5.366902,"is_reserved":false,"is_disabled":false,"rental_uris":{"android":"levelo://app?vid=38082c03-fac1-44d3-a79f-5142b4a113a9","ios":"levelo://app?vid=38082c03-fac1-44d3-a79f-5142b4a113a9"},"vehicle_type_id":"4","last_reported":1705435690,"current_range_meters":26400,"station_id":"ce4bhs92rcd13ifvqi0g","pricing_plan_id":"free"},{"bike_id":"d91bc121-ba03-4a79-af47-a3f48344b0c9","system_id":"levelo_inurba_marseille","lat":43.295953,"lon":5.36791,"is_reserved":false,"is_disabled":false,"rental_uris":{"android":"levelo://app?vid=d91bc121-ba03-4a79-af47-a3f48344b0c9","ios":"levelo://app?vid=d91bc121-ba03-4a79-af47-a3f48344b0c9"},"vehicle_type_id":"4","last_reported":1705435690,"current_range_meters":24000,"station_id":"ce4bgph2rcd13ifvqc2g","pricing_plan_id":"free"},{"bike_id":"1be61487-cdfe-4a78-b497-311a00417a69","system_id":"levelo_inurba_marseille","lat":43.296921,"lon":5.376579,"is_reserved":false,"is_disabled":false,"rental_uris":{"android":"levelo://app?vid=1be61487-cdfe-4a78-b497-311a00417a69","ios":"levelo://app?vid=1be61487-cdfe-4a78-b497-311a00417a69"},"vehicle_type_id":"4","last_reported":1705435690,"current_range_meters":11600,"station_id":"ce4bgkh2rcd13ifvqbl0","pricing_plan_id":"free"},{"bike_id":"e566a606-c2d0-413c-956f-bc62c185a30b","system_id":"levelo_inurba_marseille","lat":43.296935,"lon":5.376544,"is_reserved":false,"is_disabled":false,"rental_uris":{"android":"levelo://app?vid=e566a606-c2d0-413c-956f-bc62c185a30b","ios":"levelo://app?vid=e566a606-c2d0-413c-956f-bc62c185a30b"},"vehicle_type_id":"4","last_reported":1705435690,"current_range_meters":6400,"station_id":"ce4bgkh2rcd13ifvqbl0","pricing_plan_id":"free"},{"bike_id":"c88033e4-c70c-44d5-9122-dec14c6e4318","system_id":"levelo_inurba_marseille","lat":43.296935,"lon":5.376544,"is_reserved":false,"is_disabled":false,"rental_uris":{"android":"levelo://app?vid=c88033e4-c70c-44d5-9122-dec14c6e4318","ios":"levelo://app?vid=c88033e4-c70c-44d5-9122-dec14c6e4318"},"vehicle_type_id":"4","last_reported":1705435690,"current_range_meters":20000,"station_id":"ce4bgkh2rcd13ifvqbl0","pricing_plan_id":"free"},{"bike_id":"b1579a07-cb83-46d0-9072-ae6db8dfc285","system_id":"levelo_inurba_marseille","lat":43.317557,"lon":5.390173,"is_reserved":false,"is_disabled":false,"rental_uris":{"android":"levelo://app?vid=b1579a07-cb83-46d0-9072-ae6db8dfc285","ios":"levelo://app?vid=b1579a07-cb83-46d0-9072-ae6db8dfc285"},"vehicle_type_id":"4","last_reported":1705435690,"current_range_meters":25200,"station_id":"ce4bhqp2rcd13ifvqhng","pricing_plan_id":"free"},{"bike_id":"92299fea-155b-48fe-84e9-dffda3e28143","system_id":"levelo_inurba_marseille","lat":43.29811,"lon":5.38091,"is_reserved":false,"is_disabled":false,"rental_uris":{"android":"levelo://app?vid=92299fea-155b-48fe-84e9-dffda3e28143","ios":"levelo://app?vid=92299fea-155b-48fe-84e9-dffda3e28143"},"vehicle_type_id":"4","last_reported":1705435690,"current_range_meters":12000,"station_id":"ce4bgip2rcd13ifvqbb0","pricing_plan_id":"free"},{"bike_id":"e75ebbfc-3133-4fbd-bebc-736b7cfec812","system_id":"levelo_inurba_marseille","lat":43.29579,"lon":5.37504,"is_reserved":false,"is_disabled":false,"rental_uris":{"android":"levelo://app?vid=e75ebbfc-3133-4fbd-bebc-736b7cfec812","ios":"levelo://app?vid=e75ebbfc-3133-4fbd-bebc-736b7cfec812"},"vehicle_type_id":"4","last_reported":1705435690,"current_range_meters":0,"station_id":"ce4bgh92rcd13ifvqb50","pricing_plan_id":"free"},{"bike_id":"60c47ae0-1da0-4409-b44e-02ff22fb9d5b","system_id":"levelo_inurba_marseille","lat":43.29789,"lon":5.38094,"is_reserved":false,"is_disabled":false,"rental_uris":{"android":"levelo://app?vid=60c47ae0-1da0-4409-b44e-02ff22fb9d5b","ios":"levelo://app?vid=60c47ae0-1da0-4409-b44e-02ff22fb9d5b"},"vehicle_type_id":"4","last_reported":1705435690,"current_range_meters":0,"station_id":"ce4bgip2rcd13ifvqbb0","pricing_plan_id":"free"},{"bike_id":"890fa36d-881a-4194-ba16-6731b19a4101","system_id":"levelo_inurba_marseille","lat":43.304274,"lon":5.388873,"is_reserved":false,"is_disabled":false,"rental_uris":{"android":"levelo://app?vid=890fa36d-881a-4194-ba16-6731b19a4101","ios":"levelo://app?vid=890fa36d-881a-4194-ba16-6731b19a4101"},"vehicle_type_id":"4","last_reported":1705435690,"current_range_meters":4000,"station_id":"ce4bgk12rcd13ifvqbi0","pricing_plan_id":"free"},{"bike_id":"6c83c5ac-1ee8-4844-a1b9-25dbde86b9a7","system_id":"levelo_inurba_marseille","lat":43.304278,"lon":5.388868,"is_reserved":false,"is_disabled":false,"rental_uris":{"android":"levelo://app?vid=6c83c5ac-1ee8-4844-a1b9-25dbde86b9a7","ios":"levelo://app?vid=6c83c5ac-1ee8-4844-a1b9-25dbde86b9a7"},"vehicle_type_id":"4","last_reported":1705435690,"current_range_meters":9200,"station_id":"ce4bgk12rcd13ifvqbi0","pricing_plan_id":"free"},{"bike_id":"a100015d-8ccf-426f-981d-6fbc93708650","system_id":"levelo_inurba_marseille","lat":43.304278,"lon":5.388868,"is_reserved":false,"is_disabled":false,"rental_uris":{"android":"levelo://app?vid=a100015d-8ccf-426f-981d-6fbc93708650","ios":"levelo://app?vid=a100015d-8ccf-426f-981d-6fbc93708650"},"vehicle_type_id":"4","last_reported":1705435690,"current_range_meters":22800,"station_id":"ce4bgk12rcd13ifvqbi0","pricing_plan_id":"free"},{"bike_id":"8b2b5861-a61d-4b3d-985f-4b2c2db30b5e","system_id":"levelo_inurba_marseille","lat":43.304274,"lon":5.388873,"is_reserved":false,"is_disabled":false,"rental_uris":{"android":"levelo://app?vid=8b2b5861-a61d-4b3d-985f-4b2c2db30b5e","ios":"levelo://app?vid=8b2b5861-a61d-4b3d-985f-4b2c2db30b5e"},"vehicle_type_id":"4","last_reported":1705435690,"current_range_meters":12400,"station_id":"ce4bgk12rcd13ifvqbi0","pricing_plan_id":"free"},{"bike_id":"09cd9af3-b417-4fbd-abd8-76b9b319b221","system_id":"levelo_inurba_marseille","lat":43.295748,"lon":5.37522,"is_reserved":false,"is_disabled":false,"rental_uris":{"android":"levelo://app?vid=09cd9af3-b417-4fbd-abd8-76b9b319b221","ios":"levelo://app?vid=09cd9af3-b417-4fbd-abd8-76b9b319b221"},"vehicle_type_id":"4","last_reported":1705435690,"current_range_meters":0,"station_id":"ce4bgh92rcd13ifvqb50","pricing_plan_id":"free"},{"bike_id":"aee0f952-f29a-4007-9924-ffd877e0907a","system_id":"levelo_inurba_marseille","lat":43.295279,"lon":5.375048,"is_reserved":false,"is_disabled":false,"rental_uris":{"android":"levelo://app?vid=aee0f952-f29a-4007-9924-ffd877e0907a","ios":"levelo://app?vid=aee0f952-f29a-4007-9924-ffd877e0907a"},"vehicle_type_id":"4","last_reported":1705435690,"current_range_meters":400,"station_id":"ce4bgkp2rcd13ifvqbmg","pricing_plan_id":"free"},{"bike_id":"5d07a022-5c54-4267-a842-31315244e8a0","system_id":"levelo_inurba_marseille","lat":43.295279,"lon":5.375048,"is_reserved":false,"is_disabled":false,"rental_uris":{"android":"levelo://app?vid=5d07a022-5c54-4267-a842-31315244e8a0","ios":"levelo://app?vid=5d07a022-5c54-4267-a842-31315244e8a0"},"vehicle_type_id":"4","last_reported":1705435690,"current_range_meters":1200,"station_id":"ce4bgkp2rcd13ifvqbmg","pricing_plan_id":"free"},{"bike_id":"31f292c3-a0c0-47b7-84b9-e581a7e5bd8b","system_id":"levelo_inurba_marseille","lat":43.299724,"lon":5.384848,"is_reserved":false,"is_disabled":false,"rental_uris":{"android":"levelo://app?vid=31f292c3-a0c0-47b7-84b9-e581a7e5bd8b","ios":"levelo://app?vid=31f292c3-a0c0-47b7-84b9-e581a7e5bd8b"},"vehicle_type_id":"4","last_reported":1705435690,"current_range_meters":0,"station_id":"ce4bgj92rcd13ifvqbd0","pricing_plan_id":"free"},{"bike_id":"90da5ca5-90bf-4ea0-a0ee-61fea1c55631","system_id":"levelo_inurba_marseille","lat":43.299717,"lon":5.384845,"is_reserved":false,"is_disabled":false,"rental_uris":{"android":"levelo://app?vid=90da5ca5-90bf-4ea0-a0ee-61fea1c55631","ios":"levelo://app?vid=90da5ca5-90bf-4ea0-a0ee-61fea1c55631"},"vehicle_type_id":"4","last_reported":1705435690,"current_range_meters":14000,"station_id":"ce4bgj92rcd13ifvqbd0","pricing_plan_id":"free"},{"bike_id":"b7f65c29-63ea-4dd5-980e-621e5156ba6f","system_id":"levelo_inurba_marseille","lat":43.295279,"lon":5.375048,"is_reserved":false,"is_disabled":false,"rental_uris":{"android":"levelo://app?vid=b7f65c29-63ea-4dd5-980e-621e5156ba6f","ios":"levelo://app?vid=b7f65c29-63ea-4dd5-980e-621e5156ba6f"},"vehicle_type_id":"4","last_reported":1705435690,"current_range_meters":24800,"station_id":"ce4bgkp2rcd13ifvqbmg","pricing_plan_id":"free"},{"bike_id":"33788cc1-a778-45f8-be13-0999bc971653","system_id":"levelo_inurba_marseille","lat":43.32365,"lon":5.38878,"is_reserved":false,"is_disabled":false,"rental_uris":{"android":"levelo://app?vid=33788cc1-a778-45f8-be13-0999bc971653","ios":"levelo://app?vid=33788cc1-a778-45f8-be13-0999bc971653"},"vehicle_type_id":"4","last_reported":1705435690,"current_range_meters":28000,"station_id":"ce4bhqp2rcd13ifvqhog","pricing_plan_id":"free"},{"bike_id":"a4eeb908-619b-47fe-8e5b-c4c9538b360a","system_id":"levelo_inurba_marseille","lat":43.32364,"lon":5.38879,"is_reserved":false,"is_disabled":false,"rental_uris":{"android":"levelo://app?vid=a4eeb908-619b-47fe-8e5b-c4c9538b360a","ios":"levelo://app?vid=a4eeb908-619b-47fe-8e5b-c4c9538b360a"},"vehicle_type_id":"4","last_reported":1705435690,"current_range_meters":13200,"station_id":"ce4bhqp2rcd13ifvqhog","pricing_plan_id":"free"},{"bike_id":"93a7541d-594c-4713-9c37-84d0b76dd655","system_id":"levelo_inurba_marseille","lat":43.32363,"lon":5.38883,"is_reserved":false,"is_disabled":false,"rental_uris":{"android":"levelo://app?vid=93a7541d-594c-4713-9c37-84d0b76dd655","ios":"levelo://app?vid=93a7541d-594c-4713-9c37-84d0b76dd655"},"vehicle_type_id":"4","last_reported":1705435690,"current_range_meters":23200,"station_id":"ce4bhqp2rcd13ifvqhog","pricing_plan_id":"free"},{"bike_id":"ae329723-b6cd-4f52-99af-83cccf370dd2","system_id":"levelo_inurba_marseille","lat":43.32367,"lon":5.388836,"is_reserved":false,"is_disabled":false,"rental_uris":{"android":"levelo://app?vid=ae329723-b6cd-4f52-99af-83cccf370dd2","ios":"levelo://app?vid=ae329723-b6cd-4f52-99af-83cccf370dd2"},"vehicle_type_id":"4","last_reported":1705435690,"current_range_meters":14400,"station_id":"ce4bhqp2rcd13ifvqhog","pricing_plan_id":"free"},{"bike_id":"a90e87df-2bac-4bf9-957b-70605969781d","system_id":"levelo_inurba_marseille","lat":43.323653,"lon":5.388851,"is_reserved":false,"is_disabled":false,"rental_uris":{"android":"levelo://app?vid=a90e87df-2bac-4bf9-957b-70605969781d","ios":"levelo://app?vid=a90e87df-2bac-4bf9-957b-70605969781d"},"vehicle_type_id":"4","last_reported":1705435690,"current_range_meters":3600,"station_id":"ce4bhqp2rcd13ifvqhog","pricing_plan_id":"free"},{"bike_id":"48d01839-1c06-4604-a1d2-ae1f8bd3df35","system_id":"levelo_inurba_marseille","lat":43.32367,"lon":5.388836,"is_reserved":false,"is_disabled":false,"rental_uris":{"android":"levelo://app?vid=48d01839-1c06-4604-a1d2-ae1f8bd3df35","ios":"levelo://app?vid=48d01839-1c06-4604-a1d2-ae1f8bd3df35"},"vehicle_type_id":"4","last_reported":1705435690,"current_range_meters":19600,"station_id":"ce4bhqp2rcd13ifvqhog","pricing_plan_id":"free"},{"bike_id":"4ed8488a-f05c-4119-bfec-f892cce04e14","system_id":"levelo_inurba_marseille","lat":43.323658,"lon":5.388869,"is_reserved":false,"is_disabled":false,"rental_uris":{"android":"levelo://app?vid=4ed8488a-f05c-4119-bfec-f892cce04e14","ios":"levelo://app?vid=4ed8488a-f05c-4119-bfec-f892cce04e14"},"vehicle_type_id":"4","last_reported":1705435690,"current_range_meters":2800,"station_id":"ce4bhqp2rcd13ifvqhog","pricing_plan_id":"free"},{"bike_id":"2ec4001f-5cf2-4614-bbfc-ffc6c5b765c3","system_id":"levelo_inurba_marseille","lat":43.323659,"lon":5.388894,"is_reserved":false,"is_disabled":false,"rental_uris":{"android":"levelo://app?vid=2ec4001f-5cf2-4614-bbfc-ffc6c5b765c3","ios":"levelo://app?vid=2ec4001f-5cf2-4614-bbfc-ffc6c5b765c3"},"vehicle_type_id":"4","last_reported":1705435690,"current_range_meters":28000,"station_id":"ce4bhqp2rcd13ifvqhog","pricing_plan_id":"free"},{"bike_id":"65200528-92c8-43dc-a28c-65f22643d5f6","system_id":"levelo_inurba_marseille","lat":43.323674,"lon":5.388889,"is_reserved":false,"is_disabled":false,"rental_uris":{"android":"levelo://app?vid=65200528-92c8-43dc-a28c-65f22643d5f6","ios":"levelo://app?vid=65200528-92c8-43dc-a28c-65f22643d5f6"},"vehicle_type_id":"4","last_reported":1705435690,"current_range_meters":14400,"station_id":"ce4bhqp2rcd13ifvqhog","pricing_plan_id":"free"},{"bike_id":"b7beb6a5-b030-4fe2-a25b-ee6b5b88bebb","system_id":"levelo_inurba_marseille","lat":43.32372,"lon":5.38888,"is_reserved":false,"is_disabled":false,"rental_uris":{"android":"levelo://app?vid=b7beb6a5-b030-4fe2-a25b-ee6b5b88bebb","ios":"levelo://app?vid=b7beb6a5-b030-4fe2-a25b-ee6b5b88bebb"},"vehicle_type_id":"4","last_reported":1705435690,"current_range_meters":2000,"station_id":"ce4bhqp2rcd13ifvqhog","pricing_plan_id":"free"},{"bike_id":"3eaf80a2-4466-4456-9f69-432e7ba66f2e","system_id":"levelo_inurba_marseille","lat":43.29601,"lon":5.381084,"is_reserved":false,"is_disabled":false,"rental_uris":{"android":"levelo://app?vid=3eaf80a2-4466-4456-9f69-432e7ba66f2e","ios":"levelo://app?vid=3eaf80a2-4466-4456-9f69-432e7ba66f2e"},"vehicle_type_id":"4","last_reported":1705435690,"current_range_meters":5600,"station_id":"ce4bgl12rcd13ifvqbo0","pricing_plan_id":"free"},{"bike_id":"83ab4445-a228-44df-b2c4-0fbe1cd3d0c5","system_id":"levelo_inurba_marseille","lat":43.29601,"lon":5.381084,"is_reserved":false,"is_disabled":false,"rental_uris":{"android":"levelo://app?vid=83ab4445-a228-44df-b2c4-0fbe1cd3d0c5","ios":"levelo://app?vid=83ab4445-a228-44df-b2c4-0fbe1cd3d0c5"},"vehicle_type_id":"4","last_reported":1705435690,"current_range_meters":12800,"station_id":"ce4bgl12rcd13ifvqbo0","pricing_plan_id":"free"},{"bike_id":"77d299e6-e6a7-4803-adf1-92340e51cd61","system_id":"levelo_inurba_marseille","lat":43.29602,"lon":5.381084,"is_reserved":false,"is_disabled":false,"rental_uris":{"android":"levelo://app?vid=77d299e6-e6a7-4803-adf1-92340e51cd61","ios":"levelo://app?vid=77d299e6-e6a7-4803-adf1-92340e51cd61"},"vehicle_type_id":"4","last_reported":1705435690,"current_range_meters":18800,"station_id":"ce4bgl12rcd13ifvqbo0","pricing_plan_id":"free"},{"bike_id":"dd9bec4f-7fce-4e11-bda2-f721128a20fb","system_id":"levelo_inurba_marseille","lat":43.292749,"lon":5.368402,"is_reserved":false,"is_disabled":false,"rental_uris":{"android":"levelo://app?vid=dd9bec4f-7fce-4e11-bda2-f721128a20fb","ios":"levelo://app?vid=dd9bec4f-7fce-4e11-bda2-f721128a20fb"},"vehicle_type_id":"4","last_reported":1705435690,"current_range_meters":29600,"station_id":"ce4bhbp2rcd13ifvqesg","pricing_plan_id":"free"},{"bike_id":"31184f32-4f61-413a-9b62-c2962013f321","system_id":"levelo_inurba_marseille","lat":43.292749,"lon":5.368402,"is_reserved":false,"is_disabled":false,"rental_uris":{"android":"levelo://app?vid=31184f32-4f61-413a-9b62-c2962013f321","ios":"levelo://app?vid=31184f32-4f61-413a-9b62-c2962013f321"},"vehicle_type_id":"4","last_reported":1705435690,"current_range_meters":24400,"station_id":"ce4bhbp2rcd13ifvqesg","pricing_plan_id":"free"},{"bike_id":"48e514f3-a72c-42ac-9129-a284f9ef52ea","system_id":"levelo_inurba_marseille","lat":43.293259,"lon":5.371586,"is_reserved":false,"is_disabled":false,"rental_uris":{"android":"levelo://app?vid=48e514f3-a72c-42ac-9129-a284f9ef52ea","ios":"levelo://app?vid=48e514f3-a72c-42ac-9129-a284f9ef52ea"},"vehicle_type_id":"4","last_reported":1705435690,"current_range_meters":31600,"station_id":"ce4bgh92rcd13ifvqb40","pricing_plan_id":"free"},{"bike_id":"c5d8acbf-f542-4ce4-95a5-1a8272f52179","system_id":"levelo_inurba_marseille","lat":43.293249,"lon":5.371578,"is_reserved":false,"is_disabled":false,"rental_uris":{"android":"levelo://app?vid=c5d8acbf-f542-4ce4-95a5-1a8272f52179","ios":"levelo://app?vid=c5d8acbf-f542-4ce4-95a5-1a8272f52179"},"vehicle_type_id":"4","last_reported":1705435690,"current_range_meters":6400,"station_id":"ce4bgh92rcd13ifvqb40","pricing_plan_id":"free"},{"bike_id":"37ba80ec-d5f9-41f0-b4b1-c81ace744f2a","system_id":"levelo_inurba_marseille","lat":43.293259,"lon":5.371586,"is_reserved":false,"is_disabled":false,"rental_uris":{"android":"levelo://app?vid=37ba80ec-d5f9-41f0-b4b1-c81ace744f2a","ios":"levelo://app?vid=37ba80ec-d5f9-41f0-b4b1-c81ace744f2a"},"vehicle_type_id":"4","last_reported":1705435690,"current_range_meters":14400,"station_id":"ce4bgh92rcd13ifvqb40","pricing_plan_id":"free"},{"bike_id":"3c163dcc-d5d4-445a-ae02-2a908792ae93","system_id":"levelo_inurba_marseille","lat":43.29308,"lon":5.37173,"is_reserved":false,"is_disabled":false,"rental_uris":{"android":"levelo://app?vid=3c163dcc-d5d4-445a-ae02-2a908792ae93","ios":"levelo://app?vid=3c163dcc-d5d4-445a-ae02-2a908792ae93"},"vehicle_type_id":"4","last_reported":1705435690,"current_range_meters":0,"station_id":"ce4bgh92rcd13ifvqb40","pricing_plan_id":"free"},{"bike_id":"9b6a0e45-fa92-43aa-8af8-dadacc0dbe64","system_id":"levelo_inurba_marseille","lat":43.292749,"lon":5.368402,"is_reserved":false,"is_disabled":false,"rental_uris":{"android":"levelo://app?vid=9b6a0e45-fa92-43aa-8af8-dadacc0dbe64","ios":"levelo://app?vid=9b6a0e45-fa92-43aa-8af8-dadacc0dbe64"},"vehicle_type_id":"4","last_reported":1705435690,"current_range_meters":29600,"station_id":"ce4bhbp2rcd13ifvqesg","pricing_plan_id":"free"},{"bike_id":"a10f2b09-99ba-410e-ab8e-85c245899a18","system_id":"levelo_inurba_marseille","lat":43.293259,"lon":5.371586,"is_reserved":false,"is_disabled":false,"rental_uris":{"android":"levelo://app?vid=a10f2b09-99ba-410e-ab8e-85c245899a18","ios":"levelo://app?vid=a10f2b09-99ba-410e-ab8e-85c245899a18"},"vehicle_type_id":"4","last_reported":1705435690,"current_range_meters":16000,"station_id":"ce4bgh92rcd13ifvqb40","pricing_plan_id":"free"},{"bike_id":"1e616b56-dd61-440d-ba64-51cdd0eb7196","system_id":"levelo_inurba_marseille","lat":43.293259,"lon":5.371586,"is_reserved":false,"is_disabled":false,"rental_uris":{"android":"levelo://app?vid=1e616b56-dd61-440d-ba64-51cdd0eb7196","ios":"levelo://app?vid=1e616b56-dd61-440d-ba64-51cdd0eb7196"},"vehicle_type_id":"4","last_reported":1705435690,"current_range_meters":18000,"station_id":"ce4bgh92rcd13ifvqb40","pricing_plan_id":"free"},{"bike_id":"3fcb2e01-ac0b-41fe-bbd6-9c40d66e4e05","system_id":"levelo_inurba_marseille","lat":43.292749,"lon":5.368402,"is_reserved":false,"is_disabled":false,"rental_uris":{"android":"levelo://app?vid=3fcb2e01-ac0b-41fe-bbd6-9c40d66e4e05","ios":"levelo://app?vid=3fcb2e01-ac0b-41fe-bbd6-9c40d66e4e05"},"vehicle_type_id":"4","last_reported":1705435690,"current_range_meters":4800,"station_id":"ce4bhbp2rcd13ifvqesg","pricing_plan_id":"free"},{"bike_id":"d6405030-6ce4-43f1-97fc-887012d4b169","system_id":"levelo_inurba_marseille","lat":43.293259,"lon":5.371586,"is_reserved":false,"is_disabled":false,"rental_uris":{"android":"levelo://app?vid=d6405030-6ce4-43f1-97fc-887012d4b169","ios":"levelo://app?vid=d6405030-6ce4-43f1-97fc-887012d4b169"},"vehicle_type_id":"4","last_reported":1705435690,"current_range_meters":16400,"station_id":"ce4bgh92rcd13ifvqb40","pricing_plan_id":"free"},{"bike_id":"e6c619cc-d150-445c-a9e4-4f99805ccd89","system_id":"levelo_inurba_marseille","lat":43.292749,"lon":5.368402,"is_reserved":false,"is_disabled":false,"rental_uris":{"android":"levelo://app?vid=e6c619cc-d150-445c-a9e4-4f99805ccd89","ios":"levelo://app?vid=e6c619cc-d150-445c-a9e4-4f99805ccd89"},"vehicle_type_id":"4","last_reported":1705435690,"current_range_meters":12800,"station_id":"ce4bhbp2rcd13ifvqesg","pricing_plan_id":"free"},{"bike_id":"09b2b954-f90d-4e85-8b88-45dd518ccd73","system_id":"levelo_inurba_marseille","lat":43.305994,"lon":5.393687,"is_reserved":false,"is_disabled":false,"rental_uris":{"android":"levelo://app?vid=09b2b954-f90d-4e85-8b88-45dd518ccd73","ios":"levelo://app?vid=09b2b954-f90d-4e85-8b88-45dd518ccd73"},"vehicle_type_id":"4","last_reported":1705435690,"current_range_meters":4400,"station_id":"ce4bh0p2rcd13ifvqd80","pricing_plan_id":"free"},{"bike_id":"3c02eb27-3b52-4195-9d03-6f501a0ad9ef","system_id":"levelo_inurba_marseille","lat":43.302992,"lon":5.392136,"is_reserved":false,"is_disabled":false,"rental_uris":{"android":"levelo://app?vid=3c02eb27-3b52-4195-9d03-6f501a0ad9ef","ios":"levelo://app?vid=3c02eb27-3b52-4195-9d03-6f501a0ad9ef"},"vehicle_type_id":"4","last_reported":1705435690,"current_range_meters":16000,"station_id":"ce4bgkh2rcd13ifvqbk0","pricing_plan_id":"free"},{"bike_id":"55d641e9-c29c-4fce-95d0-62b73fb747fb","system_id":"levelo_inurba_marseille","lat":43.2936,"lon":5.37835,"is_reserved":false,"is_disabled":false,"rental_uris":{"android":"levelo://app?vid=55d641e9-c29c-4fce-95d0-62b73fb747fb","ios":"levelo://app?vid=55d641e9-c29c-4fce-95d0-62b73fb747fb"},"vehicle_type_id":"4","last_reported":1705435690,"current_range_meters":21600,"station_id":"ce4bgjh2rcd13ifvqbf0","pricing_plan_id":"free"},{"bike_id":"765d01d5-32bf-4ed3-a6e8-2608dac2010f","system_id":"levelo_inurba_marseille","lat":43.302992,"lon":5.392136,"is_reserved":false,"is_disabled":false,"rental_uris":{"android":"levelo://app?vid=765d01d5-32bf-4ed3-a6e8-2608dac2010f","ios":"levelo://app?vid=765d01d5-32bf-4ed3-a6e8-2608dac2010f"},"vehicle_type_id":"4","last_reported":1705435690,"current_range_meters":23600,"station_id":"ce4bgkh2rcd13ifvqbk0","pricing_plan_id":"free"},{"bike_id":"ca555892-d563-4900-9552-69b04843280d","system_id":"levelo_inurba_marseille","lat":43.2936,"lon":5.37835,"is_reserved":false,"is_disabled":false,"rental_uris":{"android":"levelo://app?vid=ca555892-d563-4900-9552-69b04843280d","ios":"levelo://app?vid=ca555892-d563-4900-9552-69b04843280d"},"vehicle_type_id":"4","last_reported":1705435690,"current_range_meters":16800,"station_id":"ce4bgjh2rcd13ifvqbf0","pricing_plan_id":"free"},{"bike_id":"c2dc5c82-bfc0-44f5-a6d5-ab43aabf9cba","system_id":"levelo_inurba_marseille","lat":43.30085,"lon":5.390856,"is_reserved":false,"is_disabled":false,"rental_uris":{"android":"levelo://app?vid=c2dc5c82-bfc0-44f5-a6d5-ab43aabf9cba","ios":"levelo://app?vid=c2dc5c82-bfc0-44f5-a6d5-ab43aabf9cba"},"vehicle_type_id":"4","last_reported":1705435690,"current_range_meters":23600,"station_id":"ce4bh192rcd13ifvqdb0","pricing_plan_id":"free"},{"bike_id":"368302e1-0506-4794-8d17-2fe947599c76","system_id":"levelo_inurba_marseille","lat":43.291671,"lon":5.371575,"is_reserved":false,"is_disabled":false,"rental_uris":{"android":"levelo://app?vid=368302e1-0506-4794-8d17-2fe947599c76","ios":"levelo://app?vid=368302e1-0506-4794-8d17-2fe947599c76"},"vehicle_type_id":"4","last_reported":1705435690,"current_range_meters":23600,"station_id":"ce4bha92rcd13ifvqeh0","pricing_plan_id":"free"},{"bike_id":"57f9350d-aeb0-495f-861e-a6b7abea231f","system_id":"levelo_inurba_marseille","lat":43.291675,"lon":5.371583,"is_reserved":false,"is_disabled":false,"rental_uris":{"android":"levelo://app?vid=57f9350d-aeb0-495f-861e-a6b7abea231f","ios":"levelo://app?vid=57f9350d-aeb0-495f-861e-a6b7abea231f"},"vehicle_type_id":"4","last_reported":1705435690,"current_range_meters":12800,"station_id":"ce4bha92rcd13ifvqeh0","pricing_plan_id":"free"},{"bike_id":"8375cb35-49fc-4cbd-8a98-1da5fda5e313","system_id":"levelo_inurba_marseille","lat":43.29864,"lon":5.389,"is_reserved":false,"is_disabled":false,"rental_uris":{"android":"levelo://app?vid=8375cb35-49fc-4cbd-8a98-1da5fda5e313","ios":"levelo://app?vid=8375cb35-49fc-4cbd-8a98-1da5fda5e313"},"vehicle_type_id":"4","last_reported":1705435690,"current_range_meters":10000,"station_id":"","pricing_plan_id":"free"},{"bike_id":"8ba2e180-3a9b-4b8f-b98b-99f6ac819262","system_id":"levelo_inurba_marseille","lat":43.309038,"lon":5.396546,"is_reserved":false,"is_disabled":false,"rental_uris":{"android":"levelo://app?vid=8ba2e180-3a9b-4b8f-b98b-99f6ac819262","ios":"levelo://app?vid=8ba2e180-3a9b-4b8f-b98b-99f6ac819262"},"vehicle_type_id":"4","last_reported":1705435690,"current_range_meters":0,"station_id":"ce4bh012rcd13ifvqcv0","pricing_plan_id":"free"},{"bike_id":"19d12816-9bb0-429e-9f0a-3d3d80084153","system_id":"levelo_inurba_marseille","lat":43.309038,"lon":5.396546,"is_reserved":false,"is_disabled":false,"rental_uris":{"android":"levelo://app?vid=19d12816-9bb0-429e-9f0a-3d3d80084153","ios":"levelo://app?vid=19d12816-9bb0-429e-9f0a-3d3d80084153"},"vehicle_type_id":"4","last_reported":1705435690,"current_range_meters":26400,"station_id":"ce4bh012rcd13ifvqcv0","pricing_plan_id":"free"},{"bike_id":"e4533126-6a51-4285-879d-7645d65234f6","system_id":"levelo_inurba_marseille","lat":43.291994,"lon":5.357886,"is_reserved":false,"is_disabled":false,"rental_uris":{"android":"levelo://app?vid=e4533126-6a51-4285-879d-7645d65234f6","ios":"levelo://app?vid=e4533126-6a51-4285-879d-7645d65234f6"},"vehicle_type_id":"4","last_reported":1705435690,"current_range_meters":28400,"station_id":"ce4bhb12rcd13ifvqel0","pricing_plan_id":"free"},{"bike_id":"f1af75be-f457-41f2-b38c-f3cdd8b150a0","system_id":"levelo_inurba_marseille","lat":43.313291,"lon":5.396838,"is_reserved":false,"is_disabled":false,"rental_uris":{"android":"levelo://app?vid=f1af75be-f457-41f2-b38c-f3cdd8b150a0","ios":"levelo://app?vid=f1af75be-f457-41f2-b38c-f3cdd8b150a0"},"vehicle_type_id":"4","last_reported":1705435690,"current_range_meters":25200,"station_id":"ce4bgvp2rcd13ifvqcu0","pricing_plan_id":"free"},{"bike_id":"0fd8de78-b461-42d7-8983-47bd6bb2ea65","system_id":"levelo_inurba_marseille","lat":43.309038,"lon":5.396546,"is_reserved":false,"is_disabled":false,"rental_uris":{"android":"levelo://app?vid=0fd8de78-b461-42d7-8983-47bd6bb2ea65","ios":"levelo://app?vid=0fd8de78-b461-42d7-8983-47bd6bb2ea65"},"vehicle_type_id":"4","last_reported":1705435690,"current_range_meters":15200,"station_id":"ce4bh012rcd13ifvqcv0","pricing_plan_id":"free"},{"bike_id":"e503c6b0-b41c-49c4-88bb-9893af467514","system_id":"levelo_inurba_marseille","lat":43.309038,"lon":5.396546,"is_reserved":false,"is_disabled":false,"rental_uris":{"android":"levelo://app?vid=e503c6b0-b41c-49c4-88bb-9893af467514","ios":"levelo://app?vid=e503c6b0-b41c-49c4-88bb-9893af467514"},"vehicle_type_id":"4","last_reported":1705435690,"current_range_meters":20000,"station_id":"ce4bh012rcd13ifvqcv0","pricing_plan_id":"free"},{"bike_id":"b91ca71f-9878-4d2a-bbce-a2f84d2f8271","system_id":"levelo_inurba_marseille","lat":43.309047,"lon":5.396551,"is_reserved":false,"is_disabled":false,"rental_uris":{"android":"levelo://app?vid=b91ca71f-9878-4d2a-bbce-a2f84d2f8271","ios":"levelo://app?vid=b91ca71f-9878-4d2a-bbce-a2f84d2f8271"},"vehicle_type_id":"4","last_reported":1705435690,"current_range_meters":22800,"station_id":"ce4bh012rcd13ifvqcv0","pricing_plan_id":"free"},{"bike_id":"343eb6bb-6c50-44ff-b5f8-d8ead35d7bdd","system_id":"levelo_inurba_marseille","lat":43.29529,"lon":5.385581,"is_reserved":false,"is_disabled":false,"rental_uris":{"android":"levelo://app?vid=343eb6bb-6c50-44ff-b5f8-d8ead35d7bdd","ios":"levelo://app?vid=343eb6bb-6c50-44ff-b5f8-d8ead35d7bdd"},"vehicle_type_id":"4","last_reported":1705435690,"current_range_meters":11200,"station_id":"ce4bgih2rcd13ifvqba0","pricing_plan_id":"free"},{"bike_id":"5d39ec8d-7c6b-43ba-820e-3750896d7a4c","system_id":"levelo_inurba_marseille","lat":43.29529,"lon":5.385581,"is_reserved":false,"is_disabled":false,"rental_uris":{"android":"levelo://app?vid=5d39ec8d-7c6b-43ba-820e-3750896d7a4c","ios":"levelo://app?vid=5d39ec8d-7c6b-43ba-820e-3750896d7a4c"},"vehicle_type_id":"4","last_reported":1705435690,"current_range_meters":6400,"station_id":"ce4bgih2rcd13ifvqba0","pricing_plan_id":"free"},{"bike_id":"a0df4a8a-2dca-4d04-8b62-23964f6242d9","system_id":"levelo_inurba_marseille","lat":43.29079,"lon":5.37175,"is_reserved":false,"is_disabled":false,"rental_uris":{"android":"levelo://app?vid=a0df4a8a-2dca-4d04-8b62-23964f6242d9","ios":"levelo://app?vid=a0df4a8a-2dca-4d04-8b62-23964f6242d9"},"vehicle_type_id":"4","last_reported":1705435690,"current_range_meters":6400,"station_id":"ce4bh5p2rcd13ifvqe4g","pricing_plan_id":"free"},{"bike_id":"68c86f40-84a1-4fbd-90f6-7c333a33d176","system_id":"levelo_inurba_marseille","lat":43.290779,"lon":5.371482,"is_reserved":false,"is_disabled":false,"rental_uris":{"android":"levelo://app?vid=68c86f40-84a1-4fbd-90f6-7c333a33d176","ios":"levelo://app?vid=68c86f40-84a1-4fbd-90f6-7c333a33d176"},"vehicle_type_id":"4","last_reported":1705435690,"current_range_meters":0,"station_id":"ce4bh5p2rcd13ifvqe4g","pricing_plan_id":"free"},{"bike_id":"35cfcc5f-7e3a-43c1-9f93-f4c8271f65d7","system_id":"levelo_inurba_marseille","lat":43.290779,"lon":5.371482,"is_reserved":false,"is_disabled":false,"rental_uris":{"android":"levelo://app?vid=35cfcc5f-7e3a-43c1-9f93-f4c8271f65d7","ios":"levelo://app?vid=35cfcc5f-7e3a-43c1-9f93-f4c8271f65d7"},"vehicle_type_id":"4","last_reported":1705435690,"current_range_meters":5200,"station_id":"ce4bh5p2rcd13ifvqe4g","pricing_plan_id":"free"},{"bike_id":"adfc6ee0-fce8-409a-b69d-c8ed328d8722","system_id":"levelo_inurba_marseille","lat":43.290779,"lon":5.371482,"is_reserved":false,"is_disabled":false,"rental_uris":{"android":"levelo://app?vid=adfc6ee0-fce8-409a-b69d-c8ed328d8722","ios":"levelo://app?vid=adfc6ee0-fce8-409a-b69d-c8ed328d8722"},"vehicle_type_id":"4","last_reported":1705435690,"current_range_meters":18800,"station_id":"ce4bh5p2rcd13ifvqe4g","pricing_plan_id":"free"},{"bike_id":"3c09d25c-dc8f-4a2e-a952-8c805d8b12dc","system_id":"levelo_inurba_marseille","lat":43.302008,"lon":5.394694,"is_reserved":false,"is_disabled":false,"rental_uris":{"android":"levelo://app?vid=3c09d25c-dc8f-4a2e-a952-8c805d8b12dc","ios":"levelo://app?vid=3c09d25c-dc8f-4a2e-a952-8c805d8b12dc"},"vehicle_type_id":"4","last_reported":1705435690,"current_range_meters":0,"station_id":"ce4bh0p2rcd13ifvqd70","pricing_plan_id":"free"},{"bike_id":"30c16a15-5173-41a7-b2ab-ce8a9d167fb7","system_id":"levelo_inurba_marseille","lat":43.302008,"lon":5.394694,"is_reserved":false,"is_disabled":false,"rental_uris":{"android":"levelo://app?vid=30c16a15-5173-41a7-b2ab-ce8a9d167fb7","ios":"levelo://app?vid=30c16a15-5173-41a7-b2ab-ce8a9d167fb7"},"vehicle_type_id":"4","last_reported":1705435690,"current_range_meters":0,"station_id":"ce4bh0p2rcd13ifvqd70","pricing_plan_id":"free"},{"bike_id":"c739af84-65d9-4eb6-b353-96f961548a3c","system_id":"levelo_inurba_marseille","lat":43.302008,"lon":5.394694,"is_reserved":false,"is_disabled":false,"rental_uris":{"android":"levelo://app?vid=c739af84-65d9-4eb6-b353-96f961548a3c","ios":"levelo://app?vid=c739af84-65d9-4eb6-b353-96f961548a3c"},"vehicle_type_id":"4","last_reported":1705435690,"current_range_meters":8400,"station_id":"ce4bh0p2rcd13ifvqd70","pricing_plan_id":"free"},{"bike_id":"d045783d-eed0-47bf-b22a-0355f72c3b5f","system_id":"levelo_inurba_marseille","lat":43.302008,"lon":5.394694,"is_reserved":false,"is_disabled":false,"rental_uris":{"android":"levelo://app?vid=d045783d-eed0-47bf-b22a-0355f72c3b5f","ios":"levelo://app?vid=d045783d-eed0-47bf-b22a-0355f72c3b5f"},"vehicle_type_id":"4","last_reported":1705435690,"current_range_meters":10800,"station_id":"ce4bh0p2rcd13ifvqd70","pricing_plan_id":"free"},{"bike_id":"bd64033c-97cb-4416-935b-145953c1dfa4","system_id":"levelo_inurba_marseille","lat":43.302008,"lon":5.394694,"is_reserved":false,"is_disabled":false,"rental_uris":{"android":"levelo://app?vid=bd64033c-97cb-4416-935b-145953c1dfa4","ios":"levelo://app?vid=bd64033c-97cb-4416-935b-145953c1dfa4"},"vehicle_type_id":"4","last_reported":1705435690,"current_range_meters":9200,"station_id":"ce4bh0p2rcd13ifvqd70","pricing_plan_id":"free"},{"bike_id":"129468e0-b0f4-4936-ad60-6945aba0df91","system_id":"levelo_inurba_marseille","lat":43.290624,"lon":5.359245,"is_reserved":false,"is_disabled":false,"rental_uris":{"android":"levelo://app?vid=129468e0-b0f4-4936-ad60-6945aba0df91","ios":"levelo://app?vid=129468e0-b0f4-4936-ad60-6945aba0df91"},"vehicle_type_id":"4","last_reported":1705435690,"current_range_meters":30800,"station_id":"ce4bha92rcd13ifvqeg0","pricing_plan_id":"free"},{"bike_id":"2d209de3-8192-4655-99c7-5161288498b4","system_id":"levelo_inurba_marseille","lat":43.290624,"lon":5.359245,"is_reserved":false,"is_disabled":false,"rental_uris":{"android":"levelo://app?vid=2d209de3-8192-4655-99c7-5161288498b4","ios":"levelo://app?vid=2d209de3-8192-4655-99c7-5161288498b4"},"vehicle_type_id":"4","last_reported":1705435690,"current_range_meters":29600,"station_id":"ce4bha92rcd13ifvqeg0","pricing_plan_id":"free"},{"bike_id":"9eb95b87-b2cf-4590-a50d-1e55140a3a72","system_id":"levelo_inurba_marseille","lat":43.290631,"lon":5.359244,"is_reserved":false,"is_disabled":false,"rental_uris":{"android":"levelo://app?vid=9eb95b87-b2cf-4590-a50d-1e55140a3a72","ios":"levelo://app?vid=9eb95b87-b2cf-4590-a50d-1e55140a3a72"},"vehicle_type_id":"4","last_reported":1705435690,"current_range_meters":30400,"station_id":"ce4bha92rcd13ifvqeg0","pricing_plan_id":"free"},{"bike_id":"ad0b7107-ce4b-4397-9ce9-6692d83486ee","system_id":"levelo_inurba_marseille","lat":43.290327,"lon":5.375711,"is_reserved":false,"is_disabled":false,"rental_uris":{"android":"levelo://app?vid=ad0b7107-ce4b-4397-9ce9-6692d83486ee","ios":"levelo://app?vid=ad0b7107-ce4b-4397-9ce9-6692d83486ee"},"vehicle_type_id":"4","last_reported":1705435690,"current_range_meters":30800,"station_id":"ce4bh692rcd13ifvqe90","pricing_plan_id":"free"},{"bike_id":"aea63ac9-289f-483b-bbdd-c26be86f0e5a","system_id":"levelo_inurba_marseille","lat":43.2942,"lon":5.38627,"is_reserved":false,"is_disabled":false,"rental_uris":{"android":"levelo://app?vid=aea63ac9-289f-483b-bbdd-c26be86f0e5a","ios":"levelo://app?vid=aea63ac9-289f-483b-bbdd-c26be86f0e5a"},"vehicle_type_id":"4","last_reported":1705435690,"current_range_meters":0,"station_id":"ce4bh2h2rcd13ifvqdh0","pricing_plan_id":"free"},{"bike_id":"73b0b080-f168-4105-96ae-fd6de96f0f1d","system_id":"levelo_inurba_marseille","lat":43.289184,"lon":5.366408,"is_reserved":false,"is_disabled":false,"rental_uris":{"android":"levelo://app?vid=73b0b080-f168-4105-96ae-fd6de96f0f1d","ios":"levelo://app?vid=73b0b080-f168-4105-96ae-fd6de96f0f1d"},"vehicle_type_id":"4","last_reported":1705435690,"current_range_meters":18000,"station_id":"ce4bhap2rcd13ifvqek0","pricing_plan_id":"free"},{"bike_id":"49432989-15bf-406a-b931-9a4793d88319","system_id":"levelo_inurba_marseille","lat":43.294162,"lon":5.386292,"is_reserved":false,"is_disabled":false,"rental_uris":{"android":"levelo://app?vid=49432989-15bf-406a-b931-9a4793d88319","ios":"levelo://app?vid=49432989-15bf-406a-b931-9a4793d88319"},"vehicle_type_id":"4","last_reported":1705435690,"current_range_meters":26000,"station_id":"ce4bh2h2rcd13ifvqdh0","pricing_plan_id":"free"},{"bike_id":"1919cf1c-62b2-47f9-9b6c-5e5d013aecc9","system_id":"levelo_inurba_marseille","lat":43.290327,"lon":5.375711,"is_reserved":false,"is_disabled":false,"rental_uris":{"android":"levelo://app?vid=1919cf1c-62b2-47f9-9b6c-5e5d013aecc9","ios":"levelo://app?vid=1919cf1c-62b2-47f9-9b6c-5e5d013aecc9"},"vehicle_type_id":"4","last_reported":1705435690,"current_range_meters":25200,"station_id":"ce4bh692rcd13ifvqe90","pricing_plan_id":"free"},{"bike_id":"09a23cd9-8323-4b6b-9308-ec6b5aa83a69","system_id":"levelo_inurba_marseille","lat":43.289468,"lon":5.363719,"is_reserved":false,"is_disabled":false,"rental_uris":{"android":"levelo://app?vid=09a23cd9-8323-4b6b-9308-ec6b5aa83a69","ios":"levelo://app?vid=09a23cd9-8323-4b6b-9308-ec6b5aa83a69"},"vehicle_type_id":"4","last_reported":1705435690,"current_range_meters":14000,"station_id":"ce4bhc92rcd13ifvqetg","pricing_plan_id":"free"},{"bike_id":"60764764-cbf6-402a-b236-4f35e450f1c4","system_id":"levelo_inurba_marseille","lat":43.289184,"lon":5.366408,"is_reserved":false,"is_disabled":false,"rental_uris":{"android":"levelo://app?vid=60764764-cbf6-402a-b236-4f35e450f1c4","ios":"levelo://app?vid=60764764-cbf6-402a-b236-4f35e450f1c4"},"vehicle_type_id":"4","last_reported":1705435690,"current_range_meters":22000,"station_id":"ce4bhap2rcd13ifvqek0","pricing_plan_id":"free"},{"bike_id":"aa8e78c8-a174-4214-afcb-0868cc80bdf2","system_id":"levelo_inurba_marseille","lat":43.289468,"lon":5.363719,"is_reserved":false,"is_disabled":false,"rental_uris":{"android":"levelo://app?vid=aa8e78c8-a174-4214-afcb-0868cc80bdf2","ios":"levelo://app?vid=aa8e78c8-a174-4214-afcb-0868cc80bdf2"},"vehicle_type_id":"4","last_reported":1705435690,"current_range_meters":4000,"station_id":"ce4bhc92rcd13ifvqetg","pricing_plan_id":"free"},{"bike_id":"62c6cf3a-0464-414a-9f46-47dc927fb5ca","system_id":"levelo_inurba_marseille","lat":43.289184,"lon":5.366408,"is_reserved":false,"is_disabled":false,"rental_uris":{"android":"levelo://app?vid=62c6cf3a-0464-414a-9f46-47dc927fb5ca","ios":"levelo://app?vid=62c6cf3a-0464-414a-9f46-47dc927fb5ca"},"vehicle_type_id":"4","last_reported":1705435690,"current_range_meters":25200,"station_id":"ce4bhap2rcd13ifvqek0","pricing_plan_id":"free"},{"bike_id":"9ce2fa38-9b9b-4a6c-a532-6fed718385ae","system_id":"levelo_inurba_marseille","lat":43.289184,"lon":5.366408,"is_reserved":false,"is_disabled":false,"rental_uris":{"android":"levelo://app?vid=9ce2fa38-9b9b-4a6c-a532-6fed718385ae","ios":"levelo://app?vid=9ce2fa38-9b9b-4a6c-a532-6fed718385ae"},"vehicle_type_id":"4","last_reported":1705435690,"current_range_meters":800,"station_id":"ce4bhap2rcd13ifvqek0","pricing_plan_id":"free"},{"bike_id":"514ba7be-d8cd-462a-b50e-cbead39e13ca","system_id":"levelo_inurba_marseille","lat":43.289468,"lon":5.363719,"is_reserved":false,"is_disabled":false,"rental_uris":{"android":"levelo://app?vid=514ba7be-d8cd-462a-b50e-cbead39e13ca","ios":"levelo://app?vid=514ba7be-d8cd-462a-b50e-cbead39e13ca"},"vehicle_type_id":"4","last_reported":1705435690,"current_range_meters":24000,"station_id":"ce4bhc92rcd13ifvqetg","pricing_plan_id":"free"},{"bike_id":"f5898594-dcdf-4b2a-b2e4-0e4159a13865","system_id":"levelo_inurba_marseille","lat":43.304274,"lon":5.397513,"is_reserved":false,"is_disabled":false,"rental_uris":{"android":"levelo://app?vid=f5898594-dcdf-4b2a-b2e4-0e4159a13865","ios":"levelo://app?vid=f5898594-dcdf-4b2a-b2e4-0e4159a13865"},"vehicle_type_id":"4","last_reported":1705435690,"current_range_meters":0,"station_id":"ce4bh092rcd13ifvqd20","pricing_plan_id":"free"},{"bike_id":"c6120324-8c05-48a9-90b5-fc1691261dfb","system_id":"levelo_inurba_marseille","lat":43.292644,"lon":5.384257,"is_reserved":false,"is_disabled":false,"rental_uris":{"android":"levelo://app?vid=c6120324-8c05-48a9-90b5-fc1691261dfb","ios":"levelo://app?vid=c6120324-8c05-48a9-90b5-fc1691261dfb"},"vehicle_type_id":"4","last_reported":1705435690,"current_range_meters":22000,"station_id":"ce4bh692rcd13ifvqea0","pricing_plan_id":"free"},{"bike_id":"827c7e9f-97c3-4f60-849e-050d0b1806cd","system_id":"levelo_inurba_marseille","lat":43.292721,"lon":5.384419,"is_reserved":false,"is_disabled":false,"rental_uris":{"android":"levelo://app?vid=827c7e9f-97c3-4f60-849e-050d0b1806cd","ios":"levelo://app?vid=827c7e9f-97c3-4f60-849e-050d0b1806cd"},"vehicle_type_id":"4","last_reported":1705435690,"current_range_meters":9600,"station_id":"ce4bh692rcd13ifvqea0","pricing_plan_id":"free"},{"bike_id":"11c2c645-7ba1-4f66-a0df-44c3de62a72d","system_id":"levelo_inurba_marseille","lat":43.290122,"lon":5.356251,"is_reserved":false,"is_disabled":false,"rental_uris":{"android":"levelo://app?vid=11c2c645-7ba1-4f66-a0df-44c3de62a72d","ios":"levelo://app?vid=11c2c645-7ba1-4f66-a0df-44c3de62a72d"},"vehicle_type_id":"4","last_reported":1705435690,"current_range_meters":24400,"station_id":"","pricing_plan_id":"free"},{"bike_id":"6f5917e2-158e-4459-bf15-32555ccdf1e1","system_id":"levelo_inurba_marseille","lat":43.29008,"lon":5.35622,"is_reserved":false,"is_disabled":false,"rental_uris":{"android":"levelo://app?vid=6f5917e2-158e-4459-bf15-32555ccdf1e1","ios":"levelo://app?vid=6f5917e2-158e-4459-bf15-32555ccdf1e1"},"vehicle_type_id":"4","last_reported":1705435690,"current_range_meters":28000,"station_id":"ce4bhb92rcd13ifvqen0","pricing_plan_id":"free"},{"bike_id":"aeb0357d-46be-4d4a-835b-64f4d2dd4d98","system_id":"levelo_inurba_marseille","lat":43.290103,"lon":5.356114,"is_reserved":false,"is_disabled":false,"rental_uris":{"android":"levelo://app?vid=aeb0357d-46be-4d4a-835b-64f4d2dd4d98","ios":"levelo://app?vid=aeb0357d-46be-4d4a-835b-64f4d2dd4d98"},"vehicle_type_id":"4","last_reported":1705435690,"current_range_meters":16400,"station_id":"ce4bhb92rcd13ifvqen0","pricing_plan_id":"free"},{"bike_id":"e9957a6f-5405-43fe-ac21-2aee4cf93ab0","system_id":"levelo_inurba_marseille","lat":43.290103,"lon":5.356114,"is_reserved":false,"is_disabled":false,"rental_uris":{"android":"levelo://app?vid=e9957a6f-5405-43fe-ac21-2aee4cf93ab0","ios":"levelo://app?vid=e9957a6f-5405-43fe-ac21-2aee4cf93ab0"},"vehicle_type_id":"4","last_reported":1705435690,"current_range_meters":13200,"station_id":"ce4bhb92rcd13ifvqen0","pricing_plan_id":"free"},{"bike_id":"6e8abd30-0cb8-4690-8b12-01632bedda0f","system_id":"levelo_inurba_marseille","lat":43.29002,"lon":5.35608,"is_reserved":false,"is_disabled":false,"rental_uris":{"android":"levelo://app?vid=6e8abd30-0cb8-4690-8b12-01632bedda0f","ios":"levelo://app?vid=6e8abd30-0cb8-4690-8b12-01632bedda0f"},"vehicle_type_id":"4","last_reported":1705435690,"current_range_meters":22800,"station_id":"ce4bhb92rcd13ifvqen0","pricing_plan_id":"free"},{"bike_id":"1b8239f8-dc98-4a34-acc5-8043da1011c7","system_id":"levelo_inurba_marseille","lat":43.290995,"lon":5.381361,"is_reserved":false,"is_disabled":false,"rental_uris":{"android":"levelo://app?vid=1b8239f8-dc98-4a34-acc5-8043da1011c7","ios":"levelo://app?vid=1b8239f8-dc98-4a34-acc5-8043da1011c7"},"vehicle_type_id":"4","last_reported":1705435690,"current_range_meters":19600,"station_id":"ce4bh512rcd13ifvqe2g","pricing_plan_id":"free"},{"bike_id":"0103c8b5-66ad-4fa2-a4cc-2d821ac2e83f","system_id":"levelo_inurba_marseille","lat":43.290995,"lon":5.381361,"is_reserved":false,"is_disabled":false,"rental_uris":{"android":"levelo://app?vid=0103c8b5-66ad-4fa2-a4cc-2d821ac2e83f","ios":"levelo://app?vid=0103c8b5-66ad-4fa2-a4cc-2d821ac2e83f"},"vehicle_type_id":"4","last_reported":1705435690,"current_range_meters":16000,"station_id":"ce4bh512rcd13ifvqe2g","pricing_plan_id":"free"},{"bike_id":"30cde034-f982-4efc-a52f-a003514192bb","system_id":"levelo_inurba_marseille","lat":43.290995,"lon":5.381361,"is_reserved":false,"is_disabled":false,"rental_uris":{"android":"levelo://app?vid=30cde034-f982-4efc-a52f-a003514192bb","ios":"levelo://app?vid=30cde034-f982-4efc-a52f-a003514192bb"},"vehicle_type_id":"4","last_reported":1705435690,"current_range_meters":31600,"station_id":"ce4bh512rcd13ifvqe2g","pricing_plan_id":"free"},{"bike_id":"f3d324d7-e90f-4b4d-bc5c-6863644926bb","system_id":"levelo_inurba_marseille","lat":43.29107,"lon":5.381357,"is_reserved":false,"is_disabled":false,"rental_uris":{"android":"levelo://app?vid=f3d324d7-e90f-4b4d-bc5c-6863644926bb","ios":"levelo://app?vid=f3d324d7-e90f-4b4d-bc5c-6863644926bb"},"vehicle_type_id":"4","last_reported":1705435690,"current_range_meters":26400,"station_id":"ce4bh512rcd13ifvqe2g","pricing_plan_id":"free"},{"bike_id":"2e417353-bbc2-4c7c-aff7-32752a384b8d","system_id":"levelo_inurba_marseille","lat":43.290995,"lon":5.381361,"is_reserved":false,"is_disabled":false,"rental_uris":{"android":"levelo://app?vid=2e417353-bbc2-4c7c-aff7-32752a384b8d","ios":"levelo://app?vid=2e417353-bbc2-4c7c-aff7-32752a384b8d"},"vehicle_type_id":"4","last_reported":1705435690,"current_range_meters":11600,"station_id":"ce4bh512rcd13ifvqe2g","pricing_plan_id":"free"},{"bike_id":"0a2fc43e-9c96-45ea-9237-e8fe4390f776","system_id":"levelo_inurba_marseille","lat":43.290995,"lon":5.381361,"is_reserved":false,"is_disabled":false,"rental_uris":{"android":"levelo://app?vid=0a2fc43e-9c96-45ea-9237-e8fe4390f776","ios":"levelo://app?vid=0a2fc43e-9c96-45ea-9237-e8fe4390f776"},"vehicle_type_id":"4","last_reported":1705435690,"current_range_meters":1200,"station_id":"ce4bh512rcd13ifvqe2g","pricing_plan_id":"free"},{"bike_id":"c540ed73-a088-49c2-abf8-36dbb4aaf2ba","system_id":"levelo_inurba_marseille","lat":43.290995,"lon":5.381361,"is_reserved":false,"is_disabled":false,"rental_uris":{"android":"levelo://app?vid=c540ed73-a088-49c2-abf8-36dbb4aaf2ba","ios":"levelo://app?vid=c540ed73-a088-49c2-abf8-36dbb4aaf2ba"},"vehicle_type_id":"4","last_reported":1705435690,"current_range_meters":11200,"station_id":"ce4bh512rcd13ifvqe2g","pricing_plan_id":"free"},{"bike_id":"60081938-25ce-49d0-8c40-629f6cca7eb1","system_id":"levelo_inurba_marseille","lat":43.290995,"lon":5.381361,"is_reserved":false,"is_disabled":false,"rental_uris":{"android":"levelo://app?vid=60081938-25ce-49d0-8c40-629f6cca7eb1","ios":"levelo://app?vid=60081938-25ce-49d0-8c40-629f6cca7eb1"},"vehicle_type_id":"4","last_reported":1705435690,"current_range_meters":6000,"station_id":"ce4bh512rcd13ifvqe2g","pricing_plan_id":"free"},{"bike_id":"037f94e3-3953-4630-a026-73b558eab13b","system_id":"levelo_inurba_marseille","lat":43.290995,"lon":5.381361,"is_reserved":false,"is_disabled":false,"rental_uris":{"android":"levelo://app?vid=037f94e3-3953-4630-a026-73b558eab13b","ios":"levelo://app?vid=037f94e3-3953-4630-a026-73b558eab13b"},"vehicle_type_id":"4","last_reported":1705435690,"current_range_meters":22400,"station_id":"ce4bh512rcd13ifvqe2g","pricing_plan_id":"free"},{"bike_id":"5eff1d7d-c823-4834-8f8b-045a91c754df","system_id":"levelo_inurba_marseille","lat":43.29785,"lon":5.3932,"is_reserved":false,"is_disabled":false,"rental_uris":{"android":"levelo://app?vid=5eff1d7d-c823-4834-8f8b-045a91c754df","ios":"levelo://app?vid=5eff1d7d-c823-4834-8f8b-045a91c754df"},"vehicle_type_id":"4","last_reported":1705435690,"current_range_meters":15600,"station_id":"chh1huq6cuj3fo74tm60","pricing_plan_id":"free"},{"bike_id":"6f8d9a30-15c7-4217-978b-ced8df05fe05","system_id":"levelo_inurba_marseille","lat":43.29792,"lon":5.39345,"is_reserved":false,"is_disabled":false,"rental_uris":{"android":"levelo://app?vid=6f8d9a30-15c7-4217-978b-ced8df05fe05","ios":"levelo://app?vid=6f8d9a30-15c7-4217-978b-ced8df05fe05"},"vehicle_type_id":"4","last_reported":1705435690,"current_range_meters":12000,"station_id":"chh1huq6cuj3fo74tm60","pricing_plan_id":"free"},{"bike_id":"8cec2b48-d2e1-482c-b2b3-2976ee612706","system_id":"levelo_inurba_marseille","lat":43.297913,"lon":5.393467,"is_reserved":false,"is_disabled":false,"rental_uris":{"android":"levelo://app?vid=8cec2b48-d2e1-482c-b2b3-2976ee612706","ios":"levelo://app?vid=8cec2b48-d2e1-482c-b2b3-2976ee612706"},"vehicle_type_id":"4","last_reported":1705435690,"current_range_meters":17600,"station_id":"chh1huq6cuj3fo74tm60","pricing_plan_id":"free"},{"bike_id":"68d54718-d320-436d-abe4-458a7d078fc6","system_id":"levelo_inurba_marseille","lat":43.29777,"lon":5.39332,"is_reserved":false,"is_disabled":false,"rental_uris":{"android":"levelo://app?vid=68d54718-d320-436d-abe4-458a7d078fc6","ios":"levelo://app?vid=68d54718-d320-436d-abe4-458a7d078fc6"},"vehicle_type_id":"4","last_reported":1705435690,"current_range_meters":21600,"station_id":"chh1huq6cuj3fo74tm60","pricing_plan_id":"free"},{"bike_id":"7c64a78d-cf44-415c-a807-707bdbdb0e66","system_id":"levelo_inurba_marseille","lat":43.33023,"lon":5.39029,"is_reserved":false,"is_disabled":false,"rental_uris":{"android":"levelo://app?vid=7c64a78d-cf44-415c-a807-707bdbdb0e66","ios":"levelo://app?vid=7c64a78d-cf44-415c-a807-707bdbdb0e66"},"vehicle_type_id":"4","last_reported":1705435690,"current_range_meters":800,"station_id":"ce4bhr92rcd13ifvqhrg","pricing_plan_id":"free"},{"bike_id":"226bb269-1d10-4f64-bdf3-296d273ae135","system_id":"levelo_inurba_marseille","lat":43.3302,"lon":5.39036,"is_reserved":false,"is_disabled":false,"rental_uris":{"android":"levelo://app?vid=226bb269-1d10-4f64-bdf3-296d273ae135","ios":"levelo://app?vid=226bb269-1d10-4f64-bdf3-296d273ae135"},"vehicle_type_id":"4","last_reported":1705435690,"current_range_meters":0,"station_id":"ce4bhr92rcd13ifvqhrg","pricing_plan_id":"free"},{"bike_id":"9c65c96f-ebbd-40af-a74a-0db8f635ac41","system_id":"levelo_inurba_marseille","lat":43.33023,"lon":5.39045,"is_reserved":false,"is_disabled":false,"rental_uris":{"android":"levelo://app?vid=9c65c96f-ebbd-40af-a74a-0db8f635ac41","ios":"levelo://app?vid=9c65c96f-ebbd-40af-a74a-0db8f635ac41"},"vehicle_type_id":"4","last_reported":1705435690,"current_range_meters":9600,"station_id":"ce4bhr92rcd13ifvqhrg","pricing_plan_id":"free"},{"bike_id":"e46b1640-809a-4e00-a8d4-9686c408ea1f","system_id":"levelo_inurba_marseille","lat":43.295169,"lon":5.390426,"is_reserved":false,"is_disabled":false,"rental_uris":{"android":"levelo://app?vid=e46b1640-809a-4e00-a8d4-9686c408ea1f","ios":"levelo://app?vid=e46b1640-809a-4e00-a8d4-9686c408ea1f"},"vehicle_type_id":"4","last_reported":1705435690,"current_range_meters":14400,"station_id":"ce4bh3p2rcd13ifvqdp0","pricing_plan_id":"free"},{"bike_id":"39519b3a-bcaa-4c2f-a91d-fb3c243035de","system_id":"levelo_inurba_marseille","lat":43.330442,"lon":5.389148,"is_reserved":false,"is_disabled":false,"rental_uris":{"android":"levelo://app?vid=39519b3a-bcaa-4c2f-a91d-fb3c243035de","ios":"levelo://app?vid=39519b3a-bcaa-4c2f-a91d-fb3c243035de"},"vehicle_type_id":"4","last_reported":1705435690,"current_range_meters":0,"station_id":"ce4bhr92rcd13ifvqhrg","pricing_plan_id":"free"},{"bike_id":"0dbbe99a-758c-424d-b19f-cbaa18c32977","system_id":"levelo_inurba_marseille","lat":43.33026,"lon":5.39042,"is_reserved":false,"is_disabled":false,"rental_uris":{"android":"levelo://app?vid=0dbbe99a-758c-424d-b19f-cbaa18c32977","ios":"levelo://app?vid=0dbbe99a-758c-424d-b19f-cbaa18c32977"},"vehicle_type_id":"4","last_reported":1705435690,"current_range_meters":0,"station_id":"ce4bhr92rcd13ifvqhrg","pricing_plan_id":"free"},{"bike_id":"942f7412-ae3a-4b0c-ba15-a3ecc5b4bba7","system_id":"levelo_inurba_marseille","lat":43.330442,"lon":5.389148,"is_reserved":false,"is_disabled":false,"rental_uris":{"android":"levelo://app?vid=942f7412-ae3a-4b0c-ba15-a3ecc5b4bba7","ios":"levelo://app?vid=942f7412-ae3a-4b0c-ba15-a3ecc5b4bba7"},"vehicle_type_id":"4","last_reported":1705435690,"current_range_meters":7600,"station_id":"ce4bhr92rcd13ifvqhrg","pricing_plan_id":"free"},{"bike_id":"a2e41e28-cdf8-45ff-b1f3-5774fc9e5d5d","system_id":"levelo_inurba_marseille","lat":43.330442,"lon":5.389148,"is_reserved":false,"is_disabled":false,"rental_uris":{"android":"levelo://app?vid=a2e41e28-cdf8-45ff-b1f3-5774fc9e5d5d","ios":"levelo://app?vid=a2e41e28-cdf8-45ff-b1f3-5774fc9e5d5d"},"vehicle_type_id":"4","last_reported":1705435690,"current_range_meters":12800,"station_id":"ce4bhr92rcd13ifvqhrg","pricing_plan_id":"free"},{"bike_id":"03d574a9-71c3-4ffa-9eb0-1df72c6fdb4f","system_id":"levelo_inurba_marseille","lat":43.2901,"lon":5.381269,"is_reserved":false,"is_disabled":false,"rental_uris":{"android":"levelo://app?vid=03d574a9-71c3-4ffa-9eb0-1df72c6fdb4f","ios":"levelo://app?vid=03d574a9-71c3-4ffa-9eb0-1df72c6fdb4f"},"vehicle_type_id":"4","last_reported":1705435690,"current_range_meters":8000,"station_id":"ce4bh4p2rcd13ifvqe1g","pricing_plan_id":"free"},{"bike_id":"44a584ac-3f82-4b76-be7d-3d41d0190cd5","system_id":"levelo_inurba_marseille","lat":43.290094,"lon":5.381264,"is_reserved":false,"is_disabled":false,"rental_uris":{"android":"levelo://app?vid=44a584ac-3f82-4b76-be7d-3d41d0190cd5","ios":"levelo://app?vid=44a584ac-3f82-4b76-be7d-3d41d0190cd5"},"vehicle_type_id":"4","last_reported":1705435690,"current_range_meters":5200,"station_id":"ce4bh4p2rcd13ifvqe1g","pricing_plan_id":"free"},{"bike_id":"d73440dc-c778-477a-ae11-26fe0bc647a0","system_id":"levelo_inurba_marseille","lat":43.28856,"lon":5.358371,"is_reserved":false,"is_disabled":false,"rental_uris":{"android":"levelo://app?vid=d73440dc-c778-477a-ae11-26fe0bc647a0","ios":"levelo://app?vid=d73440dc-c778-477a-ae11-26fe0bc647a0"},"vehicle_type_id":"4","last_reported":1705435690,"current_range_meters":31600,"station_id":"ce4bhb12rcd13ifvqem0","pricing_plan_id":"free"},{"bike_id":"65e7b406-3211-4b71-a8b2-61a0e7890960","system_id":"levelo_inurba_marseille","lat":43.28856,"lon":5.358371,"is_reserved":false,"is_disabled":false,"rental_uris":{"android":"levelo://app?vid=65e7b406-3211-4b71-a8b2-61a0e7890960","ios":"levelo://app?vid=65e7b406-3211-4b71-a8b2-61a0e7890960"},"vehicle_type_id":"4","last_reported":1705435690,"current_range_meters":31600,"station_id":"ce4bhb12rcd13ifvqem0","pricing_plan_id":"free"},{"bike_id":"1e61b843-c9e6-4324-a37a-7aa88910fab6","system_id":"levelo_inurba_marseille","lat":43.28856,"lon":5.358371,"is_reserved":false,"is_disabled":false,"rental_uris":{"android":"levelo://app?vid=1e61b843-c9e6-4324-a37a-7aa88910fab6","ios":"levelo://app?vid=1e61b843-c9e6-4324-a37a-7aa88910fab6"},"vehicle_type_id":"4","last_reported":1705435690,"current_range_meters":10400,"station_id":"ce4bhb12rcd13ifvqem0","pricing_plan_id":"free"},{"bike_id":"7c15f66c-26cd-4814-85ba-37b06fc5fc0c","system_id":"levelo_inurba_marseille","lat":43.312609,"lon":5.401662,"is_reserved":false,"is_disabled":false,"rental_uris":{"android":"levelo://app?vid=7c15f66c-26cd-4814-85ba-37b06fc5fc0c","ios":"levelo://app?vid=7c15f66c-26cd-4814-85ba-37b06fc5fc0c"},"vehicle_type_id":"4","last_reported":1705435690,"current_range_meters":8000,"station_id":"ce4bh092rcd13ifvqd30","pricing_plan_id":"free"},{"bike_id":"034a1c99-1b20-444e-b820-d600efc95777","system_id":"levelo_inurba_marseille","lat":43.312609,"lon":5.401662,"is_reserved":false,"is_disabled":false,"rental_uris":{"android":"levelo://app?vid=034a1c99-1b20-444e-b820-d600efc95777","ios":"levelo://app?vid=034a1c99-1b20-444e-b820-d600efc95777"},"vehicle_type_id":"4","last_reported":1705435690,"current_range_meters":9200,"station_id":"ce4bh092rcd13ifvqd30","pricing_plan_id":"free"},{"bike_id":"52b41780-2eb8-4c65-a29b-79544b738b63","system_id":"levelo_inurba_marseille","lat":43.309371,"lon":5.401449,"is_reserved":false,"is_disabled":false,"rental_uris":{"android":"levelo://app?vid=52b41780-2eb8-4c65-a29b-79544b738b63","ios":"levelo://app?vid=52b41780-2eb8-4c65-a29b-79544b738b63"},"vehicle_type_id":"4","last_reported":1705435690,"current_range_meters":17600,"station_id":"ce4bgvp2rcd13ifvqct0","pricing_plan_id":"free"},{"bike_id":"2ffe6a10-8360-4eb3-8853-e5a93b2756e8","system_id":"levelo_inurba_marseille","lat":43.31281,"lon":5.40171,"is_reserved":false,"is_disabled":false,"rental_uris":{"android":"levelo://app?vid=2ffe6a10-8360-4eb3-8853-e5a93b2756e8","ios":"levelo://app?vid=2ffe6a10-8360-4eb3-8853-e5a93b2756e8"},"vehicle_type_id":"4","last_reported":1705435690,"current_range_meters":20000,"station_id":"ce4bh092rcd13ifvqd30","pricing_plan_id":"free"},{"bike_id":"e66bd384-83a2-44c3-8224-a805f8b6f353","system_id":"levelo_inurba_marseille","lat":43.309371,"lon":5.401449,"is_reserved":false,"is_disabled":false,"rental_uris":{"android":"levelo://app?vid=e66bd384-83a2-44c3-8224-a805f8b6f353","ios":"levelo://app?vid=e66bd384-83a2-44c3-8224-a805f8b6f353"},"vehicle_type_id":"4","last_reported":1705435690,"current_range_meters":22000,"station_id":"ce4bgvp2rcd13ifvqct0","pricing_plan_id":"free"},{"bike_id":"2c654108-f3bf-462d-a5ab-344b0d6fb200","system_id":"levelo_inurba_marseille","lat":43.309371,"lon":5.401449,"is_reserved":false,"is_disabled":false,"rental_uris":{"android":"levelo://app?vid=2c654108-f3bf-462d-a5ab-344b0d6fb200","ios":"levelo://app?vid=2c654108-f3bf-462d-a5ab-344b0d6fb200"},"vehicle_type_id":"4","last_reported":1705435690,"current_range_meters":25200,"station_id":"ce4bgvp2rcd13ifvqct0","pricing_plan_id":"free"},{"bike_id":"64016753-7520-43df-8784-0e657c3cebbd","system_id":"levelo_inurba_marseille","lat":43.309371,"lon":5.401449,"is_reserved":false,"is_disabled":false,"rental_uris":{"android":"levelo://app?vid=64016753-7520-43df-8784-0e657c3cebbd","ios":"levelo://app?vid=64016753-7520-43df-8784-0e657c3cebbd"},"vehicle_type_id":"4","last_reported":1705435690,"current_range_meters":10400,"station_id":"ce4bgvp2rcd13ifvqct0","pricing_plan_id":"free"},{"bike_id":"b3bbbd8c-fefe-497f-856b-63a38c08d7c8","system_id":"levelo_inurba_marseille","lat":43.309371,"lon":5.401449,"is_reserved":false,"is_disabled":false,"rental_uris":{"android":"levelo://app?vid=b3bbbd8c-fefe-497f-856b-63a38c08d7c8","ios":"levelo://app?vid=b3bbbd8c-fefe-497f-856b-63a38c08d7c8"},"vehicle_type_id":"4","last_reported":1705435690,"current_range_meters":7200,"station_id":"ce4bgvp2rcd13ifvqct0","pricing_plan_id":"free"},{"bike_id":"6cf59400-ad10-4113-ab47-fa70bf347c08","system_id":"levelo_inurba_marseille","lat":43.30642,"lon":5.401031,"is_reserved":false,"is_disabled":false,"rental_uris":{"android":"levelo://app?vid=6cf59400-ad10-4113-ab47-fa70bf347c08","ios":"levelo://app?vid=6cf59400-ad10-4113-ab47-fa70bf347c08"},"vehicle_type_id":"4","last_reported":1705435690,"current_range_meters":16000,"station_id":"ce4bh112rcd13ifvqda0","pricing_plan_id":"free"},{"bike_id":"146aac50-65c7-43fc-985c-12ecb77df9da","system_id":"levelo_inurba_marseille","lat":43.306412,"lon":5.401035,"is_reserved":false,"is_disabled":false,"rental_uris":{"android":"levelo://app?vid=146aac50-65c7-43fc-985c-12ecb77df9da","ios":"levelo://app?vid=146aac50-65c7-43fc-985c-12ecb77df9da"},"vehicle_type_id":"4","last_reported":1705435690,"current_range_meters":24800,"station_id":"ce4bh112rcd13ifvqda0","pricing_plan_id":"free"},{"bike_id":"bb76ecde-246d-4169-83e4-84c1344c4299","system_id":"levelo_inurba_marseille","lat":43.301117,"lon":5.398795,"is_reserved":false,"is_disabled":false,"rental_uris":{"android":"levelo://app?vid=bb76ecde-246d-4169-83e4-84c1344c4299","ios":"levelo://app?vid=bb76ecde-246d-4169-83e4-84c1344c4299"},"vehicle_type_id":"4","last_reported":1705435690,"current_range_meters":24400,"station_id":"ce4bh0h2rcd13ifvqd40","pricing_plan_id":"free"},{"bike_id":"99ea0d81-fb08-4e0e-9864-60e94991d0cd","system_id":"levelo_inurba_marseille","lat":43.301117,"lon":5.398795,"is_reserved":false,"is_disabled":false,"rental_uris":{"android":"levelo://app?vid=99ea0d81-fb08-4e0e-9864-60e94991d0cd","ios":"levelo://app?vid=99ea0d81-fb08-4e0e-9864-60e94991d0cd"},"vehicle_type_id":"4","last_reported":1705435690,"current_range_meters":23600,"station_id":"ce4bh0h2rcd13ifvqd40","pricing_plan_id":"free"},{"bike_id":"b250d6cc-ac95-4148-bb9c-058f86e5ac1b","system_id":"levelo_inurba_marseille","lat":43.30469,"lon":5.40061,"is_reserved":false,"is_disabled":false,"rental_uris":{"android":"levelo://app?vid=b250d6cc-ac95-4148-bb9c-058f86e5ac1b","ios":"levelo://app?vid=b250d6cc-ac95-4148-bb9c-058f86e5ac1b"},"vehicle_type_id":"4","last_reported":1705435690,"current_range_meters":23200,"station_id":"","pricing_plan_id":"free"},{"bike_id":"39f36516-97f1-4045-96c8-bbce33f58a4f","system_id":"levelo_inurba_marseille","lat":43.28727,"lon":5.36078,"is_reserved":false,"is_disabled":false,"rental_uris":{"android":"levelo://app?vid=39f36516-97f1-4045-96c8-bbce33f58a4f","ios":"levelo://app?vid=39f36516-97f1-4045-96c8-bbce33f58a4f"},"vehicle_type_id":"4","last_reported":1705435690,"current_range_meters":18800,"station_id":"cki0cbj6b192h4jlfktg","pricing_plan_id":"free"},{"bike_id":"f6c35de7-f33a-4251-a341-a1890e7c9944","system_id":"levelo_inurba_marseille","lat":43.28727,"lon":5.36078,"is_reserved":false,"is_disabled":false,"rental_uris":{"android":"levelo://app?vid=f6c35de7-f33a-4251-a341-a1890e7c9944","ios":"levelo://app?vid=f6c35de7-f33a-4251-a341-a1890e7c9944"},"vehicle_type_id":"4","last_reported":1705435690,"current_range_meters":3200,"station_id":"cki0cbj6b192h4jlfktg","pricing_plan_id":"free"},{"bike_id":"74cb371d-da1f-4b4f-a464-5b6f3aea1ed8","system_id":"levelo_inurba_marseille","lat":43.301117,"lon":5.398795,"is_reserved":false,"is_disabled":false,"rental_uris":{"android":"levelo://app?vid=74cb371d-da1f-4b4f-a464-5b6f3aea1ed8","ios":"levelo://app?vid=74cb371d-da1f-4b4f-a464-5b6f3aea1ed8"},"vehicle_type_id":"4","last_reported":1705435690,"current_range_meters":10800,"station_id":"ce4bh0h2rcd13ifvqd40","pricing_plan_id":"free"},{"bike_id":"d67ae179-a81b-4b2d-b208-60a16053446e","system_id":"levelo_inurba_marseille","lat":43.298681,"lon":5.397225,"is_reserved":false,"is_disabled":false,"rental_uris":{"android":"levelo://app?vid=d67ae179-a81b-4b2d-b208-60a16053446e","ios":"levelo://app?vid=d67ae179-a81b-4b2d-b208-60a16053446e"},"vehicle_type_id":"4","last_reported":1705435690,"current_range_meters":4000,"station_id":"ce4bh0h2rcd13ifvqd50","pricing_plan_id":"free"},{"bike_id":"14948be3-0cb0-4b54-99e7-34f42cae5207","system_id":"levelo_inurba_marseille","lat":43.298681,"lon":5.397225,"is_reserved":false,"is_disabled":false,"rental_uris":{"android":"levelo://app?vid=14948be3-0cb0-4b54-99e7-34f42cae5207","ios":"levelo://app?vid=14948be3-0cb0-4b54-99e7-34f42cae5207"},"vehicle_type_id":"4","last_reported":1705435690,"current_range_meters":23600,"station_id":"ce4bh0h2rcd13ifvqd50","pricing_plan_id":"free"},{"bike_id":"ff85328e-49c9-40ee-bf3d-c3fef4779fa4","system_id":"levelo_inurba_marseille","lat":43.29872,"lon":5.397271,"is_reserved":false,"is_disabled":false,"rental_uris":{"android":"levelo://app?vid=ff85328e-49c9-40ee-bf3d-c3fef4779fa4","ios":"levelo://app?vid=ff85328e-49c9-40ee-bf3d-c3fef4779fa4"},"vehicle_type_id":"4","last_reported":1705435690,"current_range_meters":31200,"station_id":"ce4bh0h2rcd13ifvqd50","pricing_plan_id":"free"},{"bike_id":"48dd445a-1b2f-405d-89c2-897eb1bdcf79","system_id":"levelo_inurba_marseille","lat":43.298732,"lon":5.397299,"is_reserved":false,"is_disabled":false,"rental_uris":{"android":"levelo://app?vid=48dd445a-1b2f-405d-89c2-897eb1bdcf79","ios":"levelo://app?vid=48dd445a-1b2f-405d-89c2-897eb1bdcf79"},"vehicle_type_id":"4","last_reported":1705435690,"current_range_meters":10400,"station_id":"ce4bh0h2rcd13ifvqd50","pricing_plan_id":"free"},{"bike_id":"15754fb9-fd1b-494c-a9ed-a48041cf5e87","system_id":"levelo_inurba_marseille","lat":43.286961,"lon":5.373785,"is_reserved":false,"is_disabled":false,"rental_uris":{"android":"levelo://app?vid=15754fb9-fd1b-494c-a9ed-a48041cf5e87","ios":"levelo://app?vid=15754fb9-fd1b-494c-a9ed-a48041cf5e87"},"vehicle_type_id":"4","last_reported":1705435690,"current_range_meters":8400,"station_id":"ce4bh3p2rcd13ifvqdq0","pricing_plan_id":"free"},{"bike_id":"bbe33a8d-e5e2-481e-af9a-127c13de04ca","system_id":"levelo_inurba_marseille","lat":43.287031,"lon":5.373823,"is_reserved":false,"is_disabled":false,"rental_uris":{"android":"levelo://app?vid=bbe33a8d-e5e2-481e-af9a-127c13de04ca","ios":"levelo://app?vid=bbe33a8d-e5e2-481e-af9a-127c13de04ca"},"vehicle_type_id":"4","last_reported":1705435690,"current_range_meters":2800,"station_id":"ce4bh3p2rcd13ifvqdq0","pricing_plan_id":"free"},{"bike_id":"e8e984c1-a948-4387-af48-a21e4f7020be","system_id":"levelo_inurba_marseille","lat":43.298681,"lon":5.397225,"is_reserved":false,"is_disabled":false,"rental_uris":{"android":"levelo://app?vid=e8e984c1-a948-4387-af48-a21e4f7020be","ios":"levelo://app?vid=e8e984c1-a948-4387-af48-a21e4f7020be"},"vehicle_type_id":"4","last_reported":1705435690,"current_range_meters":11200,"station_id":"ce4bh0h2rcd13ifvqd50","pricing_plan_id":"free"},{"bike_id":"ec121a7e-d48f-4868-81c9-ead89165b99d","system_id":"levelo_inurba_marseille","lat":43.286591,"lon":5.363346,"is_reserved":false,"is_disabled":false,"rental_uris":{"android":"levelo://app?vid=ec121a7e-d48f-4868-81c9-ead89165b99d","ios":"levelo://app?vid=ec121a7e-d48f-4868-81c9-ead89165b99d"},"vehicle_type_id":"4","last_reported":1705435690,"current_range_meters":26800,"station_id":"ce4bhah2rcd13ifvqej0","pricing_plan_id":"free"},{"bike_id":"baaa29f7-0241-4276-a942-4201b7824f07","system_id":"levelo_inurba_marseille","lat":43.286593,"lon":5.363346,"is_reserved":false,"is_disabled":false,"rental_uris":{"android":"levelo://app?vid=baaa29f7-0241-4276-a942-4201b7824f07","ios":"levelo://app?vid=baaa29f7-0241-4276-a942-4201b7824f07"},"vehicle_type_id":"4","last_reported":1705435690,"current_range_meters":16400,"station_id":"ce4bhah2rcd13ifvqej0","pricing_plan_id":"free"},