{"last_updated":1770934829,"ttl":60,"version":"2.2","data":{"bikes":[{"bike_id":"d96f1086-8d9b-4b38-8774-136993319875","system_id":"levelo_inurba_marseille","lat":43.24649,"lon":5.38909,"is_reserved":false,"is_disabled":false,"rental_uris":{"android":"levelo://app?vid=d96f1086-8d9b-4b38-8774-136993319875","ios":"levelo://app?vid=d96f1086-8d9b-4b38-8774-136993319875"},"vehicle_type_id":"4","last_reported":1770934830,"current_range_meters":27200,"station_id":"ce4bhg12rcd13ifvqf60","pricing_plan_id":"cebpf4jnsgd1na2vs0mg"},{"bike_id":"c5571452-c3a9-4836-8b2a-9d93f59b5759","system_id":"levelo_inurba_marseille","lat":43.28476,"lon":5.48404,"is_reserved":false,"is_disabled":false,"rental_uris":{"android":"levelo://app?vid=c5571452-c3a9-4836-8b2a-9d93f59b5759","ios":"levelo://app?vid=c5571452-c3a9-4836-8b2a-9d93f59b5759"},"vehicle_type_id":"4","last_reported":1770934830,"current_range_meters":13600,"station_id":"st_d3svhcjqgbts73a3dn0g","pricing_plan_id":"cebpf4jnsgd1na2vs0mg"},{"bike_id":"597ba019-6a14-4724-bfeb-cc559411f270","system_id":"levelo_inurba_marseille","lat":43.27617,"lon":5.36106,"is_reserved":false,"is_disabled":false,"rental_uris":{"android":"levelo://app?vid=597ba019-6a14-4724-bfeb-cc559411f270","ios":"levelo://app?vid=597ba019-6a14-4724-bfeb-cc559411f270"},"vehicle_type_id":"4","last_reported":1770934830,"current_range_meters":39200,"station_id":"ce4bgj92rcd13ifvqbe0","pricing_plan_id":"cebpf4jnsgd1na2vs0mg"},{"bike_id":"cae5d7b8-a305-40f3-9370-99b76e22c33d","system_id":"levelo_inurba_marseille","lat":43.28146,"lon":5.42641,"is_reserved":false,"is_disabled":false,"rental_uris":{"android":"levelo://app?vid=cae5d7b8-a305-40f3-9370-99b76e22c33d","ios":"levelo://app?vid=cae5d7b8-a305-40f3-9370-99b76e22c33d"},"vehicle_type_id":"4","last_reported":1770934830,"current_range_meters":34000,"station_id":"ce4bhnh2rcd13ifvqgug","pricing_plan_id":"cebpf4jnsgd1na2vs0mg"},{"bike_id":"16b6a5c1-5836-4824-afce-dc154cffff82","system_id":"levelo_inurba_marseille","lat":43.312735,"lon":5.40173,"is_reserved":false,"is_disabled":false,"rental_uris":{"android":"levelo://app?vid=16b6a5c1-5836-4824-afce-dc154cffff82","ios":"levelo://app?vid=16b6a5c1-5836-4824-afce-dc154cffff82"},"vehicle_type_id":"4","last_reported":1770934830,"current_range_meters":18800,"station_id":"ce4bh092rcd13ifvqd30","pricing_plan_id":"cebpf4jnsgd1na2vs0mg"},{"bike_id":"fc148e1b-2eeb-4bb0-8155-e98e097f71ae","system_id":"levelo_inurba_marseille","lat":43.28329,"lon":5.38976,"is_reserved":false,"is_disabled":false,"rental_uris":{"android":"levelo://app?vid=fc148e1b-2eeb-4bb0-8155-e98e097f71ae","ios":"levelo://app?vid=fc148e1b-2eeb-4bb0-8155-e98e097f71ae"},"vehicle_type_id":"4","last_reported":1770934830,"current_range_meters":30000,"station_id":"","pricing_plan_id":"cebpf4jnsgd1na2vs0mg"},{"bike_id":"007dd422-bd9c-4750-828e-10e5b1290676","system_id":"levelo_inurba_marseille","lat":43.28616,"lon":5.38929,"is_reserved":false,"is_disabled":false,"rental_uris":{"android":"levelo://app?vid=007dd422-bd9c-4750-828e-10e5b1290676","ios":"levelo://app?vid=007dd422-bd9c-4750-828e-10e5b1290676"},"vehicle_type_id":"4","last_reported":1770934830,"current_range_meters":27600,"station_id":"","pricing_plan_id":"cebpf4jnsgd1na2vs0mg"},{"bike_id":"b4ed104e-788d-4b33-aad1-d33937fae292","system_id":"levelo_inurba_marseille","lat":43.28944,"lon":5.39634,"is_reserved":false,"is_disabled":true,"rental_uris":{"android":"levelo://app?vid=b4ed104e-788d-4b33-aad1-d33937fae292","ios":"levelo://app?vid=b4ed104e-788d-4b33-aad1-d33937fae292"},"vehicle_type_id":"4","last_reported":1770934830,"current_range_meters":30000,"station_id":"ce4bh3h2rcd13ifvqdn0","pricing_plan_id":"cebpf4jnsgd1na2vs0mg"},{"bike_id":"022767c9-f523-4ead-b102-658b025cab8d","system_id":"levelo_inurba_marseille","lat":43.24805,"lon":5.37467,"is_reserved":false,"is_disabled":false,"rental_uris":{"android":"levelo://app?vid=022767c9-f523-4ead-b102-658b025cab8d","ios":"levelo://app?vid=022767c9-f523-4ead-b102-658b025cab8d"},"vehicle_type_id":"4","last_reported":1770934830,"current_range_meters":38800,"station_id":"ce4bhgh2rcd13ifvqfb0","pricing_plan_id":"cebpf4jnsgd1na2vs0mg"},{"bike_id":"c846e3b6-4824-4a07-9aea-802b0ace4a02","system_id":"levelo_inurba_marseille","lat":43.27967,"lon":5.38727,"is_reserved":false,"is_disabled":false,"rental_uris":{"android":"levelo://app?vid=c846e3b6-4824-4a07-9aea-802b0ace4a02","ios":"levelo://app?vid=c846e3b6-4824-4a07-9aea-802b0ace4a02"},"vehicle_type_id":"4","last_reported":1770934830,"current_range_meters":25200,"station_id":"ce4bhg12rcd13ifvqf80","pricing_plan_id":"cebpf4jnsgd1na2vs0mg"},{"bike_id":"c4642fce-6679-473d-841d-309d722b18fd","system_id":"levelo_inurba_marseille","lat":43.295868,"lon":5.367356,"is_reserved":false,"is_disabled":false,"rental_uris":{"android":"levelo://app?vid=c4642fce-6679-473d-841d-309d722b18fd","ios":"levelo://app?vid=c4642fce-6679-473d-841d-309d722b18fd"},"vehicle_type_id":"4","last_reported":1770934830,"current_range_meters":36800,"station_id":"ce4bgph2rcd13ifvqc2g","pricing_plan_id":"cebpf4jnsgd1na2vs0mg"},{"bike_id":"245d8399-0abe-420d-bc4b-93336612c814","system_id":"levelo_inurba_marseille","lat":43.25869,"lon":5.398953,"is_reserved":false,"is_disabled":false,"rental_uris":{"android":"levelo://app?vid=245d8399-0abe-420d-bc4b-93336612c814","ios":"levelo://app?vid=245d8399-0abe-420d-bc4b-93336612c814"},"vehicle_type_id":"4","last_reported":1770934830,"current_range_meters":24400,"station_id":"ce4bhl92rcd13ifvqghg","pricing_plan_id":"cebpf4jnsgd1na2vs0mg"},{"bike_id":"eceb30dd-f202-4183-92b0-f3face85ee0f","system_id":"levelo_inurba_marseille","lat":43.262129,"lon":5.374424,"is_reserved":false,"is_disabled":false,"rental_uris":{"android":"levelo://app?vid=eceb30dd-f202-4183-92b0-f3face85ee0f","ios":"levelo://app?vid=eceb30dd-f202-4183-92b0-f3face85ee0f"},"vehicle_type_id":"4","last_reported":1770934830,"current_range_meters":12400,"station_id":"ce4bhgp2rcd13ifvqfc0","pricing_plan_id":"cebpf4jnsgd1na2vs0mg"},{"bike_id":"8db296e1-6b6a-4c6d-8f82-f43c21884e25","system_id":"levelo_inurba_marseille","lat":43.33008,"lon":5.39061,"is_reserved":false,"is_disabled":false,"rental_uris":{"android":"levelo://app?vid=8db296e1-6b6a-4c6d-8f82-f43c21884e25","ios":"levelo://app?vid=8db296e1-6b6a-4c6d-8f82-f43c21884e25"},"vehicle_type_id":"4","last_reported":1770934830,"current_range_meters":15200,"station_id":"ce4bhr92rcd13ifvqhrg","pricing_plan_id":"cebpf4jnsgd1na2vs0mg"},{"bike_id":"26e1f116-11fa-42b9-928c-4d2fb88853f6","system_id":"levelo_inurba_marseille","lat":43.30205,"lon":5.39491,"is_reserved":false,"is_disabled":false,"rental_uris":{"android":"levelo://app?vid=26e1f116-11fa-42b9-928c-4d2fb88853f6","ios":"levelo://app?vid=26e1f116-11fa-42b9-928c-4d2fb88853f6"},"vehicle_type_id":"4","last_reported":1770934830,"current_range_meters":39200,"station_id":"ce4bh0p2rcd13ifvqd70","pricing_plan_id":"cebpf4jnsgd1na2vs0mg"},{"bike_id":"c57a3473-db26-4825-b0c3-9acd480d89cc","system_id":"levelo_inurba_marseille","lat":43.30741,"lon":5.42441,"is_reserved":false,"is_disabled":false,"rental_uris":{"android":"levelo://app?vid=c57a3473-db26-4825-b0c3-9acd480d89cc","ios":"levelo://app?vid=c57a3473-db26-4825-b0c3-9acd480d89cc"},"vehicle_type_id":"4","last_reported":1770934830,"current_range_meters":20400,"station_id":"st_cvj6ca6bvosntc0bfgr0","pricing_plan_id":"cebpf4jnsgd1na2vs0mg"},{"bike_id":"581a942e-7f4c-4b59-961d-e47e562daab6","system_id":"levelo_inurba_marseille","lat":43.33547,"lon":5.37467,"is_reserved":false,"is_disabled":false,"rental_uris":{"android":"levelo://app?vid=581a942e-7f4c-4b59-961d-e47e562daab6","ios":"levelo://app?vid=581a942e-7f4c-4b59-961d-e47e562daab6"},"vehicle_type_id":"4","last_reported":1770934830,"current_range_meters":28000,"station_id":"st_d46tts09ee8s73dlu43g","pricing_plan_id":"cebpf4jnsgd1na2vs0mg"},{"bike_id":"42ec1b08-4ea1-4b89-8312-7958b7ae7f2e","system_id":"levelo_inurba_marseille","lat":43.29198,"lon":5.39314,"is_reserved":false,"is_disabled":true,"rental_uris":{"android":"levelo://app?vid=42ec1b08-4ea1-4b89-8312-7958b7ae7f2e","ios":"levelo://app?vid=42ec1b08-4ea1-4b89-8312-7958b7ae7f2e"},"vehicle_type_id":"4","last_reported":1770934830,"current_range_meters":24800,"station_id":"ce4bh192rcd13ifvqdd0","pricing_plan_id":"cebpf4jnsgd1na2vs0mg"},{"bike_id":"8bdaefbd-4792-4e98-a33e-13831766efc7","system_id":"levelo_inurba_marseille","lat":43.24673,"lon":5.38149,"is_reserved":false,"is_disabled":false,"rental_uris":{"android":"levelo://app?vid=8bdaefbd-4792-4e98-a33e-13831766efc7","ios":"levelo://app?vid=8bdaefbd-4792-4e98-a33e-13831766efc7"},"vehicle_type_id":"4","last_reported":1770934830,"current_range_meters":16400,"station_id":"ce4bhih2rcd13ifvqfr0","pricing_plan_id":"cebpf4jnsgd1na2vs0mg"},{"bike_id":"375dea6e-9d0d-4201-bab5-e343be855177","system_id":"levelo_inurba_marseille","lat":43.29559,"lon":5.42273,"is_reserved":false,"is_disabled":false,"rental_uris":{"android":"levelo://app?vid=375dea6e-9d0d-4201-bab5-e343be855177","ios":"levelo://app?vid=375dea6e-9d0d-4201-bab5-e343be855177"},"vehicle_type_id":"4","last_reported":1770934830,"current_range_meters":24000,"station_id":"ce4bhph2rcd13ifvqhdg","pricing_plan_id":"cebpf4jnsgd1na2vs0mg"},{"bike_id":"3e3231f6-7f34-4e79-a208-8e160f324ca7","system_id":"levelo_inurba_marseille","lat":43.31128,"lon":5.3776,"is_reserved":false,"is_disabled":false,"rental_uris":{"android":"levelo://app?vid=3e3231f6-7f34-4e79-a208-8e160f324ca7","ios":"levelo://app?vid=3e3231f6-7f34-4e79-a208-8e160f324ca7"},"vehicle_type_id":"4","last_reported":1770934830,"current_range_meters":19200,"station_id":"ce4bgt92rcd13ifvqcg0","pricing_plan_id":"cebpf4jnsgd1na2vs0mg"},{"bike_id":"a4be4eed-32c8-419a-8fa0-bd3decf6c558","system_id":"levelo_inurba_marseille","lat":43.300058,"lon":5.380886,"is_reserved":false,"is_disabled":false,"rental_uris":{"android":"levelo://app?vid=a4be4eed-32c8-419a-8fa0-bd3decf6c558","ios":"levelo://app?vid=a4be4eed-32c8-419a-8fa0-bd3decf6c558"},"vehicle_type_id":"4","last_reported":1770934830,"current_range_meters":25200,"station_id":"ce4bgjp2rcd13ifvqbh0","pricing_plan_id":"cebpf4jnsgd1na2vs0mg"},{"bike_id":"26d9a1ae-d291-40e6-8096-b8afcfa8e6b8","system_id":"levelo_inurba_marseille","lat":43.30887,"lon":5.39657,"is_reserved":false,"is_disabled":false,"rental_uris":{"android":"levelo://app?vid=26d9a1ae-d291-40e6-8096-b8afcfa8e6b8","ios":"levelo://app?vid=26d9a1ae-d291-40e6-8096-b8afcfa8e6b8"},"vehicle_type_id":"4","last_reported":1770934830,"current_range_meters":10000,"station_id":"ce4bh012rcd13ifvqcv0","pricing_plan_id":"cebpf4jnsgd1na2vs0mg"},{"bike_id":"278dfd2b-aebf-40fa-9fa8-af2bf654cb1c","system_id":"levelo_inurba_marseille","lat":43.29161,"lon":5.37162,"is_reserved":false,"is_disabled":false,"rental_uris":{"android":"levelo://app?vid=278dfd2b-aebf-40fa-9fa8-af2bf654cb1c","ios":"levelo://app?vid=278dfd2b-aebf-40fa-9fa8-af2bf654cb1c"},"vehicle_type_id":"4","last_reported":1770934830,"current_range_meters":30800,"station_id":"ce4bha92rcd13ifvqeh0","pricing_plan_id":"cebpf4jnsgd1na2vs0mg"},{"bike_id":"b63675df-139e-4786-ae44-dbe7061c1fdb","system_id":"levelo_inurba_marseille","lat":43.28467,"lon":5.35876,"is_reserved":false,"is_disabled":false,"rental_uris":{"android":"levelo://app?vid=b63675df-139e-4786-ae44-dbe7061c1fdb","ios":"levelo://app?vid=b63675df-139e-4786-ae44-dbe7061c1fdb"},"vehicle_type_id":"4","last_reported":1770934830,"current_range_meters":20000,"station_id":"ce4bhah2rcd13ifvqei0","pricing_plan_id":"cebpf4jnsgd1na2vs0mg"},{"bike_id":"6d22b095-ac89-44fb-a85d-e5f85c2365e2","system_id":"levelo_inurba_marseille","lat":43.32104,"lon":5.36778,"is_reserved":false,"is_disabled":false,"rental_uris":{"android":"levelo://app?vid=6d22b095-ac89-44fb-a85d-e5f85c2365e2","ios":"levelo://app?vid=6d22b095-ac89-44fb-a85d-e5f85c2365e2"},"vehicle_type_id":"4","last_reported":1770934830,"current_range_meters":35600,"station_id":"ce4bhrh2rcd13ifvqhug","pricing_plan_id":"cebpf4jnsgd1na2vs0mg"},{"bike_id":"da6d29e8-9360-4ed3-8562-2408c1cf78c6","system_id":"levelo_inurba_marseille","lat":43.27806,"lon":5.40715,"is_reserved":false,"is_disabled":false,"rental_uris":{"android":"levelo://app?vid=da6d29e8-9360-4ed3-8562-2408c1cf78c6","ios":"levelo://app?vid=da6d29e8-9360-4ed3-8562-2408c1cf78c6"},"vehicle_type_id":"4","last_reported":1770934830,"current_range_meters":19600,"station_id":"ce4bhnh2rcd13ifvqgtg","pricing_plan_id":"cebpf4jnsgd1na2vs0mg"},{"bike_id":"c70613bb-0fb4-4214-9810-e4d4c22df343","system_id":"levelo_inurba_marseille","lat":43.28578,"lon":5.39496,"is_reserved":false,"is_disabled":false,"rental_uris":{"android":"levelo://app?vid=c70613bb-0fb4-4214-9810-e4d4c22df343","ios":"levelo://app?vid=c70613bb-0fb4-4214-9810-e4d4c22df343"},"vehicle_type_id":"4","last_reported":1770934830,"current_range_meters":27600,"station_id":"ce4bh292rcd13ifvqdg0","pricing_plan_id":"cebpf4jnsgd1na2vs0mg"},{"bike_id":"63e5475a-c84d-49cf-b48c-553fbca4bc0e","system_id":"levelo_inurba_marseille","lat":43.28261,"lon":5.35087,"is_reserved":false,"is_disabled":false,"rental_uris":{"android":"levelo://app?vid=63e5475a-c84d-49cf-b48c-553fbca4bc0e","ios":"levelo://app?vid=63e5475a-c84d-49cf-b48c-553fbca4bc0e"},"vehicle_type_id":"4","last_reported":1770934830,"current_range_meters":14000,"station_id":"ce4bhbp2rcd13ifvqerg","pricing_plan_id":"cebpf4jnsgd1na2vs0mg"},{"bike_id":"8b06d2f9-1f63-41aa-a9b1-7b3be7e68ff4","system_id":"levelo_inurba_marseille","lat":43.28274,"lon":5.35074,"is_reserved":false,"is_disabled":false,"rental_uris":{"android":"levelo://app?vid=8b06d2f9-1f63-41aa-a9b1-7b3be7e68ff4","ios":"levelo://app?vid=8b06d2f9-1f63-41aa-a9b1-7b3be7e68ff4"},"vehicle_type_id":"4","last_reported":1770934830,"current_range_meters":19600,"station_id":"ce4bhbp2rcd13ifvqerg","pricing_plan_id":"cebpf4jnsgd1na2vs0mg"},{"bike_id":"f522a37b-7b1a-4bf2-902e-61d1ad81f21a","system_id":"levelo_inurba_marseille","lat":43.31215,"lon":5.36828,"is_reserved":false,"is_disabled":false,"rental_uris":{"android":"levelo://app?vid=f522a37b-7b1a-4bf2-902e-61d1ad81f21a","ios":"levelo://app?vid=f522a37b-7b1a-4bf2-902e-61d1ad81f21a"},"vehicle_type_id":"4","last_reported":1770934830,"current_range_meters":38000,"station_id":"ce4bgl92rcd13ifvqbq0","pricing_plan_id":"cebpf4jnsgd1na2vs0mg"},{"bike_id":"5f8b2072-38eb-4d09-864c-862c31eaae8f","system_id":"levelo_inurba_marseille","lat":43.29261,"lon":5.40902,"is_reserved":false,"is_disabled":false,"rental_uris":{"android":"levelo://app?vid=5f8b2072-38eb-4d09-864c-862c31eaae8f","ios":"levelo://app?vid=5f8b2072-38eb-4d09-864c-862c31eaae8f"},"vehicle_type_id":"4","last_reported":1770934830,"current_range_meters":28000,"station_id":"ce4bh192rcd13ifvqdc0","pricing_plan_id":"cebpf4jnsgd1na2vs0mg"},{"bike_id":"1b6d8643-c48b-4e22-8cc1-448090619047","system_id":"levelo_inurba_marseille","lat":43.29482,"lon":5.38532,"is_reserved":false,"is_disabled":false,"rental_uris":{"android":"levelo://app?vid=1b6d8643-c48b-4e22-8cc1-448090619047","ios":"levelo://app?vid=1b6d8643-c48b-4e22-8cc1-448090619047"},"vehicle_type_id":"4","last_reported":1770934830,"current_range_meters":39200,"station_id":"ce4bgih2rcd13ifvqba0","pricing_plan_id":"cebpf4jnsgd1na2vs0mg"},{"bike_id":"36cb31fe-ac04-417e-bbfd-b099f84a5eca","system_id":"levelo_inurba_marseille","lat":43.32096,"lon":5.36763,"is_reserved":false,"is_disabled":false,"rental_uris":{"android":"levelo://app?vid=36cb31fe-ac04-417e-bbfd-b099f84a5eca","ios":"levelo://app?vid=36cb31fe-ac04-417e-bbfd-b099f84a5eca"},"vehicle_type_id":"4","last_reported":1770934830,"current_range_meters":25200,"station_id":"ce4bhrh2rcd13ifvqhug","pricing_plan_id":"cebpf4jnsgd1na2vs0mg"},{"bike_id":"d7e55b74-244d-40ff-92ca-08279a596dd1","system_id":"levelo_inurba_marseille","lat":43.29908,"lon":5.43665,"is_reserved":false,"is_disabled":false,"rental_uris":{"android":"levelo://app?vid=d7e55b74-244d-40ff-92ca-08279a596dd1","ios":"levelo://app?vid=d7e55b74-244d-40ff-92ca-08279a596dd1"},"vehicle_type_id":"4","last_reported":1770934830,"current_range_meters":38000,"station_id":"ce4bhpp2rcd13ifvqhfg","pricing_plan_id":"cebpf4jnsgd1na2vs0mg"},{"bike_id":"34597344-3517-4161-8c4e-ad3953cc8cfb","system_id":"levelo_inurba_marseille","lat":43.28704,"lon":5.373905,"is_reserved":false,"is_disabled":false,"rental_uris":{"android":"levelo://app?vid=34597344-3517-4161-8c4e-ad3953cc8cfb","ios":"levelo://app?vid=34597344-3517-4161-8c4e-ad3953cc8cfb"},"vehicle_type_id":"4","last_reported":1770934830,"current_range_meters":10000,"station_id":"ce4bh3p2rcd13ifvqdq0","pricing_plan_id":"cebpf4jnsgd1na2vs0mg"},{"bike_id":"6d761bb5-7ab8-45e9-be07-540108f494e4","system_id":"levelo_inurba_marseille","lat":43.26948,"lon":5.40248,"is_reserved":false,"is_disabled":false,"rental_uris":{"android":"levelo://app?vid=6d761bb5-7ab8-45e9-be07-540108f494e4","ios":"levelo://app?vid=6d761bb5-7ab8-45e9-be07-540108f494e4"},"vehicle_type_id":"4","last_reported":1770934830,"current_range_meters":19200,"station_id":"cjm6bp8fraef2m0cb0m0","pricing_plan_id":"cebpf4jnsgd1na2vs0mg"},{"bike_id":"627b5d4d-e9b3-47b0-823f-9926bd41de9a","system_id":"levelo_inurba_marseille","lat":43.30605,"lon":5.37223,"is_reserved":false,"is_disabled":false,"rental_uris":{"android":"levelo://app?vid=627b5d4d-e9b3-47b0-823f-9926bd41de9a","ios":"levelo://app?vid=627b5d4d-e9b3-47b0-823f-9926bd41de9a"},"vehicle_type_id":"4","last_reported":1770934830,"current_range_meters":26000,"station_id":"ce4bgqh2rcd13ifvqc4g","pricing_plan_id":"cebpf4jnsgd1na2vs0mg"},{"bike_id":"16043a8d-73b7-4097-a9bf-9de096bbe7c6","system_id":"levelo_inurba_marseille","lat":43.31528,"lon":5.38041,"is_reserved":false,"is_disabled":false,"rental_uris":{"android":"levelo://app?vid=16043a8d-73b7-4097-a9bf-9de096bbe7c6","ios":"levelo://app?vid=16043a8d-73b7-4097-a9bf-9de096bbe7c6"},"vehicle_type_id":"4","last_reported":1770934830,"current_range_meters":36800,"station_id":"ce4bhsp2rcd13ifvqi50","pricing_plan_id":"cebpf4jnsgd1na2vs0mg"},{"bike_id":"214f5f33-75b1-40c6-a464-49feccf0086f","system_id":"levelo_inurba_marseille","lat":43.2319,"lon":5.39982,"is_reserved":false,"is_disabled":false,"rental_uris":{"android":"levelo://app?vid=214f5f33-75b1-40c6-a464-49feccf0086f","ios":"levelo://app?vid=214f5f33-75b1-40c6-a464-49feccf0086f"},"vehicle_type_id":"4","last_reported":1770934830,"current_range_meters":3200,"station_id":"ce4bhn12rcd13ifvqgqg","pricing_plan_id":"cebpf4jnsgd1na2vs0mg"},{"bike_id":"241b3e74-a71f-4c45-8122-0768114fc5a0","system_id":"levelo_inurba_marseille","lat":43.29857,"lon":5.36272,"is_reserved":false,"is_disabled":false,"rental_uris":{"android":"levelo://app?vid=241b3e74-a71f-4c45-8122-0768114fc5a0","ios":"levelo://app?vid=241b3e74-a71f-4c45-8122-0768114fc5a0"},"vehicle_type_id":"4","last_reported":1770934830,"current_range_meters":39200,"station_id":"ce4bgpp2rcd13ifvqc3g","pricing_plan_id":"cebpf4jnsgd1na2vs0mg"},{"bike_id":"263c3f01-3edb-40a1-83fb-093dde8e9282","system_id":"levelo_inurba_marseille","lat":43.33739,"lon":5.39178,"is_reserved":false,"is_disabled":false,"rental_uris":{"android":"levelo://app?vid=263c3f01-3edb-40a1-83fb-093dde8e9282","ios":"levelo://app?vid=263c3f01-3edb-40a1-83fb-093dde8e9282"},"vehicle_type_id":"4","last_reported":1770934830,"current_range_meters":25600,"station_id":"ce4bhr92rcd13ifvqhsg","pricing_plan_id":"cebpf4jnsgd1na2vs0mg"},{"bike_id":"b8b273a9-ad07-47df-8f89-3ea01ba1e037","system_id":"levelo_inurba_marseille","lat":43.27562,"lon":5.38427,"is_reserved":false,"is_disabled":false,"rental_uris":{"android":"levelo://app?vid=b8b273a9-ad07-47df-8f89-3ea01ba1e037","ios":"levelo://app?vid=b8b273a9-ad07-47df-8f89-3ea01ba1e037"},"vehicle_type_id":"4","last_reported":1770934830,"current_range_meters":36400,"station_id":"ce4bhh92rcd13ifvqfi0","pricing_plan_id":"cebpf4jnsgd1na2vs0mg"},{"bike_id":"f38fccb3-9422-4c98-b4a5-9320cdfa4c27","system_id":"levelo_inurba_marseille","lat":43.28279,"lon":5.3506,"is_reserved":false,"is_disabled":false,"rental_uris":{"android":"levelo://app?vid=f38fccb3-9422-4c98-b4a5-9320cdfa4c27","ios":"levelo://app?vid=f38fccb3-9422-4c98-b4a5-9320cdfa4c27"},"vehicle_type_id":"4","last_reported":1770934830,"current_range_meters":28000,"station_id":"ce4bhbp2rcd13ifvqerg","pricing_plan_id":"cebpf4jnsgd1na2vs0mg"},{"bike_id":"6e2fc0d4-a25b-4469-96ca-042c68399b84","system_id":"levelo_inurba_marseille","lat":43.29045,"lon":5.37138,"is_reserved":false,"is_disabled":false,"rental_uris":{"android":"levelo://app?vid=6e2fc0d4-a25b-4469-96ca-042c68399b84","ios":"levelo://app?vid=6e2fc0d4-a25b-4469-96ca-042c68399b84"},"vehicle_type_id":"4","last_reported":1770934830,"current_range_meters":6000,"station_id":"ce4bh5p2rcd13ifvqe4g","pricing_plan_id":"cebpf4jnsgd1na2vs0mg"},{"bike_id":"6888d293-0d81-4cf8-b7da-18b5fd60abad","system_id":"levelo_inurba_marseille","lat":43.29504,"lon":5.37582,"is_reserved":false,"is_disabled":false,"rental_uris":{"android":"levelo://app?vid=6888d293-0d81-4cf8-b7da-18b5fd60abad","ios":"levelo://app?vid=6888d293-0d81-4cf8-b7da-18b5fd60abad"},"vehicle_type_id":"4","last_reported":1770934830,"current_range_meters":25200,"station_id":"","pricing_plan_id":"cebpf4jnsgd1na2vs0mg"},{"bike_id":"32b27b47-6c8b-49c6-8b48-fbeace627871","system_id":"levelo_inurba_marseille","lat":43.312301,"lon":5.368576,"is_reserved":false,"is_disabled":true,"rental_uris":{"android":"levelo://app?vid=32b27b47-6c8b-49c6-8b48-fbeace627871","ios":"levelo://app?vid=32b27b47-6c8b-49c6-8b48-fbeace627871"},"vehicle_type_id":"4","last_reported":1770934830,"current_range_meters":0,"station_id":"ce4bgl92rcd13ifvqbq0","pricing_plan_id":"cebpf4jnsgd1na2vs0mg"},{"bike_id":"54174f9a-82c6-4185-9348-2931b546c925","system_id":"levelo_inurba_marseille","lat":43.29285,"lon":5.36819,"is_reserved":false,"is_disabled":false,"rental_uris":{"android":"levelo://app?vid=54174f9a-82c6-4185-9348-2931b546c925","ios":"levelo://app?vid=54174f9a-82c6-4185-9348-2931b546c925"},"vehicle_type_id":"4","last_reported":1770934830,"current_range_meters":32800,"station_id":"ce4bhbp2rcd13ifvqesg","pricing_plan_id":"cebpf4jnsgd1na2vs0mg"},{"bike_id":"2dbd83b8-e375-452f-9752-9860724b1b2e","system_id":"levelo_inurba_marseille","lat":43.23193,"lon":5.39977,"is_reserved":false,"is_disabled":false,"rental_uris":{"android":"levelo://app?vid=2dbd83b8-e375-452f-9752-9860724b1b2e","ios":"levelo://app?vid=2dbd83b8-e375-452f-9752-9860724b1b2e"},"vehicle_type_id":"4","last_reported":1770934830,"current_range_meters":24800,"station_id":"ce4bhn12rcd13ifvqgqg","pricing_plan_id":"cebpf4jnsgd1na2vs0mg"},{"bike_id":"a93a13c8-036e-4c71-a80c-bf5cd069a0b6","system_id":"levelo_inurba_marseille","lat":43.28633,"lon":5.35094,"is_reserved":false,"is_disabled":false,"rental_uris":{"android":"levelo://app?vid=a93a13c8-036e-4c71-a80c-bf5cd069a0b6","ios":"levelo://app?vid=a93a13c8-036e-4c71-a80c-bf5cd069a0b6"},"vehicle_type_id":"4","last_reported":1770934830,"current_range_meters":31200,"station_id":"ce4bhch2rcd13ifvqeug","pricing_plan_id":"cebpf4jnsgd1na2vs0mg"},{"bike_id":"48d4a83c-c716-41c6-8fd3-cb0153dd2afb","system_id":"levelo_inurba_marseille","lat":43.31229,"lon":5.36889,"is_reserved":false,"is_disabled":false,"rental_uris":{"android":"levelo://app?vid=48d4a83c-c716-41c6-8fd3-cb0153dd2afb","ios":"levelo://app?vid=48d4a83c-c716-41c6-8fd3-cb0153dd2afb"},"vehicle_type_id":"4","last_reported":1770934830,"current_range_meters":35200,"station_id":"ce4bgl92rcd13ifvqbq0","pricing_plan_id":"cebpf4jnsgd1na2vs0mg"},{"bike_id":"e532d849-9da4-492c-974e-21e564fe6f6a","system_id":"levelo_inurba_marseille","lat":43.3106,"lon":5.3717,"is_reserved":false,"is_disabled":false,"rental_uris":{"android":"levelo://app?vid=e532d849-9da4-492c-974e-21e564fe6f6a","ios":"levelo://app?vid=e532d849-9da4-492c-974e-21e564fe6f6a"},"vehicle_type_id":"4","last_reported":1770934830,"current_range_meters":37600,"station_id":"st_d4kl2rp97mjs73e7tdfg","pricing_plan_id":"cebpf4jnsgd1na2vs0mg"},{"bike_id":"1abbadd6-2e69-43c8-83af-b993d8b481b8","system_id":"levelo_inurba_marseille","lat":43.29955,"lon":5.36525,"is_reserved":false,"is_disabled":false,"rental_uris":{"android":"levelo://app?vid=1abbadd6-2e69-43c8-83af-b993d8b481b8","ios":"levelo://app?vid=1abbadd6-2e69-43c8-83af-b993d8b481b8"},"vehicle_type_id":"4","last_reported":1770934830,"current_range_meters":38400,"station_id":"ce4bgm92rcd13ifvqbr0","pricing_plan_id":"cebpf4jnsgd1na2vs0mg"},{"bike_id":"991c13dc-fd9f-4b28-9c78-fd5b4127837e","system_id":"levelo_inurba_marseille","lat":43.2695,"lon":5.40243,"is_reserved":false,"is_disabled":false,"rental_uris":{"android":"levelo://app?vid=991c13dc-fd9f-4b28-9c78-fd5b4127837e","ios":"levelo://app?vid=991c13dc-fd9f-4b28-9c78-fd5b4127837e"},"vehicle_type_id":"4","last_reported":1770934830,"current_range_meters":40000,"station_id":"cjm6bp8fraef2m0cb0m0","pricing_plan_id":"cebpf4jnsgd1na2vs0mg"},{"bike_id":"603e2fd3-7aea-4ce6-b28e-1e2a09dc79f8","system_id":"levelo_inurba_marseille","lat":43.30126,"lon":5.3986,"is_reserved":false,"is_disabled":false,"rental_uris":{"android":"levelo://app?vid=603e2fd3-7aea-4ce6-b28e-1e2a09dc79f8","ios":"levelo://app?vid=603e2fd3-7aea-4ce6-b28e-1e2a09dc79f8"},"vehicle_type_id":"4","last_reported":1770934830,"current_range_meters":39200,"station_id":"ce4bh0h2rcd13ifvqd40","pricing_plan_id":"cebpf4jnsgd1na2vs0mg"},{"bike_id":"5d6b226c-0296-4bc0-9929-39689db3e4b1","system_id":"levelo_inurba_marseille","lat":43.32107,"lon":5.36761,"is_reserved":false,"is_disabled":false,"rental_uris":{"android":"levelo://app?vid=5d6b226c-0296-4bc0-9929-39689db3e4b1","ios":"levelo://app?vid=5d6b226c-0296-4bc0-9929-39689db3e4b1"},"vehicle_type_id":"4","last_reported":1770934830,"current_range_meters":24000,"station_id":"ce4bhrh2rcd13ifvqhug","pricing_plan_id":"cebpf4jnsgd1na2vs0mg"},{"bike_id":"ab600665-8b5b-4587-9e07-326155f206cd","system_id":"levelo_inurba_marseille","lat":43.30477,"lon":5.37904,"is_reserved":false,"is_disabled":false,"rental_uris":{"android":"levelo://app?vid=ab600665-8b5b-4587-9e07-326155f206cd","ios":"levelo://app?vid=ab600665-8b5b-4587-9e07-326155f206cd"},"vehicle_type_id":"4","last_reported":1770934830,"current_range_meters":38800,"station_id":"ce4bgup2rcd13ifvqcn0","pricing_plan_id":"cebpf4jnsgd1na2vs0mg"},{"bike_id":"9664a5c4-41bd-49a0-bca7-ccecab569b6a","system_id":"levelo_inurba_marseille","lat":43.32037,"lon":5.41533,"is_reserved":false,"is_disabled":false,"rental_uris":{"android":"levelo://app?vid=9664a5c4-41bd-49a0-bca7-ccecab569b6a","ios":"levelo://app?vid=9664a5c4-41bd-49a0-bca7-ccecab569b6a"},"vehicle_type_id":"4","last_reported":1770934830,"current_range_meters":39200,"station_id":"ce4bhq92rcd13ifvqhkg","pricing_plan_id":"cebpf4jnsgd1na2vs0mg"},{"bike_id":"5c8c3d05-5a98-4394-b47e-3e04535ddbbc","system_id":"levelo_inurba_marseille","lat":43.25476,"lon":5.37663,"is_reserved":false,"is_disabled":false,"rental_uris":{"android":"levelo://app?vid=5c8c3d05-5a98-4394-b47e-3e04535ddbbc","ios":"levelo://app?vid=5c8c3d05-5a98-4394-b47e-3e04535ddbbc"},"vehicle_type_id":"4","last_reported":1770934830,"current_range_meters":25200,"station_id":"ce4bhh12rcd13ifvqff0","pricing_plan_id":"cebpf4jnsgd1na2vs0mg"},{"bike_id":"054dfe09-6850-42bc-929a-9e19a7bd09ca","system_id":"levelo_inurba_marseille","lat":43.31117,"lon":5.37769,"is_reserved":false,"is_disabled":false,"rental_uris":{"android":"levelo://app?vid=054dfe09-6850-42bc-929a-9e19a7bd09ca","ios":"levelo://app?vid=054dfe09-6850-42bc-929a-9e19a7bd09ca"},"vehicle_type_id":"4","last_reported":1770934830,"current_range_meters":22400,"station_id":"ce4bgt92rcd13ifvqcg0","pricing_plan_id":"cebpf4jnsgd1na2vs0mg"},{"bike_id":"1666b265-643d-41e7-bcc3-6167a6d49f91","system_id":"levelo_inurba_marseille","lat":43.22531,"lon":5.34828,"is_reserved":false,"is_disabled":false,"rental_uris":{"android":"levelo://app?vid=1666b265-643d-41e7-bcc3-6167a6d49f91","ios":"levelo://app?vid=1666b265-643d-41e7-bcc3-6167a6d49f91"},"vehicle_type_id":"4","last_reported":1770934830,"current_range_meters":7200,"station_id":"","pricing_plan_id":"cebpf4jnsgd1na2vs0mg"},{"bike_id":"7aa1d737-c7e1-4924-929f-d3e70f3e5ed7","system_id":"levelo_inurba_marseille","lat":43.29679,"lon":5.37293,"is_reserved":false,"is_disabled":false,"rental_uris":{"android":"levelo://app?vid=7aa1d737-c7e1-4924-929f-d3e70f3e5ed7","ios":"levelo://app?vid=7aa1d737-c7e1-4924-929f-d3e70f3e5ed7"},"vehicle_type_id":"4","last_reported":1770934830,"current_range_meters":15200,"station_id":"ce4bgk12rcd13ifvqbj0","pricing_plan_id":"cebpf4jnsgd1na2vs0mg"},{"bike_id":"0cef8616-1d65-4182-99dc-824443a67ce0","system_id":"levelo_inurba_marseille","lat":43.24471,"lon":5.42525,"is_reserved":false,"is_disabled":false,"rental_uris":{"android":"levelo://app?vid=0cef8616-1d65-4182-99dc-824443a67ce0","ios":"levelo://app?vid=0cef8616-1d65-4182-99dc-824443a67ce0"},"vehicle_type_id":"4","last_reported":1770934830,"current_range_meters":11600,"station_id":"st_d4a3vfp97mjs738cd8kg","pricing_plan_id":"cebpf4jnsgd1na2vs0mg"},{"bike_id":"5f12005e-04e5-44aa-9036-56a982f265e1","system_id":"levelo_inurba_marseille","lat":43.29222,"lon":5.36045,"is_reserved":false,"is_disabled":false,"rental_uris":{"android":"levelo://app?vid=5f12005e-04e5-44aa-9036-56a982f265e1","ios":"levelo://app?vid=5f12005e-04e5-44aa-9036-56a982f265e1"},"vehicle_type_id":"4","last_reported":1770934830,"current_range_meters":35600,"station_id":"ce4bhbh2rcd13ifvqeqg","pricing_plan_id":"cebpf4jnsgd1na2vs0mg"},{"bike_id":"9eaba793-1048-4356-b61b-744ee2b1ebbc","system_id":"levelo_inurba_marseille","lat":43.29228,"lon":5.36049,"is_reserved":false,"is_disabled":false,"rental_uris":{"android":"levelo://app?vid=9eaba793-1048-4356-b61b-744ee2b1ebbc","ios":"levelo://app?vid=9eaba793-1048-4356-b61b-744ee2b1ebbc"},"vehicle_type_id":"4","last_reported":1770934830,"current_range_meters":36400,"station_id":"ce4bhbh2rcd13ifvqeqg","pricing_plan_id":"cebpf4jnsgd1na2vs0mg"},{"bike_id":"6684f561-c8e5-447e-b2b4-87fceaf4640b","system_id":"levelo_inurba_marseille","lat":43.26574,"lon":5.39029,"is_reserved":false,"is_disabled":false,"rental_uris":{"android":"levelo://app?vid=6684f561-c8e5-447e-b2b4-87fceaf4640b","ios":"levelo://app?vid=6684f561-c8e5-447e-b2b4-87fceaf4640b"},"vehicle_type_id":"4","last_reported":1770934830,"current_range_meters":24000,"station_id":"ce4bhe12rcd13ifvqf30","pricing_plan_id":"cebpf4jnsgd1na2vs0mg"},{"bike_id":"dcad7a76-8b13-4a37-a51a-0437d076ee99","system_id":"levelo_inurba_marseille","lat":43.29276,"lon":5.38427,"is_reserved":false,"is_disabled":false,"rental_uris":{"android":"levelo://app?vid=dcad7a76-8b13-4a37-a51a-0437d076ee99","ios":"levelo://app?vid=dcad7a76-8b13-4a37-a51a-0437d076ee99"},"vehicle_type_id":"4","last_reported":1770934830,"current_range_meters":32000,"station_id":"ce4bh692rcd13ifvqea0","pricing_plan_id":"cebpf4jnsgd1na2vs0mg"},{"bike_id":"705379f0-9f22-461e-8900-3556f13ec82c","system_id":"levelo_inurba_marseille","lat":43.31717,"lon":5.37806,"is_reserved":false,"is_disabled":false,"rental_uris":{"android":"levelo://app?vid=705379f0-9f22-461e-8900-3556f13ec82c","ios":"levelo://app?vid=705379f0-9f22-461e-8900-3556f13ec82c"},"vehicle_type_id":"4","last_reported":1770934830,"current_range_meters":37600,"station_id":"","pricing_plan_id":"cebpf4jnsgd1na2vs0mg"},{"bike_id":"0956e1fc-144a-4d60-ae46-5e1a303cb93e","system_id":"levelo_inurba_marseille","lat":43.2903,"lon":5.39973,"is_reserved":false,"is_disabled":true,"rental_uris":{"android":"levelo://app?vid=0956e1fc-144a-4d60-ae46-5e1a303cb93e","ios":"levelo://app?vid=0956e1fc-144a-4d60-ae46-5e1a303cb93e"},"vehicle_type_id":"4","last_reported":1770934830,"current_range_meters":1200,"station_id":"ce4bh392rcd13ifvqdm0","pricing_plan_id":"cebpf4jnsgd1na2vs0mg"},{"bike_id":"bcad26e7-801b-45a3-9a6f-b11851106eac","system_id":"levelo_inurba_marseille","lat":43.28547,"lon":5.3834,"is_reserved":false,"is_disabled":false,"rental_uris":{"android":"levelo://app?vid=bcad26e7-801b-45a3-9a6f-b11851106eac","ios":"levelo://app?vid=bcad26e7-801b-45a3-9a6f-b11851106eac"},"vehicle_type_id":"4","last_reported":1770934830,"current_range_meters":10000,"station_id":"","pricing_plan_id":"cebpf4jnsgd1na2vs0mg"},{"bike_id":"35e4b27f-bf66-4c05-b34c-6458f1faa95d","system_id":"levelo_inurba_marseille","lat":43.24644,"lon":5.4313,"is_reserved":false,"is_disabled":false,"rental_uris":{"android":"levelo://app?vid=35e4b27f-bf66-4c05-b34c-6458f1faa95d","ios":"levelo://app?vid=35e4b27f-bf66-4c05-b34c-6458f1faa95d"},"vehicle_type_id":"4","last_reported":1770934830,"current_range_meters":28000,"station_id":"st_d2m6c4gdas8pm72e190g","pricing_plan_id":"cebpf4jnsgd1na2vs0mg"},{"bike_id":"6068ab39-5054-4c82-bfb6-3a4eef3bba44","system_id":"levelo_inurba_marseille","lat":43.23165,"lon":5.43729,"is_reserved":false,"is_disabled":false,"rental_uris":{"android":"levelo://app?vid=6068ab39-5054-4c82-bfb6-3a4eef3bba44","ios":"levelo://app?vid=6068ab39-5054-4c82-bfb6-3a4eef3bba44"},"vehicle_type_id":"4","last_reported":1770934830,"current_range_meters":24800,"station_id":"ce4bhmp2rcd13ifvqgog","pricing_plan_id":"cebpf4jnsgd1na2vs0mg"},{"bike_id":"6a92b8bc-e7f3-402d-af32-f7b6befe4be0","system_id":"levelo_inurba_marseille","lat":43.28923,"lon":5.38396,"is_reserved":false,"is_disabled":false,"rental_uris":{"android":"levelo://app?vid=6a92b8bc-e7f3-402d-af32-f7b6befe4be0","ios":"levelo://app?vid=6a92b8bc-e7f3-402d-af32-f7b6befe4be0"},"vehicle_type_id":"4","last_reported":1770934830,"current_range_meters":39200,"station_id":"ce4bh612rcd13ifvqe6g","pricing_plan_id":"cebpf4jnsgd1na2vs0mg"},{"bike_id":"9608066a-cdb2-49b3-a28b-2cea2519cf49","system_id":"levelo_inurba_marseille","lat":43.30511,"lon":5.36521,"is_reserved":false,"is_disabled":false,"rental_uris":{"android":"levelo://app?vid=9608066a-cdb2-49b3-a28b-2cea2519cf49","ios":"levelo://app?vid=9608066a-cdb2-49b3-a28b-2cea2519cf49"},"vehicle_type_id":"4","last_reported":1770934830,"current_range_meters":38400,"station_id":"ce4bgs12rcd13ifvqcag","pricing_plan_id":"cebpf4jnsgd1na2vs0mg"},{"bike_id":"7add6c40-4260-44ba-be97-0842098e9c4e","system_id":"levelo_inurba_marseille","lat":43.24668,"lon":5.38167,"is_reserved":false,"is_disabled":false,"rental_uris":{"android":"levelo://app?vid=7add6c40-4260-44ba-be97-0842098e9c4e","ios":"levelo://app?vid=7add6c40-4260-44ba-be97-0842098e9c4e"},"vehicle_type_id":"4","last_reported":1770934830,"current_range_meters":36800,"station_id":"ce4bhih2rcd13ifvqfr0","pricing_plan_id":"cebpf4jnsgd1na2vs0mg"},{"bike_id":"bb22b417-2211-49a2-8f12-7d2df92428b1","system_id":"levelo_inurba_marseille","lat":43.311808,"lon":5.387109,"is_reserved":false,"is_disabled":false,"rental_uris":{"android":"levelo://app?vid=bb22b417-2211-49a2-8f12-7d2df92428b1","ios":"levelo://app?vid=bb22b417-2211-49a2-8f12-7d2df92428b1"},"vehicle_type_id":"4","last_reported":1770934830,"current_range_meters":38800,"station_id":"ce4bgv12rcd13ifvqcp0","pricing_plan_id":"cebpf4jnsgd1na2vs0mg"},{"bike_id":"65692a0b-6fff-4898-810f-59e1ffae1d1d","system_id":"levelo_inurba_marseille","lat":43.28456,"lon":5.35874,"is_reserved":false,"is_disabled":false,"rental_uris":{"android":"levelo://app?vid=65692a0b-6fff-4898-810f-59e1ffae1d1d","ios":"levelo://app?vid=65692a0b-6fff-4898-810f-59e1ffae1d1d"},"vehicle_type_id":"4","last_reported":1770934830,"current_range_meters":39200,"station_id":"ce4bhah2rcd13ifvqei0","pricing_plan_id":"cebpf4jnsgd1na2vs0mg"},{"bike_id":"ef2a1b2f-fdce-4ea1-b021-62ecc29335bb","system_id":"levelo_inurba_marseille","lat":43.29528,"lon":5.38533,"is_reserved":false,"is_disabled":false,"rental_uris":{"android":"levelo://app?vid=ef2a1b2f-fdce-4ea1-b021-62ecc29335bb","ios":"levelo://app?vid=ef2a1b2f-fdce-4ea1-b021-62ecc29335bb"},"vehicle_type_id":"4","last_reported":1770934830,"current_range_meters":38400,"station_id":"ce4bgih2rcd13ifvqba0","pricing_plan_id":"cebpf4jnsgd1na2vs0mg"},{"bike_id":"b59d9f9b-fec0-4bfc-9f83-31c8ed5f5ebd","system_id":"levelo_inurba_marseille","lat":43.281087,"lon":5.378427,"is_reserved":false,"is_disabled":false,"rental_uris":{"android":"levelo://app?vid=b59d9f9b-fec0-4bfc-9f83-31c8ed5f5ebd","ios":"levelo://app?vid=b59d9f9b-fec0-4bfc-9f83-31c8ed5f5ebd"},"vehicle_type_id":"4","last_reported":1770934830,"current_range_meters":37600,"station_id":"ce4bha12rcd13ifvqee0","pricing_plan_id":"cebpf4jnsgd1na2vs0mg"},{"bike_id":"a18aa286-269e-4963-b039-81f99ce774de","system_id":"levelo_inurba_marseille","lat":43.28844,"lon":5.35849,"is_reserved":false,"is_disabled":false,"rental_uris":{"android":"levelo://app?vid=a18aa286-269e-4963-b039-81f99ce774de","ios":"levelo://app?vid=a18aa286-269e-4963-b039-81f99ce774de"},"vehicle_type_id":"4","last_reported":1770934830,"current_range_meters":9600,"station_id":"ce4bhb12rcd13ifvqem0","pricing_plan_id":"cebpf4jnsgd1na2vs0mg"},{"bike_id":"2707734e-33a5-4bb7-9e75-871e3e06a9a7","system_id":"levelo_inurba_marseille","lat":43.29004,"lon":5.35593,"is_reserved":false,"is_disabled":false,"rental_uris":{"android":"levelo://app?vid=2707734e-33a5-4bb7-9e75-871e3e06a9a7","ios":"levelo://app?vid=2707734e-33a5-4bb7-9e75-871e3e06a9a7"},"vehicle_type_id":"4","last_reported":1770934830,"current_range_meters":12000,"station_id":"ce4bhb92rcd13ifvqen0","pricing_plan_id":"cebpf4jnsgd1na2vs0mg"},{"bike_id":"ac0b6a02-f142-481f-ae2c-756fa64d98fa","system_id":"levelo_inurba_marseille","lat":43.29936,"lon":5.36549,"is_reserved":false,"is_disabled":false,"rental_uris":{"android":"levelo://app?vid=ac0b6a02-f142-481f-ae2c-756fa64d98fa","ios":"levelo://app?vid=ac0b6a02-f142-481f-ae2c-756fa64d98fa"},"vehicle_type_id":"4","last_reported":1770934830,"current_range_meters":24400,"station_id":"ce4bgm92rcd13ifvqbr0","pricing_plan_id":"cebpf4jnsgd1na2vs0mg"},{"bike_id":"01e3a05a-3083-4175-91c1-2026bf669a88","system_id":"levelo_inurba_marseille","lat":43.284108,"lon":5.375194,"is_reserved":false,"is_disabled":true,"rental_uris":{"android":"levelo://app?vid=01e3a05a-3083-4175-91c1-2026bf669a88","ios":"levelo://app?vid=01e3a05a-3083-4175-91c1-2026bf669a88"},"vehicle_type_id":"4","last_reported":1770934830,"current_range_meters":16800,"station_id":"ce4bh412rcd13ifvqds0","pricing_plan_id":"cebpf4jnsgd1na2vs0mg"},{"bike_id":"6a77d0ea-d435-4de7-9919-85676c5866e3","system_id":"levelo_inurba_marseille","lat":43.29986,"lon":5.37182,"is_reserved":false,"is_disabled":false,"rental_uris":{"android":"levelo://app?vid=6a77d0ea-d435-4de7-9919-85676c5866e3","ios":"levelo://app?vid=6a77d0ea-d435-4de7-9919-85676c5866e3"},"vehicle_type_id":"4","last_reported":1770934830,"current_range_meters":38000,"station_id":"ce4bgr92rcd13ifvqc7g","pricing_plan_id":"cebpf4jnsgd1na2vs0mg"},{"bike_id":"8e2a6bdd-3868-4795-80f0-6045872e16c6","system_id":"levelo_inurba_marseille","lat":43.24664,"lon":5.38156,"is_reserved":false,"is_disabled":false,"rental_uris":{"android":"levelo://app?vid=8e2a6bdd-3868-4795-80f0-6045872e16c6","ios":"levelo://app?vid=8e2a6bdd-3868-4795-80f0-6045872e16c6"},"vehicle_type_id":"4","last_reported":1770934830,"current_range_meters":28400,"station_id":"ce4bhih2rcd13ifvqfr0","pricing_plan_id":"cebpf4jnsgd1na2vs0mg"},{"bike_id":"cae3340b-dabf-42ee-b29f-fab64d3e6b2c","system_id":"levelo_inurba_marseille","lat":43.24071,"lon":5.3772,"is_reserved":false,"is_disabled":false,"rental_uris":{"android":"levelo://app?vid=cae3340b-dabf-42ee-b29f-fab64d3e6b2c","ios":"levelo://app?vid=cae3340b-dabf-42ee-b29f-fab64d3e6b2c"},"vehicle_type_id":"4","last_reported":1770934830,"current_range_meters":9200,"station_id":"ce4bhnp2rcd13ifvqgvg","pricing_plan_id":"cebpf4jnsgd1na2vs0mg"},{"bike_id":"098dddf2-ad7a-48ca-8757-7ba47fe6c2f7","system_id":"levelo_inurba_marseille","lat":43.30213,"lon":5.40065,"is_reserved":false,"is_disabled":false,"rental_uris":{"android":"levelo://app?vid=098dddf2-ad7a-48ca-8757-7ba47fe6c2f7","ios":"levelo://app?vid=098dddf2-ad7a-48ca-8757-7ba47fe6c2f7"},"vehicle_type_id":"4","last_reported":1770934830,"current_range_meters":4400,"station_id":"ce4bgvh2rcd13ifvqcs0","pricing_plan_id":"cebpf4jnsgd1na2vs0mg"},{"bike_id":"80275e18-9266-438e-af2b-37f74cb256c2","system_id":"levelo_inurba_marseille","lat":43.29373,"lon":5.37841,"is_reserved":false,"is_disabled":false,"rental_uris":{"android":"levelo://app?vid=80275e18-9266-438e-af2b-37f74cb256c2","ios":"levelo://app?vid=80275e18-9266-438e-af2b-37f74cb256c2"},"vehicle_type_id":"4","last_reported":1770934830,"current_range_meters":35200,"station_id":"ce4bgjh2rcd13ifvqbf0","pricing_plan_id":"cebpf4jnsgd1na2vs0mg"},{"bike_id":"01adf697-a0b1-4672-92f7-51b13b766b4e","system_id":"levelo_inurba_marseille","lat":43.27062,"lon":5.40251,"is_reserved":false,"is_disabled":true,"rental_uris":{"android":"levelo://app?vid=01adf697-a0b1-4672-92f7-51b13b766b4e","ios":"levelo://app?vid=01adf697-a0b1-4672-92f7-51b13b766b4e"},"vehicle_type_id":"4","last_reported":1770934830,"current_range_meters":32400,"station_id":"ce4bhk92rcd13ifvqgc0","pricing_plan_id":"cebpf4jnsgd1na2vs0mg"},{"bike_id":"70adca96-bb6c-4152-966a-66ff8ce4576a","system_id":"levelo_inurba_marseille","lat":43.26517,"lon":5.39557,"is_reserved":false,"is_disabled":false,"rental_uris":{"android":"levelo://app?vid=70adca96-bb6c-4152-966a-66ff8ce4576a","ios":"levelo://app?vid=70adca96-bb6c-4152-966a-66ff8ce4576a"},"vehicle_type_id":"4","last_reported":1770934830,"current_range_meters":37600,"station_id":"ce4bhi12rcd13ifvqfq0","pricing_plan_id":"cebpf4jnsgd1na2vs0mg"},{"bike_id":"60815d74-cf24-4748-be74-0881db2c8042","system_id":"levelo_inurba_marseille","lat":43.3199,"lon":5.38161,"is_reserved":false,"is_disabled":false,"rental_uris":{"android":"levelo://app?vid=60815d74-cf24-4748-be74-0881db2c8042","ios":"levelo://app?vid=60815d74-cf24-4748-be74-0881db2c8042"},"vehicle_type_id":"4","last_reported":1770934830,"current_range_meters":25200,"station_id":"ce4bhr12rcd13ifvqhpg","pricing_plan_id":"cebpf4jnsgd1na2vs0mg"},{"bike_id":"0921dbf2-3e22-43d5-84c9-72a943cb2886","system_id":"levelo_inurba_marseille","lat":43.30143,"lon":5.39866,"is_reserved":false,"is_disabled":false,"rental_uris":{"android":"levelo://app?vid=0921dbf2-3e22-43d5-84c9-72a943cb2886","ios":"levelo://app?vid=0921dbf2-3e22-43d5-84c9-72a943cb2886"},"vehicle_type_id":"4","last_reported":1770934830,"current_range_meters":11200,"station_id":"ce4bh0h2rcd13ifvqd40","pricing_plan_id":"cebpf4jnsgd1na2vs0mg"},{"bike_id":"451234f1-1684-4d00-8320-1607318757d2","system_id":"levelo_inurba_marseille","lat":43.33158,"lon":5.37688,"is_reserved":false,"is_disabled":false,"rental_uris":{"android":"levelo://app?vid=451234f1-1684-4d00-8320-1607318757d2","ios":"levelo://app?vid=451234f1-1684-4d00-8320-1607318757d2"},"vehicle_type_id":"4","last_reported":1770934830,"current_range_meters":18800,"station_id":"st_d46cu089ee8s73dldbu0","pricing_plan_id":"cebpf4jnsgd1na2vs0mg"},{"bike_id":"f4388598-0fe9-4895-90f2-b32d9b275360","system_id":"levelo_inurba_marseille","lat":43.30102,"lon":5.39081,"is_reserved":false,"is_disabled":false,"rental_uris":{"android":"levelo://app?vid=f4388598-0fe9-4895-90f2-b32d9b275360","ios":"levelo://app?vid=f4388598-0fe9-4895-90f2-b32d9b275360"},"vehicle_type_id":"4","last_reported":1770934830,"current_range_meters":8800,"station_id":"ce4bh192rcd13ifvqdb0","pricing_plan_id":"cebpf4jnsgd1na2vs0mg"},{"bike_id":"917d9683-a902-48d9-9f0b-4231358e812e","system_id":"levelo_inurba_marseille","lat":43.33544,"lon":5.37467,"is_reserved":false,"is_disabled":false,"rental_uris":{"android":"levelo://app?vid=917d9683-a902-48d9-9f0b-4231358e812e","ios":"levelo://app?vid=917d9683-a902-48d9-9f0b-4231358e812e"},"vehicle_type_id":"4","last_reported":1770934830,"current_range_meters":22000,"station_id":"st_d46tts09ee8s73dlu43g","pricing_plan_id":"cebpf4jnsgd1na2vs0mg"},{"bike_id":"488e4e43-c09c-4c8e-b5f9-69999c228256","system_id":"levelo_inurba_marseille","lat":43.24807,"lon":5.37455,"is_reserved":false,"is_disabled":false,"rental_uris":{"android":"levelo://app?vid=488e4e43-c09c-4c8e-b5f9-69999c228256","ios":"levelo://app?vid=488e4e43-c09c-4c8e-b5f9-69999c228256"},"vehicle_type_id":"4","last_reported":1770934830,"current_range_meters":39200,"station_id":"ce4bhgh2rcd13ifvqfb0","pricing_plan_id":"cebpf4jnsgd1na2vs0mg"},{"bike_id":"a8325d14-5bda-4567-a721-4154d86f2607","system_id":"levelo_inurba_marseille","lat":43.29435,"lon":5.39752,"is_reserved":false,"is_disabled":false,"rental_uris":{"android":"levelo://app?vid=a8325d14-5bda-4567-a721-4154d86f2607","ios":"levelo://app?vid=a8325d14-5bda-4567-a721-4154d86f2607"},"vehicle_type_id":"4","last_reported":1770934830,"current_range_meters":32400,"station_id":"ce4bh3h2rcd13ifvqdo0","pricing_plan_id":"cebpf4jnsgd1na2vs0mg"},{"bike_id":"926eeb80-8d6b-46b8-8031-175f7acbffd0","system_id":"levelo_inurba_marseille","lat":43.32282,"lon":5.38274,"is_reserved":false,"is_disabled":false,"rental_uris":{"android":"levelo://app?vid=926eeb80-8d6b-46b8-8031-175f7acbffd0","ios":"levelo://app?vid=926eeb80-8d6b-46b8-8031-175f7acbffd0"},"vehicle_type_id":"4","last_reported":1770934830,"current_range_meters":28000,"station_id":"ce4bhr12rcd13ifvqhqg","pricing_plan_id":"cebpf4jnsgd1na2vs0mg"},{"bike_id":"342135ee-403d-4569-aa3e-6cf28d2524a6","system_id":"levelo_inurba_marseille","lat":43.29298,"lon":5.37157,"is_reserved":false,"is_disabled":false,"rental_uris":{"android":"levelo://app?vid=342135ee-403d-4569-aa3e-6cf28d2524a6","ios":"levelo://app?vid=342135ee-403d-4569-aa3e-6cf28d2524a6"},"vehicle_type_id":"4","last_reported":1770934830,"current_range_meters":39200,"station_id":"ce4bgh92rcd13ifvqb40","pricing_plan_id":"cebpf4jnsgd1na2vs0mg"},{"bike_id":"75988a46-2a3f-4cc1-a4b1-c619345846d0","system_id":"levelo_inurba_marseille","lat":43.25576,"lon":5.38227,"is_reserved":false,"is_disabled":false,"rental_uris":{"android":"levelo://app?vid=75988a46-2a3f-4cc1-a4b1-c619345846d0","ios":"levelo://app?vid=75988a46-2a3f-4cc1-a4b1-c619345846d0"},"vehicle_type_id":"4","last_reported":1770934830,"current_range_meters":20000,"station_id":"ce4bhih2rcd13ifvqfs0","pricing_plan_id":"cebpf4jnsgd1na2vs0mg"},{"bike_id":"b32b0732-e4d0-4f51-ba0c-c2f5e5ffe7be","system_id":"levelo_inurba_marseille","lat":43.33763,"lon":5.37456,"is_reserved":false,"is_disabled":false,"rental_uris":{"android":"levelo://app?vid=b32b0732-e4d0-4f51-ba0c-c2f5e5ffe7be","ios":"levelo://app?vid=b32b0732-e4d0-4f51-ba0c-c2f5e5ffe7be"},"vehicle_type_id":"4","last_reported":1770934830,"current_range_meters":8400,"station_id":"","pricing_plan_id":"cebpf4jnsgd1na2vs0mg"},{"bike_id":"eb153995-5d33-4b1d-a5c0-ee8cc4302ea8","system_id":"levelo_inurba_marseille","lat":43.26562,"lon":5.39042,"is_reserved":false,"is_disabled":false,"rental_uris":{"android":"levelo://app?vid=eb153995-5d33-4b1d-a5c0-ee8cc4302ea8","ios":"levelo://app?vid=eb153995-5d33-4b1d-a5c0-ee8cc4302ea8"},"vehicle_type_id":"4","last_reported":1770934830,"current_range_meters":4400,"station_id":"ce4bhe12rcd13ifvqf30","pricing_plan_id":"cebpf4jnsgd1na2vs0mg"},{"bike_id":"d70814e4-d968-4b8e-817b-88544a1bc9d1","system_id":"levelo_inurba_marseille","lat":43.24972,"lon":5.38904,"is_reserved":false,"is_disabled":false,"rental_uris":{"android":"levelo://app?vid=d70814e4-d968-4b8e-817b-88544a1bc9d1","ios":"levelo://app?vid=d70814e4-d968-4b8e-817b-88544a1bc9d1"},"vehicle_type_id":"4","last_reported":1770934830,"current_range_meters":39200,"station_id":"ce4bhgp2rcd13ifvqfd0","pricing_plan_id":"cebpf4jnsgd1na2vs0mg"},{"bike_id":"3fc1d8b2-795c-4c54-af77-45a922b65ab0","system_id":"levelo_inurba_marseille","lat":43.2963,"lon":5.40645,"is_reserved":false,"is_disabled":false,"rental_uris":{"android":"levelo://app?vid=3fc1d8b2-795c-4c54-af77-45a922b65ab0","ios":"levelo://app?vid=3fc1d8b2-795c-4c54-af77-45a922b65ab0"},"vehicle_type_id":"4","last_reported":1770934830,"current_range_meters":32000,"station_id":"ce4bh0h2rcd13ifvqd60","pricing_plan_id":"cebpf4jnsgd1na2vs0mg"},{"bike_id":"fff76ec4-3746-41fc-b117-a69175b0a397","system_id":"levelo_inurba_marseille","lat":43.29264,"lon":5.38425,"is_reserved":false,"is_disabled":false,"rental_uris":{"android":"levelo://app?vid=fff76ec4-3746-41fc-b117-a69175b0a397","ios":"levelo://app?vid=fff76ec4-3746-41fc-b117-a69175b0a397"},"vehicle_type_id":"4","last_reported":1770934830,"current_range_meters":36800,"station_id":"ce4bh692rcd13ifvqea0","pricing_plan_id":"cebpf4jnsgd1na2vs0mg"},{"bike_id":"45ef4cb1-1a7b-4aba-b84c-4d3de631715f","system_id":"levelo_inurba_marseille","lat":43.301451,"lon":5.385869,"is_reserved":false,"is_disabled":false,"rental_uris":{"android":"levelo://app?vid=45ef4cb1-1a7b-4aba-b84c-4d3de631715f","ios":"levelo://app?vid=45ef4cb1-1a7b-4aba-b84c-4d3de631715f"},"vehicle_type_id":"4","last_reported":1770934830,"current_range_meters":30000,"station_id":"","pricing_plan_id":"cebpf4jnsgd1na2vs0mg"},{"bike_id":"c02ef371-4425-4fa5-a74b-6b52b60b9c45","system_id":"levelo_inurba_marseille","lat":43.31104,"lon":5.37768,"is_reserved":false,"is_disabled":false,"rental_uris":{"android":"levelo://app?vid=c02ef371-4425-4fa5-a74b-6b52b60b9c45","ios":"levelo://app?vid=c02ef371-4425-4fa5-a74b-6b52b60b9c45"},"vehicle_type_id":"4","last_reported":1770934830,"current_range_meters":37600,"station_id":"ce4bgt92rcd13ifvqcg0","pricing_plan_id":"cebpf4jnsgd1na2vs0mg"},{"bike_id":"e85900b6-be3c-455e-bed5-93376dfddf1a","system_id":"levelo_inurba_marseille","lat":43.29717,"lon":5.36578,"is_reserved":false,"is_disabled":false,"rental_uris":{"android":"levelo://app?vid=e85900b6-be3c-455e-bed5-93376dfddf1a","ios":"levelo://app?vid=e85900b6-be3c-455e-bed5-93376dfddf1a"},"vehicle_type_id":"4","last_reported":1770934830,"current_range_meters":38000,"station_id":"ce4bgn12rcd13ifvqbt0","pricing_plan_id":"cebpf4jnsgd1na2vs0mg"},{"bike_id":"da0e2d24-584f-41fd-a38b-655c395c13a2","system_id":"levelo_inurba_marseille","lat":43.30253,"lon":5.40101,"is_reserved":false,"is_disabled":false,"rental_uris":{"android":"levelo://app?vid=da0e2d24-584f-41fd-a38b-655c395c13a2","ios":"levelo://app?vid=da0e2d24-584f-41fd-a38b-655c395c13a2"},"vehicle_type_id":"4","last_reported":1770934830,"current_range_meters":14800,"station_id":"ce4bgvh2rcd13ifvqcs0","pricing_plan_id":"cebpf4jnsgd1na2vs0mg"},{"bike_id":"301746f6-125c-4bdf-bbf9-cba390153d9c","system_id":"levelo_inurba_marseille","lat":43.28724,"lon":5.37365,"is_reserved":false,"is_disabled":false,"rental_uris":{"android":"levelo://app?vid=301746f6-125c-4bdf-bbf9-cba390153d9c","ios":"levelo://app?vid=301746f6-125c-4bdf-bbf9-cba390153d9c"},"vehicle_type_id":"4","last_reported":1770934830,"current_range_meters":36800,"station_id":"ce4bh3p2rcd13ifvqdq0","pricing_plan_id":"cebpf4jnsgd1na2vs0mg"},{"bike_id":"2646436a-3916-4749-b0c4-4e2a11063978","system_id":"levelo_inurba_marseille","lat":43.29701,"lon":5.37696,"is_reserved":false,"is_disabled":true,"rental_uris":{"android":"levelo://app?vid=2646436a-3916-4749-b0c4-4e2a11063978","ios":"levelo://app?vid=2646436a-3916-4749-b0c4-4e2a11063978"},"vehicle_type_id":"4","last_reported":1770934830,"current_range_meters":39200,"station_id":"ce4bgkh2rcd13ifvqbl0","pricing_plan_id":"cebpf4jnsgd1na2vs0mg"},{"bike_id":"d6513438-5bdb-499c-85d0-a58f2a8cda31","system_id":"levelo_inurba_marseille","lat":43.24948,"lon":5.40467,"is_reserved":false,"is_disabled":false,"rental_uris":{"android":"levelo://app?vid=d6513438-5bdb-499c-85d0-a58f2a8cda31","ios":"levelo://app?vid=d6513438-5bdb-499c-85d0-a58f2a8cda31"},"vehicle_type_id":"4","last_reported":1770934830,"current_range_meters":24400,"station_id":"st_d2ngiaodas8pm72gd1h0","pricing_plan_id":"cebpf4jnsgd1na2vs0mg"},{"bike_id":"ff892a04-ae98-4fdf-81ac-3050c7d2c38a","system_id":"levelo_inurba_marseille","lat":43.26572,"lon":5.39046,"is_reserved":false,"is_disabled":false,"rental_uris":{"android":"levelo://app?vid=ff892a04-ae98-4fdf-81ac-3050c7d2c38a","ios":"levelo://app?vid=ff892a04-ae98-4fdf-81ac-3050c7d2c38a"},"vehicle_type_id":"4","last_reported":1770934830,"current_range_meters":3200,"station_id":"ce4bhe12rcd13ifvqf30","pricing_plan_id":"cebpf4jnsgd1na2vs0mg"},{"bike_id":"6fa94c2e-d880-4f84-aae5-dbfbf22ebf88","system_id":"levelo_inurba_marseille","lat":43.29365,"lon":5.37857,"is_reserved":false,"is_disabled":false,"rental_uris":{"android":"levelo://app?vid=6fa94c2e-d880-4f84-aae5-dbfbf22ebf88","ios":"levelo://app?vid=6fa94c2e-d880-4f84-aae5-dbfbf22ebf88"},"vehicle_type_id":"4","last_reported":1770934830,"current_range_meters":40000,"station_id":"ce4bgjh2rcd13ifvqbf0","pricing_plan_id":"cebpf4jnsgd1na2vs0mg"},{"bike_id":"05a0bbb1-a54b-464d-bb78-257d3dc37ebf","system_id":"levelo_inurba_marseille","lat":43.287092,"lon":5.373862,"is_reserved":false,"is_disabled":false,"rental_uris":{"android":"levelo://app?vid=05a0bbb1-a54b-464d-bb78-257d3dc37ebf","ios":"levelo://app?vid=05a0bbb1-a54b-464d-bb78-257d3dc37ebf"},"vehicle_type_id":"4","last_reported":1770934830,"current_range_meters":7200,"station_id":"ce4bh3p2rcd13ifvqdq0","pricing_plan_id":"cebpf4jnsgd1na2vs0mg"},{"bike_id":"4e8e0241-acb1-4e10-a2b7-feb0952472c9","system_id":"levelo_inurba_marseille","lat":43.31711,"lon":5.40469,"is_reserved":false,"is_disabled":false,"rental_uris":{"android":"levelo://app?vid=4e8e0241-acb1-4e10-a2b7-feb0952472c9","ios":"levelo://app?vid=4e8e0241-acb1-4e10-a2b7-feb0952472c9"},"vehicle_type_id":"4","last_reported":1770934830,"current_range_meters":36000,"station_id":"ce4bh012rcd13ifvqd00","pricing_plan_id":"cebpf4jnsgd1na2vs0mg"},{"bike_id":"ea494f1f-4b4c-46ff-9864-08ab0b3b0bbb","system_id":"levelo_inurba_marseille","lat":43.26558,"lon":5.40335,"is_reserved":false,"is_disabled":false,"rental_uris":{"android":"levelo://app?vid=ea494f1f-4b4c-46ff-9864-08ab0b3b0bbb","ios":"levelo://app?vid=ea494f1f-4b4c-46ff-9864-08ab0b3b0bbb"},"vehicle_type_id":"4","last_reported":1770934830,"current_range_meters":30000,"station_id":"ce4bhmp2rcd13ifvqgng","pricing_plan_id":"cebpf4jnsgd1na2vs0mg"},{"bike_id":"a677308b-2ed1-419e-910c-6b11ded7bc88","system_id":"levelo_inurba_marseille","lat":43.30136,"lon":5.39857,"is_reserved":false,"is_disabled":false,"rental_uris":{"android":"levelo://app?vid=a677308b-2ed1-419e-910c-6b11ded7bc88","ios":"levelo://app?vid=a677308b-2ed1-419e-910c-6b11ded7bc88"},"vehicle_type_id":"4","last_reported":1770934830,"current_range_meters":38400,"station_id":"ce4bh0h2rcd13ifvqd40","pricing_plan_id":"cebpf4jnsgd1na2vs0mg"},{"bike_id":"28aca305-7f7d-4b12-a0ae-cfabbf96c8f2","system_id":"levelo_inurba_marseille","lat":43.24669,"lon":5.38156,"is_reserved":false,"is_disabled":false,"rental_uris":{"android":"levelo://app?vid=28aca305-7f7d-4b12-a0ae-cfabbf96c8f2","ios":"levelo://app?vid=28aca305-7f7d-4b12-a0ae-cfabbf96c8f2"},"vehicle_type_id":"4","last_reported":1770934830,"current_range_meters":8800,"station_id":"ce4bhih2rcd13ifvqfr0","pricing_plan_id":"cebpf4jnsgd1na2vs0mg"},{"bike_id":"014613de-69aa-4aca-9291-67750cce2e69","system_id":"levelo_inurba_marseille","lat":43.28492,"lon":5.48394,"is_reserved":false,"is_disabled":false,"rental_uris":{"android":"levelo://app?vid=014613de-69aa-4aca-9291-67750cce2e69","ios":"levelo://app?vid=014613de-69aa-4aca-9291-67750cce2e69"},"vehicle_type_id":"4","last_reported":1770934830,"current_range_meters":9200,"station_id":"","pricing_plan_id":"cebpf4jnsgd1na2vs0mg"},{"bike_id":"ceafdd97-9709-4666-acdc-c6b8a34aace5","system_id":"levelo_inurba_marseille","lat":43.27191,"lon":5.41015,"is_reserved":false,"is_disabled":true,"rental_uris":{"android":"levelo://app?vid=ceafdd97-9709-4666-acdc-c6b8a34aace5","ios":"levelo://app?vid=ceafdd97-9709-4666-acdc-c6b8a34aace5"},"vehicle_type_id":"4","last_reported":1770934830,"current_range_meters":9600,"station_id":"ce4bhl12rcd13ifvqgf0","pricing_plan_id":"cebpf4jnsgd1na2vs0mg"},{"bike_id":"528542a7-5e47-427f-bf00-27a8775d2794","system_id":"levelo_inurba_marseille","lat":43.31538,"lon":5.3803,"is_reserved":false,"is_disabled":false,"rental_uris":{"android":"levelo://app?vid=528542a7-5e47-427f-bf00-27a8775d2794","ios":"levelo://app?vid=528542a7-5e47-427f-bf00-27a8775d2794"},"vehicle_type_id":"4","last_reported":1770934830,"current_range_meters":34800,"station_id":"ce4bhsp2rcd13ifvqi50","pricing_plan_id":"cebpf4jnsgd1na2vs0mg"},{"bike_id":"9ed7300e-a4d4-493c-95a2-a0b857cf6348","system_id":"levelo_inurba_marseille","lat":43.22551,"lon":5.41622,"is_reserved":false,"is_disabled":false,"rental_uris":{"android":"levelo://app?vid=9ed7300e-a4d4-493c-95a2-a0b857cf6348","ios":"levelo://app?vid=9ed7300e-a4d4-493c-95a2-a0b857cf6348"},"vehicle_type_id":"4","last_reported":1770934830,"current_range_meters":26000,"station_id":"st_d2o4gvlbi1j2169b742g","pricing_plan_id":"cebpf4jnsgd1na2vs0mg"},{"bike_id":"ce7f455d-43e5-4e79-a273-d77ed686dc20","system_id":"levelo_inurba_marseille","lat":43.29788,"lon":5.39358,"is_reserved":false,"is_disabled":false,"rental_uris":{"android":"levelo://app?vid=ce7f455d-43e5-4e79-a273-d77ed686dc20","ios":"levelo://app?vid=ce7f455d-43e5-4e79-a273-d77ed686dc20"},"vehicle_type_id":"4","last_reported":1770934830,"current_range_meters":39200,"station_id":"chh1huq6cuj3fo74tm60","pricing_plan_id":"cebpf4jnsgd1na2vs0mg"},{"bike_id":"603ec718-9201-43e0-8396-ece58cf1c462","system_id":"levelo_inurba_marseille","lat":43.29761,"lon":5.42775,"is_reserved":false,"is_disabled":false,"rental_uris":{"android":"levelo://app?vid=603ec718-9201-43e0-8396-ece58cf1c462","ios":"levelo://app?vid=603ec718-9201-43e0-8396-ece58cf1c462"},"vehicle_type_id":"4","last_reported":1770934830,"current_range_meters":16800,"station_id":"st_d3md5207bmas73dh9klg","pricing_plan_id":"cebpf4jnsgd1na2vs0mg"},{"bike_id":"d2ae2440-e92a-40be-b95d-c1574a1fed11","system_id":"levelo_inurba_marseille","lat":43.3316,"lon":5.37695,"is_reserved":false,"is_disabled":false,"rental_uris":{"android":"levelo://app?vid=d2ae2440-e92a-40be-b95d-c1574a1fed11","ios":"levelo://app?vid=d2ae2440-e92a-40be-b95d-c1574a1fed11"},"vehicle_type_id":"4","last_reported":1770934830,"current_range_meters":22800,"station_id":"st_d46cu089ee8s73dldbu0","pricing_plan_id":"cebpf4jnsgd1na2vs0mg"},{"bike_id":"bd9b5e04-3abe-4098-a415-308df53cc83b","system_id":"levelo_inurba_marseille","lat":43.30302,"lon":5.39195,"is_reserved":false,"is_disabled":true,"rental_uris":{"android":"levelo://app?vid=bd9b5e04-3abe-4098-a415-308df53cc83b","ios":"levelo://app?vid=bd9b5e04-3abe-4098-a415-308df53cc83b"},"vehicle_type_id":"4","last_reported":1770934830,"current_range_meters":36000,"station_id":"ce4bgkh2rcd13ifvqbk0","pricing_plan_id":"cebpf4jnsgd1na2vs0mg"},{"bike_id":"f8471a2c-87e1-4cbd-bb5b-57438b2e01d6","system_id":"levelo_inurba_marseille","lat":43.29276,"lon":5.36853,"is_reserved":false,"is_disabled":false,"rental_uris":{"android":"levelo://app?vid=f8471a2c-87e1-4cbd-bb5b-57438b2e01d6","ios":"levelo://app?vid=f8471a2c-87e1-4cbd-bb5b-57438b2e01d6"},"vehicle_type_id":"4","last_reported":1770934830,"current_range_meters":8000,"station_id":"ce4bhbp2rcd13ifvqesg","pricing_plan_id":"cebpf4jnsgd1na2vs0mg"},{"bike_id":"7c3214e4-011e-406b-980a-35e392dbba5a","system_id":"levelo_inurba_marseille","lat":43.31329,"lon":5.39706,"is_reserved":false,"is_disabled":false,"rental_uris":{"android":"levelo://app?vid=7c3214e4-011e-406b-980a-35e392dbba5a","ios":"levelo://app?vid=7c3214e4-011e-406b-980a-35e392dbba5a"},"vehicle_type_id":"4","last_reported":1770934830,"current_range_meters":18000,"station_id":"ce4bgvp2rcd13ifvqcu0","pricing_plan_id":"cebpf4jnsgd1na2vs0mg"},{"bike_id":"db473b28-2923-43be-a5b8-27a3cb55c92a","system_id":"levelo_inurba_marseille","lat":43.29529,"lon":5.39402,"is_reserved":false,"is_disabled":false,"rental_uris":{"android":"levelo://app?vid=db473b28-2923-43be-a5b8-27a3cb55c92a","ios":"levelo://app?vid=db473b28-2923-43be-a5b8-27a3cb55c92a"},"vehicle_type_id":"4","last_reported":1770934830,"current_range_meters":26000,"station_id":"ce4bh292rcd13ifvqdf0","pricing_plan_id":"cebpf4jnsgd1na2vs0mg"},{"bike_id":"2a56a0ab-985c-4f87-ba03-7fb30ba7cd1c","system_id":"levelo_inurba_marseille","lat":43.301359,"lon":5.398632,"is_reserved":false,"is_disabled":false,"rental_uris":{"android":"levelo://app?vid=2a56a0ab-985c-4f87-ba03-7fb30ba7cd1c","ios":"levelo://app?vid=2a56a0ab-985c-4f87-ba03-7fb30ba7cd1c"},"vehicle_type_id":"4","last_reported":1770934830,"current_range_meters":5600,"station_id":"ce4bh0h2rcd13ifvqd40","pricing_plan_id":"cebpf4jnsgd1na2vs0mg"},{"bike_id":"9cceaab4-22fd-47ec-83e6-ad35219eea09","system_id":"levelo_inurba_marseille","lat":43.25579,"lon":5.38254,"is_reserved":false,"is_disabled":false,"rental_uris":{"android":"levelo://app?vid=9cceaab4-22fd-47ec-83e6-ad35219eea09","ios":"levelo://app?vid=9cceaab4-22fd-47ec-83e6-ad35219eea09"},"vehicle_type_id":"4","last_reported":1770934830,"current_range_meters":8000,"station_id":"ce4bhih2rcd13ifvqfs0","pricing_plan_id":"cebpf4jnsgd1na2vs0mg"},{"bike_id":"01f78c5a-3be0-4e2e-96cf-84a67ad0e642","system_id":"levelo_inurba_marseille","lat":43.27567,"lon":5.38422,"is_reserved":false,"is_disabled":false,"rental_uris":{"android":"levelo://app?vid=01f78c5a-3be0-4e2e-96cf-84a67ad0e642","ios":"levelo://app?vid=01f78c5a-3be0-4e2e-96cf-84a67ad0e642"},"vehicle_type_id":"4","last_reported":1770934830,"current_range_meters":27600,"station_id":"ce4bhh92rcd13ifvqfi0","pricing_plan_id":"cebpf4jnsgd1na2vs0mg"},{"bike_id":"59db9114-896d-40ef-9452-d2ba8d74bb7e","system_id":"levelo_inurba_marseille","lat":43.309264,"lon":5.401437,"is_reserved":false,"is_disabled":false,"rental_uris":{"android":"levelo://app?vid=59db9114-896d-40ef-9452-d2ba8d74bb7e","ios":"levelo://app?vid=59db9114-896d-40ef-9452-d2ba8d74bb7e"},"vehicle_type_id":"4","last_reported":1770934830,"current_range_meters":29600,"station_id":"ce4bgvp2rcd13ifvqct0","pricing_plan_id":"cebpf4jnsgd1na2vs0mg"},{"bike_id":"e0ceb215-62dc-4988-894b-5ac7cda2130c","system_id":"levelo_inurba_marseille","lat":43.29024,"lon":5.38645,"is_reserved":false,"is_disabled":false,"rental_uris":{"android":"levelo://app?vid=e0ceb215-62dc-4988-894b-5ac7cda2130c","ios":"levelo://app?vid=e0ceb215-62dc-4988-894b-5ac7cda2130c"},"vehicle_type_id":"4","last_reported":1770934830,"current_range_meters":16800,"station_id":"ce4bh4p2rcd13ifvqe0g","pricing_plan_id":"cebpf4jnsgd1na2vs0mg"},{"bike_id":"3a20a61d-5223-462c-b0fd-75aac98af7b4","system_id":"levelo_inurba_marseille","lat":43.30134,"lon":5.38808,"is_reserved":false,"is_disabled":true,"rental_uris":{"android":"levelo://app?vid=3a20a61d-5223-462c-b0fd-75aac98af7b4","ios":"levelo://app?vid=3a20a61d-5223-462c-b0fd-75aac98af7b4"},"vehicle_type_id":"4","last_reported":1770934830,"current_range_meters":25600,"station_id":"ce4bghh2rcd13ifvqb60","pricing_plan_id":"cebpf4jnsgd1na2vs0mg"},{"bike_id":"d8bbcb80-4405-4339-94e8-a3a4a59ae180","system_id":"levelo_inurba_marseille","lat":43.30218,"lon":5.39471,"is_reserved":false,"is_disabled":false,"rental_uris":{"android":"levelo://app?vid=d8bbcb80-4405-4339-94e8-a3a4a59ae180","ios":"levelo://app?vid=d8bbcb80-4405-4339-94e8-a3a4a59ae180"},"vehicle_type_id":"4","last_reported":1770934830,"current_range_meters":17200,"station_id":"ce4bh0p2rcd13ifvqd70","pricing_plan_id":"cebpf4jnsgd1na2vs0mg"},{"bike_id":"ffe3fbd4-6746-48bb-b0b5-fa7f3d6ff56c","system_id":"levelo_inurba_marseille","lat":43.31051,"lon":5.37188,"is_reserved":false,"is_disabled":false,"rental_uris":{"android":"levelo://app?vid=ffe3fbd4-6746-48bb-b0b5-fa7f3d6ff56c","ios":"levelo://app?vid=ffe3fbd4-6746-48bb-b0b5-fa7f3d6ff56c"},"vehicle_type_id":"4","last_reported":1770934830,"current_range_meters":22800,"station_id":"st_d4kl2rp97mjs73e7tdfg","pricing_plan_id":"cebpf4jnsgd1na2vs0mg"},{"bike_id":"5071b43d-0bf5-4c33-bee0-7bb9b5d21dc9","system_id":"levelo_inurba_marseille","lat":43.2499,"lon":5.38976,"is_reserved":false,"is_disabled":false,"rental_uris":{"android":"levelo://app?vid=5071b43d-0bf5-4c33-bee0-7bb9b5d21dc9","ios":"levelo://app?vid=5071b43d-0bf5-4c33-bee0-7bb9b5d21dc9"},"vehicle_type_id":"4","last_reported":1770934830,"current_range_meters":32000,"station_id":"ce4bhgp2rcd13ifvqfd0","pricing_plan_id":"cebpf4jnsgd1na2vs0mg"},{"bike_id":"fb32f51e-256b-4fd7-8185-df279e41b669","system_id":"levelo_inurba_marseille","lat":43.3027,"lon":5.40066,"is_reserved":false,"is_disabled":false,"rental_uris":{"android":"levelo://app?vid=fb32f51e-256b-4fd7-8185-df279e41b669","ios":"levelo://app?vid=fb32f51e-256b-4fd7-8185-df279e41b669"},"vehicle_type_id":"4","last_reported":1770934830,"current_range_meters":27600,"station_id":"ce4bgvh2rcd13ifvqcs0","pricing_plan_id":"cebpf4jnsgd1na2vs0mg"},{"bike_id":"51ad0198-092e-4860-b994-3420575955f1","system_id":"levelo_inurba_marseille","lat":43.22527,"lon":5.34833,"is_reserved":false,"is_disabled":false,"rental_uris":{"android":"levelo://app?vid=51ad0198-092e-4860-b994-3420575955f1","ios":"levelo://app?vid=51ad0198-092e-4860-b994-3420575955f1"},"vehicle_type_id":"4","last_reported":1770934830,"current_range_meters":8000,"station_id":"st_cvj5dfep6f1abm77gieg","pricing_plan_id":"cebpf4jnsgd1na2vs0mg"},{"bike_id":"5ae8b64f-6601-418a-9705-f85404ecf6fb","system_id":"levelo_inurba_marseille","lat":43.29531,"lon":5.38544,"is_reserved":false,"is_disabled":false,"rental_uris":{"android":"levelo://app?vid=5ae8b64f-6601-418a-9705-f85404ecf6fb","ios":"levelo://app?vid=5ae8b64f-6601-418a-9705-f85404ecf6fb"},"vehicle_type_id":"4","last_reported":1770934830,"current_range_meters":30000,"station_id":"ce4bgih2rcd13ifvqba0","pricing_plan_id":"cebpf4jnsgd1na2vs0mg"},{"bike_id":"96dce03c-0583-4126-9bf0-45335884c78e","system_id":"levelo_inurba_marseille","lat":43.32289,"lon":5.38292,"is_reserved":false,"is_disabled":false,"rental_uris":{"android":"levelo://app?vid=96dce03c-0583-4126-9bf0-45335884c78e","ios":"levelo://app?vid=96dce03c-0583-4126-9bf0-45335884c78e"},"vehicle_type_id":"4","last_reported":1770934830,"current_range_meters":40000,"station_id":"ce4bhr12rcd13ifvqhqg","pricing_plan_id":"cebpf4jnsgd1na2vs0mg"},{"bike_id":"2aa05e06-5366-4cfd-80c1-a6e66487250b","system_id":"levelo_inurba_marseille","lat":43.28492,"lon":5.48392,"is_reserved":false,"is_disabled":false,"rental_uris":{"android":"levelo://app?vid=2aa05e06-5366-4cfd-80c1-a6e66487250b","ios":"levelo://app?vid=2aa05e06-5366-4cfd-80c1-a6e66487250b"},"vehicle_type_id":"4","last_reported":1770934830,"current_range_meters":32400,"station_id":"","pricing_plan_id":"cebpf4jnsgd1na2vs0mg"},{"bike_id":"5bba3564-a2b0-4ff7-9847-80d4456e1d7a","system_id":"levelo_inurba_marseille","lat":43.293669,"lon":5.378421,"is_reserved":false,"is_disabled":false,"rental_uris":{"android":"levelo://app?vid=5bba3564-a2b0-4ff7-9847-80d4456e1d7a","ios":"levelo://app?vid=5bba3564-a2b0-4ff7-9847-80d4456e1d7a"},"vehicle_type_id":"4","last_reported":1770934830,"current_range_meters":22000,"station_id":"ce4bgjh2rcd13ifvqbf0","pricing_plan_id":"cebpf4jnsgd1na2vs0mg"},{"bike_id":"541fff98-b96f-4b5d-94af-a1127f2e4454","system_id":"levelo_inurba_marseille","lat":43.2952,"lon":5.39393,"is_reserved":false,"is_disabled":false,"rental_uris":{"android":"levelo://app?vid=541fff98-b96f-4b5d-94af-a1127f2e4454","ios":"levelo://app?vid=541fff98-b96f-4b5d-94af-a1127f2e4454"},"vehicle_type_id":"4","last_reported":1770934830,"current_range_meters":26800,"station_id":"ce4bh292rcd13ifvqdf0","pricing_plan_id":"cebpf4jnsgd1na2vs0mg"},{"bike_id":"7ac97cba-eace-444f-905a-547138f1dea6","system_id":"levelo_inurba_marseille","lat":43.3149,"lon":5.37311,"is_reserved":false,"is_disabled":false,"rental_uris":{"android":"levelo://app?vid=7ac97cba-eace-444f-905a-547138f1dea6","ios":"levelo://app?vid=7ac97cba-eace-444f-905a-547138f1dea6"},"vehicle_type_id":"4","last_reported":1770934830,"current_range_meters":22400,"station_id":"ce4bgt12rcd13ifvqcd0","pricing_plan_id":"cebpf4jnsgd1na2vs0mg"},{"bike_id":"6fb6e675-460f-4429-987e-5c8d5ca05444","system_id":"levelo_inurba_marseille","lat":43.32363,"lon":5.367421,"is_reserved":false,"is_disabled":false,"rental_uris":{"android":"levelo://app?vid=6fb6e675-460f-4429-987e-5c8d5ca05444","ios":"levelo://app?vid=6fb6e675-460f-4429-987e-5c8d5ca05444"},"vehicle_type_id":"4","last_reported":1770934830,"current_range_meters":20400,"station_id":"ce4bhsh2rcd13ifvqi2g","pricing_plan_id":"cebpf4jnsgd1na2vs0mg"},{"bike_id":"bf3cb6e8-1a91-4ca0-b7f3-fc8011ca9cd8","system_id":"levelo_inurba_marseille","lat":43.30893,"lon":5.39633,"is_reserved":false,"is_disabled":false,"rental_uris":{"android":"levelo://app?vid=bf3cb6e8-1a91-4ca0-b7f3-fc8011ca9cd8","ios":"levelo://app?vid=bf3cb6e8-1a91-4ca0-b7f3-fc8011ca9cd8"},"vehicle_type_id":"4","last_reported":1770934830,"current_range_meters":38800,"station_id":"ce4bh012rcd13ifvqcv0","pricing_plan_id":"cebpf4jnsgd1na2vs0mg"},{"bike_id":"8864f6b7-1b6c-416e-9bf7-d904161c6757","system_id":"levelo_inurba_marseille","lat":43.258337,"lon":5.394378,"is_reserved":false,"is_disabled":false,"rental_uris":{"android":"levelo://app?vid=8864f6b7-1b6c-416e-9bf7-d904161c6757","ios":"levelo://app?vid=8864f6b7-1b6c-416e-9bf7-d904161c6757"},"vehicle_type_id":"4","last_reported":1770934830,"current_range_meters":18800,"station_id":"ce4bhip2rcd13ifvqft0","pricing_plan_id":"cebpf4jnsgd1na2vs0mg"},{"bike_id":"7ff8f1b8-aa67-4d09-9b1e-6734c846f83c","system_id":"levelo_inurba_marseille","lat":43.26561,"lon":5.39048,"is_reserved":false,"is_disabled":true,"rental_uris":{"android":"levelo://app?vid=7ff8f1b8-aa67-4d09-9b1e-6734c846f83c","ios":"levelo://app?vid=7ff8f1b8-aa67-4d09-9b1e-6734c846f83c"},"vehicle_type_id":"4","last_reported":1770934830,"current_range_meters":16000,"station_id":"ce4bhe12rcd13ifvqf30","pricing_plan_id":"cebpf4jnsgd1na2vs0mg"},{"bike_id":"bc39af2e-f995-4080-81bb-b48ae08bae95","system_id":"levelo_inurba_marseille","lat":43.30724,"lon":5.42467,"is_reserved":false,"is_disabled":false,"rental_uris":{"android":"levelo://app?vid=bc39af2e-f995-4080-81bb-b48ae08bae95","ios":"levelo://app?vid=bc39af2e-f995-4080-81bb-b48ae08bae95"},"vehicle_type_id":"4","last_reported":1770934830,"current_range_meters":39200,"station_id":"st_cvj6ca6bvosntc0bfgr0","pricing_plan_id":"cebpf4jnsgd1na2vs0mg"},{"bike_id":"0b4aaea2-35f7-42c2-b087-ed81f1658c46","system_id":"levelo_inurba_marseille","lat":43.29572,"lon":5.36759,"is_reserved":false,"is_disabled":false,"rental_uris":{"android":"levelo://app?vid=0b4aaea2-35f7-42c2-b087-ed81f1658c46","ios":"levelo://app?vid=0b4aaea2-35f7-42c2-b087-ed81f1658c46"},"vehicle_type_id":"4","last_reported":1770934830,"current_range_meters":14000,"station_id":"ce4bgph2rcd13ifvqc2g","pricing_plan_id":"cebpf4jnsgd1na2vs0mg"},{"bike_id":"7be9b5cd-2937-447d-86be-539a0c97ddbd","system_id":"levelo_inurba_marseille","lat":43.28703,"lon":5.37395,"is_reserved":false,"is_disabled":false,"rental_uris":{"android":"levelo://app?vid=7be9b5cd-2937-447d-86be-539a0c97ddbd","ios":"levelo://app?vid=7be9b5cd-2937-447d-86be-539a0c97ddbd"},"vehicle_type_id":"4","last_reported":1770934830,"current_range_meters":11600,"station_id":"ce4bh3p2rcd13ifvqdq0","pricing_plan_id":"cebpf4jnsgd1na2vs0mg"},{"bike_id":"2a6c10cf-0d47-485e-bda1-55d6c3f306fc","system_id":"levelo_inurba_marseille","lat":43.2846,"lon":5.35881,"is_reserved":false,"is_disabled":false,"rental_uris":{"android":"levelo://app?vid=2a6c10cf-0d47-485e-bda1-55d6c3f306fc","ios":"levelo://app?vid=2a6c10cf-0d47-485e-bda1-55d6c3f306fc"},"vehicle_type_id":"4","last_reported":1770934830,"current_range_meters":16000,"station_id":"ce4bhah2rcd13ifvqei0","pricing_plan_id":"cebpf4jnsgd1na2vs0mg"},{"bike_id":"52683c27-ad63-43c1-8a50-a75fb84808e6","system_id":"levelo_inurba_marseille","lat":43.250893,"lon":5.39512,"is_reserved":false,"is_disabled":false,"rental_uris":{"android":"levelo://app?vid=52683c27-ad63-43c1-8a50-a75fb84808e6","ios":"levelo://app?vid=52683c27-ad63-43c1-8a50-a75fb84808e6"},"vehicle_type_id":"4","last_reported":1770934830,"current_range_meters":6400,"station_id":"ce4bhm12rcd13ifvqgkg","pricing_plan_id":"cebpf4jnsgd1na2vs0mg"},{"bike_id":"38e9429c-24b7-4c3a-b36d-b0b7647ab822","system_id":"levelo_inurba_marseille","lat":43.31532,"lon":5.38033,"is_reserved":false,"is_disabled":false,"rental_uris":{"android":"levelo://app?vid=38e9429c-24b7-4c3a-b36d-b0b7647ab822","ios":"levelo://app?vid=38e9429c-24b7-4c3a-b36d-b0b7647ab822"},"vehicle_type_id":"4","last_reported":1770934830,"current_range_meters":36800,"station_id":"ce4bhsp2rcd13ifvqi50","pricing_plan_id":"cebpf4jnsgd1na2vs0mg"},{"bike_id":"91a16e74-f75c-43e6-9998-5c1ca801894b","system_id":"levelo_inurba_marseille","lat":43.29022,"lon":5.37564,"is_reserved":false,"is_disabled":true,"rental_uris":{"android":"levelo://app?vid=91a16e74-f75c-43e6-9998-5c1ca801894b","ios":"levelo://app?vid=91a16e74-f75c-43e6-9998-5c1ca801894b"},"vehicle_type_id":"4","last_reported":1770934830,"current_range_meters":23200,"station_id":"ce4bh692rcd13ifvqe90","pricing_plan_id":"cebpf4jnsgd1na2vs0mg"},{"bike_id":"dccfc238-30d1-44f3-9713-c1cc91044624","system_id":"levelo_inurba_marseille","lat":43.30424,"lon":5.39753,"is_reserved":false,"is_disabled":false,"rental_uris":{"android":"levelo://app?vid=dccfc238-30d1-44f3-9713-c1cc91044624","ios":"levelo://app?vid=dccfc238-30d1-44f3-9713-c1cc91044624"},"vehicle_type_id":"4","last_reported":1770934830,"current_range_meters":24400,"station_id":"ce4bh092rcd13ifvqd20","pricing_plan_id":"cebpf4jnsgd1na2vs0mg"},{"bike_id":"e29024b3-288c-4d8b-ba32-8553041a7294","system_id":"levelo_inurba_marseille","lat":43.25953,"lon":5.40879,"is_reserved":false,"is_disabled":false,"rental_uris":{"android":"levelo://app?vid=e29024b3-288c-4d8b-ba32-8553041a7294","ios":"levelo://app?vid=e29024b3-288c-4d8b-ba32-8553041a7294"},"vehicle_type_id":"4","last_reported":1770934830,"current_range_meters":9600,"station_id":"ce4bhm92rcd13ifvqglg","pricing_plan_id":"cebpf4jnsgd1na2vs0mg"},{"bike_id":"dfa42615-cf49-4c98-8217-a89505bcbda5","system_id":"levelo_inurba_marseille","lat":43.28851,"lon":5.35855,"is_reserved":false,"is_disabled":false,"rental_uris":{"android":"levelo://app?vid=dfa42615-cf49-4c98-8217-a89505bcbda5","ios":"levelo://app?vid=dfa42615-cf49-4c98-8217-a89505bcbda5"},"vehicle_type_id":"4","last_reported":1770934830,"current_range_meters":39200,"station_id":"ce4bhb12rcd13ifvqem0","pricing_plan_id":"cebpf4jnsgd1na2vs0mg"},{"bike_id":"3c189d89-9ba1-4956-b004-0844860e5628","system_id":"levelo_inurba_marseille","lat":43.28622,"lon":5.35114,"is_reserved":false,"is_disabled":false,"rental_uris":{"android":"levelo://app?vid=3c189d89-9ba1-4956-b004-0844860e5628","ios":"levelo://app?vid=3c189d89-9ba1-4956-b004-0844860e5628"},"vehicle_type_id":"4","last_reported":1770934830,"current_range_meters":39200,"station_id":"ce4bhch2rcd13ifvqeug","pricing_plan_id":"cebpf4jnsgd1na2vs0mg"},{"bike_id":"d4078c0d-0ab2-4898-ba9f-81aff7cd2cef","system_id":"levelo_inurba_marseille","lat":43.30537,"lon":5.36527,"is_reserved":false,"is_disabled":false,"rental_uris":{"android":"levelo://app?vid=d4078c0d-0ab2-4898-ba9f-81aff7cd2cef","ios":"levelo://app?vid=d4078c0d-0ab2-4898-ba9f-81aff7cd2cef"},"vehicle_type_id":"4","last_reported":1770934830,"current_range_meters":38400,"station_id":"ce4bgs12rcd13ifvqcag","pricing_plan_id":"cebpf4jnsgd1na2vs0mg"},{"bike_id":"3029fd03-fcab-4cd9-9277-025369248c19","system_id":"levelo_inurba_marseille","lat":43.26188,"lon":5.37446,"is_reserved":false,"is_disabled":false,"rental_uris":{"android":"levelo://app?vid=3029fd03-fcab-4cd9-9277-025369248c19","ios":"levelo://app?vid=3029fd03-fcab-4cd9-9277-025369248c19"},"vehicle_type_id":"4","last_reported":1770934830,"current_range_meters":26000,"station_id":"ce4bhgp2rcd13ifvqfc0","pricing_plan_id":"cebpf4jnsgd1na2vs0mg"},{"bike_id":"a01ff77e-9746-4aed-aa1f-4c22707a8670","system_id":"levelo_inurba_marseille","lat":43.29263,"lon":5.36851,"is_reserved":false,"is_disabled":false,"rental_uris":{"android":"levelo://app?vid=a01ff77e-9746-4aed-aa1f-4c22707a8670","ios":"levelo://app?vid=a01ff77e-9746-4aed-aa1f-4c22707a8670"},"vehicle_type_id":"4","last_reported":1770934830,"current_range_meters":27600,"station_id":"ce4bhbp2rcd13ifvqesg","pricing_plan_id":"cebpf4jnsgd1na2vs0mg"},{"bike_id":"921b0057-d893-4ab5-aa0e-ecd53624d92c","system_id":"levelo_inurba_marseille","lat":43.29184,"lon":5.35813,"is_reserved":false,"is_disabled":false,"rental_uris":{"android":"levelo://app?vid=921b0057-d893-4ab5-aa0e-ecd53624d92c","ios":"levelo://app?vid=921b0057-d893-4ab5-aa0e-ecd53624d92c"},"vehicle_type_id":"4","last_reported":1770934830,"current_range_meters":17200,"station_id":"ce4bhb12rcd13ifvqel0","pricing_plan_id":"cebpf4jnsgd1na2vs0mg"},{"bike_id":"9ef7c1f7-2341-4bfa-8b00-eef4bbbdbfcb","system_id":"levelo_inurba_marseille","lat":43.268099,"lon":5.402621,"is_reserved":false,"is_disabled":false,"rental_uris":{"android":"levelo://app?vid=9ef7c1f7-2341-4bfa-8b00-eef4bbbdbfcb","ios":"levelo://app?vid=9ef7c1f7-2341-4bfa-8b00-eef4bbbdbfcb"},"vehicle_type_id":"4","last_reported":1770934830,"current_range_meters":22800,"station_id":"ce501612rcd8frsf0b60","pricing_plan_id":"cebpf4jnsgd1na2vs0mg"},{"bike_id":"f06d538b-97fe-4530-9d3d-a633bac60e6e","system_id":"levelo_inurba_marseille","lat":43.269374,"lon":5.402636,"is_reserved":false,"is_disabled":false,"rental_uris":{"android":"levelo://app?vid=f06d538b-97fe-4530-9d3d-a633bac60e6e","ios":"levelo://app?vid=f06d538b-97fe-4530-9d3d-a633bac60e6e"},"vehicle_type_id":"4","last_reported":1770934830,"current_range_meters":9200,"station_id":"cjm6bp8fraef2m0cb0m0","pricing_plan_id":"cebpf4jnsgd1na2vs0mg"},{"bike_id":"465c889a-69b8-48e6-94c2-5568fcc768b6","system_id":"levelo_inurba_marseille","lat":43.29269,"lon":5.36847,"is_reserved":false,"is_disabled":false,"rental_uris":{"android":"levelo://app?vid=465c889a-69b8-48e6-94c2-5568fcc768b6","ios":"levelo://app?vid=465c889a-69b8-48e6-94c2-5568fcc768b6"},"vehicle_type_id":"4","last_reported":1770934830,"current_range_meters":7200,"station_id":"ce4bhbp2rcd13ifvqesg","pricing_plan_id":"cebpf4jnsgd1na2vs0mg"},{"bike_id":"0f15744b-0709-4e51-83fe-16a870824f44","system_id":"levelo_inurba_marseille","lat":43.25815,"lon":5.39434,"is_reserved":false,"is_disabled":false,"rental_uris":{"android":"levelo://app?vid=0f15744b-0709-4e51-83fe-16a870824f44","ios":"levelo://app?vid=0f15744b-0709-4e51-83fe-16a870824f44"},"vehicle_type_id":"4","last_reported":1770934830,"current_range_meters":27600,"station_id":"ce4bhip2rcd13ifvqft0","pricing_plan_id":"cebpf4jnsgd1na2vs0mg"},{"bike_id":"74f94a67-e011-404f-98b5-f3a8a330be7c","system_id":"levelo_inurba_marseille","lat":43.28572,"lon":5.39496,"is_reserved":false,"is_disabled":false,"rental_uris":{"android":"levelo://app?vid=74f94a67-e011-404f-98b5-f3a8a330be7c","ios":"levelo://app?vid=74f94a67-e011-404f-98b5-f3a8a330be7c"},"vehicle_type_id":"4","last_reported":1770934830,"current_range_meters":39200,"station_id":"ce4bh292rcd13ifvqdg0","pricing_plan_id":"cebpf4jnsgd1na2vs0mg"},{"bike_id":"11bbe498-cd8f-4b2e-8e45-54529a7a0a47","system_id":"levelo_inurba_marseille","lat":43.29765,"lon":5.42783,"is_reserved":false,"is_disabled":false,"rental_uris":{"android":"levelo://app?vid=11bbe498-cd8f-4b2e-8e45-54529a7a0a47","ios":"levelo://app?vid=11bbe498-cd8f-4b2e-8e45-54529a7a0a47"},"vehicle_type_id":"4","last_reported":1770934830,"current_range_meters":20800,"station_id":"st_d3md5207bmas73dh9klg","pricing_plan_id":"cebpf4jnsgd1na2vs0mg"},{"bike_id":"31f296ea-cff6-49b5-89b1-3475fa6fea1c","system_id":"levelo_inurba_marseille","lat":43.2886,"lon":5.39333,"is_reserved":false,"is_disabled":false,"rental_uris":{"android":"levelo://app?vid=31f296ea-cff6-49b5-89b1-3475fa6fea1c","ios":"levelo://app?vid=31f296ea-cff6-49b5-89b1-3475fa6fea1c"},"vehicle_type_id":"4","last_reported":1770934830,"current_range_meters":35200,"station_id":"ce4bh2p2rcd13ifvqdi0","pricing_plan_id":"cebpf4jnsgd1na2vs0mg"},{"bike_id":"90b2eb3d-b8cf-47c7-bcb8-5d5b5f49b9b7","system_id":"levelo_inurba_marseille","lat":43.26551,"lon":5.39069,"is_reserved":false,"is_disabled":true,"rental_uris":{"android":"levelo://app?vid=90b2eb3d-b8cf-47c7-bcb8-5d5b5f49b9b7","ios":"levelo://app?vid=90b2eb3d-b8cf-47c7-bcb8-5d5b5f49b9b7"},"vehicle_type_id":"4","last_reported":1770934830,"current_range_meters":37600,"station_id":"","pricing_plan_id":"cebpf4jnsgd1na2vs0mg"},{"bike_id":"e57a4ebc-623c-4649-942c-2656f94045ed","system_id":"levelo_inurba_marseille","lat":43.31335,"lon":5.39691,"is_reserved":false,"is_disabled":false,"rental_uris":{"android":"levelo://app?vid=e57a4ebc-623c-4649-942c-2656f94045ed","ios":"levelo://app?vid=e57a4ebc-623c-4649-942c-2656f94045ed"},"vehicle_type_id":"4","last_reported":1770934830,"current_range_meters":16000,"station_id":"","pricing_plan_id":"cebpf4jnsgd1na2vs0mg"},{"bike_id":"536514bb-c698-4aa4-b8c1-d03e35630056","system_id":"levelo_inurba_marseille","lat":43.291659,"lon":5.371643,"is_reserved":false,"is_disabled":false,"rental_uris":{"android":"levelo://app?vid=536514bb-c698-4aa4-b8c1-d03e35630056","ios":"levelo://app?vid=536514bb-c698-4aa4-b8c1-d03e35630056"},"vehicle_type_id":"4","last_reported":1770934830,"current_range_meters":36800,"station_id":"ce4bha92rcd13ifvqeh0","pricing_plan_id":"cebpf4jnsgd1na2vs0mg"},{"bike_id":"6f6a04ad-dd00-4f4a-bdfd-a835cfa0cc11","system_id":"levelo_inurba_marseille","lat":43.27058,"lon":5.38314,"is_reserved":false,"is_disabled":false,"rental_uris":{"android":"levelo://app?vid=6f6a04ad-dd00-4f4a-bdfd-a835cfa0cc11","ios":"levelo://app?vid=6f6a04ad-dd00-4f4a-bdfd-a835cfa0cc11"},"vehicle_type_id":"4","last_reported":1770934830,"current_range_meters":39200,"station_id":"st_d3n2fo6cfp8s73cte1j0","pricing_plan_id":"cebpf4jnsgd1na2vs0mg"},{"bike_id":"e9ce9c1b-69cc-4453-910a-2c5c77edb5c3","system_id":"levelo_inurba_marseille","lat":43.30299,"lon":5.39231,"is_reserved":false,"is_disabled":false,"rental_uris":{"android":"levelo://app?vid=e9ce9c1b-69cc-4453-910a-2c5c77edb5c3","ios":"levelo://app?vid=e9ce9c1b-69cc-4453-910a-2c5c77edb5c3"},"vehicle_type_id":"4","last_reported":1770934830,"current_range_meters":27200,"station_id":"ce4bgkh2rcd13ifvqbk0","pricing_plan_id":"cebpf4jnsgd1na2vs0mg"},{"bike_id":"4e4c79b4-286f-458a-a494-98664f2e8591","system_id":"levelo_inurba_marseille","lat":43.330254,"lon":5.390377,"is_reserved":false,"is_disabled":false,"rental_uris":{"android":"levelo://app?vid=4e4c79b4-286f-458a-a494-98664f2e8591","ios":"levelo://app?vid=4e4c79b4-286f-458a-a494-98664f2e8591"},"vehicle_type_id":"4","last_reported":1770934830,"current_range_meters":39200,"station_id":"ce4bhr92rcd13ifvqhrg","pricing_plan_id":"cebpf4jnsgd1na2vs0mg"},{"bike_id":"6050d767-a8d3-4caa-a817-9663ea4a7930","system_id":"levelo_inurba_marseille","lat":43.29272,"lon":5.37609,"is_reserved":false,"is_disabled":false,"rental_uris":{"android":"levelo://app?vid=6050d767-a8d3-4caa-a817-9663ea4a7930","ios":"levelo://app?vid=6050d767-a8d3-4caa-a817-9663ea4a7930"},"vehicle_type_id":"4","last_reported":1770934830,"current_range_meters":40000,"station_id":"ce4bgi12rcd13ifvqb80","pricing_plan_id":"cebpf4jnsgd1na2vs0mg"},{"bike_id":"ed071cda-04a8-4478-b963-faa17e072e91","system_id":"levelo_inurba_marseille","lat":43.29536,"lon":5.3854,"is_reserved":false,"is_disabled":false,"rental_uris":{"android":"levelo://app?vid=ed071cda-04a8-4478-b963-faa17e072e91","ios":"levelo://app?vid=ed071cda-04a8-4478-b963-faa17e072e91"},"vehicle_type_id":"4","last_reported":1770934830,"current_range_meters":40000,"station_id":"ce4bgih2rcd13ifvqba0","pricing_plan_id":"cebpf4jnsgd1na2vs0mg"},{"bike_id":"c8d3deb4-912b-417b-a80c-9490cc095215","system_id":"levelo_inurba_marseille","lat":43.29812,"lon":5.37626,"is_reserved":false,"is_disabled":false,"rental_uris":{"android":"levelo://app?vid=c8d3deb4-912b-417b-a80c-9490cc095215","ios":"levelo://app?vid=c8d3deb4-912b-417b-a80c-9490cc095215"},"vehicle_type_id":"4","last_reported":1770934830,"current_range_meters":36800,"station_id":"","pricing_plan_id":"cebpf4jnsgd1na2vs0mg"},{"bike_id":"dbd40afb-0d84-4f0f-b160-b60a14900963","system_id":"levelo_inurba_marseille","lat":43.261,"lon":5.39382,"is_reserved":false,"is_disabled":false,"rental_uris":{"android":"levelo://app?vid=dbd40afb-0d84-4f0f-b160-b60a14900963","ios":"levelo://app?vid=dbd40afb-0d84-4f0f-b160-b60a14900963"},"vehicle_type_id":"4","last_reported":1770934830,"current_range_meters":39200,"station_id":"ce4bhh92rcd13ifvqfj0","pricing_plan_id":"cebpf4jnsgd1na2vs0mg"},{"bike_id":"dd966ed9-24f2-48df-a922-0c8f6d9f1d37","system_id":"levelo_inurba_marseille","lat":43.29202,"lon":5.3932,"is_reserved":false,"is_disabled":false,"rental_uris":{"android":"levelo://app?vid=dd966ed9-24f2-48df-a922-0c8f6d9f1d37","ios":"levelo://app?vid=dd966ed9-24f2-48df-a922-0c8f6d9f1d37"},"vehicle_type_id":"4","last_reported":1770934830,"current_range_meters":11600,"station_id":"ce4bh192rcd13ifvqdd0","pricing_plan_id":"cebpf4jnsgd1na2vs0mg"},{"bike_id":"beb8391b-c8c1-405a-b527-a4be01cb6949","system_id":"levelo_inurba_marseille","lat":43.248036,"lon":5.374558,"is_reserved":false,"is_disabled":false,"rental_uris":{"android":"levelo://app?vid=beb8391b-c8c1-405a-b527-a4be01cb6949","ios":"levelo://app?vid=beb8391b-c8c1-405a-b527-a4be01cb6949"},"vehicle_type_id":"4","last_reported":1770934830,"current_range_meters":30800,"station_id":"ce4bhgh2rcd13ifvqfb0","pricing_plan_id":"cebpf4jnsgd1na2vs0mg"},{"bike_id":"d8a21cf0-3eda-42f6-b76b-99e4c0602b17","system_id":"levelo_inurba_marseille","lat":43.24482,"lon":5.37632,"is_reserved":false,"is_disabled":false,"rental_uris":{"android":"levelo://app?vid=d8a21cf0-3eda-42f6-b76b-99e4c0602b17","ios":"levelo://app?vid=d8a21cf0-3eda-42f6-b76b-99e4c0602b17"},"vehicle_type_id":"4","last_reported":1770934830,"current_range_meters":37600,"station_id":"","pricing_plan_id":"cebpf4jnsgd1na2vs0mg"},{"bike_id":"516c9301-d93d-4f2a-b629-f4153180458e","system_id":"levelo_inurba_marseille","lat":43.29519,"lon":5.3856,"is_reserved":false,"is_disabled":false,"rental_uris":{"android":"levelo://app?vid=516c9301-d93d-4f2a-b629-f4153180458e","ios":"levelo://app?vid=516c9301-d93d-4f2a-b629-f4153180458e"},"vehicle_type_id":"4","last_reported":1770934830,"current_range_meters":11200,"station_id":"ce4bgih2rcd13ifvqba0","pricing_plan_id":"cebpf4jnsgd1na2vs0mg"},{"bike_id":"bb9d4fa8-a6c6-4b37-8296-006d271da3f9","system_id":"levelo_inurba_marseille","lat":43.25017,"lon":5.3894,"is_reserved":false,"is_disabled":false,"rental_uris":{"android":"levelo://app?vid=bb9d4fa8-a6c6-4b37-8296-006d271da3f9","ios":"levelo://app?vid=bb9d4fa8-a6c6-4b37-8296-006d271da3f9"},"vehicle_type_id":"4","last_reported":1770934830,"current_range_meters":32800,"station_id":"ce4bhgp2rcd13ifvqfd0","pricing_plan_id":"cebpf4jnsgd1na2vs0mg"},{"bike_id":"a3386325-f2d4-4b6d-8a3e-97ecda620555","system_id":"levelo_inurba_marseille","lat":43.31178,"lon":5.38733,"is_reserved":false,"is_disabled":false,"rental_uris":{"android":"levelo://app?vid=a3386325-f2d4-4b6d-8a3e-97ecda620555","ios":"levelo://app?vid=a3386325-f2d4-4b6d-8a3e-97ecda620555"},"vehicle_type_id":"4","last_reported":1770934830,"current_range_meters":14000,"station_id":"ce4bgv12rcd13ifvqcp0","pricing_plan_id":"cebpf4jnsgd1na2vs0mg"},{"bike_id":"8ae1aee6-ac8a-4eca-88d1-3b74d9a44fff","system_id":"levelo_inurba_marseille","lat":43.28861,"lon":5.35841,"is_reserved":false,"is_disabled":false,"rental_uris":{"android":"levelo://app?vid=8ae1aee6-ac8a-4eca-88d1-3b74d9a44fff","ios":"levelo://app?vid=8ae1aee6-ac8a-4eca-88d1-3b74d9a44fff"},"vehicle_type_id":"4","last_reported":1770934830,"current_range_meters":33200,"station_id":"ce4bhb12rcd13ifvqem0","pricing_plan_id":"cebpf4jnsgd1na2vs0mg"},{"bike_id":"978d2f99-2f31-4c4e-be2a-4e68224c9eda","system_id":"levelo_inurba_marseille","lat":43.26834,"lon":5.40261,"is_reserved":false,"is_disabled":false,"rental_uris":{"android":"levelo://app?vid=978d2f99-2f31-4c4e-be2a-4e68224c9eda","ios":"levelo://app?vid=978d2f99-2f31-4c4e-be2a-4e68224c9eda"},"vehicle_type_id":"4","last_reported":1770934830,"current_range_meters":32400,"station_id":"ce501612rcd8frsf0b60","pricing_plan_id":"cebpf4jnsgd1na2vs0mg"},{"bike_id":"db4f636e-b232-46b1-867e-c76f4ae9dc3e","system_id":"levelo_inurba_marseille","lat":43.32104,"lon":5.36779,"is_reserved":false,"is_disabled":false,"rental_uris":{"android":"levelo://app?vid=db4f636e-b232-46b1-867e-c76f4ae9dc3e","ios":"levelo://app?vid=db4f636e-b232-46b1-867e-c76f4ae9dc3e"},"vehicle_type_id":"4","last_reported":1770934830,"current_range_meters":24800,"station_id":"ce4bhrh2rcd13ifvqhug","pricing_plan_id":"cebpf4jnsgd1na2vs0mg"},{"bike_id":"b0216917-7a6a-43d4-828a-3d19c993f376","system_id":"levelo_inurba_marseille","lat":43.28677,"lon":5.36341,"is_reserved":false,"is_disabled":false,"rental_uris":{"android":"levelo://app?vid=b0216917-7a6a-43d4-828a-3d19c993f376","ios":"levelo://app?vid=b0216917-7a6a-43d4-828a-3d19c993f376"},"vehicle_type_id":"4","last_reported":1770934830,"current_range_meters":39200,"station_id":"ce4bhah2rcd13ifvqej0","pricing_plan_id":"cebpf4jnsgd1na2vs0mg"},{"bike_id":"28a28a42-0d8d-46c3-9354-ee02589636db","system_id":"levelo_inurba_marseille","lat":43.3089,"lon":5.39651,"is_reserved":false,"is_disabled":false,"rental_uris":{"android":"levelo://app?vid=28a28a42-0d8d-46c3-9354-ee02589636db","ios":"levelo://app?vid=28a28a42-0d8d-46c3-9354-ee02589636db"},"vehicle_type_id":"4","last_reported":1770934830,"current_range_meters":3200,"station_id":"ce4bh012rcd13ifvqcv0","pricing_plan_id":"cebpf4jnsgd1na2vs0mg"},{"bike_id":"24404e2f-7907-4c0b-a8da-161f9e441968","system_id":"levelo_inurba_marseille","lat":43.269361,"lon":5.402618,"is_reserved":false,"is_disabled":true,"rental_uris":{"android":"levelo://app?vid=24404e2f-7907-4c0b-a8da-161f9e441968","ios":"levelo://app?vid=24404e2f-7907-4c0b-a8da-161f9e441968"},"vehicle_type_id":"4","last_reported":1770934830,"current_range_meters":36400,"station_id":"cjm6bp8fraef2m0cb0m0","pricing_plan_id":"cebpf4jnsgd1na2vs0mg"},{"bike_id":"439d8096-e924-4926-b33d-e1a59bc67f7d","system_id":"levelo_inurba_marseille","lat":43.29261,"lon":5.38439,"is_reserved":false,"is_disabled":false,"rental_uris":{"android":"levelo://app?vid=439d8096-e924-4926-b33d-e1a59bc67f7d","ios":"levelo://app?vid=439d8096-e924-4926-b33d-e1a59bc67f7d"},"vehicle_type_id":"4","last_reported":1770934830,"current_range_meters":8400,"station_id":"ce4bh692rcd13ifvqea0","pricing_plan_id":"cebpf4jnsgd1na2vs0mg"},{"bike_id":"88ff9439-db02-4be2-a9f2-dbfd8e7a5968","system_id":"levelo_inurba_marseille","lat":43.25857,"lon":5.39905,"is_reserved":false,"is_disabled":false,"rental_uris":{"android":"levelo://app?vid=88ff9439-db02-4be2-a9f2-dbfd8e7a5968","ios":"levelo://app?vid=88ff9439-db02-4be2-a9f2-dbfd8e7a5968"},"vehicle_type_id":"4","last_reported":1770934830,"current_range_meters":38800,"station_id":"ce4bhl92rcd13ifvqghg","pricing_plan_id":"cebpf4jnsgd1na2vs0mg"},{"bike_id":"0d60f49b-2168-485f-9c8c-8bf326d0ba55","system_id":"levelo_inurba_marseille","lat":43.24503,"lon":5.42449,"is_reserved":false,"is_disabled":false,"rental_uris":{"android":"levelo://app?vid=0d60f49b-2168-485f-9c8c-8bf326d0ba55","ios":"levelo://app?vid=0d60f49b-2168-485f-9c8c-8bf326d0ba55"},"vehicle_type_id":"4","last_reported":1770934830,"current_range_meters":3200,"station_id":"","pricing_plan_id":"cebpf4jnsgd1na2vs0mg"},{"bike_id":"fb6e3715-5cf4-44c9-b456-0645a8903b17","system_id":"levelo_inurba_marseille","lat":43.2782,"lon":5.40694,"is_reserved":false,"is_disabled":false,"rental_uris":{"android":"levelo://app?vid=fb6e3715-5cf4-44c9-b456-0645a8903b17","ios":"levelo://app?vid=fb6e3715-5cf4-44c9-b456-0645a8903b17"},"vehicle_type_id":"4","last_reported":1770934830,"current_range_meters":33200,"station_id":"ce4bhnh2rcd13ifvqgtg","pricing_plan_id":"cebpf4jnsgd1na2vs0mg"},{"bike_id":"d30d7d9e-611d-4920-9b2d-b4a912454982","system_id":"levelo_inurba_marseille","lat":43.31275,"lon":5.37755,"is_reserved":false,"is_disabled":false,"rental_uris":{"android":"levelo://app?vid=d30d7d9e-611d-4920-9b2d-b4a912454982","ios":"levelo://app?vid=d30d7d9e-611d-4920-9b2d-b4a912454982"},"vehicle_type_id":"4","last_reported":1770934830,"current_range_meters":8400,"station_id":"","pricing_plan_id":"cebpf4jnsgd1na2vs0mg"},{"bike_id":"4af5268c-ca5d-4006-a3b3-566120e542f5","system_id":"levelo_inurba_marseille","lat":43.28724,"lon":5.39961,"is_reserved":false,"is_disabled":false,"rental_uris":{"android":"levelo://app?vid=4af5268c-ca5d-4006-a3b3-566120e542f5","ios":"levelo://app?vid=4af5268c-ca5d-4006-a3b3-566120e542f5"},"vehicle_type_id":"4","last_reported":1770934830,"current_range_meters":30400,"station_id":"ce4bho92rcd13ifvqh3g","pricing_plan_id":"cebpf4jnsgd1na2vs0mg"},{"bike_id":"37e8122a-c89a-431e-828d-072ace026f01","system_id":"levelo_inurba_marseille","lat":43.24777,"lon":5.37458,"is_reserved":false,"is_disabled":false,"rental_uris":{"android":"levelo://app?vid=37e8122a-c89a-431e-828d-072ace026f01","ios":"levelo://app?vid=37e8122a-c89a-431e-828d-072ace026f01"},"vehicle_type_id":"4","last_reported":1770934830,"current_range_meters":11200,"station_id":"ce4bhgh2rcd13ifvqfb0","pricing_plan_id":"cebpf4jnsgd1na2vs0mg"},{"bike_id":"aa05541f-dbbf-4d07-b9e8-f608612bc596","system_id":"levelo_inurba_marseille","lat":43.29636,"lon":5.40609,"is_reserved":false,"is_disabled":false,"rental_uris":{"android":"levelo://app?vid=aa05541f-dbbf-4d07-b9e8-f608612bc596","ios":"levelo://app?vid=aa05541f-dbbf-4d07-b9e8-f608612bc596"},"vehicle_type_id":"4","last_reported":1770934830,"current_range_meters":15200,"station_id":"ce4bh0h2rcd13ifvqd60","pricing_plan_id":"cebpf4jnsgd1na2vs0mg"},{"bike_id":"ffa1e1e3-e8ae-4ced-b365-192fa6908f6f","system_id":"levelo_inurba_marseille","lat":43.31184,"lon":5.38719,"is_reserved":false,"is_disabled":false,"rental_uris":{"android":"levelo://app?vid=ffa1e1e3-e8ae-4ced-b365-192fa6908f6f","ios":"levelo://app?vid=ffa1e1e3-e8ae-4ced-b365-192fa6908f6f"},"vehicle_type_id":"4","last_reported":1770934830,"current_range_meters":25200,"station_id":"ce4bgv12rcd13ifvqcp0","pricing_plan_id":"cebpf4jnsgd1na2vs0mg"},{"bike_id":"8491b334-0ba7-4277-9797-3edac002b21f","system_id":"levelo_inurba_marseille","lat":43.26198,"lon":5.4044,"is_reserved":false,"is_disabled":true,"rental_uris":{"android":"levelo://app?vid=8491b334-0ba7-4277-9797-3edac002b21f","ios":"levelo://app?vid=8491b334-0ba7-4277-9797-3edac002b21f"},"vehicle_type_id":"4","last_reported":1770934830,"current_range_meters":20000,"station_id":"ce4bhmh2rcd13ifvqgmg","pricing_plan_id":"cebpf4jnsgd1na2vs0mg"},{"bike_id":"6c78efb4-21ea-48b6-a077-5447702c0f63","system_id":"levelo_inurba_marseille","lat":43.29907,"lon":5.43675,"is_reserved":false,"is_disabled":false,"rental_uris":{"android":"levelo://app?vid=6c78efb4-21ea-48b6-a077-5447702c0f63","ios":"levelo://app?vid=6c78efb4-21ea-48b6-a077-5447702c0f63"},"vehicle_type_id":"4","last_reported":1770934830,"current_range_meters":36400,"station_id":"ce4bhpp2rcd13ifvqhfg","pricing_plan_id":"cebpf4jnsgd1na2vs0mg"},{"bike_id":"87e52233-7157-484b-968d-b0beff0b44bb","system_id":"levelo_inurba_marseille","lat":43.269471,"lon":5.402661,"is_reserved":false,"is_disabled":false,"rental_uris":{"android":"levelo://app?vid=87e52233-7157-484b-968d-b0beff0b44bb","ios":"levelo://app?vid=87e52233-7157-484b-968d-b0beff0b44bb"},"vehicle_type_id":"4","last_reported":1770934830,"current_range_meters":30000,"station_id":"cjm6bp8fraef2m0cb0m0","pricing_plan_id":"cebpf4jnsgd1na2vs0mg"},{"bike_id":"97a62e35-510e-4a73-8eca-01c7ca2af946","system_id":"levelo_inurba_marseille","lat":43.31714,"lon":5.37746,"is_reserved":false,"is_disabled":false,"rental_uris":{"android":"levelo://app?vid=97a62e35-510e-4a73-8eca-01c7ca2af946","ios":"levelo://app?vid=97a62e35-510e-4a73-8eca-01c7ca2af946"},"vehicle_type_id":"4","last_reported":1770934830,"current_range_meters":25200,"station_id":"ce4bgth2rcd13ifvqch0","pricing_plan_id":"cebpf4jnsgd1na2vs0mg"},{"bike_id":"fb018fac-6eef-49af-bd5b-057049b63181","system_id":"levelo_inurba_marseille","lat":43.28615,"lon":5.35101,"is_reserved":false,"is_disabled":false,"rental_uris":{"android":"levelo://app?vid=fb018fac-6eef-49af-bd5b-057049b63181","ios":"levelo://app?vid=fb018fac-6eef-49af-bd5b-057049b63181"},"vehicle_type_id":"4","last_reported":1770934830,"current_range_meters":20800,"station_id":"ce4bhch2rcd13ifvqeug","pricing_plan_id":"cebpf4jnsgd1na2vs0mg"},{"bike_id":"3bb5bc67-1d0a-4908-8016-273223517602","system_id":"levelo_inurba_marseille","lat":43.26056,"lon":5.39404,"is_reserved":false,"is_disabled":false,"rental_uris":{"android":"levelo://app?vid=3bb5bc67-1d0a-4908-8016-273223517602","ios":"levelo://app?vid=3bb5bc67-1d0a-4908-8016-273223517602"},"vehicle_type_id":"4","last_reported":1770934830,"current_range_meters":12800,"station_id":"ce4bhh92rcd13ifvqfj0","pricing_plan_id":"cebpf4jnsgd1na2vs0mg"},{"bike_id":"b703f50b-a18a-4fec-a07a-96fb85ad6fd0","system_id":"levelo_inurba_marseille","lat":43.26231,"lon":5.3747,"is_reserved":false,"is_disabled":false,"rental_uris":{"android":"levelo://app?vid=b703f50b-a18a-4fec-a07a-96fb85ad6fd0","ios":"levelo://app?vid=b703f50b-a18a-4fec-a07a-96fb85ad6fd0"},"vehicle_type_id":"4","last_reported":1770934830,"current_range_meters":35600,"station_id":"","pricing_plan_id":"cebpf4jnsgd1na2vs0mg"},{"bike_id":"c1b36981-2407-4376-85d9-fb3bd1a789c0","system_id":"levelo_inurba_marseille","lat":43.28033,"lon":5.36952,"is_reserved":false,"is_disabled":false,"rental_uris":{"android":"levelo://app?vid=c1b36981-2407-4376-85d9-fb3bd1a789c0","ios":"levelo://app?vid=c1b36981-2407-4376-85d9-fb3bd1a789c0"},"vehicle_type_id":"4","last_reported":1770934830,"current_range_meters":23200,"station_id":"ce4bha12rcd13ifvqef0","pricing_plan_id":"cebpf4jnsgd1na2vs0mg"},{"bike_id":"daf88a4a-38c1-4a48-9faf-8edd173ac368","system_id":"levelo_inurba_marseille","lat":43.31184,"lon":5.38714,"is_reserved":false,"is_disabled":true,"rental_uris":{"android":"levelo://app?vid=daf88a4a-38c1-4a48-9faf-8edd173ac368","ios":"levelo://app?vid=daf88a4a-38c1-4a48-9faf-8edd173ac368"},"vehicle_type_id":"4","last_reported":1770934830,"current_range_meters":35200,"station_id":"ce4bgv12rcd13ifvqcp0","pricing_plan_id":"cebpf4jnsgd1na2vs0mg"},{"bike_id":"24beea5a-2b5a-498b-8ea8-a6b69dfa911e","system_id":"levelo_inurba_marseille","lat":43.24664,"lon":5.43132,"is_reserved":false,"is_disabled":false,"rental_uris":{"android":"levelo://app?vid=24beea5a-2b5a-498b-8ea8-a6b69dfa911e","ios":"levelo://app?vid=24beea5a-2b5a-498b-8ea8-a6b69dfa911e"},"vehicle_type_id":"4","last_reported":1770934830,"current_range_meters":37600,"station_id":"st_d2m6c4gdas8pm72e190g","pricing_plan_id":"cebpf4jnsgd1na2vs0mg"},{"bike_id":"244dce9a-d954-4b37-ae15-1ed94931cff6","system_id":"levelo_inurba_marseille","lat":43.30417,"lon":5.41271,"is_reserved":false,"is_disabled":false,"rental_uris":{"android":"levelo://app?vid=244dce9a-d954-4b37-ae15-1ed94931cff6","ios":"levelo://app?vid=244dce9a-d954-4b37-ae15-1ed94931cff6"},"vehicle_type_id":"4","last_reported":1770934830,"current_range_meters":25200,"station_id":"ce4bhop2rcd13ifvqh8g","pricing_plan_id":"cebpf4jnsgd1na2vs0mg"},{"bike_id":"27ce62ce-1a2a-4976-a07a-f3fc8afb6c5e","system_id":"levelo_inurba_marseille","lat":43.29256,"lon":5.38431,"is_reserved":false,"is_disabled":false,"rental_uris":{"android":"levelo://app?vid=27ce62ce-1a2a-4976-a07a-f3fc8afb6c5e","ios":"levelo://app?vid=27ce62ce-1a2a-4976-a07a-f3fc8afb6c5e"},"vehicle_type_id":"4","last_reported":1770934830,"current_range_meters":17200,"station_id":"ce4bh692rcd13ifvqea0","pricing_plan_id":"cebpf4jnsgd1na2vs0mg"},{"bike_id":"f6f51c74-d8c8-4396-b4e0-cf2b84e308b0","system_id":"levelo_inurba_marseille","lat":43.31226,"lon":5.36826,"is_reserved":false,"is_disabled":false,"rental_uris":{"android":"levelo://app?vid=f6f51c74-d8c8-4396-b4e0-cf2b84e308b0","ios":"levelo://app?vid=f6f51c74-d8c8-4396-b4e0-cf2b84e308b0"},"vehicle_type_id":"4","last_reported":1770934830,"current_range_meters":29600,"station_id":"ce4bgl92rcd13ifvqbq0","pricing_plan_id":"cebpf4jnsgd1na2vs0mg"},{"bike_id":"d2229b13-3c01-426f-a1c3-3c9e5d3accfe","system_id":"levelo_inurba_marseille","lat":43.23392,"lon":5.41215,"is_reserved":false,"is_disabled":false,"rental_uris":{"android":"levelo://app?vid=d2229b13-3c01-426f-a1c3-3c9e5d3accfe","ios":"levelo://app?vid=d2229b13-3c01-426f-a1c3-3c9e5d3accfe"},"vehicle_type_id":"4","last_reported":1770934830,"current_range_meters":16000,"station_id":"","pricing_plan_id":"cebpf4jnsgd1na2vs0mg"},{"bike_id":"feaff90c-1316-4656-a4a6-3e3d0f99866a","system_id":"levelo_inurba_marseille","lat":43.30952,"lon":5.39028,"is_reserved":false,"is_disabled":false,"rental_uris":{"android":"levelo://app?vid=feaff90c-1316-4656-a4a6-3e3d0f99866a","ios":"levelo://app?vid=feaff90c-1316-4656-a4a6-3e3d0f99866a"},"vehicle_type_id":"4","last_reported":1770934830,"current_range_meters":33200,"station_id":"ce4bgup2rcd13ifvqco0","pricing_plan_id":"cebpf4jnsgd1na2vs0mg"},