{"last_updated":1727791749,"ttl":60,"version":"2.2","data":{"bikes":[{"bike_id":"a7afa7a7-8f8c-43aa-841f-b0c235607aeb","system_id":"levelo_inurba_marseille","lat":43.305511,"lon":5.365529,"is_reserved":false,"is_disabled":false,"rental_uris":{"android":"levelo://app?vid=a7afa7a7-8f8c-43aa-841f-b0c235607aeb","ios":"levelo://app?vid=a7afa7a7-8f8c-43aa-841f-b0c235607aeb"},"vehicle_type_id":"4","last_reported":1727791750,"current_range_meters":4400,"station_id":"ce4bgs12rcd13ifvqcag","pricing_plan_id":"cebpf4jnsgd1na2vs0mg"},{"bike_id":"217a0d9e-af06-4afa-90d2-ae088fdc4081","system_id":"levelo_inurba_marseille","lat":43.33026,"lon":5.39045,"is_reserved":false,"is_disabled":false,"rental_uris":{"android":"levelo://app?vid=217a0d9e-af06-4afa-90d2-ae088fdc4081","ios":"levelo://app?vid=217a0d9e-af06-4afa-90d2-ae088fdc4081"},"vehicle_type_id":"4","last_reported":1727791750,"current_range_meters":8800,"station_id":"ce4bhr92rcd13ifvqhrg","pricing_plan_id":"cebpf4jnsgd1na2vs0mg"},{"bike_id":"45278508-ffed-42b8-b0fa-7766eabb2075","system_id":"levelo_inurba_marseille","lat":43.34144,"lon":5.40907,"is_reserved":false,"is_disabled":false,"rental_uris":{"android":"levelo://app?vid=45278508-ffed-42b8-b0fa-7766eabb2075","ios":"levelo://app?vid=45278508-ffed-42b8-b0fa-7766eabb2075"},"vehicle_type_id":"4","last_reported":1727791750,"current_range_meters":38800,"station_id":"ce4bhqh2rcd13ifvqhlg","pricing_plan_id":"cebpf4jnsgd1na2vs0mg"},{"bike_id":"7314e9a8-9839-4ed9-a3d7-54f6332cee73","system_id":"levelo_inurba_marseille","lat":43.27392,"lon":5.39421,"is_reserved":false,"is_disabled":false,"rental_uris":{"android":"levelo://app?vid=7314e9a8-9839-4ed9-a3d7-54f6332cee73","ios":"levelo://app?vid=7314e9a8-9839-4ed9-a3d7-54f6332cee73"},"vehicle_type_id":"4","last_reported":1727791750,"current_range_meters":38400,"station_id":"ce4bhdp2rcd13ifvqf20","pricing_plan_id":"cebpf4jnsgd1na2vs0mg"},{"bike_id":"dad62afc-f55e-4d7d-8a4c-c944cff61821","system_id":"levelo_inurba_marseille","lat":43.24401,"lon":5.37058,"is_reserved":false,"is_disabled":false,"rental_uris":{"android":"levelo://app?vid=dad62afc-f55e-4d7d-8a4c-c944cff61821","ios":"levelo://app?vid=dad62afc-f55e-4d7d-8a4c-c944cff61821"},"vehicle_type_id":"4","last_reported":1727791750,"current_range_meters":32000,"station_id":"ce4bhhh2rcd13ifvqfk0","pricing_plan_id":"cebpf4jnsgd1na2vs0mg"},{"bike_id":"100a6eb3-d864-4715-8031-7729c74975fb","system_id":"levelo_inurba_marseille","lat":43.27998,"lon":5.40006,"is_reserved":false,"is_disabled":false,"rental_uris":{"android":"levelo://app?vid=100a6eb3-d864-4715-8031-7729c74975fb","ios":"levelo://app?vid=100a6eb3-d864-4715-8031-7729c74975fb"},"vehicle_type_id":"4","last_reported":1727791750,"current_range_meters":20000,"station_id":"ce4bho92rcd13ifvqh4g","pricing_plan_id":"cebpf4jnsgd1na2vs0mg"},{"bike_id":"8e0a6726-9956-4294-8475-dbc54fe1557c","system_id":"levelo_inurba_marseille","lat":43.3054,"lon":5.3653,"is_reserved":false,"is_disabled":false,"rental_uris":{"android":"levelo://app?vid=8e0a6726-9956-4294-8475-dbc54fe1557c","ios":"levelo://app?vid=8e0a6726-9956-4294-8475-dbc54fe1557c"},"vehicle_type_id":"4","last_reported":1727791750,"current_range_meters":38000,"station_id":"ce4bgs12rcd13ifvqcag","pricing_plan_id":"cebpf4jnsgd1na2vs0mg"},{"bike_id":"513c5bd8-bf1f-4410-a827-c1858341840c","system_id":"levelo_inurba_marseille","lat":43.24391,"lon":5.37053,"is_reserved":false,"is_disabled":false,"rental_uris":{"android":"levelo://app?vid=513c5bd8-bf1f-4410-a827-c1858341840c","ios":"levelo://app?vid=513c5bd8-bf1f-4410-a827-c1858341840c"},"vehicle_type_id":"4","last_reported":1727791750,"current_range_meters":28400,"station_id":"ce4bhhh2rcd13ifvqfk0","pricing_plan_id":"cebpf4jnsgd1na2vs0mg"},{"bike_id":"f7ab1ff5-e3c9-48ef-bb52-3f7e8d2513a3","system_id":"levelo_inurba_marseille","lat":43.30576,"lon":5.36734,"is_reserved":false,"is_disabled":false,"rental_uris":{"android":"levelo://app?vid=f7ab1ff5-e3c9-48ef-bb52-3f7e8d2513a3","ios":"levelo://app?vid=f7ab1ff5-e3c9-48ef-bb52-3f7e8d2513a3"},"vehicle_type_id":"4","last_reported":1727791750,"current_range_meters":6400,"station_id":"ce4bgrp2rcd13ifvqc9g","pricing_plan_id":"cebpf4jnsgd1na2vs0mg"},{"bike_id":"2ea6358d-4867-4e56-a48e-1320ded0a5ed","system_id":"levelo_inurba_marseille","lat":43.30804,"lon":5.43521,"is_reserved":false,"is_disabled":false,"rental_uris":{"android":"levelo://app?vid=2ea6358d-4867-4e56-a48e-1320ded0a5ed","ios":"levelo://app?vid=2ea6358d-4867-4e56-a48e-1320ded0a5ed"},"vehicle_type_id":"4","last_reported":1727791750,"current_range_meters":3600,"station_id":"ce4bhph2rcd13ifvqheg","pricing_plan_id":"cebpf4jnsgd1na2vs0mg"},{"bike_id":"89a04316-5fe6-4814-b577-c2af214f628a","system_id":"levelo_inurba_marseille","lat":43.31358,"lon":5.36712,"is_reserved":false,"is_disabled":false,"rental_uris":{"android":"levelo://app?vid=89a04316-5fe6-4814-b577-c2af214f628a","ios":"levelo://app?vid=89a04316-5fe6-4814-b577-c2af214f628a"},"vehicle_type_id":"4","last_reported":1727791750,"current_range_meters":16800,"station_id":"ce4bgr92rcd13ifvqc6g","pricing_plan_id":"cebpf4jnsgd1na2vs0mg"},{"bike_id":"a6a2f10a-dc98-43ca-a7c6-e4c930b322c5","system_id":"levelo_inurba_marseille","lat":43.29038,"lon":5.39958,"is_reserved":false,"is_disabled":false,"rental_uris":{"android":"levelo://app?vid=a6a2f10a-dc98-43ca-a7c6-e4c930b322c5","ios":"levelo://app?vid=a6a2f10a-dc98-43ca-a7c6-e4c930b322c5"},"vehicle_type_id":"4","last_reported":1727791750,"current_range_meters":23200,"station_id":"ce4bh392rcd13ifvqdm0","pricing_plan_id":"cebpf4jnsgd1na2vs0mg"},{"bike_id":"bb4b662a-ee89-4f01-884b-960d14f67fbc","system_id":"levelo_inurba_marseille","lat":43.29273,"lon":5.36843,"is_reserved":false,"is_disabled":false,"rental_uris":{"android":"levelo://app?vid=bb4b662a-ee89-4f01-884b-960d14f67fbc","ios":"levelo://app?vid=bb4b662a-ee89-4f01-884b-960d14f67fbc"},"vehicle_type_id":"4","last_reported":1727791750,"current_range_meters":28400,"station_id":"ce4bhbp2rcd13ifvqesg","pricing_plan_id":"cebpf4jnsgd1na2vs0mg"},{"bike_id":"4e2386fe-4595-496e-a210-3f78686cdb2a","system_id":"levelo_inurba_marseille","lat":43.24547,"lon":5.39529,"is_reserved":false,"is_disabled":false,"rental_uris":{"android":"levelo://app?vid=4e2386fe-4595-496e-a210-3f78686cdb2a","ios":"levelo://app?vid=4e2386fe-4595-496e-a210-3f78686cdb2a"},"vehicle_type_id":"4","last_reported":1727791750,"current_range_meters":33200,"station_id":"ce4bhlp2rcd13ifvqgjg","pricing_plan_id":"cebpf4jnsgd1na2vs0mg"},{"bike_id":"9d5cb72e-46ea-4db9-9640-1ef8ef6de092","system_id":"levelo_inurba_marseille","lat":43.23968,"lon":5.36628,"is_reserved":false,"is_disabled":false,"rental_uris":{"android":"levelo://app?vid=9d5cb72e-46ea-4db9-9640-1ef8ef6de092","ios":"levelo://app?vid=9d5cb72e-46ea-4db9-9640-1ef8ef6de092"},"vehicle_type_id":"4","last_reported":1727791750,"current_range_meters":31200,"station_id":"ce4bhi12rcd13ifvqfp0","pricing_plan_id":"cebpf4jnsgd1na2vs0mg"},{"bike_id":"9e03787a-2278-4bc0-9f90-d1b5cb4d5e8e","system_id":"levelo_inurba_marseille","lat":43.30536,"lon":5.36534,"is_reserved":false,"is_disabled":false,"rental_uris":{"android":"levelo://app?vid=9e03787a-2278-4bc0-9f90-d1b5cb4d5e8e","ios":"levelo://app?vid=9e03787a-2278-4bc0-9f90-d1b5cb4d5e8e"},"vehicle_type_id":"4","last_reported":1727791750,"current_range_meters":34800,"station_id":"ce4bgs12rcd13ifvqcag","pricing_plan_id":"cebpf4jnsgd1na2vs0mg"},{"bike_id":"72c175b3-8814-4ae8-b803-a051779554ca","system_id":"levelo_inurba_marseille","lat":43.29904,"lon":5.38141,"is_reserved":false,"is_disabled":false,"rental_uris":{"android":"levelo://app?vid=72c175b3-8814-4ae8-b803-a051779554ca","ios":"levelo://app?vid=72c175b3-8814-4ae8-b803-a051779554ca"},"vehicle_type_id":"4","last_reported":1727791750,"current_range_meters":34000,"station_id":"ce4bgj12rcd13ifvqbc0","pricing_plan_id":"cebpf4jnsgd1na2vs0mg"},{"bike_id":"7803cd9d-a88a-41b8-8d15-3e3ad0e476a1","system_id":"levelo_inurba_marseille","lat":43.29093,"lon":5.38133,"is_reserved":false,"is_disabled":false,"rental_uris":{"android":"levelo://app?vid=7803cd9d-a88a-41b8-8d15-3e3ad0e476a1","ios":"levelo://app?vid=7803cd9d-a88a-41b8-8d15-3e3ad0e476a1"},"vehicle_type_id":"4","last_reported":1727791750,"current_range_meters":33200,"station_id":"ce4bh512rcd13ifvqe2g","pricing_plan_id":"cebpf4jnsgd1na2vs0mg"},{"bike_id":"74dcd09d-9212-4b44-9964-c7ba6bc4fdfc","system_id":"levelo_inurba_marseille","lat":43.25938,"lon":5.40896,"is_reserved":false,"is_disabled":false,"rental_uris":{"android":"levelo://app?vid=74dcd09d-9212-4b44-9964-c7ba6bc4fdfc","ios":"levelo://app?vid=74dcd09d-9212-4b44-9964-c7ba6bc4fdfc"},"vehicle_type_id":"4","last_reported":1727791750,"current_range_meters":29600,"station_id":"ce4bhm92rcd13ifvqglg","pricing_plan_id":"cebpf4jnsgd1na2vs0mg"},{"bike_id":"df6c3633-bc05-4cc6-9fc7-c8831364a947","system_id":"levelo_inurba_marseille","lat":43.27812,"lon":5.40713,"is_reserved":false,"is_disabled":false,"rental_uris":{"android":"levelo://app?vid=df6c3633-bc05-4cc6-9fc7-c8831364a947","ios":"levelo://app?vid=df6c3633-bc05-4cc6-9fc7-c8831364a947"},"vehicle_type_id":"4","last_reported":1727791750,"current_range_meters":38800,"station_id":"ce4bhnh2rcd13ifvqgtg","pricing_plan_id":"cebpf4jnsgd1na2vs0mg"},{"bike_id":"2374485c-a68f-4819-bcf4-d02bd8e8f228","system_id":"levelo_inurba_marseille","lat":43.29986,"lon":5.37179,"is_reserved":false,"is_disabled":false,"rental_uris":{"android":"levelo://app?vid=2374485c-a68f-4819-bcf4-d02bd8e8f228","ios":"levelo://app?vid=2374485c-a68f-4819-bcf4-d02bd8e8f228"},"vehicle_type_id":"4","last_reported":1727791750,"current_range_meters":36800,"station_id":"ce4bgr92rcd13ifvqc7g","pricing_plan_id":"cebpf4jnsgd1na2vs0mg"},{"bike_id":"ad584409-5a37-4a43-b5f5-48f9ee5e93f2","system_id":"levelo_inurba_marseille","lat":43.24671,"lon":5.38159,"is_reserved":false,"is_disabled":false,"rental_uris":{"android":"levelo://app?vid=ad584409-5a37-4a43-b5f5-48f9ee5e93f2","ios":"levelo://app?vid=ad584409-5a37-4a43-b5f5-48f9ee5e93f2"},"vehicle_type_id":"4","last_reported":1727791750,"current_range_meters":30800,"station_id":"ce4bhih2rcd13ifvqfr0","pricing_plan_id":"cebpf4jnsgd1na2vs0mg"},{"bike_id":"ad1472c4-c893-4668-93d4-1f146e193c11","system_id":"levelo_inurba_marseille","lat":43.2466,"lon":5.38158,"is_reserved":false,"is_disabled":false,"rental_uris":{"android":"levelo://app?vid=ad1472c4-c893-4668-93d4-1f146e193c11","ios":"levelo://app?vid=ad1472c4-c893-4668-93d4-1f146e193c11"},"vehicle_type_id":"4","last_reported":1727791750,"current_range_meters":35600,"station_id":"ce4bhih2rcd13ifvqfr0","pricing_plan_id":"cebpf4jnsgd1na2vs0mg"},{"bike_id":"5e4a2d93-ae22-43b5-97ab-5d1ca7106f99","system_id":"levelo_inurba_marseille","lat":43.26804,"lon":5.40269,"is_reserved":false,"is_disabled":false,"rental_uris":{"android":"levelo://app?vid=5e4a2d93-ae22-43b5-97ab-5d1ca7106f99","ios":"levelo://app?vid=5e4a2d93-ae22-43b5-97ab-5d1ca7106f99"},"vehicle_type_id":"4","last_reported":1727791750,"current_range_meters":35200,"station_id":"ce501612rcd8frsf0b60","pricing_plan_id":"cebpf4jnsgd1na2vs0mg"},{"bike_id":"3f089a9d-a217-459d-a178-f1c692628b7e","system_id":"levelo_inurba_marseille","lat":43.29703,"lon":5.36609,"is_reserved":false,"is_disabled":false,"rental_uris":{"android":"levelo://app?vid=3f089a9d-a217-459d-a178-f1c692628b7e","ios":"levelo://app?vid=3f089a9d-a217-459d-a178-f1c692628b7e"},"vehicle_type_id":"4","last_reported":1727791750,"current_range_meters":17200,"station_id":"ce4bgn12rcd13ifvqbt0","pricing_plan_id":"cebpf4jnsgd1na2vs0mg"},{"bike_id":"831fbbad-3d6d-4368-80fa-d31dc8930ee3","system_id":"levelo_inurba_marseille","lat":43.30357,"lon":5.41882,"is_reserved":false,"is_disabled":false,"rental_uris":{"android":"levelo://app?vid=831fbbad-3d6d-4368-80fa-d31dc8930ee3","ios":"levelo://app?vid=831fbbad-3d6d-4368-80fa-d31dc8930ee3"},"vehicle_type_id":"4","last_reported":1727791750,"current_range_meters":7200,"station_id":"ce4bhop2rcd13ifvqh7g","pricing_plan_id":"cebpf4jnsgd1na2vs0mg"},{"bike_id":"a7848d8a-2b89-4961-bf32-bf5849ebc5e8","system_id":"levelo_inurba_marseille","lat":43.30545,"lon":5.36543,"is_reserved":false,"is_disabled":false,"rental_uris":{"android":"levelo://app?vid=a7848d8a-2b89-4961-bf32-bf5849ebc5e8","ios":"levelo://app?vid=a7848d8a-2b89-4961-bf32-bf5849ebc5e8"},"vehicle_type_id":"4","last_reported":1727791750,"current_range_meters":9600,"station_id":"ce4bgs12rcd13ifvqcag","pricing_plan_id":"cebpf4jnsgd1na2vs0mg"},{"bike_id":"7a5c9d04-4c07-4a21-9c62-67944be5358c","system_id":"levelo_inurba_marseille","lat":43.28663,"lon":5.36352,"is_reserved":false,"is_disabled":false,"rental_uris":{"android":"levelo://app?vid=7a5c9d04-4c07-4a21-9c62-67944be5358c","ios":"levelo://app?vid=7a5c9d04-4c07-4a21-9c62-67944be5358c"},"vehicle_type_id":"4","last_reported":1727791750,"current_range_meters":38800,"station_id":"ce4bhah2rcd13ifvqej0","pricing_plan_id":"cebpf4jnsgd1na2vs0mg"},{"bike_id":"e6b2b897-aadc-46c2-a502-96be838c904d","system_id":"levelo_inurba_marseille","lat":43.30878,"lon":5.37187,"is_reserved":false,"is_disabled":false,"rental_uris":{"android":"levelo://app?vid=e6b2b897-aadc-46c2-a502-96be838c904d","ios":"levelo://app?vid=e6b2b897-aadc-46c2-a502-96be838c904d"},"vehicle_type_id":"4","last_reported":1727791750,"current_range_meters":17600,"station_id":"ce4bguh2rcd13ifvqckg","pricing_plan_id":"cebpf4jnsgd1na2vs0mg"},{"bike_id":"204c915e-3529-454b-9446-de266d35789b","system_id":"levelo_inurba_marseille","lat":43.29598,"lon":5.38102,"is_reserved":false,"is_disabled":false,"rental_uris":{"android":"levelo://app?vid=204c915e-3529-454b-9446-de266d35789b","ios":"levelo://app?vid=204c915e-3529-454b-9446-de266d35789b"},"vehicle_type_id":"4","last_reported":1727791750,"current_range_meters":28000,"station_id":"ce4bgl12rcd13ifvqbo0","pricing_plan_id":"cebpf4jnsgd1na2vs0mg"},{"bike_id":"cda7da42-3b1a-4306-ac4b-c0997b8af557","system_id":"levelo_inurba_marseille","lat":43.33024,"lon":5.39034,"is_reserved":false,"is_disabled":false,"rental_uris":{"android":"levelo://app?vid=cda7da42-3b1a-4306-ac4b-c0997b8af557","ios":"levelo://app?vid=cda7da42-3b1a-4306-ac4b-c0997b8af557"},"vehicle_type_id":"4","last_reported":1727791750,"current_range_meters":22000,"station_id":"ce4bhr92rcd13ifvqhrg","pricing_plan_id":"cebpf4jnsgd1na2vs0mg"},{"bike_id":"7af77c66-14a6-4842-98c2-c8d22eae89c7","system_id":"levelo_inurba_marseille","lat":43.28936,"lon":5.36635,"is_reserved":false,"is_disabled":false,"rental_uris":{"android":"levelo://app?vid=7af77c66-14a6-4842-98c2-c8d22eae89c7","ios":"levelo://app?vid=7af77c66-14a6-4842-98c2-c8d22eae89c7"},"vehicle_type_id":"4","last_reported":1727791750,"current_range_meters":24800,"station_id":"ce4bhap2rcd13ifvqek0","pricing_plan_id":"cebpf4jnsgd1na2vs0mg"},{"bike_id":"0b6260bd-aa21-44d1-9ebd-3060b01dddc4","system_id":"levelo_inurba_marseille","lat":43.27675,"lon":5.38885,"is_reserved":false,"is_disabled":false,"rental_uris":{"android":"levelo://app?vid=0b6260bd-aa21-44d1-9ebd-3060b01dddc4","ios":"levelo://app?vid=0b6260bd-aa21-44d1-9ebd-3060b01dddc4"},"vehicle_type_id":"4","last_reported":1727791750,"current_range_meters":38800,"station_id":"ce4bhi12rcd13ifvqfo0","pricing_plan_id":"cebpf4jnsgd1na2vs0mg"},{"bike_id":"8b6093db-3634-446a-b668-55835c0dbcfb","system_id":"levelo_inurba_marseille","lat":43.2593,"lon":5.40909,"is_reserved":false,"is_disabled":false,"rental_uris":{"android":"levelo://app?vid=8b6093db-3634-446a-b668-55835c0dbcfb","ios":"levelo://app?vid=8b6093db-3634-446a-b668-55835c0dbcfb"},"vehicle_type_id":"4","last_reported":1727791750,"current_range_meters":3600,"station_id":"ce4bhm92rcd13ifvqglg","pricing_plan_id":"cebpf4jnsgd1na2vs0mg"},{"bike_id":"9c73a4e7-6325-476d-9a9b-b77d77cfe6a7","system_id":"levelo_inurba_marseille","lat":43.31079,"lon":5.38354,"is_reserved":false,"is_disabled":false,"rental_uris":{"android":"levelo://app?vid=9c73a4e7-6325-476d-9a9b-b77d77cfe6a7","ios":"levelo://app?vid=9c73a4e7-6325-476d-9a9b-b77d77cfe6a7"},"vehicle_type_id":"4","last_reported":1727791750,"current_range_meters":35200,"station_id":"ce4bgv92rcd13ifvqcr0","pricing_plan_id":"cebpf4jnsgd1na2vs0mg"},{"bike_id":"598bd032-659f-450e-a704-9a691daf37bb","system_id":"levelo_inurba_marseille","lat":43.30886,"lon":5.37191,"is_reserved":false,"is_disabled":false,"rental_uris":{"android":"levelo://app?vid=598bd032-659f-450e-a704-9a691daf37bb","ios":"levelo://app?vid=598bd032-659f-450e-a704-9a691daf37bb"},"vehicle_type_id":"4","last_reported":1727791750,"current_range_meters":8000,"station_id":"ce4bguh2rcd13ifvqckg","pricing_plan_id":"cebpf4jnsgd1na2vs0mg"},{"bike_id":"1905fe18-e5d0-44e3-8fcd-0a4a58d04d15","system_id":"levelo_inurba_marseille","lat":43.30551,"lon":5.36541,"is_reserved":false,"is_disabled":false,"rental_uris":{"android":"levelo://app?vid=1905fe18-e5d0-44e3-8fcd-0a4a58d04d15","ios":"levelo://app?vid=1905fe18-e5d0-44e3-8fcd-0a4a58d04d15"},"vehicle_type_id":"4","last_reported":1727791750,"current_range_meters":35200,"station_id":"ce4bgs12rcd13ifvqcag","pricing_plan_id":"cebpf4jnsgd1na2vs0mg"},{"bike_id":"9deb805e-678b-4aed-966b-5f1b83807ec0","system_id":"levelo_inurba_marseille","lat":43.30542,"lon":5.38427,"is_reserved":false,"is_disabled":false,"rental_uris":{"android":"levelo://app?vid=9deb805e-678b-4aed-966b-5f1b83807ec0","ios":"levelo://app?vid=9deb805e-678b-4aed-966b-5f1b83807ec0"},"vehicle_type_id":"4","last_reported":1727791750,"current_range_meters":4000,"station_id":"ce4bgg92rcd13ifvqb30","pricing_plan_id":"cebpf4jnsgd1na2vs0mg"},{"bike_id":"64d4da6a-d17c-411a-afd5-8ed42407c294","system_id":"levelo_inurba_marseille","lat":43.26223,"lon":5.37436,"is_reserved":false,"is_disabled":false,"rental_uris":{"android":"levelo://app?vid=64d4da6a-d17c-411a-afd5-8ed42407c294","ios":"levelo://app?vid=64d4da6a-d17c-411a-afd5-8ed42407c294"},"vehicle_type_id":"4","last_reported":1727791750,"current_range_meters":8800,"station_id":"ce4bhgp2rcd13ifvqfc0","pricing_plan_id":"cebpf4jnsgd1na2vs0mg"},{"bike_id":"db0b98ed-fdde-428c-acbb-1c2eb3885cc5","system_id":"levelo_inurba_marseille","lat":43.25862,"lon":5.39891,"is_reserved":false,"is_disabled":false,"rental_uris":{"android":"levelo://app?vid=db0b98ed-fdde-428c-acbb-1c2eb3885cc5","ios":"levelo://app?vid=db0b98ed-fdde-428c-acbb-1c2eb3885cc5"},"vehicle_type_id":"4","last_reported":1727791750,"current_range_meters":18800,"station_id":"ce4bhl92rcd13ifvqghg","pricing_plan_id":"cebpf4jnsgd1na2vs0mg"},{"bike_id":"d8b58681-9556-4640-a208-d91d0fc1bcc2","system_id":"levelo_inurba_marseille","lat":43.30158,"lon":5.38086,"is_reserved":false,"is_disabled":false,"rental_uris":{"android":"levelo://app?vid=d8b58681-9556-4640-a208-d91d0fc1bcc2","ios":"levelo://app?vid=d8b58681-9556-4640-a208-d91d0fc1bcc2"},"vehicle_type_id":"4","last_reported":1727791750,"current_range_meters":8000,"station_id":"ce4bgjp2rcd13ifvqbh0","pricing_plan_id":"cebpf4jnsgd1na2vs0mg"},{"bike_id":"03f5dbd3-a28e-4e35-a42d-3d38771abf9c","system_id":"levelo_inurba_marseille","lat":43.24656,"lon":5.38894,"is_reserved":false,"is_disabled":false,"rental_uris":{"android":"levelo://app?vid=03f5dbd3-a28e-4e35-a42d-3d38771abf9c","ios":"levelo://app?vid=03f5dbd3-a28e-4e35-a42d-3d38771abf9c"},"vehicle_type_id":"4","last_reported":1727791750,"current_range_meters":12000,"station_id":"ce4bhg12rcd13ifvqf60","pricing_plan_id":"cebpf4jnsgd1na2vs0mg"},{"bike_id":"9f0e22b3-7ec7-4f79-89e5-a6b2a62dbb97","system_id":"levelo_inurba_marseille","lat":43.29793,"lon":5.37113,"is_reserved":false,"is_disabled":false,"rental_uris":{"android":"levelo://app?vid=9f0e22b3-7ec7-4f79-89e5-a6b2a62dbb97","ios":"levelo://app?vid=9f0e22b3-7ec7-4f79-89e5-a6b2a62dbb97"},"vehicle_type_id":"4","last_reported":1727791750,"current_range_meters":38000,"station_id":"ce4bgop2rcd13ifvqc1g","pricing_plan_id":"cebpf4jnsgd1na2vs0mg"},{"bike_id":"1dcdcf5f-3bcb-4a0d-b1b8-2ae7e82479ef","system_id":"levelo_inurba_marseille","lat":43.23152,"lon":5.43702,"is_reserved":false,"is_disabled":false,"rental_uris":{"android":"levelo://app?vid=1dcdcf5f-3bcb-4a0d-b1b8-2ae7e82479ef","ios":"levelo://app?vid=1dcdcf5f-3bcb-4a0d-b1b8-2ae7e82479ef"},"vehicle_type_id":"4","last_reported":1727791750,"current_range_meters":17200,"station_id":"ce4bhmp2rcd13ifvqgog","pricing_plan_id":"cebpf4jnsgd1na2vs0mg"},{"bike_id":"4ff78b03-5f77-4417-b002-f0630bdf39d5","system_id":"levelo_inurba_marseille","lat":43.28627,"lon":5.38466,"is_reserved":false,"is_disabled":false,"rental_uris":{"android":"levelo://app?vid=4ff78b03-5f77-4417-b002-f0630bdf39d5","ios":"levelo://app?vid=4ff78b03-5f77-4417-b002-f0630bdf39d5"},"vehicle_type_id":"4","last_reported":1727791750,"current_range_meters":3600,"station_id":"","pricing_plan_id":"cebpf4jnsgd1na2vs0mg"},{"bike_id":"d881780a-f78c-4031-a369-175df0f45a78","system_id":"levelo_inurba_marseille","lat":43.26784,"lon":5.39411,"is_reserved":false,"is_disabled":false,"rental_uris":{"android":"levelo://app?vid=d881780a-f78c-4031-a369-175df0f45a78","ios":"levelo://app?vid=d881780a-f78c-4031-a369-175df0f45a78"},"vehicle_type_id":"4","last_reported":1727791750,"current_range_meters":32000,"station_id":"ce4bhh12rcd13ifvqfg0","pricing_plan_id":"cebpf4jnsgd1na2vs0mg"},{"bike_id":"339388e8-ee6b-4b29-9911-0612c4420461","system_id":"levelo_inurba_marseille","lat":43.337444,"lon":5.374475,"is_reserved":false,"is_disabled":false,"rental_uris":{"android":"levelo://app?vid=339388e8-ee6b-4b29-9911-0612c4420461","ios":"levelo://app?vid=339388e8-ee6b-4b29-9911-0612c4420461"},"vehicle_type_id":"4","last_reported":1727791750,"current_range_meters":36000,"station_id":"","pricing_plan_id":"cebpf4jnsgd1na2vs0mg"},{"bike_id":"9f162c2b-6fa9-4a5b-a49c-70b96074e06e","system_id":"levelo_inurba_marseille","lat":43.29302,"lon":5.37473,"is_reserved":false,"is_disabled":false,"rental_uris":{"android":"levelo://app?vid=9f162c2b-6fa9-4a5b-a49c-70b96074e06e","ios":"levelo://app?vid=9f162c2b-6fa9-4a5b-a49c-70b96074e06e"},"vehicle_type_id":"4","last_reported":1727791750,"current_range_meters":38800,"station_id":"","pricing_plan_id":"cebpf4jnsgd1na2vs0mg"},{"bike_id":"4529fc86-2641-495e-b09a-e7a0fe6316e8","system_id":"levelo_inurba_marseille","lat":43.29603,"lon":5.38098,"is_reserved":false,"is_disabled":false,"rental_uris":{"android":"levelo://app?vid=4529fc86-2641-495e-b09a-e7a0fe6316e8","ios":"levelo://app?vid=4529fc86-2641-495e-b09a-e7a0fe6316e8"},"vehicle_type_id":"4","last_reported":1727791750,"current_range_meters":38800,"station_id":"ce4bgl12rcd13ifvqbo0","pricing_plan_id":"cebpf4jnsgd1na2vs0mg"},{"bike_id":"fd97871d-700b-49b1-a960-03d880ab3afb","system_id":"levelo_inurba_marseille","lat":43.29797,"lon":5.40396,"is_reserved":false,"is_disabled":false,"rental_uris":{"android":"levelo://app?vid=fd97871d-700b-49b1-a960-03d880ab3afb","ios":"levelo://app?vid=fd97871d-700b-49b1-a960-03d880ab3afb"},"vehicle_type_id":"4","last_reported":1727791750,"current_range_meters":10000,"station_id":"ce4bh112rcd13ifvqd90","pricing_plan_id":"cebpf4jnsgd1na2vs0mg"},{"bike_id":"7fb5d065-2ef8-4492-8b6f-c63a16373982","system_id":"levelo_inurba_marseille","lat":43.3053,"lon":5.3653,"is_reserved":false,"is_disabled":false,"rental_uris":{"android":"levelo://app?vid=7fb5d065-2ef8-4492-8b6f-c63a16373982","ios":"levelo://app?vid=7fb5d065-2ef8-4492-8b6f-c63a16373982"},"vehicle_type_id":"4","last_reported":1727791750,"current_range_meters":38800,"station_id":"ce4bgs12rcd13ifvqcag","pricing_plan_id":"cebpf4jnsgd1na2vs0mg"},{"bike_id":"15247b14-da5d-43a0-8e37-dd75debd8517","system_id":"levelo_inurba_marseille","lat":43.32657,"lon":5.40986,"is_reserved":false,"is_disabled":false,"rental_uris":{"android":"levelo://app?vid=15247b14-da5d-43a0-8e37-dd75debd8517","ios":"levelo://app?vid=15247b14-da5d-43a0-8e37-dd75debd8517"},"vehicle_type_id":"4","last_reported":1727791750,"current_range_meters":37600,"station_id":"ce4bhpp2rcd13ifvqhgg","pricing_plan_id":"cebpf4jnsgd1na2vs0mg"},{"bike_id":"5bdc1fa4-140d-433c-819d-10b9de658c4f","system_id":"levelo_inurba_marseille","lat":43.26036,"lon":5.37549,"is_reserved":false,"is_disabled":false,"rental_uris":{"android":"levelo://app?vid=5bdc1fa4-140d-433c-819d-10b9de658c4f","ios":"levelo://app?vid=5bdc1fa4-140d-433c-819d-10b9de658c4f"},"vehicle_type_id":"4","last_reported":1727791750,"current_range_meters":24800,"station_id":"ce4bhgh2rcd13ifvqfa0","pricing_plan_id":"cebpf4jnsgd1na2vs0mg"},{"bike_id":"87ce0bfa-3144-4e3e-ad65-198567556b6f","system_id":"levelo_inurba_marseille","lat":43.25109,"lon":5.40319,"is_reserved":false,"is_disabled":false,"rental_uris":{"android":"levelo://app?vid=87ce0bfa-3144-4e3e-ad65-198567556b6f","ios":"levelo://app?vid=87ce0bfa-3144-4e3e-ad65-198567556b6f"},"vehicle_type_id":"4","last_reported":1727791750,"current_range_meters":18800,"station_id":"ce4bhlh2rcd13ifvqgig","pricing_plan_id":"cebpf4jnsgd1na2vs0mg"},{"bike_id":"de4f8a9c-b542-4ab0-aee4-780dc2a8f204","system_id":"levelo_inurba_marseille","lat":43.29972,"lon":5.37173,"is_reserved":false,"is_disabled":false,"rental_uris":{"android":"levelo://app?vid=de4f8a9c-b542-4ab0-aee4-780dc2a8f204","ios":"levelo://app?vid=de4f8a9c-b542-4ab0-aee4-780dc2a8f204"},"vehicle_type_id":"4","last_reported":1727791750,"current_range_meters":38800,"station_id":"ce4bgr92rcd13ifvqc7g","pricing_plan_id":"cebpf4jnsgd1na2vs0mg"},{"bike_id":"040bd78b-fa30-4801-953b-c0e86d5a27eb","system_id":"levelo_inurba_marseille","lat":43.28267,"lon":5.35066,"is_reserved":false,"is_disabled":false,"rental_uris":{"android":"levelo://app?vid=040bd78b-fa30-4801-953b-c0e86d5a27eb","ios":"levelo://app?vid=040bd78b-fa30-4801-953b-c0e86d5a27eb"},"vehicle_type_id":"4","last_reported":1727791750,"current_range_meters":35600,"station_id":"ce4bhbp2rcd13ifvqerg","pricing_plan_id":"cebpf4jnsgd1na2vs0mg"},{"bike_id":"40edcb91-fe16-4b8a-8f89-0a80104cfb26","system_id":"levelo_inurba_marseille","lat":43.32664,"lon":5.40991,"is_reserved":false,"is_disabled":false,"rental_uris":{"android":"levelo://app?vid=40edcb91-fe16-4b8a-8f89-0a80104cfb26","ios":"levelo://app?vid=40edcb91-fe16-4b8a-8f89-0a80104cfb26"},"vehicle_type_id":"4","last_reported":1727791750,"current_range_meters":22000,"station_id":"ce4bhpp2rcd13ifvqhgg","pricing_plan_id":"cebpf4jnsgd1na2vs0mg"},{"bike_id":"ce631518-8e30-4484-a103-32c5e09bf7d4","system_id":"levelo_inurba_marseille","lat":43.3266,"lon":5.4098,"is_reserved":false,"is_disabled":false,"rental_uris":{"android":"levelo://app?vid=ce631518-8e30-4484-a103-32c5e09bf7d4","ios":"levelo://app?vid=ce631518-8e30-4484-a103-32c5e09bf7d4"},"vehicle_type_id":"4","last_reported":1727791750,"current_range_meters":37600,"station_id":"ce4bhpp2rcd13ifvqhgg","pricing_plan_id":"cebpf4jnsgd1na2vs0mg"},{"bike_id":"16c936cd-64cb-4040-930f-d846fdb7a535","system_id":"levelo_inurba_marseille","lat":43.31365,"lon":5.36696,"is_reserved":false,"is_disabled":false,"rental_uris":{"android":"levelo://app?vid=16c936cd-64cb-4040-930f-d846fdb7a535","ios":"levelo://app?vid=16c936cd-64cb-4040-930f-d846fdb7a535"},"vehicle_type_id":"4","last_reported":1727791750,"current_range_meters":36800,"station_id":"ce4bgr92rcd13ifvqc6g","pricing_plan_id":"cebpf4jnsgd1na2vs0mg"},{"bike_id":"5d34d44a-5657-4046-9997-746fa7323ea5","system_id":"levelo_inurba_marseille","lat":43.32556,"lon":5.41412,"is_reserved":false,"is_disabled":false,"rental_uris":{"android":"levelo://app?vid=5d34d44a-5657-4046-9997-746fa7323ea5","ios":"levelo://app?vid=5d34d44a-5657-4046-9997-746fa7323ea5"},"vehicle_type_id":"4","last_reported":1727791750,"current_range_meters":36800,"station_id":"ce4bhq12rcd13ifvqhhg","pricing_plan_id":"cebpf4jnsgd1na2vs0mg"},{"bike_id":"dfbe24e5-86e5-4e4a-a70b-c95262320787","system_id":"levelo_inurba_marseille","lat":43.27964,"lon":5.38738,"is_reserved":false,"is_disabled":false,"rental_uris":{"android":"levelo://app?vid=dfbe24e5-86e5-4e4a-a70b-c95262320787","ios":"levelo://app?vid=dfbe24e5-86e5-4e4a-a70b-c95262320787"},"vehicle_type_id":"4","last_reported":1727791750,"current_range_meters":7200,"station_id":"ce4bhg12rcd13ifvqf80","pricing_plan_id":"cebpf4jnsgd1na2vs0mg"},{"bike_id":"404a22c1-404b-480a-90e3-023246ed6d3c","system_id":"levelo_inurba_marseille","lat":43.2897,"lon":5.37835,"is_reserved":false,"is_disabled":false,"rental_uris":{"android":"levelo://app?vid=404a22c1-404b-480a-90e3-023246ed6d3c","ios":"levelo://app?vid=404a22c1-404b-480a-90e3-023246ed6d3c"},"vehicle_type_id":"4","last_reported":1727791750,"current_range_meters":26000,"station_id":"ce4bh9p2rcd13ifvqed0","pricing_plan_id":"cebpf4jnsgd1na2vs0mg"},{"bike_id":"e1caac4e-a8a9-45e9-b60a-13c5cd75484d","system_id":"levelo_inurba_marseille","lat":43.29555,"lon":5.42289,"is_reserved":false,"is_disabled":false,"rental_uris":{"android":"levelo://app?vid=e1caac4e-a8a9-45e9-b60a-13c5cd75484d","ios":"levelo://app?vid=e1caac4e-a8a9-45e9-b60a-13c5cd75484d"},"vehicle_type_id":"4","last_reported":1727791750,"current_range_meters":26800,"station_id":"ce4bhph2rcd13ifvqhdg","pricing_plan_id":"cebpf4jnsgd1na2vs0mg"},{"bike_id":"3f3be825-1499-4df5-8758-3ea5d76d3433","system_id":"levelo_inurba_marseille","lat":43.30891,"lon":5.39644,"is_reserved":false,"is_disabled":false,"rental_uris":{"android":"levelo://app?vid=3f3be825-1499-4df5-8758-3ea5d76d3433","ios":"levelo://app?vid=3f3be825-1499-4df5-8758-3ea5d76d3433"},"vehicle_type_id":"4","last_reported":1727791750,"current_range_meters":8000,"station_id":"ce4bh012rcd13ifvqcv0","pricing_plan_id":"cebpf4jnsgd1na2vs0mg"},{"bike_id":"c2b32d5b-b689-4656-ad38-71c29af88f14","system_id":"levelo_inurba_marseille","lat":43.29039,"lon":5.37571,"is_reserved":false,"is_disabled":false,"rental_uris":{"android":"levelo://app?vid=c2b32d5b-b689-4656-ad38-71c29af88f14","ios":"levelo://app?vid=c2b32d5b-b689-4656-ad38-71c29af88f14"},"vehicle_type_id":"4","last_reported":1727791750,"current_range_meters":17600,"station_id":"ce4bh692rcd13ifvqe90","pricing_plan_id":"cebpf4jnsgd1na2vs0mg"},{"bike_id":"d8634e28-a967-4f78-b2bd-a6d7ceb026a4","system_id":"levelo_inurba_marseille","lat":43.29046,"lon":5.35897,"is_reserved":false,"is_disabled":false,"rental_uris":{"android":"levelo://app?vid=d8634e28-a967-4f78-b2bd-a6d7ceb026a4","ios":"levelo://app?vid=d8634e28-a967-4f78-b2bd-a6d7ceb026a4"},"vehicle_type_id":"4","last_reported":1727791750,"current_range_meters":38000,"station_id":"ce4bha92rcd13ifvqeg0","pricing_plan_id":"cebpf4jnsgd1na2vs0mg"},{"bike_id":"2efe889c-d7f9-441d-afae-d38011cb4d35","system_id":"levelo_inurba_marseille","lat":43.28469,"lon":5.35872,"is_reserved":false,"is_disabled":false,"rental_uris":{"android":"levelo://app?vid=2efe889c-d7f9-441d-afae-d38011cb4d35","ios":"levelo://app?vid=2efe889c-d7f9-441d-afae-d38011cb4d35"},"vehicle_type_id":"4","last_reported":1727791750,"current_range_meters":34000,"station_id":"ce4bhah2rcd13ifvqei0","pricing_plan_id":"cebpf4jnsgd1na2vs0mg"},{"bike_id":"49c5261a-4c70-47e0-9b3c-d5ae9f399f0c","system_id":"levelo_inurba_marseille","lat":43.31365,"lon":5.3849,"is_reserved":false,"is_disabled":false,"rental_uris":{"android":"levelo://app?vid=49c5261a-4c70-47e0-9b3c-d5ae9f399f0c","ios":"levelo://app?vid=49c5261a-4c70-47e0-9b3c-d5ae9f399f0c"},"vehicle_type_id":"4","last_reported":1727791750,"current_range_meters":30000,"station_id":"ce4bgt92rcd13ifvqcf0","pricing_plan_id":"cebpf4jnsgd1na2vs0mg"},{"bike_id":"d06c1aac-4307-4bf2-8414-daefba902b00","system_id":"levelo_inurba_marseille","lat":43.28934,"lon":5.36637,"is_reserved":false,"is_disabled":false,"rental_uris":{"android":"levelo://app?vid=d06c1aac-4307-4bf2-8414-daefba902b00","ios":"levelo://app?vid=d06c1aac-4307-4bf2-8414-daefba902b00"},"vehicle_type_id":"4","last_reported":1727791750,"current_range_meters":11600,"station_id":"ce4bhap2rcd13ifvqek0","pricing_plan_id":"cebpf4jnsgd1na2vs0mg"},{"bike_id":"b49f2971-8628-4968-a59c-90e4e1386260","system_id":"levelo_inurba_marseille","lat":43.30612,"lon":5.37196,"is_reserved":false,"is_disabled":false,"rental_uris":{"android":"levelo://app?vid=b49f2971-8628-4968-a59c-90e4e1386260","ios":"levelo://app?vid=b49f2971-8628-4968-a59c-90e4e1386260"},"vehicle_type_id":"4","last_reported":1727791750,"current_range_meters":19200,"station_id":"ce4bgqh2rcd13ifvqc4g","pricing_plan_id":"cebpf4jnsgd1na2vs0mg"},{"bike_id":"99ce3be4-75ef-47fb-89aa-74139e6a688c","system_id":"levelo_inurba_marseille","lat":43.27838,"lon":5.39213,"is_reserved":false,"is_disabled":false,"rental_uris":{"android":"levelo://app?vid=99ce3be4-75ef-47fb-89aa-74139e6a688c","ios":"levelo://app?vid=99ce3be4-75ef-47fb-89aa-74139e6a688c"},"vehicle_type_id":"4","last_reported":1727791750,"current_range_meters":20000,"station_id":"ce4bhjp2rcd13ifvqga0","pricing_plan_id":"cebpf4jnsgd1na2vs0mg"},{"bike_id":"072068d7-44bd-4da9-b04c-e5846e47b5e9","system_id":"levelo_inurba_marseille","lat":43.30596,"lon":5.37203,"is_reserved":false,"is_disabled":false,"rental_uris":{"android":"levelo://app?vid=072068d7-44bd-4da9-b04c-e5846e47b5e9","ios":"levelo://app?vid=072068d7-44bd-4da9-b04c-e5846e47b5e9"},"vehicle_type_id":"4","last_reported":1727791750,"current_range_meters":38800,"station_id":"ce4bgqh2rcd13ifvqc4g","pricing_plan_id":"cebpf4jnsgd1na2vs0mg"},{"bike_id":"7e4eb5b3-4625-400f-845f-3c623b656855","system_id":"levelo_inurba_marseille","lat":43.26032,"lon":5.37544,"is_reserved":false,"is_disabled":false,"rental_uris":{"android":"levelo://app?vid=7e4eb5b3-4625-400f-845f-3c623b656855","ios":"levelo://app?vid=7e4eb5b3-4625-400f-845f-3c623b656855"},"vehicle_type_id":"4","last_reported":1727791750,"current_range_meters":34800,"station_id":"ce4bhgh2rcd13ifvqfa0","pricing_plan_id":"cebpf4jnsgd1na2vs0mg"},{"bike_id":"cfdb47d3-1507-413a-a1c8-ccda97b2d99f","system_id":"levelo_inurba_marseille","lat":43.31494,"lon":5.37297,"is_reserved":false,"is_disabled":false,"rental_uris":{"android":"levelo://app?vid=cfdb47d3-1507-413a-a1c8-ccda97b2d99f","ios":"levelo://app?vid=cfdb47d3-1507-413a-a1c8-ccda97b2d99f"},"vehicle_type_id":"4","last_reported":1727791750,"current_range_meters":39200,"station_id":"ce4bgt12rcd13ifvqcd0","pricing_plan_id":"cebpf4jnsgd1na2vs0mg"},{"bike_id":"51f0e8f7-89ba-4cc1-bac9-79b86809e0e1","system_id":"levelo_inurba_marseille","lat":43.29532,"lon":5.39397,"is_reserved":false,"is_disabled":false,"rental_uris":{"android":"levelo://app?vid=51f0e8f7-89ba-4cc1-bac9-79b86809e0e1","ios":"levelo://app?vid=51f0e8f7-89ba-4cc1-bac9-79b86809e0e1"},"vehicle_type_id":"4","last_reported":1727791750,"current_range_meters":26800,"station_id":"ce4bh292rcd13ifvqdf0","pricing_plan_id":"cebpf4jnsgd1na2vs0mg"},{"bike_id":"aa21baa4-2a87-483e-bde6-adc2407d3f82","system_id":"levelo_inurba_marseille","lat":43.2985,"lon":5.36281,"is_reserved":false,"is_disabled":false,"rental_uris":{"android":"levelo://app?vid=aa21baa4-2a87-483e-bde6-adc2407d3f82","ios":"levelo://app?vid=aa21baa4-2a87-483e-bde6-adc2407d3f82"},"vehicle_type_id":"4","last_reported":1727791750,"current_range_meters":31200,"station_id":"ce4bgpp2rcd13ifvqc3g","pricing_plan_id":"cebpf4jnsgd1na2vs0mg"},{"bike_id":"75960af8-fffd-4ef8-8d0e-0797703cf66f","system_id":"levelo_inurba_marseille","lat":43.30597,"lon":5.37208,"is_reserved":false,"is_disabled":false,"rental_uris":{"android":"levelo://app?vid=75960af8-fffd-4ef8-8d0e-0797703cf66f","ios":"levelo://app?vid=75960af8-fffd-4ef8-8d0e-0797703cf66f"},"vehicle_type_id":"4","last_reported":1727791750,"current_range_meters":4800,"station_id":"ce4bgqh2rcd13ifvqc4g","pricing_plan_id":"cebpf4jnsgd1na2vs0mg"},{"bike_id":"d01a163d-ad00-45cd-91eb-476b6dd73119","system_id":"levelo_inurba_marseille","lat":43.2651,"lon":5.39537,"is_reserved":false,"is_disabled":false,"rental_uris":{"android":"levelo://app?vid=d01a163d-ad00-45cd-91eb-476b6dd73119","ios":"levelo://app?vid=d01a163d-ad00-45cd-91eb-476b6dd73119"},"vehicle_type_id":"4","last_reported":1727791750,"current_range_meters":14400,"station_id":"ce4bhi12rcd13ifvqfq0","pricing_plan_id":"cebpf4jnsgd1na2vs0mg"},{"bike_id":"22921107-e264-49bc-b1ad-9774f1e3d826","system_id":"levelo_inurba_marseille","lat":43.30253,"lon":5.40054,"is_reserved":false,"is_disabled":false,"rental_uris":{"android":"levelo://app?vid=22921107-e264-49bc-b1ad-9774f1e3d826","ios":"levelo://app?vid=22921107-e264-49bc-b1ad-9774f1e3d826"},"vehicle_type_id":"4","last_reported":1727791750,"current_range_meters":12800,"station_id":"ce4bgvh2rcd13ifvqcs0","pricing_plan_id":"cebpf4jnsgd1na2vs0mg"},{"bike_id":"1e349418-e962-41e0-836f-f799374a727b","system_id":"levelo_inurba_marseille","lat":43.31069,"lon":5.38341,"is_reserved":false,"is_disabled":false,"rental_uris":{"android":"levelo://app?vid=1e349418-e962-41e0-836f-f799374a727b","ios":"levelo://app?vid=1e349418-e962-41e0-836f-f799374a727b"},"vehicle_type_id":"4","last_reported":1727791750,"current_range_meters":12800,"station_id":"ce4bgv92rcd13ifvqcr0","pricing_plan_id":"cebpf4jnsgd1na2vs0mg"},{"bike_id":"85024af8-7004-4d74-8be7-15da03426b4b","system_id":"levelo_inurba_marseille","lat":43.30597,"lon":5.37213,"is_reserved":false,"is_disabled":false,"rental_uris":{"android":"levelo://app?vid=85024af8-7004-4d74-8be7-15da03426b4b","ios":"levelo://app?vid=85024af8-7004-4d74-8be7-15da03426b4b"},"vehicle_type_id":"4","last_reported":1727791750,"current_range_meters":38800,"station_id":"ce4bgqh2rcd13ifvqc4g","pricing_plan_id":"cebpf4jnsgd1na2vs0mg"},{"bike_id":"3e60eed6-ac3e-4fd6-976a-fa6364ecee6b","system_id":"levelo_inurba_marseille","lat":43.292755,"lon":5.368481,"is_reserved":false,"is_disabled":false,"rental_uris":{"android":"levelo://app?vid=3e60eed6-ac3e-4fd6-976a-fa6364ecee6b","ios":"levelo://app?vid=3e60eed6-ac3e-4fd6-976a-fa6364ecee6b"},"vehicle_type_id":"4","last_reported":1727791750,"current_range_meters":17200,"station_id":"ce4bhbp2rcd13ifvqesg","pricing_plan_id":"cebpf4jnsgd1na2vs0mg"},{"bike_id":"b5d389f1-aa18-4a06-b6ea-5811e20d2d8d","system_id":"levelo_inurba_marseille","lat":43.30315,"lon":5.36903,"is_reserved":false,"is_disabled":false,"rental_uris":{"android":"levelo://app?vid=b5d389f1-aa18-4a06-b6ea-5811e20d2d8d","ios":"levelo://app?vid=b5d389f1-aa18-4a06-b6ea-5811e20d2d8d"},"vehicle_type_id":"4","last_reported":1727791750,"current_range_meters":17200,"station_id":"ce4bgqh2rcd13ifvqc5g","pricing_plan_id":"cebpf4jnsgd1na2vs0mg"},{"bike_id":"1500738f-f93a-46f9-9315-23261f66a5ff","system_id":"levelo_inurba_marseille","lat":43.29102,"lon":5.38131,"is_reserved":false,"is_disabled":false,"rental_uris":{"android":"levelo://app?vid=1500738f-f93a-46f9-9315-23261f66a5ff","ios":"levelo://app?vid=1500738f-f93a-46f9-9315-23261f66a5ff"},"vehicle_type_id":"4","last_reported":1727791750,"current_range_meters":38800,"station_id":"ce4bh512rcd13ifvqe2g","pricing_plan_id":"cebpf4jnsgd1na2vs0mg"},{"bike_id":"3d19ed77-aea2-4ec5-b045-f625a5114fe9","system_id":"levelo_inurba_marseille","lat":43.26192,"lon":5.37449,"is_reserved":false,"is_disabled":false,"rental_uris":{"android":"levelo://app?vid=3d19ed77-aea2-4ec5-b045-f625a5114fe9","ios":"levelo://app?vid=3d19ed77-aea2-4ec5-b045-f625a5114fe9"},"vehicle_type_id":"4","last_reported":1727791750,"current_range_meters":7200,"station_id":"ce4bhgp2rcd13ifvqfc0","pricing_plan_id":"cebpf4jnsgd1na2vs0mg"},{"bike_id":"e02735c3-5f67-4559-91c4-6ddefd2dea0d","system_id":"levelo_inurba_marseille","lat":43.25582,"lon":5.38226,"is_reserved":false,"is_disabled":false,"rental_uris":{"android":"levelo://app?vid=e02735c3-5f67-4559-91c4-6ddefd2dea0d","ios":"levelo://app?vid=e02735c3-5f67-4559-91c4-6ddefd2dea0d"},"vehicle_type_id":"4","last_reported":1727791750,"current_range_meters":36800,"station_id":"ce4bhih2rcd13ifvqfs0","pricing_plan_id":"cebpf4jnsgd1na2vs0mg"},{"bike_id":"1ad9038e-6380-4baa-8a77-42c9409b06d2","system_id":"levelo_inurba_marseille","lat":43.26777,"lon":5.39418,"is_reserved":false,"is_disabled":false,"rental_uris":{"android":"levelo://app?vid=1ad9038e-6380-4baa-8a77-42c9409b06d2","ios":"levelo://app?vid=1ad9038e-6380-4baa-8a77-42c9409b06d2"},"vehicle_type_id":"4","last_reported":1727791750,"current_range_meters":12800,"station_id":"ce4bhh12rcd13ifvqfg0","pricing_plan_id":"cebpf4jnsgd1na2vs0mg"},{"bike_id":"5aa4654d-b1f4-4a10-8313-d328dfed9fd8","system_id":"levelo_inurba_marseille","lat":43.23188,"lon":5.39983,"is_reserved":false,"is_disabled":false,"rental_uris":{"android":"levelo://app?vid=5aa4654d-b1f4-4a10-8313-d328dfed9fd8","ios":"levelo://app?vid=5aa4654d-b1f4-4a10-8313-d328dfed9fd8"},"vehicle_type_id":"4","last_reported":1727791750,"current_range_meters":32800,"station_id":"ce4bhn12rcd13ifvqgqg","pricing_plan_id":"cebpf4jnsgd1na2vs0mg"},{"bike_id":"68f578bd-4450-41e2-a3e1-0983223be101","system_id":"levelo_inurba_marseille","lat":43.31333,"lon":5.39693,"is_reserved":false,"is_disabled":false,"rental_uris":{"android":"levelo://app?vid=68f578bd-4450-41e2-a3e1-0983223be101","ios":"levelo://app?vid=68f578bd-4450-41e2-a3e1-0983223be101"},"vehicle_type_id":"4","last_reported":1727791750,"current_range_meters":35200,"station_id":"ce4bgvp2rcd13ifvqcu0","pricing_plan_id":"cebpf4jnsgd1na2vs0mg"},{"bike_id":"f8f518e3-bd48-40f5-801a-4ead88758ee2","system_id":"levelo_inurba_marseille","lat":43.32116,"lon":5.36769,"is_reserved":false,"is_disabled":false,"rental_uris":{"android":"levelo://app?vid=f8f518e3-bd48-40f5-801a-4ead88758ee2","ios":"levelo://app?vid=f8f518e3-bd48-40f5-801a-4ead88758ee2"},"vehicle_type_id":"4","last_reported":1727791750,"current_range_meters":16000,"station_id":"ce4bhrh2rcd13ifvqhug","pricing_plan_id":"cebpf4jnsgd1na2vs0mg"},{"bike_id":"462f298d-2d7e-464b-89cf-d38dc4ace74e","system_id":"levelo_inurba_marseille","lat":43.28469,"lon":5.38422,"is_reserved":false,"is_disabled":false,"rental_uris":{"android":"levelo://app?vid=462f298d-2d7e-464b-89cf-d38dc4ace74e","ios":"levelo://app?vid=462f298d-2d7e-464b-89cf-d38dc4ace74e"},"vehicle_type_id":"4","last_reported":1727791750,"current_range_meters":22400,"station_id":"ce4bh512rcd13ifvqe3g","pricing_plan_id":"cebpf4jnsgd1na2vs0mg"},{"bike_id":"c35beb10-b895-41bd-a818-5a6490048628","system_id":"levelo_inurba_marseille","lat":43.3088,"lon":5.3718,"is_reserved":false,"is_disabled":false,"rental_uris":{"android":"levelo://app?vid=c35beb10-b895-41bd-a818-5a6490048628","ios":"levelo://app?vid=c35beb10-b895-41bd-a818-5a6490048628"},"vehicle_type_id":"4","last_reported":1727791750,"current_range_meters":33600,"station_id":"ce4bguh2rcd13ifvqckg","pricing_plan_id":"cebpf4jnsgd1na2vs0mg"},{"bike_id":"edb326e1-2598-4f7c-b139-6cd07200c57d","system_id":"levelo_inurba_marseille","lat":43.31234,"lon":5.36854,"is_reserved":false,"is_disabled":false,"rental_uris":{"android":"levelo://app?vid=edb326e1-2598-4f7c-b139-6cd07200c57d","ios":"levelo://app?vid=edb326e1-2598-4f7c-b139-6cd07200c57d"},"vehicle_type_id":"4","last_reported":1727791750,"current_range_meters":15200,"station_id":"ce4bgl92rcd13ifvqbq0","pricing_plan_id":"cebpf4jnsgd1na2vs0mg"},{"bike_id":"0c6ea16a-3c5d-4259-8482-c82f734d9b4a","system_id":"levelo_inurba_marseille","lat":43.28664,"lon":5.36349,"is_reserved":false,"is_disabled":false,"rental_uris":{"android":"levelo://app?vid=0c6ea16a-3c5d-4259-8482-c82f734d9b4a","ios":"levelo://app?vid=0c6ea16a-3c5d-4259-8482-c82f734d9b4a"},"vehicle_type_id":"4","last_reported":1727791750,"current_range_meters":38800,"station_id":"ce4bhah2rcd13ifvqej0","pricing_plan_id":"cebpf4jnsgd1na2vs0mg"},{"bike_id":"55d01fa3-e383-4c76-b341-7615c6e06bbd","system_id":"levelo_inurba_marseille","lat":43.2397,"lon":5.36625,"is_reserved":false,"is_disabled":false,"rental_uris":{"android":"levelo://app?vid=55d01fa3-e383-4c76-b341-7615c6e06bbd","ios":"levelo://app?vid=55d01fa3-e383-4c76-b341-7615c6e06bbd"},"vehicle_type_id":"4","last_reported":1727791750,"current_range_meters":8000,"station_id":"ce4bhi12rcd13ifvqfp0","pricing_plan_id":"cebpf4jnsgd1na2vs0mg"},{"bike_id":"f8fcaeaa-6dc6-4d8c-b5a9-59ad17853bfe","system_id":"levelo_inurba_marseille","lat":43.28152,"lon":5.42646,"is_reserved":false,"is_disabled":false,"rental_uris":{"android":"levelo://app?vid=f8fcaeaa-6dc6-4d8c-b5a9-59ad17853bfe","ios":"levelo://app?vid=f8fcaeaa-6dc6-4d8c-b5a9-59ad17853bfe"},"vehicle_type_id":"4","last_reported":1727791750,"current_range_meters":19200,"station_id":"ce4bhnh2rcd13ifvqgug","pricing_plan_id":"cebpf4jnsgd1na2vs0mg"},{"bike_id":"7819683a-4316-4a06-8108-6d9469a53f29","system_id":"levelo_inurba_marseille","lat":43.33747,"lon":5.3744,"is_reserved":false,"is_disabled":false,"rental_uris":{"android":"levelo://app?vid=7819683a-4316-4a06-8108-6d9469a53f29","ios":"levelo://app?vid=7819683a-4316-4a06-8108-6d9469a53f29"},"vehicle_type_id":"4","last_reported":1727791750,"current_range_meters":36400,"station_id":"","pricing_plan_id":"cebpf4jnsgd1na2vs0mg"},{"bike_id":"410644d8-520b-4b38-8e29-0e0374c810a9","system_id":"levelo_inurba_marseille","lat":43.31359,"lon":5.36708,"is_reserved":false,"is_disabled":false,"rental_uris":{"android":"levelo://app?vid=410644d8-520b-4b38-8e29-0e0374c810a9","ios":"levelo://app?vid=410644d8-520b-4b38-8e29-0e0374c810a9"},"vehicle_type_id":"4","last_reported":1727791750,"current_range_meters":36000,"station_id":"ce4bgr92rcd13ifvqc6g","pricing_plan_id":"cebpf4jnsgd1na2vs0mg"},{"bike_id":"c12284a0-8f47-4e70-953a-e15ecd1cc9a7","system_id":"levelo_inurba_marseille","lat":43.29845,"lon":5.36271,"is_reserved":false,"is_disabled":false,"rental_uris":{"android":"levelo://app?vid=c12284a0-8f47-4e70-953a-e15ecd1cc9a7","ios":"levelo://app?vid=c12284a0-8f47-4e70-953a-e15ecd1cc9a7"},"vehicle_type_id":"4","last_reported":1727791750,"current_range_meters":16400,"station_id":"ce4bgpp2rcd13ifvqc3g","pricing_plan_id":"cebpf4jnsgd1na2vs0mg"},{"bike_id":"b56d5a72-9901-4f69-9c69-a1b6830c140e","system_id":"levelo_inurba_marseille","lat":43.32479,"lon":5.36568,"is_reserved":false,"is_disabled":false,"rental_uris":{"android":"levelo://app?vid=b56d5a72-9901-4f69-9c69-a1b6830c140e","ios":"levelo://app?vid=b56d5a72-9901-4f69-9c69-a1b6830c140e"},"vehicle_type_id":"4","last_reported":1727791750,"current_range_meters":31200,"station_id":"ce4bhs12rcd13ifvqhvg","pricing_plan_id":"cebpf4jnsgd1na2vs0mg"},{"bike_id":"34143550-5929-47f1-ad7c-41452d793c4e","system_id":"levelo_inurba_marseille","lat":43.30432,"lon":5.38877,"is_reserved":false,"is_disabled":false,"rental_uris":{"android":"levelo://app?vid=34143550-5929-47f1-ad7c-41452d793c4e","ios":"levelo://app?vid=34143550-5929-47f1-ad7c-41452d793c4e"},"vehicle_type_id":"4","last_reported":1727791750,"current_range_meters":34000,"station_id":"ce4bgk12rcd13ifvqbi0","pricing_plan_id":"cebpf4jnsgd1na2vs0mg"},{"bike_id":"ce16f45f-4536-4384-86f2-d0a0b1c0ab7b","system_id":"levelo_inurba_marseille","lat":43.29302,"lon":5.37461,"is_reserved":false,"is_disabled":false,"rental_uris":{"android":"levelo://app?vid=ce16f45f-4536-4384-86f2-d0a0b1c0ab7b","ios":"levelo://app?vid=ce16f45f-4536-4384-86f2-d0a0b1c0ab7b"},"vehicle_type_id":"4","last_reported":1727791750,"current_range_meters":6800,"station_id":"ce4bgi12rcd13ifvqb70","pricing_plan_id":"cebpf4jnsgd1na2vs0mg"},{"bike_id":"d995d233-d2fe-4db9-b69b-baa1337469bf","system_id":"levelo_inurba_marseille","lat":43.26719,"lon":5.40133,"is_reserved":false,"is_disabled":false,"rental_uris":{"android":"levelo://app?vid=d995d233-d2fe-4db9-b69b-baa1337469bf","ios":"levelo://app?vid=d995d233-d2fe-4db9-b69b-baa1337469bf"},"vehicle_type_id":"4","last_reported":1727791750,"current_range_meters":13600,"station_id":"ce4bhm92rcd13ifvqglg","pricing_plan_id":"cebpf4jnsgd1na2vs0mg"},{"bike_id":"1b131bd6-c9d2-4e94-831d-59d6c1f399e3","system_id":"levelo_inurba_marseille","lat":43.27549,"lon":5.38277,"is_reserved":false,"is_disabled":false,"rental_uris":{"android":"levelo://app?vid=1b131bd6-c9d2-4e94-831d-59d6c1f399e3","ios":"levelo://app?vid=1b131bd6-c9d2-4e94-831d-59d6c1f399e3"},"vehicle_type_id":"4","last_reported":1727791750,"current_range_meters":34800,"station_id":"ce4bhh92rcd13ifvqfh0","pricing_plan_id":"cebpf4jnsgd1na2vs0mg"},{"bike_id":"bfb89491-a14b-4099-955e-5c289d27bd6a","system_id":"levelo_inurba_marseille","lat":43.2465,"lon":5.38887,"is_reserved":false,"is_disabled":false,"rental_uris":{"android":"levelo://app?vid=bfb89491-a14b-4099-955e-5c289d27bd6a","ios":"levelo://app?vid=bfb89491-a14b-4099-955e-5c289d27bd6a"},"vehicle_type_id":"4","last_reported":1727791750,"current_range_meters":16800,"station_id":"ce4bhg12rcd13ifvqf60","pricing_plan_id":"cebpf4jnsgd1na2vs0mg"},{"bike_id":"9d983ef2-5b09-42f2-a972-8562c8a13f76","system_id":"levelo_inurba_marseille","lat":43.2827,"lon":5.35055,"is_reserved":false,"is_disabled":false,"rental_uris":{"android":"levelo://app?vid=9d983ef2-5b09-42f2-a972-8562c8a13f76","ios":"levelo://app?vid=9d983ef2-5b09-42f2-a972-8562c8a13f76"},"vehicle_type_id":"4","last_reported":1727791750,"current_range_meters":37600,"station_id":"ce4bhbp2rcd13ifvqerg","pricing_plan_id":"cebpf4jnsgd1na2vs0mg"},{"bike_id":"a0b07b7c-5757-458f-a27a-60cb7b5aaa42","system_id":"levelo_inurba_marseille","lat":43.30307,"lon":5.36909,"is_reserved":false,"is_disabled":false,"rental_uris":{"android":"levelo://app?vid=a0b07b7c-5757-458f-a27a-60cb7b5aaa42","ios":"levelo://app?vid=a0b07b7c-5757-458f-a27a-60cb7b5aaa42"},"vehicle_type_id":"4","last_reported":1727791750,"current_range_meters":38800,"station_id":"ce4bgqh2rcd13ifvqc5g","pricing_plan_id":"cebpf4jnsgd1na2vs0mg"},{"bike_id":"e5537bf6-33c1-49d9-8718-9d205356b29a","system_id":"levelo_inurba_marseille","lat":43.30545,"lon":5.36535,"is_reserved":false,"is_disabled":false,"rental_uris":{"android":"levelo://app?vid=e5537bf6-33c1-49d9-8718-9d205356b29a","ios":"levelo://app?vid=e5537bf6-33c1-49d9-8718-9d205356b29a"},"vehicle_type_id":"4","last_reported":1727791750,"current_range_meters":24000,"station_id":"ce4bgs12rcd13ifvqcag","pricing_plan_id":"cebpf4jnsgd1na2vs0mg"},{"bike_id":"a0717f12-6aaf-4d95-9e57-4671e5f5e9ae","system_id":"levelo_inurba_marseille","lat":43.29982,"lon":5.37167,"is_reserved":false,"is_disabled":false,"rental_uris":{"android":"levelo://app?vid=a0717f12-6aaf-4d95-9e57-4671e5f5e9ae","ios":"levelo://app?vid=a0717f12-6aaf-4d95-9e57-4671e5f5e9ae"},"vehicle_type_id":"4","last_reported":1727791750,"current_range_meters":36800,"station_id":"ce4bgr92rcd13ifvqc7g","pricing_plan_id":"cebpf4jnsgd1na2vs0mg"},{"bike_id":"eed2ff29-0686-4e8d-8959-4ed55c834a6a","system_id":"levelo_inurba_marseille","lat":43.23962,"lon":5.36638,"is_reserved":false,"is_disabled":false,"rental_uris":{"android":"levelo://app?vid=eed2ff29-0686-4e8d-8959-4ed55c834a6a","ios":"levelo://app?vid=eed2ff29-0686-4e8d-8959-4ed55c834a6a"},"vehicle_type_id":"4","last_reported":1727791750,"current_range_meters":19200,"station_id":"ce4bhi12rcd13ifvqfp0","pricing_plan_id":"cebpf4jnsgd1na2vs0mg"},{"bike_id":"d609dda2-9e88-492a-9ec1-1ee759ae8664","system_id":"levelo_inurba_marseille","lat":43.33025,"lon":5.39039,"is_reserved":false,"is_disabled":false,"rental_uris":{"android":"levelo://app?vid=d609dda2-9e88-492a-9ec1-1ee759ae8664","ios":"levelo://app?vid=d609dda2-9e88-492a-9ec1-1ee759ae8664"},"vehicle_type_id":"4","last_reported":1727791750,"current_range_meters":11200,"station_id":"ce4bhr92rcd13ifvqhrg","pricing_plan_id":"cebpf4jnsgd1na2vs0mg"},{"bike_id":"b652f429-09b8-4697-9c1b-3b9adc3c55d8","system_id":"levelo_inurba_marseille","lat":43.26871,"lon":5.39135,"is_reserved":false,"is_disabled":false,"rental_uris":{"android":"levelo://app?vid=b652f429-09b8-4697-9c1b-3b9adc3c55d8","ios":"levelo://app?vid=b652f429-09b8-4697-9c1b-3b9adc3c55d8"},"vehicle_type_id":"4","last_reported":1727791750,"current_range_meters":7200,"station_id":"","pricing_plan_id":"cebpf4jnsgd1na2vs0mg"},{"bike_id":"596c338b-950f-4948-b137-715cda09f43d","system_id":"levelo_inurba_marseille","lat":43.299,"lon":5.38152,"is_reserved":false,"is_disabled":false,"rental_uris":{"android":"levelo://app?vid=596c338b-950f-4948-b137-715cda09f43d","ios":"levelo://app?vid=596c338b-950f-4948-b137-715cda09f43d"},"vehicle_type_id":"4","last_reported":1727791750,"current_range_meters":27600,"station_id":"ce4bgj12rcd13ifvqbc0","pricing_plan_id":"cebpf4jnsgd1na2vs0mg"},{"bike_id":"09cce354-8b56-4a01-8379-fcec9e7693fb","system_id":"levelo_inurba_marseille","lat":43.26566,"lon":5.39001,"is_reserved":false,"is_disabled":false,"rental_uris":{"android":"levelo://app?vid=09cce354-8b56-4a01-8379-fcec9e7693fb","ios":"levelo://app?vid=09cce354-8b56-4a01-8379-fcec9e7693fb"},"vehicle_type_id":"4","last_reported":1727791750,"current_range_meters":8000,"station_id":"ce4bhe12rcd13ifvqf30","pricing_plan_id":"cebpf4jnsgd1na2vs0mg"},{"bike_id":"63948fa4-ae6d-4866-abff-02440e87cd47","system_id":"levelo_inurba_marseille","lat":43.24394,"lon":5.37054,"is_reserved":false,"is_disabled":false,"rental_uris":{"android":"levelo://app?vid=63948fa4-ae6d-4866-abff-02440e87cd47","ios":"levelo://app?vid=63948fa4-ae6d-4866-abff-02440e87cd47"},"vehicle_type_id":"4","last_reported":1727791750,"current_range_meters":36800,"station_id":"ce4bhhh2rcd13ifvqfk0","pricing_plan_id":"cebpf4jnsgd1na2vs0mg"},{"bike_id":"d3657b79-f3c5-45ca-8f17-010504555078","system_id":"levelo_inurba_marseille","lat":43.30532,"lon":5.36684,"is_reserved":false,"is_disabled":false,"rental_uris":{"android":"levelo://app?vid=d3657b79-f3c5-45ca-8f17-010504555078","ios":"levelo://app?vid=d3657b79-f3c5-45ca-8f17-010504555078"},"vehicle_type_id":"4","last_reported":1727791750,"current_range_meters":11200,"station_id":"ce4bgrp2rcd13ifvqc9g","pricing_plan_id":"cebpf4jnsgd1na2vs0mg"},{"bike_id":"7a8b241f-57ad-4336-b3e1-9209d3fac587","system_id":"levelo_inurba_marseille","lat":43.31354,"lon":5.36714,"is_reserved":false,"is_disabled":false,"rental_uris":{"android":"levelo://app?vid=7a8b241f-57ad-4336-b3e1-9209d3fac587","ios":"levelo://app?vid=7a8b241f-57ad-4336-b3e1-9209d3fac587"},"vehicle_type_id":"4","last_reported":1727791750,"current_range_meters":38800,"station_id":"ce4bgr92rcd13ifvqc6g","pricing_plan_id":"cebpf4jnsgd1na2vs0mg"},{"bike_id":"4bee9dbb-54ee-42eb-82e9-21670ffbeb38","system_id":"levelo_inurba_marseille","lat":43.28263,"lon":5.35054,"is_reserved":false,"is_disabled":false,"rental_uris":{"android":"levelo://app?vid=4bee9dbb-54ee-42eb-82e9-21670ffbeb38","ios":"levelo://app?vid=4bee9dbb-54ee-42eb-82e9-21670ffbeb38"},"vehicle_type_id":"4","last_reported":1727791750,"current_range_meters":38800,"station_id":"ce4bhbp2rcd13ifvqerg","pricing_plan_id":"cebpf4jnsgd1na2vs0mg"},{"bike_id":"85a8cf9c-7064-4a32-9b68-53d16197d238","system_id":"levelo_inurba_marseille","lat":43.307808,"lon":5.376493,"is_reserved":false,"is_disabled":false,"rental_uris":{"android":"levelo://app?vid=85a8cf9c-7064-4a32-9b68-53d16197d238","ios":"levelo://app?vid=85a8cf9c-7064-4a32-9b68-53d16197d238"},"vehicle_type_id":"4","last_reported":1727791750,"current_range_meters":22800,"station_id":"ce4bgv92rcd13ifvqcq0","pricing_plan_id":"cebpf4jnsgd1na2vs0mg"},{"bike_id":"28b8808b-5e8d-42cf-b016-724c061affd5","system_id":"levelo_inurba_marseille","lat":43.29979,"lon":5.3718,"is_reserved":false,"is_disabled":false,"rental_uris":{"android":"levelo://app?vid=28b8808b-5e8d-42cf-b016-724c061affd5","ios":"levelo://app?vid=28b8808b-5e8d-42cf-b016-724c061affd5"},"vehicle_type_id":"4","last_reported":1727791750,"current_range_meters":32400,"station_id":"ce4bgr92rcd13ifvqc7g","pricing_plan_id":"cebpf4jnsgd1na2vs0mg"},{"bike_id":"1d19046b-1ae6-41ec-8a84-ebd06c1731c9","system_id":"levelo_inurba_marseille","lat":43.30138,"lon":5.38768,"is_reserved":false,"is_disabled":false,"rental_uris":{"android":"levelo://app?vid=1d19046b-1ae6-41ec-8a84-ebd06c1731c9","ios":"levelo://app?vid=1d19046b-1ae6-41ec-8a84-ebd06c1731c9"},"vehicle_type_id":"4","last_reported":1727791750,"current_range_meters":25600,"station_id":"ce4bghh2rcd13ifvqb60","pricing_plan_id":"cebpf4jnsgd1na2vs0mg"},{"bike_id":"5b299847-70e3-4c0f-b3be-4ee056ae6be7","system_id":"levelo_inurba_marseille","lat":43.27903,"lon":5.38003,"is_reserved":false,"is_disabled":false,"rental_uris":{"android":"levelo://app?vid=5b299847-70e3-4c0f-b3be-4ee056ae6be7","ios":"levelo://app?vid=5b299847-70e3-4c0f-b3be-4ee056ae6be7"},"vehicle_type_id":"4","last_reported":1727791750,"current_range_meters":38000,"station_id":"ce4bhf92rcd13ifvqf50","pricing_plan_id":"cebpf4jnsgd1na2vs0mg"},{"bike_id":"b6810f2c-a871-47c5-a287-b4f5e236efba","system_id":"levelo_inurba_marseille","lat":43.29707,"lon":5.36591,"is_reserved":false,"is_disabled":false,"rental_uris":{"android":"levelo://app?vid=b6810f2c-a871-47c5-a287-b4f5e236efba","ios":"levelo://app?vid=b6810f2c-a871-47c5-a287-b4f5e236efba"},"vehicle_type_id":"4","last_reported":1727791750,"current_range_meters":30000,"station_id":"ce4bgn12rcd13ifvqbt0","pricing_plan_id":"cebpf4jnsgd1na2vs0mg"},{"bike_id":"acfe2d39-8d53-4ca8-aaa3-8dcd8d634b3e","system_id":"levelo_inurba_marseille","lat":43.27686,"lon":5.38877,"is_reserved":false,"is_disabled":false,"rental_uris":{"android":"levelo://app?vid=acfe2d39-8d53-4ca8-aaa3-8dcd8d634b3e","ios":"levelo://app?vid=acfe2d39-8d53-4ca8-aaa3-8dcd8d634b3e"},"vehicle_type_id":"4","last_reported":1727791750,"current_range_meters":35600,"station_id":"ce4bhi12rcd13ifvqfo0","pricing_plan_id":"cebpf4jnsgd1na2vs0mg"},{"bike_id":"36199184-0723-4c1a-a64f-c0f6b2a92f46","system_id":"levelo_inurba_marseille","lat":43.23966,"lon":5.3663,"is_reserved":false,"is_disabled":false,"rental_uris":{"android":"levelo://app?vid=36199184-0723-4c1a-a64f-c0f6b2a92f46","ios":"levelo://app?vid=36199184-0723-4c1a-a64f-c0f6b2a92f46"},"vehicle_type_id":"4","last_reported":1727791750,"current_range_meters":28000,"station_id":"ce4bhi12rcd13ifvqfp0","pricing_plan_id":"cebpf4jnsgd1na2vs0mg"},{"bike_id":"d263b1ca-44c0-4a5d-bcb5-f5e28ad9f530","system_id":"levelo_inurba_marseille","lat":43.240051,"lon":5.366271,"is_reserved":false,"is_disabled":false,"rental_uris":{"android":"levelo://app?vid=d263b1ca-44c0-4a5d-bcb5-f5e28ad9f530","ios":"levelo://app?vid=d263b1ca-44c0-4a5d-bcb5-f5e28ad9f530"},"vehicle_type_id":"4","last_reported":1727791750,"current_range_meters":26000,"station_id":"ce4bhi12rcd13ifvqfp0","pricing_plan_id":"cebpf4jnsgd1na2vs0mg"},{"bike_id":"a008e83a-9e88-4f57-b619-e32dd56b25d3","system_id":"levelo_inurba_marseille","lat":43.27921,"lon":5.39586,"is_reserved":false,"is_disabled":false,"rental_uris":{"android":"levelo://app?vid=a008e83a-9e88-4f57-b619-e32dd56b25d3","ios":"levelo://app?vid=a008e83a-9e88-4f57-b619-e32dd56b25d3"},"vehicle_type_id":"4","last_reported":1727791750,"current_range_meters":22800,"station_id":"ce4bhf92rcd13ifvqf40","pricing_plan_id":"cebpf4jnsgd1na2vs0mg"},{"bike_id":"7d19eff7-9e15-46f9-a813-7c27954251f6","system_id":"levelo_inurba_marseille","lat":43.27174,"lon":5.40994,"is_reserved":false,"is_disabled":false,"rental_uris":{"android":"levelo://app?vid=7d19eff7-9e15-46f9-a813-7c27954251f6","ios":"levelo://app?vid=7d19eff7-9e15-46f9-a813-7c27954251f6"},"vehicle_type_id":"4","last_reported":1727791750,"current_range_meters":27200,"station_id":"ce4bhl12rcd13ifvqgf0","pricing_plan_id":"cebpf4jnsgd1na2vs0mg"},{"bike_id":"13b71d2f-3cb6-47ed-a1e4-e23f09f8eb07","system_id":"levelo_inurba_marseille","lat":43.2656,"lon":5.37284,"is_reserved":false,"is_disabled":false,"rental_uris":{"android":"levelo://app?vid=13b71d2f-3cb6-47ed-a1e4-e23f09f8eb07","ios":"levelo://app?vid=13b71d2f-3cb6-47ed-a1e4-e23f09f8eb07"},"vehicle_type_id":"4","last_reported":1727791750,"current_range_meters":20400,"station_id":"ce4bhg12rcd13ifvqf70","pricing_plan_id":"cebpf4jnsgd1na2vs0mg"},{"bike_id":"4f04f60f-e66b-49d6-89b0-44a4e9adf7ff","system_id":"levelo_inurba_marseille","lat":43.27807,"lon":5.40706,"is_reserved":false,"is_disabled":false,"rental_uris":{"android":"levelo://app?vid=4f04f60f-e66b-49d6-89b0-44a4e9adf7ff","ios":"levelo://app?vid=4f04f60f-e66b-49d6-89b0-44a4e9adf7ff"},"vehicle_type_id":"4","last_reported":1727791750,"current_range_meters":23200,"station_id":"ce4bhnh2rcd13ifvqgtg","pricing_plan_id":"cebpf4jnsgd1na2vs0mg"},{"bike_id":"0673a1b2-9bba-4fc1-a56f-375d48d6ec67","system_id":"levelo_inurba_marseille","lat":43.27375,"lon":5.36248,"is_reserved":false,"is_disabled":false,"rental_uris":{"android":"levelo://app?vid=0673a1b2-9bba-4fc1-a56f-375d48d6ec67","ios":"levelo://app?vid=0673a1b2-9bba-4fc1-a56f-375d48d6ec67"},"vehicle_type_id":"4","last_reported":1727791750,"current_range_meters":11200,"station_id":"ce4bhbh2rcd13ifvqeo0","pricing_plan_id":"cebpf4jnsgd1na2vs0mg"},{"bike_id":"9fdd7bcc-98c0-4c19-a91c-885a21cbe344","system_id":"levelo_inurba_marseille","lat":43.337444,"lon":5.374475,"is_reserved":false,"is_disabled":false,"rental_uris":{"android":"levelo://app?vid=9fdd7bcc-98c0-4c19-a91c-885a21cbe344","ios":"levelo://app?vid=9fdd7bcc-98c0-4c19-a91c-885a21cbe344"},"vehicle_type_id":"4","last_reported":1727791750,"current_range_meters":35200,"station_id":"ce4bgj92rcd13ifvqbd0","pricing_plan_id":"cebpf4jnsgd1na2vs0mg"},{"bike_id":"e47d8b5f-6f7d-401a-8617-51b7d9b65561","system_id":"levelo_inurba_marseille","lat":43.32367,"lon":5.38494,"is_reserved":false,"is_disabled":false,"rental_uris":{"android":"levelo://app?vid=e47d8b5f-6f7d-401a-8617-51b7d9b65561","ios":"levelo://app?vid=e47d8b5f-6f7d-401a-8617-51b7d9b65561"},"vehicle_type_id":"4","last_reported":1727791750,"current_range_meters":16000,"station_id":"","pricing_plan_id":"cebpf4jnsgd1na2vs0mg"},{"bike_id":"07b27ef9-c303-4a59-a139-b845b67fc5da","system_id":"levelo_inurba_marseille","lat":43.29777,"lon":5.37097,"is_reserved":false,"is_disabled":false,"rental_uris":{"android":"levelo://app?vid=07b27ef9-c303-4a59-a139-b845b67fc5da","ios":"levelo://app?vid=07b27ef9-c303-4a59-a139-b845b67fc5da"},"vehicle_type_id":"4","last_reported":1727791750,"current_range_meters":23200,"station_id":"ce4bgop2rcd13ifvqc1g","pricing_plan_id":"cebpf4jnsgd1na2vs0mg"},{"bike_id":"21997ce8-c724-4af0-87e1-24855577cda0","system_id":"levelo_inurba_marseille","lat":43.33763,"lon":5.37464,"is_reserved":false,"is_disabled":false,"rental_uris":{"android":"levelo://app?vid=21997ce8-c724-4af0-87e1-24855577cda0","ios":"levelo://app?vid=21997ce8-c724-4af0-87e1-24855577cda0"},"vehicle_type_id":"4","last_reported":1727791750,"current_range_meters":28800,"station_id":"","pricing_plan_id":"cebpf4jnsgd1na2vs0mg"},{"bike_id":"8611974f-ee80-4202-b294-bd03f6697699","system_id":"levelo_inurba_marseille","lat":43.28349,"lon":5.38086,"is_reserved":false,"is_disabled":false,"rental_uris":{"android":"levelo://app?vid=8611974f-ee80-4202-b294-bd03f6697699","ios":"levelo://app?vid=8611974f-ee80-4202-b294-bd03f6697699"},"vehicle_type_id":"4","last_reported":1727791750,"current_range_meters":39200,"station_id":"ce4bh412rcd13ifvqdr0","pricing_plan_id":"cebpf4jnsgd1na2vs0mg"},{"bike_id":"8547d1e9-f568-4ddb-8360-570e5c021db3","system_id":"levelo_inurba_marseille","lat":43.29933,"lon":5.36531,"is_reserved":false,"is_disabled":false,"rental_uris":{"android":"levelo://app?vid=8547d1e9-f568-4ddb-8360-570e5c021db3","ios":"levelo://app?vid=8547d1e9-f568-4ddb-8360-570e5c021db3"},"vehicle_type_id":"4","last_reported":1727791750,"current_range_meters":33200,"station_id":"ce4bgm92rcd13ifvqbr0","pricing_plan_id":"cebpf4jnsgd1na2vs0mg"},{"bike_id":"2c301888-1b61-4a0d-a4e3-d1b876c157be","system_id":"levelo_inurba_marseille","lat":43.31079,"lon":5.3835,"is_reserved":false,"is_disabled":false,"rental_uris":{"android":"levelo://app?vid=2c301888-1b61-4a0d-a4e3-d1b876c157be","ios":"levelo://app?vid=2c301888-1b61-4a0d-a4e3-d1b876c157be"},"vehicle_type_id":"4","last_reported":1727791750,"current_range_meters":35600,"station_id":"ce4bgv92rcd13ifvqcr0","pricing_plan_id":"cebpf4jnsgd1na2vs0mg"},{"bike_id":"d82d225a-5eb8-4bfb-ad60-bd9a5ce970b2","system_id":"levelo_inurba_marseille","lat":43.2466,"lon":5.38159,"is_reserved":false,"is_disabled":false,"rental_uris":{"android":"levelo://app?vid=d82d225a-5eb8-4bfb-ad60-bd9a5ce970b2","ios":"levelo://app?vid=d82d225a-5eb8-4bfb-ad60-bd9a5ce970b2"},"vehicle_type_id":"4","last_reported":1727791750,"current_range_meters":26800,"station_id":"ce4bhih2rcd13ifvqfr0","pricing_plan_id":"cebpf4jnsgd1na2vs0mg"},{"bike_id":"0cafb3c3-099c-4d3a-b87e-07ed5d9911b3","system_id":"levelo_inurba_marseille","lat":43.26564,"lon":5.38999,"is_reserved":false,"is_disabled":false,"rental_uris":{"android":"levelo://app?vid=0cafb3c3-099c-4d3a-b87e-07ed5d9911b3","ios":"levelo://app?vid=0cafb3c3-099c-4d3a-b87e-07ed5d9911b3"},"vehicle_type_id":"4","last_reported":1727791750,"current_range_meters":34800,"station_id":"ce4bhe12rcd13ifvqf30","pricing_plan_id":"cebpf4jnsgd1na2vs0mg"},{"bike_id":"9a21a4c9-180f-4f47-bcf0-49773d54b090","system_id":"levelo_inurba_marseille","lat":43.31226,"lon":5.3686,"is_reserved":false,"is_disabled":false,"rental_uris":{"android":"levelo://app?vid=9a21a4c9-180f-4f47-bcf0-49773d54b090","ios":"levelo://app?vid=9a21a4c9-180f-4f47-bcf0-49773d54b090"},"vehicle_type_id":"4","last_reported":1727791750,"current_range_meters":39200,"station_id":"ce4bgl92rcd13ifvqbq0","pricing_plan_id":"cebpf4jnsgd1na2vs0mg"},{"bike_id":"f482b811-60c5-4cb4-be69-55c1c230887b","system_id":"levelo_inurba_marseille","lat":43.28471,"lon":5.3587,"is_reserved":false,"is_disabled":false,"rental_uris":{"android":"levelo://app?vid=f482b811-60c5-4cb4-be69-55c1c230887b","ios":"levelo://app?vid=f482b811-60c5-4cb4-be69-55c1c230887b"},"vehicle_type_id":"4","last_reported":1727791750,"current_range_meters":33200,"station_id":"ce4bhah2rcd13ifvqei0","pricing_plan_id":"cebpf4jnsgd1na2vs0mg"},{"bike_id":"17346577-f0d6-4544-b4b0-1fd855e7857c","system_id":"levelo_inurba_marseille","lat":43.27906,"lon":5.38012,"is_reserved":false,"is_disabled":false,"rental_uris":{"android":"levelo://app?vid=17346577-f0d6-4544-b4b0-1fd855e7857c","ios":"levelo://app?vid=17346577-f0d6-4544-b4b0-1fd855e7857c"},"vehicle_type_id":"4","last_reported":1727791750,"current_range_meters":27200,"station_id":"ce4bhf92rcd13ifvqf50","pricing_plan_id":"cebpf4jnsgd1na2vs0mg"},{"bike_id":"984b91a1-fe3e-4016-b94a-068fe2eb3242","system_id":"levelo_inurba_marseille","lat":43.32658,"lon":5.40995,"is_reserved":false,"is_disabled":false,"rental_uris":{"android":"levelo://app?vid=984b91a1-fe3e-4016-b94a-068fe2eb3242","ios":"levelo://app?vid=984b91a1-fe3e-4016-b94a-068fe2eb3242"},"vehicle_type_id":"4","last_reported":1727791750,"current_range_meters":9600,"station_id":"ce4bhpp2rcd13ifvqhgg","pricing_plan_id":"cebpf4jnsgd1na2vs0mg"},{"bike_id":"a2fd9d5c-edee-437b-82a0-073f957433f6","system_id":"levelo_inurba_marseille","lat":43.29875,"lon":5.38896,"is_reserved":false,"is_disabled":false,"rental_uris":{"android":"levelo://app?vid=a2fd9d5c-edee-437b-82a0-073f957433f6","ios":"levelo://app?vid=a2fd9d5c-edee-437b-82a0-073f957433f6"},"vehicle_type_id":"4","last_reported":1727791750,"current_range_meters":25600,"station_id":"ce4bh392rcd13ifvqdl0","pricing_plan_id":"cebpf4jnsgd1na2vs0mg"},{"bike_id":"eab0557d-935a-4b78-83fb-08edca1b8362","system_id":"levelo_inurba_marseille","lat":43.291,"lon":5.38136,"is_reserved":false,"is_disabled":false,"rental_uris":{"android":"levelo://app?vid=eab0557d-935a-4b78-83fb-08edca1b8362","ios":"levelo://app?vid=eab0557d-935a-4b78-83fb-08edca1b8362"},"vehicle_type_id":"4","last_reported":1727791750,"current_range_meters":14400,"station_id":"ce4bh512rcd13ifvqe2g","pricing_plan_id":"cebpf4jnsgd1na2vs0mg"},{"bike_id":"3a5dc3fd-5531-4af9-ae8b-0ede616a22b3","system_id":"levelo_inurba_marseille","lat":43.23187,"lon":5.39976,"is_reserved":false,"is_disabled":false,"rental_uris":{"android":"levelo://app?vid=3a5dc3fd-5531-4af9-ae8b-0ede616a22b3","ios":"levelo://app?vid=3a5dc3fd-5531-4af9-ae8b-0ede616a22b3"},"vehicle_type_id":"4","last_reported":1727791750,"current_range_meters":21600,"station_id":"ce4bhn12rcd13ifvqgqg","pricing_plan_id":"cebpf4jnsgd1na2vs0mg"},{"bike_id":"22c3d6fc-4ed7-4f29-97da-fc7ffd9cb31e","system_id":"levelo_inurba_marseille","lat":43.28424,"lon":5.34981,"is_reserved":false,"is_disabled":false,"rental_uris":{"android":"levelo://app?vid=22c3d6fc-4ed7-4f29-97da-fc7ffd9cb31e","ios":"levelo://app?vid=22c3d6fc-4ed7-4f29-97da-fc7ffd9cb31e"},"vehicle_type_id":"4","last_reported":1727791750,"current_range_meters":38800,"station_id":"ce4bhbh2rcd13ifvqepg","pricing_plan_id":"cebpf4jnsgd1na2vs0mg"},{"bike_id":"fe546efa-4b18-48de-9d1e-efef2e98d685","system_id":"levelo_inurba_marseille","lat":43.30551,"lon":5.36696,"is_reserved":false,"is_disabled":false,"rental_uris":{"android":"levelo://app?vid=fe546efa-4b18-48de-9d1e-efef2e98d685","ios":"levelo://app?vid=fe546efa-4b18-48de-9d1e-efef2e98d685"},"vehicle_type_id":"4","last_reported":1727791750,"current_range_meters":32000,"station_id":"ce4bgrp2rcd13ifvqc9g","pricing_plan_id":"cebpf4jnsgd1na2vs0mg"},{"bike_id":"6f5c6f3c-3259-4972-a606-522659266d35","system_id":"levelo_inurba_marseille","lat":43.30303,"lon":5.39167,"is_reserved":false,"is_disabled":false,"rental_uris":{"android":"levelo://app?vid=6f5c6f3c-3259-4972-a606-522659266d35","ios":"levelo://app?vid=6f5c6f3c-3259-4972-a606-522659266d35"},"vehicle_type_id":"4","last_reported":1727791750,"current_range_meters":24000,"station_id":"ce4bh012rcd13ifvqcv0","pricing_plan_id":"cebpf4jnsgd1na2vs0mg"},{"bike_id":"d0da896f-9d81-4fff-ad29-9c32ac02639e","system_id":"levelo_inurba_marseille","lat":43.32545,"lon":5.41435,"is_reserved":false,"is_disabled":false,"rental_uris":{"android":"levelo://app?vid=d0da896f-9d81-4fff-ad29-9c32ac02639e","ios":"levelo://app?vid=d0da896f-9d81-4fff-ad29-9c32ac02639e"},"vehicle_type_id":"4","last_reported":1727791750,"current_range_meters":29600,"station_id":"ce4bhq12rcd13ifvqhhg","pricing_plan_id":"cebpf4jnsgd1na2vs0mg"},{"bike_id":"d04c172d-5eaa-4138-885c-825aeca1f06e","system_id":"levelo_inurba_marseille","lat":43.29977,"lon":5.3848,"is_reserved":false,"is_disabled":false,"rental_uris":{"android":"levelo://app?vid=d04c172d-5eaa-4138-885c-825aeca1f06e","ios":"levelo://app?vid=d04c172d-5eaa-4138-885c-825aeca1f06e"},"vehicle_type_id":"4","last_reported":1727791750,"current_range_meters":38400,"station_id":"ce4bgj92rcd13ifvqbd0","pricing_plan_id":"cebpf4jnsgd1na2vs0mg"},{"bike_id":"ddeb2ab2-50cf-4450-92e1-292f0f03a901","system_id":"levelo_inurba_marseille","lat":43.23154,"lon":5.43711,"is_reserved":false,"is_disabled":false,"rental_uris":{"android":"levelo://app?vid=ddeb2ab2-50cf-4450-92e1-292f0f03a901","ios":"levelo://app?vid=ddeb2ab2-50cf-4450-92e1-292f0f03a901"},"vehicle_type_id":"4","last_reported":1727791750,"current_range_meters":17200,"station_id":"ce4bhmp2rcd13ifvqgog","pricing_plan_id":"cebpf4jnsgd1na2vs0mg"},{"bike_id":"07b5a74b-d824-4607-9a9d-31a616d5b59d","system_id":"levelo_inurba_marseille","lat":43.33759,"lon":5.37467,"is_reserved":false,"is_disabled":false,"rental_uris":{"android":"levelo://app?vid=07b5a74b-d824-4607-9a9d-31a616d5b59d","ios":"levelo://app?vid=07b5a74b-d824-4607-9a9d-31a616d5b59d"},"vehicle_type_id":"4","last_reported":1727791750,"current_range_meters":38800,"station_id":"","pricing_plan_id":"cebpf4jnsgd1na2vs0mg"},{"bike_id":"9b1d83f5-2c80-4ce9-9189-944b11cf3b2d","system_id":"levelo_inurba_marseille","lat":43.30253,"lon":5.40057,"is_reserved":false,"is_disabled":false,"rental_uris":{"android":"levelo://app?vid=9b1d83f5-2c80-4ce9-9189-944b11cf3b2d","ios":"levelo://app?vid=9b1d83f5-2c80-4ce9-9189-944b11cf3b2d"},"vehicle_type_id":"4","last_reported":1727791750,"current_range_meters":32400,"station_id":"ce4bgvh2rcd13ifvqcs0","pricing_plan_id":"cebpf4jnsgd1na2vs0mg"},{"bike_id":"68e0a9ab-46aa-4e94-afbe-c36fcd68b268","system_id":"levelo_inurba_marseille","lat":43.28411,"lon":5.34988,"is_reserved":false,"is_disabled":false,"rental_uris":{"android":"levelo://app?vid=68e0a9ab-46aa-4e94-afbe-c36fcd68b268","ios":"levelo://app?vid=68e0a9ab-46aa-4e94-afbe-c36fcd68b268"},"vehicle_type_id":"4","last_reported":1727791750,"current_range_meters":38800,"station_id":"ce4bhbh2rcd13ifvqepg","pricing_plan_id":"cebpf4jnsgd1na2vs0mg"},{"bike_id":"095ab7da-132b-42aa-9607-d2e19199b970","system_id":"levelo_inurba_marseille","lat":43.31498,"lon":5.37304,"is_reserved":false,"is_disabled":false,"rental_uris":{"android":"levelo://app?vid=095ab7da-132b-42aa-9607-d2e19199b970","ios":"levelo://app?vid=095ab7da-132b-42aa-9607-d2e19199b970"},"vehicle_type_id":"4","last_reported":1727791750,"current_range_meters":27200,"station_id":"ce4bgt12rcd13ifvqcd0","pricing_plan_id":"cebpf4jnsgd1na2vs0mg"},{"bike_id":"4956e767-87bd-4854-b535-d2df5d0d8456","system_id":"levelo_inurba_marseille","lat":43.26783,"lon":5.39419,"is_reserved":false,"is_disabled":false,"rental_uris":{"android":"levelo://app?vid=4956e767-87bd-4854-b535-d2df5d0d8456","ios":"levelo://app?vid=4956e767-87bd-4854-b535-d2df5d0d8456"},"vehicle_type_id":"4","last_reported":1727791750,"current_range_meters":28000,"station_id":"ce4bhh12rcd13ifvqfg0","pricing_plan_id":"cebpf4jnsgd1na2vs0mg"},{"bike_id":"747ad225-9770-4678-b467-e6a39653522e","system_id":"levelo_inurba_marseille","lat":43.30303,"lon":5.36895,"is_reserved":false,"is_disabled":false,"rental_uris":{"android":"levelo://app?vid=747ad225-9770-4678-b467-e6a39653522e","ios":"levelo://app?vid=747ad225-9770-4678-b467-e6a39653522e"},"vehicle_type_id":"4","last_reported":1727791750,"current_range_meters":12800,"station_id":"ce4bgqh2rcd13ifvqc5g","pricing_plan_id":"cebpf4jnsgd1na2vs0mg"},{"bike_id":"8f64f2d6-2fb9-4030-8e61-47c767c8f9e0","system_id":"levelo_inurba_marseille","lat":43.25586,"lon":5.38227,"is_reserved":false,"is_disabled":false,"rental_uris":{"android":"levelo://app?vid=8f64f2d6-2fb9-4030-8e61-47c767c8f9e0","ios":"levelo://app?vid=8f64f2d6-2fb9-4030-8e61-47c767c8f9e0"},"vehicle_type_id":"4","last_reported":1727791750,"current_range_meters":24800,"station_id":"ce4bhih2rcd13ifvqfs0","pricing_plan_id":"cebpf4jnsgd1na2vs0mg"},{"bike_id":"6f2ae92f-23a2-4f11-8edb-90c2c8fd879f","system_id":"levelo_inurba_marseille","lat":43.35139,"lon":5.43851,"is_reserved":false,"is_disabled":false,"rental_uris":{"android":"levelo://app?vid=6f2ae92f-23a2-4f11-8edb-90c2c8fd879f","ios":"levelo://app?vid=6f2ae92f-23a2-4f11-8edb-90c2c8fd879f"},"vehicle_type_id":"4","last_reported":1727791750,"current_range_meters":26800,"station_id":"","pricing_plan_id":"cebpf4jnsgd1na2vs0mg"},{"bike_id":"b337bd20-f5ab-4d71-a842-ea60a4480d01","system_id":"levelo_inurba_marseille","lat":43.337444,"lon":5.374475,"is_reserved":false,"is_disabled":false,"rental_uris":{"android":"levelo://app?vid=b337bd20-f5ab-4d71-a842-ea60a4480d01","ios":"levelo://app?vid=b337bd20-f5ab-4d71-a842-ea60a4480d01"},"vehicle_type_id":"4","last_reported":1727791750,"current_range_meters":36800,"station_id":"","pricing_plan_id":"cebpf4jnsgd1na2vs0mg"},{"bike_id":"bf793615-276f-4d04-b1b2-bc5f4d9194ad","system_id":"levelo_inurba_marseille","lat":43.24179,"lon":5.39726,"is_reserved":false,"is_disabled":false,"rental_uris":{"android":"levelo://app?vid=bf793615-276f-4d04-b1b2-bc5f4d9194ad","ios":"levelo://app?vid=bf793615-276f-4d04-b1b2-bc5f4d9194ad"},"vehicle_type_id":"4","last_reported":1727791750,"current_range_meters":22000,"station_id":"ce4bhn12rcd13ifvqgpg","pricing_plan_id":"cebpf4jnsgd1na2vs0mg"},{"bike_id":"2d1e394b-c65c-48dd-8f6c-7fbd688f784e","system_id":"levelo_inurba_marseille","lat":43.3164,"lon":5.38794,"is_reserved":false,"is_disabled":false,"rental_uris":{"android":"levelo://app?vid=2d1e394b-c65c-48dd-8f6c-7fbd688f784e","ios":"levelo://app?vid=2d1e394b-c65c-48dd-8f6c-7fbd688f784e"},"vehicle_type_id":"4","last_reported":1727791750,"current_range_meters":13600,"station_id":"ce4bhqp2rcd13ifvqhng","pricing_plan_id":"cebpf4jnsgd1na2vs0mg"},{"bike_id":"7142890b-9a44-422c-bce2-784f4aa78cb2","system_id":"levelo_inurba_marseille","lat":43.30425,"lon":5.38879,"is_reserved":false,"is_disabled":false,"rental_uris":{"android":"levelo://app?vid=7142890b-9a44-422c-bce2-784f4aa78cb2","ios":"levelo://app?vid=7142890b-9a44-422c-bce2-784f4aa78cb2"},"vehicle_type_id":"4","last_reported":1727791750,"current_range_meters":30400,"station_id":"ce4bgk12rcd13ifvqbi0","pricing_plan_id":"cebpf4jnsgd1na2vs0mg"},{"bike_id":"2aeab12c-637d-4adb-a658-250c37ea8649","system_id":"levelo_inurba_marseille","lat":43.3136,"lon":5.38486,"is_reserved":false,"is_disabled":false,"rental_uris":{"android":"levelo://app?vid=2aeab12c-637d-4adb-a658-250c37ea8649","ios":"levelo://app?vid=2aeab12c-637d-4adb-a658-250c37ea8649"},"vehicle_type_id":"4","last_reported":1727791750,"current_range_meters":8000,"station_id":"ce4bgt92rcd13ifvqcf0","pricing_plan_id":"cebpf4jnsgd1na2vs0mg"},{"bike_id":"ab80b424-bfc5-4709-9b95-a2bee6a56f64","system_id":"levelo_inurba_marseille","lat":43.32292,"lon":5.38269,"is_reserved":false,"is_disabled":false,"rental_uris":{"android":"levelo://app?vid=ab80b424-bfc5-4709-9b95-a2bee6a56f64","ios":"levelo://app?vid=ab80b424-bfc5-4709-9b95-a2bee6a56f64"},"vehicle_type_id":"4","last_reported":1727791750,"current_range_meters":38800,"station_id":"ce4bhr12rcd13ifvqhqg","pricing_plan_id":"cebpf4jnsgd1na2vs0mg"},{"bike_id":"57fd617d-4c45-4067-abf8-49390cf863d2","system_id":"levelo_inurba_marseille","lat":43.27058,"lon":5.40259,"is_reserved":false,"is_disabled":false,"rental_uris":{"android":"levelo://app?vid=57fd617d-4c45-4067-abf8-49390cf863d2","ios":"levelo://app?vid=57fd617d-4c45-4067-abf8-49390cf863d2"},"vehicle_type_id":"4","last_reported":1727791750,"current_range_meters":27200,"station_id":"ce4bhk92rcd13ifvqgc0","pricing_plan_id":"cebpf4jnsgd1na2vs0mg"},{"bike_id":"8a5d4339-2322-46e9-8c97-eaa35df4aa74","system_id":"levelo_inurba_marseille","lat":43.30647,"lon":5.4009,"is_reserved":false,"is_disabled":false,"rental_uris":{"android":"levelo://app?vid=8a5d4339-2322-46e9-8c97-eaa35df4aa74","ios":"levelo://app?vid=8a5d4339-2322-46e9-8c97-eaa35df4aa74"},"vehicle_type_id":"4","last_reported":1727791750,"current_range_meters":20400,"station_id":"ce4bh112rcd13ifvqda0","pricing_plan_id":"cebpf4jnsgd1na2vs0mg"},{"bike_id":"f493192b-13c6-47a1-9573-739dd32e633f","system_id":"levelo_inurba_marseille","lat":43.337444,"lon":5.374475,"is_reserved":false,"is_disabled":false,"rental_uris":{"android":"levelo://app?vid=f493192b-13c6-47a1-9573-739dd32e633f","ios":"levelo://app?vid=f493192b-13c6-47a1-9573-739dd32e633f"},"vehicle_type_id":"4","last_reported":1727791750,"current_range_meters":16800,"station_id":"","pricing_plan_id":"cebpf4jnsgd1na2vs0mg"},{"bike_id":"8703bcf1-8807-48a1-9dff-1bc4fd084e21","system_id":"levelo_inurba_marseille","lat":43.30781,"lon":5.3765,"is_reserved":false,"is_disabled":false,"rental_uris":{"android":"levelo://app?vid=8703bcf1-8807-48a1-9dff-1bc4fd084e21","ios":"levelo://app?vid=8703bcf1-8807-48a1-9dff-1bc4fd084e21"},"vehicle_type_id":"4","last_reported":1727791750,"current_range_meters":9600,"station_id":"ce4bgv92rcd13ifvqcq0","pricing_plan_id":"cebpf4jnsgd1na2vs0mg"},{"bike_id":"ca1dfe48-6446-4a83-8269-faeddf402ce6","system_id":"levelo_inurba_marseille","lat":43.29793,"lon":5.38092,"is_reserved":false,"is_disabled":false,"rental_uris":{"android":"levelo://app?vid=ca1dfe48-6446-4a83-8269-faeddf402ce6","ios":"levelo://app?vid=ca1dfe48-6446-4a83-8269-faeddf402ce6"},"vehicle_type_id":"4","last_reported":1727791750,"current_range_meters":17200,"station_id":"ce4bgip2rcd13ifvqbb0","pricing_plan_id":"cebpf4jnsgd1na2vs0mg"},{"bike_id":"d0f3ba74-2db6-4276-a970-d6d9e934005a","system_id":"levelo_inurba_marseille","lat":43.33724,"lon":5.39184,"is_reserved":false,"is_disabled":false,"rental_uris":{"android":"levelo://app?vid=d0f3ba74-2db6-4276-a970-d6d9e934005a","ios":"levelo://app?vid=d0f3ba74-2db6-4276-a970-d6d9e934005a"},"vehicle_type_id":"4","last_reported":1727791750,"current_range_meters":14800,"station_id":"ce4bhr92rcd13ifvqhsg","pricing_plan_id":"cebpf4jnsgd1na2vs0mg"},{"bike_id":"57410dbb-8396-44e8-b670-cb88e08c3f79","system_id":"levelo_inurba_marseille","lat":43.27917,"lon":5.39578,"is_reserved":false,"is_disabled":false,"rental_uris":{"android":"levelo://app?vid=57410dbb-8396-44e8-b670-cb88e08c3f79","ios":"levelo://app?vid=57410dbb-8396-44e8-b670-cb88e08c3f79"},"vehicle_type_id":"4","last_reported":1727791750,"current_range_meters":20800,"station_id":"ce4bhf92rcd13ifvqf40","pricing_plan_id":"cebpf4jnsgd1na2vs0mg"},{"bike_id":"1f07ab2f-e1c7-4367-bfaf-b74069fa42ed","system_id":"levelo_inurba_marseille","lat":43.28841,"lon":5.35849,"is_reserved":false,"is_disabled":false,"rental_uris":{"android":"levelo://app?vid=1f07ab2f-e1c7-4367-bfaf-b74069fa42ed","ios":"levelo://app?vid=1f07ab2f-e1c7-4367-bfaf-b74069fa42ed"},"vehicle_type_id":"4","last_reported":1727791750,"current_range_meters":38800,"station_id":"ce4bhb12rcd13ifvqem0","pricing_plan_id":"cebpf4jnsgd1na2vs0mg"},{"bike_id":"0ce0993a-bef1-411a-860f-c03f88f8539e","system_id":"levelo_inurba_marseille","lat":43.29232,"lon":5.36071,"is_reserved":false,"is_disabled":false,"rental_uris":{"android":"levelo://app?vid=0ce0993a-bef1-411a-860f-c03f88f8539e","ios":"levelo://app?vid=0ce0993a-bef1-411a-860f-c03f88f8539e"},"vehicle_type_id":"4","last_reported":1727791750,"current_range_meters":38800,"station_id":"ce4bhbh2rcd13ifvqeqg","pricing_plan_id":"cebpf4jnsgd1na2vs0mg"},{"bike_id":"9b2a848d-00d1-4923-9fd1-152fd5977df4","system_id":"levelo_inurba_marseille","lat":43.27998,"lon":5.41655,"is_reserved":false,"is_disabled":false,"rental_uris":{"android":"levelo://app?vid=9b2a848d-00d1-4923-9fd1-152fd5977df4","ios":"levelo://app?vid=9b2a848d-00d1-4923-9fd1-152fd5977df4"},"vehicle_type_id":"4","last_reported":1727791750,"current_range_meters":19600,"station_id":"ce4bho12rcd13ifvqh1g","pricing_plan_id":"cebpf4jnsgd1na2vs0mg"},{"bike_id":"d1884546-c1ac-4a25-8524-789ccd6e7ce2","system_id":"levelo_inurba_marseille","lat":43.31486,"lon":5.37294,"is_reserved":false,"is_disabled":false,"rental_uris":{"android":"levelo://app?vid=d1884546-c1ac-4a25-8524-789ccd6e7ce2","ios":"levelo://app?vid=d1884546-c1ac-4a25-8524-789ccd6e7ce2"},"vehicle_type_id":"4","last_reported":1727791750,"current_range_meters":9200,"station_id":"ce4bgt12rcd13ifvqcd0","pricing_plan_id":"cebpf4jnsgd1na2vs0mg"},{"bike_id":"eef0ff24-2e3f-471a-8736-b680248f123f","system_id":"levelo_inurba_marseille","lat":43.31706,"lon":5.37772,"is_reserved":false,"is_disabled":false,"rental_uris":{"android":"levelo://app?vid=eef0ff24-2e3f-471a-8736-b680248f123f","ios":"levelo://app?vid=eef0ff24-2e3f-471a-8736-b680248f123f"},"vehicle_type_id":"4","last_reported":1727791750,"current_range_meters":38400,"station_id":"ce4bgth2rcd13ifvqch0","pricing_plan_id":"cebpf4jnsgd1na2vs0mg"},{"bike_id":"5e6ad74b-e428-4571-aa41-1be9b857db94","system_id":"levelo_inurba_marseille","lat":43.30609,"lon":5.38019,"is_reserved":false,"is_disabled":false,"rental_uris":{"android":"levelo://app?vid=5e6ad74b-e428-4571-aa41-1be9b857db94","ios":"levelo://app?vid=5e6ad74b-e428-4571-aa41-1be9b857db94"},"vehicle_type_id":"4","last_reported":1727791750,"current_range_meters":38400,"station_id":"","pricing_plan_id":"cebpf4jnsgd1na2vs0mg"},{"bike_id":"93b38573-67be-432d-8c7a-2384174aebe1","system_id":"levelo_inurba_marseille","lat":43.31444,"lon":5.37059,"is_reserved":false,"is_disabled":false,"rental_uris":{"android":"levelo://app?vid=93b38573-67be-432d-8c7a-2384174aebe1","ios":"levelo://app?vid=93b38573-67be-432d-8c7a-2384174aebe1"},"vehicle_type_id":"4","last_reported":1727791750,"current_range_meters":20800,"station_id":"ce4bgl92rcd13ifvqbq0","pricing_plan_id":"cebpf4jnsgd1na2vs0mg"},{"bike_id":"7d201004-e067-4d98-afab-ef593a3b6e5f","system_id":"levelo_inurba_marseille","lat":43.27996,"lon":5.40011,"is_reserved":false,"is_disabled":false,"rental_uris":{"android":"levelo://app?vid=7d201004-e067-4d98-afab-ef593a3b6e5f","ios":"levelo://app?vid=7d201004-e067-4d98-afab-ef593a3b6e5f"},"vehicle_type_id":"4","last_reported":1727791750,"current_range_meters":22400,"station_id":"ce4bho92rcd13ifvqh4g","pricing_plan_id":"cebpf4jnsgd1na2vs0mg"},{"bike_id":"30a1737f-4d8e-4a6c-9cce-f981f6f51e08","system_id":"levelo_inurba_marseille","lat":43.28265,"lon":5.35071,"is_reserved":false,"is_disabled":false,"rental_uris":{"android":"levelo://app?vid=30a1737f-4d8e-4a6c-9cce-f981f6f51e08","ios":"levelo://app?vid=30a1737f-4d8e-4a6c-9cce-f981f6f51e08"},"vehicle_type_id":"4","last_reported":1727791750,"current_range_meters":28400,"station_id":"ce4bhbp2rcd13ifvqerg","pricing_plan_id":"cebpf4jnsgd1na2vs0mg"},{"bike_id":"34a09b11-9b5e-4e94-b01a-225bf41ad5eb","system_id":"levelo_inurba_marseille","lat":43.27218,"lon":5.39188,"is_reserved":false,"is_disabled":false,"rental_uris":{"android":"levelo://app?vid=34a09b11-9b5e-4e94-b01a-225bf41ad5eb","ios":"levelo://app?vid=34a09b11-9b5e-4e94-b01a-225bf41ad5eb"},"vehicle_type_id":"4","last_reported":1727791750,"current_range_meters":5600,"station_id":"ce4bhhp2rcd13ifvqfm0","pricing_plan_id":"cebpf4jnsgd1na2vs0mg"},{"bike_id":"5b807f00-e4e3-4c41-9acd-c6bb87d60fc6","system_id":"levelo_inurba_marseille","lat":43.28719,"lon":5.36085,"is_reserved":false,"is_disabled":false,"rental_uris":{"android":"levelo://app?vid=5b807f00-e4e3-4c41-9acd-c6bb87d60fc6","ios":"levelo://app?vid=5b807f00-e4e3-4c41-9acd-c6bb87d60fc6"},"vehicle_type_id":"4","last_reported":1727791750,"current_range_meters":6400,"station_id":"cki0cbj6b192h4jlfktg","pricing_plan_id":"cebpf4jnsgd1na2vs0mg"},{"bike_id":"51614839-5d55-45ef-a486-05189c9f6d01","system_id":"levelo_inurba_marseille","lat":43.29105,"lon":5.38133,"is_reserved":false,"is_disabled":false,"rental_uris":{"android":"levelo://app?vid=51614839-5d55-45ef-a486-05189c9f6d01","ios":"levelo://app?vid=51614839-5d55-45ef-a486-05189c9f6d01"},"vehicle_type_id":"4","last_reported":1727791750,"current_range_meters":38800,"station_id":"ce4bh512rcd13ifvqe2g","pricing_plan_id":"cebpf4jnsgd1na2vs0mg"},{"bike_id":"4518c8af-a524-4cee-8f37-9d1be3686f57","system_id":"levelo_inurba_marseille","lat":43.28709,"lon":5.39989,"is_reserved":false,"is_disabled":false,"rental_uris":{"android":"levelo://app?vid=4518c8af-a524-4cee-8f37-9d1be3686f57","ios":"levelo://app?vid=4518c8af-a524-4cee-8f37-9d1be3686f57"},"vehicle_type_id":"4","last_reported":1727791750,"current_range_meters":36800,"station_id":"ce4bho92rcd13ifvqh3g","pricing_plan_id":"cebpf4jnsgd1na2vs0mg"},{"bike_id":"3bbd87e0-85b6-4f7a-baa6-efeecc9b3dca","system_id":"levelo_inurba_marseille","lat":43.29022,"lon":5.39975,"is_reserved":false,"is_disabled":false,"rental_uris":{"android":"levelo://app?vid=3bbd87e0-85b6-4f7a-baa6-efeecc9b3dca","ios":"levelo://app?vid=3bbd87e0-85b6-4f7a-baa6-efeecc9b3dca"},"vehicle_type_id":"4","last_reported":1727791750,"current_range_meters":37600,"station_id":"ce4bho92rcd13ifvqh3g","pricing_plan_id":"cebpf4jnsgd1na2vs0mg"},{"bike_id":"0cd2142c-5562-430f-861b-4e7329de9689","system_id":"levelo_inurba_marseille","lat":43.32293,"lon":5.38251,"is_reserved":false,"is_disabled":false,"rental_uris":{"android":"levelo://app?vid=0cd2142c-5562-430f-861b-4e7329de9689","ios":"levelo://app?vid=0cd2142c-5562-430f-861b-4e7329de9689"},"vehicle_type_id":"4","last_reported":1727791750,"current_range_meters":10800,"station_id":"ce4bhr12rcd13ifvqhqg","pricing_plan_id":"cebpf4jnsgd1na2vs0mg"},{"bike_id":"576c5d39-7cc5-49ed-940a-49efe1fb582e","system_id":"levelo_inurba_marseille","lat":43.28423,"lon":5.34985,"is_reserved":false,"is_disabled":false,"rental_uris":{"android":"levelo://app?vid=576c5d39-7cc5-49ed-940a-49efe1fb582e","ios":"levelo://app?vid=576c5d39-7cc5-49ed-940a-49efe1fb582e"},"vehicle_type_id":"4","last_reported":1727791750,"current_range_meters":32400,"station_id":"ce4bhbh2rcd13ifvqepg","pricing_plan_id":"cebpf4jnsgd1na2vs0mg"},{"bike_id":"5bdef96b-51e2-4a92-92c6-34c410701c08","system_id":"levelo_inurba_marseille","lat":43.29598,"lon":5.38084,"is_reserved":false,"is_disabled":false,"rental_uris":{"android":"levelo://app?vid=5bdef96b-51e2-4a92-92c6-34c410701c08","ios":"levelo://app?vid=5bdef96b-51e2-4a92-92c6-34c410701c08"},"vehicle_type_id":"4","last_reported":1727791750,"current_range_meters":4000,"station_id":"ce4bgl12rcd13ifvqbo0","pricing_plan_id":"cebpf4jnsgd1na2vs0mg"},{"bike_id":"d5462c4f-27d0-4050-9adb-ac87f8709501","system_id":"levelo_inurba_marseille","lat":43.32465,"lon":5.36565,"is_reserved":false,"is_disabled":false,"rental_uris":{"android":"levelo://app?vid=d5462c4f-27d0-4050-9adb-ac87f8709501","ios":"levelo://app?vid=d5462c4f-27d0-4050-9adb-ac87f8709501"},"vehicle_type_id":"4","last_reported":1727791750,"current_range_meters":27200,"station_id":"ce4bhs12rcd13ifvqhvg","pricing_plan_id":"cebpf4jnsgd1na2vs0mg"},{"bike_id":"ca5efea8-9458-4c5f-92a7-0483c471639c","system_id":"levelo_inurba_marseille","lat":43.27842,"lon":5.39202,"is_reserved":false,"is_disabled":false,"rental_uris":{"android":"levelo://app?vid=ca5efea8-9458-4c5f-92a7-0483c471639c","ios":"levelo://app?vid=ca5efea8-9458-4c5f-92a7-0483c471639c"},"vehicle_type_id":"4","last_reported":1727791750,"current_range_meters":24400,"station_id":"ce4bhjp2rcd13ifvqga0","pricing_plan_id":"cebpf4jnsgd1na2vs0mg"},{"bike_id":"30979ffb-9c93-4c6d-a4f1-285841e6b16a","system_id":"levelo_inurba_marseille","lat":43.28004,"lon":5.40018,"is_reserved":false,"is_disabled":false,"rental_uris":{"android":"levelo://app?vid=30979ffb-9c93-4c6d-a4f1-285841e6b16a","ios":"levelo://app?vid=30979ffb-9c93-4c6d-a4f1-285841e6b16a"},"vehicle_type_id":"4","last_reported":1727791750,"current_range_meters":25600,"station_id":"ce4bho92rcd13ifvqh4g","pricing_plan_id":"cebpf4jnsgd1na2vs0mg"},{"bike_id":"e35dec10-e6da-4965-b659-e1b674d29064","system_id":"levelo_inurba_marseille","lat":43.28411,"lon":5.3497,"is_reserved":false,"is_disabled":false,"rental_uris":{"android":"levelo://app?vid=e35dec10-e6da-4965-b659-e1b674d29064","ios":"levelo://app?vid=e35dec10-e6da-4965-b659-e1b674d29064"},"vehicle_type_id":"4","last_reported":1727791750,"current_range_meters":26800,"station_id":"ce4bhbh2rcd13ifvqepg","pricing_plan_id":"cebpf4jnsgd1na2vs0mg"},{"bike_id":"c84e5d59-30fc-4713-b481-61636401509d","system_id":"levelo_inurba_marseille","lat":43.26567,"lon":5.39002,"is_reserved":false,"is_disabled":false,"rental_uris":{"android":"levelo://app?vid=c84e5d59-30fc-4713-b481-61636401509d","ios":"levelo://app?vid=c84e5d59-30fc-4713-b481-61636401509d"},"vehicle_type_id":"4","last_reported":1727791750,"current_range_meters":24800,"station_id":"ce4bhe12rcd13ifvqf30","pricing_plan_id":"cebpf4jnsgd1na2vs0mg"},{"bike_id":"3c7a42cc-b681-47e6-903e-b9d6f73e4493","system_id":"levelo_inurba_marseille","lat":43.25506,"lon":5.37648,"is_reserved":false,"is_disabled":false,"rental_uris":{"android":"levelo://app?vid=3c7a42cc-b681-47e6-903e-b9d6f73e4493","ios":"levelo://app?vid=3c7a42cc-b681-47e6-903e-b9d6f73e4493"},"vehicle_type_id":"4","last_reported":1727791750,"current_range_meters":38400,"station_id":"ce4bhh12rcd13ifvqff0","pricing_plan_id":"cebpf4jnsgd1na2vs0mg"},{"bike_id":"2d7439c9-83ec-4fba-a8cc-813889000f94","system_id":"levelo_inurba_marseille","lat":43.23189,"lon":5.35555,"is_reserved":false,"is_disabled":false,"rental_uris":{"android":"levelo://app?vid=2d7439c9-83ec-4fba-a8cc-813889000f94","ios":"levelo://app?vid=2d7439c9-83ec-4fba-a8cc-813889000f94"},"vehicle_type_id":"4","last_reported":1727791750,"current_range_meters":36800,"station_id":"ce4bhu92rcd13ifvqi70","pricing_plan_id":"cebpf4jnsgd1na2vs0mg"},{"bike_id":"283c0a19-b0ec-4986-9e09-c097d5d27e38","system_id":"levelo_inurba_marseille","lat":43.23158,"lon":5.43691,"is_reserved":false,"is_disabled":false,"rental_uris":{"android":"levelo://app?vid=283c0a19-b0ec-4986-9e09-c097d5d27e38","ios":"levelo://app?vid=283c0a19-b0ec-4986-9e09-c097d5d27e38"},"vehicle_type_id":"4","last_reported":1727791750,"current_range_meters":38400,"station_id":"ce4bhmp2rcd13ifvqgog","pricing_plan_id":"cebpf4jnsgd1na2vs0mg"},{"bike_id":"82e95409-69d7-4d50-a92e-e7f84edf9553","system_id":"levelo_inurba_marseille","lat":43.30606,"lon":5.37215,"is_reserved":false,"is_disabled":false,"rental_uris":{"android":"levelo://app?vid=82e95409-69d7-4d50-a92e-e7f84edf9553","ios":"levelo://app?vid=82e95409-69d7-4d50-a92e-e7f84edf9553"},"vehicle_type_id":"4","last_reported":1727791750,"current_range_meters":38800,"station_id":"ce4bgqh2rcd13ifvqc4g","pricing_plan_id":"cebpf4jnsgd1na2vs0mg"},{"bike_id":"b24c5e01-c56f-4e77-8471-c089ded50c3a","system_id":"levelo_inurba_marseille","lat":43.31493,"lon":5.37294,"is_reserved":false,"is_disabled":false,"rental_uris":{"android":"levelo://app?vid=b24c5e01-c56f-4e77-8471-c089ded50c3a","ios":"levelo://app?vid=b24c5e01-c56f-4e77-8471-c089ded50c3a"},"vehicle_type_id":"4","last_reported":1727791750,"current_range_meters":38000,"station_id":"ce4bgt12rcd13ifvqcd0","pricing_plan_id":"cebpf4jnsgd1na2vs0mg"},{"bike_id":"efe8bca1-2b16-4321-8f73-44317fc3f7a6","system_id":"levelo_inurba_marseille","lat":43.29302,"lon":5.37453,"is_reserved":false,"is_disabled":false,"rental_uris":{"android":"levelo://app?vid=efe8bca1-2b16-4321-8f73-44317fc3f7a6","ios":"levelo://app?vid=efe8bca1-2b16-4321-8f73-44317fc3f7a6"},"vehicle_type_id":"4","last_reported":1727791750,"current_range_meters":3200,"station_id":"ce4bgi12rcd13ifvqb70","pricing_plan_id":"cebpf4jnsgd1na2vs0mg"},{"bike_id":"1b655bda-3800-49de-8baa-869464f40abf","system_id":"levelo_inurba_marseille","lat":43.2794,"lon":5.41044,"is_reserved":false,"is_disabled":false,"rental_uris":{"android":"levelo://app?vid=1b655bda-3800-49de-8baa-869464f40abf","ios":"levelo://app?vid=1b655bda-3800-49de-8baa-869464f40abf"},"vehicle_type_id":"4","last_reported":1727791750,"current_range_meters":22400,"station_id":"ce4bhnp2rcd13ifvqh0g","pricing_plan_id":"cebpf4jnsgd1na2vs0mg"},{"bike_id":"377e2b38-ce09-49eb-8804-9907aec30b43","system_id":"levelo_inurba_marseille","lat":43.31723,"lon":5.42387,"is_reserved":false,"is_disabled":false,"rental_uris":{"android":"levelo://app?vid=377e2b38-ce09-49eb-8804-9907aec30b43","ios":"levelo://app?vid=377e2b38-ce09-49eb-8804-9907aec30b43"},"vehicle_type_id":"4","last_reported":1727791750,"current_range_meters":38000,"station_id":"ce4bhp92rcd13ifvqhbg","pricing_plan_id":"cebpf4jnsgd1na2vs0mg"},{"bike_id":"a1bef223-52da-4ab9-af70-c5409df65fd9","system_id":"levelo_inurba_marseille","lat":43.28358,"lon":5.38626,"is_reserved":false,"is_disabled":false,"rental_uris":{"android":"levelo://app?vid=a1bef223-52da-4ab9-af70-c5409df65fd9","ios":"levelo://app?vid=a1bef223-52da-4ab9-af70-c5409df65fd9"},"vehicle_type_id":"4","last_reported":1727791750,"current_range_meters":28000,"station_id":"ce4bh492rcd13ifvqdvg","pricing_plan_id":"cebpf4jnsgd1na2vs0mg"},{"bike_id":"18366e64-3e85-4f8f-b9c1-41d2fabd63b7","system_id":"levelo_inurba_marseille","lat":43.28977,"lon":5.37818,"is_reserved":false,"is_disabled":false,"rental_uris":{"android":"levelo://app?vid=18366e64-3e85-4f8f-b9c1-41d2fabd63b7","ios":"levelo://app?vid=18366e64-3e85-4f8f-b9c1-41d2fabd63b7"},"vehicle_type_id":"4","last_reported":1727791750,"current_range_meters":22800,"station_id":"ce4bh9p2rcd13ifvqed0","pricing_plan_id":"cebpf4jnsgd1na2vs0mg"},{"bike_id":"96a03df0-7bb7-4002-ace0-baf28f644b28","system_id":"levelo_inurba_marseille","lat":43.29867,"lon":5.39726,"is_reserved":false,"is_disabled":false,"rental_uris":{"android":"levelo://app?vid=96a03df0-7bb7-4002-ace0-baf28f644b28","ios":"levelo://app?vid=96a03df0-7bb7-4002-ace0-baf28f644b28"},"vehicle_type_id":"4","last_reported":1727791750,"current_range_meters":8800,"station_id":"ce4bh0h2rcd13ifvqd50","pricing_plan_id":"cebpf4jnsgd1na2vs0mg"},{"bike_id":"9f0079fa-d286-47cf-b1c2-0fba1b9d48a3","system_id":"levelo_inurba_marseille","lat":43.30543,"lon":5.36525,"is_reserved":false,"is_disabled":false,"rental_uris":{"android":"levelo://app?vid=9f0079fa-d286-47cf-b1c2-0fba1b9d48a3","ios":"levelo://app?vid=9f0079fa-d286-47cf-b1c2-0fba1b9d48a3"},"vehicle_type_id":"4","last_reported":1727791750,"current_range_meters":30800,"station_id":"ce4bgs12rcd13ifvqcag","pricing_plan_id":"cebpf4jnsgd1na2vs0mg"},{"bike_id":"7106a867-8cc3-42ed-b055-48f9cdaa6ee9","system_id":"levelo_inurba_marseille","lat":43.31075,"lon":5.38351,"is_reserved":false,"is_disabled":false,"rental_uris":{"android":"levelo://app?vid=7106a867-8cc3-42ed-b055-48f9cdaa6ee9","ios":"levelo://app?vid=7106a867-8cc3-42ed-b055-48f9cdaa6ee9"},"vehicle_type_id":"4","last_reported":1727791750,"current_range_meters":8400,"station_id":"ce4bgv92rcd13ifvqcr0","pricing_plan_id":"cebpf4jnsgd1na2vs0mg"},{"bike_id":"e1b738c0-eac1-49b2-8f71-f4b5e929f51c","system_id":"levelo_inurba_marseille","lat":43.29837,"lon":5.36258,"is_reserved":false,"is_disabled":false,"rental_uris":{"android":"levelo://app?vid=e1b738c0-eac1-49b2-8f71-f4b5e929f51c","ios":"levelo://app?vid=e1b738c0-eac1-49b2-8f71-f4b5e929f51c"},"vehicle_type_id":"4","last_reported":1727791750,"current_range_meters":28400,"station_id":"ce4bgpp2rcd13ifvqc3g","pricing_plan_id":"cebpf4jnsgd1na2vs0mg"},{"bike_id":"bc4d1337-daa8-413b-bfb3-dfa79a508d8f","system_id":"levelo_inurba_marseille","lat":43.30639,"lon":5.40067,"is_reserved":false,"is_disabled":false,"rental_uris":{"android":"levelo://app?vid=bc4d1337-daa8-413b-bfb3-dfa79a508d8f","ios":"levelo://app?vid=bc4d1337-daa8-413b-bfb3-dfa79a508d8f"},"vehicle_type_id":"4","last_reported":1727791750,"current_range_meters":22400,"station_id":"ce4bh112rcd13ifvqda0","pricing_plan_id":"cebpf4jnsgd1na2vs0mg"},{"bike_id":"2ed36a11-5e83-4a67-bd66-efe684933ead","system_id":"levelo_inurba_marseille","lat":43.3137,"lon":5.36692,"is_reserved":false,"is_disabled":false,"rental_uris":{"android":"levelo://app?vid=2ed36a11-5e83-4a67-bd66-efe684933ead","ios":"levelo://app?vid=2ed36a11-5e83-4a67-bd66-efe684933ead"},"vehicle_type_id":"4","last_reported":1727791750,"current_range_meters":38800,"station_id":"ce4bgr92rcd13ifvqc6g","pricing_plan_id":"cebpf4jnsgd1na2vs0mg"},{"bike_id":"6e4e18d8-1b46-480e-a81c-4aaa5a2672c2","system_id":"levelo_inurba_marseille","lat":43.23156,"lon":5.43699,"is_reserved":false,"is_disabled":false,"rental_uris":{"android":"levelo://app?vid=6e4e18d8-1b46-480e-a81c-4aaa5a2672c2","ios":"levelo://app?vid=6e4e18d8-1b46-480e-a81c-4aaa5a2672c2"},"vehicle_type_id":"4","last_reported":1727791750,"current_range_meters":16800,"station_id":"ce4bhmp2rcd13ifvqgog","pricing_plan_id":"cebpf4jnsgd1na2vs0mg"},{"bike_id":"68518328-d64c-40ef-9866-5bdd87fe5125","system_id":"levelo_inurba_marseille","lat":43.30149,"lon":5.38078,"is_reserved":false,"is_disabled":false,"rental_uris":{"android":"levelo://app?vid=68518328-d64c-40ef-9866-5bdd87fe5125","ios":"levelo://app?vid=68518328-d64c-40ef-9866-5bdd87fe5125"},"vehicle_type_id":"4","last_reported":1727791750,"current_range_meters":31200,"station_id":"ce4bgjp2rcd13ifvqbh0","pricing_plan_id":"cebpf4jnsgd1na2vs0mg"},{"bike_id":"c4432127-0b97-48c8-b745-bef6023d020a","system_id":"levelo_inurba_marseille","lat":43.33719,"lon":5.39178,"is_reserved":false,"is_disabled":false,"rental_uris":{"android":"levelo://app?vid=c4432127-0b97-48c8-b745-bef6023d020a","ios":"levelo://app?vid=c4432127-0b97-48c8-b745-bef6023d020a"},"vehicle_type_id":"4","last_reported":1727791750,"current_range_meters":38000,"station_id":"ce4bhr92rcd13ifvqhsg","pricing_plan_id":"cebpf4jnsgd1na2vs0mg"},{"bike_id":"9baef734-c803-4e3f-bec2-489bb865a940","system_id":"levelo_inurba_marseille","lat":43.25121,"lon":5.40317,"is_reserved":false,"is_disabled":false,"rental_uris":{"android":"levelo://app?vid=9baef734-c803-4e3f-bec2-489bb865a940","ios":"levelo://app?vid=9baef734-c803-4e3f-bec2-489bb865a940"},"vehicle_type_id":"4","last_reported":1727791750,"current_range_meters":16800,"station_id":"ce4bhlh2rcd13ifvqgig","pricing_plan_id":"cebpf4jnsgd1na2vs0mg"},{"bike_id":"c82589f5-caec-4fa9-9816-ac6109a09dd9","system_id":"levelo_inurba_marseille","lat":43.2594,"lon":5.40894,"is_reserved":false,"is_disabled":false,"rental_uris":{"android":"levelo://app?vid=c82589f5-caec-4fa9-9816-ac6109a09dd9","ios":"levelo://app?vid=c82589f5-caec-4fa9-9816-ac6109a09dd9"},"vehicle_type_id":"4","last_reported":1727791750,"current_range_meters":8400,"station_id":"ce4bhm92rcd13ifvqglg","pricing_plan_id":"cebpf4jnsgd1na2vs0mg"},{"bike_id":"aa679f9e-e04f-4771-b59c-6b11b0b8ace7","system_id":"levelo_inurba_marseille","lat":43.29191,"lon":5.35812,"is_reserved":false,"is_disabled":false,"rental_uris":{"android":"levelo://app?vid=aa679f9e-e04f-4771-b59c-6b11b0b8ace7","ios":"levelo://app?vid=aa679f9e-e04f-4771-b59c-6b11b0b8ace7"},"vehicle_type_id":"4","last_reported":1727791750,"current_range_meters":36800,"station_id":"ce4bhb12rcd13ifvqel0","pricing_plan_id":"cebpf4jnsgd1na2vs0mg"},{"bike_id":"f5fd22ea-d476-433a-b7ce-a43ac9dc1431","system_id":"levelo_inurba_marseille","lat":43.30253,"lon":5.40059,"is_reserved":false,"is_disabled":false,"rental_uris":{"android":"levelo://app?vid=f5fd22ea-d476-433a-b7ce-a43ac9dc1431","ios":"levelo://app?vid=f5fd22ea-d476-433a-b7ce-a43ac9dc1431"},"vehicle_type_id":"4","last_reported":1727791750,"current_range_meters":17200,"station_id":"ce4bgvh2rcd13ifvqcs0","pricing_plan_id":"cebpf4jnsgd1na2vs0mg"},