{"last_updated":1727838861,"ttl":60,"version":"2.2","data":{"bikes":[{"bike_id":"b997c587-3294-4f9a-b58a-756d91df41db","system_id":"levelo_inurba_marseille","lat":43.29028,"lon":5.38655,"is_reserved":false,"is_disabled":false,"rental_uris":{"android":"levelo://app?vid=b997c587-3294-4f9a-b58a-756d91df41db","ios":"levelo://app?vid=b997c587-3294-4f9a-b58a-756d91df41db"},"vehicle_type_id":"4","last_reported":1727838862,"current_range_meters":37600,"station_id":"ce4bh4p2rcd13ifvqe0g","pricing_plan_id":"cebpf4jnsgd1na2vs0mg"},{"bike_id":"484edfb5-9f03-4dae-a24e-4b5baa8721ea","system_id":"levelo_inurba_marseille","lat":43.30471,"lon":5.37898,"is_reserved":false,"is_disabled":false,"rental_uris":{"android":"levelo://app?vid=484edfb5-9f03-4dae-a24e-4b5baa8721ea","ios":"levelo://app?vid=484edfb5-9f03-4dae-a24e-4b5baa8721ea"},"vehicle_type_id":"4","last_reported":1727838862,"current_range_meters":38800,"station_id":"ce4bgup2rcd13ifvqcn0","pricing_plan_id":"cebpf4jnsgd1na2vs0mg"},{"bike_id":"fbc4b367-7bbb-43b3-ba51-7142eb83236b","system_id":"levelo_inurba_marseille","lat":43.31451,"lon":5.37359,"is_reserved":false,"is_disabled":false,"rental_uris":{"android":"levelo://app?vid=fbc4b367-7bbb-43b3-ba51-7142eb83236b","ios":"levelo://app?vid=fbc4b367-7bbb-43b3-ba51-7142eb83236b"},"vehicle_type_id":"4","last_reported":1727838862,"current_range_meters":26000,"station_id":"","pricing_plan_id":"cebpf4jnsgd1na2vs0mg"},{"bike_id":"d97196d4-185e-4916-bd86-5eb6fdf18447","system_id":"levelo_inurba_marseille","lat":43.33021,"lon":5.39035,"is_reserved":false,"is_disabled":false,"rental_uris":{"android":"levelo://app?vid=d97196d4-185e-4916-bd86-5eb6fdf18447","ios":"levelo://app?vid=d97196d4-185e-4916-bd86-5eb6fdf18447"},"vehicle_type_id":"4","last_reported":1727838862,"current_range_meters":37600,"station_id":"ce4bhr92rcd13ifvqhrg","pricing_plan_id":"cebpf4jnsgd1na2vs0mg"},{"bike_id":"c1f8fd95-7047-428b-8805-d2bc5bdc3363","system_id":"levelo_inurba_marseille","lat":43.33024,"lon":5.39041,"is_reserved":false,"is_disabled":false,"rental_uris":{"android":"levelo://app?vid=c1f8fd95-7047-428b-8805-d2bc5bdc3363","ios":"levelo://app?vid=c1f8fd95-7047-428b-8805-d2bc5bdc3363"},"vehicle_type_id":"4","last_reported":1727838862,"current_range_meters":36800,"station_id":"ce4bhr92rcd13ifvqhrg","pricing_plan_id":"cebpf4jnsgd1na2vs0mg"},{"bike_id":"590a8d58-4170-45bf-9ac5-837bd3ff5b81","system_id":"levelo_inurba_marseille","lat":43.27091,"lon":5.42275,"is_reserved":false,"is_disabled":false,"rental_uris":{"android":"levelo://app?vid=590a8d58-4170-45bf-9ac5-837bd3ff5b81","ios":"levelo://app?vid=590a8d58-4170-45bf-9ac5-837bd3ff5b81"},"vehicle_type_id":"4","last_reported":1727838862,"current_range_meters":24800,"station_id":"ce4bhk92rcd13ifvqgb0","pricing_plan_id":"cebpf4jnsgd1na2vs0mg"},{"bike_id":"44cefc2e-25d9-4040-b45f-14956c78c679","system_id":"levelo_inurba_marseille","lat":43.27067,"lon":5.42272,"is_reserved":false,"is_disabled":false,"rental_uris":{"android":"levelo://app?vid=44cefc2e-25d9-4040-b45f-14956c78c679","ios":"levelo://app?vid=44cefc2e-25d9-4040-b45f-14956c78c679"},"vehicle_type_id":"4","last_reported":1727838862,"current_range_meters":38800,"station_id":"ce4bhk92rcd13ifvqgb0","pricing_plan_id":"cebpf4jnsgd1na2vs0mg"},{"bike_id":"a814215c-f3f0-4b2e-be81-e83f4e5a2fd2","system_id":"levelo_inurba_marseille","lat":43.24071,"lon":5.37726,"is_reserved":false,"is_disabled":false,"rental_uris":{"android":"levelo://app?vid=a814215c-f3f0-4b2e-be81-e83f4e5a2fd2","ios":"levelo://app?vid=a814215c-f3f0-4b2e-be81-e83f4e5a2fd2"},"vehicle_type_id":"4","last_reported":1727838862,"current_range_meters":32000,"station_id":"ce4bhnp2rcd13ifvqgvg","pricing_plan_id":"cebpf4jnsgd1na2vs0mg"},{"bike_id":"83e07b7c-5a31-4eac-92e4-4f0fe5973f81","system_id":"levelo_inurba_marseille","lat":43.24651,"lon":5.38907,"is_reserved":false,"is_disabled":false,"rental_uris":{"android":"levelo://app?vid=83e07b7c-5a31-4eac-92e4-4f0fe5973f81","ios":"levelo://app?vid=83e07b7c-5a31-4eac-92e4-4f0fe5973f81"},"vehicle_type_id":"4","last_reported":1727838862,"current_range_meters":40000,"station_id":"ce4bhg12rcd13ifvqf60","pricing_plan_id":"cebpf4jnsgd1na2vs0mg"},{"bike_id":"4231bfd2-8339-4277-8d8f-7454b1d9b615","system_id":"levelo_inurba_marseille","lat":43.27545,"lon":5.38415,"is_reserved":false,"is_disabled":false,"rental_uris":{"android":"levelo://app?vid=4231bfd2-8339-4277-8d8f-7454b1d9b615","ios":"levelo://app?vid=4231bfd2-8339-4277-8d8f-7454b1d9b615"},"vehicle_type_id":"4","last_reported":1727838862,"current_range_meters":37600,"station_id":"ce4bhh92rcd13ifvqfi0","pricing_plan_id":"cebpf4jnsgd1na2vs0mg"},{"bike_id":"33a75d1e-713e-4484-ada7-22735735e31a","system_id":"levelo_inurba_marseille","lat":43.31718,"lon":5.42399,"is_reserved":false,"is_disabled":false,"rental_uris":{"android":"levelo://app?vid=33a75d1e-713e-4484-ada7-22735735e31a","ios":"levelo://app?vid=33a75d1e-713e-4484-ada7-22735735e31a"},"vehicle_type_id":"4","last_reported":1727838862,"current_range_meters":38800,"station_id":"ce4bhp92rcd13ifvqhbg","pricing_plan_id":"cebpf4jnsgd1na2vs0mg"},{"bike_id":"eed7e329-6797-484d-911e-085f4531d31b","system_id":"levelo_inurba_marseille","lat":43.25586,"lon":5.38231,"is_reserved":false,"is_disabled":false,"rental_uris":{"android":"levelo://app?vid=eed7e329-6797-484d-911e-085f4531d31b","ios":"levelo://app?vid=eed7e329-6797-484d-911e-085f4531d31b"},"vehicle_type_id":"4","last_reported":1727838862,"current_range_meters":26000,"station_id":"ce4bhih2rcd13ifvqfs0","pricing_plan_id":"cebpf4jnsgd1na2vs0mg"},{"bike_id":"1a3ec3a1-7767-4940-a140-a358655f8458","system_id":"levelo_inurba_marseille","lat":43.29555,"lon":5.42285,"is_reserved":false,"is_disabled":false,"rental_uris":{"android":"levelo://app?vid=1a3ec3a1-7767-4940-a140-a358655f8458","ios":"levelo://app?vid=1a3ec3a1-7767-4940-a140-a358655f8458"},"vehicle_type_id":"4","last_reported":1727838862,"current_range_meters":39200,"station_id":"ce4bhph2rcd13ifvqhdg","pricing_plan_id":"cebpf4jnsgd1na2vs0mg"},{"bike_id":"c92a38d9-de10-477a-8e6d-a4f5631ecb8e","system_id":"levelo_inurba_marseille","lat":43.24651,"lon":5.38898,"is_reserved":false,"is_disabled":false,"rental_uris":{"android":"levelo://app?vid=c92a38d9-de10-477a-8e6d-a4f5631ecb8e","ios":"levelo://app?vid=c92a38d9-de10-477a-8e6d-a4f5631ecb8e"},"vehicle_type_id":"4","last_reported":1727838862,"current_range_meters":28000,"station_id":"ce4bhg12rcd13ifvqf60","pricing_plan_id":"cebpf4jnsgd1na2vs0mg"},{"bike_id":"acec0df2-76a5-4e08-bd34-e0b2de725b1b","system_id":"levelo_inurba_marseille","lat":43.284129,"lon":5.375191,"is_reserved":false,"is_disabled":false,"rental_uris":{"android":"levelo://app?vid=acec0df2-76a5-4e08-bd34-e0b2de725b1b","ios":"levelo://app?vid=acec0df2-76a5-4e08-bd34-e0b2de725b1b"},"vehicle_type_id":"4","last_reported":1727838862,"current_range_meters":37600,"station_id":"ce4bh412rcd13ifvqds0","pricing_plan_id":"cebpf4jnsgd1na2vs0mg"},{"bike_id":"09ae8c03-4961-49ed-b29a-bf4a8ba84722","system_id":"levelo_inurba_marseille","lat":43.2511,"lon":5.40332,"is_reserved":false,"is_disabled":false,"rental_uris":{"android":"levelo://app?vid=09ae8c03-4961-49ed-b29a-bf4a8ba84722","ios":"levelo://app?vid=09ae8c03-4961-49ed-b29a-bf4a8ba84722"},"vehicle_type_id":"4","last_reported":1727838862,"current_range_meters":38800,"station_id":"ce4bhlh2rcd13ifvqgig","pricing_plan_id":"cebpf4jnsgd1na2vs0mg"},{"bike_id":"085bfafa-c735-4e73-a53e-90db6f6abf7a","system_id":"levelo_inurba_marseille","lat":43.2439,"lon":5.37056,"is_reserved":false,"is_disabled":false,"rental_uris":{"android":"levelo://app?vid=085bfafa-c735-4e73-a53e-90db6f6abf7a","ios":"levelo://app?vid=085bfafa-c735-4e73-a53e-90db6f6abf7a"},"vehicle_type_id":"4","last_reported":1727838862,"current_range_meters":37600,"station_id":"ce4bhhh2rcd13ifvqfk0","pricing_plan_id":"cebpf4jnsgd1na2vs0mg"},{"bike_id":"9cc2522d-8168-4a90-b662-87d3ade3e60c","system_id":"levelo_inurba_marseille","lat":43.33603,"lon":5.4103,"is_reserved":false,"is_disabled":false,"rental_uris":{"android":"levelo://app?vid=9cc2522d-8168-4a90-b662-87d3ade3e60c","ios":"levelo://app?vid=9cc2522d-8168-4a90-b662-87d3ade3e60c"},"vehicle_type_id":"4","last_reported":1727838862,"current_range_meters":2800,"station_id":"ce4bhqh2rcd13ifvqhmg","pricing_plan_id":"cebpf4jnsgd1na2vs0mg"},{"bike_id":"1435c970-49d1-4f79-bdf4-3029475f39fb","system_id":"levelo_inurba_marseille","lat":43.29191,"lon":5.35805,"is_reserved":false,"is_disabled":false,"rental_uris":{"android":"levelo://app?vid=1435c970-49d1-4f79-bdf4-3029475f39fb","ios":"levelo://app?vid=1435c970-49d1-4f79-bdf4-3029475f39fb"},"vehicle_type_id":"4","last_reported":1727838862,"current_range_meters":38000,"station_id":"ce4bhb12rcd13ifvqel0","pricing_plan_id":"cebpf4jnsgd1na2vs0mg"},{"bike_id":"a213483b-0747-4221-a9b2-2551cb9f0226","system_id":"levelo_inurba_marseille","lat":43.30797,"lon":5.38161,"is_reserved":false,"is_disabled":false,"rental_uris":{"android":"levelo://app?vid=a213483b-0747-4221-a9b2-2551cb9f0226","ios":"levelo://app?vid=a213483b-0747-4221-a9b2-2551cb9f0226"},"vehicle_type_id":"4","last_reported":1727838862,"current_range_meters":36400,"station_id":"ce4bgt12rcd13ifvqce0","pricing_plan_id":"cebpf4jnsgd1na2vs0mg"},{"bike_id":"f139bc38-1ba2-4d42-a550-2a060e4202e5","system_id":"levelo_inurba_marseille","lat":43.2781,"lon":5.40722,"is_reserved":false,"is_disabled":false,"rental_uris":{"android":"levelo://app?vid=f139bc38-1ba2-4d42-a550-2a060e4202e5","ios":"levelo://app?vid=f139bc38-1ba2-4d42-a550-2a060e4202e5"},"vehicle_type_id":"4","last_reported":1727838862,"current_range_meters":38800,"station_id":"ce4bhnh2rcd13ifvqgtg","pricing_plan_id":"cebpf4jnsgd1na2vs0mg"},{"bike_id":"2a62678b-7307-4fb5-9cbc-d335087ba1ad","system_id":"levelo_inurba_marseille","lat":43.28433,"lon":5.39199,"is_reserved":false,"is_disabled":false,"rental_uris":{"android":"levelo://app?vid=2a62678b-7307-4fb5-9cbc-d335087ba1ad","ios":"levelo://app?vid=2a62678b-7307-4fb5-9cbc-d335087ba1ad"},"vehicle_type_id":"4","last_reported":1727838862,"current_range_meters":36000,"station_id":"ce4bhoh2rcd13ifvqh5g","pricing_plan_id":"cebpf4jnsgd1na2vs0mg"},{"bike_id":"fb54197c-bcfe-4fae-91f5-5917564b6317","system_id":"levelo_inurba_marseille","lat":43.30885,"lon":5.39643,"is_reserved":false,"is_disabled":false,"rental_uris":{"android":"levelo://app?vid=fb54197c-bcfe-4fae-91f5-5917564b6317","ios":"levelo://app?vid=fb54197c-bcfe-4fae-91f5-5917564b6317"},"vehicle_type_id":"4","last_reported":1727838862,"current_range_meters":14800,"station_id":"ce4bh012rcd13ifvqcv0","pricing_plan_id":"cebpf4jnsgd1na2vs0mg"},{"bike_id":"bd0cf108-642a-4653-84c9-49c22e87cd59","system_id":"levelo_inurba_marseille","lat":43.26956,"lon":5.38643,"is_reserved":false,"is_disabled":false,"rental_uris":{"android":"levelo://app?vid=bd0cf108-642a-4653-84c9-49c22e87cd59","ios":"levelo://app?vid=bd0cf108-642a-4653-84c9-49c22e87cd59"},"vehicle_type_id":"4","last_reported":1727838862,"current_range_meters":37600,"station_id":"ce4bhh92rcd13ifvqfh0","pricing_plan_id":"cebpf4jnsgd1na2vs0mg"},{"bike_id":"299a2ae8-3c93-4a97-bb80-41c1bc0c9465","system_id":"levelo_inurba_marseille","lat":43.28657,"lon":5.36357,"is_reserved":false,"is_disabled":false,"rental_uris":{"android":"levelo://app?vid=299a2ae8-3c93-4a97-bb80-41c1bc0c9465","ios":"levelo://app?vid=299a2ae8-3c93-4a97-bb80-41c1bc0c9465"},"vehicle_type_id":"4","last_reported":1727838862,"current_range_meters":37600,"station_id":"ce4bhah2rcd13ifvqej0","pricing_plan_id":"cebpf4jnsgd1na2vs0mg"},{"bike_id":"e7c090c4-a395-497f-aafe-dafdf7011f5d","system_id":"levelo_inurba_marseille","lat":43.31172,"lon":5.38713,"is_reserved":false,"is_disabled":false,"rental_uris":{"android":"levelo://app?vid=e7c090c4-a395-497f-aafe-dafdf7011f5d","ios":"levelo://app?vid=e7c090c4-a395-497f-aafe-dafdf7011f5d"},"vehicle_type_id":"4","last_reported":1727838862,"current_range_meters":37600,"station_id":"ce4bgv12rcd13ifvqcp0","pricing_plan_id":"cebpf4jnsgd1na2vs0mg"},{"bike_id":"bcd3d28a-ea65-4172-8f36-03236c255f65","system_id":"levelo_inurba_marseille","lat":43.30319,"lon":5.40441,"is_reserved":false,"is_disabled":false,"rental_uris":{"android":"levelo://app?vid=bcd3d28a-ea65-4172-8f36-03236c255f65","ios":"levelo://app?vid=bcd3d28a-ea65-4172-8f36-03236c255f65"},"vehicle_type_id":"4","last_reported":1727838862,"current_range_meters":38000,"station_id":"ce4bh012rcd13ifvqd10","pricing_plan_id":"cebpf4jnsgd1na2vs0mg"},{"bike_id":"a4224d16-b792-43d4-bccc-ee1385fa6dad","system_id":"levelo_inurba_marseille","lat":43.3255,"lon":5.41428,"is_reserved":false,"is_disabled":false,"rental_uris":{"android":"levelo://app?vid=a4224d16-b792-43d4-bccc-ee1385fa6dad","ios":"levelo://app?vid=a4224d16-b792-43d4-bccc-ee1385fa6dad"},"vehicle_type_id":"4","last_reported":1727838862,"current_range_meters":39200,"station_id":"ce4bhq12rcd13ifvqhhg","pricing_plan_id":"cebpf4jnsgd1na2vs0mg"},{"bike_id":"9ea65383-a0de-4a50-8614-6075feadc120","system_id":"levelo_inurba_marseille","lat":43.31332,"lon":5.39694,"is_reserved":false,"is_disabled":false,"rental_uris":{"android":"levelo://app?vid=9ea65383-a0de-4a50-8614-6075feadc120","ios":"levelo://app?vid=9ea65383-a0de-4a50-8614-6075feadc120"},"vehicle_type_id":"4","last_reported":1727838862,"current_range_meters":36400,"station_id":"ce4bgvp2rcd13ifvqcu0","pricing_plan_id":"cebpf4jnsgd1na2vs0mg"},{"bike_id":"5a3a7372-89db-462e-a21e-008482c7ec13","system_id":"levelo_inurba_marseille","lat":43.30881,"lon":5.39633,"is_reserved":false,"is_disabled":false,"rental_uris":{"android":"levelo://app?vid=5a3a7372-89db-462e-a21e-008482c7ec13","ios":"levelo://app?vid=5a3a7372-89db-462e-a21e-008482c7ec13"},"vehicle_type_id":"4","last_reported":1727838862,"current_range_meters":32800,"station_id":"ce4bh012rcd13ifvqcv0","pricing_plan_id":"cebpf4jnsgd1na2vs0mg"},{"bike_id":"202e0f5d-a2cc-4f86-93f0-5e300189a421","system_id":"levelo_inurba_marseille","lat":43.31231,"lon":5.36854,"is_reserved":false,"is_disabled":false,"rental_uris":{"android":"levelo://app?vid=202e0f5d-a2cc-4f86-93f0-5e300189a421","ios":"levelo://app?vid=202e0f5d-a2cc-4f86-93f0-5e300189a421"},"vehicle_type_id":"4","last_reported":1727838862,"current_range_meters":14400,"station_id":"ce4bgl92rcd13ifvqbq0","pricing_plan_id":"cebpf4jnsgd1na2vs0mg"},{"bike_id":"554d7a73-3b40-4dac-9894-f5eadfdc26ff","system_id":"levelo_inurba_marseille","lat":43.28156,"lon":5.42649,"is_reserved":false,"is_disabled":false,"rental_uris":{"android":"levelo://app?vid=554d7a73-3b40-4dac-9894-f5eadfdc26ff","ios":"levelo://app?vid=554d7a73-3b40-4dac-9894-f5eadfdc26ff"},"vehicle_type_id":"4","last_reported":1727838862,"current_range_meters":38800,"station_id":"ce4bhnh2rcd13ifvqgug","pricing_plan_id":"cebpf4jnsgd1na2vs0mg"},{"bike_id":"43c1e5a4-b8d0-43e7-82b5-8d7b9ca74bff","system_id":"levelo_inurba_marseille","lat":43.31368,"lon":5.38494,"is_reserved":false,"is_disabled":false,"rental_uris":{"android":"levelo://app?vid=43c1e5a4-b8d0-43e7-82b5-8d7b9ca74bff","ios":"levelo://app?vid=43c1e5a4-b8d0-43e7-82b5-8d7b9ca74bff"},"vehicle_type_id":"4","last_reported":1727838862,"current_range_meters":21600,"station_id":"ce4bgt92rcd13ifvqcf0","pricing_plan_id":"cebpf4jnsgd1na2vs0mg"},{"bike_id":"7e76f61d-1104-460b-895f-03b2abf7da39","system_id":"levelo_inurba_marseille","lat":43.24073,"lon":5.37751,"is_reserved":false,"is_disabled":false,"rental_uris":{"android":"levelo://app?vid=7e76f61d-1104-460b-895f-03b2abf7da39","ios":"levelo://app?vid=7e76f61d-1104-460b-895f-03b2abf7da39"},"vehicle_type_id":"4","last_reported":1727838862,"current_range_meters":14000,"station_id":"ce4bhnp2rcd13ifvqgvg","pricing_plan_id":"cebpf4jnsgd1na2vs0mg"},{"bike_id":"bc33db4a-e3c9-4718-b2b1-11c0fecddb09","system_id":"levelo_inurba_marseille","lat":43.30275,"lon":5.37703,"is_reserved":false,"is_disabled":false,"rental_uris":{"android":"levelo://app?vid=bc33db4a-e3c9-4718-b2b1-11c0fecddb09","ios":"levelo://app?vid=bc33db4a-e3c9-4718-b2b1-11c0fecddb09"},"vehicle_type_id":"4","last_reported":1727838862,"current_range_meters":38800,"station_id":"ce4bguh2rcd13ifvqcj0","pricing_plan_id":"cebpf4jnsgd1na2vs0mg"},{"bike_id":"7693a4da-fd29-4ad7-bf96-35b917c6b584","system_id":"levelo_inurba_marseille","lat":43.31681,"lon":5.4047,"is_reserved":false,"is_disabled":false,"rental_uris":{"android":"levelo://app?vid=7693a4da-fd29-4ad7-bf96-35b917c6b584","ios":"levelo://app?vid=7693a4da-fd29-4ad7-bf96-35b917c6b584"},"vehicle_type_id":"4","last_reported":1727838862,"current_range_meters":10800,"station_id":"ce4bh012rcd13ifvqd00","pricing_plan_id":"cebpf4jnsgd1na2vs0mg"},{"bike_id":"6a9f3fd4-6b9c-4ffe-93e8-b38b5c517806","system_id":"levelo_inurba_marseille","lat":43.30801,"lon":5.43526,"is_reserved":false,"is_disabled":false,"rental_uris":{"android":"levelo://app?vid=6a9f3fd4-6b9c-4ffe-93e8-b38b5c517806","ios":"levelo://app?vid=6a9f3fd4-6b9c-4ffe-93e8-b38b5c517806"},"vehicle_type_id":"4","last_reported":1727838862,"current_range_meters":36800,"station_id":"ce4bhph2rcd13ifvqheg","pricing_plan_id":"cebpf4jnsgd1na2vs0mg"},{"bike_id":"857a4f54-b09e-427f-89a4-f8ebb75f9e7f","system_id":"levelo_inurba_marseille","lat":43.30883,"lon":5.39634,"is_reserved":false,"is_disabled":false,"rental_uris":{"android":"levelo://app?vid=857a4f54-b09e-427f-89a4-f8ebb75f9e7f","ios":"levelo://app?vid=857a4f54-b09e-427f-89a4-f8ebb75f9e7f"},"vehicle_type_id":"4","last_reported":1727838862,"current_range_meters":36800,"station_id":"ce4bh012rcd13ifvqcv0","pricing_plan_id":"cebpf4jnsgd1na2vs0mg"},{"bike_id":"f2832095-e7fd-4b0a-9937-b9657b859693","system_id":"levelo_inurba_marseille","lat":43.26944,"lon":5.40247,"is_reserved":false,"is_disabled":false,"rental_uris":{"android":"levelo://app?vid=f2832095-e7fd-4b0a-9937-b9657b859693","ios":"levelo://app?vid=f2832095-e7fd-4b0a-9937-b9657b859693"},"vehicle_type_id":"4","last_reported":1727838862,"current_range_meters":38800,"station_id":"cjm6bp8fraef2m0cb0m0","pricing_plan_id":"cebpf4jnsgd1na2vs0mg"},{"bike_id":"c32d92b6-7ce5-4d09-bf38-7781f66ad1d1","system_id":"levelo_inurba_marseille","lat":43.25718,"lon":5.41115,"is_reserved":false,"is_disabled":false,"rental_uris":{"android":"levelo://app?vid=c32d92b6-7ce5-4d09-bf38-7781f66ad1d1","ios":"levelo://app?vid=c32d92b6-7ce5-4d09-bf38-7781f66ad1d1"},"vehicle_type_id":"4","last_reported":1727838862,"current_range_meters":6400,"station_id":"ce4bhkp2rcd13ifvqgd0","pricing_plan_id":"cebpf4jnsgd1na2vs0mg"},{"bike_id":"eb325a61-5344-4660-9c61-9a86c8fe669e","system_id":"levelo_inurba_marseille","lat":43.26938,"lon":5.40246,"is_reserved":false,"is_disabled":false,"rental_uris":{"android":"levelo://app?vid=eb325a61-5344-4660-9c61-9a86c8fe669e","ios":"levelo://app?vid=eb325a61-5344-4660-9c61-9a86c8fe669e"},"vehicle_type_id":"4","last_reported":1727838862,"current_range_meters":37600,"station_id":"cjm6bp8fraef2m0cb0m0","pricing_plan_id":"cebpf4jnsgd1na2vs0mg"},{"bike_id":"6ad5b8bd-ee48-4955-b149-8d107ba3399a","system_id":"levelo_inurba_marseille","lat":43.24964,"lon":5.3818,"is_reserved":false,"is_disabled":false,"rental_uris":{"android":"levelo://app?vid=6ad5b8bd-ee48-4955-b149-8d107ba3399a","ios":"levelo://app?vid=6ad5b8bd-ee48-4955-b149-8d107ba3399a"},"vehicle_type_id":"4","last_reported":1727838862,"current_range_meters":8400,"station_id":"","pricing_plan_id":"cebpf4jnsgd1na2vs0mg"},{"bike_id":"666b316a-aad0-4cd8-83c4-8e83e915d8a4","system_id":"levelo_inurba_marseille","lat":43.25078,"lon":5.3951,"is_reserved":false,"is_disabled":false,"rental_uris":{"android":"levelo://app?vid=666b316a-aad0-4cd8-83c4-8e83e915d8a4","ios":"levelo://app?vid=666b316a-aad0-4cd8-83c4-8e83e915d8a4"},"vehicle_type_id":"4","last_reported":1727838862,"current_range_meters":38000,"station_id":"ce4bhm12rcd13ifvqgkg","pricing_plan_id":"cebpf4jnsgd1na2vs0mg"},{"bike_id":"2028cdfd-a15b-43cc-980f-9ab89ecb686c","system_id":"levelo_inurba_marseille","lat":43.25861,"lon":5.39901,"is_reserved":false,"is_disabled":false,"rental_uris":{"android":"levelo://app?vid=2028cdfd-a15b-43cc-980f-9ab89ecb686c","ios":"levelo://app?vid=2028cdfd-a15b-43cc-980f-9ab89ecb686c"},"vehicle_type_id":"4","last_reported":1727838862,"current_range_meters":12800,"station_id":"ce4bhl92rcd13ifvqghg","pricing_plan_id":"cebpf4jnsgd1na2vs0mg"},{"bike_id":"259eaa39-41cd-49da-afdf-9b857b269a04","system_id":"levelo_inurba_marseille","lat":43.31058,"lon":5.38347,"is_reserved":false,"is_disabled":false,"rental_uris":{"android":"levelo://app?vid=259eaa39-41cd-49da-afdf-9b857b269a04","ios":"levelo://app?vid=259eaa39-41cd-49da-afdf-9b857b269a04"},"vehicle_type_id":"4","last_reported":1727838862,"current_range_meters":38800,"station_id":"ce4bgv92rcd13ifvqcr0","pricing_plan_id":"cebpf4jnsgd1na2vs0mg"},{"bike_id":"e24c17eb-50c5-4f74-8372-e38785c54118","system_id":"levelo_inurba_marseille","lat":43.33023,"lon":5.3904,"is_reserved":false,"is_disabled":false,"rental_uris":{"android":"levelo://app?vid=e24c17eb-50c5-4f74-8372-e38785c54118","ios":"levelo://app?vid=e24c17eb-50c5-4f74-8372-e38785c54118"},"vehicle_type_id":"4","last_reported":1727838862,"current_range_meters":38800,"station_id":"ce4bhr92rcd13ifvqhrg","pricing_plan_id":"cebpf4jnsgd1na2vs0mg"},{"bike_id":"d8aca88c-2b37-438e-a894-303d677e2f8e","system_id":"levelo_inurba_marseille","lat":43.30783,"lon":5.37658,"is_reserved":false,"is_disabled":false,"rental_uris":{"android":"levelo://app?vid=d8aca88c-2b37-438e-a894-303d677e2f8e","ios":"levelo://app?vid=d8aca88c-2b37-438e-a894-303d677e2f8e"},"vehicle_type_id":"4","last_reported":1727838862,"current_range_meters":8400,"station_id":"ce4bgv92rcd13ifvqcq0","pricing_plan_id":"cebpf4jnsgd1na2vs0mg"},{"bike_id":"e284f907-e21a-4916-8909-f7290542bb54","system_id":"levelo_inurba_marseille","lat":43.3059,"lon":5.39349,"is_reserved":false,"is_disabled":false,"rental_uris":{"android":"levelo://app?vid=e284f907-e21a-4916-8909-f7290542bb54","ios":"levelo://app?vid=e284f907-e21a-4916-8909-f7290542bb54"},"vehicle_type_id":"4","last_reported":1727838862,"current_range_meters":26800,"station_id":"ce4bh0p2rcd13ifvqd80","pricing_plan_id":"cebpf4jnsgd1na2vs0mg"},{"bike_id":"0a401d57-16fb-4ba3-95f5-660ee6285378","system_id":"levelo_inurba_marseille","lat":43.32342,"lon":5.40614,"is_reserved":false,"is_disabled":false,"rental_uris":{"android":"levelo://app?vid=0a401d57-16fb-4ba3-95f5-660ee6285378","ios":"levelo://app?vid=0a401d57-16fb-4ba3-95f5-660ee6285378"},"vehicle_type_id":"4","last_reported":1727838862,"current_range_meters":29600,"station_id":"","pricing_plan_id":"cebpf4jnsgd1na2vs0mg"},{"bike_id":"a31a3852-26ff-409c-be57-3000f29b863a","system_id":"levelo_inurba_marseille","lat":43.25124,"lon":5.40316,"is_reserved":false,"is_disabled":false,"rental_uris":{"android":"levelo://app?vid=a31a3852-26ff-409c-be57-3000f29b863a","ios":"levelo://app?vid=a31a3852-26ff-409c-be57-3000f29b863a"},"vehicle_type_id":"4","last_reported":1727838862,"current_range_meters":38400,"station_id":"ce4bhlh2rcd13ifvqgig","pricing_plan_id":"cebpf4jnsgd1na2vs0mg"},{"bike_id":"2ba4df84-6ac1-4c1e-aa3f-febc43438d20","system_id":"levelo_inurba_marseille","lat":43.28575,"lon":5.39502,"is_reserved":false,"is_disabled":false,"rental_uris":{"android":"levelo://app?vid=2ba4df84-6ac1-4c1e-aa3f-febc43438d20","ios":"levelo://app?vid=2ba4df84-6ac1-4c1e-aa3f-febc43438d20"},"vehicle_type_id":"4","last_reported":1727838862,"current_range_meters":38800,"station_id":"ce4bh292rcd13ifvqdg0","pricing_plan_id":"cebpf4jnsgd1na2vs0mg"},{"bike_id":"81750190-39ad-463e-969c-0a74da3c78de","system_id":"levelo_inurba_marseille","lat":43.29253,"lon":5.4091,"is_reserved":false,"is_disabled":false,"rental_uris":{"android":"levelo://app?vid=81750190-39ad-463e-969c-0a74da3c78de","ios":"levelo://app?vid=81750190-39ad-463e-969c-0a74da3c78de"},"vehicle_type_id":"4","last_reported":1727838862,"current_range_meters":38400,"station_id":"ce4bh192rcd13ifvqdc0","pricing_plan_id":"cebpf4jnsgd1na2vs0mg"},{"bike_id":"379e1fde-2ea5-4cfa-932b-ff0463f24ce6","system_id":"levelo_inurba_marseille","lat":43.29618,"lon":5.37721,"is_reserved":false,"is_disabled":false,"rental_uris":{"android":"levelo://app?vid=379e1fde-2ea5-4cfa-932b-ff0463f24ce6","ios":"levelo://app?vid=379e1fde-2ea5-4cfa-932b-ff0463f24ce6"},"vehicle_type_id":"4","last_reported":1727838862,"current_range_meters":30000,"station_id":"ce4bgi92rcd13ifvqb90","pricing_plan_id":"cebpf4jnsgd1na2vs0mg"},{"bike_id":"7d6ae683-bb41-4a80-98db-e23bf06032e9","system_id":"levelo_inurba_marseille","lat":43.27324,"lon":5.39089,"is_reserved":false,"is_disabled":false,"rental_uris":{"android":"levelo://app?vid=7d6ae683-bb41-4a80-98db-e23bf06032e9","ios":"levelo://app?vid=7d6ae683-bb41-4a80-98db-e23bf06032e9"},"vehicle_type_id":"4","last_reported":1727838862,"current_range_meters":8800,"station_id":"ce4bhgp2rcd13ifvqfe0","pricing_plan_id":"cebpf4jnsgd1na2vs0mg"},{"bike_id":"205cc5f6-52f3-4805-bfcd-4e372f6a7196","system_id":"levelo_inurba_marseille","lat":43.25089,"lon":5.39516,"is_reserved":false,"is_disabled":false,"rental_uris":{"android":"levelo://app?vid=205cc5f6-52f3-4805-bfcd-4e372f6a7196","ios":"levelo://app?vid=205cc5f6-52f3-4805-bfcd-4e372f6a7196"},"vehicle_type_id":"4","last_reported":1727838862,"current_range_meters":24800,"station_id":"ce4bhm12rcd13ifvqgkg","pricing_plan_id":"cebpf4jnsgd1na2vs0mg"},{"bike_id":"cc348d5e-b637-44b1-84a4-6c92ec751a0c","system_id":"levelo_inurba_marseille","lat":43.31168,"lon":5.38719,"is_reserved":false,"is_disabled":false,"rental_uris":{"android":"levelo://app?vid=cc348d5e-b637-44b1-84a4-6c92ec751a0c","ios":"levelo://app?vid=cc348d5e-b637-44b1-84a4-6c92ec751a0c"},"vehicle_type_id":"4","last_reported":1727838862,"current_range_meters":30400,"station_id":"ce4bgv12rcd13ifvqcp0","pricing_plan_id":"cebpf4jnsgd1na2vs0mg"},{"bike_id":"a04731c6-9dab-4d02-b2a0-f4602547326d","system_id":"levelo_inurba_marseille","lat":43.28451,"lon":5.3589,"is_reserved":false,"is_disabled":false,"rental_uris":{"android":"levelo://app?vid=a04731c6-9dab-4d02-b2a0-f4602547326d","ios":"levelo://app?vid=a04731c6-9dab-4d02-b2a0-f4602547326d"},"vehicle_type_id":"4","last_reported":1727838862,"current_range_meters":38800,"station_id":"ce4bhah2rcd13ifvqei0","pricing_plan_id":"cebpf4jnsgd1na2vs0mg"},{"bike_id":"1707d12d-dbcd-4cb6-93a5-2b328c9bed87","system_id":"levelo_inurba_marseille","lat":43.25865,"lon":5.39896,"is_reserved":false,"is_disabled":false,"rental_uris":{"android":"levelo://app?vid=1707d12d-dbcd-4cb6-93a5-2b328c9bed87","ios":"levelo://app?vid=1707d12d-dbcd-4cb6-93a5-2b328c9bed87"},"vehicle_type_id":"4","last_reported":1727838862,"current_range_meters":38800,"station_id":"ce4bhl92rcd13ifvqghg","pricing_plan_id":"cebpf4jnsgd1na2vs0mg"},{"bike_id":"b19d06a6-3ad5-4325-91a8-36e9658141ba","system_id":"levelo_inurba_marseille","lat":43.292818,"lon":5.401339,"is_reserved":false,"is_disabled":false,"rental_uris":{"android":"levelo://app?vid=b19d06a6-3ad5-4325-91a8-36e9658141ba","ios":"levelo://app?vid=b19d06a6-3ad5-4325-91a8-36e9658141ba"},"vehicle_type_id":"4","last_reported":1727838862,"current_range_meters":38800,"station_id":"ce4bh312rcd13ifvqdk0","pricing_plan_id":"cebpf4jnsgd1na2vs0mg"},{"bike_id":"6f145e4b-a2f1-447b-ae74-c4e533f7e679","system_id":"levelo_inurba_marseille","lat":43.32663,"lon":5.40994,"is_reserved":false,"is_disabled":false,"rental_uris":{"android":"levelo://app?vid=6f145e4b-a2f1-447b-ae74-c4e533f7e679","ios":"levelo://app?vid=6f145e4b-a2f1-447b-ae74-c4e533f7e679"},"vehicle_type_id":"4","last_reported":1727838862,"current_range_meters":38400,"station_id":"ce4bhpp2rcd13ifvqhgg","pricing_plan_id":"cebpf4jnsgd1na2vs0mg"},{"bike_id":"8884666a-6177-4a7b-b0cb-8adad2eb0450","system_id":"levelo_inurba_marseille","lat":43.30606,"lon":5.37224,"is_reserved":false,"is_disabled":false,"rental_uris":{"android":"levelo://app?vid=8884666a-6177-4a7b-b0cb-8adad2eb0450","ios":"levelo://app?vid=8884666a-6177-4a7b-b0cb-8adad2eb0450"},"vehicle_type_id":"4","last_reported":1727838862,"current_range_meters":39200,"station_id":"ce4bgqh2rcd13ifvqc4g","pricing_plan_id":"cebpf4jnsgd1na2vs0mg"},{"bike_id":"ce7fbd85-3674-49ab-af79-52cc945fe35d","system_id":"levelo_inurba_marseille","lat":43.30772,"lon":5.37651,"is_reserved":false,"is_disabled":false,"rental_uris":{"android":"levelo://app?vid=ce7fbd85-3674-49ab-af79-52cc945fe35d","ios":"levelo://app?vid=ce7fbd85-3674-49ab-af79-52cc945fe35d"},"vehicle_type_id":"4","last_reported":1727838862,"current_range_meters":26000,"station_id":"ce4bgv92rcd13ifvqcq0","pricing_plan_id":"cebpf4jnsgd1na2vs0mg"},{"bike_id":"bcf1f236-ab9a-4337-83f1-ee59277cb654","system_id":"levelo_inurba_marseille","lat":43.29257,"lon":5.40908,"is_reserved":false,"is_disabled":false,"rental_uris":{"android":"levelo://app?vid=bcf1f236-ab9a-4337-83f1-ee59277cb654","ios":"levelo://app?vid=bcf1f236-ab9a-4337-83f1-ee59277cb654"},"vehicle_type_id":"4","last_reported":1727838862,"current_range_meters":23200,"station_id":"ce4bh192rcd13ifvqdc0","pricing_plan_id":"cebpf4jnsgd1na2vs0mg"},{"bike_id":"55ab17f1-7827-4fda-89fe-60d616ba6069","system_id":"levelo_inurba_marseille","lat":43.29799,"lon":5.38102,"is_reserved":false,"is_disabled":false,"rental_uris":{"android":"levelo://app?vid=55ab17f1-7827-4fda-89fe-60d616ba6069","ios":"levelo://app?vid=55ab17f1-7827-4fda-89fe-60d616ba6069"},"vehicle_type_id":"4","last_reported":1727838862,"current_range_meters":39200,"station_id":"ce4bgip2rcd13ifvqbb0","pricing_plan_id":"cebpf4jnsgd1na2vs0mg"},{"bike_id":"196d312b-4c3a-4864-9b4b-d156fba48afb","system_id":"levelo_inurba_marseille","lat":43.29879,"lon":5.39739,"is_reserved":false,"is_disabled":false,"rental_uris":{"android":"levelo://app?vid=196d312b-4c3a-4864-9b4b-d156fba48afb","ios":"levelo://app?vid=196d312b-4c3a-4864-9b4b-d156fba48afb"},"vehicle_type_id":"4","last_reported":1727838862,"current_range_meters":39200,"station_id":"ce4bh0h2rcd13ifvqd50","pricing_plan_id":"cebpf4jnsgd1na2vs0mg"},{"bike_id":"df780b36-1bd7-4ee0-a23e-812efc385c51","system_id":"levelo_inurba_marseille","lat":43.28414,"lon":5.3752,"is_reserved":false,"is_disabled":false,"rental_uris":{"android":"levelo://app?vid=df780b36-1bd7-4ee0-a23e-812efc385c51","ios":"levelo://app?vid=df780b36-1bd7-4ee0-a23e-812efc385c51"},"vehicle_type_id":"4","last_reported":1727838862,"current_range_meters":38800,"station_id":"ce4bh412rcd13ifvqds0","pricing_plan_id":"cebpf4jnsgd1na2vs0mg"},{"bike_id":"c3bd477f-1cfd-4699-95b7-bd853a8e55cb","system_id":"levelo_inurba_marseille","lat":43.31331,"lon":5.39697,"is_reserved":false,"is_disabled":false,"rental_uris":{"android":"levelo://app?vid=c3bd477f-1cfd-4699-95b7-bd853a8e55cb","ios":"levelo://app?vid=c3bd477f-1cfd-4699-95b7-bd853a8e55cb"},"vehicle_type_id":"4","last_reported":1727838862,"current_range_meters":38800,"station_id":"ce4bgvp2rcd13ifvqcu0","pricing_plan_id":"cebpf4jnsgd1na2vs0mg"},{"bike_id":"d9935980-1a1e-417b-9dde-bc0953e2ec18","system_id":"levelo_inurba_marseille","lat":43.26206,"lon":5.3792,"is_reserved":false,"is_disabled":false,"rental_uris":{"android":"levelo://app?vid=d9935980-1a1e-417b-9dde-bc0953e2ec18","ios":"levelo://app?vid=d9935980-1a1e-417b-9dde-bc0953e2ec18"},"vehicle_type_id":"4","last_reported":1727838862,"current_range_meters":37600,"station_id":"ce4bhjp2rcd13ifvqg90","pricing_plan_id":"cebpf4jnsgd1na2vs0mg"},{"bike_id":"7421063a-800a-48c3-92f9-01b2315d5e97","system_id":"levelo_inurba_marseille","lat":43.30463,"lon":5.37905,"is_reserved":false,"is_disabled":false,"rental_uris":{"android":"levelo://app?vid=7421063a-800a-48c3-92f9-01b2315d5e97","ios":"levelo://app?vid=7421063a-800a-48c3-92f9-01b2315d5e97"},"vehicle_type_id":"4","last_reported":1727838862,"current_range_meters":38800,"station_id":"ce4bgup2rcd13ifvqcn0","pricing_plan_id":"cebpf4jnsgd1na2vs0mg"},{"bike_id":"e61b0e2b-f600-47ed-a252-8caf712f924c","system_id":"levelo_inurba_marseille","lat":43.24552,"lon":5.39522,"is_reserved":false,"is_disabled":false,"rental_uris":{"android":"levelo://app?vid=e61b0e2b-f600-47ed-a252-8caf712f924c","ios":"levelo://app?vid=e61b0e2b-f600-47ed-a252-8caf712f924c"},"vehicle_type_id":"4","last_reported":1727838862,"current_range_meters":38800,"station_id":"ce4bhlp2rcd13ifvqgjg","pricing_plan_id":"cebpf4jnsgd1na2vs0mg"},{"bike_id":"0be4e430-5d51-46df-9aaa-18ad86f0ea1a","system_id":"levelo_inurba_marseille","lat":43.27367,"lon":5.36255,"is_reserved":false,"is_disabled":false,"rental_uris":{"android":"levelo://app?vid=0be4e430-5d51-46df-9aaa-18ad86f0ea1a","ios":"levelo://app?vid=0be4e430-5d51-46df-9aaa-18ad86f0ea1a"},"vehicle_type_id":"4","last_reported":1727838862,"current_range_meters":4400,"station_id":"ce4bhbh2rcd13ifvqeo0","pricing_plan_id":"cebpf4jnsgd1na2vs0mg"},{"bike_id":"9cd128bb-3a64-4bb5-8c11-3fd33409958b","system_id":"levelo_inurba_marseille","lat":43.23151,"lon":5.43709,"is_reserved":false,"is_disabled":false,"rental_uris":{"android":"levelo://app?vid=9cd128bb-3a64-4bb5-8c11-3fd33409958b","ios":"levelo://app?vid=9cd128bb-3a64-4bb5-8c11-3fd33409958b"},"vehicle_type_id":"4","last_reported":1727838862,"current_range_meters":24800,"station_id":"ce4bhmp2rcd13ifvqgog","pricing_plan_id":"cebpf4jnsgd1na2vs0mg"},{"bike_id":"736bcb89-3fa5-4423-83ab-c46b1faa6d18","system_id":"levelo_inurba_marseille","lat":43.34497,"lon":5.41642,"is_reserved":false,"is_disabled":false,"rental_uris":{"android":"levelo://app?vid=736bcb89-3fa5-4423-83ab-c46b1faa6d18","ios":"levelo://app?vid=736bcb89-3fa5-4423-83ab-c46b1faa6d18"},"vehicle_type_id":"4","last_reported":1727838862,"current_range_meters":7200,"station_id":"","pricing_plan_id":"cebpf4jnsgd1na2vs0mg"},{"bike_id":"c87cbcf6-5323-4613-b4d0-9266fc83505c","system_id":"levelo_inurba_marseille","lat":43.278094,"lon":5.407258,"is_reserved":false,"is_disabled":false,"rental_uris":{"android":"levelo://app?vid=c87cbcf6-5323-4613-b4d0-9266fc83505c","ios":"levelo://app?vid=c87cbcf6-5323-4613-b4d0-9266fc83505c"},"vehicle_type_id":"4","last_reported":1727838862,"current_range_meters":18000,"station_id":"ce4bhnh2rcd13ifvqgtg","pricing_plan_id":"cebpf4jnsgd1na2vs0mg"},{"bike_id":"a2b2e7ec-9291-4e2e-99f8-400018f4dc70","system_id":"levelo_inurba_marseille","lat":43.30534,"lon":5.36709,"is_reserved":false,"is_disabled":false,"rental_uris":{"android":"levelo://app?vid=a2b2e7ec-9291-4e2e-99f8-400018f4dc70","ios":"levelo://app?vid=a2b2e7ec-9291-4e2e-99f8-400018f4dc70"},"vehicle_type_id":"4","last_reported":1727838862,"current_range_meters":37600,"station_id":"ce4bgrp2rcd13ifvqc9g","pricing_plan_id":"cebpf4jnsgd1na2vs0mg"},{"bike_id":"693b0b71-bb67-4134-8574-576dffda85de","system_id":"levelo_inurba_marseille","lat":43.25089,"lon":5.39513,"is_reserved":false,"is_disabled":false,"rental_uris":{"android":"levelo://app?vid=693b0b71-bb67-4134-8574-576dffda85de","ios":"levelo://app?vid=693b0b71-bb67-4134-8574-576dffda85de"},"vehicle_type_id":"4","last_reported":1727838862,"current_range_meters":38800,"station_id":"ce4bhm12rcd13ifvqgkg","pricing_plan_id":"cebpf4jnsgd1na2vs0mg"},{"bike_id":"29b32010-3be1-4e38-ab1f-d6426365567b","system_id":"levelo_inurba_marseille","lat":43.24666,"lon":5.3816,"is_reserved":false,"is_disabled":false,"rental_uris":{"android":"levelo://app?vid=29b32010-3be1-4e38-ab1f-d6426365567b","ios":"levelo://app?vid=29b32010-3be1-4e38-ab1f-d6426365567b"},"vehicle_type_id":"4","last_reported":1727838862,"current_range_meters":32000,"station_id":"ce4bhih2rcd13ifvqfr0","pricing_plan_id":"cebpf4jnsgd1na2vs0mg"},{"bike_id":"31c52ff2-385e-41af-8c71-ea216383821b","system_id":"levelo_inurba_marseille","lat":43.29568,"lon":5.39984,"is_reserved":false,"is_disabled":false,"rental_uris":{"android":"levelo://app?vid=31c52ff2-385e-41af-8c71-ea216383821b","ios":"levelo://app?vid=31c52ff2-385e-41af-8c71-ea216383821b"},"vehicle_type_id":"4","last_reported":1727838862,"current_range_meters":38800,"station_id":"ce4bh312rcd13ifvqdj0","pricing_plan_id":"cebpf4jnsgd1na2vs0mg"},{"bike_id":"2cb0e818-0cd7-4b14-b3e2-a4fe86b5667b","system_id":"levelo_inurba_marseille","lat":43.27922,"lon":5.39583,"is_reserved":false,"is_disabled":false,"rental_uris":{"android":"levelo://app?vid=2cb0e818-0cd7-4b14-b3e2-a4fe86b5667b","ios":"levelo://app?vid=2cb0e818-0cd7-4b14-b3e2-a4fe86b5667b"},"vehicle_type_id":"4","last_reported":1727838862,"current_range_meters":36800,"station_id":"ce4bhf92rcd13ifvqf40","pricing_plan_id":"cebpf4jnsgd1na2vs0mg"},{"bike_id":"b02ce4ff-39f7-4817-a21b-8246f8c8e6c1","system_id":"levelo_inurba_marseille","lat":43.31119,"lon":5.377649,"is_reserved":false,"is_disabled":false,"rental_uris":{"android":"levelo://app?vid=b02ce4ff-39f7-4817-a21b-8246f8c8e6c1","ios":"levelo://app?vid=b02ce4ff-39f7-4817-a21b-8246f8c8e6c1"},"vehicle_type_id":"4","last_reported":1727838862,"current_range_meters":38800,"station_id":"ce4bgt92rcd13ifvqcg0","pricing_plan_id":"cebpf4jnsgd1na2vs0mg"},{"bike_id":"8e0ee0d6-72fa-4006-90aa-68211f78ca72","system_id":"levelo_inurba_marseille","lat":43.27806,"lon":5.40711,"is_reserved":false,"is_disabled":false,"rental_uris":{"android":"levelo://app?vid=8e0ee0d6-72fa-4006-90aa-68211f78ca72","ios":"levelo://app?vid=8e0ee0d6-72fa-4006-90aa-68211f78ca72"},"vehicle_type_id":"4","last_reported":1727838862,"current_range_meters":38800,"station_id":"ce4bhnh2rcd13ifvqgtg","pricing_plan_id":"cebpf4jnsgd1na2vs0mg"},{"bike_id":"609844d3-402e-4c83-8b7f-d2093120cb67","system_id":"levelo_inurba_marseille","lat":43.32537,"lon":5.41455,"is_reserved":false,"is_disabled":false,"rental_uris":{"android":"levelo://app?vid=609844d3-402e-4c83-8b7f-d2093120cb67","ios":"levelo://app?vid=609844d3-402e-4c83-8b7f-d2093120cb67"},"vehicle_type_id":"4","last_reported":1727838862,"current_range_meters":36800,"station_id":"ce4bhq12rcd13ifvqhhg","pricing_plan_id":"cebpf4jnsgd1na2vs0mg"},{"bike_id":"6ee6d8bf-d19a-443d-a462-4df4ba42ccf2","system_id":"levelo_inurba_marseille","lat":43.25733,"lon":5.41107,"is_reserved":false,"is_disabled":false,"rental_uris":{"android":"levelo://app?vid=6ee6d8bf-d19a-443d-a462-4df4ba42ccf2","ios":"levelo://app?vid=6ee6d8bf-d19a-443d-a462-4df4ba42ccf2"},"vehicle_type_id":"4","last_reported":1727838862,"current_range_meters":38800,"station_id":"ce4bhkp2rcd13ifvqgd0","pricing_plan_id":"cebpf4jnsgd1na2vs0mg"},{"bike_id":"649b0ebd-72c1-4ccb-bdb5-0127394604e7","system_id":"levelo_inurba_marseille","lat":43.33612,"lon":5.41021,"is_reserved":false,"is_disabled":false,"rental_uris":{"android":"levelo://app?vid=649b0ebd-72c1-4ccb-bdb5-0127394604e7","ios":"levelo://app?vid=649b0ebd-72c1-4ccb-bdb5-0127394604e7"},"vehicle_type_id":"4","last_reported":1727838862,"current_range_meters":38800,"station_id":"ce4bhqh2rcd13ifvqhmg","pricing_plan_id":"cebpf4jnsgd1na2vs0mg"},{"bike_id":"342d6839-168e-4c4b-9389-b1f4214b5099","system_id":"levelo_inurba_marseille","lat":43.28704,"lon":5.39982,"is_reserved":false,"is_disabled":false,"rental_uris":{"android":"levelo://app?vid=342d6839-168e-4c4b-9389-b1f4214b5099","ios":"levelo://app?vid=342d6839-168e-4c4b-9389-b1f4214b5099"},"vehicle_type_id":"4","last_reported":1727838862,"current_range_meters":38800,"station_id":"ce4bho92rcd13ifvqh3g","pricing_plan_id":"cebpf4jnsgd1na2vs0mg"},{"bike_id":"3bcc095d-700a-4eb9-9793-f2e50d9b626e","system_id":"levelo_inurba_marseille","lat":43.29554,"lon":5.42278,"is_reserved":false,"is_disabled":false,"rental_uris":{"android":"levelo://app?vid=3bcc095d-700a-4eb9-9793-f2e50d9b626e","ios":"levelo://app?vid=3bcc095d-700a-4eb9-9793-f2e50d9b626e"},"vehicle_type_id":"4","last_reported":1727838862,"current_range_meters":37600,"station_id":"ce4bhph2rcd13ifvqhdg","pricing_plan_id":"cebpf4jnsgd1na2vs0mg"},{"bike_id":"9e6f82c5-7edd-4d61-8fe9-86f829a7226e","system_id":"levelo_inurba_marseille","lat":43.2315,"lon":5.43722,"is_reserved":false,"is_disabled":false,"rental_uris":{"android":"levelo://app?vid=9e6f82c5-7edd-4d61-8fe9-86f829a7226e","ios":"levelo://app?vid=9e6f82c5-7edd-4d61-8fe9-86f829a7226e"},"vehicle_type_id":"4","last_reported":1727838862,"current_range_meters":14000,"station_id":"ce4bhmp2rcd13ifvqgog","pricing_plan_id":"cebpf4jnsgd1na2vs0mg"},{"bike_id":"3997dd27-fc07-42d9-8b50-a60e20400007","system_id":"levelo_inurba_marseille","lat":43.27991,"lon":5.41658,"is_reserved":false,"is_disabled":false,"rental_uris":{"android":"levelo://app?vid=3997dd27-fc07-42d9-8b50-a60e20400007","ios":"levelo://app?vid=3997dd27-fc07-42d9-8b50-a60e20400007"},"vehicle_type_id":"4","last_reported":1727838862,"current_range_meters":38800,"station_id":"ce4bho12rcd13ifvqh1g","pricing_plan_id":"cebpf4jnsgd1na2vs0mg"},{"bike_id":"2efe889c-d7f9-441d-afae-d38011cb4d35","system_id":"levelo_inurba_marseille","lat":43.28453,"lon":5.35892,"is_reserved":false,"is_disabled":false,"rental_uris":{"android":"levelo://app?vid=2efe889c-d7f9-441d-afae-d38011cb4d35","ios":"levelo://app?vid=2efe889c-d7f9-441d-afae-d38011cb4d35"},"vehicle_type_id":"4","last_reported":1727838862,"current_range_meters":38800,"station_id":"ce4bhah2rcd13ifvqei0","pricing_plan_id":"cebpf4jnsgd1na2vs0mg"},{"bike_id":"05fea5b6-168c-4aec-ae13-ba3e0d274323","system_id":"levelo_inurba_marseille","lat":43.24174,"lon":5.3973,"is_reserved":false,"is_disabled":false,"rental_uris":{"android":"levelo://app?vid=05fea5b6-168c-4aec-ae13-ba3e0d274323","ios":"levelo://app?vid=05fea5b6-168c-4aec-ae13-ba3e0d274323"},"vehicle_type_id":"4","last_reported":1727838862,"current_range_meters":20000,"station_id":"ce4bhn12rcd13ifvqgpg","pricing_plan_id":"cebpf4jnsgd1na2vs0mg"},{"bike_id":"d633adbf-c648-466b-8c2c-9563678ba4d6","system_id":"levelo_inurba_marseille","lat":43.31502,"lon":5.37297,"is_reserved":false,"is_disabled":false,"rental_uris":{"android":"levelo://app?vid=d633adbf-c648-466b-8c2c-9563678ba4d6","ios":"levelo://app?vid=d633adbf-c648-466b-8c2c-9563678ba4d6"},"vehicle_type_id":"4","last_reported":1727838862,"current_range_meters":13600,"station_id":"ce4bgt12rcd13ifvqcd0","pricing_plan_id":"cebpf4jnsgd1na2vs0mg"},{"bike_id":"aae9a778-56fb-41da-990d-16fb4770a5a3","system_id":"levelo_inurba_marseille","lat":43.25581,"lon":5.38241,"is_reserved":false,"is_disabled":false,"rental_uris":{"android":"levelo://app?vid=aae9a778-56fb-41da-990d-16fb4770a5a3","ios":"levelo://app?vid=aae9a778-56fb-41da-990d-16fb4770a5a3"},"vehicle_type_id":"4","last_reported":1727838862,"current_range_meters":38800,"station_id":"ce4bhih2rcd13ifvqfs0","pricing_plan_id":"cebpf4jnsgd1na2vs0mg"},{"bike_id":"f100f1c6-e414-4301-b6a6-af0c61961ad7","system_id":"levelo_inurba_marseille","lat":43.30244,"lon":5.40069,"is_reserved":false,"is_disabled":false,"rental_uris":{"android":"levelo://app?vid=f100f1c6-e414-4301-b6a6-af0c61961ad7","ios":"levelo://app?vid=f100f1c6-e414-4301-b6a6-af0c61961ad7"},"vehicle_type_id":"4","last_reported":1727838862,"current_range_meters":38800,"station_id":"ce4bgvh2rcd13ifvqcs0","pricing_plan_id":"cebpf4jnsgd1na2vs0mg"},{"bike_id":"cc4d67ad-30d6-4ec4-9225-0aea9258758d","system_id":"levelo_inurba_marseille","lat":43.2919,"lon":5.35808,"is_reserved":false,"is_disabled":false,"rental_uris":{"android":"levelo://app?vid=cc4d67ad-30d6-4ec4-9225-0aea9258758d","ios":"levelo://app?vid=cc4d67ad-30d6-4ec4-9225-0aea9258758d"},"vehicle_type_id":"4","last_reported":1727838862,"current_range_meters":38800,"station_id":"ce4bhb12rcd13ifvqel0","pricing_plan_id":"cebpf4jnsgd1na2vs0mg"},{"bike_id":"c0930808-f56f-44c0-832d-f564381e4521","system_id":"levelo_inurba_marseille","lat":43.2781,"lon":5.40715,"is_reserved":false,"is_disabled":false,"rental_uris":{"android":"levelo://app?vid=c0930808-f56f-44c0-832d-f564381e4521","ios":"levelo://app?vid=c0930808-f56f-44c0-832d-f564381e4521"},"vehicle_type_id":"4","last_reported":1727838862,"current_range_meters":38400,"station_id":"ce4bhnh2rcd13ifvqgtg","pricing_plan_id":"cebpf4jnsgd1na2vs0mg"},{"bike_id":"8e160c7f-3a0b-4d22-9d6b-fd33004f5e98","system_id":"levelo_inurba_marseille","lat":43.241798,"lon":5.397332,"is_reserved":false,"is_disabled":false,"rental_uris":{"android":"levelo://app?vid=8e160c7f-3a0b-4d22-9d6b-fd33004f5e98","ios":"levelo://app?vid=8e160c7f-3a0b-4d22-9d6b-fd33004f5e98"},"vehicle_type_id":"4","last_reported":1727838862,"current_range_meters":39200,"station_id":"ce4bhn12rcd13ifvqgpg","pricing_plan_id":"cebpf4jnsgd1na2vs0mg"},{"bike_id":"6c05f302-12d0-4100-b4f1-ff2bc6f80530","system_id":"levelo_inurba_marseille","lat":43.306,"lon":5.37212,"is_reserved":false,"is_disabled":false,"rental_uris":{"android":"levelo://app?vid=6c05f302-12d0-4100-b4f1-ff2bc6f80530","ios":"levelo://app?vid=6c05f302-12d0-4100-b4f1-ff2bc6f80530"},"vehicle_type_id":"4","last_reported":1727838862,"current_range_meters":38400,"station_id":"ce4bgqh2rcd13ifvqc4g","pricing_plan_id":"cebpf4jnsgd1na2vs0mg"},{"bike_id":"8087968d-3566-4acc-85fc-5c9fccf3ef88","system_id":"levelo_inurba_marseille","lat":43.27563,"lon":5.38413,"is_reserved":false,"is_disabled":false,"rental_uris":{"android":"levelo://app?vid=8087968d-3566-4acc-85fc-5c9fccf3ef88","ios":"levelo://app?vid=8087968d-3566-4acc-85fc-5c9fccf3ef88"},"vehicle_type_id":"4","last_reported":1727838862,"current_range_meters":37600,"station_id":"ce4bhh92rcd13ifvqfi0","pricing_plan_id":"cebpf4jnsgd1na2vs0mg"},{"bike_id":"de1e7b09-ca4b-4b48-a3fd-23a534e7333f","system_id":"levelo_inurba_marseille","lat":43.31763,"lon":5.39018,"is_reserved":false,"is_disabled":false,"rental_uris":{"android":"levelo://app?vid=de1e7b09-ca4b-4b48-a3fd-23a534e7333f","ios":"levelo://app?vid=de1e7b09-ca4b-4b48-a3fd-23a534e7333f"},"vehicle_type_id":"4","last_reported":1727838862,"current_range_meters":38800,"station_id":"ce4bhqp2rcd13ifvqhng","pricing_plan_id":"cebpf4jnsgd1na2vs0mg"},{"bike_id":"a08b55d1-990c-49c0-a032-812e748d0383","system_id":"levelo_inurba_marseille","lat":43.281,"lon":5.37846,"is_reserved":false,"is_disabled":false,"rental_uris":{"android":"levelo://app?vid=a08b55d1-990c-49c0-a032-812e748d0383","ios":"levelo://app?vid=a08b55d1-990c-49c0-a032-812e748d0383"},"vehicle_type_id":"4","last_reported":1727838862,"current_range_meters":38800,"station_id":"ce4bha12rcd13ifvqee0","pricing_plan_id":"cebpf4jnsgd1na2vs0mg"},{"bike_id":"43f4205d-320b-41db-91a2-d22651866ea2","system_id":"levelo_inurba_marseille","lat":43.30414,"lon":5.41295,"is_reserved":false,"is_disabled":false,"rental_uris":{"android":"levelo://app?vid=43f4205d-320b-41db-91a2-d22651866ea2","ios":"levelo://app?vid=43f4205d-320b-41db-91a2-d22651866ea2"},"vehicle_type_id":"4","last_reported":1727838862,"current_range_meters":4800,"station_id":"ce4bhop2rcd13ifvqh8g","pricing_plan_id":"cebpf4jnsgd1na2vs0mg"},{"bike_id":"db254dac-45f5-4132-9ca6-b0673a65c2b8","system_id":"levelo_inurba_marseille","lat":43.2649,"lon":5.39538,"is_reserved":false,"is_disabled":false,"rental_uris":{"android":"levelo://app?vid=db254dac-45f5-4132-9ca6-b0673a65c2b8","ios":"levelo://app?vid=db254dac-45f5-4132-9ca6-b0673a65c2b8"},"vehicle_type_id":"4","last_reported":1727838862,"current_range_meters":37600,"station_id":"ce4bhi12rcd13ifvqfq0","pricing_plan_id":"cebpf4jnsgd1na2vs0mg"},{"bike_id":"e954c728-b727-4cf6-a939-5b998b391c1e","system_id":"levelo_inurba_marseille","lat":43.24079,"lon":5.37749,"is_reserved":false,"is_disabled":false,"rental_uris":{"android":"levelo://app?vid=e954c728-b727-4cf6-a939-5b998b391c1e","ios":"levelo://app?vid=e954c728-b727-4cf6-a939-5b998b391c1e"},"vehicle_type_id":"4","last_reported":1727838862,"current_range_meters":38800,"station_id":"ce4bhnp2rcd13ifvqgvg","pricing_plan_id":"cebpf4jnsgd1na2vs0mg"},{"bike_id":"d4ee366f-491d-4484-8ef6-3ee33462286b","system_id":"levelo_inurba_marseille","lat":43.31688,"lon":5.40466,"is_reserved":false,"is_disabled":false,"rental_uris":{"android":"levelo://app?vid=d4ee366f-491d-4484-8ef6-3ee33462286b","ios":"levelo://app?vid=d4ee366f-491d-4484-8ef6-3ee33462286b"},"vehicle_type_id":"4","last_reported":1727838862,"current_range_meters":8800,"station_id":"","pricing_plan_id":"cebpf4jnsgd1na2vs0mg"},{"bike_id":"62f75944-ee95-45e1-971d-bf57d5768e91","system_id":"levelo_inurba_marseille","lat":43.30178,"lon":5.36611,"is_reserved":false,"is_disabled":false,"rental_uris":{"android":"levelo://app?vid=62f75944-ee95-45e1-971d-bf57d5768e91","ios":"levelo://app?vid=62f75944-ee95-45e1-971d-bf57d5768e91"},"vehicle_type_id":"4","last_reported":1727838862,"current_range_meters":37600,"station_id":"ce4bgrh2rcd13ifvqc8g","pricing_plan_id":"cebpf4jnsgd1na2vs0mg"},{"bike_id":"d74fb2ef-f814-4ca8-94df-c647e77cc523","system_id":"levelo_inurba_marseille","lat":43.28151,"lon":5.42647,"is_reserved":false,"is_disabled":false,"rental_uris":{"android":"levelo://app?vid=d74fb2ef-f814-4ca8-94df-c647e77cc523","ios":"levelo://app?vid=d74fb2ef-f814-4ca8-94df-c647e77cc523"},"vehicle_type_id":"4","last_reported":1727838862,"current_range_meters":38800,"station_id":"ce4bhnh2rcd13ifvqgug","pricing_plan_id":"cebpf4jnsgd1na2vs0mg"},{"bike_id":"82b586dc-ead9-4346-b49e-f11e0264c56b","system_id":"levelo_inurba_marseille","lat":43.27923,"lon":5.39584,"is_reserved":false,"is_disabled":false,"rental_uris":{"android":"levelo://app?vid=82b586dc-ead9-4346-b49e-f11e0264c56b","ios":"levelo://app?vid=82b586dc-ead9-4346-b49e-f11e0264c56b"},"vehicle_type_id":"4","last_reported":1727838862,"current_range_meters":22000,"station_id":"ce4bhf92rcd13ifvqf40","pricing_plan_id":"cebpf4jnsgd1na2vs0mg"},{"bike_id":"2ae79f09-d280-47e8-864e-c5ffdd4f6c88","system_id":"levelo_inurba_marseille","lat":43.28564,"lon":5.39501,"is_reserved":false,"is_disabled":false,"rental_uris":{"android":"levelo://app?vid=2ae79f09-d280-47e8-864e-c5ffdd4f6c88","ios":"levelo://app?vid=2ae79f09-d280-47e8-864e-c5ffdd4f6c88"},"vehicle_type_id":"4","last_reported":1727838862,"current_range_meters":24400,"station_id":"ce4bh292rcd13ifvqdg0","pricing_plan_id":"cebpf4jnsgd1na2vs0mg"},{"bike_id":"98796747-ed9b-4562-a96c-8ab785ac535f","system_id":"levelo_inurba_marseille","lat":43.31066,"lon":5.38346,"is_reserved":false,"is_disabled":false,"rental_uris":{"android":"levelo://app?vid=98796747-ed9b-4562-a96c-8ab785ac535f","ios":"levelo://app?vid=98796747-ed9b-4562-a96c-8ab785ac535f"},"vehicle_type_id":"4","last_reported":1727838862,"current_range_meters":26800,"station_id":"ce4bgv92rcd13ifvqcr0","pricing_plan_id":"cebpf4jnsgd1na2vs0mg"},{"bike_id":"1ef5589b-3f77-4b59-93f4-be8b2b45d9ef","system_id":"levelo_inurba_marseille","lat":43.26941,"lon":5.40254,"is_reserved":false,"is_disabled":false,"rental_uris":{"android":"levelo://app?vid=1ef5589b-3f77-4b59-93f4-be8b2b45d9ef","ios":"levelo://app?vid=1ef5589b-3f77-4b59-93f4-be8b2b45d9ef"},"vehicle_type_id":"4","last_reported":1727838862,"current_range_meters":10800,"station_id":"cjm6bp8fraef2m0cb0m0","pricing_plan_id":"cebpf4jnsgd1na2vs0mg"},{"bike_id":"52f96dfb-9ddf-4085-ac6a-650cf2c85d4b","system_id":"levelo_inurba_marseille","lat":43.25124,"lon":5.4032,"is_reserved":false,"is_disabled":false,"rental_uris":{"android":"levelo://app?vid=52f96dfb-9ddf-4085-ac6a-650cf2c85d4b","ios":"levelo://app?vid=52f96dfb-9ddf-4085-ac6a-650cf2c85d4b"},"vehicle_type_id":"4","last_reported":1727838862,"current_range_meters":36800,"station_id":"ce4bhlh2rcd13ifvqgig","pricing_plan_id":"cebpf4jnsgd1na2vs0mg"},{"bike_id":"e39cd6f1-548c-400d-9f96-bf8b0c294a2d","system_id":"levelo_inurba_marseille","lat":43.24076,"lon":5.37741,"is_reserved":false,"is_disabled":false,"rental_uris":{"android":"levelo://app?vid=e39cd6f1-548c-400d-9f96-bf8b0c294a2d","ios":"levelo://app?vid=e39cd6f1-548c-400d-9f96-bf8b0c294a2d"},"vehicle_type_id":"4","last_reported":1727838862,"current_range_meters":9600,"station_id":"ce4bhnp2rcd13ifvqgvg","pricing_plan_id":"cebpf4jnsgd1na2vs0mg"},{"bike_id":"fdea5bfa-15eb-4746-9162-46b5986608e3","system_id":"levelo_inurba_marseille","lat":43.27939,"lon":5.41047,"is_reserved":false,"is_disabled":false,"rental_uris":{"android":"levelo://app?vid=fdea5bfa-15eb-4746-9162-46b5986608e3","ios":"levelo://app?vid=fdea5bfa-15eb-4746-9162-46b5986608e3"},"vehicle_type_id":"4","last_reported":1727838862,"current_range_meters":37600,"station_id":"ce4bhnp2rcd13ifvqh0g","pricing_plan_id":"cebpf4jnsgd1na2vs0mg"},{"bike_id":"3baa6935-96c4-4261-90b6-046b87419675","system_id":"levelo_inurba_marseille","lat":43.3107,"lon":5.38343,"is_reserved":false,"is_disabled":false,"rental_uris":{"android":"levelo://app?vid=3baa6935-96c4-4261-90b6-046b87419675","ios":"levelo://app?vid=3baa6935-96c4-4261-90b6-046b87419675"},"vehicle_type_id":"4","last_reported":1727838862,"current_range_meters":38800,"station_id":"ce4bgv92rcd13ifvqcr0","pricing_plan_id":"cebpf4jnsgd1na2vs0mg"},{"bike_id":"507aca41-3be7-4755-877d-c4a3fbef9610","system_id":"levelo_inurba_marseille","lat":43.23152,"lon":5.43707,"is_reserved":false,"is_disabled":false,"rental_uris":{"android":"levelo://app?vid=507aca41-3be7-4755-877d-c4a3fbef9610","ios":"levelo://app?vid=507aca41-3be7-4755-877d-c4a3fbef9610"},"vehicle_type_id":"4","last_reported":1727838862,"current_range_meters":18800,"station_id":"ce4bhmp2rcd13ifvqgog","pricing_plan_id":"cebpf4jnsgd1na2vs0mg"},{"bike_id":"3de6e063-d170-445d-99e6-b76ac33be872","system_id":"levelo_inurba_marseille","lat":43.23157,"lon":5.43697,"is_reserved":false,"is_disabled":false,"rental_uris":{"android":"levelo://app?vid=3de6e063-d170-445d-99e6-b76ac33be872","ios":"levelo://app?vid=3de6e063-d170-445d-99e6-b76ac33be872"},"vehicle_type_id":"4","last_reported":1727838862,"current_range_meters":19600,"station_id":"ce4bhmp2rcd13ifvqgog","pricing_plan_id":"cebpf4jnsgd1na2vs0mg"},{"bike_id":"97e51c0e-64f8-4ffc-97e9-8ff5d02f96b0","system_id":"levelo_inurba_marseille","lat":43.28706,"lon":5.39979,"is_reserved":false,"is_disabled":false,"rental_uris":{"android":"levelo://app?vid=97e51c0e-64f8-4ffc-97e9-8ff5d02f96b0","ios":"levelo://app?vid=97e51c0e-64f8-4ffc-97e9-8ff5d02f96b0"},"vehicle_type_id":"4","last_reported":1727838862,"current_range_meters":28800,"station_id":"ce4bho92rcd13ifvqh3g","pricing_plan_id":"cebpf4jnsgd1na2vs0mg"},{"bike_id":"f09c731c-5c02-47d4-ad6f-4b608712d763","system_id":"levelo_inurba_marseille","lat":43.27177,"lon":5.40995,"is_reserved":false,"is_disabled":false,"rental_uris":{"android":"levelo://app?vid=f09c731c-5c02-47d4-ad6f-4b608712d763","ios":"levelo://app?vid=f09c731c-5c02-47d4-ad6f-4b608712d763"},"vehicle_type_id":"4","last_reported":1727838862,"current_range_meters":24800,"station_id":"ce4bhl12rcd13ifvqgf0","pricing_plan_id":"cebpf4jnsgd1na2vs0mg"},{"bike_id":"2db2135c-b728-4c6a-a7c1-37d20fc88d62","system_id":"levelo_inurba_marseille","lat":43.32014,"lon":5.4157,"is_reserved":false,"is_disabled":false,"rental_uris":{"android":"levelo://app?vid=2db2135c-b728-4c6a-a7c1-37d20fc88d62","ios":"levelo://app?vid=2db2135c-b728-4c6a-a7c1-37d20fc88d62"},"vehicle_type_id":"4","last_reported":1727838862,"current_range_meters":38800,"station_id":"ce4bhq92rcd13ifvqhkg","pricing_plan_id":"cebpf4jnsgd1na2vs0mg"},{"bike_id":"134a88fb-c4a2-4650-a0e7-749ffca99de4","system_id":"levelo_inurba_marseille","lat":43.27931,"lon":5.39588,"is_reserved":false,"is_disabled":false,"rental_uris":{"android":"levelo://app?vid=134a88fb-c4a2-4650-a0e7-749ffca99de4","ios":"levelo://app?vid=134a88fb-c4a2-4650-a0e7-749ffca99de4"},"vehicle_type_id":"4","last_reported":1727838862,"current_range_meters":37600,"station_id":"ce4bhf92rcd13ifvqf40","pricing_plan_id":"cebpf4jnsgd1na2vs0mg"},{"bike_id":"1a664ace-a7f1-4400-8b0f-f265b4cd0586","system_id":"levelo_inurba_marseille","lat":43.25081,"lon":5.39509,"is_reserved":false,"is_disabled":false,"rental_uris":{"android":"levelo://app?vid=1a664ace-a7f1-4400-8b0f-f265b4cd0586","ios":"levelo://app?vid=1a664ace-a7f1-4400-8b0f-f265b4cd0586"},"vehicle_type_id":"4","last_reported":1727838862,"current_range_meters":38800,"station_id":"ce4bhm12rcd13ifvqgkg","pricing_plan_id":"cebpf4jnsgd1na2vs0mg"},{"bike_id":"f8f518e3-bd48-40f5-801a-4ead88758ee2","system_id":"levelo_inurba_marseille","lat":43.32112,"lon":5.36771,"is_reserved":false,"is_disabled":false,"rental_uris":{"android":"levelo://app?vid=f8f518e3-bd48-40f5-801a-4ead88758ee2","ios":"levelo://app?vid=f8f518e3-bd48-40f5-801a-4ead88758ee2"},"vehicle_type_id":"4","last_reported":1727838862,"current_range_meters":11200,"station_id":"ce4bhrh2rcd13ifvqhug","pricing_plan_id":"cebpf4jnsgd1na2vs0mg"},{"bike_id":"6a45f6fd-9fea-4138-9229-bd8600390f1a","system_id":"levelo_inurba_marseille","lat":43.29634,"lon":5.40603,"is_reserved":false,"is_disabled":false,"rental_uris":{"android":"levelo://app?vid=6a45f6fd-9fea-4138-9229-bd8600390f1a","ios":"levelo://app?vid=6a45f6fd-9fea-4138-9229-bd8600390f1a"},"vehicle_type_id":"4","last_reported":1727838862,"current_range_meters":40000,"station_id":"ce4bh0h2rcd13ifvqd60","pricing_plan_id":"cebpf4jnsgd1na2vs0mg"},{"bike_id":"6d171952-8646-46b5-bd60-3234337f3603","system_id":"levelo_inurba_marseille","lat":43.32027,"lon":5.41569,"is_reserved":false,"is_disabled":false,"rental_uris":{"android":"levelo://app?vid=6d171952-8646-46b5-bd60-3234337f3603","ios":"levelo://app?vid=6d171952-8646-46b5-bd60-3234337f3603"},"vehicle_type_id":"4","last_reported":1727838862,"current_range_meters":38800,"station_id":"ce4bhq92rcd13ifvqhkg","pricing_plan_id":"cebpf4jnsgd1na2vs0mg"},{"bike_id":"2def81ca-9886-4391-9ee8-c6ea94127750","system_id":"levelo_inurba_marseille","lat":43.27069,"lon":5.4228,"is_reserved":false,"is_disabled":false,"rental_uris":{"android":"levelo://app?vid=2def81ca-9886-4391-9ee8-c6ea94127750","ios":"levelo://app?vid=2def81ca-9886-4391-9ee8-c6ea94127750"},"vehicle_type_id":"4","last_reported":1727838862,"current_range_meters":38800,"station_id":"ce4bhk92rcd13ifvqgb0","pricing_plan_id":"cebpf4jnsgd1na2vs0mg"},{"bike_id":"d31ad52f-e1e1-4678-8e40-4ce34ef35dee","system_id":"levelo_inurba_marseille","lat":43.29523,"lon":5.38542,"is_reserved":false,"is_disabled":false,"rental_uris":{"android":"levelo://app?vid=d31ad52f-e1e1-4678-8e40-4ce34ef35dee","ios":"levelo://app?vid=d31ad52f-e1e1-4678-8e40-4ce34ef35dee"},"vehicle_type_id":"4","last_reported":1727838862,"current_range_meters":19600,"station_id":"ce4bgih2rcd13ifvqba0","pricing_plan_id":"cebpf4jnsgd1na2vs0mg"},{"bike_id":"ea93fcf4-b5e9-40c1-b370-a567f9b54856","system_id":"levelo_inurba_marseille","lat":43.2894,"lon":5.39709,"is_reserved":false,"is_disabled":false,"rental_uris":{"android":"levelo://app?vid=ea93fcf4-b5e9-40c1-b370-a567f9b54856","ios":"levelo://app?vid=ea93fcf4-b5e9-40c1-b370-a567f9b54856"},"vehicle_type_id":"4","last_reported":1727838862,"current_range_meters":30400,"station_id":"","pricing_plan_id":"cebpf4jnsgd1na2vs0mg"},{"bike_id":"364c1297-b2bd-4bf6-ac6d-3b9694b62af6","system_id":"levelo_inurba_marseille","lat":43.26804,"lon":5.40264,"is_reserved":false,"is_disabled":false,"rental_uris":{"android":"levelo://app?vid=364c1297-b2bd-4bf6-ac6d-3b9694b62af6","ios":"levelo://app?vid=364c1297-b2bd-4bf6-ac6d-3b9694b62af6"},"vehicle_type_id":"4","last_reported":1727838862,"current_range_meters":39200,"station_id":"ce501612rcd8frsf0b60","pricing_plan_id":"cebpf4jnsgd1na2vs0mg"},{"bike_id":"d1fd22c9-724e-4047-974b-0b6e64659788","system_id":"levelo_inurba_marseille","lat":43.30784,"lon":5.37655,"is_reserved":false,"is_disabled":false,"rental_uris":{"android":"levelo://app?vid=d1fd22c9-724e-4047-974b-0b6e64659788","ios":"levelo://app?vid=d1fd22c9-724e-4047-974b-0b6e64659788"},"vehicle_type_id":"4","last_reported":1727838862,"current_range_meters":11600,"station_id":"ce4bgv92rcd13ifvqcq0","pricing_plan_id":"cebpf4jnsgd1na2vs0mg"},{"bike_id":"a7cd8a41-b4e8-4261-b35d-8d7fc80eefc3","system_id":"levelo_inurba_marseille","lat":43.30588,"lon":5.39359,"is_reserved":false,"is_disabled":false,"rental_uris":{"android":"levelo://app?vid=a7cd8a41-b4e8-4261-b35d-8d7fc80eefc3","ios":"levelo://app?vid=a7cd8a41-b4e8-4261-b35d-8d7fc80eefc3"},"vehicle_type_id":"4","last_reported":1727838862,"current_range_meters":34000,"station_id":"ce4bh0p2rcd13ifvqd80","pricing_plan_id":"cebpf4jnsgd1na2vs0mg"},{"bike_id":"18f0ebb9-80ba-4131-b0ed-701fab87af48","system_id":"levelo_inurba_marseille","lat":43.31168,"lon":5.38728,"is_reserved":false,"is_disabled":false,"rental_uris":{"android":"levelo://app?vid=18f0ebb9-80ba-4131-b0ed-701fab87af48","ios":"levelo://app?vid=18f0ebb9-80ba-4131-b0ed-701fab87af48"},"vehicle_type_id":"4","last_reported":1727838862,"current_range_meters":39200,"station_id":"ce4bgv12rcd13ifvqcp0","pricing_plan_id":"cebpf4jnsgd1na2vs0mg"},{"bike_id":"ff0c3ffe-a45a-4d7c-a518-9099eb9d2e67","system_id":"levelo_inurba_marseille","lat":43.29256,"lon":5.40912,"is_reserved":false,"is_disabled":false,"rental_uris":{"android":"levelo://app?vid=ff0c3ffe-a45a-4d7c-a518-9099eb9d2e67","ios":"levelo://app?vid=ff0c3ffe-a45a-4d7c-a518-9099eb9d2e67"},"vehicle_type_id":"4","last_reported":1727838862,"current_range_meters":38000,"station_id":"ce4bh192rcd13ifvqdc0","pricing_plan_id":"cebpf4jnsgd1na2vs0mg"},{"bike_id":"c93f410b-f930-47a0-ac39-acca8834b648","system_id":"levelo_inurba_marseille","lat":43.26504,"lon":5.39547,"is_reserved":false,"is_disabled":false,"rental_uris":{"android":"levelo://app?vid=c93f410b-f930-47a0-ac39-acca8834b648","ios":"levelo://app?vid=c93f410b-f930-47a0-ac39-acca8834b648"},"vehicle_type_id":"4","last_reported":1727838862,"current_range_meters":38400,"station_id":"ce4bhi12rcd13ifvqfq0","pricing_plan_id":"cebpf4jnsgd1na2vs0mg"},{"bike_id":"0a98ccd5-f1c1-4ff5-abd8-a001b5d21446","system_id":"levelo_inurba_marseille","lat":43.28699,"lon":5.39977,"is_reserved":false,"is_disabled":false,"rental_uris":{"android":"levelo://app?vid=0a98ccd5-f1c1-4ff5-abd8-a001b5d21446","ios":"levelo://app?vid=0a98ccd5-f1c1-4ff5-abd8-a001b5d21446"},"vehicle_type_id":"4","last_reported":1727838862,"current_range_meters":36800,"station_id":"ce4bho92rcd13ifvqh3g","pricing_plan_id":"cebpf4jnsgd1na2vs0mg"},{"bike_id":"b0faca66-84a6-4298-b478-7f3c31e06b74","system_id":"levelo_inurba_marseille","lat":43.30783,"lon":5.37643,"is_reserved":false,"is_disabled":false,"rental_uris":{"android":"levelo://app?vid=b0faca66-84a6-4298-b478-7f3c31e06b74","ios":"levelo://app?vid=b0faca66-84a6-4298-b478-7f3c31e06b74"},"vehicle_type_id":"4","last_reported":1727838862,"current_range_meters":35600,"station_id":"ce4bgv92rcd13ifvqcq0","pricing_plan_id":"cebpf4jnsgd1na2vs0mg"},{"bike_id":"c0726d95-92ce-4d02-ad3e-566e7d2b5f43","system_id":"levelo_inurba_marseille","lat":43.28105,"lon":5.37846,"is_reserved":false,"is_disabled":false,"rental_uris":{"android":"levelo://app?vid=c0726d95-92ce-4d02-ad3e-566e7d2b5f43","ios":"levelo://app?vid=c0726d95-92ce-4d02-ad3e-566e7d2b5f43"},"vehicle_type_id":"4","last_reported":1727838862,"current_range_meters":38800,"station_id":"ce4bha12rcd13ifvqee0","pricing_plan_id":"cebpf4jnsgd1na2vs0mg"},{"bike_id":"aa3f7d89-d0ab-4a14-bdf5-d796746f632c","system_id":"levelo_inurba_marseille","lat":43.29566,"lon":5.39972,"is_reserved":false,"is_disabled":false,"rental_uris":{"android":"levelo://app?vid=aa3f7d89-d0ab-4a14-bdf5-d796746f632c","ios":"levelo://app?vid=aa3f7d89-d0ab-4a14-bdf5-d796746f632c"},"vehicle_type_id":"4","last_reported":1727838862,"current_range_meters":38000,"station_id":"ce4bh312rcd13ifvqdj0","pricing_plan_id":"cebpf4jnsgd1na2vs0mg"},{"bike_id":"3484e591-7135-4cf2-bf8f-79af031773fe","system_id":"levelo_inurba_marseille","lat":43.29907,"lon":5.37455,"is_reserved":false,"is_disabled":false,"rental_uris":{"android":"levelo://app?vid=3484e591-7135-4cf2-bf8f-79af031773fe","ios":"levelo://app?vid=3484e591-7135-4cf2-bf8f-79af031773fe"},"vehicle_type_id":"4","last_reported":1727838862,"current_range_meters":32000,"station_id":"ce4bgjh2rcd13ifvqbg0","pricing_plan_id":"cebpf4jnsgd1na2vs0mg"},{"bike_id":"bc53e0b5-cbb9-4c3e-83f6-dbe3fa65662e","system_id":"levelo_inurba_marseille","lat":43.32023,"lon":5.41567,"is_reserved":false,"is_disabled":false,"rental_uris":{"android":"levelo://app?vid=bc53e0b5-cbb9-4c3e-83f6-dbe3fa65662e","ios":"levelo://app?vid=bc53e0b5-cbb9-4c3e-83f6-dbe3fa65662e"},"vehicle_type_id":"4","last_reported":1727838862,"current_range_meters":38400,"station_id":"ce4bhq92rcd13ifvqhkg","pricing_plan_id":"cebpf4jnsgd1na2vs0mg"},{"bike_id":"3375e05b-1315-4c90-a181-1bef544bd0c4","system_id":"levelo_inurba_marseille","lat":43.31537,"lon":5.38018,"is_reserved":false,"is_disabled":false,"rental_uris":{"android":"levelo://app?vid=3375e05b-1315-4c90-a181-1bef544bd0c4","ios":"levelo://app?vid=3375e05b-1315-4c90-a181-1bef544bd0c4"},"vehicle_type_id":"4","last_reported":1727838862,"current_range_meters":24400,"station_id":"ce4bhsp2rcd13ifvqi50","pricing_plan_id":"cebpf4jnsgd1na2vs0mg"},{"bike_id":"78863aa1-ed71-4955-9c54-509cc7bf9e19","system_id":"levelo_inurba_marseille","lat":43.30733,"lon":5.38055,"is_reserved":false,"is_disabled":false,"rental_uris":{"android":"levelo://app?vid=78863aa1-ed71-4955-9c54-509cc7bf9e19","ios":"levelo://app?vid=78863aa1-ed71-4955-9c54-509cc7bf9e19"},"vehicle_type_id":"4","last_reported":1727838862,"current_range_meters":21600,"station_id":"","pricing_plan_id":"cebpf4jnsgd1na2vs0mg"},{"bike_id":"dc03e946-be64-435d-a6e2-304d0c9f3ef5","system_id":"levelo_inurba_marseille","lat":43.315281,"lon":5.380295,"is_reserved":false,"is_disabled":false,"rental_uris":{"android":"levelo://app?vid=dc03e946-be64-435d-a6e2-304d0c9f3ef5","ios":"levelo://app?vid=dc03e946-be64-435d-a6e2-304d0c9f3ef5"},"vehicle_type_id":"4","last_reported":1727838862,"current_range_meters":39200,"station_id":"ce4bhsp2rcd13ifvqi50","pricing_plan_id":"cebpf4jnsgd1na2vs0mg"},{"bike_id":"bf7ae5ba-7674-46bf-8c61-9ffd920fd771","system_id":"levelo_inurba_marseille","lat":43.30314,"lon":5.40455,"is_reserved":false,"is_disabled":false,"rental_uris":{"android":"levelo://app?vid=bf7ae5ba-7674-46bf-8c61-9ffd920fd771","ios":"levelo://app?vid=bf7ae5ba-7674-46bf-8c61-9ffd920fd771"},"vehicle_type_id":"4","last_reported":1727838862,"current_range_meters":35600,"station_id":"ce4bh012rcd13ifvqd10","pricing_plan_id":"cebpf4jnsgd1na2vs0mg"},{"bike_id":"0e5dae4c-a7a8-4e18-94bb-35a364a15051","system_id":"levelo_inurba_marseille","lat":43.30639,"lon":5.40082,"is_reserved":false,"is_disabled":false,"rental_uris":{"android":"levelo://app?vid=0e5dae4c-a7a8-4e18-94bb-35a364a15051","ios":"levelo://app?vid=0e5dae4c-a7a8-4e18-94bb-35a364a15051"},"vehicle_type_id":"4","last_reported":1727838862,"current_range_meters":11600,"station_id":"ce4bh112rcd13ifvqda0","pricing_plan_id":"cebpf4jnsgd1na2vs0mg"},{"bike_id":"d995d233-d2fe-4db9-b69b-baa1337469bf","system_id":"levelo_inurba_marseille","lat":43.26744,"lon":5.40239,"is_reserved":false,"is_disabled":false,"rental_uris":{"android":"levelo://app?vid=d995d233-d2fe-4db9-b69b-baa1337469bf","ios":"levelo://app?vid=d995d233-d2fe-4db9-b69b-baa1337469bf"},"vehicle_type_id":"4","last_reported":1727838862,"current_range_meters":11200,"station_id":"ce4bhm92rcd13ifvqglg","pricing_plan_id":"cebpf4jnsgd1na2vs0mg"},{"bike_id":"2492b066-d744-49b1-a5ce-c9e24e1826b1","system_id":"levelo_inurba_marseille","lat":43.29878,"lon":5.39743,"is_reserved":false,"is_disabled":false,"rental_uris":{"android":"levelo://app?vid=2492b066-d744-49b1-a5ce-c9e24e1826b1","ios":"levelo://app?vid=2492b066-d744-49b1-a5ce-c9e24e1826b1"},"vehicle_type_id":"4","last_reported":1727838862,"current_range_meters":37600,"station_id":"ce4bh0h2rcd13ifvqd50","pricing_plan_id":"cebpf4jnsgd1na2vs0mg"},{"bike_id":"3ddf769c-c1f4-4c07-a643-d89d6207fa69","system_id":"levelo_inurba_marseille","lat":43.26689,"lon":5.38276,"is_reserved":false,"is_disabled":false,"rental_uris":{"android":"levelo://app?vid=3ddf769c-c1f4-4c07-a643-d89d6207fa69","ios":"levelo://app?vid=3ddf769c-c1f4-4c07-a643-d89d6207fa69"},"vehicle_type_id":"4","last_reported":1727838862,"current_range_meters":35200,"station_id":"ce4bhg92rcd13ifvqf90","pricing_plan_id":"cebpf4jnsgd1na2vs0mg"},{"bike_id":"9ae55583-61da-4955-afe0-934f7c2a6fdd","system_id":"levelo_inurba_marseille","lat":43.2465,"lon":5.3889,"is_reserved":false,"is_disabled":false,"rental_uris":{"android":"levelo://app?vid=9ae55583-61da-4955-afe0-934f7c2a6fdd","ios":"levelo://app?vid=9ae55583-61da-4955-afe0-934f7c2a6fdd"},"vehicle_type_id":"4","last_reported":1727838862,"current_range_meters":39200,"station_id":"ce4bhg12rcd13ifvqf60","pricing_plan_id":"cebpf4jnsgd1na2vs0mg"},{"bike_id":"24bdd87a-bc3f-47a3-b3b5-c03ba2eab573","system_id":"levelo_inurba_marseille","lat":43.30598,"lon":5.37223,"is_reserved":false,"is_disabled":false,"rental_uris":{"android":"levelo://app?vid=24bdd87a-bc3f-47a3-b3b5-c03ba2eab573","ios":"levelo://app?vid=24bdd87a-bc3f-47a3-b3b5-c03ba2eab573"},"vehicle_type_id":"4","last_reported":1727838862,"current_range_meters":26000,"station_id":"ce4bgqh2rcd13ifvqc4g","pricing_plan_id":"cebpf4jnsgd1na2vs0mg"},{"bike_id":"9e0f8531-ac87-4939-876c-6806e8dfeda9","system_id":"levelo_inurba_marseille","lat":43.23153,"lon":5.43716,"is_reserved":false,"is_disabled":false,"rental_uris":{"android":"levelo://app?vid=9e0f8531-ac87-4939-876c-6806e8dfeda9","ios":"levelo://app?vid=9e0f8531-ac87-4939-876c-6806e8dfeda9"},"vehicle_type_id":"4","last_reported":1727838862,"current_range_meters":9200,"station_id":"ce4bhmp2rcd13ifvqgog","pricing_plan_id":"cebpf4jnsgd1na2vs0mg"},{"bike_id":"c5eb70be-602f-4124-93c5-6e2097d0a344","system_id":"levelo_inurba_marseille","lat":43.31367,"lon":5.38493,"is_reserved":false,"is_disabled":false,"rental_uris":{"android":"levelo://app?vid=c5eb70be-602f-4124-93c5-6e2097d0a344","ios":"levelo://app?vid=c5eb70be-602f-4124-93c5-6e2097d0a344"},"vehicle_type_id":"4","last_reported":1727838862,"current_range_meters":36800,"station_id":"ce4bgt92rcd13ifvqcf0","pricing_plan_id":"cebpf4jnsgd1na2vs0mg"},{"bike_id":"920ae6e9-b10c-40c5-83b8-cbf54d4d5138","system_id":"levelo_inurba_marseille","lat":43.3205,"lon":5.41527,"is_reserved":false,"is_disabled":false,"rental_uris":{"android":"levelo://app?vid=920ae6e9-b10c-40c5-83b8-cbf54d4d5138","ios":"levelo://app?vid=920ae6e9-b10c-40c5-83b8-cbf54d4d5138"},"vehicle_type_id":"4","last_reported":1727838862,"current_range_meters":6400,"station_id":"ce4bhq92rcd13ifvqhkg","pricing_plan_id":"cebpf4jnsgd1na2vs0mg"},{"bike_id":"7c8e102b-8729-45dd-a2e0-c8af2fc278ec","system_id":"levelo_inurba_marseille","lat":43.25125,"lon":5.40323,"is_reserved":false,"is_disabled":false,"rental_uris":{"android":"levelo://app?vid=7c8e102b-8729-45dd-a2e0-c8af2fc278ec","ios":"levelo://app?vid=7c8e102b-8729-45dd-a2e0-c8af2fc278ec"},"vehicle_type_id":"4","last_reported":1727838862,"current_range_meters":4400,"station_id":"ce4bhlh2rcd13ifvqgig","pricing_plan_id":"cebpf4jnsgd1na2vs0mg"},{"bike_id":"009ea4a6-0561-421e-8a2c-1845d149d45a","system_id":"levelo_inurba_marseille","lat":43.3047,"lon":5.37904,"is_reserved":false,"is_disabled":false,"rental_uris":{"android":"levelo://app?vid=009ea4a6-0561-421e-8a2c-1845d149d45a","ios":"levelo://app?vid=009ea4a6-0561-421e-8a2c-1845d149d45a"},"vehicle_type_id":"4","last_reported":1727838862,"current_range_meters":8800,"station_id":"ce4bgup2rcd13ifvqcn0","pricing_plan_id":"cebpf4jnsgd1na2vs0mg"},{"bike_id":"b652f429-09b8-4697-9c1b-3b9adc3c55d8","system_id":"levelo_inurba_marseille","lat":43.26871,"lon":5.39135,"is_reserved":false,"is_disabled":false,"rental_uris":{"android":"levelo://app?vid=b652f429-09b8-4697-9c1b-3b9adc3c55d8","ios":"levelo://app?vid=b652f429-09b8-4697-9c1b-3b9adc3c55d8"},"vehicle_type_id":"4","last_reported":1727838862,"current_range_meters":3600,"station_id":"","pricing_plan_id":"cebpf4jnsgd1na2vs0mg"},{"bike_id":"61a947e1-a421-40aa-a820-d6e19a6f0fe4","system_id":"levelo_inurba_marseille","lat":43.31715,"lon":5.42398,"is_reserved":false,"is_disabled":false,"rental_uris":{"android":"levelo://app?vid=61a947e1-a421-40aa-a820-d6e19a6f0fe4","ios":"levelo://app?vid=61a947e1-a421-40aa-a820-d6e19a6f0fe4"},"vehicle_type_id":"4","last_reported":1727838862,"current_range_meters":38800,"station_id":"ce4bhp92rcd13ifvqhbg","pricing_plan_id":"cebpf4jnsgd1na2vs0mg"},{"bike_id":"f63a0315-66c7-431d-9b04-c6d43fc0cc07","system_id":"levelo_inurba_marseille","lat":43.26499,"lon":5.39543,"is_reserved":false,"is_disabled":false,"rental_uris":{"android":"levelo://app?vid=f63a0315-66c7-431d-9b04-c6d43fc0cc07","ios":"levelo://app?vid=f63a0315-66c7-431d-9b04-c6d43fc0cc07"},"vehicle_type_id":"4","last_reported":1727838862,"current_range_meters":38800,"station_id":"ce4bhi12rcd13ifvqfq0","pricing_plan_id":"cebpf4jnsgd1na2vs0mg"},{"bike_id":"be8e92ca-9b24-4ee5-8ca2-bb0ca7e20306","system_id":"levelo_inurba_marseille","lat":43.26501,"lon":5.39546,"is_reserved":false,"is_disabled":false,"rental_uris":{"android":"levelo://app?vid=be8e92ca-9b24-4ee5-8ca2-bb0ca7e20306","ios":"levelo://app?vid=be8e92ca-9b24-4ee5-8ca2-bb0ca7e20306"},"vehicle_type_id":"4","last_reported":1727838862,"current_range_meters":5600,"station_id":"ce4bhi12rcd13ifvqfq0","pricing_plan_id":"cebpf4jnsgd1na2vs0mg"},{"bike_id":"1cbb5b9f-27fd-4647-944e-96013dabaee7","system_id":"levelo_inurba_marseille","lat":43.31759,"lon":5.39011,"is_reserved":false,"is_disabled":false,"rental_uris":{"android":"levelo://app?vid=1cbb5b9f-27fd-4647-944e-96013dabaee7","ios":"levelo://app?vid=1cbb5b9f-27fd-4647-944e-96013dabaee7"},"vehicle_type_id":"4","last_reported":1727838862,"current_range_meters":38400,"station_id":"ce4bhqp2rcd13ifvqhng","pricing_plan_id":"cebpf4jnsgd1na2vs0mg"},{"bike_id":"cc334f47-266c-4194-bd67-059ec0658e9f","system_id":"levelo_inurba_marseille","lat":43.31269,"lon":5.4017,"is_reserved":false,"is_disabled":false,"rental_uris":{"android":"levelo://app?vid=cc334f47-266c-4194-bd67-059ec0658e9f","ios":"levelo://app?vid=cc334f47-266c-4194-bd67-059ec0658e9f"},"vehicle_type_id":"4","last_reported":1727838862,"current_range_meters":39200,"station_id":"ce4bh092rcd13ifvqd30","pricing_plan_id":"cebpf4jnsgd1na2vs0mg"},{"bike_id":"c64ff189-4dfb-413c-893e-267f264e37e2","system_id":"levelo_inurba_marseille","lat":43.29623,"lon":5.40602,"is_reserved":false,"is_disabled":false,"rental_uris":{"android":"levelo://app?vid=c64ff189-4dfb-413c-893e-267f264e37e2","ios":"levelo://app?vid=c64ff189-4dfb-413c-893e-267f264e37e2"},"vehicle_type_id":"4","last_reported":1727838862,"current_range_meters":39200,"station_id":"ce4bh0h2rcd13ifvqd60","pricing_plan_id":"cebpf4jnsgd1na2vs0mg"},{"bike_id":"d4c26f9a-1080-4999-bf2c-e944fa58d3ff","system_id":"levelo_inurba_marseille","lat":43.28695,"lon":5.39974,"is_reserved":false,"is_disabled":false,"rental_uris":{"android":"levelo://app?vid=d4c26f9a-1080-4999-bf2c-e944fa58d3ff","ios":"levelo://app?vid=d4c26f9a-1080-4999-bf2c-e944fa58d3ff"},"vehicle_type_id":"4","last_reported":1727838862,"current_range_meters":28800,"station_id":"ce4bho92rcd13ifvqh3g","pricing_plan_id":"cebpf4jnsgd1na2vs0mg"},{"bike_id":"6829189f-d0d7-4531-a629-94f7b81ac995","system_id":"levelo_inurba_marseille","lat":43.30798,"lon":5.38154,"is_reserved":false,"is_disabled":false,"rental_uris":{"android":"levelo://app?vid=6829189f-d0d7-4531-a629-94f7b81ac995","ios":"levelo://app?vid=6829189f-d0d7-4531-a629-94f7b81ac995"},"vehicle_type_id":"4","last_reported":1727838862,"current_range_meters":32400,"station_id":"ce4bgt12rcd13ifvqce0","pricing_plan_id":"cebpf4jnsgd1na2vs0mg"},{"bike_id":"43ec8304-b11c-44d9-9f47-bc865890f14a","system_id":"levelo_inurba_marseille","lat":43.2509,"lon":5.39516,"is_reserved":false,"is_disabled":false,"rental_uris":{"android":"levelo://app?vid=43ec8304-b11c-44d9-9f47-bc865890f14a","ios":"levelo://app?vid=43ec8304-b11c-44d9-9f47-bc865890f14a"},"vehicle_type_id":"4","last_reported":1727838862,"current_range_meters":12800,"station_id":"ce4bhm12rcd13ifvqgkg","pricing_plan_id":"cebpf4jnsgd1na2vs0mg"},{"bike_id":"aa3f7887-67de-4c79-a3f5-a73bf8411118","system_id":"levelo_inurba_marseille","lat":43.29116,"lon":5.38537,"is_reserved":false,"is_disabled":false,"rental_uris":{"android":"levelo://app?vid=aa3f7887-67de-4c79-a3f5-a73bf8411118","ios":"levelo://app?vid=aa3f7887-67de-4c79-a3f5-a73bf8411118"},"vehicle_type_id":"4","last_reported":1727838862,"current_range_meters":16400,"station_id":"","pricing_plan_id":"cebpf4jnsgd1na2vs0mg"},{"bike_id":"0726aaf9-3448-465a-8d21-944ad6140277","system_id":"levelo_inurba_marseille","lat":43.31365,"lon":5.38492,"is_reserved":false,"is_disabled":false,"rental_uris":{"android":"levelo://app?vid=0726aaf9-3448-465a-8d21-944ad6140277","ios":"levelo://app?vid=0726aaf9-3448-465a-8d21-944ad6140277"},"vehicle_type_id":"4","last_reported":1727838862,"current_range_meters":16800,"station_id":"ce4bgt92rcd13ifvqcf0","pricing_plan_id":"cebpf4jnsgd1na2vs0mg"},{"bike_id":"e5f61d33-8415-4a03-ae60-f12eae9e325c","system_id":"levelo_inurba_marseille","lat":43.28028,"lon":5.36951,"is_reserved":false,"is_disabled":false,"rental_uris":{"android":"levelo://app?vid=e5f61d33-8415-4a03-ae60-f12eae9e325c","ios":"levelo://app?vid=e5f61d33-8415-4a03-ae60-f12eae9e325c"},"vehicle_type_id":"4","last_reported":1727838862,"current_range_meters":37600,"station_id":"ce4bha12rcd13ifvqef0","pricing_plan_id":"cebpf4jnsgd1na2vs0mg"},{"bike_id":"7308d057-9423-42ff-b9de-2ef3efeb6bf5","system_id":"levelo_inurba_marseille","lat":43.33602,"lon":5.41015,"is_reserved":false,"is_disabled":false,"rental_uris":{"android":"levelo://app?vid=7308d057-9423-42ff-b9de-2ef3efeb6bf5","ios":"levelo://app?vid=7308d057-9423-42ff-b9de-2ef3efeb6bf5"},"vehicle_type_id":"4","last_reported":1727838862,"current_range_meters":16000,"station_id":"ce4bhqh2rcd13ifvqhmg","pricing_plan_id":"cebpf4jnsgd1na2vs0mg"},{"bike_id":"e876a359-b949-4a5c-aec7-e1e7340f0cdb","system_id":"levelo_inurba_marseille","lat":43.26935,"lon":5.38915,"is_reserved":false,"is_disabled":false,"rental_uris":{"android":"levelo://app?vid=e876a359-b949-4a5c-aec7-e1e7340f0cdb","ios":"levelo://app?vid=e876a359-b949-4a5c-aec7-e1e7340f0cdb"},"vehicle_type_id":"4","last_reported":1727838862,"current_range_meters":38800,"station_id":"ce4bhhh2rcd13ifvqfl0","pricing_plan_id":"cebpf4jnsgd1na2vs0mg"},{"bike_id":"152be7fe-903a-4137-9bfe-6e779d55c33f","system_id":"levelo_inurba_marseille","lat":43.26807,"lon":5.40266,"is_reserved":false,"is_disabled":false,"rental_uris":{"android":"levelo://app?vid=152be7fe-903a-4137-9bfe-6e779d55c33f","ios":"levelo://app?vid=152be7fe-903a-4137-9bfe-6e779d55c33f"},"vehicle_type_id":"4","last_reported":1727838862,"current_range_meters":22000,"station_id":"ce501612rcd8frsf0b60","pricing_plan_id":"cebpf4jnsgd1na2vs0mg"},{"bike_id":"bc27e502-5a68-4b19-abd4-272ff453ba6e","system_id":"levelo_inurba_marseille","lat":43.3013,"lon":5.39867,"is_reserved":false,"is_disabled":false,"rental_uris":{"android":"levelo://app?vid=bc27e502-5a68-4b19-abd4-272ff453ba6e","ios":"levelo://app?vid=bc27e502-5a68-4b19-abd4-272ff453ba6e"},"vehicle_type_id":"4","last_reported":1727838862,"current_range_meters":11600,"station_id":"ce4bh0h2rcd13ifvqd40","pricing_plan_id":"cebpf4jnsgd1na2vs0mg"},{"bike_id":"0385b8aa-f99f-4f2f-a4a1-989fe579f52f","system_id":"levelo_inurba_marseille","lat":43.32032,"lon":5.41549,"is_reserved":false,"is_disabled":false,"rental_uris":{"android":"levelo://app?vid=0385b8aa-f99f-4f2f-a4a1-989fe579f52f","ios":"levelo://app?vid=0385b8aa-f99f-4f2f-a4a1-989fe579f52f"},"vehicle_type_id":"4","last_reported":1727838862,"current_range_meters":37600,"station_id":"ce4bhq92rcd13ifvqhkg","pricing_plan_id":"cebpf4jnsgd1na2vs0mg"},{"bike_id":"67308192-2f7b-4ea3-9476-a8c25e23c6c8","system_id":"levelo_inurba_marseille","lat":43.24665,"lon":5.38158,"is_reserved":false,"is_disabled":false,"rental_uris":{"android":"levelo://app?vid=67308192-2f7b-4ea3-9476-a8c25e23c6c8","ios":"levelo://app?vid=67308192-2f7b-4ea3-9476-a8c25e23c6c8"},"vehicle_type_id":"4","last_reported":1727838862,"current_range_meters":38800,"station_id":"ce4bhih2rcd13ifvqfr0","pricing_plan_id":"cebpf4jnsgd1na2vs0mg"},{"bike_id":"e602d960-7762-4556-87f3-7ca7eb9e1588","system_id":"levelo_inurba_marseille","lat":43.31889,"lon":5.40731,"is_reserved":false,"is_disabled":false,"rental_uris":{"android":"levelo://app?vid=e602d960-7762-4556-87f3-7ca7eb9e1588","ios":"levelo://app?vid=e602d960-7762-4556-87f3-7ca7eb9e1588"},"vehicle_type_id":"4","last_reported":1727838862,"current_range_meters":38000,"station_id":"ce4bhq12rcd13ifvqhig","pricing_plan_id":"cebpf4jnsgd1na2vs0mg"},{"bike_id":"00686ab6-bf6c-4536-bb4a-fc5cdf6f40a6","system_id":"levelo_inurba_marseille","lat":43.30794,"lon":5.38154,"is_reserved":false,"is_disabled":false,"rental_uris":{"android":"levelo://app?vid=00686ab6-bf6c-4536-bb4a-fc5cdf6f40a6","ios":"levelo://app?vid=00686ab6-bf6c-4536-bb4a-fc5cdf6f40a6"},"vehicle_type_id":"4","last_reported":1727838862,"current_range_meters":8400,"station_id":"ce4bgt12rcd13ifvqce0","pricing_plan_id":"cebpf4jnsgd1na2vs0mg"},{"bike_id":"12aa1752-7cc3-4906-b1c3-41a6193b64ff","system_id":"levelo_inurba_marseille","lat":43.26564,"lon":5.39014,"is_reserved":false,"is_disabled":false,"rental_uris":{"android":"levelo://app?vid=12aa1752-7cc3-4906-b1c3-41a6193b64ff","ios":"levelo://app?vid=12aa1752-7cc3-4906-b1c3-41a6193b64ff"},"vehicle_type_id":"4","last_reported":1727838862,"current_range_meters":38800,"station_id":"ce4bhe12rcd13ifvqf30","pricing_plan_id":"cebpf4jnsgd1na2vs0mg"},{"bike_id":"6fd13259-3116-404c-92cb-683c3b491724","system_id":"levelo_inurba_marseille","lat":43.31168,"lon":5.38711,"is_reserved":false,"is_disabled":false,"rental_uris":{"android":"levelo://app?vid=6fd13259-3116-404c-92cb-683c3b491724","ios":"levelo://app?vid=6fd13259-3116-404c-92cb-683c3b491724"},"vehicle_type_id":"4","last_reported":1727838862,"current_range_meters":22400,"station_id":"ce4bgv12rcd13ifvqcp0","pricing_plan_id":"cebpf4jnsgd1na2vs0mg"},{"bike_id":"5cedae51-eea5-4235-bd02-1451c712e4b0","system_id":"levelo_inurba_marseille","lat":43.3168,"lon":5.4047,"is_reserved":false,"is_disabled":false,"rental_uris":{"android":"levelo://app?vid=5cedae51-eea5-4235-bd02-1451c712e4b0","ios":"levelo://app?vid=5cedae51-eea5-4235-bd02-1451c712e4b0"},"vehicle_type_id":"4","last_reported":1727838862,"current_range_meters":38800,"station_id":"ce4bh012rcd13ifvqd00","pricing_plan_id":"cebpf4jnsgd1na2vs0mg"},{"bike_id":"89b9dfd5-0dc9-4197-bb8d-be7f07ee51ff","system_id":"levelo_inurba_marseille","lat":43.31529,"lon":5.3802,"is_reserved":false,"is_disabled":false,"rental_uris":{"android":"levelo://app?vid=89b9dfd5-0dc9-4197-bb8d-be7f07ee51ff","ios":"levelo://app?vid=89b9dfd5-0dc9-4197-bb8d-be7f07ee51ff"},"vehicle_type_id":"4","last_reported":1727838862,"current_range_meters":39200,"station_id":"ce4bhsp2rcd13ifvqi50","pricing_plan_id":"cebpf4jnsgd1na2vs0mg"},{"bike_id":"01ddb68a-12d5-4e64-9250-39bb8ee96a3e","system_id":"levelo_inurba_marseille","lat":43.24074,"lon":5.37748,"is_reserved":false,"is_disabled":false,"rental_uris":{"android":"levelo://app?vid=01ddb68a-12d5-4e64-9250-39bb8ee96a3e","ios":"levelo://app?vid=01ddb68a-12d5-4e64-9250-39bb8ee96a3e"},"vehicle_type_id":"4","last_reported":1727838862,"current_range_meters":38800,"station_id":"ce4bhnp2rcd13ifvqgvg","pricing_plan_id":"cebpf4jnsgd1na2vs0mg"},{"bike_id":"b7fc4ff2-2bad-4a32-9ac9-c7dce7dc8248","system_id":"levelo_inurba_marseille","lat":43.2509,"lon":5.39515,"is_reserved":false,"is_disabled":false,"rental_uris":{"android":"levelo://app?vid=b7fc4ff2-2bad-4a32-9ac9-c7dce7dc8248","ios":"levelo://app?vid=b7fc4ff2-2bad-4a32-9ac9-c7dce7dc8248"},"vehicle_type_id":"4","last_reported":1727838862,"current_range_meters":38000,"station_id":"ce4bhm12rcd13ifvqgkg","pricing_plan_id":"cebpf4jnsgd1na2vs0mg"},{"bike_id":"6ae20033-92da-495d-9743-905496a75472","system_id":"levelo_inurba_marseille","lat":43.33598,"lon":5.40967,"is_reserved":false,"is_disabled":false,"rental_uris":{"android":"levelo://app?vid=6ae20033-92da-495d-9743-905496a75472","ios":"levelo://app?vid=6ae20033-92da-495d-9743-905496a75472"},"vehicle_type_id":"4","last_reported":1727838862,"current_range_meters":38800,"station_id":"ce4bhqh2rcd13ifvqhmg","pricing_plan_id":"cebpf4jnsgd1na2vs0mg"},{"bike_id":"ff324f9f-4d8f-4d7e-a0c5-274cf470f26e","system_id":"levelo_inurba_marseille","lat":43.27179,"lon":5.40996,"is_reserved":false,"is_disabled":false,"rental_uris":{"android":"levelo://app?vid=ff324f9f-4d8f-4d7e-a0c5-274cf470f26e","ios":"levelo://app?vid=ff324f9f-4d8f-4d7e-a0c5-274cf470f26e"},"vehicle_type_id":"4","last_reported":1727838862,"current_range_meters":38800,"station_id":"ce4bhl12rcd13ifvqgf0","pricing_plan_id":"cebpf4jnsgd1na2vs0mg"},{"bike_id":"064b175d-f90b-4646-8cbb-fc55ad9cd57c","system_id":"levelo_inurba_marseille","lat":43.29515,"lon":5.39041,"is_reserved":false,"is_disabled":false,"rental_uris":{"android":"levelo://app?vid=064b175d-f90b-4646-8cbb-fc55ad9cd57c","ios":"levelo://app?vid=064b175d-f90b-4646-8cbb-fc55ad9cd57c"},"vehicle_type_id":"4","last_reported":1727838862,"current_range_meters":38000,"station_id":"ce4bh3p2rcd13ifvqdp0","pricing_plan_id":"cebpf4jnsgd1na2vs0mg"},{"bike_id":"6ff016f9-d31d-4e50-9002-5dee01876d27","system_id":"levelo_inurba_marseille","lat":43.31327,"lon":5.39701,"is_reserved":false,"is_disabled":false,"rental_uris":{"android":"levelo://app?vid=6ff016f9-d31d-4e50-9002-5dee01876d27","ios":"levelo://app?vid=6ff016f9-d31d-4e50-9002-5dee01876d27"},"vehicle_type_id":"4","last_reported":1727838862,"current_range_meters":14000,"station_id":"ce4bgvp2rcd13ifvqcu0","pricing_plan_id":"cebpf4jnsgd1na2vs0mg"},{"bike_id":"d6da35a4-fa3b-4859-9f60-993ed01a852e","system_id":"levelo_inurba_marseille","lat":43.29975,"lon":5.385,"is_reserved":false,"is_disabled":false,"rental_uris":{"android":"levelo://app?vid=d6da35a4-fa3b-4859-9f60-993ed01a852e","ios":"levelo://app?vid=d6da35a4-fa3b-4859-9f60-993ed01a852e"},"vehicle_type_id":"4","last_reported":1727838862,"current_range_meters":37600,"station_id":"ce4bgj92rcd13ifvqbd0","pricing_plan_id":"cebpf4jnsgd1na2vs0mg"},{"bike_id":"972f0298-3b6a-4a5a-9a88-2b3812e933f5","system_id":"levelo_inurba_marseille","lat":43.27924,"lon":5.39583,"is_reserved":false,"is_disabled":false,"rental_uris":{"android":"levelo://app?vid=972f0298-3b6a-4a5a-9a88-2b3812e933f5","ios":"levelo://app?vid=972f0298-3b6a-4a5a-9a88-2b3812e933f5"},"vehicle_type_id":"4","last_reported":1727838862,"current_range_meters":4800,"station_id":"ce4bhf92rcd13ifvqf40","pricing_plan_id":"cebpf4jnsgd1na2vs0mg"},{"bike_id":"4f75af11-9251-4dbf-a2a5-4b9f0657c86b","system_id":"levelo_inurba_marseille","lat":43.29019,"lon":5.38143,"is_reserved":false,"is_disabled":false,"rental_uris":{"android":"levelo://app?vid=4f75af11-9251-4dbf-a2a5-4b9f0657c86b","ios":"levelo://app?vid=4f75af11-9251-4dbf-a2a5-4b9f0657c86b"},"vehicle_type_id":"4","last_reported":1727838862,"current_range_meters":30400,"station_id":"ce4bh4p2rcd13ifvqe1g","pricing_plan_id":"cebpf4jnsgd1na2vs0mg"},{"bike_id":"5b9d22e3-323f-44fa-bde7-8d6ce3f5d391","system_id":"levelo_inurba_marseille","lat":43.28612,"lon":5.351,"is_reserved":false,"is_disabled":false,"rental_uris":{"android":"levelo://app?vid=5b9d22e3-323f-44fa-bde7-8d6ce3f5d391","ios":"levelo://app?vid=5b9d22e3-323f-44fa-bde7-8d6ce3f5d391"},"vehicle_type_id":"4","last_reported":1727838862,"current_range_meters":20800,"station_id":"ce4bhch2rcd13ifvqeug","pricing_plan_id":"cebpf4jnsgd1na2vs0mg"},{"bike_id":"7c0a7e9a-274d-4edb-a5f4-3ab54445f147","system_id":"levelo_inurba_marseille","lat":43.26489,"lon":5.39544,"is_reserved":false,"is_disabled":false,"rental_uris":{"android":"levelo://app?vid=7c0a7e9a-274d-4edb-a5f4-3ab54445f147","ios":"levelo://app?vid=7c0a7e9a-274d-4edb-a5f4-3ab54445f147"},"vehicle_type_id":"4","last_reported":1727838862,"current_range_meters":38800,"station_id":"ce4bhi12rcd13ifvqfq0","pricing_plan_id":"cebpf4jnsgd1na2vs0mg"},{"bike_id":"9d98c167-ce53-4a4d-871d-1c099d57722c","system_id":"levelo_inurba_marseille","lat":43.30606,"lon":5.37233,"is_reserved":false,"is_disabled":false,"rental_uris":{"android":"levelo://app?vid=9d98c167-ce53-4a4d-871d-1c099d57722c","ios":"levelo://app?vid=9d98c167-ce53-4a4d-871d-1c099d57722c"},"vehicle_type_id":"4","last_reported":1727838862,"current_range_meters":40000,"station_id":"ce4bgqh2rcd13ifvqc4g","pricing_plan_id":"cebpf4jnsgd1na2vs0mg"},{"bike_id":"93a809df-392c-4004-b27b-fa468f9e6c07","system_id":"levelo_inurba_marseille","lat":43.31122,"lon":5.3777,"is_reserved":false,"is_disabled":false,"rental_uris":{"android":"levelo://app?vid=93a809df-392c-4004-b27b-fa468f9e6c07","ios":"levelo://app?vid=93a809df-392c-4004-b27b-fa468f9e6c07"},"vehicle_type_id":"4","last_reported":1727838862,"current_range_meters":32400,"station_id":"ce4bgt92rcd13ifvqcg0","pricing_plan_id":"cebpf4jnsgd1na2vs0mg"},{"bike_id":"82c2475c-c35b-4b23-a470-b125ed8a5409","system_id":"levelo_inurba_marseille","lat":43.30356,"lon":5.41884,"is_reserved":false,"is_disabled":false,"rental_uris":{"android":"levelo://app?vid=82c2475c-c35b-4b23-a470-b125ed8a5409","ios":"levelo://app?vid=82c2475c-c35b-4b23-a470-b125ed8a5409"},"vehicle_type_id":"4","last_reported":1727838862,"current_range_meters":8000,"station_id":"ce4bhop2rcd13ifvqh7g","pricing_plan_id":"cebpf4jnsgd1na2vs0mg"},{"bike_id":"36ba55be-55c0-4d75-9db6-d5e0c0cd66af","system_id":"levelo_inurba_marseille","lat":43.3137,"lon":5.38501,"is_reserved":false,"is_disabled":false,"rental_uris":{"android":"levelo://app?vid=36ba55be-55c0-4d75-9db6-d5e0c0cd66af","ios":"levelo://app?vid=36ba55be-55c0-4d75-9db6-d5e0c0cd66af"},"vehicle_type_id":"4","last_reported":1727838862,"current_range_meters":33600,"station_id":"ce4bgt92rcd13ifvqcf0","pricing_plan_id":"cebpf4jnsgd1na2vs0mg"},{"bike_id":"78b1dac7-5bed-47e2-8698-6f2dc96554bd","system_id":"levelo_inurba_marseille","lat":43.31538,"lon":5.38017,"is_reserved":false,"is_disabled":false,"rental_uris":{"android":"levelo://app?vid=78b1dac7-5bed-47e2-8698-6f2dc96554bd","ios":"levelo://app?vid=78b1dac7-5bed-47e2-8698-6f2dc96554bd"},"vehicle_type_id":"4","last_reported":1727838862,"current_range_meters":31200,"station_id":"ce4bhsp2rcd13ifvqi50","pricing_plan_id":"cebpf4jnsgd1na2vs0mg"},{"bike_id":"2b889d16-9dfb-4234-b9cd-a1f18c4d7543","system_id":"levelo_inurba_marseille","lat":43.28033,"lon":5.36942,"is_reserved":false,"is_disabled":false,"rental_uris":{"android":"levelo://app?vid=2b889d16-9dfb-4234-b9cd-a1f18c4d7543","ios":"levelo://app?vid=2b889d16-9dfb-4234-b9cd-a1f18c4d7543"},"vehicle_type_id":"4","last_reported":1727838862,"current_range_meters":24400,"station_id":"ce4bha12rcd13ifvqef0","pricing_plan_id":"cebpf4jnsgd1na2vs0mg"},{"bike_id":"08dbe2c5-4145-42ad-9a05-8f365678e294","system_id":"levelo_inurba_marseille","lat":43.28942,"lon":5.39638,"is_reserved":false,"is_disabled":false,"rental_uris":{"android":"levelo://app?vid=08dbe2c5-4145-42ad-9a05-8f365678e294","ios":"levelo://app?vid=08dbe2c5-4145-42ad-9a05-8f365678e294"},"vehicle_type_id":"4","last_reported":1727838862,"current_range_meters":38800,"station_id":"ce4bh3h2rcd13ifvqdn0","pricing_plan_id":"cebpf4jnsgd1na2vs0mg"},{"bike_id":"4326db58-40ed-4c40-8024-fb7d24341f84","system_id":"levelo_inurba_marseille","lat":43.29049,"lon":5.39946,"is_reserved":false,"is_disabled":false,"rental_uris":{"android":"levelo://app?vid=4326db58-40ed-4c40-8024-fb7d24341f84","ios":"levelo://app?vid=4326db58-40ed-4c40-8024-fb7d24341f84"},"vehicle_type_id":"4","last_reported":1727838862,"current_range_meters":38800,"station_id":"ce4bh392rcd13ifvqdm0","pricing_plan_id":"cebpf4jnsgd1na2vs0mg"},{"bike_id":"7eb3ad5d-2457-49e0-94b9-76ba6f4c60da","system_id":"levelo_inurba_marseille","lat":43.29019,"lon":5.38643,"is_reserved":false,"is_disabled":false,"rental_uris":{"android":"levelo://app?vid=7eb3ad5d-2457-49e0-94b9-76ba6f4c60da","ios":"levelo://app?vid=7eb3ad5d-2457-49e0-94b9-76ba6f4c60da"},"vehicle_type_id":"4","last_reported":1727838862,"current_range_meters":28400,"station_id":"ce4bh4p2rcd13ifvqe0g","pricing_plan_id":"cebpf4jnsgd1na2vs0mg"},{"bike_id":"75f7d3bd-f2a1-4d79-867f-cd81045ec393","system_id":"levelo_inurba_marseille","lat":43.30323,"lon":5.40441,"is_reserved":false,"is_disabled":false,"rental_uris":{"android":"levelo://app?vid=75f7d3bd-f2a1-4d79-867f-cd81045ec393","ios":"levelo://app?vid=75f7d3bd-f2a1-4d79-867f-cd81045ec393"},"vehicle_type_id":"4","last_reported":1727838862,"current_range_meters":29600,"station_id":"ce4bh012rcd13ifvqd10","pricing_plan_id":"cebpf4jnsgd1na2vs0mg"},{"bike_id":"db20535b-4fbd-4918-a5d3-d644cb8f4053","system_id":"levelo_inurba_marseille","lat":43.24176,"lon":5.39723,"is_reserved":false,"is_disabled":false,"rental_uris":{"android":"levelo://app?vid=db20535b-4fbd-4918-a5d3-d644cb8f4053","ios":"levelo://app?vid=db20535b-4fbd-4918-a5d3-d644cb8f4053"},"vehicle_type_id":"4","last_reported":1727838862,"current_range_meters":38800,"station_id":"ce4bhn12rcd13ifvqgpg","pricing_plan_id":"cebpf4jnsgd1na2vs0mg"},{"bike_id":"b6a28727-ebfc-4faa-bbf7-4c9d29c07b03","system_id":"levelo_inurba_marseille","lat":43.24651,"lon":5.38901,"is_reserved":false,"is_disabled":false,"rental_uris":{"android":"levelo://app?vid=b6a28727-ebfc-4faa-bbf7-4c9d29c07b03","ios":"levelo://app?vid=b6a28727-ebfc-4faa-bbf7-4c9d29c07b03"},"vehicle_type_id":"4","last_reported":1727838862,"current_range_meters":38400,"station_id":"ce4bhg12rcd13ifvqf60","pricing_plan_id":"cebpf4jnsgd1na2vs0mg"},{"bike_id":"1b0da400-df7f-46cf-a71b-f878e1e3bfe9","system_id":"levelo_inurba_marseille","lat":43.2407,"lon":5.37758,"is_reserved":false,"is_disabled":false,"rental_uris":{"android":"levelo://app?vid=1b0da400-df7f-46cf-a71b-f878e1e3bfe9","ios":"levelo://app?vid=1b0da400-df7f-46cf-a71b-f878e1e3bfe9"},"vehicle_type_id":"4","last_reported":1727838862,"current_range_meters":27600,"station_id":"ce4bhnp2rcd13ifvqgvg","pricing_plan_id":"cebpf4jnsgd1na2vs0mg"},{"bike_id":"e231fe26-5e80-4032-bcc1-94cbee7088c0","system_id":"levelo_inurba_marseille","lat":43.28718,"lon":5.39998,"is_reserved":false,"is_disabled":false,"rental_uris":{"android":"levelo://app?vid=e231fe26-5e80-4032-bcc1-94cbee7088c0","ios":"levelo://app?vid=e231fe26-5e80-4032-bcc1-94cbee7088c0"},"vehicle_type_id":"4","last_reported":1727838862,"current_range_meters":38800,"station_id":"ce4bho92rcd13ifvqh3g","pricing_plan_id":"cebpf4jnsgd1na2vs0mg"},{"bike_id":"304eea07-ca6d-4788-a05c-a46512228cf5","system_id":"levelo_inurba_marseille","lat":43.31271,"lon":5.40169,"is_reserved":false,"is_disabled":false,"rental_uris":{"android":"levelo://app?vid=304eea07-ca6d-4788-a05c-a46512228cf5","ios":"levelo://app?vid=304eea07-ca6d-4788-a05c-a46512228cf5"},"vehicle_type_id":"4","last_reported":1727838862,"current_range_meters":16000,"station_id":"ce4bh092rcd13ifvqd30","pricing_plan_id":"cebpf4jnsgd1na2vs0mg"},{"bike_id":"aae274d4-174b-48df-8d7a-32f65846d636","system_id":"levelo_inurba_marseille","lat":43.27826,"lon":5.39211,"is_reserved":false,"is_disabled":false,"rental_uris":{"android":"levelo://app?vid=aae274d4-174b-48df-8d7a-32f65846d636","ios":"levelo://app?vid=aae274d4-174b-48df-8d7a-32f65846d636"},"vehicle_type_id":"4","last_reported":1727838862,"current_range_meters":38000,"station_id":"ce4bhjp2rcd13ifvqga0","pricing_plan_id":"cebpf4jnsgd1na2vs0mg"},{"bike_id":"4bc069e9-27cb-4e2c-9e2e-007bc95d2cfc","system_id":"levelo_inurba_marseille","lat":43.2923,"lon":5.36043,"is_reserved":false,"is_disabled":false,"rental_uris":{"android":"levelo://app?vid=4bc069e9-27cb-4e2c-9e2e-007bc95d2cfc","ios":"levelo://app?vid=4bc069e9-27cb-4e2c-9e2e-007bc95d2cfc"},"vehicle_type_id":"4","last_reported":1727838862,"current_range_meters":38800,"station_id":"ce4bhbh2rcd13ifvqeqg","pricing_plan_id":"cebpf4jnsgd1na2vs0mg"},{"bike_id":"d22ae321-847f-4577-8563-9e21e8a7db72","system_id":"levelo_inurba_marseille","lat":43.30779,"lon":5.37658,"is_reserved":false,"is_disabled":false,"rental_uris":{"android":"levelo://app?vid=d22ae321-847f-4577-8563-9e21e8a7db72","ios":"levelo://app?vid=d22ae321-847f-4577-8563-9e21e8a7db72"},"vehicle_type_id":"4","last_reported":1727838862,"current_range_meters":25200,"station_id":"ce4bgv92rcd13ifvqcq0","pricing_plan_id":"cebpf4jnsgd1na2vs0mg"},{"bike_id":"2ad48f66-d496-4774-9d3a-071b3547565a","system_id":"levelo_inurba_marseille","lat":43.30318,"lon":5.40441,"is_reserved":false,"is_disabled":false,"rental_uris":{"android":"levelo://app?vid=2ad48f66-d496-4774-9d3a-071b3547565a","ios":"levelo://app?vid=2ad48f66-d496-4774-9d3a-071b3547565a"},"vehicle_type_id":"4","last_reported":1727838862,"current_range_meters":3600,"station_id":"ce4bh012rcd13ifvqd10","pricing_plan_id":"cebpf4jnsgd1na2vs0mg"},{"bike_id":"70f74d0c-0a17-4007-9ccc-80f0aabb7627","system_id":"levelo_inurba_marseille","lat":43.2511,"lon":5.40329,"is_reserved":false,"is_disabled":false,"rental_uris":{"android":"levelo://app?vid=70f74d0c-0a17-4007-9ccc-80f0aabb7627","ios":"levelo://app?vid=70f74d0c-0a17-4007-9ccc-80f0aabb7627"},"vehicle_type_id":"4","last_reported":1727838862,"current_range_meters":38800,"station_id":"ce4bhlh2rcd13ifvqgig","pricing_plan_id":"cebpf4jnsgd1na2vs0mg"},{"bike_id":"6153c6e4-d604-478e-8e06-72f20b035027","system_id":"levelo_inurba_marseille","lat":43.28145,"lon":5.4265,"is_reserved":false,"is_disabled":false,"rental_uris":{"android":"levelo://app?vid=6153c6e4-d604-478e-8e06-72f20b035027","ios":"levelo://app?vid=6153c6e4-d604-478e-8e06-72f20b035027"},"vehicle_type_id":"4","last_reported":1727838862,"current_range_meters":37600,"station_id":"ce4bhnh2rcd13ifvqgug","pricing_plan_id":"cebpf4jnsgd1na2vs0mg"},{"bike_id":"8a9a5a88-54ba-43dc-8df1-8efce13be32e","system_id":"levelo_inurba_marseille","lat":43.27913,"lon":5.3958,"is_reserved":false,"is_disabled":false,"rental_uris":{"android":"levelo://app?vid=8a9a5a88-54ba-43dc-8df1-8efce13be32e","ios":"levelo://app?vid=8a9a5a88-54ba-43dc-8df1-8efce13be32e"},"vehicle_type_id":"4","last_reported":1727838862,"current_range_meters":38800,"station_id":"ce4bhf92rcd13ifvqf40","pricing_plan_id":"cebpf4jnsgd1na2vs0mg"},{"bike_id":"c070c241-857d-41ab-837e-b7196074f68c","system_id":"levelo_inurba_marseille","lat":43.29256,"lon":5.40903,"is_reserved":false,"is_disabled":false,"rental_uris":{"android":"levelo://app?vid=c070c241-857d-41ab-837e-b7196074f68c","ios":"levelo://app?vid=c070c241-857d-41ab-837e-b7196074f68c"},"vehicle_type_id":"4","last_reported":1727838862,"current_range_meters":38800,"station_id":"ce4bh192rcd13ifvqdc0","pricing_plan_id":"cebpf4jnsgd1na2vs0mg"},{"bike_id":"98f1a612-88d8-478b-ad87-9b7a044bda5e","system_id":"levelo_inurba_marseille","lat":43.29935,"lon":5.36548,"is_reserved":false,"is_disabled":false,"rental_uris":{"android":"levelo://app?vid=98f1a612-88d8-478b-ad87-9b7a044bda5e","ios":"levelo://app?vid=98f1a612-88d8-478b-ad87-9b7a044bda5e"},"vehicle_type_id":"4","last_reported":1727838862,"current_range_meters":10000,"station_id":"","pricing_plan_id":"cebpf4jnsgd1na2vs0mg"},{"bike_id":"f8cabb24-b291-43a7-b863-b2f6c298db17","system_id":"levelo_inurba_marseille","lat":43.30878,"lon":5.39638,"is_reserved":false,"is_disabled":false,"rental_uris":{"android":"levelo://app?vid=f8cabb24-b291-43a7-b863-b2f6c298db17","ios":"levelo://app?vid=f8cabb24-b291-43a7-b863-b2f6c298db17"},"vehicle_type_id":"4","last_reported":1727838862,"current_range_meters":8400,"station_id":"ce4bh012rcd13ifvqcv0","pricing_plan_id":"cebpf4jnsgd1na2vs0mg"},{"bike_id":"9e293ca7-6bf9-444f-b38f-f33855779b8c","system_id":"levelo_inurba_marseille","lat":43.26211,"lon":5.3744,"is_reserved":false,"is_disabled":false,"rental_uris":{"android":"levelo://app?vid=9e293ca7-6bf9-444f-b38f-f33855779b8c","ios":"levelo://app?vid=9e293ca7-6bf9-444f-b38f-f33855779b8c"},"vehicle_type_id":"4","last_reported":1727838862,"current_range_meters":20400,"station_id":"ce4bhgp2rcd13ifvqfc0","pricing_plan_id":"cebpf4jnsgd1na2vs0mg"},{"bike_id":"8ceb96fe-a74c-49c6-8577-bc4076ef5c3c","system_id":"levelo_inurba_marseille","lat":43.32289,"lon":5.3827,"is_reserved":false,"is_disabled":false,"rental_uris":{"android":"levelo://app?vid=8ceb96fe-a74c-49c6-8577-bc4076ef5c3c","ios":"levelo://app?vid=8ceb96fe-a74c-49c6-8577-bc4076ef5c3c"},"vehicle_type_id":"4","last_reported":1727838862,"current_range_meters":8000,"station_id":"ce4bhr12rcd13ifvqhqg","pricing_plan_id":"cebpf4jnsgd1na2vs0mg"},{"bike_id":"b6291581-2ff7-490c-bf63-5c7ac8cc3675","system_id":"levelo_inurba_marseille","lat":43.30658,"lon":5.40078,"is_reserved":false,"is_disabled":false,"rental_uris":{"android":"levelo://app?vid=b6291581-2ff7-490c-bf63-5c7ac8cc3675","ios":"levelo://app?vid=b6291581-2ff7-490c-bf63-5c7ac8cc3675"},"vehicle_type_id":"4","last_reported":1727838862,"current_range_meters":39200,"station_id":"ce4bh112rcd13ifvqda0","pricing_plan_id":"cebpf4jnsgd1na2vs0mg"},{"bike_id":"068ac22d-0be2-4830-b85b-0ccfef6f4428","system_id":"levelo_inurba_marseille","lat":43.29096,"lon":5.38138,"is_reserved":false,"is_disabled":false,"rental_uris":{"android":"levelo://app?vid=068ac22d-0be2-4830-b85b-0ccfef6f4428","ios":"levelo://app?vid=068ac22d-0be2-4830-b85b-0ccfef6f4428"},"vehicle_type_id":"4","last_reported":1727838862,"current_range_meters":38800,"station_id":"ce4bh512rcd13ifvqe2g","pricing_plan_id":"cebpf4jnsgd1na2vs0mg"},