{"last_updated":1702051748,"ttl":30,"version":"2.2","data":{"bikes":[{"bike_id":"296ea10d-c615-4e77-99a9-074e40e7dcb6","system_id":"levelo_inurba_marseille","lat":43.314993,"lon":5.37302,"is_reserved":false,"is_disabled":false,"rental_uris":{"android":"levelo://app?vid=296ea10d-c615-4e77-99a9-074e40e7dcb6","ios":"levelo://app?vid=296ea10d-c615-4e77-99a9-074e40e7dcb6"},"vehicle_type_id":"4","last_reported":1702051748,"current_range_meters":14800,"station_id":"ce4bgt12rcd13ifvqcd0","pricing_plan_id":"free"},{"bike_id":"e5a2fd73-5f0b-4fb8-9069-bd029200a176","system_id":"levelo_inurba_marseille","lat":43.3149,"lon":5.37314,"is_reserved":false,"is_disabled":false,"rental_uris":{"android":"levelo://app?vid=e5a2fd73-5f0b-4fb8-9069-bd029200a176","ios":"levelo://app?vid=e5a2fd73-5f0b-4fb8-9069-bd029200a176"},"vehicle_type_id":"4","last_reported":1702051748,"current_range_meters":3600,"station_id":"ce4bgt12rcd13ifvqcd0","pricing_plan_id":"free"},{"bike_id":"049093b2-9a96-4071-9e11-917e92621d35","system_id":"levelo_inurba_marseille","lat":43.309039,"lon":5.371797,"is_reserved":false,"is_disabled":false,"rental_uris":{"android":"levelo://app?vid=049093b2-9a96-4071-9e11-917e92621d35","ios":"levelo://app?vid=049093b2-9a96-4071-9e11-917e92621d35"},"vehicle_type_id":"4","last_reported":1702051748,"current_range_meters":26400,"station_id":"ce4bguh2rcd13ifvqckg","pricing_plan_id":"free"},{"bike_id":"2f72653c-77b3-41ca-a34a-d30950e5bc7a","system_id":"levelo_inurba_marseille","lat":43.315403,"lon":5.373175,"is_reserved":false,"is_disabled":false,"rental_uris":{"android":"levelo://app?vid=2f72653c-77b3-41ca-a34a-d30950e5bc7a","ios":"levelo://app?vid=2f72653c-77b3-41ca-a34a-d30950e5bc7a"},"vehicle_type_id":"4","last_reported":1702051748,"current_range_meters":30400,"station_id":"","pricing_plan_id":"free"},{"bike_id":"83399edd-b2c6-4873-ba11-c983b1544887","system_id":"levelo_inurba_marseille","lat":43.309039,"lon":5.371797,"is_reserved":false,"is_disabled":false,"rental_uris":{"android":"levelo://app?vid=83399edd-b2c6-4873-ba11-c983b1544887","ios":"levelo://app?vid=83399edd-b2c6-4873-ba11-c983b1544887"},"vehicle_type_id":"4","last_reported":1702051748,"current_range_meters":20800,"station_id":"ce4bguh2rcd13ifvqckg","pricing_plan_id":"free"},{"bike_id":"678096b1-0f8d-40cd-b7d4-bc465121ef0a","system_id":"levelo_inurba_marseille","lat":43.305712,"lon":5.365641,"is_reserved":false,"is_disabled":false,"rental_uris":{"android":"levelo://app?vid=678096b1-0f8d-40cd-b7d4-bc465121ef0a","ios":"levelo://app?vid=678096b1-0f8d-40cd-b7d4-bc465121ef0a"},"vehicle_type_id":"4","last_reported":1702051748,"current_range_meters":18400,"station_id":"ce4bgs12rcd13ifvqcag","pricing_plan_id":"free"},{"bike_id":"5bc14267-8635-4c66-8d62-8826a3e90c95","system_id":"levelo_inurba_marseille","lat":43.30538,"lon":5.36699,"is_reserved":false,"is_disabled":false,"rental_uris":{"android":"levelo://app?vid=5bc14267-8635-4c66-8d62-8826a3e90c95","ios":"levelo://app?vid=5bc14267-8635-4c66-8d62-8826a3e90c95"},"vehicle_type_id":"4","last_reported":1702051748,"current_range_meters":4800,"station_id":"ce4bgrp2rcd13ifvqc9g","pricing_plan_id":"free"},{"bike_id":"0e37f57c-6596-4388-8075-e39c7c21bd55","system_id":"levelo_inurba_marseille","lat":43.305706,"lon":5.365654,"is_reserved":false,"is_disabled":false,"rental_uris":{"android":"levelo://app?vid=0e37f57c-6596-4388-8075-e39c7c21bd55","ios":"levelo://app?vid=0e37f57c-6596-4388-8075-e39c7c21bd55"},"vehicle_type_id":"4","last_reported":1702051748,"current_range_meters":9200,"station_id":"ce4bgs12rcd13ifvqcag","pricing_plan_id":"free"},{"bike_id":"67ad06a9-9190-438d-a667-8fdb4673b387","system_id":"levelo_inurba_marseille","lat":43.305706,"lon":5.365654,"is_reserved":false,"is_disabled":false,"rental_uris":{"android":"levelo://app?vid=67ad06a9-9190-438d-a667-8fdb4673b387","ios":"levelo://app?vid=67ad06a9-9190-438d-a667-8fdb4673b387"},"vehicle_type_id":"4","last_reported":1702051748,"current_range_meters":0,"station_id":"ce4bgs12rcd13ifvqcag","pricing_plan_id":"free"},{"bike_id":"55b0ee7c-b6ca-4349-8eb6-fa5e8a88cfa2","system_id":"levelo_inurba_marseille","lat":43.305706,"lon":5.365654,"is_reserved":false,"is_disabled":false,"rental_uris":{"android":"levelo://app?vid=55b0ee7c-b6ca-4349-8eb6-fa5e8a88cfa2","ios":"levelo://app?vid=55b0ee7c-b6ca-4349-8eb6-fa5e8a88cfa2"},"vehicle_type_id":"4","last_reported":1702051748,"current_range_meters":14000,"station_id":"ce4bgs12rcd13ifvqcag","pricing_plan_id":"free"},{"bike_id":"eb030dfa-1afe-4ed5-86a7-eb7153190499","system_id":"levelo_inurba_marseille","lat":43.305989,"lon":5.37225,"is_reserved":false,"is_disabled":false,"rental_uris":{"android":"levelo://app?vid=eb030dfa-1afe-4ed5-86a7-eb7153190499","ios":"levelo://app?vid=eb030dfa-1afe-4ed5-86a7-eb7153190499"},"vehicle_type_id":"4","last_reported":1702051748,"current_range_meters":9600,"station_id":"ce4bgqh2rcd13ifvqc4g","pricing_plan_id":"free"},{"bike_id":"94ce0f1b-dc15-44b2-a9a9-f75243696450","system_id":"levelo_inurba_marseille","lat":43.305989,"lon":5.37225,"is_reserved":false,"is_disabled":false,"rental_uris":{"android":"levelo://app?vid=94ce0f1b-dc15-44b2-a9a9-f75243696450","ios":"levelo://app?vid=94ce0f1b-dc15-44b2-a9a9-f75243696450"},"vehicle_type_id":"4","last_reported":1702051748,"current_range_meters":20400,"station_id":"ce4bgqh2rcd13ifvqc4g","pricing_plan_id":"free"},{"bike_id":"38b5fd07-5319-44c1-852f-c18ae35fa6b0","system_id":"levelo_inurba_marseille","lat":43.31117,"lon":5.37771,"is_reserved":false,"is_disabled":false,"rental_uris":{"android":"levelo://app?vid=38b5fd07-5319-44c1-852f-c18ae35fa6b0","ios":"levelo://app?vid=38b5fd07-5319-44c1-852f-c18ae35fa6b0"},"vehicle_type_id":"4","last_reported":1702051748,"current_range_meters":7600,"station_id":"ce4bgt92rcd13ifvqcg0","pricing_plan_id":"free"},{"bike_id":"82b8835d-da1f-44fc-aec7-a14d54ff56f6","system_id":"levelo_inurba_marseille","lat":43.311131,"lon":5.377651,"is_reserved":false,"is_disabled":false,"rental_uris":{"android":"levelo://app?vid=82b8835d-da1f-44fc-aec7-a14d54ff56f6","ios":"levelo://app?vid=82b8835d-da1f-44fc-aec7-a14d54ff56f6"},"vehicle_type_id":"4","last_reported":1702051748,"current_range_meters":20000,"station_id":"ce4bgt92rcd13ifvqcg0","pricing_plan_id":"free"},{"bike_id":"36576a7f-d8da-4064-b029-2b029b8ed37b","system_id":"levelo_inurba_marseille","lat":43.311131,"lon":5.377651,"is_reserved":false,"is_disabled":false,"rental_uris":{"android":"levelo://app?vid=36576a7f-d8da-4064-b029-2b029b8ed37b","ios":"levelo://app?vid=36576a7f-d8da-4064-b029-2b029b8ed37b"},"vehicle_type_id":"4","last_reported":1702051748,"current_range_meters":26000,"station_id":"ce4bgt92rcd13ifvqcg0","pricing_plan_id":"free"},{"bike_id":"1ea60f58-75f7-4484-b705-1156df4b02ad","system_id":"levelo_inurba_marseille","lat":43.302846,"lon":5.373321,"is_reserved":false,"is_disabled":false,"rental_uris":{"android":"levelo://app?vid=1ea60f58-75f7-4484-b705-1156df4b02ad","ios":"levelo://app?vid=1ea60f58-75f7-4484-b705-1156df4b02ad"},"vehicle_type_id":"4","last_reported":1702051748,"current_range_meters":0,"station_id":"","pricing_plan_id":"free"},{"bike_id":"3b137b43-ed0b-4ad0-b929-a77e81a19aaa","system_id":"levelo_inurba_marseille","lat":43.304606,"lon":5.379026,"is_reserved":false,"is_disabled":false,"rental_uris":{"android":"levelo://app?vid=3b137b43-ed0b-4ad0-b929-a77e81a19aaa","ios":"levelo://app?vid=3b137b43-ed0b-4ad0-b929-a77e81a19aaa"},"vehicle_type_id":"4","last_reported":1702051748,"current_range_meters":6000,"station_id":"ce4bgup2rcd13ifvqcn0","pricing_plan_id":"free"},{"bike_id":"a49b99ee-38eb-49b5-978d-00cf198fff08","system_id":"levelo_inurba_marseille","lat":43.29961,"lon":5.36632,"is_reserved":false,"is_disabled":false,"rental_uris":{"android":"levelo://app?vid=a49b99ee-38eb-49b5-978d-00cf198fff08","ios":"levelo://app?vid=a49b99ee-38eb-49b5-978d-00cf198fff08"},"vehicle_type_id":"4","last_reported":1702051748,"current_range_meters":19200,"station_id":"","pricing_plan_id":"free"},{"bike_id":"36c94862-f6fb-491f-b722-694b85a0c5e5","system_id":"levelo_inurba_marseille","lat":43.311722,"lon":5.387247,"is_reserved":false,"is_disabled":false,"rental_uris":{"android":"levelo://app?vid=36c94862-f6fb-491f-b722-694b85a0c5e5","ios":"levelo://app?vid=36c94862-f6fb-491f-b722-694b85a0c5e5"},"vehicle_type_id":"4","last_reported":1702051748,"current_range_meters":20400,"station_id":"ce4bgv12rcd13ifvqcp0","pricing_plan_id":"free"},{"bike_id":"dba466a3-b26c-487f-9437-6a3bf287206c","system_id":"levelo_inurba_marseille","lat":43.297163,"lon":5.365866,"is_reserved":false,"is_disabled":false,"rental_uris":{"android":"levelo://app?vid=dba466a3-b26c-487f-9437-6a3bf287206c","ios":"levelo://app?vid=dba466a3-b26c-487f-9437-6a3bf287206c"},"vehicle_type_id":"4","last_reported":1702051748,"current_range_meters":24800,"station_id":"ce4bgn12rcd13ifvqbt0","pricing_plan_id":"free"},{"bike_id":"92dc65d6-6823-4de3-93d4-056f738f090c","system_id":"levelo_inurba_marseille","lat":43.316538,"lon":5.38954,"is_reserved":false,"is_disabled":false,"rental_uris":{"android":"levelo://app?vid=92dc65d6-6823-4de3-93d4-056f738f090c","ios":"levelo://app?vid=92dc65d6-6823-4de3-93d4-056f738f090c"},"vehicle_type_id":"4","last_reported":1702051748,"current_range_meters":1200,"station_id":"","pricing_plan_id":"free"},{"bike_id":"f098618b-3a3f-4d6a-869c-10007672ae4a","system_id":"levelo_inurba_marseille","lat":43.296131,"lon":5.370791,"is_reserved":false,"is_disabled":false,"rental_uris":{"android":"levelo://app?vid=f098618b-3a3f-4d6a-869c-10007672ae4a","ios":"levelo://app?vid=f098618b-3a3f-4d6a-869c-10007672ae4a"},"vehicle_type_id":"4","last_reported":1702051748,"current_range_meters":28400,"station_id":"ce4bgnh2rcd13ifvqc0g","pricing_plan_id":"free"},{"bike_id":"cffd9772-dbec-4d1f-9662-92d3737e6aff","system_id":"levelo_inurba_marseille","lat":43.299028,"lon":5.381509,"is_reserved":false,"is_disabled":false,"rental_uris":{"android":"levelo://app?vid=cffd9772-dbec-4d1f-9662-92d3737e6aff","ios":"levelo://app?vid=cffd9772-dbec-4d1f-9662-92d3737e6aff"},"vehicle_type_id":"4","last_reported":1702051748,"current_range_meters":22000,"station_id":"ce4bgj12rcd13ifvqbc0","pricing_plan_id":"free"},{"bike_id":"15fb3e7c-764b-43ce-ace8-6a7cab1e8455","system_id":"levelo_inurba_marseille","lat":43.317557,"lon":5.390173,"is_reserved":false,"is_disabled":false,"rental_uris":{"android":"levelo://app?vid=15fb3e7c-764b-43ce-ace8-6a7cab1e8455","ios":"levelo://app?vid=15fb3e7c-764b-43ce-ace8-6a7cab1e8455"},"vehicle_type_id":"4","last_reported":1702051748,"current_range_meters":20400,"station_id":"ce4bhqp2rcd13ifvqhng","pricing_plan_id":"free"},{"bike_id":"1ac0b244-68f8-45b7-8d82-864156d78203","system_id":"levelo_inurba_marseille","lat":43.317557,"lon":5.390173,"is_reserved":false,"is_disabled":false,"rental_uris":{"android":"levelo://app?vid=1ac0b244-68f8-45b7-8d82-864156d78203","ios":"levelo://app?vid=1ac0b244-68f8-45b7-8d82-864156d78203"},"vehicle_type_id":"4","last_reported":1702051748,"current_range_meters":29600,"station_id":"ce4bhqp2rcd13ifvqhng","pricing_plan_id":"free"},{"bike_id":"bc5a607e-fcde-43dd-8bc8-6de5989826e9","system_id":"levelo_inurba_marseille","lat":43.317557,"lon":5.390173,"is_reserved":false,"is_disabled":false,"rental_uris":{"android":"levelo://app?vid=bc5a607e-fcde-43dd-8bc8-6de5989826e9","ios":"levelo://app?vid=bc5a607e-fcde-43dd-8bc8-6de5989826e9"},"vehicle_type_id":"4","last_reported":1702051748,"current_range_meters":25600,"station_id":"ce4bhqp2rcd13ifvqhng","pricing_plan_id":"free"},{"bike_id":"e31ac2bc-6fce-4727-9792-1ae917cc21d0","system_id":"levelo_inurba_marseille","lat":43.298037,"lon":5.381066,"is_reserved":false,"is_disabled":false,"rental_uris":{"android":"levelo://app?vid=e31ac2bc-6fce-4727-9792-1ae917cc21d0","ios":"levelo://app?vid=e31ac2bc-6fce-4727-9792-1ae917cc21d0"},"vehicle_type_id":"4","last_reported":1702051748,"current_range_meters":13600,"station_id":"ce4bgip2rcd13ifvqbb0","pricing_plan_id":"free"},{"bike_id":"8ba07a2e-101b-4b8a-b1a2-2ab334c80b88","system_id":"levelo_inurba_marseille","lat":43.298037,"lon":5.381066,"is_reserved":false,"is_disabled":false,"rental_uris":{"android":"levelo://app?vid=8ba07a2e-101b-4b8a-b1a2-2ab334c80b88","ios":"levelo://app?vid=8ba07a2e-101b-4b8a-b1a2-2ab334c80b88"},"vehicle_type_id":"4","last_reported":1702051748,"current_range_meters":19600,"station_id":"ce4bgip2rcd13ifvqbb0","pricing_plan_id":"free"},{"bike_id":"74e9d595-bf31-4dea-a2cd-91326a512a65","system_id":"levelo_inurba_marseille","lat":43.298037,"lon":5.381066,"is_reserved":false,"is_disabled":false,"rental_uris":{"android":"levelo://app?vid=74e9d595-bf31-4dea-a2cd-91326a512a65","ios":"levelo://app?vid=74e9d595-bf31-4dea-a2cd-91326a512a65"},"vehicle_type_id":"4","last_reported":1702051748,"current_range_meters":13600,"station_id":"ce4bgip2rcd13ifvqbb0","pricing_plan_id":"free"},{"bike_id":"57157305-77ef-4c8f-aa64-d9cfd328732b","system_id":"levelo_inurba_marseille","lat":43.298037,"lon":5.381066,"is_reserved":false,"is_disabled":false,"rental_uris":{"android":"levelo://app?vid=57157305-77ef-4c8f-aa64-d9cfd328732b","ios":"levelo://app?vid=57157305-77ef-4c8f-aa64-d9cfd328732b"},"vehicle_type_id":"4","last_reported":1702051748,"current_range_meters":7200,"station_id":"ce4bgip2rcd13ifvqbb0","pricing_plan_id":"free"},{"bike_id":"331fa4d4-a276-43d2-83a2-45623e803c01","system_id":"levelo_inurba_marseille","lat":43.305994,"lon":5.393687,"is_reserved":false,"is_disabled":false,"rental_uris":{"android":"levelo://app?vid=331fa4d4-a276-43d2-83a2-45623e803c01","ios":"levelo://app?vid=331fa4d4-a276-43d2-83a2-45623e803c01"},"vehicle_type_id":"4","last_reported":1702051748,"current_range_meters":7200,"station_id":"ce4bh0p2rcd13ifvqd80","pricing_plan_id":"free"},{"bike_id":"33de1db2-28ae-420a-ab40-56556394410b","system_id":"levelo_inurba_marseille","lat":43.2989,"lon":5.38902,"is_reserved":false,"is_disabled":false,"rental_uris":{"android":"levelo://app?vid=33de1db2-28ae-420a-ab40-56556394410b","ios":"levelo://app?vid=33de1db2-28ae-420a-ab40-56556394410b"},"vehicle_type_id":"4","last_reported":1702051748,"current_range_meters":16000,"station_id":"","pricing_plan_id":"free"},{"bike_id":"cd85b6bb-faaa-4c69-b16f-fd8f7b902138","system_id":"levelo_inurba_marseille","lat":43.29889,"lon":5.38901,"is_reserved":false,"is_disabled":false,"rental_uris":{"android":"levelo://app?vid=cd85b6bb-faaa-4c69-b16f-fd8f7b902138","ios":"levelo://app?vid=cd85b6bb-faaa-4c69-b16f-fd8f7b902138"},"vehicle_type_id":"4","last_reported":1702051748,"current_range_meters":19200,"station_id":"","pricing_plan_id":"free"},{"bike_id":"d26678d2-3a95-4b23-9276-772334705b3f","system_id":"levelo_inurba_marseille","lat":43.29893,"lon":5.38907,"is_reserved":false,"is_disabled":false,"rental_uris":{"android":"levelo://app?vid=d26678d2-3a95-4b23-9276-772334705b3f","ios":"levelo://app?vid=d26678d2-3a95-4b23-9276-772334705b3f"},"vehicle_type_id":"4","last_reported":1702051748,"current_range_meters":14000,"station_id":"","pricing_plan_id":"free"},{"bike_id":"a239753e-f563-4ff9-92df-88cefd618ada","system_id":"levelo_inurba_marseille","lat":43.298713,"lon":5.389093,"is_reserved":false,"is_disabled":false,"rental_uris":{"android":"levelo://app?vid=a239753e-f563-4ff9-92df-88cefd618ada","ios":"levelo://app?vid=a239753e-f563-4ff9-92df-88cefd618ada"},"vehicle_type_id":"4","last_reported":1702051748,"current_range_meters":18000,"station_id":"","pricing_plan_id":"free"},{"bike_id":"98772761-cd24-4e62-8027-9afc7b4d1a86","system_id":"levelo_inurba_marseille","lat":43.309038,"lon":5.396546,"is_reserved":false,"is_disabled":false,"rental_uris":{"android":"levelo://app?vid=98772761-cd24-4e62-8027-9afc7b4d1a86","ios":"levelo://app?vid=98772761-cd24-4e62-8027-9afc7b4d1a86"},"vehicle_type_id":"4","last_reported":1702051748,"current_range_meters":22000,"station_id":"ce4bh012rcd13ifvqcv0","pricing_plan_id":"free"},{"bike_id":"89ae7590-5c3e-4bc4-a7e6-b15e755263a0","system_id":"levelo_inurba_marseille","lat":43.29187,"lon":5.35797,"is_reserved":false,"is_disabled":false,"rental_uris":{"android":"levelo://app?vid=89ae7590-5c3e-4bc4-a7e6-b15e755263a0","ios":"levelo://app?vid=89ae7590-5c3e-4bc4-a7e6-b15e755263a0"},"vehicle_type_id":"4","last_reported":1702051748,"current_range_meters":20000,"station_id":"ce4bhb12rcd13ifvqel0","pricing_plan_id":"free"},{"bike_id":"cdc3d1d1-4c71-4e8f-ae7c-8f5bac14295c","system_id":"levelo_inurba_marseille","lat":43.309038,"lon":5.396546,"is_reserved":false,"is_disabled":false,"rental_uris":{"android":"levelo://app?vid=cdc3d1d1-4c71-4e8f-ae7c-8f5bac14295c","ios":"levelo://app?vid=cdc3d1d1-4c71-4e8f-ae7c-8f5bac14295c"},"vehicle_type_id":"4","last_reported":1702051748,"current_range_meters":5200,"station_id":"ce4bh012rcd13ifvqcv0","pricing_plan_id":"free"},{"bike_id":"90effa13-d42c-406d-898e-ad8e4f0a0908","system_id":"levelo_inurba_marseille","lat":43.29528,"lon":5.38545,"is_reserved":false,"is_disabled":false,"rental_uris":{"android":"levelo://app?vid=90effa13-d42c-406d-898e-ad8e4f0a0908","ios":"levelo://app?vid=90effa13-d42c-406d-898e-ad8e4f0a0908"},"vehicle_type_id":"4","last_reported":1702051748,"current_range_meters":0,"station_id":"ce4bgih2rcd13ifvqba0","pricing_plan_id":"free"},{"bike_id":"4d92bfe5-28cb-4769-822a-6a99b859e4cd","system_id":"levelo_inurba_marseille","lat":43.302008,"lon":5.394694,"is_reserved":false,"is_disabled":false,"rental_uris":{"android":"levelo://app?vid=4d92bfe5-28cb-4769-822a-6a99b859e4cd","ios":"levelo://app?vid=4d92bfe5-28cb-4769-822a-6a99b859e4cd"},"vehicle_type_id":"4","last_reported":1702051748,"current_range_meters":15200,"station_id":"ce4bh0p2rcd13ifvqd70","pricing_plan_id":"free"},{"bike_id":"bfcd77c0-96c5-4197-815b-9891cc936dd0","system_id":"levelo_inurba_marseille","lat":43.290161,"lon":5.375651,"is_reserved":false,"is_disabled":false,"rental_uris":{"android":"levelo://app?vid=bfcd77c0-96c5-4197-815b-9891cc936dd0","ios":"levelo://app?vid=bfcd77c0-96c5-4197-815b-9891cc936dd0"},"vehicle_type_id":"4","last_reported":1702051748,"current_range_meters":16800,"station_id":"","pricing_plan_id":"free"},{"bike_id":"a02a1b20-1fb1-4951-988a-77389649024d","system_id":"levelo_inurba_marseille","lat":43.289259,"lon":5.366364,"is_reserved":false,"is_disabled":false,"rental_uris":{"android":"levelo://app?vid=a02a1b20-1fb1-4951-988a-77389649024d","ios":"levelo://app?vid=a02a1b20-1fb1-4951-988a-77389649024d"},"vehicle_type_id":"4","last_reported":1702051748,"current_range_meters":15600,"station_id":"","pricing_plan_id":"free"},{"bike_id":"200a7768-c0bb-4fd5-ad2d-fd132a96e5b6","system_id":"levelo_inurba_marseille","lat":43.290103,"lon":5.356114,"is_reserved":false,"is_disabled":false,"rental_uris":{"android":"levelo://app?vid=200a7768-c0bb-4fd5-ad2d-fd132a96e5b6","ios":"levelo://app?vid=200a7768-c0bb-4fd5-ad2d-fd132a96e5b6"},"vehicle_type_id":"4","last_reported":1702051748,"current_range_meters":30800,"station_id":"ce4bhb92rcd13ifvqen0","pricing_plan_id":"free"},{"bike_id":"e5d48a4e-3473-4941-a064-e7019fc4501a","system_id":"levelo_inurba_marseille","lat":43.309199,"lon":5.401479,"is_reserved":false,"is_disabled":false,"rental_uris":{"android":"levelo://app?vid=e5d48a4e-3473-4941-a064-e7019fc4501a","ios":"levelo://app?vid=e5d48a4e-3473-4941-a064-e7019fc4501a"},"vehicle_type_id":"4","last_reported":1702051748,"current_range_meters":30400,"station_id":"ce4bgvp2rcd13ifvqct0","pricing_plan_id":"free"},{"bike_id":"19d9d781-0523-41f1-ac1f-4a2e8dd7da29","system_id":"levelo_inurba_marseille","lat":43.30636,"lon":5.40095,"is_reserved":false,"is_disabled":false,"rental_uris":{"android":"levelo://app?vid=19d9d781-0523-41f1-ac1f-4a2e8dd7da29","ios":"levelo://app?vid=19d9d781-0523-41f1-ac1f-4a2e8dd7da29"},"vehicle_type_id":"4","last_reported":1702051748,"current_range_meters":29200,"station_id":"ce4bh112rcd13ifvqda0","pricing_plan_id":"free"},{"bike_id":"158b8f8c-dfa1-41f0-97d0-9913799eae43","system_id":"levelo_inurba_marseille","lat":43.301117,"lon":5.398795,"is_reserved":false,"is_disabled":false,"rental_uris":{"android":"levelo://app?vid=158b8f8c-dfa1-41f0-97d0-9913799eae43","ios":"levelo://app?vid=158b8f8c-dfa1-41f0-97d0-9913799eae43"},"vehicle_type_id":"4","last_reported":1702051748,"current_range_meters":6400,"station_id":"ce4bh0h2rcd13ifvqd40","pricing_plan_id":"free"},{"bike_id":"85f19c5a-e986-4abb-b282-170530ad3ffe","system_id":"levelo_inurba_marseille","lat":43.295196,"lon":5.39397,"is_reserved":false,"is_disabled":false,"rental_uris":{"android":"levelo://app?vid=85f19c5a-e986-4abb-b282-170530ad3ffe","ios":"levelo://app?vid=85f19c5a-e986-4abb-b282-170530ad3ffe"},"vehicle_type_id":"4","last_reported":1702051748,"current_range_meters":8800,"station_id":"ce4bh292rcd13ifvqdf0","pricing_plan_id":"free"},{"bike_id":"c0a69faf-4d35-4e0c-b3d3-b2fc6ac07f3f","system_id":"levelo_inurba_marseille","lat":43.286961,"lon":5.373785,"is_reserved":false,"is_disabled":false,"rental_uris":{"android":"levelo://app?vid=c0a69faf-4d35-4e0c-b3d3-b2fc6ac07f3f","ios":"levelo://app?vid=c0a69faf-4d35-4e0c-b3d3-b2fc6ac07f3f"},"vehicle_type_id":"4","last_reported":1702051748,"current_range_meters":4400,"station_id":"ce4bh3p2rcd13ifvqdq0","pricing_plan_id":"free"},{"bike_id":"6b0a11b2-8e5f-484c-bf84-919b05e6e31e","system_id":"levelo_inurba_marseille","lat":43.290345,"lon":5.38646,"is_reserved":false,"is_disabled":false,"rental_uris":{"android":"levelo://app?vid=6b0a11b2-8e5f-484c-bf84-919b05e6e31e","ios":"levelo://app?vid=6b0a11b2-8e5f-484c-bf84-919b05e6e31e"},"vehicle_type_id":"4","last_reported":1702051748,"current_range_meters":20800,"station_id":"ce4bh4p2rcd13ifvqe0g","pricing_plan_id":"free"},{"bike_id":"10fc081b-0f8a-4c77-bae3-90d09bccc687","system_id":"levelo_inurba_marseille","lat":43.28633,"lon":5.37256,"is_reserved":false,"is_disabled":false,"rental_uris":{"android":"levelo://app?vid=10fc081b-0f8a-4c77-bae3-90d09bccc687","ios":"levelo://app?vid=10fc081b-0f8a-4c77-bae3-90d09bccc687"},"vehicle_type_id":"4","last_reported":1702051748,"current_range_meters":24000,"station_id":"","pricing_plan_id":"free"},{"bike_id":"30f946f0-c7cb-462e-bff2-dc4805d2693d","system_id":"levelo_inurba_marseille","lat":43.286039,"lon":5.370681,"is_reserved":false,"is_disabled":false,"rental_uris":{"android":"levelo://app?vid=30f946f0-c7cb-462e-bff2-dc4805d2693d","ios":"levelo://app?vid=30f946f0-c7cb-462e-bff2-dc4805d2693d"},"vehicle_type_id":"4","last_reported":1702051748,"current_range_meters":15200,"station_id":"ce4bht12rcd13ifvqi60","pricing_plan_id":"free"},{"bike_id":"85081bf8-870d-4539-92ff-e94f394f41b9","system_id":"levelo_inurba_marseille","lat":43.316821,"lon":5.404737,"is_reserved":false,"is_disabled":false,"rental_uris":{"android":"levelo://app?vid=85081bf8-870d-4539-92ff-e94f394f41b9","ios":"levelo://app?vid=85081bf8-870d-4539-92ff-e94f394f41b9"},"vehicle_type_id":"4","last_reported":1702051748,"current_range_meters":26400,"station_id":"ce4bh012rcd13ifvqd00","pricing_plan_id":"free"},{"bike_id":"83b2d4e4-141b-4b4f-b81d-aed24ea145f2","system_id":"levelo_inurba_marseille","lat":43.284538,"lon":5.358657,"is_reserved":false,"is_disabled":false,"rental_uris":{"android":"levelo://app?vid=83b2d4e4-141b-4b4f-b81d-aed24ea145f2","ios":"levelo://app?vid=83b2d4e4-141b-4b4f-b81d-aed24ea145f2"},"vehicle_type_id":"4","last_reported":1702051748,"current_range_meters":20800,"station_id":"ce4bhah2rcd13ifvqei0","pricing_plan_id":"free"},{"bike_id":"60f4f19d-d1ee-4640-a56f-d452b84b628a","system_id":"levelo_inurba_marseille","lat":43.29446,"lon":5.39749,"is_reserved":false,"is_disabled":false,"rental_uris":{"android":"levelo://app?vid=60f4f19d-d1ee-4640-a56f-d452b84b628a","ios":"levelo://app?vid=60f4f19d-d1ee-4640-a56f-d452b84b628a"},"vehicle_type_id":"4","last_reported":1702051748,"current_range_meters":25200,"station_id":"ce4bh3h2rcd13ifvqdo0","pricing_plan_id":"free"},{"bike_id":"fbb031a8-aa08-4283-97d9-34fa8be8a755","system_id":"levelo_inurba_marseille","lat":43.294314,"lon":5.397498,"is_reserved":false,"is_disabled":false,"rental_uris":{"android":"levelo://app?vid=fbb031a8-aa08-4283-97d9-34fa8be8a755","ios":"levelo://app?vid=fbb031a8-aa08-4283-97d9-34fa8be8a755"},"vehicle_type_id":"4","last_reported":1702051748,"current_range_meters":23200,"station_id":"ce4bh3h2rcd13ifvqdo0","pricing_plan_id":"free"},{"bike_id":"3de0270f-fef0-443e-aedf-7abe1214c613","system_id":"levelo_inurba_marseille","lat":43.28615,"lon":5.35102,"is_reserved":false,"is_disabled":false,"rental_uris":{"android":"levelo://app?vid=3de0270f-fef0-443e-aedf-7abe1214c613","ios":"levelo://app?vid=3de0270f-fef0-443e-aedf-7abe1214c613"},"vehicle_type_id":"4","last_reported":1702051748,"current_range_meters":28000,"station_id":"ce4bhch2rcd13ifvqeug","pricing_plan_id":"free"},{"bike_id":"e14a1ad5-01e1-4dfe-8353-190c8247e18c","system_id":"levelo_inurba_marseille","lat":43.283998,"lon":5.375062,"is_reserved":false,"is_disabled":false,"rental_uris":{"android":"levelo://app?vid=e14a1ad5-01e1-4dfe-8353-190c8247e18c","ios":"levelo://app?vid=e14a1ad5-01e1-4dfe-8353-190c8247e18c"},"vehicle_type_id":"4","last_reported":1702051748,"current_range_meters":12800,"station_id":"ce4bh412rcd13ifvqds0","pricing_plan_id":"free"},{"bike_id":"ae84f0b1-2c18-49e7-8de9-849e7fe7a86f","system_id":"levelo_inurba_marseille","lat":43.283998,"lon":5.375062,"is_reserved":false,"is_disabled":false,"rental_uris":{"android":"levelo://app?vid=ae84f0b1-2c18-49e7-8de9-849e7fe7a86f","ios":"levelo://app?vid=ae84f0b1-2c18-49e7-8de9-849e7fe7a86f"},"vehicle_type_id":"4","last_reported":1702051748,"current_range_meters":6800,"station_id":"ce4bh412rcd13ifvqds0","pricing_plan_id":"free"},{"bike_id":"478684b1-77de-469d-886b-c05d170f10ac","system_id":"levelo_inurba_marseille","lat":43.286595,"lon":5.386795,"is_reserved":false,"is_disabled":false,"rental_uris":{"android":"levelo://app?vid=478684b1-77de-469d-886b-c05d170f10ac","ios":"levelo://app?vid=478684b1-77de-469d-886b-c05d170f10ac"},"vehicle_type_id":"4","last_reported":1702051748,"current_range_meters":0,"station_id":"ce4bh492rcd13ifvqdug","pricing_plan_id":"free"},{"bike_id":"f49b1942-3f2b-4839-a00a-03cc16333620","system_id":"levelo_inurba_marseille","lat":43.319179,"lon":5.407725,"is_reserved":false,"is_disabled":false,"rental_uris":{"android":"levelo://app?vid=f49b1942-3f2b-4839-a00a-03cc16333620","ios":"levelo://app?vid=f49b1942-3f2b-4839-a00a-03cc16333620"},"vehicle_type_id":"4","last_reported":1702051748,"current_range_meters":22800,"station_id":"ce4bhq12rcd13ifvqhig","pricing_plan_id":"free"},{"bike_id":"2e32a882-5e17-4268-bab9-9d5280fd0b75","system_id":"levelo_inurba_marseille","lat":43.297946,"lon":5.404063,"is_reserved":false,"is_disabled":false,"rental_uris":{"android":"levelo://app?vid=2e32a882-5e17-4268-bab9-9d5280fd0b75","ios":"levelo://app?vid=2e32a882-5e17-4268-bab9-9d5280fd0b75"},"vehicle_type_id":"4","last_reported":1702051748,"current_range_meters":24800,"station_id":"ce4bh112rcd13ifvqd90","pricing_plan_id":"free"},{"bike_id":"b8385b6d-d9ba-49d8-a172-ab5da011ba85","system_id":"levelo_inurba_marseille","lat":43.283494,"lon":5.380945,"is_reserved":false,"is_disabled":false,"rental_uris":{"android":"levelo://app?vid=b8385b6d-d9ba-49d8-a172-ab5da011ba85","ios":"levelo://app?vid=b8385b6d-d9ba-49d8-a172-ab5da011ba85"},"vehicle_type_id":"4","last_reported":1702051748,"current_range_meters":3200,"station_id":"ce4bh412rcd13ifvqdr0","pricing_plan_id":"free"},{"bike_id":"8cd6cafd-a299-4567-9b39-f1357b48a049","system_id":"levelo_inurba_marseille","lat":43.29795,"lon":5.404086,"is_reserved":false,"is_disabled":false,"rental_uris":{"android":"levelo://app?vid=8cd6cafd-a299-4567-9b39-f1357b48a049","ios":"levelo://app?vid=8cd6cafd-a299-4567-9b39-f1357b48a049"},"vehicle_type_id":"4","last_reported":1702051748,"current_range_meters":13600,"station_id":"ce4bh112rcd13ifvqd90","pricing_plan_id":"free"},{"bike_id":"099d8551-7391-4404-85e1-352d07ea4b53","system_id":"levelo_inurba_marseille","lat":43.282754,"lon":5.350519,"is_reserved":false,"is_disabled":false,"rental_uris":{"android":"levelo://app?vid=099d8551-7391-4404-85e1-352d07ea4b53","ios":"levelo://app?vid=099d8551-7391-4404-85e1-352d07ea4b53"},"vehicle_type_id":"4","last_reported":1702051748,"current_range_meters":9200,"station_id":"ce4bhbp2rcd13ifvqerg","pricing_plan_id":"free"},{"bike_id":"4940d53b-eaa8-42d6-be55-9b5aa0f24aec","system_id":"levelo_inurba_marseille","lat":43.282744,"lon":5.350533,"is_reserved":false,"is_disabled":false,"rental_uris":{"android":"levelo://app?vid=4940d53b-eaa8-42d6-be55-9b5aa0f24aec","ios":"levelo://app?vid=4940d53b-eaa8-42d6-be55-9b5aa0f24aec"},"vehicle_type_id":"4","last_reported":1702051748,"current_range_meters":20000,"station_id":"ce4bhbp2rcd13ifvqerg","pricing_plan_id":"free"},{"bike_id":"f47c2fb4-d65e-4c31-b828-75706cab0e9c","system_id":"levelo_inurba_marseille","lat":43.283502,"lon":5.386471,"is_reserved":false,"is_disabled":false,"rental_uris":{"android":"levelo://app?vid=f47c2fb4-d65e-4c31-b828-75706cab0e9c","ios":"levelo://app?vid=f47c2fb4-d65e-4c31-b828-75706cab0e9c"},"vehicle_type_id":"4","last_reported":1702051748,"current_range_meters":21200,"station_id":"ce4bh492rcd13ifvqdvg","pricing_plan_id":"free"},{"bike_id":"7d6afa9a-2929-4189-ab76-6f7a34af73b3","system_id":"levelo_inurba_marseille","lat":43.280382,"lon":5.369291,"is_reserved":false,"is_disabled":false,"rental_uris":{"android":"levelo://app?vid=7d6afa9a-2929-4189-ab76-6f7a34af73b3","ios":"levelo://app?vid=7d6afa9a-2929-4189-ab76-6f7a34af73b3"},"vehicle_type_id":"4","last_reported":1702051748,"current_range_meters":10000,"station_id":"ce4bha12rcd13ifvqef0","pricing_plan_id":"free"},{"bike_id":"29a2c77f-95f2-4b60-b979-8c910c93dc24","system_id":"levelo_inurba_marseille","lat":43.28035,"lon":5.36948,"is_reserved":false,"is_disabled":false,"rental_uris":{"android":"levelo://app?vid=29a2c77f-95f2-4b60-b979-8c910c93dc24","ios":"levelo://app?vid=29a2c77f-95f2-4b60-b979-8c910c93dc24"},"vehicle_type_id":"4","last_reported":1702051748,"current_range_meters":16400,"station_id":"ce4bha12rcd13ifvqef0","pricing_plan_id":"free"},{"bike_id":"b330286f-daba-4b85-9b8c-f9bb88839019","system_id":"levelo_inurba_marseille","lat":43.296263,"lon":5.40601,"is_reserved":false,"is_disabled":false,"rental_uris":{"android":"levelo://app?vid=b330286f-daba-4b85-9b8c-f9bb88839019","ios":"levelo://app?vid=b330286f-daba-4b85-9b8c-f9bb88839019"},"vehicle_type_id":"4","last_reported":1702051748,"current_range_meters":4800,"station_id":"ce4bh0h2rcd13ifvqd60","pricing_plan_id":"free"},{"bike_id":"466d1f62-6287-4f87-b3e9-2b6da6386fab","system_id":"levelo_inurba_marseille","lat":43.284462,"lon":5.392121,"is_reserved":false,"is_disabled":false,"rental_uris":{"android":"levelo://app?vid=466d1f62-6287-4f87-b3e9-2b6da6386fab","ios":"levelo://app?vid=466d1f62-6287-4f87-b3e9-2b6da6386fab"},"vehicle_type_id":"4","last_reported":1702051748,"current_range_meters":22000,"station_id":"ce4bhoh2rcd13ifvqh5g","pricing_plan_id":"free"},{"bike_id":"19a7f62a-fb3e-4db7-8dac-523b9aa8cf1f","system_id":"levelo_inurba_marseille","lat":43.30427,"lon":5.41282,"is_reserved":false,"is_disabled":false,"rental_uris":{"android":"levelo://app?vid=19a7f62a-fb3e-4db7-8dac-523b9aa8cf1f","ios":"levelo://app?vid=19a7f62a-fb3e-4db7-8dac-523b9aa8cf1f"},"vehicle_type_id":"4","last_reported":1702051748,"current_range_meters":4400,"station_id":"ce4bhop2rcd13ifvqh8g","pricing_plan_id":"free"},{"bike_id":"d65553ac-ee9c-4109-be1f-96a40c12a7f6","system_id":"levelo_inurba_marseille","lat":43.279087,"lon":5.380114,"is_reserved":false,"is_disabled":false,"rental_uris":{"android":"levelo://app?vid=d65553ac-ee9c-4109-be1f-96a40c12a7f6","ios":"levelo://app?vid=d65553ac-ee9c-4109-be1f-96a40c12a7f6"},"vehicle_type_id":"4","last_reported":1702051748,"current_range_meters":1600,"station_id":"ce4bhf92rcd13ifvqf50","pricing_plan_id":"free"},{"bike_id":"21353717-0ebc-4941-8111-34c7a0b5fb53","system_id":"levelo_inurba_marseille","lat":43.280784,"lon":5.396622,"is_reserved":false,"is_disabled":false,"rental_uris":{"android":"levelo://app?vid=21353717-0ebc-4941-8111-34c7a0b5fb53","ios":"levelo://app?vid=21353717-0ebc-4941-8111-34c7a0b5fb53"},"vehicle_type_id":"4","last_reported":1702051748,"current_range_meters":21600,"station_id":"ce4bho12rcd13ifvqh2g","pricing_plan_id":"free"},{"bike_id":"07130f68-c833-419a-b5e3-bee856f8b55a","system_id":"levelo_inurba_marseille","lat":43.280784,"lon":5.396622,"is_reserved":false,"is_disabled":false,"rental_uris":{"android":"levelo://app?vid=07130f68-c833-419a-b5e3-bee856f8b55a","ios":"levelo://app?vid=07130f68-c833-419a-b5e3-bee856f8b55a"},"vehicle_type_id":"4","last_reported":1702051748,"current_range_meters":11200,"station_id":"ce4bho12rcd13ifvqh2g","pricing_plan_id":"free"},{"bike_id":"6ad22403-bbc6-4efa-aa5f-6853aff80cab","system_id":"levelo_inurba_marseille","lat":43.278401,"lon":5.392152,"is_reserved":false,"is_disabled":false,"rental_uris":{"android":"levelo://app?vid=6ad22403-bbc6-4efa-aa5f-6853aff80cab","ios":"levelo://app?vid=6ad22403-bbc6-4efa-aa5f-6853aff80cab"},"vehicle_type_id":"4","last_reported":1702051748,"current_range_meters":21200,"station_id":"ce4bhjp2rcd13ifvqga0","pricing_plan_id":"free"},{"bike_id":"6e24711e-3389-4d75-a83f-58b4fb82c429","system_id":"levelo_inurba_marseille","lat":43.278401,"lon":5.392152,"is_reserved":false,"is_disabled":false,"rental_uris":{"android":"levelo://app?vid=6e24711e-3389-4d75-a83f-58b4fb82c429","ios":"levelo://app?vid=6e24711e-3389-4d75-a83f-58b4fb82c429"},"vehicle_type_id":"4","last_reported":1702051748,"current_range_meters":23600,"station_id":"ce4bhjp2rcd13ifvqga0","pricing_plan_id":"free"},{"bike_id":"a006e67d-c3d9-44d9-92d4-bb2f81fe43d8","system_id":"levelo_inurba_marseille","lat":43.336148,"lon":5.410349,"is_reserved":false,"is_disabled":false,"rental_uris":{"android":"levelo://app?vid=a006e67d-c3d9-44d9-92d4-bb2f81fe43d8","ios":"levelo://app?vid=a006e67d-c3d9-44d9-92d4-bb2f81fe43d8"},"vehicle_type_id":"4","last_reported":1702051748,"current_range_meters":15600,"station_id":"ce4bhqh2rcd13ifvqhmg","pricing_plan_id":"free"},{"bike_id":"1d52fe4a-8990-4ce9-802b-41c3c99ab6cb","system_id":"levelo_inurba_marseille","lat":43.28003,"lon":5.40014,"is_reserved":false,"is_disabled":false,"rental_uris":{"android":"levelo://app?vid=1d52fe4a-8990-4ce9-802b-41c3c99ab6cb","ios":"levelo://app?vid=1d52fe4a-8990-4ce9-802b-41c3c99ab6cb"},"vehicle_type_id":"4","last_reported":1702051748,"current_range_meters":6400,"station_id":"ce4bho92rcd13ifvqh4g","pricing_plan_id":"free"},{"bike_id":"99b8ef6c-55b5-4a3d-8863-f3319b879bb5","system_id":"levelo_inurba_marseille","lat":43.279975,"lon":5.40009,"is_reserved":false,"is_disabled":false,"rental_uris":{"android":"levelo://app?vid=99b8ef6c-55b5-4a3d-8863-f3319b879bb5","ios":"levelo://app?vid=99b8ef6c-55b5-4a3d-8863-f3319b879bb5"},"vehicle_type_id":"4","last_reported":1702051748,"current_range_meters":25600,"station_id":"ce4bho92rcd13ifvqh4g","pricing_plan_id":"free"},{"bike_id":"f5e70149-67dc-4740-b3c1-a962989344b3","system_id":"levelo_inurba_marseille","lat":43.28001,"lon":5.40024,"is_reserved":false,"is_disabled":false,"rental_uris":{"android":"levelo://app?vid=f5e70149-67dc-4740-b3c1-a962989344b3","ios":"levelo://app?vid=f5e70149-67dc-4740-b3c1-a962989344b3"},"vehicle_type_id":"4","last_reported":1702051748,"current_range_meters":16000,"station_id":"ce4bho92rcd13ifvqh4g","pricing_plan_id":"free"},{"bike_id":"986e2640-07f1-4aaf-ae9d-a0bb0a20f26c","system_id":"levelo_inurba_marseille","lat":43.27998,"lon":5.40025,"is_reserved":false,"is_disabled":false,"rental_uris":{"android":"levelo://app?vid=986e2640-07f1-4aaf-ae9d-a0bb0a20f26c","ios":"levelo://app?vid=986e2640-07f1-4aaf-ae9d-a0bb0a20f26c"},"vehicle_type_id":"4","last_reported":1702051748,"current_range_meters":23600,"station_id":"ce4bho92rcd13ifvqh4g","pricing_plan_id":"free"},{"bike_id":"63133364-316e-458e-b234-bbd4926c63fc","system_id":"levelo_inurba_marseille","lat":43.27583,"lon":5.39474,"is_reserved":false,"is_disabled":false,"rental_uris":{"android":"levelo://app?vid=63133364-316e-458e-b234-bbd4926c63fc","ios":"levelo://app?vid=63133364-316e-458e-b234-bbd4926c63fc"},"vehicle_type_id":"4","last_reported":1702051748,"current_range_meters":12000,"station_id":"","pricing_plan_id":"free"},{"bike_id":"c9a354e1-cd47-4a73-9444-d6227e3bfab5","system_id":"levelo_inurba_marseille","lat":43.295511,"lon":5.422926,"is_reserved":false,"is_disabled":false,"rental_uris":{"android":"levelo://app?vid=c9a354e1-cd47-4a73-9444-d6227e3bfab5","ios":"levelo://app?vid=c9a354e1-cd47-4a73-9444-d6227e3bfab5"},"vehicle_type_id":"4","last_reported":1702051748,"current_range_meters":28400,"station_id":"ce4bhph2rcd13ifvqhdg","pricing_plan_id":"free"},{"bike_id":"8f021145-48f8-459b-aef0-f8921e18b0a0","system_id":"levelo_inurba_marseille","lat":43.27214,"lon":5.3925,"is_reserved":false,"is_disabled":false,"rental_uris":{"android":"levelo://app?vid=8f021145-48f8-459b-aef0-f8921e18b0a0","ios":"levelo://app?vid=8f021145-48f8-459b-aef0-f8921e18b0a0"},"vehicle_type_id":"4","last_reported":1702051748,"current_range_meters":4800,"station_id":"","pricing_plan_id":"free"},{"bike_id":"f79aec75-7dd5-4d47-abdd-9a6fe7ad60a6","system_id":"levelo_inurba_marseille","lat":43.278128,"lon":5.407195,"is_reserved":false,"is_disabled":false,"rental_uris":{"android":"levelo://app?vid=f79aec75-7dd5-4d47-abdd-9a6fe7ad60a6","ios":"levelo://app?vid=f79aec75-7dd5-4d47-abdd-9a6fe7ad60a6"},"vehicle_type_id":"4","last_reported":1702051748,"current_range_meters":6400,"station_id":"ce4bhnh2rcd13ifvqgtg","pricing_plan_id":"free"},{"bike_id":"a58e5991-9ccf-4dc6-8dee-ba123a327a16","system_id":"levelo_inurba_marseille","lat":43.269467,"lon":5.386439,"is_reserved":false,"is_disabled":false,"rental_uris":{"android":"levelo://app?vid=a58e5991-9ccf-4dc6-8dee-ba123a327a16","ios":"levelo://app?vid=a58e5991-9ccf-4dc6-8dee-ba123a327a16"},"vehicle_type_id":"4","last_reported":1702051748,"current_range_meters":2400,"station_id":"ce4bhh92rcd13ifvqfh0","pricing_plan_id":"free"},{"bike_id":"b643f462-7098-405a-be5c-a555a1986cf2","system_id":"levelo_inurba_marseille","lat":43.279465,"lon":5.410561,"is_reserved":false,"is_disabled":false,"rental_uris":{"android":"levelo://app?vid=b643f462-7098-405a-be5c-a555a1986cf2","ios":"levelo://app?vid=b643f462-7098-405a-be5c-a555a1986cf2"},"vehicle_type_id":"4","last_reported":1702051748,"current_range_meters":10000,"station_id":"ce4bhnp2rcd13ifvqh0g","pricing_plan_id":"free"},{"bike_id":"53efb278-8ce8-45e9-a87d-62c0dca7236f","system_id":"levelo_inurba_marseille","lat":43.27945,"lon":5.41055,"is_reserved":false,"is_disabled":false,"rental_uris":{"android":"levelo://app?vid=53efb278-8ce8-45e9-a87d-62c0dca7236f","ios":"levelo://app?vid=53efb278-8ce8-45e9-a87d-62c0dca7236f"},"vehicle_type_id":"4","last_reported":1702051748,"current_range_meters":9600,"station_id":"ce4bhnp2rcd13ifvqh0g","pricing_plan_id":"free"},{"bike_id":"89299128-8106-4623-8176-e8b6967076c0","system_id":"levelo_inurba_marseille","lat":43.279465,"lon":5.410561,"is_reserved":false,"is_disabled":false,"rental_uris":{"android":"levelo://app?vid=89299128-8106-4623-8176-e8b6967076c0","ios":"levelo://app?vid=89299128-8106-4623-8176-e8b6967076c0"},"vehicle_type_id":"4","last_reported":1702051748,"current_range_meters":22000,"station_id":"ce4bhnp2rcd13ifvqh0g","pricing_plan_id":"free"},{"bike_id":"11bca6df-133c-49ec-bd59-235fa3fed41c","system_id":"levelo_inurba_marseille","lat":43.265714,"lon":5.372891,"is_reserved":false,"is_disabled":false,"rental_uris":{"android":"levelo://app?vid=11bca6df-133c-49ec-bd59-235fa3fed41c","ios":"levelo://app?vid=11bca6df-133c-49ec-bd59-235fa3fed41c"},"vehicle_type_id":"4","last_reported":1702051748,"current_range_meters":8000,"station_id":"ce4bhg12rcd13ifvqf70","pricing_plan_id":"free"},{"bike_id":"ae1bfb5d-01cc-4423-8662-604000c0a875","system_id":"levelo_inurba_marseille","lat":43.267966,"lon":5.393976,"is_reserved":false,"is_disabled":false,"rental_uris":{"android":"levelo://app?vid=ae1bfb5d-01cc-4423-8662-604000c0a875","ios":"levelo://app?vid=ae1bfb5d-01cc-4423-8662-604000c0a875"},"vehicle_type_id":"4","last_reported":1702051748,"current_range_meters":24800,"station_id":"ce4bhh12rcd13ifvqfg0","pricing_plan_id":"free"},{"bike_id":"69071856-b127-4100-9f16-bcd1e23f5091","system_id":"levelo_inurba_marseille","lat":43.267966,"lon":5.393976,"is_reserved":false,"is_disabled":false,"rental_uris":{"android":"levelo://app?vid=69071856-b127-4100-9f16-bcd1e23f5091","ios":"levelo://app?vid=69071856-b127-4100-9f16-bcd1e23f5091"},"vehicle_type_id":"4","last_reported":1702051748,"current_range_meters":16400,"station_id":"ce4bhh12rcd13ifvqfg0","pricing_plan_id":"free"},{"bike_id":"d694c17d-03d6-4e56-85b5-b9a4ddf12575","system_id":"levelo_inurba_marseille","lat":43.308051,"lon":5.43527,"is_reserved":false,"is_disabled":false,"rental_uris":{"android":"levelo://app?vid=d694c17d-03d6-4e56-85b5-b9a4ddf12575","ios":"levelo://app?vid=d694c17d-03d6-4e56-85b5-b9a4ddf12575"},"vehicle_type_id":"4","last_reported":1702051748,"current_range_meters":25600,"station_id":"ce4bhph2rcd13ifvqheg","pricing_plan_id":"free"},{"bike_id":"45c3480f-21c4-453a-bee9-c03c7df6b387","system_id":"levelo_inurba_marseille","lat":43.308051,"lon":5.43527,"is_reserved":false,"is_disabled":false,"rental_uris":{"android":"levelo://app?vid=45c3480f-21c4-453a-bee9-c03c7df6b387","ios":"levelo://app?vid=45c3480f-21c4-453a-bee9-c03c7df6b387"},"vehicle_type_id":"4","last_reported":1702051748,"current_range_meters":30000,"station_id":"ce4bhph2rcd13ifvqheg","pricing_plan_id":"free"},{"bike_id":"c29ab976-c815-4a84-a186-bc29f881c042","system_id":"levelo_inurba_marseille","lat":43.308051,"lon":5.43527,"is_reserved":false,"is_disabled":false,"rental_uris":{"android":"levelo://app?vid=c29ab976-c815-4a84-a186-bc29f881c042","ios":"levelo://app?vid=c29ab976-c815-4a84-a186-bc29f881c042"},"vehicle_type_id":"4","last_reported":1702051748,"current_range_meters":20000,"station_id":"ce4bhph2rcd13ifvqheg","pricing_plan_id":"free"},{"bike_id":"f5809929-2713-492d-9014-96a185513bcf","system_id":"levelo_inurba_marseille","lat":43.26568,"lon":5.390095,"is_reserved":false,"is_disabled":false,"rental_uris":{"android":"levelo://app?vid=f5809929-2713-492d-9014-96a185513bcf","ios":"levelo://app?vid=f5809929-2713-492d-9014-96a185513bcf"},"vehicle_type_id":"4","last_reported":1702051748,"current_range_meters":18800,"station_id":"ce4bhe12rcd13ifvqf30","pricing_plan_id":"free"},{"bike_id":"babb33cc-8dbf-45cc-bfe9-c24e7f8b5ae8","system_id":"levelo_inurba_marseille","lat":43.26566,"lon":5.39014,"is_reserved":false,"is_disabled":false,"rental_uris":{"android":"levelo://app?vid=babb33cc-8dbf-45cc-bfe9-c24e7f8b5ae8","ios":"levelo://app?vid=babb33cc-8dbf-45cc-bfe9-c24e7f8b5ae8"},"vehicle_type_id":"4","last_reported":1702051748,"current_range_meters":10800,"station_id":"ce4bhe12rcd13ifvqf30","pricing_plan_id":"free"},{"bike_id":"5115dcd6-8e8e-4757-8ed6-5359c1a31a77","system_id":"levelo_inurba_marseille","lat":43.265569,"lon":5.390047,"is_reserved":false,"is_disabled":false,"rental_uris":{"android":"levelo://app?vid=5115dcd6-8e8e-4757-8ed6-5359c1a31a77","ios":"levelo://app?vid=5115dcd6-8e8e-4757-8ed6-5359c1a31a77"},"vehicle_type_id":"4","last_reported":1702051748,"current_range_meters":22000,"station_id":"ce4bhe12rcd13ifvqf30","pricing_plan_id":"free"},{"bike_id":"d4116e3d-2a16-413d-87b3-be252de0dc5a","system_id":"levelo_inurba_marseille","lat":43.26949,"lon":5.40262,"is_reserved":false,"is_disabled":false,"rental_uris":{"android":"levelo://app?vid=d4116e3d-2a16-413d-87b3-be252de0dc5a","ios":"levelo://app?vid=d4116e3d-2a16-413d-87b3-be252de0dc5a"},"vehicle_type_id":"4","last_reported":1702051748,"current_range_meters":30800,"station_id":"cjm6bp8fraef2m0cb0m0","pricing_plan_id":"free"},{"bike_id":"8ceac9b4-cd0c-4b6e-87ae-aafb3d84b2aa","system_id":"levelo_inurba_marseille","lat":43.26949,"lon":5.40262,"is_reserved":false,"is_disabled":false,"rental_uris":{"android":"levelo://app?vid=8ceac9b4-cd0c-4b6e-87ae-aafb3d84b2aa","ios":"levelo://app?vid=8ceac9b4-cd0c-4b6e-87ae-aafb3d84b2aa"},"vehicle_type_id":"4","last_reported":1702051748,"current_range_meters":29600,"station_id":"cjm6bp8fraef2m0cb0m0","pricing_plan_id":"free"},{"bike_id":"954923a7-c786-4ab6-9de2-b37cfc9510e6","system_id":"levelo_inurba_marseille","lat":43.271368,"lon":5.40928,"is_reserved":false,"is_disabled":false,"rental_uris":{"android":"levelo://app?vid=954923a7-c786-4ab6-9de2-b37cfc9510e6","ios":"levelo://app?vid=954923a7-c786-4ab6-9de2-b37cfc9510e6"},"vehicle_type_id":"4","last_reported":1702051748,"current_range_meters":30000,"station_id":"ce4bhl12rcd13ifvqgf0","pricing_plan_id":"free"},{"bike_id":"99528b08-79c4-40c1-955c-c12db93786c8","system_id":"levelo_inurba_marseille","lat":43.26803,"lon":5.40275,"is_reserved":false,"is_disabled":false,"rental_uris":{"android":"levelo://app?vid=99528b08-79c4-40c1-955c-c12db93786c8","ios":"levelo://app?vid=99528b08-79c4-40c1-955c-c12db93786c8"},"vehicle_type_id":"4","last_reported":1702051748,"current_range_meters":30000,"station_id":"ce501612rcd8frsf0b60","pricing_plan_id":"free"},{"bike_id":"6b17b896-99f2-456b-929e-df3811eeb274","system_id":"levelo_inurba_marseille","lat":43.298768,"lon":5.43643,"is_reserved":false,"is_disabled":false,"rental_uris":{"android":"levelo://app?vid=6b17b896-99f2-456b-929e-df3811eeb274","ios":"levelo://app?vid=6b17b896-99f2-456b-929e-df3811eeb274"},"vehicle_type_id":"4","last_reported":1702051748,"current_range_meters":26800,"station_id":"ce4bhpp2rcd13ifvqhfg","pricing_plan_id":"free"},{"bike_id":"ca4db8a8-5b98-4b78-bc3d-514f38028a3d","system_id":"levelo_inurba_marseille","lat":43.298768,"lon":5.43643,"is_reserved":false,"is_disabled":false,"rental_uris":{"android":"levelo://app?vid=ca4db8a8-5b98-4b78-bc3d-514f38028a3d","ios":"levelo://app?vid=ca4db8a8-5b98-4b78-bc3d-514f38028a3d"},"vehicle_type_id":"4","last_reported":1702051748,"current_range_meters":30800,"station_id":"ce4bhpp2rcd13ifvqhfg","pricing_plan_id":"free"},{"bike_id":"4f68f183-a711-4386-a731-e8ea8e2f115e","system_id":"levelo_inurba_marseille","lat":43.298768,"lon":5.43643,"is_reserved":false,"is_disabled":false,"rental_uris":{"android":"levelo://app?vid=4f68f183-a711-4386-a731-e8ea8e2f115e","ios":"levelo://app?vid=4f68f183-a711-4386-a731-e8ea8e2f115e"},"vehicle_type_id":"4","last_reported":1702051748,"current_range_meters":25200,"station_id":"ce4bhpp2rcd13ifvqhfg","pricing_plan_id":"free"},{"bike_id":"5215ad78-0811-4492-88ee-04afc35bf3a5","system_id":"levelo_inurba_marseille","lat":43.298768,"lon":5.43643,"is_reserved":false,"is_disabled":false,"rental_uris":{"android":"levelo://app?vid=5215ad78-0811-4492-88ee-04afc35bf3a5","ios":"levelo://app?vid=5215ad78-0811-4492-88ee-04afc35bf3a5"},"vehicle_type_id":"4","last_reported":1702051748,"current_range_meters":30400,"station_id":"ce4bhpp2rcd13ifvqhfg","pricing_plan_id":"free"},{"bike_id":"83e2018e-7127-4415-8bbf-2e347a9c6750","system_id":"levelo_inurba_marseille","lat":43.29896,"lon":5.43673,"is_reserved":false,"is_disabled":false,"rental_uris":{"android":"levelo://app?vid=83e2018e-7127-4415-8bbf-2e347a9c6750","ios":"levelo://app?vid=83e2018e-7127-4415-8bbf-2e347a9c6750"},"vehicle_type_id":"4","last_reported":1702051748,"current_range_meters":2800,"station_id":"ce4bhpp2rcd13ifvqhfg","pricing_plan_id":"free"},{"bike_id":"a29310ea-191f-4955-9a5a-484f370d0c67","system_id":"levelo_inurba_marseille","lat":43.281548,"lon":5.42643,"is_reserved":false,"is_disabled":false,"rental_uris":{"android":"levelo://app?vid=a29310ea-191f-4955-9a5a-484f370d0c67","ios":"levelo://app?vid=a29310ea-191f-4955-9a5a-484f370d0c67"},"vehicle_type_id":"4","last_reported":1702051748,"current_range_meters":0,"station_id":"ce4bhnh2rcd13ifvqgug","pricing_plan_id":"free"},{"bike_id":"970313b1-677c-4f5d-813d-f21e70c11610","system_id":"levelo_inurba_marseille","lat":43.281548,"lon":5.42643,"is_reserved":false,"is_disabled":false,"rental_uris":{"android":"levelo://app?vid=970313b1-677c-4f5d-813d-f21e70c11610","ios":"levelo://app?vid=970313b1-677c-4f5d-813d-f21e70c11610"},"vehicle_type_id":"4","last_reported":1702051748,"current_range_meters":30400,"station_id":"ce4bhnh2rcd13ifvqgug","pricing_plan_id":"free"},{"bike_id":"50fdf813-aa84-4500-9656-57c238b27872","system_id":"levelo_inurba_marseille","lat":43.28158,"lon":5.4265,"is_reserved":false,"is_disabled":false,"rental_uris":{"android":"levelo://app?vid=50fdf813-aa84-4500-9656-57c238b27872","ios":"levelo://app?vid=50fdf813-aa84-4500-9656-57c238b27872"},"vehicle_type_id":"4","last_reported":1702051748,"current_range_meters":27200,"station_id":"ce4bhnh2rcd13ifvqgug","pricing_plan_id":"free"},{"bike_id":"f7322d39-4d14-4ff3-85af-c4c2301b808f","system_id":"levelo_inurba_marseille","lat":43.281548,"lon":5.42643,"is_reserved":false,"is_disabled":false,"rental_uris":{"android":"levelo://app?vid=f7322d39-4d14-4ff3-85af-c4c2301b808f","ios":"levelo://app?vid=f7322d39-4d14-4ff3-85af-c4c2301b808f"},"vehicle_type_id":"4","last_reported":1702051748,"current_range_meters":20400,"station_id":"ce4bhnh2rcd13ifvqgug","pricing_plan_id":"free"},{"bike_id":"6a8c64df-4f21-4e13-851c-650cde239b49","system_id":"levelo_inurba_marseille","lat":43.26065,"lon":5.39394,"is_reserved":false,"is_disabled":false,"rental_uris":{"android":"levelo://app?vid=6a8c64df-4f21-4e13-851c-650cde239b49","ios":"levelo://app?vid=6a8c64df-4f21-4e13-851c-650cde239b49"},"vehicle_type_id":"4","last_reported":1702051748,"current_range_meters":22800,"station_id":"ce4bhh92rcd13ifvqfj0","pricing_plan_id":"free"},{"bike_id":"6453ae6f-a116-4444-8706-e72c1abfc412","system_id":"levelo_inurba_marseille","lat":43.2607,"lon":5.393983,"is_reserved":false,"is_disabled":false,"rental_uris":{"android":"levelo://app?vid=6453ae6f-a116-4444-8706-e72c1abfc412","ios":"levelo://app?vid=6453ae6f-a116-4444-8706-e72c1abfc412"},"vehicle_type_id":"4","last_reported":1702051748,"current_range_meters":19200,"station_id":"ce4bhh92rcd13ifvqfj0","pricing_plan_id":"free"},{"bike_id":"c9d91b30-e68c-4b90-91b3-ed2f6c7169b0","system_id":"levelo_inurba_marseille","lat":43.257079,"lon":5.411051,"is_reserved":false,"is_disabled":false,"rental_uris":{"android":"levelo://app?vid=c9d91b30-e68c-4b90-91b3-ed2f6c7169b0","ios":"levelo://app?vid=c9d91b30-e68c-4b90-91b3-ed2f6c7169b0"},"vehicle_type_id":"4","last_reported":1702051748,"current_range_meters":6000,"station_id":"ce4bhkp2rcd13ifvqgd0","pricing_plan_id":"free"},{"bike_id":"12e7a53a-577f-47a8-84c7-b3beac3b2609","system_id":"levelo_inurba_marseille","lat":43.2479,"lon":5.374457,"is_reserved":false,"is_disabled":false,"rental_uris":{"android":"levelo://app?vid=12e7a53a-577f-47a8-84c7-b3beac3b2609","ios":"levelo://app?vid=12e7a53a-577f-47a8-84c7-b3beac3b2609"},"vehicle_type_id":"4","last_reported":1702051748,"current_range_meters":10800,"station_id":"ce4bhgh2rcd13ifvqfb0","pricing_plan_id":"free"},{"bike_id":"e742488b-2fce-4073-9557-bb1eca2448bb","system_id":"levelo_inurba_marseille","lat":43.250966,"lon":5.395186,"is_reserved":false,"is_disabled":false,"rental_uris":{"android":"levelo://app?vid=e742488b-2fce-4073-9557-bb1eca2448bb","ios":"levelo://app?vid=e742488b-2fce-4073-9557-bb1eca2448bb"},"vehicle_type_id":"4","last_reported":1702051748,"current_range_meters":16400,"station_id":"ce4bhm12rcd13ifvqgkg","pricing_plan_id":"free"},{"bike_id":"0bd03824-9245-4880-842a-a0ef87e69368","system_id":"levelo_inurba_marseille","lat":43.250966,"lon":5.395186,"is_reserved":false,"is_disabled":false,"rental_uris":{"android":"levelo://app?vid=0bd03824-9245-4880-842a-a0ef87e69368","ios":"levelo://app?vid=0bd03824-9245-4880-842a-a0ef87e69368"},"vehicle_type_id":"4","last_reported":1702051748,"current_range_meters":0,"station_id":"ce4bhm12rcd13ifvqgkg","pricing_plan_id":"free"},{"bike_id":"7f5cfa4f-6f48-4ff7-b0bf-6a05ec7b55b0","system_id":"levelo_inurba_marseille","lat":43.250966,"lon":5.395186,"is_reserved":false,"is_disabled":false,"rental_uris":{"android":"levelo://app?vid=7f5cfa4f-6f48-4ff7-b0bf-6a05ec7b55b0","ios":"levelo://app?vid=7f5cfa4f-6f48-4ff7-b0bf-6a05ec7b55b0"},"vehicle_type_id":"4","last_reported":1702051748,"current_range_meters":6800,"station_id":"ce4bhm12rcd13ifvqgkg","pricing_plan_id":"free"},{"bike_id":"2288e39f-96ff-448b-acd4-e5b2ce463492","system_id":"levelo_inurba_marseille","lat":43.246461,"lon":5.389014,"is_reserved":false,"is_disabled":false,"rental_uris":{"android":"levelo://app?vid=2288e39f-96ff-448b-acd4-e5b2ce463492","ios":"levelo://app?vid=2288e39f-96ff-448b-acd4-e5b2ce463492"},"vehicle_type_id":"4","last_reported":1702051748,"current_range_meters":24000,"station_id":"ce4bhg12rcd13ifvqf60","pricing_plan_id":"free"},{"bike_id":"d03b515d-951c-4d29-9d2b-42e64ecf889c","system_id":"levelo_inurba_marseille","lat":43.246467,"lon":5.388984,"is_reserved":false,"is_disabled":false,"rental_uris":{"android":"levelo://app?vid=d03b515d-951c-4d29-9d2b-42e64ecf889c","ios":"levelo://app?vid=d03b515d-951c-4d29-9d2b-42e64ecf889c"},"vehicle_type_id":"4","last_reported":1702051748,"current_range_meters":17200,"station_id":"ce4bhg12rcd13ifvqf60","pricing_plan_id":"free"},{"bike_id":"cdfc590c-a321-4e2e-a738-02845d85f64a","system_id":"levelo_inurba_marseille","lat":43.245581,"lon":5.395069,"is_reserved":false,"is_disabled":false,"rental_uris":{"android":"levelo://app?vid=cdfc590c-a321-4e2e-a738-02845d85f64a","ios":"levelo://app?vid=cdfc590c-a321-4e2e-a738-02845d85f64a"},"vehicle_type_id":"4","last_reported":1702051748,"current_range_meters":14000,"station_id":"ce4bhlp2rcd13ifvqgjg","pricing_plan_id":"free"},{"bike_id":"b3705516-da65-4902-b345-4cc53e261fdf","system_id":"levelo_inurba_marseille","lat":43.2408,"lon":5.37759,"is_reserved":false,"is_disabled":false,"rental_uris":{"android":"levelo://app?vid=b3705516-da65-4902-b345-4cc53e261fdf","ios":"levelo://app?vid=b3705516-da65-4902-b345-4cc53e261fdf"},"vehicle_type_id":"4","last_reported":1702051748,"current_range_meters":21600,"station_id":"","pricing_plan_id":"free"},{"bike_id":"72f5232b-b028-4e12-b2c6-0c33b2a341fe","system_id":"levelo_inurba_marseille","lat":43.240733,"lon":5.377292,"is_reserved":false,"is_disabled":false,"rental_uris":{"android":"levelo://app?vid=72f5232b-b028-4e12-b2c6-0c33b2a341fe","ios":"levelo://app?vid=72f5232b-b028-4e12-b2c6-0c33b2a341fe"},"vehicle_type_id":"4","last_reported":1702051748,"current_range_meters":21200,"station_id":"ce4bhnp2rcd13ifvqgvg","pricing_plan_id":"free"},{"bike_id":"8139c965-91ec-4674-bb2e-8e23113f8db8","system_id":"levelo_inurba_marseille","lat":43.240623,"lon":5.377642,"is_reserved":false,"is_disabled":false,"rental_uris":{"android":"levelo://app?vid=8139c965-91ec-4674-bb2e-8e23113f8db8","ios":"levelo://app?vid=8139c965-91ec-4674-bb2e-8e23113f8db8"},"vehicle_type_id":"4","last_reported":1702051748,"current_range_meters":8400,"station_id":"ce4bhnp2rcd13ifvqgvg","pricing_plan_id":"free"},{"bike_id":"e197a669-2c09-4850-85e8-2ad4f1a6d98a","system_id":"levelo_inurba_marseille","lat":43.240623,"lon":5.377642,"is_reserved":false,"is_disabled":false,"rental_uris":{"android":"levelo://app?vid=e197a669-2c09-4850-85e8-2ad4f1a6d98a","ios":"levelo://app?vid=e197a669-2c09-4850-85e8-2ad4f1a6d98a"},"vehicle_type_id":"4","last_reported":1702051748,"current_range_meters":16800,"station_id":"ce4bhnp2rcd13ifvqgvg","pricing_plan_id":"free"},{"bike_id":"93954539-37ab-42cb-8148-c6cd6174d0ce","system_id":"levelo_inurba_marseille","lat":43.239588,"lon":5.366238,"is_reserved":false,"is_disabled":false,"rental_uris":{"android":"levelo://app?vid=93954539-37ab-42cb-8148-c6cd6174d0ce","ios":"levelo://app?vid=93954539-37ab-42cb-8148-c6cd6174d0ce"},"vehicle_type_id":"4","last_reported":1702051748,"current_range_meters":27600,"station_id":"ce4bhi12rcd13ifvqfp0","pricing_plan_id":"free"},{"bike_id":"19de1d90-0ef7-4697-bd3a-3e98bd2bf2e7","system_id":"levelo_inurba_marseille","lat":43.239588,"lon":5.366238,"is_reserved":false,"is_disabled":false,"rental_uris":{"android":"levelo://app?vid=19de1d90-0ef7-4697-bd3a-3e98bd2bf2e7","ios":"levelo://app?vid=19de1d90-0ef7-4697-bd3a-3e98bd2bf2e7"},"vehicle_type_id":"4","last_reported":1702051748,"current_range_meters":30800,"station_id":"ce4bhi12rcd13ifvqfp0","pricing_plan_id":"free"},{"bike_id":"c9aa026e-6c6e-4034-bb0f-bfb42e60e8dc","system_id":"levelo_inurba_marseille","lat":43.231919,"lon":5.355532,"is_reserved":false,"is_disabled":false,"rental_uris":{"android":"levelo://app?vid=c9aa026e-6c6e-4034-bb0f-bfb42e60e8dc","ios":"levelo://app?vid=c9aa026e-6c6e-4034-bb0f-bfb42e60e8dc"},"vehicle_type_id":"4","last_reported":1702051748,"current_range_meters":14400,"station_id":"ce4bhu92rcd13ifvqi70","pricing_plan_id":"free"},{"bike_id":"1c690641-a72b-433d-b1af-d36beaec8f2e","system_id":"levelo_inurba_marseille","lat":43.231885,"lon":5.399897,"is_reserved":false,"is_disabled":false,"rental_uris":{"android":"levelo://app?vid=1c690641-a72b-433d-b1af-d36beaec8f2e","ios":"levelo://app?vid=1c690641-a72b-433d-b1af-d36beaec8f2e"},"vehicle_type_id":"4","last_reported":1702051748,"current_range_meters":30400,"station_id":"ce4bhn12rcd13ifvqgqg","pricing_plan_id":"free"},{"bike_id":"be845917-f52e-4a9f-83ff-909546a09332","system_id":"levelo_inurba_marseille","lat":43.231794,"lon":5.400052,"is_reserved":false,"is_disabled":false,"rental_uris":{"android":"levelo://app?vid=be845917-f52e-4a9f-83ff-909546a09332","ios":"levelo://app?vid=be845917-f52e-4a9f-83ff-909546a09332"},"vehicle_type_id":"4","last_reported":1702051748,"current_range_meters":31200,"station_id":"ce4bhn12rcd13ifvqgqg","pricing_plan_id":"free"},{"bike_id":"1ed2ab4a-5b92-48c5-93f6-68c8aa50e015","system_id":"levelo_inurba_marseille","lat":43.231794,"lon":5.400052,"is_reserved":false,"is_disabled":false,"rental_uris":{"android":"levelo://app?vid=1ed2ab4a-5b92-48c5-93f6-68c8aa50e015","ios":"levelo://app?vid=1ed2ab4a-5b92-48c5-93f6-68c8aa50e015"},"vehicle_type_id":"4","last_reported":1702051748,"current_range_meters":7200,"station_id":"ce4bhn12rcd13ifvqgqg","pricing_plan_id":"free"},{"bike_id":"6c4620c0-0d4d-493f-9950-4fd3c4457696","system_id":"levelo_inurba_marseille","lat":43.231794,"lon":5.400052,"is_reserved":false,"is_disabled":false,"rental_uris":{"android":"levelo://app?vid=6c4620c0-0d4d-493f-9950-4fd3c4457696","ios":"levelo://app?vid=6c4620c0-0d4d-493f-9950-4fd3c4457696"},"vehicle_type_id":"4","last_reported":1702051748,"current_range_meters":31600,"station_id":"ce4bhn12rcd13ifvqgqg","pricing_plan_id":"free"},{"bike_id":"7f2675ba-8ad0-429b-9738-8fa4d2e8bc3d","system_id":"levelo_inurba_marseille","lat":43.23179,"lon":5.39992,"is_reserved":false,"is_disabled":false,"rental_uris":{"android":"levelo://app?vid=7f2675ba-8ad0-429b-9738-8fa4d2e8bc3d","ios":"levelo://app?vid=7f2675ba-8ad0-429b-9738-8fa4d2e8bc3d"},"vehicle_type_id":"4","last_reported":1702051748,"current_range_meters":19200,"station_id":"ce4bhn12rcd13ifvqgqg","pricing_plan_id":"free"},{"bike_id":"51a40f99-e7a3-404e-89d5-4c627a27a31d","system_id":"levelo_inurba_marseille","lat":43.231562,"lon":5.436933,"is_reserved":false,"is_disabled":false,"rental_uris":{"android":"levelo://app?vid=51a40f99-e7a3-404e-89d5-4c627a27a31d","ios":"levelo://app?vid=51a40f99-e7a3-404e-89d5-4c627a27a31d"},"vehicle_type_id":"4","last_reported":1702051748,"current_range_meters":23600,"station_id":"ce4bhmp2rcd13ifvqgog","pricing_plan_id":"free"},{"bike_id":"6c3e3c9e-4b18-4000-ba39-0358b7d7d901","system_id":"levelo_inurba_marseille","lat":43.231562,"lon":5.436933,"is_reserved":false,"is_disabled":false,"rental_uris":{"android":"levelo://app?vid=6c3e3c9e-4b18-4000-ba39-0358b7d7d901","ios":"levelo://app?vid=6c3e3c9e-4b18-4000-ba39-0358b7d7d901"},"vehicle_type_id":"4","last_reported":1702051748,"current_range_meters":30000,"station_id":"ce4bhmp2rcd13ifvqgog","pricing_plan_id":"free"}]}}