{"last_updated":1737479295,"ttl":60,"version":"2.2","data":{"bikes":[{"bike_id":"57fb31ac-3158-4806-a775-9282546bae52","system_id":"levelo_inurba_marseille","lat":43.30138,"lon":5.38771,"is_reserved":false,"is_disabled":false,"rental_uris":{"android":"levelo://app?vid=57fb31ac-3158-4806-a775-9282546bae52","ios":"levelo://app?vid=57fb31ac-3158-4806-a775-9282546bae52"},"vehicle_type_id":"4","last_reported":1737479295,"current_range_meters":18800,"station_id":"ce4bhoh2rcd13ifvqh6g","pricing_plan_id":"cebpf4jnsgd1na2vs0mg"},{"bike_id":"689dda7a-7032-4dcd-8149-6c95173bb231","system_id":"levelo_inurba_marseille","lat":43.30541,"lon":5.36519,"is_reserved":false,"is_disabled":false,"rental_uris":{"android":"levelo://app?vid=689dda7a-7032-4dcd-8149-6c95173bb231","ios":"levelo://app?vid=689dda7a-7032-4dcd-8149-6c95173bb231"},"vehicle_type_id":"4","last_reported":1737479295,"current_range_meters":38000,"station_id":"ce4bgs12rcd13ifvqcag","pricing_plan_id":"cebpf4jnsgd1na2vs0mg"},{"bike_id":"d3702038-bd9f-4bca-898b-6971e8b60969","system_id":"levelo_inurba_marseille","lat":43.27617,"lon":5.36095,"is_reserved":false,"is_disabled":false,"rental_uris":{"android":"levelo://app?vid=d3702038-bd9f-4bca-898b-6971e8b60969","ios":"levelo://app?vid=d3702038-bd9f-4bca-898b-6971e8b60969"},"vehicle_type_id":"4","last_reported":1737479295,"current_range_meters":38400,"station_id":"ce4bgj92rcd13ifvqbe0","pricing_plan_id":"cebpf4jnsgd1na2vs0mg"},{"bike_id":"95f67356-e034-45d8-862d-9bd8cc655c12","system_id":"levelo_inurba_marseille","lat":43.28477,"lon":5.38415,"is_reserved":false,"is_disabled":false,"rental_uris":{"android":"levelo://app?vid=95f67356-e034-45d8-862d-9bd8cc655c12","ios":"levelo://app?vid=95f67356-e034-45d8-862d-9bd8cc655c12"},"vehicle_type_id":"4","last_reported":1737479295,"current_range_meters":37600,"station_id":"ce4bh512rcd13ifvqe3g","pricing_plan_id":"cebpf4jnsgd1na2vs0mg"},{"bike_id":"55dbad9e-5e23-4ba1-9963-87f7576ac874","system_id":"levelo_inurba_marseille","lat":43.28157,"lon":5.42646,"is_reserved":false,"is_disabled":false,"rental_uris":{"android":"levelo://app?vid=55dbad9e-5e23-4ba1-9963-87f7576ac874","ios":"levelo://app?vid=55dbad9e-5e23-4ba1-9963-87f7576ac874"},"vehicle_type_id":"4","last_reported":1737479295,"current_range_meters":31200,"station_id":"ce4bhnh2rcd13ifvqgug","pricing_plan_id":"cebpf4jnsgd1na2vs0mg"},{"bike_id":"1856f170-24ac-4a8a-9a69-23935e5abfc5","system_id":"levelo_inurba_marseille","lat":43.29539,"lon":5.38535,"is_reserved":false,"is_disabled":false,"rental_uris":{"android":"levelo://app?vid=1856f170-24ac-4a8a-9a69-23935e5abfc5","ios":"levelo://app?vid=1856f170-24ac-4a8a-9a69-23935e5abfc5"},"vehicle_type_id":"4","last_reported":1737479295,"current_range_meters":38000,"station_id":"ce4bgih2rcd13ifvqba0","pricing_plan_id":"cebpf4jnsgd1na2vs0mg"},{"bike_id":"654f01f5-dda3-4d60-8365-d98c87942c46","system_id":"levelo_inurba_marseille","lat":43.29751,"lon":5.378252,"is_reserved":false,"is_disabled":false,"rental_uris":{"android":"levelo://app?vid=654f01f5-dda3-4d60-8365-d98c87942c46","ios":"levelo://app?vid=654f01f5-dda3-4d60-8365-d98c87942c46"},"vehicle_type_id":"4","last_reported":1737479295,"current_range_meters":31200,"station_id":"ce4bgkh2rcd13ifvqbl0","pricing_plan_id":"cebpf4jnsgd1na2vs0mg"},{"bike_id":"579da97f-04e4-4a85-bf0e-7715dc714586","system_id":"levelo_inurba_marseille","lat":43.28704,"lon":5.37394,"is_reserved":false,"is_disabled":false,"rental_uris":{"android":"levelo://app?vid=579da97f-04e4-4a85-bf0e-7715dc714586","ios":"levelo://app?vid=579da97f-04e4-4a85-bf0e-7715dc714586"},"vehicle_type_id":"4","last_reported":1737479295,"current_range_meters":800,"station_id":"ce4bh3p2rcd13ifvqdq0","pricing_plan_id":"cebpf4jnsgd1na2vs0mg"},{"bike_id":"7bb5cbe7-960b-4bbe-abf2-43db3023ead0","system_id":"levelo_inurba_marseille","lat":43.29634,"lon":5.37144,"is_reserved":false,"is_disabled":true,"rental_uris":{"android":"levelo://app?vid=7bb5cbe7-960b-4bbe-abf2-43db3023ead0","ios":"levelo://app?vid=7bb5cbe7-960b-4bbe-abf2-43db3023ead0"},"vehicle_type_id":"4","last_reported":1737479295,"current_range_meters":0,"station_id":"ce4bgnh2rcd13ifvqc0g","pricing_plan_id":"cebpf4jnsgd1na2vs0mg"},{"bike_id":"d828c6c0-2857-4d4f-a9aa-7c7d934ecae7","system_id":"levelo_inurba_marseille","lat":43.25087,"lon":5.39516,"is_reserved":false,"is_disabled":false,"rental_uris":{"android":"levelo://app?vid=d828c6c0-2857-4d4f-a9aa-7c7d934ecae7","ios":"levelo://app?vid=d828c6c0-2857-4d4f-a9aa-7c7d934ecae7"},"vehicle_type_id":"4","last_reported":1737479295,"current_range_meters":10800,"station_id":"ce4bhm12rcd13ifvqgkg","pricing_plan_id":"cebpf4jnsgd1na2vs0mg"},{"bike_id":"ab85e102-e8bc-48d9-ac36-4d53a9a08718","system_id":"levelo_inurba_marseille","lat":43.29869,"lon":5.39729,"is_reserved":false,"is_disabled":false,"rental_uris":{"android":"levelo://app?vid=ab85e102-e8bc-48d9-ac36-4d53a9a08718","ios":"levelo://app?vid=ab85e102-e8bc-48d9-ac36-4d53a9a08718"},"vehicle_type_id":"4","last_reported":1737479295,"current_range_meters":38800,"station_id":"ce4bh0h2rcd13ifvqd50","pricing_plan_id":"cebpf4jnsgd1na2vs0mg"},{"bike_id":"cfbad283-e613-4bbd-8ce0-b0f9980d6613","system_id":"levelo_inurba_marseille","lat":43.29877,"lon":5.3973,"is_reserved":false,"is_disabled":false,"rental_uris":{"android":"levelo://app?vid=cfbad283-e613-4bbd-8ce0-b0f9980d6613","ios":"levelo://app?vid=cfbad283-e613-4bbd-8ce0-b0f9980d6613"},"vehicle_type_id":"4","last_reported":1737479295,"current_range_meters":27200,"station_id":"ce4bh0h2rcd13ifvqd50","pricing_plan_id":"cebpf4jnsgd1na2vs0mg"},{"bike_id":"06cfd958-c471-4dfe-8613-29275f91d3d2","system_id":"levelo_inurba_marseille","lat":43.29065,"lon":5.37157,"is_reserved":false,"is_disabled":false,"rental_uris":{"android":"levelo://app?vid=06cfd958-c471-4dfe-8613-29275f91d3d2","ios":"levelo://app?vid=06cfd958-c471-4dfe-8613-29275f91d3d2"},"vehicle_type_id":"4","last_reported":1737479295,"current_range_meters":38800,"station_id":"ce4bh5p2rcd13ifvqe4g","pricing_plan_id":"cebpf4jnsgd1na2vs0mg"},{"bike_id":"52bc02ea-6c67-46bf-8fc2-851775630678","system_id":"levelo_inurba_marseille","lat":43.25975,"lon":5.39678,"is_reserved":false,"is_disabled":true,"rental_uris":{"android":"levelo://app?vid=52bc02ea-6c67-46bf-8fc2-851775630678","ios":"levelo://app?vid=52bc02ea-6c67-46bf-8fc2-851775630678"},"vehicle_type_id":"4","last_reported":1737479295,"current_range_meters":0,"station_id":"ce4bhi12rcd13ifvqfq0","pricing_plan_id":"cebpf4jnsgd1na2vs0mg"},{"bike_id":"a2771881-b956-4a9a-9bc9-a89642d437c9","system_id":"levelo_inurba_marseille","lat":43.23223,"lon":5.35552,"is_reserved":false,"is_disabled":false,"rental_uris":{"android":"levelo://app?vid=a2771881-b956-4a9a-9bc9-a89642d437c9","ios":"levelo://app?vid=a2771881-b956-4a9a-9bc9-a89642d437c9"},"vehicle_type_id":"4","last_reported":1737479295,"current_range_meters":38800,"station_id":"ce4bhu92rcd13ifvqi70","pricing_plan_id":"cebpf4jnsgd1na2vs0mg"},{"bike_id":"38deec00-54a4-4647-b71a-a7db3d6a1353","system_id":"levelo_inurba_marseille","lat":43.32109,"lon":5.36716,"is_reserved":false,"is_disabled":false,"rental_uris":{"android":"levelo://app?vid=38deec00-54a4-4647-b71a-a7db3d6a1353","ios":"levelo://app?vid=38deec00-54a4-4647-b71a-a7db3d6a1353"},"vehicle_type_id":"4","last_reported":1737479295,"current_range_meters":12000,"station_id":"ce4bhrh2rcd13ifvqhug","pricing_plan_id":"cebpf4jnsgd1na2vs0mg"},{"bike_id":"4d071c99-59bc-4138-8b76-2f04d780bbaa","system_id":"levelo_inurba_marseille","lat":43.26232,"lon":5.40462,"is_reserved":false,"is_disabled":false,"rental_uris":{"android":"levelo://app?vid=4d071c99-59bc-4138-8b76-2f04d780bbaa","ios":"levelo://app?vid=4d071c99-59bc-4138-8b76-2f04d780bbaa"},"vehicle_type_id":"4","last_reported":1737479295,"current_range_meters":17200,"station_id":"","pricing_plan_id":"cebpf4jnsgd1na2vs0mg"},{"bike_id":"9658636e-ba07-4c8f-864b-eb7bfced9e20","system_id":"levelo_inurba_marseille","lat":43.27426,"lon":5.39423,"is_reserved":false,"is_disabled":false,"rental_uris":{"android":"levelo://app?vid=9658636e-ba07-4c8f-864b-eb7bfced9e20","ios":"levelo://app?vid=9658636e-ba07-4c8f-864b-eb7bfced9e20"},"vehicle_type_id":"4","last_reported":1737479295,"current_range_meters":20400,"station_id":"ce4bhdp2rcd13ifvqf20","pricing_plan_id":"cebpf4jnsgd1na2vs0mg"},{"bike_id":"48646053-32fc-4975-9af3-6eb74098e911","system_id":"levelo_inurba_marseille","lat":43.28073,"lon":5.39647,"is_reserved":false,"is_disabled":false,"rental_uris":{"android":"levelo://app?vid=48646053-32fc-4975-9af3-6eb74098e911","ios":"levelo://app?vid=48646053-32fc-4975-9af3-6eb74098e911"},"vehicle_type_id":"4","last_reported":1737479295,"current_range_meters":39200,"station_id":"ce4bho12rcd13ifvqh2g","pricing_plan_id":"cebpf4jnsgd1na2vs0mg"},{"bike_id":"ebe4a3e1-3d6f-40a5-98e5-7bdd499f7f7e","system_id":"levelo_inurba_marseille","lat":43.24818,"lon":5.37466,"is_reserved":false,"is_disabled":false,"rental_uris":{"android":"levelo://app?vid=ebe4a3e1-3d6f-40a5-98e5-7bdd499f7f7e","ios":"levelo://app?vid=ebe4a3e1-3d6f-40a5-98e5-7bdd499f7f7e"},"vehicle_type_id":"4","last_reported":1737479295,"current_range_meters":32400,"station_id":"ce4bhgh2rcd13ifvqfb0","pricing_plan_id":"cebpf4jnsgd1na2vs0mg"},{"bike_id":"1dfeeb46-f6d1-4f66-a17f-dc02493d0400","system_id":"levelo_inurba_marseille","lat":43.313783,"lon":5.383976,"is_reserved":false,"is_disabled":false,"rental_uris":{"android":"levelo://app?vid=1dfeeb46-f6d1-4f66-a17f-dc02493d0400","ios":"levelo://app?vid=1dfeeb46-f6d1-4f66-a17f-dc02493d0400"},"vehicle_type_id":"4","last_reported":1737479295,"current_range_meters":18000,"station_id":"ce4bgt92rcd13ifvqcf0","pricing_plan_id":"cebpf4jnsgd1na2vs0mg"},{"bike_id":"0700230b-bebb-4330-89ec-82fe9cc53add","system_id":"levelo_inurba_marseille","lat":43.30153,"lon":5.38083,"is_reserved":false,"is_disabled":false,"rental_uris":{"android":"levelo://app?vid=0700230b-bebb-4330-89ec-82fe9cc53add","ios":"levelo://app?vid=0700230b-bebb-4330-89ec-82fe9cc53add"},"vehicle_type_id":"4","last_reported":1737479295,"current_range_meters":12000,"station_id":"ce4bgjp2rcd13ifvqbh0","pricing_plan_id":"cebpf4jnsgd1na2vs0mg"},{"bike_id":"63ac8898-13b7-41ff-9418-e58ae0dbf1ba","system_id":"levelo_inurba_marseille","lat":43.27816,"lon":5.40714,"is_reserved":false,"is_disabled":true,"rental_uris":{"android":"levelo://app?vid=63ac8898-13b7-41ff-9418-e58ae0dbf1ba","ios":"levelo://app?vid=63ac8898-13b7-41ff-9418-e58ae0dbf1ba"},"vehicle_type_id":"4","last_reported":1737479295,"current_range_meters":27600,"station_id":"ce4bhnh2rcd13ifvqgtg","pricing_plan_id":"cebpf4jnsgd1na2vs0mg"},{"bike_id":"a0c8214c-1ebd-4a08-8e33-f9a20ac4bc36","system_id":"levelo_inurba_marseille","lat":43.28076,"lon":5.3966,"is_reserved":false,"is_disabled":false,"rental_uris":{"android":"levelo://app?vid=a0c8214c-1ebd-4a08-8e33-f9a20ac4bc36","ios":"levelo://app?vid=a0c8214c-1ebd-4a08-8e33-f9a20ac4bc36"},"vehicle_type_id":"4","last_reported":1737479295,"current_range_meters":12400,"station_id":"ce4bho12rcd13ifvqh2g","pricing_plan_id":"cebpf4jnsgd1na2vs0mg"},{"bike_id":"d91be513-c350-4df2-80c9-9eac41eaf470","system_id":"levelo_inurba_marseille","lat":43.27945,"lon":5.38741,"is_reserved":false,"is_disabled":true,"rental_uris":{"android":"levelo://app?vid=d91be513-c350-4df2-80c9-9eac41eaf470","ios":"levelo://app?vid=d91be513-c350-4df2-80c9-9eac41eaf470"},"vehicle_type_id":"4","last_reported":1737479295,"current_range_meters":0,"station_id":"ce4bhg12rcd13ifvqf80","pricing_plan_id":"cebpf4jnsgd1na2vs0mg"},{"bike_id":"bda5c3c5-1ce2-40be-87ca-14619f5b97ef","system_id":"levelo_inurba_marseille","lat":43.3132,"lon":5.39732,"is_reserved":false,"is_disabled":false,"rental_uris":{"android":"levelo://app?vid=bda5c3c5-1ce2-40be-87ca-14619f5b97ef","ios":"levelo://app?vid=bda5c3c5-1ce2-40be-87ca-14619f5b97ef"},"vehicle_type_id":"4","last_reported":1737479295,"current_range_meters":28800,"station_id":"ce4bgvp2rcd13ifvqcu0","pricing_plan_id":"cebpf4jnsgd1na2vs0mg"},{"bike_id":"5c16bae4-e0ec-4e3f-b617-c418bc437fd1","system_id":"levelo_inurba_marseille","lat":43.24808,"lon":5.37436,"is_reserved":false,"is_disabled":false,"rental_uris":{"android":"levelo://app?vid=5c16bae4-e0ec-4e3f-b617-c418bc437fd1","ios":"levelo://app?vid=5c16bae4-e0ec-4e3f-b617-c418bc437fd1"},"vehicle_type_id":"4","last_reported":1737479295,"current_range_meters":38800,"station_id":"ce4bhgh2rcd13ifvqfb0","pricing_plan_id":"cebpf4jnsgd1na2vs0mg"},{"bike_id":"90d77481-937d-49b4-96eb-ef8e70d5eecc","system_id":"levelo_inurba_marseille","lat":43.27546,"lon":5.42389,"is_reserved":false,"is_disabled":false,"rental_uris":{"android":"levelo://app?vid=90d77481-937d-49b4-96eb-ef8e70d5eecc","ios":"levelo://app?vid=90d77481-937d-49b4-96eb-ef8e70d5eecc"},"vehicle_type_id":"4","last_reported":1737479295,"current_range_meters":12800,"station_id":"","pricing_plan_id":"cebpf4jnsgd1na2vs0mg"},{"bike_id":"ceb468a7-db5f-4fc0-b6f1-49c7af7d56dc","system_id":"levelo_inurba_marseille","lat":43.290091,"lon":5.372868,"is_reserved":false,"is_disabled":false,"rental_uris":{"android":"levelo://app?vid=ceb468a7-db5f-4fc0-b6f1-49c7af7d56dc","ios":"levelo://app?vid=ceb468a7-db5f-4fc0-b6f1-49c7af7d56dc"},"vehicle_type_id":"4","last_reported":1737479295,"current_range_meters":24800,"station_id":"","pricing_plan_id":"cebpf4jnsgd1na2vs0mg"},{"bike_id":"5abf3f81-8b66-4826-861d-55abbb651539","system_id":"levelo_inurba_marseille","lat":43.337444,"lon":5.374475,"is_reserved":false,"is_disabled":true,"rental_uris":{"android":"levelo://app?vid=5abf3f81-8b66-4826-861d-55abbb651539","ios":"levelo://app?vid=5abf3f81-8b66-4826-861d-55abbb651539"},"vehicle_type_id":"4","last_reported":1737479295,"current_range_meters":0,"station_id":"","pricing_plan_id":"cebpf4jnsgd1na2vs0mg"},{"bike_id":"9bc726c4-f0ae-46a7-9894-3042b33f1aaf","system_id":"levelo_inurba_marseille","lat":43.231574,"lon":5.437004,"is_reserved":false,"is_disabled":false,"rental_uris":{"android":"levelo://app?vid=9bc726c4-f0ae-46a7-9894-3042b33f1aaf","ios":"levelo://app?vid=9bc726c4-f0ae-46a7-9894-3042b33f1aaf"},"vehicle_type_id":"4","last_reported":1737479295,"current_range_meters":7200,"station_id":"ce4bhmp2rcd13ifvqgog","pricing_plan_id":"cebpf4jnsgd1na2vs0mg"},{"bike_id":"04656797-d164-454b-8244-55edc7fec428","system_id":"levelo_inurba_marseille","lat":43.31708,"lon":5.42409,"is_reserved":false,"is_disabled":false,"rental_uris":{"android":"levelo://app?vid=04656797-d164-454b-8244-55edc7fec428","ios":"levelo://app?vid=04656797-d164-454b-8244-55edc7fec428"},"vehicle_type_id":"4","last_reported":1737479295,"current_range_meters":38400,"station_id":"ce4bhp92rcd13ifvqhbg","pricing_plan_id":"cebpf4jnsgd1na2vs0mg"},{"bike_id":"1f16ad06-6773-4946-8305-97dc88287b9f","system_id":"levelo_inurba_marseille","lat":43.30797,"lon":5.37345,"is_reserved":false,"is_disabled":false,"rental_uris":{"android":"levelo://app?vid=1f16ad06-6773-4946-8305-97dc88287b9f","ios":"levelo://app?vid=1f16ad06-6773-4946-8305-97dc88287b9f"},"vehicle_type_id":"4","last_reported":1737479295,"current_range_meters":25600,"station_id":"","pricing_plan_id":"cebpf4jnsgd1na2vs0mg"},{"bike_id":"d42b475f-8c6a-4ec8-88bc-07c2eb56b90b","system_id":"levelo_inurba_marseille","lat":43.31498,"lon":5.3731,"is_reserved":false,"is_disabled":false,"rental_uris":{"android":"levelo://app?vid=d42b475f-8c6a-4ec8-88bc-07c2eb56b90b","ios":"levelo://app?vid=d42b475f-8c6a-4ec8-88bc-07c2eb56b90b"},"vehicle_type_id":"4","last_reported":1737479295,"current_range_meters":37600,"station_id":"ce4bgt12rcd13ifvqcd0","pricing_plan_id":"cebpf4jnsgd1na2vs0mg"},{"bike_id":"971d4abf-d30b-437f-ab9e-384622d349de","system_id":"levelo_inurba_marseille","lat":43.28617,"lon":5.35103,"is_reserved":false,"is_disabled":false,"rental_uris":{"android":"levelo://app?vid=971d4abf-d30b-437f-ab9e-384622d349de","ios":"levelo://app?vid=971d4abf-d30b-437f-ab9e-384622d349de"},"vehicle_type_id":"4","last_reported":1737479295,"current_range_meters":6800,"station_id":"ce4bhch2rcd13ifvqeug","pricing_plan_id":"cebpf4jnsgd1na2vs0mg"},{"bike_id":"cb98d9a3-f80e-4dfe-ab30-8677e3839d9d","system_id":"levelo_inurba_marseille","lat":43.28666,"lon":5.36349,"is_reserved":false,"is_disabled":false,"rental_uris":{"android":"levelo://app?vid=cb98d9a3-f80e-4dfe-ab30-8677e3839d9d","ios":"levelo://app?vid=cb98d9a3-f80e-4dfe-ab30-8677e3839d9d"},"vehicle_type_id":"4","last_reported":1737479295,"current_range_meters":28800,"station_id":"ce4bhah2rcd13ifvqej0","pricing_plan_id":"cebpf4jnsgd1na2vs0mg"},{"bike_id":"7e4c7ea3-48f8-4aac-8b08-3e4fa595f4e5","system_id":"levelo_inurba_marseille","lat":43.287015,"lon":5.373783,"is_reserved":false,"is_disabled":false,"rental_uris":{"android":"levelo://app?vid=7e4c7ea3-48f8-4aac-8b08-3e4fa595f4e5","ios":"levelo://app?vid=7e4c7ea3-48f8-4aac-8b08-3e4fa595f4e5"},"vehicle_type_id":"4","last_reported":1737479295,"current_range_meters":18000,"station_id":"ce4bh3p2rcd13ifvqdq0","pricing_plan_id":"cebpf4jnsgd1na2vs0mg"},{"bike_id":"788f553a-762d-49db-92de-468efc098ba5","system_id":"levelo_inurba_marseille","lat":43.30882,"lon":5.39623,"is_reserved":false,"is_disabled":true,"rental_uris":{"android":"levelo://app?vid=788f553a-762d-49db-92de-468efc098ba5","ios":"levelo://app?vid=788f553a-762d-49db-92de-468efc098ba5"},"vehicle_type_id":"4","last_reported":1737479295,"current_range_meters":2000,"station_id":"ce4bh012rcd13ifvqcv0","pricing_plan_id":"cebpf4jnsgd1na2vs0mg"},{"bike_id":"a0a0acaa-184d-4e22-b907-758c5f407412","system_id":"levelo_inurba_marseille","lat":43.27997,"lon":5.41663,"is_reserved":false,"is_disabled":false,"rental_uris":{"android":"levelo://app?vid=a0a0acaa-184d-4e22-b907-758c5f407412","ios":"levelo://app?vid=a0a0acaa-184d-4e22-b907-758c5f407412"},"vehicle_type_id":"4","last_reported":1737479295,"current_range_meters":24000,"station_id":"ce4bho12rcd13ifvqh1g","pricing_plan_id":"cebpf4jnsgd1na2vs0mg"},{"bike_id":"1f6dc155-db14-4993-a445-66a4306b1945","system_id":"levelo_inurba_marseille","lat":43.28404,"lon":5.37519,"is_reserved":false,"is_disabled":false,"rental_uris":{"android":"levelo://app?vid=1f6dc155-db14-4993-a445-66a4306b1945","ios":"levelo://app?vid=1f6dc155-db14-4993-a445-66a4306b1945"},"vehicle_type_id":"4","last_reported":1737479295,"current_range_meters":28000,"station_id":"ce4bh412rcd13ifvqds0","pricing_plan_id":"cebpf4jnsgd1na2vs0mg"},{"bike_id":"63468950-507d-45fc-b23b-b241b7129b89","system_id":"levelo_inurba_marseille","lat":43.23181,"lon":5.39988,"is_reserved":false,"is_disabled":false,"rental_uris":{"android":"levelo://app?vid=63468950-507d-45fc-b23b-b241b7129b89","ios":"levelo://app?vid=63468950-507d-45fc-b23b-b241b7129b89"},"vehicle_type_id":"4","last_reported":1737479295,"current_range_meters":33200,"station_id":"ce4bhn12rcd13ifvqgqg","pricing_plan_id":"cebpf4jnsgd1na2vs0mg"},{"bike_id":"a036d79a-5d90-4c7f-ae02-024da4f1b856","system_id":"levelo_inurba_marseille","lat":43.30777,"lon":5.3765,"is_reserved":false,"is_disabled":false,"rental_uris":{"android":"levelo://app?vid=a036d79a-5d90-4c7f-ae02-024da4f1b856","ios":"levelo://app?vid=a036d79a-5d90-4c7f-ae02-024da4f1b856"},"vehicle_type_id":"4","last_reported":1737479295,"current_range_meters":38400,"station_id":"ce4bgv92rcd13ifvqcq0","pricing_plan_id":"cebpf4jnsgd1na2vs0mg"},{"bike_id":"580fd682-a63d-4470-bd40-a527c3d7e682","system_id":"levelo_inurba_marseille","lat":43.2499,"lon":5.38928,"is_reserved":false,"is_disabled":false,"rental_uris":{"android":"levelo://app?vid=580fd682-a63d-4470-bd40-a527c3d7e682","ios":"levelo://app?vid=580fd682-a63d-4470-bd40-a527c3d7e682"},"vehicle_type_id":"4","last_reported":1737479295,"current_range_meters":38800,"station_id":"ce4bhgp2rcd13ifvqfd0","pricing_plan_id":"cebpf4jnsgd1na2vs0mg"},{"bike_id":"5f3e33e0-1440-43a4-8e39-b11dd60dc85b","system_id":"levelo_inurba_marseille","lat":43.28348,"lon":5.38108,"is_reserved":false,"is_disabled":false,"rental_uris":{"android":"levelo://app?vid=5f3e33e0-1440-43a4-8e39-b11dd60dc85b","ios":"levelo://app?vid=5f3e33e0-1440-43a4-8e39-b11dd60dc85b"},"vehicle_type_id":"4","last_reported":1737479295,"current_range_meters":32400,"station_id":"ce4bh412rcd13ifvqdr0","pricing_plan_id":"cebpf4jnsgd1na2vs0mg"},{"bike_id":"bcd175e1-1fd1-4b01-ba8a-35156c99c1cc","system_id":"levelo_inurba_marseille","lat":43.31275,"lon":5.40173,"is_reserved":false,"is_disabled":false,"rental_uris":{"android":"levelo://app?vid=bcd175e1-1fd1-4b01-ba8a-35156c99c1cc","ios":"levelo://app?vid=bcd175e1-1fd1-4b01-ba8a-35156c99c1cc"},"vehicle_type_id":"4","last_reported":1737479295,"current_range_meters":38800,"station_id":"ce4bh092rcd13ifvqd30","pricing_plan_id":"cebpf4jnsgd1na2vs0mg"},{"bike_id":"89d12cd8-f184-4864-80fb-ae587f301e19","system_id":"levelo_inurba_marseille","lat":43.27812,"lon":5.39196,"is_reserved":false,"is_disabled":true,"rental_uris":{"android":"levelo://app?vid=89d12cd8-f184-4864-80fb-ae587f301e19","ios":"levelo://app?vid=89d12cd8-f184-4864-80fb-ae587f301e19"},"vehicle_type_id":"4","last_reported":1737479295,"current_range_meters":400,"station_id":"ce4bhjp2rcd13ifvqga0","pricing_plan_id":"cebpf4jnsgd1na2vs0mg"},{"bike_id":"25cce461-9c2a-4621-ab6f-7612add39744","system_id":"levelo_inurba_marseille","lat":43.31334,"lon":5.39699,"is_reserved":false,"is_disabled":false,"rental_uris":{"android":"levelo://app?vid=25cce461-9c2a-4621-ab6f-7612add39744","ios":"levelo://app?vid=25cce461-9c2a-4621-ab6f-7612add39744"},"vehicle_type_id":"4","last_reported":1737479295,"current_range_meters":38800,"station_id":"ce4bgvp2rcd13ifvqcu0","pricing_plan_id":"cebpf4jnsgd1na2vs0mg"},{"bike_id":"890f5e27-5a54-4b2c-bcef-2d6479fe6229","system_id":"levelo_inurba_marseille","lat":43.29621,"lon":5.37161,"is_reserved":false,"is_disabled":false,"rental_uris":{"android":"levelo://app?vid=890f5e27-5a54-4b2c-bcef-2d6479fe6229","ios":"levelo://app?vid=890f5e27-5a54-4b2c-bcef-2d6479fe6229"},"vehicle_type_id":"4","last_reported":1737479295,"current_range_meters":38000,"station_id":"ce4bgnh2rcd13ifvqc0g","pricing_plan_id":"cebpf4jnsgd1na2vs0mg"},{"bike_id":"46b0f335-8ff9-4e98-82de-e1bff7b2bc3c","system_id":"levelo_inurba_marseille","lat":43.24178,"lon":5.39733,"is_reserved":false,"is_disabled":false,"rental_uris":{"android":"levelo://app?vid=46b0f335-8ff9-4e98-82de-e1bff7b2bc3c","ios":"levelo://app?vid=46b0f335-8ff9-4e98-82de-e1bff7b2bc3c"},"vehicle_type_id":"4","last_reported":1737479295,"current_range_meters":16400,"station_id":"ce4bhn12rcd13ifvqgpg","pricing_plan_id":"cebpf4jnsgd1na2vs0mg"},{"bike_id":"229dd1d5-aa46-48d3-b747-f187a4236bff","system_id":"levelo_inurba_marseille","lat":43.32362,"lon":5.3888,"is_reserved":false,"is_disabled":false,"rental_uris":{"android":"levelo://app?vid=229dd1d5-aa46-48d3-b747-f187a4236bff","ios":"levelo://app?vid=229dd1d5-aa46-48d3-b747-f187a4236bff"},"vehicle_type_id":"4","last_reported":1737479295,"current_range_meters":26000,"station_id":"ce4bhqp2rcd13ifvqhog","pricing_plan_id":"cebpf4jnsgd1na2vs0mg"},{"bike_id":"16b5f34e-f3e2-4324-b0c8-0221b4770b7d","system_id":"levelo_inurba_marseille","lat":43.2815,"lon":5.42656,"is_reserved":false,"is_disabled":false,"rental_uris":{"android":"levelo://app?vid=16b5f34e-f3e2-4324-b0c8-0221b4770b7d","ios":"levelo://app?vid=16b5f34e-f3e2-4324-b0c8-0221b4770b7d"},"vehicle_type_id":"4","last_reported":1737479295,"current_range_meters":25600,"station_id":"ce4bhnh2rcd13ifvqgug","pricing_plan_id":"cebpf4jnsgd1na2vs0mg"},{"bike_id":"d168c0d2-7e9c-4281-8287-adba8eeb5dcf","system_id":"levelo_inurba_marseille","lat":43.30313,"lon":5.40446,"is_reserved":false,"is_disabled":false,"rental_uris":{"android":"levelo://app?vid=d168c0d2-7e9c-4281-8287-adba8eeb5dcf","ios":"levelo://app?vid=d168c0d2-7e9c-4281-8287-adba8eeb5dcf"},"vehicle_type_id":"4","last_reported":1737479295,"current_range_meters":38800,"station_id":"ce4bh012rcd13ifvqd10","pricing_plan_id":"cebpf4jnsgd1na2vs0mg"},{"bike_id":"d2d8e450-ceb4-4e79-abe9-ded25f1a7625","system_id":"levelo_inurba_marseille","lat":43.28669,"lon":5.36356,"is_reserved":false,"is_disabled":false,"rental_uris":{"android":"levelo://app?vid=d2d8e450-ceb4-4e79-abe9-ded25f1a7625","ios":"levelo://app?vid=d2d8e450-ceb4-4e79-abe9-ded25f1a7625"},"vehicle_type_id":"4","last_reported":1737479295,"current_range_meters":28400,"station_id":"ce4bhah2rcd13ifvqej0","pricing_plan_id":"cebpf4jnsgd1na2vs0mg"},{"bike_id":"b6cc31be-151e-4d56-8839-e71a9cd45b18","system_id":"levelo_inurba_marseille","lat":43.23192,"lon":5.35554,"is_reserved":false,"is_disabled":false,"rental_uris":{"android":"levelo://app?vid=b6cc31be-151e-4d56-8839-e71a9cd45b18","ios":"levelo://app?vid=b6cc31be-151e-4d56-8839-e71a9cd45b18"},"vehicle_type_id":"4","last_reported":1737479295,"current_range_meters":36400,"station_id":"ce4bhu92rcd13ifvqi70","pricing_plan_id":"cebpf4jnsgd1na2vs0mg"},{"bike_id":"fe64966a-e343-4da5-b7d8-a247430a1c88","system_id":"levelo_inurba_marseille","lat":43.32979,"lon":5.39193,"is_reserved":false,"is_disabled":false,"rental_uris":{"android":"levelo://app?vid=fe64966a-e343-4da5-b7d8-a247430a1c88","ios":"levelo://app?vid=fe64966a-e343-4da5-b7d8-a247430a1c88"},"vehicle_type_id":"4","last_reported":1737479295,"current_range_meters":28000,"station_id":"","pricing_plan_id":"cebpf4jnsgd1na2vs0mg"},{"bike_id":"15524234-5401-4aa4-b353-f94ac2bcdc0d","system_id":"levelo_inurba_marseille","lat":43.29417,"lon":5.386327,"is_reserved":false,"is_disabled":false,"rental_uris":{"android":"levelo://app?vid=15524234-5401-4aa4-b353-f94ac2bcdc0d","ios":"levelo://app?vid=15524234-5401-4aa4-b353-f94ac2bcdc0d"},"vehicle_type_id":"4","last_reported":1737479295,"current_range_meters":39200,"station_id":"ce4bh2h2rcd13ifvqdh0","pricing_plan_id":"cebpf4jnsgd1na2vs0mg"},{"bike_id":"3c65f2b4-cac1-43d3-b771-59045afddcab","system_id":"levelo_inurba_marseille","lat":43.26557,"lon":5.37301,"is_reserved":false,"is_disabled":false,"rental_uris":{"android":"levelo://app?vid=3c65f2b4-cac1-43d3-b771-59045afddcab","ios":"levelo://app?vid=3c65f2b4-cac1-43d3-b771-59045afddcab"},"vehicle_type_id":"4","last_reported":1737479295,"current_range_meters":35600,"station_id":"ce4bhg12rcd13ifvqf70","pricing_plan_id":"cebpf4jnsgd1na2vs0mg"},{"bike_id":"bf04cb94-1bb7-4539-a87b-98c1f139ab50","system_id":"levelo_inurba_marseille","lat":43.29917,"lon":5.37473,"is_reserved":false,"is_disabled":false,"rental_uris":{"android":"levelo://app?vid=bf04cb94-1bb7-4539-a87b-98c1f139ab50","ios":"levelo://app?vid=bf04cb94-1bb7-4539-a87b-98c1f139ab50"},"vehicle_type_id":"4","last_reported":1737479295,"current_range_meters":24400,"station_id":"ce4bgjh2rcd13ifvqbg0","pricing_plan_id":"cebpf4jnsgd1na2vs0mg"},{"bike_id":"325f5d95-3834-4102-8bbb-39fd80a69fc8","system_id":"levelo_inurba_marseille","lat":43.33181,"lon":5.40648,"is_reserved":false,"is_disabled":false,"rental_uris":{"android":"levelo://app?vid=325f5d95-3834-4102-8bbb-39fd80a69fc8","ios":"levelo://app?vid=325f5d95-3834-4102-8bbb-39fd80a69fc8"},"vehicle_type_id":"4","last_reported":1737479295,"current_range_meters":36400,"station_id":"","pricing_plan_id":"cebpf4jnsgd1na2vs0mg"},{"bike_id":"46c98903-b2fd-46dd-8b3f-e5dc5b4e7497","system_id":"levelo_inurba_marseille","lat":43.26938,"lon":5.40261,"is_reserved":false,"is_disabled":false,"rental_uris":{"android":"levelo://app?vid=46c98903-b2fd-46dd-8b3f-e5dc5b4e7497","ios":"levelo://app?vid=46c98903-b2fd-46dd-8b3f-e5dc5b4e7497"},"vehicle_type_id":"4","last_reported":1737479295,"current_range_meters":3200,"station_id":"cjm6bp8fraef2m0cb0m0","pricing_plan_id":"cebpf4jnsgd1na2vs0mg"},{"bike_id":"e1b86826-a513-4fa0-8111-6fab965861d5","system_id":"levelo_inurba_marseille","lat":43.31711,"lon":5.43707,"is_reserved":false,"is_disabled":false,"rental_uris":{"android":"levelo://app?vid=e1b86826-a513-4fa0-8111-6fab965861d5","ios":"levelo://app?vid=e1b86826-a513-4fa0-8111-6fab965861d5"},"vehicle_type_id":"4","last_reported":1737479295,"current_range_meters":14000,"station_id":"ce4bhp92rcd13ifvqhcg","pricing_plan_id":"cebpf4jnsgd1na2vs0mg"},{"bike_id":"ffd1b389-c3e7-4e31-bba8-d5204fb953c6","system_id":"levelo_inurba_marseille","lat":43.2895,"lon":5.3641,"is_reserved":false,"is_disabled":false,"rental_uris":{"android":"levelo://app?vid=ffd1b389-c3e7-4e31-bba8-d5204fb953c6","ios":"levelo://app?vid=ffd1b389-c3e7-4e31-bba8-d5204fb953c6"},"vehicle_type_id":"4","last_reported":1737479295,"current_range_meters":19600,"station_id":"ce4bhc92rcd13ifvqetg","pricing_plan_id":"cebpf4jnsgd1na2vs0mg"},{"bike_id":"cfb7bb33-106d-4ac0-9223-5a80bd6716f4","system_id":"levelo_inurba_marseille","lat":43.29532,"lon":5.38538,"is_reserved":false,"is_disabled":false,"rental_uris":{"android":"levelo://app?vid=cfb7bb33-106d-4ac0-9223-5a80bd6716f4","ios":"levelo://app?vid=cfb7bb33-106d-4ac0-9223-5a80bd6716f4"},"vehicle_type_id":"4","last_reported":1737479295,"current_range_meters":39200,"station_id":"ce4bgih2rcd13ifvqba0","pricing_plan_id":"cebpf4jnsgd1na2vs0mg"},{"bike_id":"2512448d-137b-4c58-a2dc-a8485ce50ee5","system_id":"levelo_inurba_marseille","lat":43.27814,"lon":5.40722,"is_reserved":false,"is_disabled":true,"rental_uris":{"android":"levelo://app?vid=2512448d-137b-4c58-a2dc-a8485ce50ee5","ios":"levelo://app?vid=2512448d-137b-4c58-a2dc-a8485ce50ee5"},"vehicle_type_id":"4","last_reported":1737479295,"current_range_meters":0,"station_id":"ce4bhnh2rcd13ifvqgtg","pricing_plan_id":"cebpf4jnsgd1na2vs0mg"},{"bike_id":"2a982a3f-c10e-46f7-8f41-69291b84f994","system_id":"levelo_inurba_marseille","lat":43.29706,"lon":5.37645,"is_reserved":false,"is_disabled":false,"rental_uris":{"android":"levelo://app?vid=2a982a3f-c10e-46f7-8f41-69291b84f994","ios":"levelo://app?vid=2a982a3f-c10e-46f7-8f41-69291b84f994"},"vehicle_type_id":"4","last_reported":1737479295,"current_range_meters":27200,"station_id":"ce4bgkh2rcd13ifvqbl0","pricing_plan_id":"cebpf4jnsgd1na2vs0mg"},{"bike_id":"f74368c7-d357-4224-9e6d-5e00530203e7","system_id":"levelo_inurba_marseille","lat":43.28077,"lon":5.39658,"is_reserved":false,"is_disabled":false,"rental_uris":{"android":"levelo://app?vid=f74368c7-d357-4224-9e6d-5e00530203e7","ios":"levelo://app?vid=f74368c7-d357-4224-9e6d-5e00530203e7"},"vehicle_type_id":"4","last_reported":1737479295,"current_range_meters":38000,"station_id":"ce4bho12rcd13ifvqh2g","pricing_plan_id":"cebpf4jnsgd1na2vs0mg"},{"bike_id":"1f5cb474-798b-4357-9d76-fbb42e648fb5","system_id":"levelo_inurba_marseille","lat":43.28623,"lon":5.35094,"is_reserved":false,"is_disabled":false,"rental_uris":{"android":"levelo://app?vid=1f5cb474-798b-4357-9d76-fbb42e648fb5","ios":"levelo://app?vid=1f5cb474-798b-4357-9d76-fbb42e648fb5"},"vehicle_type_id":"4","last_reported":1737479295,"current_range_meters":14000,"station_id":"ce4bhch2rcd13ifvqeug","pricing_plan_id":"cebpf4jnsgd1na2vs0mg"},{"bike_id":"6efe31cc-0992-44f6-9461-e1e3f6c96fc9","system_id":"levelo_inurba_marseille","lat":43.29625,"lon":5.37168,"is_reserved":false,"is_disabled":false,"rental_uris":{"android":"levelo://app?vid=6efe31cc-0992-44f6-9461-e1e3f6c96fc9","ios":"levelo://app?vid=6efe31cc-0992-44f6-9461-e1e3f6c96fc9"},"vehicle_type_id":"4","last_reported":1737479295,"current_range_meters":10800,"station_id":"ce4bgnh2rcd13ifvqc0g","pricing_plan_id":"cebpf4jnsgd1na2vs0mg"},{"bike_id":"e0dd1ce8-6598-45f9-b4fe-9d8cc08f1d88","system_id":"levelo_inurba_marseille","lat":43.28419,"lon":5.34993,"is_reserved":false,"is_disabled":false,"rental_uris":{"android":"levelo://app?vid=e0dd1ce8-6598-45f9-b4fe-9d8cc08f1d88","ios":"levelo://app?vid=e0dd1ce8-6598-45f9-b4fe-9d8cc08f1d88"},"vehicle_type_id":"4","last_reported":1737479295,"current_range_meters":38800,"station_id":"ce4bhbh2rcd13ifvqepg","pricing_plan_id":"cebpf4jnsgd1na2vs0mg"},{"bike_id":"7b2b96b7-8723-423b-bc80-b7103e400bb0","system_id":"levelo_inurba_marseille","lat":43.271743,"lon":5.4099,"is_reserved":false,"is_disabled":false,"rental_uris":{"android":"levelo://app?vid=7b2b96b7-8723-423b-bc80-b7103e400bb0","ios":"levelo://app?vid=7b2b96b7-8723-423b-bc80-b7103e400bb0"},"vehicle_type_id":"4","last_reported":1737479295,"current_range_meters":38800,"station_id":"ce4bhl12rcd13ifvqgf0","pricing_plan_id":"cebpf4jnsgd1na2vs0mg"},{"bike_id":"4333c3c6-ccd2-4336-8576-4776870e8e3e","system_id":"levelo_inurba_marseille","lat":43.29365,"lon":5.37843,"is_reserved":false,"is_disabled":false,"rental_uris":{"android":"levelo://app?vid=4333c3c6-ccd2-4336-8576-4776870e8e3e","ios":"levelo://app?vid=4333c3c6-ccd2-4336-8576-4776870e8e3e"},"vehicle_type_id":"4","last_reported":1737479295,"current_range_meters":32400,"station_id":"ce4bgjh2rcd13ifvqbf0","pricing_plan_id":"cebpf4jnsgd1na2vs0mg"},{"bike_id":"b170e9a4-09ba-4d1d-9710-7c66571f87d3","system_id":"levelo_inurba_marseille","lat":43.2717,"lon":5.40993,"is_reserved":false,"is_disabled":false,"rental_uris":{"android":"levelo://app?vid=b170e9a4-09ba-4d1d-9710-7c66571f87d3","ios":"levelo://app?vid=b170e9a4-09ba-4d1d-9710-7c66571f87d3"},"vehicle_type_id":"4","last_reported":1737479295,"current_range_meters":24800,"station_id":"ce4bhl12rcd13ifvqgf0","pricing_plan_id":"cebpf4jnsgd1na2vs0mg"},{"bike_id":"784a4db8-b523-44fa-863a-df01fcaa4721","system_id":"levelo_inurba_marseille","lat":43.2397,"lon":5.3662,"is_reserved":false,"is_disabled":false,"rental_uris":{"android":"levelo://app?vid=784a4db8-b523-44fa-863a-df01fcaa4721","ios":"levelo://app?vid=784a4db8-b523-44fa-863a-df01fcaa4721"},"vehicle_type_id":"4","last_reported":1737479295,"current_range_meters":16000,"station_id":"ce4bhi12rcd13ifvqfp0","pricing_plan_id":"cebpf4jnsgd1na2vs0mg"},{"bike_id":"206c1ea3-76a6-4a84-b196-f12f147ecaf3","system_id":"levelo_inurba_marseille","lat":43.30801,"lon":5.38147,"is_reserved":false,"is_disabled":false,"rental_uris":{"android":"levelo://app?vid=206c1ea3-76a6-4a84-b196-f12f147ecaf3","ios":"levelo://app?vid=206c1ea3-76a6-4a84-b196-f12f147ecaf3"},"vehicle_type_id":"4","last_reported":1737479295,"current_range_meters":6400,"station_id":"ce4bgt12rcd13ifvqce0","pricing_plan_id":"cebpf4jnsgd1na2vs0mg"},{"bike_id":"6ffa5ae6-244c-434c-a87a-7ede18f58791","system_id":"levelo_inurba_marseille","lat":43.29525,"lon":5.38547,"is_reserved":false,"is_disabled":false,"rental_uris":{"android":"levelo://app?vid=6ffa5ae6-244c-434c-a87a-7ede18f58791","ios":"levelo://app?vid=6ffa5ae6-244c-434c-a87a-7ede18f58791"},"vehicle_type_id":"4","last_reported":1737479295,"current_range_meters":28000,"station_id":"ce4bgih2rcd13ifvqba0","pricing_plan_id":"cebpf4jnsgd1na2vs0mg"},{"bike_id":"55686331-8692-4ddf-8057-eac9af7e8897","system_id":"levelo_inurba_marseille","lat":43.29367,"lon":5.37839,"is_reserved":false,"is_disabled":false,"rental_uris":{"android":"levelo://app?vid=55686331-8692-4ddf-8057-eac9af7e8897","ios":"levelo://app?vid=55686331-8692-4ddf-8057-eac9af7e8897"},"vehicle_type_id":"4","last_reported":1737479295,"current_range_meters":36800,"station_id":"ce4bgjh2rcd13ifvqbf0","pricing_plan_id":"cebpf4jnsgd1na2vs0mg"},{"bike_id":"cb800b4d-ddb4-4a43-9264-6a686c51415e","system_id":"levelo_inurba_marseille","lat":43.29412,"lon":5.38618,"is_reserved":false,"is_disabled":false,"rental_uris":{"android":"levelo://app?vid=cb800b4d-ddb4-4a43-9264-6a686c51415e","ios":"levelo://app?vid=cb800b4d-ddb4-4a43-9264-6a686c51415e"},"vehicle_type_id":"4","last_reported":1737479295,"current_range_meters":28400,"station_id":"ce4bh2h2rcd13ifvqdh0","pricing_plan_id":"cebpf4jnsgd1na2vs0mg"},{"bike_id":"6e1433da-ca9f-4090-b658-fb877339609a","system_id":"levelo_inurba_marseille","lat":43.27816,"lon":5.40709,"is_reserved":false,"is_disabled":false,"rental_uris":{"android":"levelo://app?vid=6e1433da-ca9f-4090-b658-fb877339609a","ios":"levelo://app?vid=6e1433da-ca9f-4090-b658-fb877339609a"},"vehicle_type_id":"4","last_reported":1737479295,"current_range_meters":36800,"station_id":"ce4bhnh2rcd13ifvqgtg","pricing_plan_id":"cebpf4jnsgd1na2vs0mg"},{"bike_id":"9f53449a-929c-4016-9290-63efb7cac552","system_id":"levelo_inurba_marseille","lat":43.29846,"lon":5.36272,"is_reserved":false,"is_disabled":false,"rental_uris":{"android":"levelo://app?vid=9f53449a-929c-4016-9290-63efb7cac552","ios":"levelo://app?vid=9f53449a-929c-4016-9290-63efb7cac552"},"vehicle_type_id":"4","last_reported":1737479295,"current_range_meters":16000,"station_id":"ce4bgpp2rcd13ifvqc3g","pricing_plan_id":"cebpf4jnsgd1na2vs0mg"},{"bike_id":"2501ae24-5703-45d3-ac01-dec581041e28","system_id":"levelo_inurba_marseille","lat":43.28668,"lon":5.36345,"is_reserved":false,"is_disabled":false,"rental_uris":{"android":"levelo://app?vid=2501ae24-5703-45d3-ac01-dec581041e28","ios":"levelo://app?vid=2501ae24-5703-45d3-ac01-dec581041e28"},"vehicle_type_id":"4","last_reported":1737479295,"current_range_meters":10000,"station_id":"","pricing_plan_id":"cebpf4jnsgd1na2vs0mg"},{"bike_id":"df6cb786-e539-456a-b273-12914419c227","system_id":"levelo_inurba_marseille","lat":43.29842,"lon":5.3627,"is_reserved":false,"is_disabled":false,"rental_uris":{"android":"levelo://app?vid=df6cb786-e539-456a-b273-12914419c227","ios":"levelo://app?vid=df6cb786-e539-456a-b273-12914419c227"},"vehicle_type_id":"4","last_reported":1737479295,"current_range_meters":34800,"station_id":"ce4bgpp2rcd13ifvqc3g","pricing_plan_id":"cebpf4jnsgd1na2vs0mg"},{"bike_id":"f0f2a603-9395-4e08-a7bd-6c5c14acdff0","system_id":"levelo_inurba_marseille","lat":43.29253,"lon":5.40907,"is_reserved":false,"is_disabled":false,"rental_uris":{"android":"levelo://app?vid=f0f2a603-9395-4e08-a7bd-6c5c14acdff0","ios":"levelo://app?vid=f0f2a603-9395-4e08-a7bd-6c5c14acdff0"},"vehicle_type_id":"4","last_reported":1737479295,"current_range_meters":24000,"station_id":"ce4bh192rcd13ifvqdc0","pricing_plan_id":"cebpf4jnsgd1na2vs0mg"},{"bike_id":"9ca4de9a-cfca-4937-bf4d-f360d7c8f7f5","system_id":"levelo_inurba_marseille","lat":43.305408,"lon":5.365304,"is_reserved":false,"is_disabled":false,"rental_uris":{"android":"levelo://app?vid=9ca4de9a-cfca-4937-bf4d-f360d7c8f7f5","ios":"levelo://app?vid=9ca4de9a-cfca-4937-bf4d-f360d7c8f7f5"},"vehicle_type_id":"4","last_reported":1737479295,"current_range_meters":38000,"station_id":"ce4bgs12rcd13ifvqcag","pricing_plan_id":"cebpf4jnsgd1na2vs0mg"},{"bike_id":"5a3399d5-97bb-4fe3-b679-1e5236ae7dc4","system_id":"levelo_inurba_marseille","lat":43.29262,"lon":5.38441,"is_reserved":false,"is_disabled":false,"rental_uris":{"android":"levelo://app?vid=5a3399d5-97bb-4fe3-b679-1e5236ae7dc4","ios":"levelo://app?vid=5a3399d5-97bb-4fe3-b679-1e5236ae7dc4"},"vehicle_type_id":"4","last_reported":1737479295,"current_range_meters":28400,"station_id":"ce4bh692rcd13ifvqea0","pricing_plan_id":"cebpf4jnsgd1na2vs0mg"},{"bike_id":"24afdfab-37c4-4735-92c6-d449a19a0169","system_id":"levelo_inurba_marseille","lat":43.28156,"lon":5.42644,"is_reserved":false,"is_disabled":true,"rental_uris":{"android":"levelo://app?vid=24afdfab-37c4-4735-92c6-d449a19a0169","ios":"levelo://app?vid=24afdfab-37c4-4735-92c6-d449a19a0169"},"vehicle_type_id":"4","last_reported":1737479295,"current_range_meters":1200,"station_id":"ce4bhnh2rcd13ifvqgug","pricing_plan_id":"cebpf4jnsgd1na2vs0mg"},{"bike_id":"ecb5b041-6b5e-4078-9351-03e340d23225","system_id":"levelo_inurba_marseille","lat":43.2557,"lon":5.38231,"is_reserved":false,"is_disabled":true,"rental_uris":{"android":"levelo://app?vid=ecb5b041-6b5e-4078-9351-03e340d23225","ios":"levelo://app?vid=ecb5b041-6b5e-4078-9351-03e340d23225"},"vehicle_type_id":"4","last_reported":1737479295,"current_range_meters":0,"station_id":"ce4bhih2rcd13ifvqfs0","pricing_plan_id":"cebpf4jnsgd1na2vs0mg"},{"bike_id":"3e2413f1-be2a-4539-9db1-7ce3307c11de","system_id":"levelo_inurba_marseille","lat":43.30645,"lon":5.40104,"is_reserved":false,"is_disabled":false,"rental_uris":{"android":"levelo://app?vid=3e2413f1-be2a-4539-9db1-7ce3307c11de","ios":"levelo://app?vid=3e2413f1-be2a-4539-9db1-7ce3307c11de"},"vehicle_type_id":"4","last_reported":1737479295,"current_range_meters":37600,"station_id":"ce4bh112rcd13ifvqda0","pricing_plan_id":"cebpf4jnsgd1na2vs0mg"},{"bike_id":"82b9fcb3-21e7-403c-b9c6-7c15b2e435d8","system_id":"levelo_inurba_marseille","lat":43.28152,"lon":5.42637,"is_reserved":false,"is_disabled":false,"rental_uris":{"android":"levelo://app?vid=82b9fcb3-21e7-403c-b9c6-7c15b2e435d8","ios":"levelo://app?vid=82b9fcb3-21e7-403c-b9c6-7c15b2e435d8"},"vehicle_type_id":"4","last_reported":1737479295,"current_range_meters":16000,"station_id":"ce4bhnh2rcd13ifvqgug","pricing_plan_id":"cebpf4jnsgd1na2vs0mg"},{"bike_id":"fb351521-7339-453e-ad06-c068124edeec","system_id":"levelo_inurba_marseille","lat":43.23193,"lon":5.39982,"is_reserved":false,"is_disabled":false,"rental_uris":{"android":"levelo://app?vid=fb351521-7339-453e-ad06-c068124edeec","ios":"levelo://app?vid=fb351521-7339-453e-ad06-c068124edeec"},"vehicle_type_id":"4","last_reported":1737479295,"current_range_meters":17600,"station_id":"ce4bhn12rcd13ifvqgqg","pricing_plan_id":"cebpf4jnsgd1na2vs0mg"},{"bike_id":"b86a3e1d-3f83-41ea-bb2d-340a69ea0c88","system_id":"levelo_inurba_marseille","lat":43.31701,"lon":5.37745,"is_reserved":false,"is_disabled":false,"rental_uris":{"android":"levelo://app?vid=b86a3e1d-3f83-41ea-bb2d-340a69ea0c88","ios":"levelo://app?vid=b86a3e1d-3f83-41ea-bb2d-340a69ea0c88"},"vehicle_type_id":"4","last_reported":1737479295,"current_range_meters":27600,"station_id":"ce4bgth2rcd13ifvqch0","pricing_plan_id":"cebpf4jnsgd1na2vs0mg"},{"bike_id":"e1e42992-5336-477d-b335-9533a894f139","system_id":"levelo_inurba_marseille","lat":43.30306,"lon":5.39208,"is_reserved":false,"is_disabled":false,"rental_uris":{"android":"levelo://app?vid=e1e42992-5336-477d-b335-9533a894f139","ios":"levelo://app?vid=e1e42992-5336-477d-b335-9533a894f139"},"vehicle_type_id":"4","last_reported":1737479295,"current_range_meters":32800,"station_id":"ce4bgkh2rcd13ifvqbk0","pricing_plan_id":"cebpf4jnsgd1na2vs0mg"},{"bike_id":"927c86c8-6c98-40ae-9411-d6655e1ef49b","system_id":"levelo_inurba_marseille","lat":43.29263,"lon":5.38446,"is_reserved":false,"is_disabled":false,"rental_uris":{"android":"levelo://app?vid=927c86c8-6c98-40ae-9411-d6655e1ef49b","ios":"levelo://app?vid=927c86c8-6c98-40ae-9411-d6655e1ef49b"},"vehicle_type_id":"4","last_reported":1737479295,"current_range_meters":8800,"station_id":"ce4bh692rcd13ifvqea0","pricing_plan_id":"cebpf4jnsgd1na2vs0mg"},{"bike_id":"5f8e19c0-9d34-400f-8357-29490985c9f2","system_id":"levelo_inurba_marseille","lat":43.27375,"lon":5.36252,"is_reserved":false,"is_disabled":true,"rental_uris":{"android":"levelo://app?vid=5f8e19c0-9d34-400f-8357-29490985c9f2","ios":"levelo://app?vid=5f8e19c0-9d34-400f-8357-29490985c9f2"},"vehicle_type_id":"4","last_reported":1737479295,"current_range_meters":1600,"station_id":"ce4bhbh2rcd13ifvqeo0","pricing_plan_id":"cebpf4jnsgd1na2vs0mg"},{"bike_id":"3251b621-179f-437f-84f8-9d5f1f665e8e","system_id":"levelo_inurba_marseille","lat":43.2842,"lon":5.37524,"is_reserved":false,"is_disabled":false,"rental_uris":{"android":"levelo://app?vid=3251b621-179f-437f-84f8-9d5f1f665e8e","ios":"levelo://app?vid=3251b621-179f-437f-84f8-9d5f1f665e8e"},"vehicle_type_id":"4","last_reported":1737479295,"current_range_meters":38800,"station_id":"ce4bh412rcd13ifvqds0","pricing_plan_id":"cebpf4jnsgd1na2vs0mg"},{"bike_id":"49e863e7-823e-4e9b-9150-30a232f530d5","system_id":"levelo_inurba_marseille","lat":43.28458,"lon":5.35895,"is_reserved":false,"is_disabled":false,"rental_uris":{"android":"levelo://app?vid=49e863e7-823e-4e9b-9150-30a232f530d5","ios":"levelo://app?vid=49e863e7-823e-4e9b-9150-30a232f530d5"},"vehicle_type_id":"4","last_reported":1737479295,"current_range_meters":28000,"station_id":"ce4bhah2rcd13ifvqei0","pricing_plan_id":"cebpf4jnsgd1na2vs0mg"},{"bike_id":"a546c9b0-986b-47f8-b1d7-665e2fa1229f","system_id":"levelo_inurba_marseille","lat":43.28097,"lon":5.3785,"is_reserved":false,"is_disabled":true,"rental_uris":{"android":"levelo://app?vid=a546c9b0-986b-47f8-b1d7-665e2fa1229f","ios":"levelo://app?vid=a546c9b0-986b-47f8-b1d7-665e2fa1229f"},"vehicle_type_id":"4","last_reported":1737479295,"current_range_meters":38800,"station_id":"ce4bha12rcd13ifvqee0","pricing_plan_id":"cebpf4jnsgd1na2vs0mg"},{"bike_id":"33139c11-cfaa-44e3-b7d7-af0c7eb03689","system_id":"levelo_inurba_marseille","lat":43.29165,"lon":5.3716,"is_reserved":false,"is_disabled":false,"rental_uris":{"android":"levelo://app?vid=33139c11-cfaa-44e3-b7d7-af0c7eb03689","ios":"levelo://app?vid=33139c11-cfaa-44e3-b7d7-af0c7eb03689"},"vehicle_type_id":"4","last_reported":1737479295,"current_range_meters":7200,"station_id":"ce4bha92rcd13ifvqeh0","pricing_plan_id":"cebpf4jnsgd1na2vs0mg"},{"bike_id":"ee16238f-c365-44f7-8e7a-6ac2c87ed34c","system_id":"levelo_inurba_marseille","lat":43.24805,"lon":5.37458,"is_reserved":false,"is_disabled":false,"rental_uris":{"android":"levelo://app?vid=ee16238f-c365-44f7-8e7a-6ac2c87ed34c","ios":"levelo://app?vid=ee16238f-c365-44f7-8e7a-6ac2c87ed34c"},"vehicle_type_id":"4","last_reported":1737479295,"current_range_meters":18800,"station_id":"ce4bhgh2rcd13ifvqfb0","pricing_plan_id":"cebpf4jnsgd1na2vs0mg"},{"bike_id":"206500f1-ba44-4810-981b-2b2ae8a5232a","system_id":"levelo_inurba_marseille","lat":43.31537,"lon":5.3721,"is_reserved":false,"is_disabled":false,"rental_uris":{"android":"levelo://app?vid=206500f1-ba44-4810-981b-2b2ae8a5232a","ios":"levelo://app?vid=206500f1-ba44-4810-981b-2b2ae8a5232a"},"vehicle_type_id":"4","last_reported":1737479295,"current_range_meters":39200,"station_id":"ce4bgt12rcd13ifvqcd0","pricing_plan_id":"cebpf4jnsgd1na2vs0mg"},{"bike_id":"0b996f88-37e2-4e3a-998a-b6045f849338","system_id":"levelo_inurba_marseille","lat":43.32329,"lon":5.40621,"is_reserved":false,"is_disabled":false,"rental_uris":{"android":"levelo://app?vid=0b996f88-37e2-4e3a-998a-b6045f849338","ios":"levelo://app?vid=0b996f88-37e2-4e3a-998a-b6045f849338"},"vehicle_type_id":"4","last_reported":1737479295,"current_range_meters":14800,"station_id":"ce4bhq92rcd13ifvqhjg","pricing_plan_id":"cebpf4jnsgd1na2vs0mg"},{"bike_id":"8cb2226e-4b26-4c84-95d0-c5646da9dc2a","system_id":"levelo_inurba_marseille","lat":43.305267,"lon":5.384348,"is_reserved":false,"is_disabled":false,"rental_uris":{"android":"levelo://app?vid=8cb2226e-4b26-4c84-95d0-c5646da9dc2a","ios":"levelo://app?vid=8cb2226e-4b26-4c84-95d0-c5646da9dc2a"},"vehicle_type_id":"4","last_reported":1737479295,"current_range_meters":33600,"station_id":"ce4bgg92rcd13ifvqb30","pricing_plan_id":"cebpf4jnsgd1na2vs0mg"},{"bike_id":"9504b7e0-2f20-49ea-814e-e380f0d8ec79","system_id":"levelo_inurba_marseille","lat":43.32108,"lon":5.36793,"is_reserved":false,"is_disabled":false,"rental_uris":{"android":"levelo://app?vid=9504b7e0-2f20-49ea-814e-e380f0d8ec79","ios":"levelo://app?vid=9504b7e0-2f20-49ea-814e-e380f0d8ec79"},"vehicle_type_id":"4","last_reported":1737479295,"current_range_meters":37600,"station_id":"ce4bhrh2rcd13ifvqhug","pricing_plan_id":"cebpf4jnsgd1na2vs0mg"},{"bike_id":"6974ec36-364b-47ec-afbc-e384777462d5","system_id":"levelo_inurba_marseille","lat":43.29421,"lon":5.38632,"is_reserved":false,"is_disabled":false,"rental_uris":{"android":"levelo://app?vid=6974ec36-364b-47ec-afbc-e384777462d5","ios":"levelo://app?vid=6974ec36-364b-47ec-afbc-e384777462d5"},"vehicle_type_id":"4","last_reported":1737479295,"current_range_meters":28800,"station_id":"ce4bh2h2rcd13ifvqdh0","pricing_plan_id":"cebpf4jnsgd1na2vs0mg"},{"bike_id":"e12305c6-5b47-4852-95f6-0a4644c010c6","system_id":"levelo_inurba_marseille","lat":43.29273,"lon":5.38436,"is_reserved":false,"is_disabled":false,"rental_uris":{"android":"levelo://app?vid=e12305c6-5b47-4852-95f6-0a4644c010c6","ios":"levelo://app?vid=e12305c6-5b47-4852-95f6-0a4644c010c6"},"vehicle_type_id":"4","last_reported":1737479295,"current_range_meters":14800,"station_id":"ce4bh692rcd13ifvqea0","pricing_plan_id":"cebpf4jnsgd1na2vs0mg"},{"bike_id":"c43bdcb7-720e-4011-905f-292afc14076a","system_id":"levelo_inurba_marseille","lat":43.26551,"lon":5.37288,"is_reserved":false,"is_disabled":true,"rental_uris":{"android":"levelo://app?vid=c43bdcb7-720e-4011-905f-292afc14076a","ios":"levelo://app?vid=c43bdcb7-720e-4011-905f-292afc14076a"},"vehicle_type_id":"4","last_reported":1737479295,"current_range_meters":0,"station_id":"ce4bhg12rcd13ifvqf70","pricing_plan_id":"cebpf4jnsgd1na2vs0mg"},{"bike_id":"06978075-f904-474e-b155-e81398823e52","system_id":"levelo_inurba_marseille","lat":43.3031,"lon":5.39203,"is_reserved":false,"is_disabled":false,"rental_uris":{"android":"levelo://app?vid=06978075-f904-474e-b155-e81398823e52","ios":"levelo://app?vid=06978075-f904-474e-b155-e81398823e52"},"vehicle_type_id":"4","last_reported":1737479295,"current_range_meters":39200,"station_id":"ce4bgkh2rcd13ifvqbk0","pricing_plan_id":"cebpf4jnsgd1na2vs0mg"},{"bike_id":"f9e64d67-e799-49f8-afc1-5daa04f1147d","system_id":"levelo_inurba_marseille","lat":43.29323,"lon":5.4114,"is_reserved":false,"is_disabled":false,"rental_uris":{"android":"levelo://app?vid=f9e64d67-e799-49f8-afc1-5daa04f1147d","ios":"levelo://app?vid=f9e64d67-e799-49f8-afc1-5daa04f1147d"},"vehicle_type_id":"4","last_reported":1737479295,"current_range_meters":20800,"station_id":"","pricing_plan_id":"cebpf4jnsgd1na2vs0mg"},{"bike_id":"2fc90e2b-7bc3-4c1c-b9a1-54e988a74917","system_id":"levelo_inurba_marseille","lat":43.279439,"lon":5.389008,"is_reserved":false,"is_disabled":true,"rental_uris":{"android":"levelo://app?vid=2fc90e2b-7bc3-4c1c-b9a1-54e988a74917","ios":"levelo://app?vid=2fc90e2b-7bc3-4c1c-b9a1-54e988a74917"},"vehicle_type_id":"4","last_reported":1737479295,"current_range_meters":32800,"station_id":"","pricing_plan_id":"cebpf4jnsgd1na2vs0mg"},{"bike_id":"6afeeefa-11c0-4f74-82c2-cb592a43a0b2","system_id":"levelo_inurba_marseille","lat":43.281543,"lon":5.426368,"is_reserved":false,"is_disabled":false,"rental_uris":{"android":"levelo://app?vid=6afeeefa-11c0-4f74-82c2-cb592a43a0b2","ios":"levelo://app?vid=6afeeefa-11c0-4f74-82c2-cb592a43a0b2"},"vehicle_type_id":"4","last_reported":1737479295,"current_range_meters":39200,"station_id":"ce4bhnh2rcd13ifvqgug","pricing_plan_id":"cebpf4jnsgd1na2vs0mg"},{"bike_id":"d0e1bb70-ecfb-4736-b0bc-60d8943d210f","system_id":"levelo_inurba_marseille","lat":43.26024,"lon":5.37549,"is_reserved":false,"is_disabled":false,"rental_uris":{"android":"levelo://app?vid=d0e1bb70-ecfb-4736-b0bc-60d8943d210f","ios":"levelo://app?vid=d0e1bb70-ecfb-4736-b0bc-60d8943d210f"},"vehicle_type_id":"4","last_reported":1737479295,"current_range_meters":38800,"station_id":"ce4bhgh2rcd13ifvqfa0","pricing_plan_id":"cebpf4jnsgd1na2vs0mg"},{"bike_id":"3af6ab99-789c-4754-94a5-3b9b98cb8fa6","system_id":"levelo_inurba_marseille","lat":43.2868,"lon":5.38668,"is_reserved":false,"is_disabled":false,"rental_uris":{"android":"levelo://app?vid=3af6ab99-789c-4754-94a5-3b9b98cb8fa6","ios":"levelo://app?vid=3af6ab99-789c-4754-94a5-3b9b98cb8fa6"},"vehicle_type_id":"4","last_reported":1737479295,"current_range_meters":17600,"station_id":"ce4bh492rcd13ifvqdug","pricing_plan_id":"cebpf4jnsgd1na2vs0mg"},{"bike_id":"227e78bf-cdca-4dfa-9c62-95921093e4a7","system_id":"levelo_inurba_marseille","lat":43.28414,"lon":5.34993,"is_reserved":false,"is_disabled":false,"rental_uris":{"android":"levelo://app?vid=227e78bf-cdca-4dfa-9c62-95921093e4a7","ios":"levelo://app?vid=227e78bf-cdca-4dfa-9c62-95921093e4a7"},"vehicle_type_id":"4","last_reported":1737479295,"current_range_meters":15200,"station_id":"ce4bhbh2rcd13ifvqepg","pricing_plan_id":"cebpf4jnsgd1na2vs0mg"},{"bike_id":"34150711-11a3-43c9-9451-34717d3b5462","system_id":"levelo_inurba_marseille","lat":43.29523,"lon":5.39054,"is_reserved":false,"is_disabled":false,"rental_uris":{"android":"levelo://app?vid=34150711-11a3-43c9-9451-34717d3b5462","ios":"levelo://app?vid=34150711-11a3-43c9-9451-34717d3b5462"},"vehicle_type_id":"4","last_reported":1737479295,"current_range_meters":10800,"station_id":"ce4bh3p2rcd13ifvqdp0","pricing_plan_id":"cebpf4jnsgd1na2vs0mg"},{"bike_id":"14bf62af-c950-435b-82dd-0bca67231add","system_id":"levelo_inurba_marseille","lat":43.25732,"lon":5.41098,"is_reserved":false,"is_disabled":false,"rental_uris":{"android":"levelo://app?vid=14bf62af-c950-435b-82dd-0bca67231add","ios":"levelo://app?vid=14bf62af-c950-435b-82dd-0bca67231add"},"vehicle_type_id":"4","last_reported":1737479295,"current_range_meters":38800,"station_id":"ce4bhkp2rcd13ifvqgd0","pricing_plan_id":"cebpf4jnsgd1na2vs0mg"},{"bike_id":"509edcb3-c5bb-4913-aeae-8110c0663740","system_id":"levelo_inurba_marseille","lat":43.29567,"lon":5.39963,"is_reserved":false,"is_disabled":true,"rental_uris":{"android":"levelo://app?vid=509edcb3-c5bb-4913-aeae-8110c0663740","ios":"levelo://app?vid=509edcb3-c5bb-4913-aeae-8110c0663740"},"vehicle_type_id":"4","last_reported":1737479295,"current_range_meters":24800,"station_id":"ce4bh312rcd13ifvqdj0","pricing_plan_id":"cebpf4jnsgd1na2vs0mg"},{"bike_id":"96c4b343-5225-4c25-bb11-7e66272b73ad","system_id":"levelo_inurba_marseille","lat":43.25114,"lon":5.40332,"is_reserved":false,"is_disabled":true,"rental_uris":{"android":"levelo://app?vid=96c4b343-5225-4c25-bb11-7e66272b73ad","ios":"levelo://app?vid=96c4b343-5225-4c25-bb11-7e66272b73ad"},"vehicle_type_id":"4","last_reported":1737479295,"current_range_meters":0,"station_id":"ce4bhlh2rcd13ifvqgig","pricing_plan_id":"cebpf4jnsgd1na2vs0mg"},{"bike_id":"1435aaaf-3a31-44b5-a8d0-c7f073be9a92","system_id":"levelo_inurba_marseille","lat":43.29971,"lon":5.3717,"is_reserved":false,"is_disabled":false,"rental_uris":{"android":"levelo://app?vid=1435aaaf-3a31-44b5-a8d0-c7f073be9a92","ios":"levelo://app?vid=1435aaaf-3a31-44b5-a8d0-c7f073be9a92"},"vehicle_type_id":"4","last_reported":1737479295,"current_range_meters":26800,"station_id":"ce4bgr92rcd13ifvqc7g","pricing_plan_id":"cebpf4jnsgd1na2vs0mg"},{"bike_id":"641a8296-ae52-4500-8f2d-eec6d49b0e11","system_id":"levelo_inurba_marseille","lat":43.29527,"lon":5.3905,"is_reserved":false,"is_disabled":false,"rental_uris":{"android":"levelo://app?vid=641a8296-ae52-4500-8f2d-eec6d49b0e11","ios":"levelo://app?vid=641a8296-ae52-4500-8f2d-eec6d49b0e11"},"vehicle_type_id":"4","last_reported":1737479295,"current_range_meters":10000,"station_id":"ce4bh3p2rcd13ifvqdp0","pricing_plan_id":"cebpf4jnsgd1na2vs0mg"},{"bike_id":"02ad824b-d7dc-42dc-aeab-fa239be6d8ae","system_id":"levelo_inurba_marseille","lat":43.30335,"lon":5.4043,"is_reserved":false,"is_disabled":false,"rental_uris":{"android":"levelo://app?vid=02ad824b-d7dc-42dc-aeab-fa239be6d8ae","ios":"levelo://app?vid=02ad824b-d7dc-42dc-aeab-fa239be6d8ae"},"vehicle_type_id":"4","last_reported":1737479295,"current_range_meters":35600,"station_id":"ce4bh012rcd13ifvqd10","pricing_plan_id":"cebpf4jnsgd1na2vs0mg"},{"bike_id":"4e574611-a3f8-452a-a155-fe58a7adfdc0","system_id":"levelo_inurba_marseille","lat":43.30333,"lon":5.4043,"is_reserved":false,"is_disabled":false,"rental_uris":{"android":"levelo://app?vid=4e574611-a3f8-452a-a155-fe58a7adfdc0","ios":"levelo://app?vid=4e574611-a3f8-452a-a155-fe58a7adfdc0"},"vehicle_type_id":"4","last_reported":1737479295,"current_range_meters":37600,"station_id":"ce4bh012rcd13ifvqd10","pricing_plan_id":"cebpf4jnsgd1na2vs0mg"},{"bike_id":"fb7aedc6-8ff6-4520-97ba-74927fb1c3db","system_id":"levelo_inurba_marseille","lat":43.29903,"lon":5.38156,"is_reserved":false,"is_disabled":false,"rental_uris":{"android":"levelo://app?vid=fb7aedc6-8ff6-4520-97ba-74927fb1c3db","ios":"levelo://app?vid=fb7aedc6-8ff6-4520-97ba-74927fb1c3db"},"vehicle_type_id":"4","last_reported":1737479295,"current_range_meters":38800,"station_id":"ce4bgj12rcd13ifvqbc0","pricing_plan_id":"cebpf4jnsgd1na2vs0mg"},{"bike_id":"89ba0521-e08c-4617-aad7-03b0da2d086a","system_id":"levelo_inurba_marseille","lat":43.31088,"lon":5.42453,"is_reserved":false,"is_disabled":false,"rental_uris":{"android":"levelo://app?vid=89ba0521-e08c-4617-aad7-03b0da2d086a","ios":"levelo://app?vid=89ba0521-e08c-4617-aad7-03b0da2d086a"},"vehicle_type_id":"4","last_reported":1737479295,"current_range_meters":3600,"station_id":"ce4bhp92rcd13ifvqhag","pricing_plan_id":"cebpf4jnsgd1na2vs0mg"},{"bike_id":"cfe9ba68-aa65-4d78-98e8-9ece4922f7ba","system_id":"levelo_inurba_marseille","lat":43.26789,"lon":5.39417,"is_reserved":false,"is_disabled":false,"rental_uris":{"android":"levelo://app?vid=cfe9ba68-aa65-4d78-98e8-9ece4922f7ba","ios":"levelo://app?vid=cfe9ba68-aa65-4d78-98e8-9ece4922f7ba"},"vehicle_type_id":"4","last_reported":1737479295,"current_range_meters":26000,"station_id":"ce4bhh12rcd13ifvqfg0","pricing_plan_id":"cebpf4jnsgd1na2vs0mg"},{"bike_id":"32d4b48b-7789-4cdc-bff1-4fa3fca8e39c","system_id":"levelo_inurba_marseille","lat":43.31686,"lon":5.40481,"is_reserved":false,"is_disabled":false,"rental_uris":{"android":"levelo://app?vid=32d4b48b-7789-4cdc-bff1-4fa3fca8e39c","ios":"levelo://app?vid=32d4b48b-7789-4cdc-bff1-4fa3fca8e39c"},"vehicle_type_id":"4","last_reported":1737479295,"current_range_meters":36800,"station_id":"ce4bh012rcd13ifvqd00","pricing_plan_id":"cebpf4jnsgd1na2vs0mg"},{"bike_id":"4fe3808d-3506-4d3f-8378-de61384e97b4","system_id":"levelo_inurba_marseille","lat":43.28838,"lon":5.35872,"is_reserved":false,"is_disabled":false,"rental_uris":{"android":"levelo://app?vid=4fe3808d-3506-4d3f-8378-de61384e97b4","ios":"levelo://app?vid=4fe3808d-3506-4d3f-8378-de61384e97b4"},"vehicle_type_id":"4","last_reported":1737479295,"current_range_meters":19200,"station_id":"ce4bhb12rcd13ifvqem0","pricing_plan_id":"cebpf4jnsgd1na2vs0mg"},{"bike_id":"301ad218-79fc-4f77-96f2-3aac2d1a8ccf","system_id":"levelo_inurba_marseille","lat":43.25924,"lon":5.3941,"is_reserved":false,"is_disabled":true,"rental_uris":{"android":"levelo://app?vid=301ad218-79fc-4f77-96f2-3aac2d1a8ccf","ios":"levelo://app?vid=301ad218-79fc-4f77-96f2-3aac2d1a8ccf"},"vehicle_type_id":"4","last_reported":1737479295,"current_range_meters":6800,"station_id":"","pricing_plan_id":"cebpf4jnsgd1na2vs0mg"},{"bike_id":"ee3909c5-90d0-4cea-a9bc-e09fd5c7b11b","system_id":"levelo_inurba_marseille","lat":43.26798,"lon":5.40265,"is_reserved":false,"is_disabled":false,"rental_uris":{"android":"levelo://app?vid=ee3909c5-90d0-4cea-a9bc-e09fd5c7b11b","ios":"levelo://app?vid=ee3909c5-90d0-4cea-a9bc-e09fd5c7b11b"},"vehicle_type_id":"4","last_reported":1737479295,"current_range_meters":39200,"station_id":"ce501612rcd8frsf0b60","pricing_plan_id":"cebpf4jnsgd1na2vs0mg"},{"bike_id":"fd539bc0-ad28-4e50-9c57-84f1470f7b8d","system_id":"levelo_inurba_marseille","lat":43.30135,"lon":5.38787,"is_reserved":false,"is_disabled":false,"rental_uris":{"android":"levelo://app?vid=fd539bc0-ad28-4e50-9c57-84f1470f7b8d","ios":"levelo://app?vid=fd539bc0-ad28-4e50-9c57-84f1470f7b8d"},"vehicle_type_id":"4","last_reported":1737479295,"current_range_meters":35600,"station_id":"ce4bghh2rcd13ifvqb60","pricing_plan_id":"cebpf4jnsgd1na2vs0mg"},{"bike_id":"dbbfcdc1-5dbe-46bf-bb67-a26dd37ac26f","system_id":"levelo_inurba_marseille","lat":43.28156,"lon":5.42646,"is_reserved":false,"is_disabled":false,"rental_uris":{"android":"levelo://app?vid=dbbfcdc1-5dbe-46bf-bb67-a26dd37ac26f","ios":"levelo://app?vid=dbbfcdc1-5dbe-46bf-bb67-a26dd37ac26f"},"vehicle_type_id":"4","last_reported":1737479295,"current_range_meters":34800,"station_id":"ce4bhnh2rcd13ifvqgug","pricing_plan_id":"cebpf4jnsgd1na2vs0mg"},{"bike_id":"009e4e21-eaff-4df3-a6cd-96d6c5c81fda","system_id":"levelo_inurba_marseille","lat":43.30559,"lon":5.36427,"is_reserved":false,"is_disabled":false,"rental_uris":{"android":"levelo://app?vid=009e4e21-eaff-4df3-a6cd-96d6c5c81fda","ios":"levelo://app?vid=009e4e21-eaff-4df3-a6cd-96d6c5c81fda"},"vehicle_type_id":"4","last_reported":1737479295,"current_range_meters":23200,"station_id":"","pricing_plan_id":"cebpf4jnsgd1na2vs0mg"},{"bike_id":"a478c8e4-70f7-4330-80af-a80f08fe66b3","system_id":"levelo_inurba_marseille","lat":43.25729,"lon":5.41099,"is_reserved":false,"is_disabled":false,"rental_uris":{"android":"levelo://app?vid=a478c8e4-70f7-4330-80af-a80f08fe66b3","ios":"levelo://app?vid=a478c8e4-70f7-4330-80af-a80f08fe66b3"},"vehicle_type_id":"4","last_reported":1737479295,"current_range_meters":24000,"station_id":"ce4bhkp2rcd13ifvqgd0","pricing_plan_id":"cebpf4jnsgd1na2vs0mg"},{"bike_id":"9ea35a92-1564-493c-991c-f92a347b776b","system_id":"levelo_inurba_marseille","lat":43.30556,"lon":5.3653,"is_reserved":false,"is_disabled":false,"rental_uris":{"android":"levelo://app?vid=9ea35a92-1564-493c-991c-f92a347b776b","ios":"levelo://app?vid=9ea35a92-1564-493c-991c-f92a347b776b"},"vehicle_type_id":"4","last_reported":1737479295,"current_range_meters":24400,"station_id":"ce4bgs12rcd13ifvqcag","pricing_plan_id":"cebpf4jnsgd1na2vs0mg"},{"bike_id":"308cc682-94fd-427f-a7f4-c7ad2e8f89c9","system_id":"levelo_inurba_marseille","lat":43.28462,"lon":5.35886,"is_reserved":false,"is_disabled":false,"rental_uris":{"android":"levelo://app?vid=308cc682-94fd-427f-a7f4-c7ad2e8f89c9","ios":"levelo://app?vid=308cc682-94fd-427f-a7f4-c7ad2e8f89c9"},"vehicle_type_id":"4","last_reported":1737479295,"current_range_meters":30000,"station_id":"ce4bhah2rcd13ifvqei0","pricing_plan_id":"cebpf4jnsgd1na2vs0mg"},{"bike_id":"b834a014-a9be-4559-bbaa-15aa5f1cbaa1","system_id":"levelo_inurba_marseille","lat":43.23195,"lon":5.35559,"is_reserved":false,"is_disabled":false,"rental_uris":{"android":"levelo://app?vid=b834a014-a9be-4559-bbaa-15aa5f1cbaa1","ios":"levelo://app?vid=b834a014-a9be-4559-bbaa-15aa5f1cbaa1"},"vehicle_type_id":"4","last_reported":1737479295,"current_range_meters":37600,"station_id":"ce4bhu92rcd13ifvqi70","pricing_plan_id":"cebpf4jnsgd1na2vs0mg"},{"bike_id":"5f776b34-b727-4c57-9619-656fb56904de","system_id":"levelo_inurba_marseille","lat":43.31725,"lon":5.42393,"is_reserved":false,"is_disabled":false,"rental_uris":{"android":"levelo://app?vid=5f776b34-b727-4c57-9619-656fb56904de","ios":"levelo://app?vid=5f776b34-b727-4c57-9619-656fb56904de"},"vehicle_type_id":"4","last_reported":1737479295,"current_range_meters":38000,"station_id":"ce4bhp92rcd13ifvqhbg","pricing_plan_id":"cebpf4jnsgd1na2vs0mg"},{"bike_id":"10d27098-69e9-48b1-9d26-115b0af1cc68","system_id":"levelo_inurba_marseille","lat":43.30548,"lon":5.36527,"is_reserved":false,"is_disabled":false,"rental_uris":{"android":"levelo://app?vid=10d27098-69e9-48b1-9d26-115b0af1cc68","ios":"levelo://app?vid=10d27098-69e9-48b1-9d26-115b0af1cc68"},"vehicle_type_id":"4","last_reported":1737479295,"current_range_meters":30800,"station_id":"ce4bgs12rcd13ifvqcag","pricing_plan_id":"cebpf4jnsgd1na2vs0mg"},{"bike_id":"748437f3-7778-48d5-a968-a6ee3b0408c7","system_id":"levelo_inurba_marseille","lat":43.28072,"lon":5.39659,"is_reserved":false,"is_disabled":false,"rental_uris":{"android":"levelo://app?vid=748437f3-7778-48d5-a968-a6ee3b0408c7","ios":"levelo://app?vid=748437f3-7778-48d5-a968-a6ee3b0408c7"},"vehicle_type_id":"4","last_reported":1737479295,"current_range_meters":32400,"station_id":"ce4bho12rcd13ifvqh2g","pricing_plan_id":"cebpf4jnsgd1na2vs0mg"},{"bike_id":"3c13d198-2122-4ba3-8878-045e06dedb65","system_id":"levelo_inurba_marseille","lat":43.31495,"lon":5.37309,"is_reserved":false,"is_disabled":false,"rental_uris":{"android":"levelo://app?vid=3c13d198-2122-4ba3-8878-045e06dedb65","ios":"levelo://app?vid=3c13d198-2122-4ba3-8878-045e06dedb65"},"vehicle_type_id":"4","last_reported":1737479295,"current_range_meters":25600,"station_id":"ce4bgt12rcd13ifvqcd0","pricing_plan_id":"cebpf4jnsgd1na2vs0mg"},{"bike_id":"d8b49f42-144a-4cb8-8172-0b5099baab4f","system_id":"levelo_inurba_marseille","lat":43.23962,"lon":5.36625,"is_reserved":false,"is_disabled":false,"rental_uris":{"android":"levelo://app?vid=d8b49f42-144a-4cb8-8172-0b5099baab4f","ios":"levelo://app?vid=d8b49f42-144a-4cb8-8172-0b5099baab4f"},"vehicle_type_id":"4","last_reported":1737479295,"current_range_meters":27600,"station_id":"ce4bhi12rcd13ifvqfp0","pricing_plan_id":"cebpf4jnsgd1na2vs0mg"},{"bike_id":"cfe38cff-06cd-439e-8efc-6d7becde4765","system_id":"levelo_inurba_marseille","lat":43.30311,"lon":5.39201,"is_reserved":false,"is_disabled":false,"rental_uris":{"android":"levelo://app?vid=cfe38cff-06cd-439e-8efc-6d7becde4765","ios":"levelo://app?vid=cfe38cff-06cd-439e-8efc-6d7becde4765"},"vehicle_type_id":"4","last_reported":1737479295,"current_range_meters":30800,"station_id":"ce4bgkh2rcd13ifvqbk0","pricing_plan_id":"cebpf4jnsgd1na2vs0mg"},{"bike_id":"454a40ec-90bc-4b15-b730-27231f92b90e","system_id":"levelo_inurba_marseille","lat":43.33034,"lon":5.39049,"is_reserved":false,"is_disabled":false,"rental_uris":{"android":"levelo://app?vid=454a40ec-90bc-4b15-b730-27231f92b90e","ios":"levelo://app?vid=454a40ec-90bc-4b15-b730-27231f92b90e"},"vehicle_type_id":"4","last_reported":1737479295,"current_range_meters":36400,"station_id":"ce4bhr92rcd13ifvqhrg","pricing_plan_id":"cebpf4jnsgd1na2vs0mg"},{"bike_id":"4e39a29a-17c3-4ea4-aef2-73e9031e084d","system_id":"levelo_inurba_marseille","lat":43.29416,"lon":5.38625,"is_reserved":false,"is_disabled":false,"rental_uris":{"android":"levelo://app?vid=4e39a29a-17c3-4ea4-aef2-73e9031e084d","ios":"levelo://app?vid=4e39a29a-17c3-4ea4-aef2-73e9031e084d"},"vehicle_type_id":"4","last_reported":1737479295,"current_range_meters":9200,"station_id":"ce4bh2h2rcd13ifvqdh0","pricing_plan_id":"cebpf4jnsgd1na2vs0mg"},{"bike_id":"e4ee8ff5-67ba-4f76-8dea-95e4c50917fc","system_id":"levelo_inurba_marseille","lat":43.29268,"lon":5.38445,"is_reserved":false,"is_disabled":false,"rental_uris":{"android":"levelo://app?vid=e4ee8ff5-67ba-4f76-8dea-95e4c50917fc","ios":"levelo://app?vid=e4ee8ff5-67ba-4f76-8dea-95e4c50917fc"},"vehicle_type_id":"4","last_reported":1737479295,"current_range_meters":21600,"station_id":"ce4bh692rcd13ifvqea0","pricing_plan_id":"cebpf4jnsgd1na2vs0mg"},{"bike_id":"66ce096e-2d59-4d30-bb68-6329fea7fe13","system_id":"levelo_inurba_marseille","lat":43.32106,"lon":5.36777,"is_reserved":false,"is_disabled":false,"rental_uris":{"android":"levelo://app?vid=66ce096e-2d59-4d30-bb68-6329fea7fe13","ios":"levelo://app?vid=66ce096e-2d59-4d30-bb68-6329fea7fe13"},"vehicle_type_id":"4","last_reported":1737479295,"current_range_meters":27200,"station_id":"ce4bhrh2rcd13ifvqhug","pricing_plan_id":"cebpf4jnsgd1na2vs0mg"},{"bike_id":"9991aafb-09ab-4cf7-b716-d731b5da178c","system_id":"levelo_inurba_marseille","lat":43.28464,"lon":5.35884,"is_reserved":false,"is_disabled":false,"rental_uris":{"android":"levelo://app?vid=9991aafb-09ab-4cf7-b716-d731b5da178c","ios":"levelo://app?vid=9991aafb-09ab-4cf7-b716-d731b5da178c"},"vehicle_type_id":"4","last_reported":1737479295,"current_range_meters":30800,"station_id":"ce4bhah2rcd13ifvqei0","pricing_plan_id":"cebpf4jnsgd1na2vs0mg"},{"bike_id":"e8a90894-bf94-4131-8e7e-635abd998083","system_id":"levelo_inurba_marseille","lat":43.31089,"lon":5.38336,"is_reserved":false,"is_disabled":false,"rental_uris":{"android":"levelo://app?vid=e8a90894-bf94-4131-8e7e-635abd998083","ios":"levelo://app?vid=e8a90894-bf94-4131-8e7e-635abd998083"},"vehicle_type_id":"4","last_reported":1737479295,"current_range_meters":30400,"station_id":"ce4bgv92rcd13ifvqcr0","pricing_plan_id":"cebpf4jnsgd1na2vs0mg"},{"bike_id":"2e4d714f-9daa-4c59-84e1-38ee951dadae","system_id":"levelo_inurba_marseille","lat":43.258612,"lon":5.399012,"is_reserved":false,"is_disabled":false,"rental_uris":{"android":"levelo://app?vid=2e4d714f-9daa-4c59-84e1-38ee951dadae","ios":"levelo://app?vid=2e4d714f-9daa-4c59-84e1-38ee951dadae"},"vehicle_type_id":"4","last_reported":1737479295,"current_range_meters":38800,"station_id":"ce4bhl92rcd13ifvqghg","pricing_plan_id":"cebpf4jnsgd1na2vs0mg"},{"bike_id":"b2598b4d-9a68-478b-8e42-9c332ae2a893","system_id":"levelo_inurba_marseille","lat":43.28729,"lon":5.36073,"is_reserved":false,"is_disabled":false,"rental_uris":{"android":"levelo://app?vid=b2598b4d-9a68-478b-8e42-9c332ae2a893","ios":"levelo://app?vid=b2598b4d-9a68-478b-8e42-9c332ae2a893"},"vehicle_type_id":"4","last_reported":1737479295,"current_range_meters":38800,"station_id":"cki0cbj6b192h4jlfktg","pricing_plan_id":"cebpf4jnsgd1na2vs0mg"},{"bike_id":"a95c4a82-20f8-4222-b1c2-f5c9c6934a26","system_id":"levelo_inurba_marseille","lat":43.28075,"lon":5.39656,"is_reserved":false,"is_disabled":false,"rental_uris":{"android":"levelo://app?vid=a95c4a82-20f8-4222-b1c2-f5c9c6934a26","ios":"levelo://app?vid=a95c4a82-20f8-4222-b1c2-f5c9c6934a26"},"vehicle_type_id":"4","last_reported":1737479295,"current_range_meters":37600,"station_id":"ce4bho12rcd13ifvqh2g","pricing_plan_id":"cebpf4jnsgd1na2vs0mg"},{"bike_id":"b213b770-4a9e-459b-a878-f65c2c1f476a","system_id":"levelo_inurba_marseille","lat":43.25122,"lon":5.40318,"is_reserved":false,"is_disabled":false,"rental_uris":{"android":"levelo://app?vid=b213b770-4a9e-459b-a878-f65c2c1f476a","ios":"levelo://app?vid=b213b770-4a9e-459b-a878-f65c2c1f476a"},"vehicle_type_id":"4","last_reported":1737479295,"current_range_meters":37600,"station_id":"ce4bhlh2rcd13ifvqgig","pricing_plan_id":"cebpf4jnsgd1na2vs0mg"},{"bike_id":"760d08da-846a-4eb9-a100-02c28296aff1","system_id":"levelo_inurba_marseille","lat":43.28669,"lon":5.36344,"is_reserved":false,"is_disabled":false,"rental_uris":{"android":"levelo://app?vid=760d08da-846a-4eb9-a100-02c28296aff1","ios":"levelo://app?vid=760d08da-846a-4eb9-a100-02c28296aff1"},"vehicle_type_id":"4","last_reported":1737479295,"current_range_meters":38800,"station_id":"ce4bhah2rcd13ifvqej0","pricing_plan_id":"cebpf4jnsgd1na2vs0mg"},{"bike_id":"43ae0205-37cd-4785-bf55-0685f0deaff0","system_id":"levelo_inurba_marseille","lat":43.25581,"lon":5.38231,"is_reserved":false,"is_disabled":false,"rental_uris":{"android":"levelo://app?vid=43ae0205-37cd-4785-bf55-0685f0deaff0","ios":"levelo://app?vid=43ae0205-37cd-4785-bf55-0685f0deaff0"},"vehicle_type_id":"4","last_reported":1737479295,"current_range_meters":28400,"station_id":"ce4bhih2rcd13ifvqfs0","pricing_plan_id":"cebpf4jnsgd1na2vs0mg"},{"bike_id":"5434439c-80a7-45ef-8e7d-a897cb833684","system_id":"levelo_inurba_marseille","lat":43.32362,"lon":5.36759,"is_reserved":false,"is_disabled":false,"rental_uris":{"android":"levelo://app?vid=5434439c-80a7-45ef-8e7d-a897cb833684","ios":"levelo://app?vid=5434439c-80a7-45ef-8e7d-a897cb833684"},"vehicle_type_id":"4","last_reported":1737479295,"current_range_meters":38800,"station_id":"ce4bhsh2rcd13ifvqi2g","pricing_plan_id":"cebpf4jnsgd1na2vs0mg"},{"bike_id":"a125f3cf-7d62-4e96-b816-99257e7bfdce","system_id":"levelo_inurba_marseille","lat":43.25004,"lon":5.38937,"is_reserved":false,"is_disabled":false,"rental_uris":{"android":"levelo://app?vid=a125f3cf-7d62-4e96-b816-99257e7bfdce","ios":"levelo://app?vid=a125f3cf-7d62-4e96-b816-99257e7bfdce"},"vehicle_type_id":"4","last_reported":1737479295,"current_range_meters":16400,"station_id":"","pricing_plan_id":"cebpf4jnsgd1na2vs0mg"},{"bike_id":"188bc35e-b96d-4353-8224-81939b718e35","system_id":"levelo_inurba_marseille","lat":43.32339,"lon":5.38894,"is_reserved":false,"is_disabled":false,"rental_uris":{"android":"levelo://app?vid=188bc35e-b96d-4353-8224-81939b718e35","ios":"levelo://app?vid=188bc35e-b96d-4353-8224-81939b718e35"},"vehicle_type_id":"4","last_reported":1737479295,"current_range_meters":29600,"station_id":"ce4bhqp2rcd13ifvqhog","pricing_plan_id":"cebpf4jnsgd1na2vs0mg"},{"bike_id":"d510c046-5408-491c-956b-186f547ec052","system_id":"levelo_inurba_marseille","lat":43.26789,"lon":5.39407,"is_reserved":false,"is_disabled":false,"rental_uris":{"android":"levelo://app?vid=d510c046-5408-491c-956b-186f547ec052","ios":"levelo://app?vid=d510c046-5408-491c-956b-186f547ec052"},"vehicle_type_id":"4","last_reported":1737479295,"current_range_meters":0,"station_id":"ce4bhh12rcd13ifvqfg0","pricing_plan_id":"cebpf4jnsgd1na2vs0mg"},{"bike_id":"42707e4f-fc86-4055-94d3-267e0305077b","system_id":"levelo_inurba_marseille","lat":43.29852,"lon":5.3628,"is_reserved":false,"is_disabled":false,"rental_uris":{"android":"levelo://app?vid=42707e4f-fc86-4055-94d3-267e0305077b","ios":"levelo://app?vid=42707e4f-fc86-4055-94d3-267e0305077b"},"vehicle_type_id":"4","last_reported":1737479295,"current_range_meters":38800,"station_id":"ce4bgpp2rcd13ifvqc3g","pricing_plan_id":"cebpf4jnsgd1na2vs0mg"},{"bike_id":"bd01e335-c0a5-4937-b2e5-f867c4f43de5","system_id":"levelo_inurba_marseille","lat":43.28362,"lon":5.38636,"is_reserved":false,"is_disabled":false,"rental_uris":{"android":"levelo://app?vid=bd01e335-c0a5-4937-b2e5-f867c4f43de5","ios":"levelo://app?vid=bd01e335-c0a5-4937-b2e5-f867c4f43de5"},"vehicle_type_id":"4","last_reported":1737479295,"current_range_meters":3600,"station_id":"ce4bh492rcd13ifvqdvg","pricing_plan_id":"cebpf4jnsgd1na2vs0mg"},{"bike_id":"fb54d632-4753-4097-ac70-490ca12fe415","system_id":"levelo_inurba_marseille","lat":43.29966,"lon":5.38486,"is_reserved":false,"is_disabled":false,"rental_uris":{"android":"levelo://app?vid=fb54d632-4753-4097-ac70-490ca12fe415","ios":"levelo://app?vid=fb54d632-4753-4097-ac70-490ca12fe415"},"vehicle_type_id":"4","last_reported":1737479295,"current_range_meters":16400,"station_id":"ce4bgj92rcd13ifvqbd0","pricing_plan_id":"cebpf4jnsgd1na2vs0mg"},{"bike_id":"73209e18-4149-4f1a-9f39-3410ec8579a2","system_id":"levelo_inurba_marseille","lat":43.33024,"lon":5.39045,"is_reserved":false,"is_disabled":false,"rental_uris":{"android":"levelo://app?vid=73209e18-4149-4f1a-9f39-3410ec8579a2","ios":"levelo://app?vid=73209e18-4149-4f1a-9f39-3410ec8579a2"},"vehicle_type_id":"4","last_reported":1737479295,"current_range_meters":8000,"station_id":"ce4bhr92rcd13ifvqhrg","pricing_plan_id":"cebpf4jnsgd1na2vs0mg"},{"bike_id":"f87f41c4-7594-4aa8-ac41-61047fa3fe91","system_id":"levelo_inurba_marseille","lat":43.29533,"lon":5.3855,"is_reserved":false,"is_disabled":false,"rental_uris":{"android":"levelo://app?vid=f87f41c4-7594-4aa8-ac41-61047fa3fe91","ios":"levelo://app?vid=f87f41c4-7594-4aa8-ac41-61047fa3fe91"},"vehicle_type_id":"4","last_reported":1737479295,"current_range_meters":32400,"station_id":"ce4bgih2rcd13ifvqba0","pricing_plan_id":"cebpf4jnsgd1na2vs0mg"},{"bike_id":"01cd13ee-681d-4a61-8609-68d170d4511a","system_id":"levelo_inurba_marseille","lat":43.29651,"lon":5.37181,"is_reserved":false,"is_disabled":true,"rental_uris":{"android":"levelo://app?vid=01cd13ee-681d-4a61-8609-68d170d4511a","ios":"levelo://app?vid=01cd13ee-681d-4a61-8609-68d170d4511a"},"vehicle_type_id":"4","last_reported":1737479295,"current_range_meters":800,"station_id":"ce4bgnh2rcd13ifvqc0g","pricing_plan_id":"cebpf4jnsgd1na2vs0mg"},{"bike_id":"efea4dfd-61a0-4b32-8472-d0849cd7bbd6","system_id":"levelo_inurba_marseille","lat":43.29566,"lon":5.39978,"is_reserved":false,"is_disabled":false,"rental_uris":{"android":"levelo://app?vid=efea4dfd-61a0-4b32-8472-d0849cd7bbd6","ios":"levelo://app?vid=efea4dfd-61a0-4b32-8472-d0849cd7bbd6"},"vehicle_type_id":"4","last_reported":1737479295,"current_range_meters":16800,"station_id":"ce4bh312rcd13ifvqdj0","pricing_plan_id":"cebpf4jnsgd1na2vs0mg"},{"bike_id":"2222caf5-0d02-45bd-a722-9ffe5c195a92","system_id":"levelo_inurba_marseille","lat":43.29075,"lon":5.37177,"is_reserved":false,"is_disabled":false,"rental_uris":{"android":"levelo://app?vid=2222caf5-0d02-45bd-a722-9ffe5c195a92","ios":"levelo://app?vid=2222caf5-0d02-45bd-a722-9ffe5c195a92"},"vehicle_type_id":"4","last_reported":1737479295,"current_range_meters":24800,"station_id":"ce4bh5p2rcd13ifvqe4g","pricing_plan_id":"cebpf4jnsgd1na2vs0mg"},{"bike_id":"60b7d049-237a-4dbd-ad0c-436ecde1802f","system_id":"levelo_inurba_marseille","lat":43.23199,"lon":5.35539,"is_reserved":false,"is_disabled":false,"rental_uris":{"android":"levelo://app?vid=60b7d049-237a-4dbd-ad0c-436ecde1802f","ios":"levelo://app?vid=60b7d049-237a-4dbd-ad0c-436ecde1802f"},"vehicle_type_id":"4","last_reported":1737479295,"current_range_meters":19600,"station_id":"ce4bhu92rcd13ifvqi70","pricing_plan_id":"cebpf4jnsgd1na2vs0mg"},{"bike_id":"fe7011bb-5454-4247-a00a-90c1b444d493","system_id":"levelo_inurba_marseille","lat":43.23964,"lon":5.36621,"is_reserved":false,"is_disabled":false,"rental_uris":{"android":"levelo://app?vid=fe7011bb-5454-4247-a00a-90c1b444d493","ios":"levelo://app?vid=fe7011bb-5454-4247-a00a-90c1b444d493"},"vehicle_type_id":"4","last_reported":1737479295,"current_range_meters":12400,"station_id":"ce4bhi12rcd13ifvqfp0","pricing_plan_id":"cebpf4jnsgd1na2vs0mg"},{"bike_id":"a41777cd-528e-4b17-b912-20348c5f4d58","system_id":"levelo_inurba_marseille","lat":43.31117,"lon":5.37774,"is_reserved":false,"is_disabled":false,"rental_uris":{"android":"levelo://app?vid=a41777cd-528e-4b17-b912-20348c5f4d58","ios":"levelo://app?vid=a41777cd-528e-4b17-b912-20348c5f4d58"},"vehicle_type_id":"4","last_reported":1737479295,"current_range_meters":22800,"station_id":"ce4bgt92rcd13ifvqcg0","pricing_plan_id":"cebpf4jnsgd1na2vs0mg"},{"bike_id":"216e898a-a584-4f1d-bfa5-369cc7eb8890","system_id":"levelo_inurba_marseille","lat":43.29594,"lon":5.40582,"is_reserved":false,"is_disabled":false,"rental_uris":{"android":"levelo://app?vid=216e898a-a584-4f1d-bfa5-369cc7eb8890","ios":"levelo://app?vid=216e898a-a584-4f1d-bfa5-369cc7eb8890"},"vehicle_type_id":"4","last_reported":1737479295,"current_range_meters":27200,"station_id":"ce4bh0h2rcd13ifvqd60","pricing_plan_id":"cebpf4jnsgd1na2vs0mg"},{"bike_id":"f4cd2278-ce69-4a70-9327-76172aeda7fb","system_id":"levelo_inurba_marseille","lat":43.24392,"lon":5.40118,"is_reserved":false,"is_disabled":false,"rental_uris":{"android":"levelo://app?vid=f4cd2278-ce69-4a70-9327-76172aeda7fb","ios":"levelo://app?vid=f4cd2278-ce69-4a70-9327-76172aeda7fb"},"vehicle_type_id":"4","last_reported":1737479295,"current_range_meters":17600,"station_id":"","pricing_plan_id":"cebpf4jnsgd1na2vs0mg"},{"bike_id":"1f44efd1-3459-405c-b6fd-2b9e778660a9","system_id":"levelo_inurba_marseille","lat":43.29526,"lon":5.38542,"is_reserved":false,"is_disabled":false,"rental_uris":{"android":"levelo://app?vid=1f44efd1-3459-405c-b6fd-2b9e778660a9","ios":"levelo://app?vid=1f44efd1-3459-405c-b6fd-2b9e778660a9"},"vehicle_type_id":"4","last_reported":1737479295,"current_range_meters":22800,"station_id":"ce4bgih2rcd13ifvqba0","pricing_plan_id":"cebpf4jnsgd1na2vs0mg"},{"bike_id":"9ed1871f-60fd-41f8-943c-c1457dc436d5","system_id":"levelo_inurba_marseille","lat":43.25723,"lon":5.41112,"is_reserved":false,"is_disabled":false,"rental_uris":{"android":"levelo://app?vid=9ed1871f-60fd-41f8-943c-c1457dc436d5","ios":"levelo://app?vid=9ed1871f-60fd-41f8-943c-c1457dc436d5"},"vehicle_type_id":"4","last_reported":1737479295,"current_range_meters":18800,"station_id":"ce4bhkp2rcd13ifvqgd0","pricing_plan_id":"cebpf4jnsgd1na2vs0mg"},{"bike_id":"e87debe1-dd81-4477-a1cc-0f387a2af601","system_id":"levelo_inurba_marseille","lat":43.29932,"lon":5.37477,"is_reserved":false,"is_disabled":false,"rental_uris":{"android":"levelo://app?vid=e87debe1-dd81-4477-a1cc-0f387a2af601","ios":"levelo://app?vid=e87debe1-dd81-4477-a1cc-0f387a2af601"},"vehicle_type_id":"4","last_reported":1737479295,"current_range_meters":28400,"station_id":"ce4bgjh2rcd13ifvqbg0","pricing_plan_id":"cebpf4jnsgd1na2vs0mg"},{"bike_id":"32a600cc-e2f7-40d5-a782-84fc1e0f52aa","system_id":"levelo_inurba_marseille","lat":43.29866,"lon":5.39735,"is_reserved":false,"is_disabled":false,"rental_uris":{"android":"levelo://app?vid=32a600cc-e2f7-40d5-a782-84fc1e0f52aa","ios":"levelo://app?vid=32a600cc-e2f7-40d5-a782-84fc1e0f52aa"},"vehicle_type_id":"4","last_reported":1737479295,"current_range_meters":18800,"station_id":"ce4bh0h2rcd13ifvqd50","pricing_plan_id":"cebpf4jnsgd1na2vs0mg"},{"bike_id":"4f990209-04d5-4ce5-bcf6-1abc31b5d30d","system_id":"levelo_inurba_marseille","lat":43.30534,"lon":5.36552,"is_reserved":false,"is_disabled":false,"rental_uris":{"android":"levelo://app?vid=4f990209-04d5-4ce5-bcf6-1abc31b5d30d","ios":"levelo://app?vid=4f990209-04d5-4ce5-bcf6-1abc31b5d30d"},"vehicle_type_id":"4","last_reported":1737479295,"current_range_meters":38800,"station_id":"ce4bgs12rcd13ifvqcag","pricing_plan_id":"cebpf4jnsgd1na2vs0mg"},{"bike_id":"c9869f97-1647-4a57-871a-0fcfaed72fa0","system_id":"levelo_inurba_marseille","lat":43.27999,"lon":5.41655,"is_reserved":false,"is_disabled":true,"rental_uris":{"android":"levelo://app?vid=c9869f97-1647-4a57-871a-0fcfaed72fa0","ios":"levelo://app?vid=c9869f97-1647-4a57-871a-0fcfaed72fa0"},"vehicle_type_id":"4","last_reported":1737479295,"current_range_meters":0,"station_id":"ce4bho12rcd13ifvqh1g","pricing_plan_id":"cebpf4jnsgd1na2vs0mg"},{"bike_id":"ac59db2a-5e4c-4ca2-93f8-c8cc152fe514","system_id":"levelo_inurba_marseille","lat":43.26557,"lon":5.37284,"is_reserved":false,"is_disabled":false,"rental_uris":{"android":"levelo://app?vid=ac59db2a-5e4c-4ca2-93f8-c8cc152fe514","ios":"levelo://app?vid=ac59db2a-5e4c-4ca2-93f8-c8cc152fe514"},"vehicle_type_id":"4","last_reported":1737479295,"current_range_meters":32400,"station_id":"ce4bhg12rcd13ifvqf70","pricing_plan_id":"cebpf4jnsgd1na2vs0mg"},{"bike_id":"6d7fe95a-e88d-4fb7-a96e-3e6d5f428771","system_id":"levelo_inurba_marseille","lat":43.28732,"lon":5.36071,"is_reserved":false,"is_disabled":false,"rental_uris":{"android":"levelo://app?vid=6d7fe95a-e88d-4fb7-a96e-3e6d5f428771","ios":"levelo://app?vid=6d7fe95a-e88d-4fb7-a96e-3e6d5f428771"},"vehicle_type_id":"4","last_reported":1737479295,"current_range_meters":22800,"station_id":"cki0cbj6b192h4jlfktg","pricing_plan_id":"cebpf4jnsgd1na2vs0mg"},{"bike_id":"b1178cb4-439f-49c8-944f-b5adf4637300","system_id":"levelo_inurba_marseille","lat":43.28151,"lon":5.42649,"is_reserved":false,"is_disabled":false,"rental_uris":{"android":"levelo://app?vid=b1178cb4-439f-49c8-944f-b5adf4637300","ios":"levelo://app?vid=b1178cb4-439f-49c8-944f-b5adf4637300"},"vehicle_type_id":"4","last_reported":1737479295,"current_range_meters":24000,"station_id":"ce4bhnh2rcd13ifvqgug","pricing_plan_id":"cebpf4jnsgd1na2vs0mg"},{"bike_id":"60ab01c6-08e2-4f91-9069-075505ce944c","system_id":"levelo_inurba_marseille","lat":43.23181,"lon":5.39994,"is_reserved":false,"is_disabled":false,"rental_uris":{"android":"levelo://app?vid=60ab01c6-08e2-4f91-9069-075505ce944c","ios":"levelo://app?vid=60ab01c6-08e2-4f91-9069-075505ce944c"},"vehicle_type_id":"4","last_reported":1737479295,"current_range_meters":24000,"station_id":"ce4bhn12rcd13ifvqgqg","pricing_plan_id":"cebpf4jnsgd1na2vs0mg"},{"bike_id":"975ca717-e64b-4dd9-b848-e68514fcd379","system_id":"levelo_inurba_marseille","lat":43.28467,"lon":5.35898,"is_reserved":false,"is_disabled":false,"rental_uris":{"android":"levelo://app?vid=975ca717-e64b-4dd9-b848-e68514fcd379","ios":"levelo://app?vid=975ca717-e64b-4dd9-b848-e68514fcd379"},"vehicle_type_id":"4","last_reported":1737479295,"current_range_meters":3200,"station_id":"ce4bhah2rcd13ifvqei0","pricing_plan_id":"cebpf4jnsgd1na2vs0mg"},{"bike_id":"0aaedd18-95c7-458b-bb63-6504ef2e11ba","system_id":"levelo_inurba_marseille","lat":43.32093,"lon":5.36779,"is_reserved":false,"is_disabled":false,"rental_uris":{"android":"levelo://app?vid=0aaedd18-95c7-458b-bb63-6504ef2e11ba","ios":"levelo://app?vid=0aaedd18-95c7-458b-bb63-6504ef2e11ba"},"vehicle_type_id":"4","last_reported":1737479295,"current_range_meters":32800,"station_id":"ce4bhrh2rcd13ifvqhug","pricing_plan_id":"cebpf4jnsgd1na2vs0mg"},{"bike_id":"f869a568-f48f-4430-a988-6cadd62ba905","system_id":"levelo_inurba_marseille","lat":43.28657,"lon":5.3635,"is_reserved":false,"is_disabled":false,"rental_uris":{"android":"levelo://app?vid=f869a568-f48f-4430-a988-6cadd62ba905","ios":"levelo://app?vid=f869a568-f48f-4430-a988-6cadd62ba905"},"vehicle_type_id":"4","last_reported":1737479295,"current_range_meters":30400,"station_id":"ce4bhah2rcd13ifvqej0","pricing_plan_id":"cebpf4jnsgd1na2vs0mg"},{"bike_id":"de695776-f513-4e38-9108-fb33192a39fb","system_id":"levelo_inurba_marseille","lat":43.23962,"lon":5.36635,"is_reserved":false,"is_disabled":false,"rental_uris":{"android":"levelo://app?vid=de695776-f513-4e38-9108-fb33192a39fb","ios":"levelo://app?vid=de695776-f513-4e38-9108-fb33192a39fb"},"vehicle_type_id":"4","last_reported":1737479295,"current_range_meters":38800,"station_id":"ce4bhi12rcd13ifvqfp0","pricing_plan_id":"cebpf4jnsgd1na2vs0mg"},{"bike_id":"2e9fcf37-6b27-4efd-9867-62961c98bc46","system_id":"levelo_inurba_marseille","lat":43.2993,"lon":5.36539,"is_reserved":false,"is_disabled":false,"rental_uris":{"android":"levelo://app?vid=2e9fcf37-6b27-4efd-9867-62961c98bc46","ios":"levelo://app?vid=2e9fcf37-6b27-4efd-9867-62961c98bc46"},"vehicle_type_id":"4","last_reported":1737479295,"current_range_meters":29600,"station_id":"ce4bgm92rcd13ifvqbr0","pricing_plan_id":"cebpf4jnsgd1na2vs0mg"},{"bike_id":"6d863f0d-be8c-4f64-94a8-442c899f3859","system_id":"levelo_inurba_marseille","lat":43.28729,"lon":5.36087,"is_reserved":false,"is_disabled":false,"rental_uris":{"android":"levelo://app?vid=6d863f0d-be8c-4f64-94a8-442c899f3859","ios":"levelo://app?vid=6d863f0d-be8c-4f64-94a8-442c899f3859"},"vehicle_type_id":"4","last_reported":1737479295,"current_range_meters":33600,"station_id":"cki0cbj6b192h4jlfktg","pricing_plan_id":"cebpf4jnsgd1na2vs0mg"},{"bike_id":"7bfbd887-7951-4169-b15f-419d59eae8aa","system_id":"levelo_inurba_marseille","lat":43.30806,"lon":5.38149,"is_reserved":false,"is_disabled":true,"rental_uris":{"android":"levelo://app?vid=7bfbd887-7951-4169-b15f-419d59eae8aa","ios":"levelo://app?vid=7bfbd887-7951-4169-b15f-419d59eae8aa"},"vehicle_type_id":"4","last_reported":1737479295,"current_range_meters":1600,"station_id":"ce4bgt12rcd13ifvqce0","pricing_plan_id":"cebpf4jnsgd1na2vs0mg"},{"bike_id":"8ba4dc5c-d6d1-4f11-8e6d-986ba7cbc3c0","system_id":"levelo_inurba_marseille","lat":43.29446,"lon":5.39751,"is_reserved":false,"is_disabled":false,"rental_uris":{"android":"levelo://app?vid=8ba4dc5c-d6d1-4f11-8e6d-986ba7cbc3c0","ios":"levelo://app?vid=8ba4dc5c-d6d1-4f11-8e6d-986ba7cbc3c0"},"vehicle_type_id":"4","last_reported":1737479295,"current_range_meters":14800,"station_id":"ce4bh3h2rcd13ifvqdo0","pricing_plan_id":"cebpf4jnsgd1na2vs0mg"},{"bike_id":"9878a93c-bec9-42b8-bcf0-67f3ea4d1b2c","system_id":"levelo_inurba_marseille","lat":43.28659,"lon":5.36347,"is_reserved":false,"is_disabled":false,"rental_uris":{"android":"levelo://app?vid=9878a93c-bec9-42b8-bcf0-67f3ea4d1b2c","ios":"levelo://app?vid=9878a93c-bec9-42b8-bcf0-67f3ea4d1b2c"},"vehicle_type_id":"4","last_reported":1737479295,"current_range_meters":22000,"station_id":"ce4bhah2rcd13ifvqej0","pricing_plan_id":"cebpf4jnsgd1na2vs0mg"},{"bike_id":"c70c7955-2cfd-40c0-86b7-a19179005842","system_id":"levelo_inurba_marseille","lat":43.27621,"lon":5.361,"is_reserved":false,"is_disabled":false,"rental_uris":{"android":"levelo://app?vid=c70c7955-2cfd-40c0-86b7-a19179005842","ios":"levelo://app?vid=c70c7955-2cfd-40c0-86b7-a19179005842"},"vehicle_type_id":"4","last_reported":1737479295,"current_range_meters":38800,"station_id":"ce4bgj92rcd13ifvqbe0","pricing_plan_id":"cebpf4jnsgd1na2vs0mg"},{"bike_id":"f0e13582-6921-4173-9aca-ab119da2958d","system_id":"levelo_inurba_marseille","lat":43.2952,"lon":5.39408,"is_reserved":false,"is_disabled":false,"rental_uris":{"android":"levelo://app?vid=f0e13582-6921-4173-9aca-ab119da2958d","ios":"levelo://app?vid=f0e13582-6921-4173-9aca-ab119da2958d"},"vehicle_type_id":"4","last_reported":1737479295,"current_range_meters":18000,"station_id":"ce4bh292rcd13ifvqdf0","pricing_plan_id":"cebpf4jnsgd1na2vs0mg"},{"bike_id":"16767e78-5299-4592-8f07-7188978223f8","system_id":"levelo_inurba_marseille","lat":43.25721,"lon":5.4111,"is_reserved":false,"is_disabled":false,"rental_uris":{"android":"levelo://app?vid=16767e78-5299-4592-8f07-7188978223f8","ios":"levelo://app?vid=16767e78-5299-4592-8f07-7188978223f8"},"vehicle_type_id":"4","last_reported":1737479295,"current_range_meters":20000,"station_id":"ce4bhkp2rcd13ifvqgd0","pricing_plan_id":"cebpf4jnsgd1na2vs0mg"},{"bike_id":"b3a203dd-baa9-4776-a830-b7382d5f430f","system_id":"levelo_inurba_marseille","lat":43.24179,"lon":5.39724,"is_reserved":false,"is_disabled":false,"rental_uris":{"android":"levelo://app?vid=b3a203dd-baa9-4776-a830-b7382d5f430f","ios":"levelo://app?vid=b3a203dd-baa9-4776-a830-b7382d5f430f"},"vehicle_type_id":"4","last_reported":1737479295,"current_range_meters":26800,"station_id":"ce4bhn12rcd13ifvqgpg","pricing_plan_id":"cebpf4jnsgd1na2vs0mg"},{"bike_id":"6f4eff95-7e98-465f-a583-6e026ebf0934","system_id":"levelo_inurba_marseille","lat":43.23965,"lon":5.36631,"is_reserved":false,"is_disabled":false,"rental_uris":{"android":"levelo://app?vid=6f4eff95-7e98-465f-a583-6e026ebf0934","ios":"levelo://app?vid=6f4eff95-7e98-465f-a583-6e026ebf0934"},"vehicle_type_id":"4","last_reported":1737479295,"current_range_meters":35600,"station_id":"ce4bhi12rcd13ifvqfp0","pricing_plan_id":"cebpf4jnsgd1na2vs0mg"},{"bike_id":"d7e117ca-16bf-4121-a8b8-c81a7896ce47","system_id":"levelo_inurba_marseille","lat":43.28167,"lon":5.42617,"is_reserved":false,"is_disabled":false,"rental_uris":{"android":"levelo://app?vid=d7e117ca-16bf-4121-a8b8-c81a7896ce47","ios":"levelo://app?vid=d7e117ca-16bf-4121-a8b8-c81a7896ce47"},"vehicle_type_id":"4","last_reported":1737479295,"current_range_meters":38800,"station_id":"ce4bhnh2rcd13ifvqgug","pricing_plan_id":"cebpf4jnsgd1na2vs0mg"},{"bike_id":"db1f4d4c-5e3e-459e-b145-a966f9af8e6d","system_id":"levelo_inurba_marseille","lat":43.25818,"lon":5.39424,"is_reserved":false,"is_disabled":false,"rental_uris":{"android":"levelo://app?vid=db1f4d4c-5e3e-459e-b145-a966f9af8e6d","ios":"levelo://app?vid=db1f4d4c-5e3e-459e-b145-a966f9af8e6d"},"vehicle_type_id":"4","last_reported":1737479295,"current_range_meters":5600,"station_id":"ce4bhip2rcd13ifvqft0","pricing_plan_id":"cebpf4jnsgd1na2vs0mg"},{"bike_id":"aa0a04c9-f9bd-45db-8645-3b1809bb106d","system_id":"levelo_inurba_marseille","lat":43.29915,"lon":5.38149,"is_reserved":false,"is_disabled":false,"rental_uris":{"android":"levelo://app?vid=aa0a04c9-f9bd-45db-8645-3b1809bb106d","ios":"levelo://app?vid=aa0a04c9-f9bd-45db-8645-3b1809bb106d"},"vehicle_type_id":"4","last_reported":1737479295,"current_range_meters":39200,"station_id":"ce4bgj12rcd13ifvqbc0","pricing_plan_id":"cebpf4jnsgd1na2vs0mg"},{"bike_id":"d1240c7b-8b57-4edb-aca1-5aa88715f444","system_id":"levelo_inurba_marseille","lat":43.29604,"lon":5.37511,"is_reserved":false,"is_disabled":false,"rental_uris":{"android":"levelo://app?vid=d1240c7b-8b57-4edb-aca1-5aa88715f444","ios":"levelo://app?vid=d1240c7b-8b57-4edb-aca1-5aa88715f444"},"vehicle_type_id":"4","last_reported":1737479295,"current_range_meters":22000,"station_id":"ce4bgh92rcd13ifvqb50","pricing_plan_id":"cebpf4jnsgd1na2vs0mg"},{"bike_id":"474c1a13-de2b-49e2-a927-3eea964eda47","system_id":"levelo_inurba_marseille","lat":43.29935,"lon":5.36567,"is_reserved":false,"is_disabled":false,"rental_uris":{"android":"levelo://app?vid=474c1a13-de2b-49e2-a927-3eea964eda47","ios":"levelo://app?vid=474c1a13-de2b-49e2-a927-3eea964eda47"},"vehicle_type_id":"4","last_reported":1737479295,"current_range_meters":18800,"station_id":"ce4bgm92rcd13ifvqbr0","pricing_plan_id":"cebpf4jnsgd1na2vs0mg"},{"bike_id":"c3442b2d-b955-4c03-bfff-a247d38a969c","system_id":"levelo_inurba_marseille","lat":43.30325,"lon":5.40439,"is_reserved":false,"is_disabled":false,"rental_uris":{"android":"levelo://app?vid=c3442b2d-b955-4c03-bfff-a247d38a969c","ios":"levelo://app?vid=c3442b2d-b955-4c03-bfff-a247d38a969c"},"vehicle_type_id":"4","last_reported":1737479295,"current_range_meters":20800,"station_id":"ce4bh012rcd13ifvqd10","pricing_plan_id":"cebpf4jnsgd1na2vs0mg"},{"bike_id":"a8fa78b5-c91d-4220-b1e6-8866783bd1e8","system_id":"levelo_inurba_marseille","lat":43.3171,"lon":5.43707,"is_reserved":false,"is_disabled":false,"rental_uris":{"android":"levelo://app?vid=a8fa78b5-c91d-4220-b1e6-8866783bd1e8","ios":"levelo://app?vid=a8fa78b5-c91d-4220-b1e6-8866783bd1e8"},"vehicle_type_id":"4","last_reported":1737479295,"current_range_meters":20000,"station_id":"ce4bhp92rcd13ifvqhcg","pricing_plan_id":"cebpf4jnsgd1na2vs0mg"},{"bike_id":"5a3ff355-7c4b-436d-a6eb-7f163194ae22","system_id":"levelo_inurba_marseille","lat":43.29972,"lon":5.37178,"is_reserved":false,"is_disabled":false,"rental_uris":{"android":"levelo://app?vid=5a3ff355-7c4b-436d-a6eb-7f163194ae22","ios":"levelo://app?vid=5a3ff355-7c4b-436d-a6eb-7f163194ae22"},"vehicle_type_id":"4","last_reported":1737479295,"current_range_meters":14000,"station_id":"ce4bgr92rcd13ifvqc7g","pricing_plan_id":"cebpf4jnsgd1na2vs0mg"},{"bike_id":"1ba598a0-2017-4312-bfb7-a78b98407d34","system_id":"levelo_inurba_marseille","lat":43.30593,"lon":5.39353,"is_reserved":false,"is_disabled":false,"rental_uris":{"android":"levelo://app?vid=1ba598a0-2017-4312-bfb7-a78b98407d34","ios":"levelo://app?vid=1ba598a0-2017-4312-bfb7-a78b98407d34"},"vehicle_type_id":"4","last_reported":1737479295,"current_range_meters":19200,"station_id":"ce4bh0p2rcd13ifvqd80","pricing_plan_id":"cebpf4jnsgd1na2vs0mg"},{"bike_id":"a9d0da0d-056a-4fb3-8ce7-454a98f99a3c","system_id":"levelo_inurba_marseille","lat":43.24168,"lon":5.39728,"is_reserved":false,"is_disabled":false,"rental_uris":{"android":"levelo://app?vid=a9d0da0d-056a-4fb3-8ce7-454a98f99a3c","ios":"levelo://app?vid=a9d0da0d-056a-4fb3-8ce7-454a98f99a3c"},"vehicle_type_id":"4","last_reported":1737479295,"current_range_meters":14400,"station_id":"ce4bhn12rcd13ifvqgpg","pricing_plan_id":"cebpf4jnsgd1na2vs0mg"},{"bike_id":"07fcc505-96e0-4e0e-9712-6fe641bf1871","system_id":"levelo_inurba_marseille","lat":43.27615,"lon":5.36101,"is_reserved":false,"is_disabled":false,"rental_uris":{"android":"levelo://app?vid=07fcc505-96e0-4e0e-9712-6fe641bf1871","ios":"levelo://app?vid=07fcc505-96e0-4e0e-9712-6fe641bf1871"},"vehicle_type_id":"4","last_reported":1737479295,"current_range_meters":38800,"station_id":"ce4bgj92rcd13ifvqbe0","pricing_plan_id":"cebpf4jnsgd1na2vs0mg"},{"bike_id":"f325b412-e9b8-4c9f-b2bc-a4512314203b","system_id":"levelo_inurba_marseille","lat":43.29575,"lon":5.39974,"is_reserved":false,"is_disabled":false,"rental_uris":{"android":"levelo://app?vid=f325b412-e9b8-4c9f-b2bc-a4512314203b","ios":"levelo://app?vid=f325b412-e9b8-4c9f-b2bc-a4512314203b"},"vehicle_type_id":"4","last_reported":1737479295,"current_range_meters":20400,"station_id":"ce4bh312rcd13ifvqdj0","pricing_plan_id":"cebpf4jnsgd1na2vs0mg"},{"bike_id":"1a000748-f71e-4881-8b46-35924e8c29bb","system_id":"levelo_inurba_marseille","lat":43.29875,"lon":5.39729,"is_reserved":false,"is_disabled":false,"rental_uris":{"android":"levelo://app?vid=1a000748-f71e-4881-8b46-35924e8c29bb","ios":"levelo://app?vid=1a000748-f71e-4881-8b46-35924e8c29bb"},"vehicle_type_id":"4","last_reported":1737479295,"current_range_meters":38400,"station_id":"ce4bh0h2rcd13ifvqd50","pricing_plan_id":"cebpf4jnsgd1na2vs0mg"},{"bike_id":"e1c979ce-1867-403f-8ca3-3eac704da0e6","system_id":"levelo_inurba_marseille","lat":43.31991,"lon":5.3816,"is_reserved":false,"is_disabled":false,"rental_uris":{"android":"levelo://app?vid=e1c979ce-1867-403f-8ca3-3eac704da0e6","ios":"levelo://app?vid=e1c979ce-1867-403f-8ca3-3eac704da0e6"},"vehicle_type_id":"4","last_reported":1737479295,"current_range_meters":27600,"station_id":"ce4bhr12rcd13ifvqhpg","pricing_plan_id":"cebpf4jnsgd1na2vs0mg"},{"bike_id":"22f9f06c-5eb6-4b8c-a53a-908c25862bfe","system_id":"levelo_inurba_marseille","lat":43.27961,"lon":5.38711,"is_reserved":false,"is_disabled":false,"rental_uris":{"android":"levelo://app?vid=22f9f06c-5eb6-4b8c-a53a-908c25862bfe","ios":"levelo://app?vid=22f9f06c-5eb6-4b8c-a53a-908c25862bfe"},"vehicle_type_id":"4","last_reported":1737479295,"current_range_meters":38800,"station_id":"ce4bhg12rcd13ifvqf80","pricing_plan_id":"cebpf4jnsgd1na2vs0mg"},{"bike_id":"6b520c81-bf97-4319-a597-1f395f9437f7","system_id":"levelo_inurba_marseille","lat":43.3015,"lon":5.37427,"is_reserved":false,"is_disabled":false,"rental_uris":{"android":"levelo://app?vid=6b520c81-bf97-4319-a597-1f395f9437f7","ios":"levelo://app?vid=6b520c81-bf97-4319-a597-1f395f9437f7"},"vehicle_type_id":"4","last_reported":1737479295,"current_range_meters":35600,"station_id":"ce4bgs92rcd13ifvqcc0","pricing_plan_id":"cebpf4jnsgd1na2vs0mg"},{"bike_id":"60bc1001-2f79-4575-af39-eea59c5376d3","system_id":"levelo_inurba_marseille","lat":43.26492,"lon":5.39535,"is_reserved":false,"is_disabled":false,"rental_uris":{"android":"levelo://app?vid=60bc1001-2f79-4575-af39-eea59c5376d3","ios":"levelo://app?vid=60bc1001-2f79-4575-af39-eea59c5376d3"},"vehicle_type_id":"4","last_reported":1737479295,"current_range_meters":30400,"station_id":"ce4bhi12rcd13ifvqfq0","pricing_plan_id":"cebpf4jnsgd1na2vs0mg"},{"bike_id":"134723ef-cb55-433f-bc95-1a461b952046","system_id":"levelo_inurba_marseille","lat":43.30416,"lon":5.41288,"is_reserved":false,"is_disabled":false,"rental_uris":{"android":"levelo://app?vid=134723ef-cb55-433f-bc95-1a461b952046","ios":"levelo://app?vid=134723ef-cb55-433f-bc95-1a461b952046"},"vehicle_type_id":"4","last_reported":1737479295,"current_range_meters":8000,"station_id":"ce4bhop2rcd13ifvqh8g","pricing_plan_id":"cebpf4jnsgd1na2vs0mg"},{"bike_id":"39ca64ea-9698-44c8-be1e-a7b05e2406ed","system_id":"levelo_inurba_marseille","lat":43.24164,"lon":5.36391,"is_reserved":false,"is_disabled":true,"rental_uris":{"android":"levelo://app?vid=39ca64ea-9698-44c8-be1e-a7b05e2406ed","ios":"levelo://app?vid=39ca64ea-9698-44c8-be1e-a7b05e2406ed"},"vehicle_type_id":"4","last_reported":1737479295,"current_range_meters":9200,"station_id":"cpo36qri1sfpv3e86is0","pricing_plan_id":"cebpf4jnsgd1na2vs0mg"},{"bike_id":"b2d30e66-4397-402a-9206-56154ec33012","system_id":"levelo_inurba_marseille","lat":43.28421,"lon":5.349803,"is_reserved":false,"is_disabled":false,"rental_uris":{"android":"levelo://app?vid=b2d30e66-4397-402a-9206-56154ec33012","ios":"levelo://app?vid=b2d30e66-4397-402a-9206-56154ec33012"},"vehicle_type_id":"4","last_reported":1737479295,"current_range_meters":38800,"station_id":"ce4bhbh2rcd13ifvqepg","pricing_plan_id":"cebpf4jnsgd1na2vs0mg"},{"bike_id":"83f2816a-b6b8-40a8-a314-229162203283","system_id":"levelo_inurba_marseille","lat":43.29351,"lon":5.4012,"is_reserved":false,"is_disabled":true,"rental_uris":{"android":"levelo://app?vid=83f2816a-b6b8-40a8-a314-229162203283","ios":"levelo://app?vid=83f2816a-b6b8-40a8-a314-229162203283"},"vehicle_type_id":"4","last_reported":1737479295,"current_range_meters":0,"station_id":"","pricing_plan_id":"cebpf4jnsgd1na2vs0mg"},{"bike_id":"21840225-946f-468b-9eec-a23123f49285","system_id":"levelo_inurba_marseille","lat":43.31486,"lon":5.3728,"is_reserved":false,"is_disabled":false,"rental_uris":{"android":"levelo://app?vid=21840225-946f-468b-9eec-a23123f49285","ios":"levelo://app?vid=21840225-946f-468b-9eec-a23123f49285"},"vehicle_type_id":"4","last_reported":1737479295,"current_range_meters":38000,"station_id":"ce4bgt12rcd13ifvqcd0","pricing_plan_id":"cebpf4jnsgd1na2vs0mg"},{"bike_id":"5eb97929-22d5-4986-a22a-ae846d1c7590","system_id":"levelo_inurba_marseille","lat":43.23178,"lon":5.3999,"is_reserved":false,"is_disabled":false,"rental_uris":{"android":"levelo://app?vid=5eb97929-22d5-4986-a22a-ae846d1c7590","ios":"levelo://app?vid=5eb97929-22d5-4986-a22a-ae846d1c7590"},"vehicle_type_id":"4","last_reported":1737479295,"current_range_meters":6400,"station_id":"ce4bhn12rcd13ifvqgqg","pricing_plan_id":"cebpf4jnsgd1na2vs0mg"},{"bike_id":"a56a9ce2-0c63-4003-b568-bf13ecd00ee5","system_id":"levelo_inurba_marseille","lat":43.29253,"lon":5.40915,"is_reserved":false,"is_disabled":false,"rental_uris":{"android":"levelo://app?vid=a56a9ce2-0c63-4003-b568-bf13ecd00ee5","ios":"levelo://app?vid=a56a9ce2-0c63-4003-b568-bf13ecd00ee5"},"vehicle_type_id":"4","last_reported":1737479295,"current_range_meters":39200,"station_id":"ce4bh192rcd13ifvqdc0","pricing_plan_id":"cebpf4jnsgd1na2vs0mg"},{"bike_id":"9f097785-17ed-4e7f-b959-b1d075c913db","system_id":"levelo_inurba_marseille","lat":43.2867,"lon":5.36316,"is_reserved":false,"is_disabled":false,"rental_uris":{"android":"levelo://app?vid=9f097785-17ed-4e7f-b959-b1d075c913db","ios":"levelo://app?vid=9f097785-17ed-4e7f-b959-b1d075c913db"},"vehicle_type_id":"4","last_reported":1737479295,"current_range_meters":38800,"station_id":"ce4bhah2rcd13ifvqej0","pricing_plan_id":"cebpf4jnsgd1na2vs0mg"},{"bike_id":"29fcc29e-66ce-4c29-b48f-3f0069162c58","system_id":"levelo_inurba_marseille","lat":43.31059,"lon":5.38347,"is_reserved":false,"is_disabled":false,"rental_uris":{"android":"levelo://app?vid=29fcc29e-66ce-4c29-b48f-3f0069162c58","ios":"levelo://app?vid=29fcc29e-66ce-4c29-b48f-3f0069162c58"},"vehicle_type_id":"4","last_reported":1737479295,"current_range_meters":9600,"station_id":"ce4bgv92rcd13ifvqcr0","pricing_plan_id":"cebpf4jnsgd1na2vs0mg"},