{"last_updated":1741014584,"ttl":60,"version":"2.2","data":{"bikes":[{"bike_id":"a3a28040-9e8f-461a-ab6e-ad9acdb9d704","system_id":"levelo_inurba_marseille","lat":43.28702,"lon":5.39994,"is_reserved":false,"is_disabled":false,"rental_uris":{"android":"levelo://app?vid=a3a28040-9e8f-461a-ab6e-ad9acdb9d704","ios":"levelo://app?vid=a3a28040-9e8f-461a-ab6e-ad9acdb9d704"},"vehicle_type_id":"4","last_reported":1741014584,"current_range_meters":2800,"station_id":"ce4bho92rcd13ifvqh3g","pricing_plan_id":"cebpf4jnsgd1na2vs0mg"},{"bike_id":"fe2a57d1-8f14-4d92-90fc-50e4ac16c0d8","system_id":"levelo_inurba_marseille","lat":43.31291,"lon":5.4018,"is_reserved":false,"is_disabled":true,"rental_uris":{"android":"levelo://app?vid=fe2a57d1-8f14-4d92-90fc-50e4ac16c0d8","ios":"levelo://app?vid=fe2a57d1-8f14-4d92-90fc-50e4ac16c0d8"},"vehicle_type_id":"4","last_reported":1741014584,"current_range_meters":3200,"station_id":"ce4bh092rcd13ifvqd30","pricing_plan_id":"cebpf4jnsgd1na2vs0mg"},{"bike_id":"d0a0721c-743b-4017-84d7-4b1ccbe2039b","system_id":"levelo_inurba_marseille","lat":43.30634,"lon":5.40091,"is_reserved":false,"is_disabled":false,"rental_uris":{"android":"levelo://app?vid=d0a0721c-743b-4017-84d7-4b1ccbe2039b","ios":"levelo://app?vid=d0a0721c-743b-4017-84d7-4b1ccbe2039b"},"vehicle_type_id":"4","last_reported":1741014584,"current_range_meters":3600,"station_id":"ce4bh112rcd13ifvqda0","pricing_plan_id":"cebpf4jnsgd1na2vs0mg"},{"bike_id":"d6c0f5da-15e8-4d9c-855a-09a47899cfd2","system_id":"levelo_inurba_marseille","lat":43.282715,"lon":5.350568,"is_reserved":false,"is_disabled":false,"rental_uris":{"android":"levelo://app?vid=d6c0f5da-15e8-4d9c-855a-09a47899cfd2","ios":"levelo://app?vid=d6c0f5da-15e8-4d9c-855a-09a47899cfd2"},"vehicle_type_id":"4","last_reported":1741014584,"current_range_meters":4000,"station_id":"ce4bhap2rcd13ifvqek0","pricing_plan_id":"cebpf4jnsgd1na2vs0mg"},{"bike_id":"d406c2eb-fa52-4dda-adff-40026b38c295","system_id":"levelo_inurba_marseille","lat":43.27565,"lon":5.38421,"is_reserved":false,"is_disabled":false,"rental_uris":{"android":"levelo://app?vid=d406c2eb-fa52-4dda-adff-40026b38c295","ios":"levelo://app?vid=d406c2eb-fa52-4dda-adff-40026b38c295"},"vehicle_type_id":"4","last_reported":1741014584,"current_range_meters":4000,"station_id":"ce4bhh92rcd13ifvqfi0","pricing_plan_id":"cebpf4jnsgd1na2vs0mg"},{"bike_id":"cb70ed5a-2b0c-461d-a13b-f8f080eb653b","system_id":"levelo_inurba_marseille","lat":43.28416,"lon":5.3498,"is_reserved":false,"is_disabled":false,"rental_uris":{"android":"levelo://app?vid=cb70ed5a-2b0c-461d-a13b-f8f080eb653b","ios":"levelo://app?vid=cb70ed5a-2b0c-461d-a13b-f8f080eb653b"},"vehicle_type_id":"4","last_reported":1741014584,"current_range_meters":4000,"station_id":"ce4bhbh2rcd13ifvqepg","pricing_plan_id":"cebpf4jnsgd1na2vs0mg"},{"bike_id":"ba7a3b6b-ffb1-4b7c-85b4-3fc3b13f51e9","system_id":"levelo_inurba_marseille","lat":43.32569,"lon":5.38354,"is_reserved":false,"is_disabled":false,"rental_uris":{"android":"levelo://app?vid=ba7a3b6b-ffb1-4b7c-85b4-3fc3b13f51e9","ios":"levelo://app?vid=ba7a3b6b-ffb1-4b7c-85b4-3fc3b13f51e9"},"vehicle_type_id":"4","last_reported":1741014584,"current_range_meters":4800,"station_id":"","pricing_plan_id":"cebpf4jnsgd1na2vs0mg"},{"bike_id":"9a2cfcbc-052d-4c34-9fff-369b72072d59","system_id":"levelo_inurba_marseille","lat":43.284525,"lon":5.358963,"is_reserved":false,"is_disabled":false,"rental_uris":{"android":"levelo://app?vid=9a2cfcbc-052d-4c34-9fff-369b72072d59","ios":"levelo://app?vid=9a2cfcbc-052d-4c34-9fff-369b72072d59"},"vehicle_type_id":"4","last_reported":1741014584,"current_range_meters":4400,"station_id":"ce4bhah2rcd13ifvqei0","pricing_plan_id":"cebpf4jnsgd1na2vs0mg"},{"bike_id":"ed245fa5-018a-4ded-aa3f-9c2f62794eb4","system_id":"levelo_inurba_marseille","lat":43.28618,"lon":5.35108,"is_reserved":false,"is_disabled":false,"rental_uris":{"android":"levelo://app?vid=ed245fa5-018a-4ded-aa3f-9c2f62794eb4","ios":"levelo://app?vid=ed245fa5-018a-4ded-aa3f-9c2f62794eb4"},"vehicle_type_id":"4","last_reported":1741014584,"current_range_meters":4800,"station_id":"ce4bhch2rcd13ifvqeug","pricing_plan_id":"cebpf4jnsgd1na2vs0mg"},{"bike_id":"fbb434ec-fb3e-4b4d-be26-675e17ec36af","system_id":"levelo_inurba_marseille","lat":43.23146,"lon":5.43718,"is_reserved":false,"is_disabled":false,"rental_uris":{"android":"levelo://app?vid=fbb434ec-fb3e-4b4d-be26-675e17ec36af","ios":"levelo://app?vid=fbb434ec-fb3e-4b4d-be26-675e17ec36af"},"vehicle_type_id":"4","last_reported":1741014584,"current_range_meters":4800,"station_id":"ce4bhmp2rcd13ifvqgog","pricing_plan_id":"cebpf4jnsgd1na2vs0mg"},{"bike_id":"3dc7f799-bc46-44e7-bbb5-ad1a0666e85d","system_id":"levelo_inurba_marseille","lat":43.29187,"lon":5.4091,"is_reserved":false,"is_disabled":false,"rental_uris":{"android":"levelo://app?vid=3dc7f799-bc46-44e7-bbb5-ad1a0666e85d","ios":"levelo://app?vid=3dc7f799-bc46-44e7-bbb5-ad1a0666e85d"},"vehicle_type_id":"4","last_reported":1741014584,"current_range_meters":4800,"station_id":"","pricing_plan_id":"cebpf4jnsgd1na2vs0mg"},{"bike_id":"e570d6c1-cc4e-42a8-a853-3a66a5e91138","system_id":"levelo_inurba_marseille","lat":43.23067,"lon":5.35494,"is_reserved":false,"is_disabled":false,"rental_uris":{"android":"levelo://app?vid=e570d6c1-cc4e-42a8-a853-3a66a5e91138","ios":"levelo://app?vid=e570d6c1-cc4e-42a8-a853-3a66a5e91138"},"vehicle_type_id":"4","last_reported":1741014584,"current_range_meters":4800,"station_id":"cpo3342slgdg3j2ifvpg","pricing_plan_id":"cebpf4jnsgd1na2vs0mg"},{"bike_id":"c410635d-69d3-426b-b9ab-c38697dce655","system_id":"levelo_inurba_marseille","lat":43.29934,"lon":5.36549,"is_reserved":false,"is_disabled":false,"rental_uris":{"android":"levelo://app?vid=c410635d-69d3-426b-b9ab-c38697dce655","ios":"levelo://app?vid=c410635d-69d3-426b-b9ab-c38697dce655"},"vehicle_type_id":"4","last_reported":1741014584,"current_range_meters":4800,"station_id":"ce4bgm92rcd13ifvqbr0","pricing_plan_id":"cebpf4jnsgd1na2vs0mg"},{"bike_id":"6b13e96d-69a2-4ba6-b398-b3ff2720cd02","system_id":"levelo_inurba_marseille","lat":43.297882,"lon":5.38084,"is_reserved":false,"is_disabled":false,"rental_uris":{"android":"levelo://app?vid=6b13e96d-69a2-4ba6-b398-b3ff2720cd02","ios":"levelo://app?vid=6b13e96d-69a2-4ba6-b398-b3ff2720cd02"},"vehicle_type_id":"4","last_reported":1741014584,"current_range_meters":4800,"station_id":"ce4bh112rcd13ifvqda0","pricing_plan_id":"cebpf4jnsgd1na2vs0mg"},{"bike_id":"fbd8b7bc-44f1-4417-a7ee-a77eccc6570f","system_id":"levelo_inurba_marseille","lat":43.240692,"lon":5.377496,"is_reserved":false,"is_disabled":false,"rental_uris":{"android":"levelo://app?vid=fbd8b7bc-44f1-4417-a7ee-a77eccc6570f","ios":"levelo://app?vid=fbd8b7bc-44f1-4417-a7ee-a77eccc6570f"},"vehicle_type_id":"4","last_reported":1741014584,"current_range_meters":4800,"station_id":"ce4bgi92rcd13ifvqb90","pricing_plan_id":"cebpf4jnsgd1na2vs0mg"},{"bike_id":"1566892d-9980-425f-98dd-3e2440086395","system_id":"levelo_inurba_marseille","lat":43.27056,"lon":5.40265,"is_reserved":false,"is_disabled":false,"rental_uris":{"android":"levelo://app?vid=1566892d-9980-425f-98dd-3e2440086395","ios":"levelo://app?vid=1566892d-9980-425f-98dd-3e2440086395"},"vehicle_type_id":"4","last_reported":1741014584,"current_range_meters":4800,"station_id":"ce4bhk92rcd13ifvqgc0","pricing_plan_id":"cebpf4jnsgd1na2vs0mg"},{"bike_id":"7294fa1b-6789-4d34-92da-72d6801cf1aa","system_id":"levelo_inurba_marseille","lat":43.32736,"lon":5.36285,"is_reserved":false,"is_disabled":false,"rental_uris":{"android":"levelo://app?vid=7294fa1b-6789-4d34-92da-72d6801cf1aa","ios":"levelo://app?vid=7294fa1b-6789-4d34-92da-72d6801cf1aa"},"vehicle_type_id":"4","last_reported":1741014584,"current_range_meters":4800,"station_id":"","pricing_plan_id":"cebpf4jnsgd1na2vs0mg"},{"bike_id":"e8dcdfcf-4b4e-432e-9d2f-475e8cd4b0ac","system_id":"levelo_inurba_marseille","lat":43.24181,"lon":5.36412,"is_reserved":false,"is_disabled":false,"rental_uris":{"android":"levelo://app?vid=e8dcdfcf-4b4e-432e-9d2f-475e8cd4b0ac","ios":"levelo://app?vid=e8dcdfcf-4b4e-432e-9d2f-475e8cd4b0ac"},"vehicle_type_id":"4","last_reported":1741014584,"current_range_meters":5600,"station_id":"cpo36qri1sfpv3e86is0","pricing_plan_id":"cebpf4jnsgd1na2vs0mg"},{"bike_id":"044c6927-2cce-4f72-874b-0ec861249b91","system_id":"levelo_inurba_marseille","lat":43.27219,"lon":5.3919,"is_reserved":false,"is_disabled":false,"rental_uris":{"android":"levelo://app?vid=044c6927-2cce-4f72-874b-0ec861249b91","ios":"levelo://app?vid=044c6927-2cce-4f72-874b-0ec861249b91"},"vehicle_type_id":"4","last_reported":1741014584,"current_range_meters":5600,"station_id":"ce4bhhp2rcd13ifvqfm0","pricing_plan_id":"cebpf4jnsgd1na2vs0mg"},{"bike_id":"2438a165-c2ef-422e-ba60-5b699454b999","system_id":"levelo_inurba_marseille","lat":43.31893,"lon":5.40731,"is_reserved":false,"is_disabled":false,"rental_uris":{"android":"levelo://app?vid=2438a165-c2ef-422e-ba60-5b699454b999","ios":"levelo://app?vid=2438a165-c2ef-422e-ba60-5b699454b999"},"vehicle_type_id":"4","last_reported":1741014584,"current_range_meters":5600,"station_id":"ce4bhq12rcd13ifvqhig","pricing_plan_id":"cebpf4jnsgd1na2vs0mg"},{"bike_id":"cb87b859-4ac7-4db0-ac9f-bfd4ea7e67fa","system_id":"levelo_inurba_marseille","lat":43.29573,"lon":5.3752,"is_reserved":false,"is_disabled":false,"rental_uris":{"android":"levelo://app?vid=cb87b859-4ac7-4db0-ac9f-bfd4ea7e67fa","ios":"levelo://app?vid=cb87b859-4ac7-4db0-ac9f-bfd4ea7e67fa"},"vehicle_type_id":"4","last_reported":1741014584,"current_range_meters":5600,"station_id":"ce4bgh92rcd13ifvqb50","pricing_plan_id":"cebpf4jnsgd1na2vs0mg"},{"bike_id":"4516871f-8760-4b45-91c8-23b5a8526168","system_id":"levelo_inurba_marseille","lat":43.2718,"lon":5.40995,"is_reserved":false,"is_disabled":false,"rental_uris":{"android":"levelo://app?vid=4516871f-8760-4b45-91c8-23b5a8526168","ios":"levelo://app?vid=4516871f-8760-4b45-91c8-23b5a8526168"},"vehicle_type_id":"4","last_reported":1741014584,"current_range_meters":6000,"station_id":"ce4bhl12rcd13ifvqgf0","pricing_plan_id":"cebpf4jnsgd1na2vs0mg"},{"bike_id":"4c7ca1e3-239c-4bd4-a4b1-b2195dd98537","system_id":"levelo_inurba_marseille","lat":43.26555,"lon":5.37286,"is_reserved":false,"is_disabled":false,"rental_uris":{"android":"levelo://app?vid=4c7ca1e3-239c-4bd4-a4b1-b2195dd98537","ios":"levelo://app?vid=4c7ca1e3-239c-4bd4-a4b1-b2195dd98537"},"vehicle_type_id":"4","last_reported":1741014584,"current_range_meters":6000,"station_id":"ce4bhg12rcd13ifvqf70","pricing_plan_id":"cebpf4jnsgd1na2vs0mg"},{"bike_id":"8a3d5b40-eb12-47f6-995f-1d20a56234be","system_id":"levelo_inurba_marseille","lat":43.30541,"lon":5.36532,"is_reserved":false,"is_disabled":false,"rental_uris":{"android":"levelo://app?vid=8a3d5b40-eb12-47f6-995f-1d20a56234be","ios":"levelo://app?vid=8a3d5b40-eb12-47f6-995f-1d20a56234be"},"vehicle_type_id":"4","last_reported":1741014584,"current_range_meters":6400,"station_id":"ce4bgs12rcd13ifvqcag","pricing_plan_id":"cebpf4jnsgd1na2vs0mg"},{"bike_id":"c1ecbb77-6269-44bc-9802-500452d907e7","system_id":"levelo_inurba_marseille","lat":43.22932,"lon":5.35385,"is_reserved":false,"is_disabled":false,"rental_uris":{"android":"levelo://app?vid=c1ecbb77-6269-44bc-9802-500452d907e7","ios":"levelo://app?vid=c1ecbb77-6269-44bc-9802-500452d907e7"},"vehicle_type_id":"4","last_reported":1741014584,"current_range_meters":6400,"station_id":"cpo3532slgdg3j2ikp40","pricing_plan_id":"cebpf4jnsgd1na2vs0mg"},{"bike_id":"c8fdc079-d48e-4721-b3b1-5e7a4aedabf5","system_id":"levelo_inurba_marseille","lat":43.27824,"lon":5.40708,"is_reserved":false,"is_disabled":false,"rental_uris":{"android":"levelo://app?vid=c8fdc079-d48e-4721-b3b1-5e7a4aedabf5","ios":"levelo://app?vid=c8fdc079-d48e-4721-b3b1-5e7a4aedabf5"},"vehicle_type_id":"4","last_reported":1741014584,"current_range_meters":6400,"station_id":"ce4bhnh2rcd13ifvqgtg","pricing_plan_id":"cebpf4jnsgd1na2vs0mg"},{"bike_id":"d0641685-3e58-4cb2-bb51-c01d0206aad7","system_id":"levelo_inurba_marseille","lat":43.27201,"lon":5.39194,"is_reserved":false,"is_disabled":false,"rental_uris":{"android":"levelo://app?vid=d0641685-3e58-4cb2-bb51-c01d0206aad7","ios":"levelo://app?vid=d0641685-3e58-4cb2-bb51-c01d0206aad7"},"vehicle_type_id":"4","last_reported":1741014584,"current_range_meters":6400,"station_id":"ce4bhhp2rcd13ifvqfm0","pricing_plan_id":"cebpf4jnsgd1na2vs0mg"},{"bike_id":"035d0302-f0f1-4607-894a-98c280122bfc","system_id":"levelo_inurba_marseille","lat":43.25503,"lon":5.37657,"is_reserved":false,"is_disabled":false,"rental_uris":{"android":"levelo://app?vid=035d0302-f0f1-4607-894a-98c280122bfc","ios":"levelo://app?vid=035d0302-f0f1-4607-894a-98c280122bfc"},"vehicle_type_id":"4","last_reported":1741014584,"current_range_meters":6400,"station_id":"ce4bhh12rcd13ifvqff0","pricing_plan_id":"cebpf4jnsgd1na2vs0mg"},{"bike_id":"b79e9a12-491e-4c25-a97c-2e5befd48ff8","system_id":"levelo_inurba_marseille","lat":43.27933,"lon":5.39587,"is_reserved":false,"is_disabled":false,"rental_uris":{"android":"levelo://app?vid=b79e9a12-491e-4c25-a97c-2e5befd48ff8","ios":"levelo://app?vid=b79e9a12-491e-4c25-a97c-2e5befd48ff8"},"vehicle_type_id":"4","last_reported":1741014584,"current_range_meters":6400,"station_id":"ce4bhf92rcd13ifvqf40","pricing_plan_id":"cebpf4jnsgd1na2vs0mg"},{"bike_id":"0e36cc4c-4f47-4da2-acda-436878df3701","system_id":"levelo_inurba_marseille","lat":43.24188,"lon":5.39726,"is_reserved":false,"is_disabled":false,"rental_uris":{"android":"levelo://app?vid=0e36cc4c-4f47-4da2-acda-436878df3701","ios":"levelo://app?vid=0e36cc4c-4f47-4da2-acda-436878df3701"},"vehicle_type_id":"4","last_reported":1741014584,"current_range_meters":6800,"station_id":"ce4bhn12rcd13ifvqgpg","pricing_plan_id":"cebpf4jnsgd1na2vs0mg"},{"bike_id":"c6e82cc7-0afe-46f8-b67b-9ca63f394cee","system_id":"levelo_inurba_marseille","lat":43.26549,"lon":5.37298,"is_reserved":false,"is_disabled":false,"rental_uris":{"android":"levelo://app?vid=c6e82cc7-0afe-46f8-b67b-9ca63f394cee","ios":"levelo://app?vid=c6e82cc7-0afe-46f8-b67b-9ca63f394cee"},"vehicle_type_id":"4","last_reported":1741014584,"current_range_meters":6800,"station_id":"ce4bhg12rcd13ifvqf70","pricing_plan_id":"cebpf4jnsgd1na2vs0mg"},{"bike_id":"8a078652-802e-4524-bfbd-422e48f70cd3","system_id":"levelo_inurba_marseille","lat":43.28753,"lon":5.38989,"is_reserved":false,"is_disabled":false,"rental_uris":{"android":"levelo://app?vid=8a078652-802e-4524-bfbd-422e48f70cd3","ios":"levelo://app?vid=8a078652-802e-4524-bfbd-422e48f70cd3"},"vehicle_type_id":"4","last_reported":1741014584,"current_range_meters":6800,"station_id":"ce4bho92rcd13ifvqh3g","pricing_plan_id":"cebpf4jnsgd1na2vs0mg"},{"bike_id":"bf216286-fc10-4d65-8516-fc2a1a05bbbd","system_id":"levelo_inurba_marseille","lat":43.27208,"lon":5.40999,"is_reserved":false,"is_disabled":false,"rental_uris":{"android":"levelo://app?vid=bf216286-fc10-4d65-8516-fc2a1a05bbbd","ios":"levelo://app?vid=bf216286-fc10-4d65-8516-fc2a1a05bbbd"},"vehicle_type_id":"4","last_reported":1741014584,"current_range_meters":7200,"station_id":"ce4bhl12rcd13ifvqgf0","pricing_plan_id":"cebpf4jnsgd1na2vs0mg"},{"bike_id":"5c8b5a6c-0c8f-4be7-9cdc-0fd649eedd34","system_id":"levelo_inurba_marseille","lat":43.23149,"lon":5.43723,"is_reserved":false,"is_disabled":false,"rental_uris":{"android":"levelo://app?vid=5c8b5a6c-0c8f-4be7-9cdc-0fd649eedd34","ios":"levelo://app?vid=5c8b5a6c-0c8f-4be7-9cdc-0fd649eedd34"},"vehicle_type_id":"4","last_reported":1741014584,"current_range_meters":7200,"station_id":"ce4bhmp2rcd13ifvqgog","pricing_plan_id":"cebpf4jnsgd1na2vs0mg"},{"bike_id":"4adb6282-5525-4265-b332-f0effff22887","system_id":"levelo_inurba_marseille","lat":43.25953,"lon":5.40893,"is_reserved":false,"is_disabled":false,"rental_uris":{"android":"levelo://app?vid=4adb6282-5525-4265-b332-f0effff22887","ios":"levelo://app?vid=4adb6282-5525-4265-b332-f0effff22887"},"vehicle_type_id":"4","last_reported":1741014584,"current_range_meters":7200,"station_id":"ce4bhm92rcd13ifvqglg","pricing_plan_id":"cebpf4jnsgd1na2vs0mg"},{"bike_id":"6496907b-d4d5-4880-9aa3-fc3a9bc77e8a","system_id":"levelo_inurba_marseille","lat":43.28099,"lon":5.3783,"is_reserved":false,"is_disabled":false,"rental_uris":{"android":"levelo://app?vid=6496907b-d4d5-4880-9aa3-fc3a9bc77e8a","ios":"levelo://app?vid=6496907b-d4d5-4880-9aa3-fc3a9bc77e8a"},"vehicle_type_id":"4","last_reported":1741014584,"current_range_meters":7200,"station_id":"ce4bha12rcd13ifvqee0","pricing_plan_id":"cebpf4jnsgd1na2vs0mg"},{"bike_id":"cfb1e761-c37d-43d0-87c6-97c35fdfab31","system_id":"levelo_inurba_marseille","lat":43.26954,"lon":5.38655,"is_reserved":false,"is_disabled":false,"rental_uris":{"android":"levelo://app?vid=cfb1e761-c37d-43d0-87c6-97c35fdfab31","ios":"levelo://app?vid=cfb1e761-c37d-43d0-87c6-97c35fdfab31"},"vehicle_type_id":"4","last_reported":1741014584,"current_range_meters":6800,"station_id":"ce4bhh92rcd13ifvqfh0","pricing_plan_id":"cebpf4jnsgd1na2vs0mg"},{"bike_id":"25eb343a-fbd9-441a-8834-980069854a8b","system_id":"levelo_inurba_marseille","lat":43.243944,"lon":5.370655,"is_reserved":false,"is_disabled":false,"rental_uris":{"android":"levelo://app?vid=25eb343a-fbd9-441a-8834-980069854a8b","ios":"levelo://app?vid=25eb343a-fbd9-441a-8834-980069854a8b"},"vehicle_type_id":"4","last_reported":1741014584,"current_range_meters":7200,"station_id":"ce4bhhh2rcd13ifvqfk0","pricing_plan_id":"cebpf4jnsgd1na2vs0mg"},{"bike_id":"99b7f892-4032-4d98-a359-e2129fcb46e4","system_id":"levelo_inurba_marseille","lat":43.28577,"lon":5.39502,"is_reserved":false,"is_disabled":false,"rental_uris":{"android":"levelo://app?vid=99b7f892-4032-4d98-a359-e2129fcb46e4","ios":"levelo://app?vid=99b7f892-4032-4d98-a359-e2129fcb46e4"},"vehicle_type_id":"4","last_reported":1741014584,"current_range_meters":7200,"station_id":"ce4bh292rcd13ifvqdg0","pricing_plan_id":"cebpf4jnsgd1na2vs0mg"},{"bike_id":"79fd19ba-e32e-4f9c-8426-44e285ed1b30","system_id":"levelo_inurba_marseille","lat":43.289351,"lon":5.363926,"is_reserved":false,"is_disabled":false,"rental_uris":{"android":"levelo://app?vid=79fd19ba-e32e-4f9c-8426-44e285ed1b30","ios":"levelo://app?vid=79fd19ba-e32e-4f9c-8426-44e285ed1b30"},"vehicle_type_id":"4","last_reported":1741014584,"current_range_meters":7200,"station_id":"ce4bhc92rcd13ifvqetg","pricing_plan_id":"cebpf4jnsgd1na2vs0mg"},{"bike_id":"9522ef6b-12d5-4fb7-ad55-ff710da190cb","system_id":"levelo_inurba_marseille","lat":43.2894,"lon":5.36628,"is_reserved":false,"is_disabled":false,"rental_uris":{"android":"levelo://app?vid=9522ef6b-12d5-4fb7-ad55-ff710da190cb","ios":"levelo://app?vid=9522ef6b-12d5-4fb7-ad55-ff710da190cb"},"vehicle_type_id":"4","last_reported":1741014584,"current_range_meters":7200,"station_id":"ce4bhap2rcd13ifvqek0","pricing_plan_id":"cebpf4jnsgd1na2vs0mg"},{"bike_id":"81e75a7d-0d2c-4e50-af53-c3213910a14f","system_id":"levelo_inurba_marseille","lat":43.27682,"lon":5.38899,"is_reserved":false,"is_disabled":false,"rental_uris":{"android":"levelo://app?vid=81e75a7d-0d2c-4e50-af53-c3213910a14f","ios":"levelo://app?vid=81e75a7d-0d2c-4e50-af53-c3213910a14f"},"vehicle_type_id":"4","last_reported":1741014584,"current_range_meters":8000,"station_id":"ce4bhi12rcd13ifvqfo0","pricing_plan_id":"cebpf4jnsgd1na2vs0mg"},{"bike_id":"5cd0c11b-f9d6-428f-9f34-0abc9c264bfe","system_id":"levelo_inurba_marseille","lat":43.27994,"lon":5.4166,"is_reserved":false,"is_disabled":false,"rental_uris":{"android":"levelo://app?vid=5cd0c11b-f9d6-428f-9f34-0abc9c264bfe","ios":"levelo://app?vid=5cd0c11b-f9d6-428f-9f34-0abc9c264bfe"},"vehicle_type_id":"4","last_reported":1741014584,"current_range_meters":8000,"station_id":"ce4bho12rcd13ifvqh1g","pricing_plan_id":"cebpf4jnsgd1na2vs0mg"},{"bike_id":"78e857c7-5d49-4349-88b4-37d0b9c30915","system_id":"levelo_inurba_marseille","lat":43.27067,"lon":5.40266,"is_reserved":false,"is_disabled":false,"rental_uris":{"android":"levelo://app?vid=78e857c7-5d49-4349-88b4-37d0b9c30915","ios":"levelo://app?vid=78e857c7-5d49-4349-88b4-37d0b9c30915"},"vehicle_type_id":"4","last_reported":1741014584,"current_range_meters":8000,"station_id":"ce4bhk92rcd13ifvqgc0","pricing_plan_id":"cebpf4jnsgd1na2vs0mg"},{"bike_id":"f9f359be-730d-4b63-a3b8-d5ce340ea231","system_id":"levelo_inurba_marseille","lat":43.30925,"lon":5.40148,"is_reserved":false,"is_disabled":false,"rental_uris":{"android":"levelo://app?vid=f9f359be-730d-4b63-a3b8-d5ce340ea231","ios":"levelo://app?vid=f9f359be-730d-4b63-a3b8-d5ce340ea231"},"vehicle_type_id":"4","last_reported":1741014584,"current_range_meters":8000,"station_id":"ce4bgvp2rcd13ifvqct0","pricing_plan_id":"cebpf4jnsgd1na2vs0mg"},{"bike_id":"f381c9bd-14fa-41ab-b589-3ecebd6dfe48","system_id":"levelo_inurba_marseille","lat":43.32365,"lon":5.36769,"is_reserved":false,"is_disabled":false,"rental_uris":{"android":"levelo://app?vid=f381c9bd-14fa-41ab-b589-3ecebd6dfe48","ios":"levelo://app?vid=f381c9bd-14fa-41ab-b589-3ecebd6dfe48"},"vehicle_type_id":"4","last_reported":1741014584,"current_range_meters":8000,"station_id":"ce4bhsh2rcd13ifvqi2g","pricing_plan_id":"cebpf4jnsgd1na2vs0mg"},{"bike_id":"53b0435e-fd95-426b-bfdf-7c705feecc81","system_id":"levelo_inurba_marseille","lat":43.32494,"lon":5.36578,"is_reserved":false,"is_disabled":false,"rental_uris":{"android":"levelo://app?vid=53b0435e-fd95-426b-bfdf-7c705feecc81","ios":"levelo://app?vid=53b0435e-fd95-426b-bfdf-7c705feecc81"},"vehicle_type_id":"4","last_reported":1741014584,"current_range_meters":8400,"station_id":"ce4bhs12rcd13ifvqhvg","pricing_plan_id":"cebpf4jnsgd1na2vs0mg"},{"bike_id":"33611dd1-7cb5-462d-954b-90b409e2b65b","system_id":"levelo_inurba_marseille","lat":43.24387,"lon":5.37058,"is_reserved":false,"is_disabled":false,"rental_uris":{"android":"levelo://app?vid=33611dd1-7cb5-462d-954b-90b409e2b65b","ios":"levelo://app?vid=33611dd1-7cb5-462d-954b-90b409e2b65b"},"vehicle_type_id":"4","last_reported":1741014584,"current_range_meters":8400,"station_id":"ce4bhhh2rcd13ifvqfk0","pricing_plan_id":"cebpf4jnsgd1na2vs0mg"},{"bike_id":"45bf216a-dbef-4867-8d8b-22d1a7d6646c","system_id":"levelo_inurba_marseille","lat":43.25731,"lon":5.4111,"is_reserved":false,"is_disabled":false,"rental_uris":{"android":"levelo://app?vid=45bf216a-dbef-4867-8d8b-22d1a7d6646c","ios":"levelo://app?vid=45bf216a-dbef-4867-8d8b-22d1a7d6646c"},"vehicle_type_id":"4","last_reported":1741014584,"current_range_meters":8000,"station_id":"ce4bhkp2rcd13ifvqgd0","pricing_plan_id":"cebpf4jnsgd1na2vs0mg"},{"bike_id":"2dc8e887-5424-4562-9c30-b8fb6da2cd3b","system_id":"levelo_inurba_marseille","lat":43.27828,"lon":5.39208,"is_reserved":false,"is_disabled":false,"rental_uris":{"android":"levelo://app?vid=2dc8e887-5424-4562-9c30-b8fb6da2cd3b","ios":"levelo://app?vid=2dc8e887-5424-4562-9c30-b8fb6da2cd3b"},"vehicle_type_id":"4","last_reported":1741014584,"current_range_meters":8400,"station_id":"ce4bhjp2rcd13ifvqga0","pricing_plan_id":"cebpf4jnsgd1na2vs0mg"},{"bike_id":"5da70b26-5045-4fcf-85cf-7f68a925e135","system_id":"levelo_inurba_marseille","lat":43.27991,"lon":5.41663,"is_reserved":false,"is_disabled":false,"rental_uris":{"android":"levelo://app?vid=5da70b26-5045-4fcf-85cf-7f68a925e135","ios":"levelo://app?vid=5da70b26-5045-4fcf-85cf-7f68a925e135"},"vehicle_type_id":"4","last_reported":1741014584,"current_range_meters":8400,"station_id":"ce4bho12rcd13ifvqh1g","pricing_plan_id":"cebpf4jnsgd1na2vs0mg"},{"bike_id":"0cbfe3cf-3c9c-454f-bc5c-d5edfe7b3247","system_id":"levelo_inurba_marseille","lat":43.28616,"lon":5.35112,"is_reserved":false,"is_disabled":false,"rental_uris":{"android":"levelo://app?vid=0cbfe3cf-3c9c-454f-bc5c-d5edfe7b3247","ios":"levelo://app?vid=0cbfe3cf-3c9c-454f-bc5c-d5edfe7b3247"},"vehicle_type_id":"4","last_reported":1741014584,"current_range_meters":8400,"station_id":"ce4bhch2rcd13ifvqeug","pricing_plan_id":"cebpf4jnsgd1na2vs0mg"},{"bike_id":"0a42b506-aec3-4369-808c-c91f0f7eb197","system_id":"levelo_inurba_marseille","lat":43.25587,"lon":5.38241,"is_reserved":false,"is_disabled":false,"rental_uris":{"android":"levelo://app?vid=0a42b506-aec3-4369-808c-c91f0f7eb197","ios":"levelo://app?vid=0a42b506-aec3-4369-808c-c91f0f7eb197"},"vehicle_type_id":"4","last_reported":1741014584,"current_range_meters":8400,"station_id":"ce4bhih2rcd13ifvqfs0","pricing_plan_id":"cebpf4jnsgd1na2vs0mg"},{"bike_id":"438588b2-bfa5-47dc-be8b-a8f3980b4590","system_id":"levelo_inurba_marseille","lat":43.24178,"lon":5.39739,"is_reserved":false,"is_disabled":false,"rental_uris":{"android":"levelo://app?vid=438588b2-bfa5-47dc-be8b-a8f3980b4590","ios":"levelo://app?vid=438588b2-bfa5-47dc-be8b-a8f3980b4590"},"vehicle_type_id":"4","last_reported":1741014584,"current_range_meters":8400,"station_id":"ce4bhn12rcd13ifvqgpg","pricing_plan_id":"cebpf4jnsgd1na2vs0mg"},{"bike_id":"fb59d55f-a467-40bc-bb37-0df05797f6c8","system_id":"levelo_inurba_marseille","lat":43.28854,"lon":5.35852,"is_reserved":false,"is_disabled":false,"rental_uris":{"android":"levelo://app?vid=fb59d55f-a467-40bc-bb37-0df05797f6c8","ios":"levelo://app?vid=fb59d55f-a467-40bc-bb37-0df05797f6c8"},"vehicle_type_id":"4","last_reported":1741014584,"current_range_meters":8800,"station_id":"ce4bhb12rcd13ifvqem0","pricing_plan_id":"cebpf4jnsgd1na2vs0mg"},{"bike_id":"a6f71a9d-4586-404b-a296-28eea5d34f55","system_id":"levelo_inurba_marseille","lat":43.30879,"lon":5.39642,"is_reserved":false,"is_disabled":false,"rental_uris":{"android":"levelo://app?vid=a6f71a9d-4586-404b-a296-28eea5d34f55","ios":"levelo://app?vid=a6f71a9d-4586-404b-a296-28eea5d34f55"},"vehicle_type_id":"4","last_reported":1741014584,"current_range_meters":8800,"station_id":"ce4bh012rcd13ifvqcv0","pricing_plan_id":"cebpf4jnsgd1na2vs0mg"},{"bike_id":"1808ccc6-d295-4f5e-beb6-1400f13c98a2","system_id":"levelo_inurba_marseille","lat":43.28164,"lon":5.42573,"is_reserved":false,"is_disabled":false,"rental_uris":{"android":"levelo://app?vid=1808ccc6-d295-4f5e-beb6-1400f13c98a2","ios":"levelo://app?vid=1808ccc6-d295-4f5e-beb6-1400f13c98a2"},"vehicle_type_id":"4","last_reported":1741014584,"current_range_meters":8800,"station_id":"","pricing_plan_id":"cebpf4jnsgd1na2vs0mg"},{"bike_id":"e263b81c-7835-43bb-85a4-a4004543bd58","system_id":"levelo_inurba_marseille","lat":43.2757,"lon":5.384343,"is_reserved":false,"is_disabled":false,"rental_uris":{"android":"levelo://app?vid=e263b81c-7835-43bb-85a4-a4004543bd58","ios":"levelo://app?vid=e263b81c-7835-43bb-85a4-a4004543bd58"},"vehicle_type_id":"4","last_reported":1741014584,"current_range_meters":8800,"station_id":"ce4bhh92rcd13ifvqfi0","pricing_plan_id":"cebpf4jnsgd1na2vs0mg"},{"bike_id":"fd32c1c7-6ec8-489e-8d74-a0f7dd65b30c","system_id":"levelo_inurba_marseille","lat":43.23155,"lon":5.43719,"is_reserved":false,"is_disabled":false,"rental_uris":{"android":"levelo://app?vid=fd32c1c7-6ec8-489e-8d74-a0f7dd65b30c","ios":"levelo://app?vid=fd32c1c7-6ec8-489e-8d74-a0f7dd65b30c"},"vehicle_type_id":"4","last_reported":1741014584,"current_range_meters":8800,"station_id":"ce4bhmp2rcd13ifvqgog","pricing_plan_id":"cebpf4jnsgd1na2vs0mg"},{"bike_id":"c61c1ed5-cd87-44f4-b595-5e8e80d1a0a3","system_id":"levelo_inurba_marseille","lat":43.27996,"lon":5.41658,"is_reserved":false,"is_disabled":false,"rental_uris":{"android":"levelo://app?vid=c61c1ed5-cd87-44f4-b595-5e8e80d1a0a3","ios":"levelo://app?vid=c61c1ed5-cd87-44f4-b595-5e8e80d1a0a3"},"vehicle_type_id":"4","last_reported":1741014584,"current_range_meters":9200,"station_id":"ce4bho12rcd13ifvqh1g","pricing_plan_id":"cebpf4jnsgd1na2vs0mg"},{"bike_id":"bd007906-30cc-418e-a907-87646429d4ed","system_id":"levelo_inurba_marseille","lat":43.261301,"lon":5.397678,"is_reserved":false,"is_disabled":false,"rental_uris":{"android":"levelo://app?vid=bd007906-30cc-418e-a907-87646429d4ed","ios":"levelo://app?vid=bd007906-30cc-418e-a907-87646429d4ed"},"vehicle_type_id":"4","last_reported":1741014584,"current_range_meters":9200,"station_id":"ce4bgop2rcd13ifvqc1g","pricing_plan_id":"cebpf4jnsgd1na2vs0mg"},{"bike_id":"221667db-78e0-40a8-a95e-a64df53fe5bb","system_id":"levelo_inurba_marseille","lat":43.29978,"lon":5.38501,"is_reserved":false,"is_disabled":false,"rental_uris":{"android":"levelo://app?vid=221667db-78e0-40a8-a95e-a64df53fe5bb","ios":"levelo://app?vid=221667db-78e0-40a8-a95e-a64df53fe5bb"},"vehicle_type_id":"4","last_reported":1741014584,"current_range_meters":9200,"station_id":"ce4bgj92rcd13ifvqbd0","pricing_plan_id":"cebpf4jnsgd1na2vs0mg"},{"bike_id":"6500699d-c4d0-43e8-8973-0f682c36684d","system_id":"levelo_inurba_marseille","lat":43.2315,"lon":5.43713,"is_reserved":false,"is_disabled":false,"rental_uris":{"android":"levelo://app?vid=6500699d-c4d0-43e8-8973-0f682c36684d","ios":"levelo://app?vid=6500699d-c4d0-43e8-8973-0f682c36684d"},"vehicle_type_id":"4","last_reported":1741014584,"current_range_meters":9600,"station_id":"ce4bhmp2rcd13ifvqgog","pricing_plan_id":"cebpf4jnsgd1na2vs0mg"},{"bike_id":"1f443740-8946-4d48-9b52-4b4a108aa5f0","system_id":"levelo_inurba_marseille","lat":43.25946,"lon":5.40916,"is_reserved":false,"is_disabled":false,"rental_uris":{"android":"levelo://app?vid=1f443740-8946-4d48-9b52-4b4a108aa5f0","ios":"levelo://app?vid=1f443740-8946-4d48-9b52-4b4a108aa5f0"},"vehicle_type_id":"4","last_reported":1741014584,"current_range_meters":9600,"station_id":"ce4bhm92rcd13ifvqglg","pricing_plan_id":"cebpf4jnsgd1na2vs0mg"},{"bike_id":"5d2b3dba-dc64-4d79-b0db-dd61277f5cc9","system_id":"levelo_inurba_marseille","lat":43.29573,"lon":5.39976,"is_reserved":false,"is_disabled":false,"rental_uris":{"android":"levelo://app?vid=5d2b3dba-dc64-4d79-b0db-dd61277f5cc9","ios":"levelo://app?vid=5d2b3dba-dc64-4d79-b0db-dd61277f5cc9"},"vehicle_type_id":"4","last_reported":1741014584,"current_range_meters":9600,"station_id":"ce4bh312rcd13ifvqdj0","pricing_plan_id":"cebpf4jnsgd1na2vs0mg"},{"bike_id":"e41e0bb8-6c1c-4ce2-b18d-069e130ca183","system_id":"levelo_inurba_marseille","lat":43.23063,"lon":5.35506,"is_reserved":false,"is_disabled":false,"rental_uris":{"android":"levelo://app?vid=e41e0bb8-6c1c-4ce2-b18d-069e130ca183","ios":"levelo://app?vid=e41e0bb8-6c1c-4ce2-b18d-069e130ca183"},"vehicle_type_id":"4","last_reported":1741014584,"current_range_meters":9600,"station_id":"cpo3342slgdg3j2ifvpg","pricing_plan_id":"cebpf4jnsgd1na2vs0mg"},{"bike_id":"96e7e46c-867c-43c3-a80d-f7331462f105","system_id":"levelo_inurba_marseille","lat":43.28102,"lon":5.37831,"is_reserved":false,"is_disabled":false,"rental_uris":{"android":"levelo://app?vid=96e7e46c-867c-43c3-a80d-f7331462f105","ios":"levelo://app?vid=96e7e46c-867c-43c3-a80d-f7331462f105"},"vehicle_type_id":"4","last_reported":1741014584,"current_range_meters":9600,"station_id":"ce4bha12rcd13ifvqee0","pricing_plan_id":"cebpf4jnsgd1na2vs0mg"},{"bike_id":"5ee4ca3d-0aca-4d90-84c3-e8c87f93a071","system_id":"levelo_inurba_marseille","lat":43.317256,"lon":5.390109,"is_reserved":false,"is_disabled":false,"rental_uris":{"android":"levelo://app?vid=5ee4ca3d-0aca-4d90-84c3-e8c87f93a071","ios":"levelo://app?vid=5ee4ca3d-0aca-4d90-84c3-e8c87f93a071"},"vehicle_type_id":"4","last_reported":1741014584,"current_range_meters":9600,"station_id":"ce4bhqp2rcd13ifvqhng","pricing_plan_id":"cebpf4jnsgd1na2vs0mg"},{"bike_id":"6b899bea-78cf-4c6a-ac3d-4e2040b0fef6","system_id":"levelo_inurba_marseille","lat":43.30148,"lon":5.3743,"is_reserved":false,"is_disabled":false,"rental_uris":{"android":"levelo://app?vid=6b899bea-78cf-4c6a-ac3d-4e2040b0fef6","ios":"levelo://app?vid=6b899bea-78cf-4c6a-ac3d-4e2040b0fef6"},"vehicle_type_id":"4","last_reported":1741014584,"current_range_meters":9600,"station_id":"ce4bgs92rcd13ifvqcc0","pricing_plan_id":"cebpf4jnsgd1na2vs0mg"},{"bike_id":"c11fdd45-99e0-4676-8c8e-e8f9d1bb40b5","system_id":"levelo_inurba_marseille","lat":43.2795,"lon":5.41042,"is_reserved":false,"is_disabled":false,"rental_uris":{"android":"levelo://app?vid=c11fdd45-99e0-4676-8c8e-e8f9d1bb40b5","ios":"levelo://app?vid=c11fdd45-99e0-4676-8c8e-e8f9d1bb40b5"},"vehicle_type_id":"4","last_reported":1741014584,"current_range_meters":10000,"station_id":"ce4bhnp2rcd13ifvqh0g","pricing_plan_id":"cebpf4jnsgd1na2vs0mg"},{"bike_id":"ce8ef3d2-07e3-4512-8813-bcde53a01429","system_id":"levelo_inurba_marseille","lat":43.24167,"lon":5.36404,"is_reserved":false,"is_disabled":false,"rental_uris":{"android":"levelo://app?vid=ce8ef3d2-07e3-4512-8813-bcde53a01429","ios":"levelo://app?vid=ce8ef3d2-07e3-4512-8813-bcde53a01429"},"vehicle_type_id":"4","last_reported":1741014584,"current_range_meters":10000,"station_id":"cpo36qri1sfpv3e86is0","pricing_plan_id":"cebpf4jnsgd1na2vs0mg"},{"bike_id":"1d34f648-5239-430b-90b9-0227061e3556","system_id":"levelo_inurba_marseille","lat":43.28608,"lon":5.37057,"is_reserved":false,"is_disabled":false,"rental_uris":{"android":"levelo://app?vid=1d34f648-5239-430b-90b9-0227061e3556","ios":"levelo://app?vid=1d34f648-5239-430b-90b9-0227061e3556"},"vehicle_type_id":"4","last_reported":1741014584,"current_range_meters":10000,"station_id":"ce4bht12rcd13ifvqi60","pricing_plan_id":"cebpf4jnsgd1na2vs0mg"},{"bike_id":"a9b562fc-6d96-4c06-a149-e6b9630324d5","system_id":"levelo_inurba_marseille","lat":43.23061,"lon":5.35487,"is_reserved":false,"is_disabled":false,"rental_uris":{"android":"levelo://app?vid=a9b562fc-6d96-4c06-a149-e6b9630324d5","ios":"levelo://app?vid=a9b562fc-6d96-4c06-a149-e6b9630324d5"},"vehicle_type_id":"4","last_reported":1741014584,"current_range_meters":10000,"station_id":"cpo3342slgdg3j2ifvpg","pricing_plan_id":"cebpf4jnsgd1na2vs0mg"},{"bike_id":"69c64ec9-e24d-4807-ad49-cbbbaf87179a","system_id":"levelo_inurba_marseille","lat":43.26942,"lon":5.40264,"is_reserved":false,"is_disabled":false,"rental_uris":{"android":"levelo://app?vid=69c64ec9-e24d-4807-ad49-cbbbaf87179a","ios":"levelo://app?vid=69c64ec9-e24d-4807-ad49-cbbbaf87179a"},"vehicle_type_id":"4","last_reported":1741014584,"current_range_meters":10000,"station_id":"cjm6bp8fraef2m0cb0m0","pricing_plan_id":"cebpf4jnsgd1na2vs0mg"},{"bike_id":"8ade5181-cd88-4ece-8534-46a6372826ef","system_id":"levelo_inurba_marseille","lat":43.276923,"lon":5.415487,"is_reserved":false,"is_disabled":false,"rental_uris":{"android":"levelo://app?vid=8ade5181-cd88-4ece-8534-46a6372826ef","ios":"levelo://app?vid=8ade5181-cd88-4ece-8534-46a6372826ef"},"vehicle_type_id":"4","last_reported":1741014584,"current_range_meters":10000,"station_id":"","pricing_plan_id":"cebpf4jnsgd1na2vs0mg"},{"bike_id":"97877b57-7853-4a58-b0b1-6aa4af1e67fa","system_id":"levelo_inurba_marseille","lat":43.30548,"lon":5.3654,"is_reserved":false,"is_disabled":false,"rental_uris":{"android":"levelo://app?vid=97877b57-7853-4a58-b0b1-6aa4af1e67fa","ios":"levelo://app?vid=97877b57-7853-4a58-b0b1-6aa4af1e67fa"},"vehicle_type_id":"4","last_reported":1741014584,"current_range_meters":10000,"station_id":"ce4bgs12rcd13ifvqcag","pricing_plan_id":"cebpf4jnsgd1na2vs0mg"},{"bike_id":"c8c30254-af6a-4a88-b0b6-9a3a52022bea","system_id":"levelo_inurba_marseille","lat":43.32434,"lon":5.42676,"is_reserved":false,"is_disabled":false,"rental_uris":{"android":"levelo://app?vid=c8c30254-af6a-4a88-b0b6-9a3a52022bea","ios":"levelo://app?vid=c8c30254-af6a-4a88-b0b6-9a3a52022bea"},"vehicle_type_id":"4","last_reported":1741014584,"current_range_meters":10800,"station_id":"","pricing_plan_id":"cebpf4jnsgd1na2vs0mg"},{"bike_id":"d7cd642b-321b-44d3-842c-29a2c5d0b19b","system_id":"levelo_inurba_marseille","lat":43.23154,"lon":5.43714,"is_reserved":false,"is_disabled":false,"rental_uris":{"android":"levelo://app?vid=d7cd642b-321b-44d3-842c-29a2c5d0b19b","ios":"levelo://app?vid=d7cd642b-321b-44d3-842c-29a2c5d0b19b"},"vehicle_type_id":"4","last_reported":1741014584,"current_range_meters":10800,"station_id":"ce4bhmp2rcd13ifvqgog","pricing_plan_id":"cebpf4jnsgd1na2vs0mg"},{"bike_id":"8a926c1c-bce9-43a8-b444-8cbd0ddeca91","system_id":"levelo_inurba_marseille","lat":43.337444,"lon":5.374475,"is_reserved":false,"is_disabled":true,"rental_uris":{"android":"levelo://app?vid=8a926c1c-bce9-43a8-b444-8cbd0ddeca91","ios":"levelo://app?vid=8a926c1c-bce9-43a8-b444-8cbd0ddeca91"},"vehicle_type_id":"4","last_reported":1741014584,"current_range_meters":10800,"station_id":"","pricing_plan_id":"cebpf4jnsgd1na2vs0mg"},{"bike_id":"411dd7b4-e2ca-435b-adbf-27a8349bc185","system_id":"levelo_inurba_marseille","lat":43.28467,"lon":5.35884,"is_reserved":false,"is_disabled":false,"rental_uris":{"android":"levelo://app?vid=411dd7b4-e2ca-435b-adbf-27a8349bc185","ios":"levelo://app?vid=411dd7b4-e2ca-435b-adbf-27a8349bc185"},"vehicle_type_id":"4","last_reported":1741014584,"current_range_meters":10800,"station_id":"ce4bhah2rcd13ifvqei0","pricing_plan_id":"cebpf4jnsgd1na2vs0mg"},{"bike_id":"71cd5d9d-c4a9-4d7f-b25c-bd7ceef0b27e","system_id":"levelo_inurba_marseille","lat":43.31288,"lon":5.37744,"is_reserved":false,"is_disabled":false,"rental_uris":{"android":"levelo://app?vid=71cd5d9d-c4a9-4d7f-b25c-bd7ceef0b27e","ios":"levelo://app?vid=71cd5d9d-c4a9-4d7f-b25c-bd7ceef0b27e"},"vehicle_type_id":"4","last_reported":1741014584,"current_range_meters":10800,"station_id":"","pricing_plan_id":"cebpf4jnsgd1na2vs0mg"},{"bike_id":"d6dcf2df-22f4-4acc-bb5a-fc34fb6762ee","system_id":"levelo_inurba_marseille","lat":43.24795,"lon":5.37462,"is_reserved":false,"is_disabled":false,"rental_uris":{"android":"levelo://app?vid=d6dcf2df-22f4-4acc-bb5a-fc34fb6762ee","ios":"levelo://app?vid=d6dcf2df-22f4-4acc-bb5a-fc34fb6762ee"},"vehicle_type_id":"4","last_reported":1741014584,"current_range_meters":10800,"station_id":"ce4bhgh2rcd13ifvqfb0","pricing_plan_id":"cebpf4jnsgd1na2vs0mg"},{"bike_id":"e28ac462-9bca-47b2-ae29-8081e0f2b279","system_id":"levelo_inurba_marseille","lat":43.26557,"lon":5.37294,"is_reserved":false,"is_disabled":false,"rental_uris":{"android":"levelo://app?vid=e28ac462-9bca-47b2-ae29-8081e0f2b279","ios":"levelo://app?vid=e28ac462-9bca-47b2-ae29-8081e0f2b279"},"vehicle_type_id":"4","last_reported":1741014584,"current_range_meters":10800,"station_id":"ce4bhg12rcd13ifvqf70","pricing_plan_id":"cebpf4jnsgd1na2vs0mg"},{"bike_id":"100fcaf6-edb5-4701-9431-b8defb642405","system_id":"levelo_inurba_marseille","lat":43.24386,"lon":5.37059,"is_reserved":false,"is_disabled":false,"rental_uris":{"android":"levelo://app?vid=100fcaf6-edb5-4701-9431-b8defb642405","ios":"levelo://app?vid=100fcaf6-edb5-4701-9431-b8defb642405"},"vehicle_type_id":"4","last_reported":1741014584,"current_range_meters":10800,"station_id":"ce4bhhh2rcd13ifvqfk0","pricing_plan_id":"cebpf4jnsgd1na2vs0mg"},{"bike_id":"22f4ae67-a547-46cc-9e2f-ac043e2026af","system_id":"levelo_inurba_marseille","lat":43.27068,"lon":5.4227,"is_reserved":false,"is_disabled":false,"rental_uris":{"android":"levelo://app?vid=22f4ae67-a547-46cc-9e2f-ac043e2026af","ios":"levelo://app?vid=22f4ae67-a547-46cc-9e2f-ac043e2026af"},"vehicle_type_id":"4","last_reported":1741014584,"current_range_meters":10800,"station_id":"ce4bhk92rcd13ifvqgb0","pricing_plan_id":"cebpf4jnsgd1na2vs0mg"},{"bike_id":"e2f37b08-3493-43fd-8e10-8086428ab0f2","system_id":"levelo_inurba_marseille","lat":43.24547,"lon":5.39526,"is_reserved":false,"is_disabled":false,"rental_uris":{"android":"levelo://app?vid=e2f37b08-3493-43fd-8e10-8086428ab0f2","ios":"levelo://app?vid=e2f37b08-3493-43fd-8e10-8086428ab0f2"},"vehicle_type_id":"4","last_reported":1741014584,"current_range_meters":10800,"station_id":"ce4bhlp2rcd13ifvqgjg","pricing_plan_id":"cebpf4jnsgd1na2vs0mg"},{"bike_id":"caedf473-9313-4874-87c8-230b4a1efdb8","system_id":"levelo_inurba_marseille","lat":43.32475,"lon":5.36577,"is_reserved":false,"is_disabled":false,"rental_uris":{"android":"levelo://app?vid=caedf473-9313-4874-87c8-230b4a1efdb8","ios":"levelo://app?vid=caedf473-9313-4874-87c8-230b4a1efdb8"},"vehicle_type_id":"4","last_reported":1741014584,"current_range_meters":11200,"station_id":"ce4bhs12rcd13ifvqhvg","pricing_plan_id":"cebpf4jnsgd1na2vs0mg"},{"bike_id":"dcdda1b9-4944-460c-abdb-49d199ac18e1","system_id":"levelo_inurba_marseille","lat":43.28464,"lon":5.35891,"is_reserved":false,"is_disabled":false,"rental_uris":{"android":"levelo://app?vid=dcdda1b9-4944-460c-abdb-49d199ac18e1","ios":"levelo://app?vid=dcdda1b9-4944-460c-abdb-49d199ac18e1"},"vehicle_type_id":"4","last_reported":1741014584,"current_range_meters":11200,"station_id":"ce4bhah2rcd13ifvqei0","pricing_plan_id":"cebpf4jnsgd1na2vs0mg"},{"bike_id":"218ed5ac-6703-4318-89bd-789d1d2d1841","system_id":"levelo_inurba_marseille","lat":43.27996,"lon":5.40017,"is_reserved":false,"is_disabled":false,"rental_uris":{"android":"levelo://app?vid=218ed5ac-6703-4318-89bd-789d1d2d1841","ios":"levelo://app?vid=218ed5ac-6703-4318-89bd-789d1d2d1841"},"vehicle_type_id":"4","last_reported":1741014584,"current_range_meters":11200,"station_id":"ce4bho92rcd13ifvqh4g","pricing_plan_id":"cebpf4jnsgd1na2vs0mg"},{"bike_id":"20f28f92-adf9-48e3-a33b-83ded65127c5","system_id":"levelo_inurba_marseille","lat":43.23062,"lon":5.35497,"is_reserved":false,"is_disabled":false,"rental_uris":{"android":"levelo://app?vid=20f28f92-adf9-48e3-a33b-83ded65127c5","ios":"levelo://app?vid=20f28f92-adf9-48e3-a33b-83ded65127c5"},"vehicle_type_id":"4","last_reported":1741014584,"current_range_meters":11200,"station_id":"cpo3342slgdg3j2ifvpg","pricing_plan_id":"cebpf4jnsgd1na2vs0mg"},{"bike_id":"6b09308f-1097-4ca9-90e4-570782cfe191","system_id":"levelo_inurba_marseille","lat":43.24405,"lon":5.37055,"is_reserved":false,"is_disabled":false,"rental_uris":{"android":"levelo://app?vid=6b09308f-1097-4ca9-90e4-570782cfe191","ios":"levelo://app?vid=6b09308f-1097-4ca9-90e4-570782cfe191"},"vehicle_type_id":"4","last_reported":1741014584,"current_range_meters":11600,"station_id":"ce4bhhh2rcd13ifvqfk0","pricing_plan_id":"cebpf4jnsgd1na2vs0mg"},{"bike_id":"61d6efa7-4506-4922-814b-a518ef959c2b","system_id":"levelo_inurba_marseille","lat":43.26692,"lon":5.38283,"is_reserved":false,"is_disabled":false,"rental_uris":{"android":"levelo://app?vid=61d6efa7-4506-4922-814b-a518ef959c2b","ios":"levelo://app?vid=61d6efa7-4506-4922-814b-a518ef959c2b"},"vehicle_type_id":"4","last_reported":1741014584,"current_range_meters":11600,"station_id":"ce4bhg92rcd13ifvqf90","pricing_plan_id":"cebpf4jnsgd1na2vs0mg"},{"bike_id":"07aad936-a8a0-4986-b542-19546729a65a","system_id":"levelo_inurba_marseille","lat":43.29554,"lon":5.42301,"is_reserved":false,"is_disabled":false,"rental_uris":{"android":"levelo://app?vid=07aad936-a8a0-4986-b542-19546729a65a","ios":"levelo://app?vid=07aad936-a8a0-4986-b542-19546729a65a"},"vehicle_type_id":"4","last_reported":1741014584,"current_range_meters":11600,"station_id":"ce4bhph2rcd13ifvqhdg","pricing_plan_id":"cebpf4jnsgd1na2vs0mg"},{"bike_id":"130b1ebc-7b30-4d94-a1a3-7603ba1b0b7e","system_id":"levelo_inurba_marseille","lat":43.27685,"lon":5.38884,"is_reserved":false,"is_disabled":false,"rental_uris":{"android":"levelo://app?vid=130b1ebc-7b30-4d94-a1a3-7603ba1b0b7e","ios":"levelo://app?vid=130b1ebc-7b30-4d94-a1a3-7603ba1b0b7e"},"vehicle_type_id":"4","last_reported":1741014584,"current_range_meters":11600,"station_id":"ce4bhi12rcd13ifvqfo0","pricing_plan_id":"cebpf4jnsgd1na2vs0mg"},{"bike_id":"c8ce68ea-f67a-46a6-a9c9-c7c4878bad16","system_id":"levelo_inurba_marseille","lat":43.27514,"lon":5.42473,"is_reserved":false,"is_disabled":false,"rental_uris":{"android":"levelo://app?vid=c8ce68ea-f67a-46a6-a9c9-c7c4878bad16","ios":"levelo://app?vid=c8ce68ea-f67a-46a6-a9c9-c7c4878bad16"},"vehicle_type_id":"4","last_reported":1741014584,"current_range_meters":12000,"station_id":"ce4bhn92rcd13ifvqgrg","pricing_plan_id":"cebpf4jnsgd1na2vs0mg"},{"bike_id":"38658c88-48f1-44d7-92bd-94dfc27e434c","system_id":"levelo_inurba_marseille","lat":43.23143,"lon":5.43684,"is_reserved":false,"is_disabled":false,"rental_uris":{"android":"levelo://app?vid=38658c88-48f1-44d7-92bd-94dfc27e434c","ios":"levelo://app?vid=38658c88-48f1-44d7-92bd-94dfc27e434c"},"vehicle_type_id":"4","last_reported":1741014584,"current_range_meters":12000,"station_id":"ce4bhmp2rcd13ifvqgog","pricing_plan_id":"cebpf4jnsgd1na2vs0mg"},{"bike_id":"41ed89d3-77cd-4311-8513-748a0ca63c4f","system_id":"levelo_inurba_marseille","lat":43.212649,"lon":5.353238,"is_reserved":false,"is_disabled":false,"rental_uris":{"android":"levelo://app?vid=41ed89d3-77cd-4311-8513-748a0ca63c4f","ios":"levelo://app?vid=41ed89d3-77cd-4311-8513-748a0ca63c4f"},"vehicle_type_id":"4","last_reported":1741014584,"current_range_meters":12000,"station_id":"","pricing_plan_id":"cebpf4jnsgd1na2vs0mg"},{"bike_id":"66e9cb08-4b60-466e-b192-efbce12fa18d","system_id":"levelo_inurba_marseille","lat":43.27809,"lon":5.40714,"is_reserved":false,"is_disabled":false,"rental_uris":{"android":"levelo://app?vid=66e9cb08-4b60-466e-b192-efbce12fa18d","ios":"levelo://app?vid=66e9cb08-4b60-466e-b192-efbce12fa18d"},"vehicle_type_id":"4","last_reported":1741014584,"current_range_meters":12000,"station_id":"ce4bhnh2rcd13ifvqgtg","pricing_plan_id":"cebpf4jnsgd1na2vs0mg"},{"bike_id":"64953142-7637-42b4-b0d1-c449e63f1db7","system_id":"levelo_inurba_marseille","lat":43.29633,"lon":5.36025,"is_reserved":false,"is_disabled":false,"rental_uris":{"android":"levelo://app?vid=64953142-7637-42b4-b0d1-c449e63f1db7","ios":"levelo://app?vid=64953142-7637-42b4-b0d1-c449e63f1db7"},"vehicle_type_id":"4","last_reported":1741014584,"current_range_meters":12000,"station_id":"","pricing_plan_id":"cebpf4jnsgd1na2vs0mg"},{"bike_id":"eaa3a858-6203-44d5-95c1-b5fb7b696e6e","system_id":"levelo_inurba_marseille","lat":43.26558,"lon":5.37286,"is_reserved":false,"is_disabled":false,"rental_uris":{"android":"levelo://app?vid=eaa3a858-6203-44d5-95c1-b5fb7b696e6e","ios":"levelo://app?vid=eaa3a858-6203-44d5-95c1-b5fb7b696e6e"},"vehicle_type_id":"4","last_reported":1741014584,"current_range_meters":12000,"station_id":"ce4bhg12rcd13ifvqf70","pricing_plan_id":"cebpf4jnsgd1na2vs0mg"},{"bike_id":"42438b5e-cfaa-469f-bca1-2efe2f5f1063","system_id":"levelo_inurba_marseille","lat":43.30648,"lon":5.40113,"is_reserved":false,"is_disabled":false,"rental_uris":{"android":"levelo://app?vid=42438b5e-cfaa-469f-bca1-2efe2f5f1063","ios":"levelo://app?vid=42438b5e-cfaa-469f-bca1-2efe2f5f1063"},"vehicle_type_id":"4","last_reported":1741014584,"current_range_meters":12400,"station_id":"ce4bh112rcd13ifvqda0","pricing_plan_id":"cebpf4jnsgd1na2vs0mg"},{"bike_id":"f71f9016-cd7a-4d2f-a244-6b67297b159e","system_id":"levelo_inurba_marseille","lat":43.27918,"lon":5.4167,"is_reserved":false,"is_disabled":false,"rental_uris":{"android":"levelo://app?vid=f71f9016-cd7a-4d2f-a244-6b67297b159e","ios":"levelo://app?vid=f71f9016-cd7a-4d2f-a244-6b67297b159e"},"vehicle_type_id":"4","last_reported":1741014584,"current_range_meters":12400,"station_id":"","pricing_plan_id":"cebpf4jnsgd1na2vs0mg"},{"bike_id":"442e17cf-9700-477c-a555-09fc8cf0081c","system_id":"levelo_inurba_marseille","lat":43.28465,"lon":5.35867,"is_reserved":false,"is_disabled":false,"rental_uris":{"android":"levelo://app?vid=442e17cf-9700-477c-a555-09fc8cf0081c","ios":"levelo://app?vid=442e17cf-9700-477c-a555-09fc8cf0081c"},"vehicle_type_id":"4","last_reported":1741014584,"current_range_meters":12400,"station_id":"ce4bhah2rcd13ifvqei0","pricing_plan_id":"cebpf4jnsgd1na2vs0mg"},{"bike_id":"97c511a7-6316-446d-84d0-60b64cf5b4af","system_id":"levelo_inurba_marseille","lat":43.30331,"lon":5.39264,"is_reserved":false,"is_disabled":false,"rental_uris":{"android":"levelo://app?vid=97c511a7-6316-446d-84d0-60b64cf5b4af","ios":"levelo://app?vid=97c511a7-6316-446d-84d0-60b64cf5b4af"},"vehicle_type_id":"4","last_reported":1741014584,"current_range_meters":12400,"station_id":"ce4bhb12rcd13ifvqel0","pricing_plan_id":"cebpf4jnsgd1na2vs0mg"},{"bike_id":"3c82f993-4ee7-4ae3-a2fe-1ecc321d6a9b","system_id":"levelo_inurba_marseille","lat":43.30139,"lon":5.37427,"is_reserved":false,"is_disabled":false,"rental_uris":{"android":"levelo://app?vid=3c82f993-4ee7-4ae3-a2fe-1ecc321d6a9b","ios":"levelo://app?vid=3c82f993-4ee7-4ae3-a2fe-1ecc321d6a9b"},"vehicle_type_id":"4","last_reported":1741014584,"current_range_meters":12400,"station_id":"ce4bgs92rcd13ifvqcc0","pricing_plan_id":"cebpf4jnsgd1na2vs0mg"},{"bike_id":"362b2e41-0f7d-42ca-85b4-447baad17196","system_id":"levelo_inurba_marseille","lat":43.27205,"lon":5.419,"is_reserved":false,"is_disabled":false,"rental_uris":{"android":"levelo://app?vid=362b2e41-0f7d-42ca-85b4-447baad17196","ios":"levelo://app?vid=362b2e41-0f7d-42ca-85b4-447baad17196"},"vehicle_type_id":"4","last_reported":1741014584,"current_range_meters":12400,"station_id":"","pricing_plan_id":"cebpf4jnsgd1na2vs0mg"},{"bike_id":"9a386038-9cc6-4b52-b406-e6a33e3dcf23","system_id":"levelo_inurba_marseille","lat":43.28463,"lon":5.35893,"is_reserved":false,"is_disabled":false,"rental_uris":{"android":"levelo://app?vid=9a386038-9cc6-4b52-b406-e6a33e3dcf23","ios":"levelo://app?vid=9a386038-9cc6-4b52-b406-e6a33e3dcf23"},"vehicle_type_id":"4","last_reported":1741014584,"current_range_meters":12800,"station_id":"ce4bhah2rcd13ifvqei0","pricing_plan_id":"cebpf4jnsgd1na2vs0mg"},{"bike_id":"4b0c1e6f-7d01-4cc1-be9f-f902e288ebfa","system_id":"levelo_inurba_marseille","lat":43.23158,"lon":5.43717,"is_reserved":false,"is_disabled":false,"rental_uris":{"android":"levelo://app?vid=4b0c1e6f-7d01-4cc1-be9f-f902e288ebfa","ios":"levelo://app?vid=4b0c1e6f-7d01-4cc1-be9f-f902e288ebfa"},"vehicle_type_id":"4","last_reported":1741014584,"current_range_meters":12800,"station_id":"ce4bhmp2rcd13ifvqgog","pricing_plan_id":"cebpf4jnsgd1na2vs0mg"},{"bike_id":"3f1b0a8f-9453-4188-93c9-5e02e5fcf788","system_id":"levelo_inurba_marseille","lat":43.28265,"lon":5.35062,"is_reserved":false,"is_disabled":false,"rental_uris":{"android":"levelo://app?vid=3f1b0a8f-9453-4188-93c9-5e02e5fcf788","ios":"levelo://app?vid=3f1b0a8f-9453-4188-93c9-5e02e5fcf788"},"vehicle_type_id":"4","last_reported":1741014584,"current_range_meters":12800,"station_id":"ce4bhbp2rcd13ifvqerg","pricing_plan_id":"cebpf4jnsgd1na2vs0mg"},{"bike_id":"f412bafe-32ca-49bc-b144-43373775534e","system_id":"levelo_inurba_marseille","lat":43.24807,"lon":5.37467,"is_reserved":false,"is_disabled":false,"rental_uris":{"android":"levelo://app?vid=f412bafe-32ca-49bc-b144-43373775534e","ios":"levelo://app?vid=f412bafe-32ca-49bc-b144-43373775534e"},"vehicle_type_id":"4","last_reported":1741014584,"current_range_meters":13600,"station_id":"ce4bhgh2rcd13ifvqfb0","pricing_plan_id":"cebpf4jnsgd1na2vs0mg"},{"bike_id":"a9eb9414-2a65-4d88-b570-c89f28729dd2","system_id":"levelo_inurba_marseille","lat":43.23075,"lon":5.35496,"is_reserved":false,"is_disabled":false,"rental_uris":{"android":"levelo://app?vid=a9eb9414-2a65-4d88-b570-c89f28729dd2","ios":"levelo://app?vid=a9eb9414-2a65-4d88-b570-c89f28729dd2"},"vehicle_type_id":"4","last_reported":1741014584,"current_range_meters":13600,"station_id":"cpo3342slgdg3j2ifvpg","pricing_plan_id":"cebpf4jnsgd1na2vs0mg"},{"bike_id":"0b818497-4d97-451b-b637-cef3d02b5c9d","system_id":"levelo_inurba_marseille","lat":43.3171,"lon":5.43689,"is_reserved":false,"is_disabled":true,"rental_uris":{"android":"levelo://app?vid=0b818497-4d97-451b-b637-cef3d02b5c9d","ios":"levelo://app?vid=0b818497-4d97-451b-b637-cef3d02b5c9d"},"vehicle_type_id":"4","last_reported":1741014584,"current_range_meters":13600,"station_id":"ce4bhp92rcd13ifvqhcg","pricing_plan_id":"cebpf4jnsgd1na2vs0mg"},{"bike_id":"618df4b6-8fd4-4ef1-b13a-45a74fe4b862","system_id":"levelo_inurba_marseille","lat":43.24069,"lon":5.37766,"is_reserved":false,"is_disabled":false,"rental_uris":{"android":"levelo://app?vid=618df4b6-8fd4-4ef1-b13a-45a74fe4b862","ios":"levelo://app?vid=618df4b6-8fd4-4ef1-b13a-45a74fe4b862"},"vehicle_type_id":"4","last_reported":1741014584,"current_range_meters":13600,"station_id":"ce4bhnp2rcd13ifvqgvg","pricing_plan_id":"cebpf4jnsgd1na2vs0mg"},{"bike_id":"7ec71891-18f7-49c4-bb3f-f18bb7528e5a","system_id":"levelo_inurba_marseille","lat":43.28417,"lon":5.3498,"is_reserved":false,"is_disabled":false,"rental_uris":{"android":"levelo://app?vid=7ec71891-18f7-49c4-bb3f-f18bb7528e5a","ios":"levelo://app?vid=7ec71891-18f7-49c4-bb3f-f18bb7528e5a"},"vehicle_type_id":"4","last_reported":1741014584,"current_range_meters":13600,"station_id":"ce4bhbh2rcd13ifvqepg","pricing_plan_id":"cebpf4jnsgd1na2vs0mg"},{"bike_id":"04ba87e1-88e5-4157-8be1-849c3f281a5f","system_id":"levelo_inurba_marseille","lat":43.31227,"lon":5.3684,"is_reserved":false,"is_disabled":false,"rental_uris":{"android":"levelo://app?vid=04ba87e1-88e5-4157-8be1-849c3f281a5f","ios":"levelo://app?vid=04ba87e1-88e5-4157-8be1-849c3f281a5f"},"vehicle_type_id":"4","last_reported":1741014584,"current_range_meters":13600,"station_id":"ce4bgl92rcd13ifvqbq0","pricing_plan_id":"cebpf4jnsgd1na2vs0mg"},{"bike_id":"102de46f-1f3d-42c6-b125-cb45380886c0","system_id":"levelo_inurba_marseille","lat":43.28463,"lon":5.35882,"is_reserved":false,"is_disabled":false,"rental_uris":{"android":"levelo://app?vid=102de46f-1f3d-42c6-b125-cb45380886c0","ios":"levelo://app?vid=102de46f-1f3d-42c6-b125-cb45380886c0"},"vehicle_type_id":"4","last_reported":1741014584,"current_range_meters":13600,"station_id":"ce4bhah2rcd13ifvqei0","pricing_plan_id":"cebpf4jnsgd1na2vs0mg"},{"bike_id":"7377503b-0960-4c1a-a8a1-658150c25466","system_id":"levelo_inurba_marseille","lat":43.3117,"lon":5.36865,"is_reserved":false,"is_disabled":false,"rental_uris":{"android":"levelo://app?vid=7377503b-0960-4c1a-a8a1-658150c25466","ios":"levelo://app?vid=7377503b-0960-4c1a-a8a1-658150c25466"},"vehicle_type_id":"4","last_reported":1741014584,"current_range_meters":14000,"station_id":"","pricing_plan_id":"cebpf4jnsgd1na2vs0mg"},{"bike_id":"002b69f7-0cf6-47ff-8783-a70314885e20","system_id":"levelo_inurba_marseille","lat":43.28665,"lon":5.36357,"is_reserved":false,"is_disabled":false,"rental_uris":{"android":"levelo://app?vid=002b69f7-0cf6-47ff-8783-a70314885e20","ios":"levelo://app?vid=002b69f7-0cf6-47ff-8783-a70314885e20"},"vehicle_type_id":"4","last_reported":1741014584,"current_range_meters":13600,"station_id":"ce4bhah2rcd13ifvqej0","pricing_plan_id":"cebpf4jnsgd1na2vs0mg"},{"bike_id":"bce611a7-5044-470a-9dc2-ccdbc1151c5c","system_id":"levelo_inurba_marseille","lat":43.32505,"lon":5.36603,"is_reserved":false,"is_disabled":false,"rental_uris":{"android":"levelo://app?vid=bce611a7-5044-470a-9dc2-ccdbc1151c5c","ios":"levelo://app?vid=bce611a7-5044-470a-9dc2-ccdbc1151c5c"},"vehicle_type_id":"4","last_reported":1741014584,"current_range_meters":14000,"station_id":"ce4bhs12rcd13ifvqhvg","pricing_plan_id":"cebpf4jnsgd1na2vs0mg"},{"bike_id":"e96befb5-2592-4223-88de-8263a1712a27","system_id":"levelo_inurba_marseille","lat":43.28413,"lon":5.3751,"is_reserved":false,"is_disabled":false,"rental_uris":{"android":"levelo://app?vid=e96befb5-2592-4223-88de-8263a1712a27","ios":"levelo://app?vid=e96befb5-2592-4223-88de-8263a1712a27"},"vehicle_type_id":"4","last_reported":1741014584,"current_range_meters":14000,"station_id":"ce4bh412rcd13ifvqds0","pricing_plan_id":"cebpf4jnsgd1na2vs0mg"},{"bike_id":"2fe8f916-4590-4cd4-978d-98051b849535","system_id":"levelo_inurba_marseille","lat":43.28001,"lon":5.41655,"is_reserved":false,"is_disabled":false,"rental_uris":{"android":"levelo://app?vid=2fe8f916-4590-4cd4-978d-98051b849535","ios":"levelo://app?vid=2fe8f916-4590-4cd4-978d-98051b849535"},"vehicle_type_id":"4","last_reported":1741014584,"current_range_meters":14400,"station_id":"ce4bho12rcd13ifvqh1g","pricing_plan_id":"cebpf4jnsgd1na2vs0mg"},{"bike_id":"4a889b84-b11f-4811-9285-06ab95b76212","system_id":"levelo_inurba_marseille","lat":43.2501,"lon":5.38941,"is_reserved":false,"is_disabled":false,"rental_uris":{"android":"levelo://app?vid=4a889b84-b11f-4811-9285-06ab95b76212","ios":"levelo://app?vid=4a889b84-b11f-4811-9285-06ab95b76212"},"vehicle_type_id":"4","last_reported":1741014584,"current_range_meters":14400,"station_id":"ce4bhgp2rcd13ifvqfd0","pricing_plan_id":"cebpf4jnsgd1na2vs0mg"},{"bike_id":"5428870c-abcf-4a12-a3c3-d14a15feddac","system_id":"levelo_inurba_marseille","lat":43.2603,"lon":5.37571,"is_reserved":false,"is_disabled":false,"rental_uris":{"android":"levelo://app?vid=5428870c-abcf-4a12-a3c3-d14a15feddac","ios":"levelo://app?vid=5428870c-abcf-4a12-a3c3-d14a15feddac"},"vehicle_type_id":"4","last_reported":1741014584,"current_range_meters":14400,"station_id":"ce4bhgh2rcd13ifvqfa0","pricing_plan_id":"cebpf4jnsgd1na2vs0mg"},{"bike_id":"437ec111-0292-49c3-b0cf-0a1ee0e2b2b9","system_id":"levelo_inurba_marseille","lat":43.275284,"lon":5.424052,"is_reserved":false,"is_disabled":false,"rental_uris":{"android":"levelo://app?vid=437ec111-0292-49c3-b0cf-0a1ee0e2b2b9","ios":"levelo://app?vid=437ec111-0292-49c3-b0cf-0a1ee0e2b2b9"},"vehicle_type_id":"4","last_reported":1741014584,"current_range_meters":14400,"station_id":"ce4bho12rcd13ifvqh2g","pricing_plan_id":"cebpf4jnsgd1na2vs0mg"},{"bike_id":"923a7320-a0a7-468e-97eb-20f12ca141af","system_id":"levelo_inurba_marseille","lat":43.25022,"lon":5.38918,"is_reserved":false,"is_disabled":false,"rental_uris":{"android":"levelo://app?vid=923a7320-a0a7-468e-97eb-20f12ca141af","ios":"levelo://app?vid=923a7320-a0a7-468e-97eb-20f12ca141af"},"vehicle_type_id":"4","last_reported":1741014584,"current_range_meters":14400,"station_id":"ce4bhgp2rcd13ifvqfd0","pricing_plan_id":"cebpf4jnsgd1na2vs0mg"},{"bike_id":"cb813df4-3836-4634-974a-d02d99a32d8a","system_id":"levelo_inurba_marseille","lat":43.32705,"lon":5.39232,"is_reserved":false,"is_disabled":false,"rental_uris":{"android":"levelo://app?vid=cb813df4-3836-4634-974a-d02d99a32d8a","ios":"levelo://app?vid=cb813df4-3836-4634-974a-d02d99a32d8a"},"vehicle_type_id":"4","last_reported":1741014584,"current_range_meters":14800,"station_id":"","pricing_plan_id":"cebpf4jnsgd1na2vs0mg"},{"bike_id":"9de42f25-f760-4086-9a08-2934eee1b520","system_id":"levelo_inurba_marseille","lat":43.21262,"lon":5.35347,"is_reserved":false,"is_disabled":false,"rental_uris":{"android":"levelo://app?vid=9de42f25-f760-4086-9a08-2934eee1b520","ios":"levelo://app?vid=9de42f25-f760-4086-9a08-2934eee1b520"},"vehicle_type_id":"4","last_reported":1741014584,"current_range_meters":14800,"station_id":"","pricing_plan_id":"cebpf4jnsgd1na2vs0mg"},{"bike_id":"e7ec1ac1-2323-47bd-a2b5-7cd3afb282cf","system_id":"levelo_inurba_marseille","lat":43.26575,"lon":5.37293,"is_reserved":false,"is_disabled":false,"rental_uris":{"android":"levelo://app?vid=e7ec1ac1-2323-47bd-a2b5-7cd3afb282cf","ios":"levelo://app?vid=e7ec1ac1-2323-47bd-a2b5-7cd3afb282cf"},"vehicle_type_id":"4","last_reported":1741014584,"current_range_meters":14800,"station_id":"ce4bhg12rcd13ifvqf70","pricing_plan_id":"cebpf4jnsgd1na2vs0mg"},{"bike_id":"580f3a39-842a-4fdd-a589-5309eed9d153","system_id":"levelo_inurba_marseille","lat":43.25064,"lon":5.39501,"is_reserved":false,"is_disabled":false,"rental_uris":{"android":"levelo://app?vid=580f3a39-842a-4fdd-a589-5309eed9d153","ios":"levelo://app?vid=580f3a39-842a-4fdd-a589-5309eed9d153"},"vehicle_type_id":"4","last_reported":1741014584,"current_range_meters":14800,"station_id":"ce4bhm12rcd13ifvqgkg","pricing_plan_id":"cebpf4jnsgd1na2vs0mg"},{"bike_id":"af20a61f-bfb7-4cf0-ac42-5b98f41e7491","system_id":"levelo_inurba_marseille","lat":43.30306,"lon":5.39221,"is_reserved":false,"is_disabled":false,"rental_uris":{"android":"levelo://app?vid=af20a61f-bfb7-4cf0-ac42-5b98f41e7491","ios":"levelo://app?vid=af20a61f-bfb7-4cf0-ac42-5b98f41e7491"},"vehicle_type_id":"4","last_reported":1741014584,"current_range_meters":14800,"station_id":"ce4bgkh2rcd13ifvqbk0","pricing_plan_id":"cebpf4jnsgd1na2vs0mg"},{"bike_id":"df6a2759-8394-4cbb-8739-16cd4fae2f63","system_id":"levelo_inurba_marseille","lat":43.29869,"lon":5.36326,"is_reserved":false,"is_disabled":false,"rental_uris":{"android":"levelo://app?vid=df6a2759-8394-4cbb-8739-16cd4fae2f63","ios":"levelo://app?vid=df6a2759-8394-4cbb-8739-16cd4fae2f63"},"vehicle_type_id":"4","last_reported":1741014584,"current_range_meters":14800,"station_id":"ce4bgpp2rcd13ifvqc3g","pricing_plan_id":"cebpf4jnsgd1na2vs0mg"},{"bike_id":"cb014a6b-6553-43cb-90ee-c6d22cf5883f","system_id":"levelo_inurba_marseille","lat":43.2605,"lon":5.39403,"is_reserved":false,"is_disabled":false,"rental_uris":{"android":"levelo://app?vid=cb014a6b-6553-43cb-90ee-c6d22cf5883f","ios":"levelo://app?vid=cb014a6b-6553-43cb-90ee-c6d22cf5883f"},"vehicle_type_id":"4","last_reported":1741014584,"current_range_meters":14800,"station_id":"ce4bhh92rcd13ifvqfj0","pricing_plan_id":"cebpf4jnsgd1na2vs0mg"},{"bike_id":"18f817ac-f961-4591-9e1b-daed3571407e","system_id":"levelo_inurba_marseille","lat":43.24661,"lon":5.38169,"is_reserved":false,"is_disabled":false,"rental_uris":{"android":"levelo://app?vid=18f817ac-f961-4591-9e1b-daed3571407e","ios":"levelo://app?vid=18f817ac-f961-4591-9e1b-daed3571407e"},"vehicle_type_id":"4","last_reported":1741014584,"current_range_meters":15200,"station_id":"ce4bhih2rcd13ifvqfr0","pricing_plan_id":"cebpf4jnsgd1na2vs0mg"},{"bike_id":"33d78023-4d5b-48ce-9665-2809bebb67ae","system_id":"levelo_inurba_marseille","lat":43.28463,"lon":5.35892,"is_reserved":false,"is_disabled":false,"rental_uris":{"android":"levelo://app?vid=33d78023-4d5b-48ce-9665-2809bebb67ae","ios":"levelo://app?vid=33d78023-4d5b-48ce-9665-2809bebb67ae"},"vehicle_type_id":"4","last_reported":1741014584,"current_range_meters":15200,"station_id":"ce4bhah2rcd13ifvqei0","pricing_plan_id":"cebpf4jnsgd1na2vs0mg"},{"bike_id":"b4bd6386-be27-468e-9ef5-b7a6a01fd6a0","system_id":"levelo_inurba_marseille","lat":43.28616,"lon":5.35115,"is_reserved":false,"is_disabled":false,"rental_uris":{"android":"levelo://app?vid=b4bd6386-be27-468e-9ef5-b7a6a01fd6a0","ios":"levelo://app?vid=b4bd6386-be27-468e-9ef5-b7a6a01fd6a0"},"vehicle_type_id":"4","last_reported":1741014584,"current_range_meters":15200,"station_id":"ce4bhch2rcd13ifvqeug","pricing_plan_id":"cebpf4jnsgd1na2vs0mg"},{"bike_id":"6523d424-bfbd-4de8-a70a-e7fd16cabcd7","system_id":"levelo_inurba_marseille","lat":43.27568,"lon":5.38407,"is_reserved":false,"is_disabled":false,"rental_uris":{"android":"levelo://app?vid=6523d424-bfbd-4de8-a70a-e7fd16cabcd7","ios":"levelo://app?vid=6523d424-bfbd-4de8-a70a-e7fd16cabcd7"},"vehicle_type_id":"4","last_reported":1741014584,"current_range_meters":15200,"station_id":"ce4bhh92rcd13ifvqfi0","pricing_plan_id":"cebpf4jnsgd1na2vs0mg"},{"bike_id":"fd4981b9-0e02-4fc7-a3f4-90f8b5148191","system_id":"levelo_inurba_marseille","lat":43.30954,"lon":5.39026,"is_reserved":false,"is_disabled":false,"rental_uris":{"android":"levelo://app?vid=fd4981b9-0e02-4fc7-a3f4-90f8b5148191","ios":"levelo://app?vid=fd4981b9-0e02-4fc7-a3f4-90f8b5148191"},"vehicle_type_id":"4","last_reported":1741014584,"current_range_meters":15200,"station_id":"ce4bgup2rcd13ifvqco0","pricing_plan_id":"cebpf4jnsgd1na2vs0mg"},{"bike_id":"c97761dd-6076-40b3-8eb8-a1cca581d281","system_id":"levelo_inurba_marseille","lat":43.25939,"lon":5.40906,"is_reserved":false,"is_disabled":false,"rental_uris":{"android":"levelo://app?vid=c97761dd-6076-40b3-8eb8-a1cca581d281","ios":"levelo://app?vid=c97761dd-6076-40b3-8eb8-a1cca581d281"},"vehicle_type_id":"4","last_reported":1741014584,"current_range_meters":15200,"station_id":"ce4bhm92rcd13ifvqglg","pricing_plan_id":"cebpf4jnsgd1na2vs0mg"},{"bike_id":"18da2f6f-6f99-450d-ba40-f8f1649c1e40","system_id":"levelo_inurba_marseille","lat":43.31315,"lon":5.36834,"is_reserved":false,"is_disabled":false,"rental_uris":{"android":"levelo://app?vid=18da2f6f-6f99-450d-ba40-f8f1649c1e40","ios":"levelo://app?vid=18da2f6f-6f99-450d-ba40-f8f1649c1e40"},"vehicle_type_id":"4","last_reported":1741014584,"current_range_meters":15200,"station_id":"","pricing_plan_id":"cebpf4jnsgd1na2vs0mg"},{"bike_id":"2fb5d9d6-bae2-4812-a3dc-7d9653235824","system_id":"levelo_inurba_marseille","lat":43.28682,"lon":5.38306,"is_reserved":false,"is_disabled":false,"rental_uris":{"android":"levelo://app?vid=2fb5d9d6-bae2-4812-a3dc-7d9653235824","ios":"levelo://app?vid=2fb5d9d6-bae2-4812-a3dc-7d9653235824"},"vehicle_type_id":"4","last_reported":1741014584,"current_range_meters":15200,"station_id":"ce4bgqh2rcd13ifvqc4g","pricing_plan_id":"cebpf4jnsgd1na2vs0mg"},{"bike_id":"44a7153b-0fd7-4509-836b-676bbf84fb06","system_id":"levelo_inurba_marseille","lat":43.2319,"lon":5.35559,"is_reserved":false,"is_disabled":false,"rental_uris":{"android":"levelo://app?vid=44a7153b-0fd7-4509-836b-676bbf84fb06","ios":"levelo://app?vid=44a7153b-0fd7-4509-836b-676bbf84fb06"},"vehicle_type_id":"4","last_reported":1741014584,"current_range_meters":15200,"station_id":"ce4bhu92rcd13ifvqi70","pricing_plan_id":"cebpf4jnsgd1na2vs0mg"},{"bike_id":"dc742972-e16f-441a-896c-a4923bb3f670","system_id":"levelo_inurba_marseille","lat":43.30258,"lon":5.40091,"is_reserved":false,"is_disabled":false,"rental_uris":{"android":"levelo://app?vid=dc742972-e16f-441a-896c-a4923bb3f670","ios":"levelo://app?vid=dc742972-e16f-441a-896c-a4923bb3f670"},"vehicle_type_id":"4","last_reported":1741014584,"current_range_meters":16000,"station_id":"ce4bgvh2rcd13ifvqcs0","pricing_plan_id":"cebpf4jnsgd1na2vs0mg"},{"bike_id":"172b283a-f30f-46db-b1bb-42f003cdd762","system_id":"levelo_inurba_marseille","lat":43.31095,"lon":5.3674,"is_reserved":false,"is_disabled":false,"rental_uris":{"android":"levelo://app?vid=172b283a-f30f-46db-b1bb-42f003cdd762","ios":"levelo://app?vid=172b283a-f30f-46db-b1bb-42f003cdd762"},"vehicle_type_id":"4","last_reported":1741014584,"current_range_meters":16000,"station_id":"","pricing_plan_id":"cebpf4jnsgd1na2vs0mg"},{"bike_id":"0979324e-92a3-444a-bff9-27d2fa1b8150","system_id":"levelo_inurba_marseille","lat":43.30135,"lon":5.37407,"is_reserved":false,"is_disabled":false,"rental_uris":{"android":"levelo://app?vid=0979324e-92a3-444a-bff9-27d2fa1b8150","ios":"levelo://app?vid=0979324e-92a3-444a-bff9-27d2fa1b8150"},"vehicle_type_id":"4","last_reported":1741014584,"current_range_meters":16000,"station_id":"ce4bgs92rcd13ifvqcc0","pricing_plan_id":"cebpf4jnsgd1na2vs0mg"},{"bike_id":"152cf979-241f-4ed7-8891-0a364bdf5c74","system_id":"levelo_inurba_marseille","lat":43.27807,"lon":5.4072,"is_reserved":false,"is_disabled":false,"rental_uris":{"android":"levelo://app?vid=152cf979-241f-4ed7-8891-0a364bdf5c74","ios":"levelo://app?vid=152cf979-241f-4ed7-8891-0a364bdf5c74"},"vehicle_type_id":"4","last_reported":1741014584,"current_range_meters":16000,"station_id":"ce4bhnh2rcd13ifvqgtg","pricing_plan_id":"cebpf4jnsgd1na2vs0mg"},{"bike_id":"2155070d-f072-4424-922f-864b78eef918","system_id":"levelo_inurba_marseille","lat":43.24077,"lon":5.37765,"is_reserved":false,"is_disabled":false,"rental_uris":{"android":"levelo://app?vid=2155070d-f072-4424-922f-864b78eef918","ios":"levelo://app?vid=2155070d-f072-4424-922f-864b78eef918"},"vehicle_type_id":"4","last_reported":1741014584,"current_range_meters":16000,"station_id":"ce4bhnp2rcd13ifvqgvg","pricing_plan_id":"cebpf4jnsgd1na2vs0mg"},{"bike_id":"64e6e432-1ead-4d8d-a6ef-2a0ee53b888e","system_id":"levelo_inurba_marseille","lat":43.2841,"lon":5.37507,"is_reserved":false,"is_disabled":false,"rental_uris":{"android":"levelo://app?vid=64e6e432-1ead-4d8d-a6ef-2a0ee53b888e","ios":"levelo://app?vid=64e6e432-1ead-4d8d-a6ef-2a0ee53b888e"},"vehicle_type_id":"4","last_reported":1741014584,"current_range_meters":16000,"station_id":"ce4bh412rcd13ifvqds0","pricing_plan_id":"cebpf4jnsgd1na2vs0mg"},{"bike_id":"1c1e8097-5026-4ae8-b4fa-9adf704e6d9a","system_id":"levelo_inurba_marseille","lat":43.28617,"lon":5.3511,"is_reserved":false,"is_disabled":false,"rental_uris":{"android":"levelo://app?vid=1c1e8097-5026-4ae8-b4fa-9adf704e6d9a","ios":"levelo://app?vid=1c1e8097-5026-4ae8-b4fa-9adf704e6d9a"},"vehicle_type_id":"4","last_reported":1741014584,"current_range_meters":16000,"station_id":"ce4bhch2rcd13ifvqeug","pricing_plan_id":"cebpf4jnsgd1na2vs0mg"},{"bike_id":"b06a57f7-690f-408f-8dd5-adbc59abf289","system_id":"levelo_inurba_marseille","lat":43.24816,"lon":5.37462,"is_reserved":false,"is_disabled":false,"rental_uris":{"android":"levelo://app?vid=b06a57f7-690f-408f-8dd5-adbc59abf289","ios":"levelo://app?vid=b06a57f7-690f-408f-8dd5-adbc59abf289"},"vehicle_type_id":"4","last_reported":1741014584,"current_range_meters":16000,"station_id":"ce4bhgh2rcd13ifvqfb0","pricing_plan_id":"cebpf4jnsgd1na2vs0mg"},{"bike_id":"93527a8b-1d94-4334-9648-ea456577b40e","system_id":"levelo_inurba_marseille","lat":43.2731,"lon":5.39107,"is_reserved":false,"is_disabled":false,"rental_uris":{"android":"levelo://app?vid=93527a8b-1d94-4334-9648-ea456577b40e","ios":"levelo://app?vid=93527a8b-1d94-4334-9648-ea456577b40e"},"vehicle_type_id":"4","last_reported":1741014584,"current_range_meters":16400,"station_id":"ce4bhgp2rcd13ifvqfe0","pricing_plan_id":"cebpf4jnsgd1na2vs0mg"},{"bike_id":"86d22bff-a114-4024-9d5b-75b4292b6b49","system_id":"levelo_inurba_marseille","lat":43.27999,"lon":5.40026,"is_reserved":false,"is_disabled":false,"rental_uris":{"android":"levelo://app?vid=86d22bff-a114-4024-9d5b-75b4292b6b49","ios":"levelo://app?vid=86d22bff-a114-4024-9d5b-75b4292b6b49"},"vehicle_type_id":"4","last_reported":1741014584,"current_range_meters":16400,"station_id":"ce4bho92rcd13ifvqh4g","pricing_plan_id":"cebpf4jnsgd1na2vs0mg"},{"bike_id":"ee1d2ad1-36ca-49dd-a328-f2a9a9994ecb","system_id":"levelo_inurba_marseille","lat":43.31076,"lon":5.38118,"is_reserved":false,"is_disabled":false,"rental_uris":{"android":"levelo://app?vid=ee1d2ad1-36ca-49dd-a328-f2a9a9994ecb","ios":"levelo://app?vid=ee1d2ad1-36ca-49dd-a328-f2a9a9994ecb"},"vehicle_type_id":"4","last_reported":1741014584,"current_range_meters":16400,"station_id":"","pricing_plan_id":"cebpf4jnsgd1na2vs0mg"},{"bike_id":"e6c11360-818e-480f-8c1f-ade82f3a0f37","system_id":"levelo_inurba_marseille","lat":43.23153,"lon":5.43714,"is_reserved":false,"is_disabled":false,"rental_uris":{"android":"levelo://app?vid=e6c11360-818e-480f-8c1f-ade82f3a0f37","ios":"levelo://app?vid=e6c11360-818e-480f-8c1f-ade82f3a0f37"},"vehicle_type_id":"4","last_reported":1741014584,"current_range_meters":16400,"station_id":"ce4bhmp2rcd13ifvqgog","pricing_plan_id":"cebpf4jnsgd1na2vs0mg"},{"bike_id":"4e40f849-23d1-4615-a2ce-186b2c1ad0e1","system_id":"levelo_inurba_marseille","lat":43.28076,"lon":5.39651,"is_reserved":false,"is_disabled":false,"rental_uris":{"android":"levelo://app?vid=4e40f849-23d1-4615-a2ce-186b2c1ad0e1","ios":"levelo://app?vid=4e40f849-23d1-4615-a2ce-186b2c1ad0e1"},"vehicle_type_id":"4","last_reported":1741014584,"current_range_meters":16400,"station_id":"ce4bho12rcd13ifvqh2g","pricing_plan_id":"cebpf4jnsgd1na2vs0mg"},{"bike_id":"8a6bd0a3-3084-46be-ad0e-1c323cea4e7d","system_id":"levelo_inurba_marseille","lat":43.29301,"lon":5.3717,"is_reserved":false,"is_disabled":false,"rental_uris":{"android":"levelo://app?vid=8a6bd0a3-3084-46be-ad0e-1c323cea4e7d","ios":"levelo://app?vid=8a6bd0a3-3084-46be-ad0e-1c323cea4e7d"},"vehicle_type_id":"4","last_reported":1741014584,"current_range_meters":16400,"station_id":"ce4bgh92rcd13ifvqb40","pricing_plan_id":"cebpf4jnsgd1na2vs0mg"},{"bike_id":"1fc1950f-5c68-4ba8-90a8-b8173654385b","system_id":"levelo_inurba_marseille","lat":43.25004,"lon":5.38943,"is_reserved":false,"is_disabled":false,"rental_uris":{"android":"levelo://app?vid=1fc1950f-5c68-4ba8-90a8-b8173654385b","ios":"levelo://app?vid=1fc1950f-5c68-4ba8-90a8-b8173654385b"},"vehicle_type_id":"4","last_reported":1741014584,"current_range_meters":16800,"station_id":"ce4bhgp2rcd13ifvqfd0","pricing_plan_id":"cebpf4jnsgd1na2vs0mg"},{"bike_id":"d70f2244-0a55-45cf-ada8-5e84407e052a","system_id":"levelo_inurba_marseille","lat":43.24519,"lon":5.39494,"is_reserved":false,"is_disabled":false,"rental_uris":{"android":"levelo://app?vid=d70f2244-0a55-45cf-ada8-5e84407e052a","ios":"levelo://app?vid=d70f2244-0a55-45cf-ada8-5e84407e052a"},"vehicle_type_id":"4","last_reported":1741014584,"current_range_meters":16800,"station_id":"ce4bhlp2rcd13ifvqgjg","pricing_plan_id":"cebpf4jnsgd1na2vs0mg"},{"bike_id":"2088d297-ac0e-4674-b1cb-86b29bb33a9f","system_id":"levelo_inurba_marseille","lat":43.25009,"lon":5.3893,"is_reserved":false,"is_disabled":false,"rental_uris":{"android":"levelo://app?vid=2088d297-ac0e-4674-b1cb-86b29bb33a9f","ios":"levelo://app?vid=2088d297-ac0e-4674-b1cb-86b29bb33a9f"},"vehicle_type_id":"4","last_reported":1741014584,"current_range_meters":16800,"station_id":"ce4bhgp2rcd13ifvqfd0","pricing_plan_id":"cebpf4jnsgd1na2vs0mg"},{"bike_id":"feadfd62-db5c-48c9-b3a3-2e079eed0e47","system_id":"levelo_inurba_marseille","lat":43.30713,"lon":5.3731,"is_reserved":false,"is_disabled":false,"rental_uris":{"android":"levelo://app?vid=feadfd62-db5c-48c9-b3a3-2e079eed0e47","ios":"levelo://app?vid=feadfd62-db5c-48c9-b3a3-2e079eed0e47"},"vehicle_type_id":"4","last_reported":1741014584,"current_range_meters":16800,"station_id":"","pricing_plan_id":"cebpf4jnsgd1na2vs0mg"},{"bike_id":"fff6d903-af3a-42af-874c-824febf2bae1","system_id":"levelo_inurba_marseille","lat":43.29514,"lon":5.39409,"is_reserved":false,"is_disabled":false,"rental_uris":{"android":"levelo://app?vid=fff6d903-af3a-42af-874c-824febf2bae1","ios":"levelo://app?vid=fff6d903-af3a-42af-874c-824febf2bae1"},"vehicle_type_id":"4","last_reported":1741014584,"current_range_meters":16800,"station_id":"ce4bh292rcd13ifvqdf0","pricing_plan_id":"cebpf4jnsgd1na2vs0mg"},{"bike_id":"5e5bed5d-3bf2-44cf-b743-7d88a934d849","system_id":"levelo_inurba_marseille","lat":43.33024,"lon":5.39052,"is_reserved":false,"is_disabled":false,"rental_uris":{"android":"levelo://app?vid=5e5bed5d-3bf2-44cf-b743-7d88a934d849","ios":"levelo://app?vid=5e5bed5d-3bf2-44cf-b743-7d88a934d849"},"vehicle_type_id":"4","last_reported":1741014584,"current_range_meters":16800,"station_id":"ce4bhr92rcd13ifvqhrg","pricing_plan_id":"cebpf4jnsgd1na2vs0mg"},{"bike_id":"901ffce6-da03-49e2-80fa-487157156c8a","system_id":"levelo_inurba_marseille","lat":43.26029,"lon":5.37562,"is_reserved":false,"is_disabled":false,"rental_uris":{"android":"levelo://app?vid=901ffce6-da03-49e2-80fa-487157156c8a","ios":"levelo://app?vid=901ffce6-da03-49e2-80fa-487157156c8a"},"vehicle_type_id":"4","last_reported":1741014584,"current_range_meters":16800,"station_id":"ce4bhgh2rcd13ifvqfa0","pricing_plan_id":"cebpf4jnsgd1na2vs0mg"},{"bike_id":"8e7049e0-f12b-48c8-ae6d-9473edd241c8","system_id":"levelo_inurba_marseille","lat":43.27493,"lon":5.42471,"is_reserved":false,"is_disabled":false,"rental_uris":{"android":"levelo://app?vid=8e7049e0-f12b-48c8-ae6d-9473edd241c8","ios":"levelo://app?vid=8e7049e0-f12b-48c8-ae6d-9473edd241c8"},"vehicle_type_id":"4","last_reported":1741014584,"current_range_meters":17200,"station_id":"ce4bhn92rcd13ifvqgrg","pricing_plan_id":"cebpf4jnsgd1na2vs0mg"},{"bike_id":"c874d590-a75a-4b8a-89c1-3d0d20bdcb3f","system_id":"levelo_inurba_marseille","lat":43.28156,"lon":5.42647,"is_reserved":false,"is_disabled":false,"rental_uris":{"android":"levelo://app?vid=c874d590-a75a-4b8a-89c1-3d0d20bdcb3f","ios":"levelo://app?vid=c874d590-a75a-4b8a-89c1-3d0d20bdcb3f"},"vehicle_type_id":"4","last_reported":1741014584,"current_range_meters":17200,"station_id":"ce4bhnh2rcd13ifvqgug","pricing_plan_id":"cebpf4jnsgd1na2vs0mg"},{"bike_id":"74b252ae-195b-448a-931e-faddbab9718f","system_id":"levelo_inurba_marseille","lat":43.30594,"lon":5.37217,"is_reserved":false,"is_disabled":false,"rental_uris":{"android":"levelo://app?vid=74b252ae-195b-448a-931e-faddbab9718f","ios":"levelo://app?vid=74b252ae-195b-448a-931e-faddbab9718f"},"vehicle_type_id":"4","last_reported":1741014584,"current_range_meters":17200,"station_id":"ce4bgqh2rcd13ifvqc4g","pricing_plan_id":"cebpf4jnsgd1na2vs0mg"},{"bike_id":"31e8bd49-9d82-4485-bd12-3b4ff1304b2e","system_id":"levelo_inurba_marseille","lat":43.30554,"lon":5.36513,"is_reserved":false,"is_disabled":false,"rental_uris":{"android":"levelo://app?vid=31e8bd49-9d82-4485-bd12-3b4ff1304b2e","ios":"levelo://app?vid=31e8bd49-9d82-4485-bd12-3b4ff1304b2e"},"vehicle_type_id":"4","last_reported":1741014584,"current_range_meters":17200,"station_id":"ce4bgs12rcd13ifvqcag","pricing_plan_id":"cebpf4jnsgd1na2vs0mg"},{"bike_id":"eec8ce3b-4ab8-44f5-aa82-40785d778ad1","system_id":"levelo_inurba_marseille","lat":43.2757,"lon":5.38425,"is_reserved":false,"is_disabled":false,"rental_uris":{"android":"levelo://app?vid=eec8ce3b-4ab8-44f5-aa82-40785d778ad1","ios":"levelo://app?vid=eec8ce3b-4ab8-44f5-aa82-40785d778ad1"},"vehicle_type_id":"4","last_reported":1741014584,"current_range_meters":17200,"station_id":"ce4bhh92rcd13ifvqfi0","pricing_plan_id":"cebpf4jnsgd1na2vs0mg"},{"bike_id":"e0bbd19f-dbed-424f-998c-e43cb85c9ec3","system_id":"levelo_inurba_marseille","lat":43.24167,"lon":5.36396,"is_reserved":false,"is_disabled":false,"rental_uris":{"android":"levelo://app?vid=e0bbd19f-dbed-424f-998c-e43cb85c9ec3","ios":"levelo://app?vid=e0bbd19f-dbed-424f-998c-e43cb85c9ec3"},"vehicle_type_id":"4","last_reported":1741014584,"current_range_meters":17200,"station_id":"cpo36qri1sfpv3e86is0","pricing_plan_id":"cebpf4jnsgd1na2vs0mg"},{"bike_id":"3209be87-2c02-4e03-9fc7-3e8e19bdb8d9","system_id":"levelo_inurba_marseille","lat":43.293657,"lon":5.374643,"is_reserved":false,"is_disabled":false,"rental_uris":{"android":"levelo://app?vid=3209be87-2c02-4e03-9fc7-3e8e19bdb8d9","ios":"levelo://app?vid=3209be87-2c02-4e03-9fc7-3e8e19bdb8d9"},"vehicle_type_id":"4","last_reported":1741014584,"current_range_meters":17200,"station_id":"ce4bh2h2rcd13ifvqdh0","pricing_plan_id":"cebpf4jnsgd1na2vs0mg"},{"bike_id":"cfd37df0-b1c6-4f94-a627-4f20422c897a","system_id":"levelo_inurba_marseille","lat":43.27698,"lon":5.41552,"is_reserved":false,"is_disabled":false,"rental_uris":{"android":"levelo://app?vid=cfd37df0-b1c6-4f94-a627-4f20422c897a","ios":"levelo://app?vid=cfd37df0-b1c6-4f94-a627-4f20422c897a"},"vehicle_type_id":"4","last_reported":1741014584,"current_range_meters":17200,"station_id":"","pricing_plan_id":"cebpf4jnsgd1na2vs0mg"},{"bike_id":"d0b2a7d9-2ac3-4be1-a8da-4bf4503e5466","system_id":"levelo_inurba_marseille","lat":43.28617,"lon":5.35108,"is_reserved":false,"is_disabled":false,"rental_uris":{"android":"levelo://app?vid=d0b2a7d9-2ac3-4be1-a8da-4bf4503e5466","ios":"levelo://app?vid=d0b2a7d9-2ac3-4be1-a8da-4bf4503e5466"},"vehicle_type_id":"4","last_reported":1741014584,"current_range_meters":17200,"station_id":"ce4bhch2rcd13ifvqeug","pricing_plan_id":"cebpf4jnsgd1na2vs0mg"},{"bike_id":"bceefa18-3210-470b-a055-75e2385cf62f","system_id":"levelo_inurba_marseille","lat":43.23156,"lon":5.43722,"is_reserved":false,"is_disabled":false,"rental_uris":{"android":"levelo://app?vid=bceefa18-3210-470b-a055-75e2385cf62f","ios":"levelo://app?vid=bceefa18-3210-470b-a055-75e2385cf62f"},"vehicle_type_id":"4","last_reported":1741014584,"current_range_meters":17200,"station_id":"ce4bhmp2rcd13ifvqgog","pricing_plan_id":"cebpf4jnsgd1na2vs0mg"},{"bike_id":"0f853f59-735c-40c4-86e1-0baf66328276","system_id":"levelo_inurba_marseille","lat":43.26939,"lon":5.40267,"is_reserved":false,"is_disabled":false,"rental_uris":{"android":"levelo://app?vid=0f853f59-735c-40c4-86e1-0baf66328276","ios":"levelo://app?vid=0f853f59-735c-40c4-86e1-0baf66328276"},"vehicle_type_id":"4","last_reported":1741014584,"current_range_meters":17200,"station_id":"cjm6bp8fraef2m0cb0m0","pricing_plan_id":"cebpf4jnsgd1na2vs0mg"},{"bike_id":"1e0be19b-d5a9-472e-9436-4d7e8c15a9e8","system_id":"levelo_inurba_marseille","lat":43.296,"lon":5.38106,"is_reserved":false,"is_disabled":false,"rental_uris":{"android":"levelo://app?vid=1e0be19b-d5a9-472e-9436-4d7e8c15a9e8","ios":"levelo://app?vid=1e0be19b-d5a9-472e-9436-4d7e8c15a9e8"},"vehicle_type_id":"4","last_reported":1741014584,"current_range_meters":17200,"station_id":"ce4bgl12rcd13ifvqbo0","pricing_plan_id":"cebpf4jnsgd1na2vs0mg"},{"bike_id":"a0595b2e-dc3c-4f9a-9729-0446e00127e4","system_id":"levelo_inurba_marseille","lat":43.28616,"lon":5.35106,"is_reserved":false,"is_disabled":false,"rental_uris":{"android":"levelo://app?vid=a0595b2e-dc3c-4f9a-9729-0446e00127e4","ios":"levelo://app?vid=a0595b2e-dc3c-4f9a-9729-0446e00127e4"},"vehicle_type_id":"4","last_reported":1741014584,"current_range_meters":17600,"station_id":"ce4bhch2rcd13ifvqeug","pricing_plan_id":"cebpf4jnsgd1na2vs0mg"},{"bike_id":"e6f3d989-71f4-4b30-892d-1bcea37dc056","system_id":"levelo_inurba_marseille","lat":43.284217,"lon":5.34986,"is_reserved":false,"is_disabled":false,"rental_uris":{"android":"levelo://app?vid=e6f3d989-71f4-4b30-892d-1bcea37dc056","ios":"levelo://app?vid=e6f3d989-71f4-4b30-892d-1bcea37dc056"},"vehicle_type_id":"4","last_reported":1741014584,"current_range_meters":17600,"station_id":"ce4bhbh2rcd13ifvqepg","pricing_plan_id":"cebpf4jnsgd1na2vs0mg"},{"bike_id":"02c85aee-6faf-45a0-bb1f-6c1b5eedd680","system_id":"levelo_inurba_marseille","lat":43.23156,"lon":5.43726,"is_reserved":false,"is_disabled":false,"rental_uris":{"android":"levelo://app?vid=02c85aee-6faf-45a0-bb1f-6c1b5eedd680","ios":"levelo://app?vid=02c85aee-6faf-45a0-bb1f-6c1b5eedd680"},"vehicle_type_id":"4","last_reported":1741014584,"current_range_meters":17600,"station_id":"ce4bhmp2rcd13ifvqgog","pricing_plan_id":"cebpf4jnsgd1na2vs0mg"},{"bike_id":"adac2969-b6ef-4fa7-8c30-58c32f9015b8","system_id":"levelo_inurba_marseille","lat":43.2842,"lon":5.34985,"is_reserved":false,"is_disabled":false,"rental_uris":{"android":"levelo://app?vid=adac2969-b6ef-4fa7-8c30-58c32f9015b8","ios":"levelo://app?vid=adac2969-b6ef-4fa7-8c30-58c32f9015b8"},"vehicle_type_id":"4","last_reported":1741014584,"current_range_meters":17600,"station_id":"ce4bhbh2rcd13ifvqepg","pricing_plan_id":"cebpf4jnsgd1na2vs0mg"},{"bike_id":"018182c5-af00-4c89-90f8-c1c11adf85a8","system_id":"levelo_inurba_marseille","lat":43.29875,"lon":5.38914,"is_reserved":false,"is_disabled":false,"rental_uris":{"android":"levelo://app?vid=018182c5-af00-4c89-90f8-c1c11adf85a8","ios":"levelo://app?vid=018182c5-af00-4c89-90f8-c1c11adf85a8"},"vehicle_type_id":"4","last_reported":1741014584,"current_range_meters":17600,"station_id":"ce4bh392rcd13ifvqdl0","pricing_plan_id":"cebpf4jnsgd1na2vs0mg"},{"bike_id":"a6c340bb-1919-4381-8431-20bb23cf907d","system_id":"levelo_inurba_marseille","lat":43.25824,"lon":5.39446,"is_reserved":false,"is_disabled":false,"rental_uris":{"android":"levelo://app?vid=a6c340bb-1919-4381-8431-20bb23cf907d","ios":"levelo://app?vid=a6c340bb-1919-4381-8431-20bb23cf907d"},"vehicle_type_id":"4","last_reported":1741014584,"current_range_meters":18000,"station_id":"ce4bhip2rcd13ifvqft0","pricing_plan_id":"cebpf4jnsgd1na2vs0mg"},{"bike_id":"21d576ee-ad99-4344-99a6-48a7647dc728","system_id":"levelo_inurba_marseille","lat":43.32941,"lon":5.43011,"is_reserved":false,"is_disabled":false,"rental_uris":{"android":"levelo://app?vid=21d576ee-ad99-4344-99a6-48a7647dc728","ios":"levelo://app?vid=21d576ee-ad99-4344-99a6-48a7647dc728"},"vehicle_type_id":"4","last_reported":1741014584,"current_range_meters":18000,"station_id":"","pricing_plan_id":"cebpf4jnsgd1na2vs0mg"},{"bike_id":"5bc1d749-a0b3-4091-8289-1718a14b2c2e","system_id":"levelo_inurba_marseille","lat":43.29419,"lon":5.38632,"is_reserved":false,"is_disabled":false,"rental_uris":{"android":"levelo://app?vid=5bc1d749-a0b3-4091-8289-1718a14b2c2e","ios":"levelo://app?vid=5bc1d749-a0b3-4091-8289-1718a14b2c2e"},"vehicle_type_id":"4","last_reported":1741014584,"current_range_meters":18000,"station_id":"ce4bh2h2rcd13ifvqdh0","pricing_plan_id":"cebpf4jnsgd1na2vs0mg"},{"bike_id":"d7ef5145-0bca-4f45-a0cf-6b1d49f6690d","system_id":"levelo_inurba_marseille","lat":43.31391,"lon":5.39192,"is_reserved":false,"is_disabled":false,"rental_uris":{"android":"levelo://app?vid=d7ef5145-0bca-4f45-a0cf-6b1d49f6690d","ios":"levelo://app?vid=d7ef5145-0bca-4f45-a0cf-6b1d49f6690d"},"vehicle_type_id":"4","last_reported":1741014584,"current_range_meters":18000,"station_id":"","pricing_plan_id":"cebpf4jnsgd1na2vs0mg"},{"bike_id":"e043dbef-d8a9-47e0-8c16-0bbe64149455","system_id":"levelo_inurba_marseille","lat":43.28664,"lon":5.3857,"is_reserved":false,"is_disabled":false,"rental_uris":{"android":"levelo://app?vid=e043dbef-d8a9-47e0-8c16-0bbe64149455","ios":"levelo://app?vid=e043dbef-d8a9-47e0-8c16-0bbe64149455"},"vehicle_type_id":"4","last_reported":1741014584,"current_range_meters":18000,"station_id":"","pricing_plan_id":"cebpf4jnsgd1na2vs0mg"},{"bike_id":"5515b2ed-d24a-4958-9699-245f169e22b6","system_id":"levelo_inurba_marseille","lat":43.29549,"lon":5.42286,"is_reserved":false,"is_disabled":false,"rental_uris":{"android":"levelo://app?vid=5515b2ed-d24a-4958-9699-245f169e22b6","ios":"levelo://app?vid=5515b2ed-d24a-4958-9699-245f169e22b6"},"vehicle_type_id":"4","last_reported":1741014584,"current_range_meters":18000,"station_id":"ce4bhph2rcd13ifvqhdg","pricing_plan_id":"cebpf4jnsgd1na2vs0mg"},{"bike_id":"60c07d51-45a1-4bea-8734-6a7bab845eea","system_id":"levelo_inurba_marseille","lat":43.309265,"lon":5.401553,"is_reserved":false,"is_disabled":false,"rental_uris":{"android":"levelo://app?vid=60c07d51-45a1-4bea-8734-6a7bab845eea","ios":"levelo://app?vid=60c07d51-45a1-4bea-8734-6a7bab845eea"},"vehicle_type_id":"4","last_reported":1741014584,"current_range_meters":18800,"station_id":"ce4bgvp2rcd13ifvqct0","pricing_plan_id":"cebpf4jnsgd1na2vs0mg"},{"bike_id":"cb783659-df95-44f5-92c5-6b74d28b64c1","system_id":"levelo_inurba_marseille","lat":43.3032,"lon":5.40439,"is_reserved":false,"is_disabled":false,"rental_uris":{"android":"levelo://app?vid=cb783659-df95-44f5-92c5-6b74d28b64c1","ios":"levelo://app?vid=cb783659-df95-44f5-92c5-6b74d28b64c1"},"vehicle_type_id":"4","last_reported":1741014584,"current_range_meters":18800,"station_id":"ce4bh012rcd13ifvqd10","pricing_plan_id":"cebpf4jnsgd1na2vs0mg"},{"bike_id":"e118bd33-48f8-416b-9c17-4b086c79876e","system_id":"levelo_inurba_marseille","lat":43.26792,"lon":5.39441,"is_reserved":false,"is_disabled":false,"rental_uris":{"android":"levelo://app?vid=e118bd33-48f8-416b-9c17-4b086c79876e","ios":"levelo://app?vid=e118bd33-48f8-416b-9c17-4b086c79876e"},"vehicle_type_id":"4","last_reported":1741014584,"current_range_meters":18800,"station_id":"ce4bhh12rcd13ifvqfg0","pricing_plan_id":"cebpf4jnsgd1na2vs0mg"},{"bike_id":"ec829cb0-1abc-41cc-bdf2-03325252e782","system_id":"levelo_inurba_marseille","lat":43.24661,"lon":5.38902,"is_reserved":false,"is_disabled":false,"rental_uris":{"android":"levelo://app?vid=ec829cb0-1abc-41cc-bdf2-03325252e782","ios":"levelo://app?vid=ec829cb0-1abc-41cc-bdf2-03325252e782"},"vehicle_type_id":"4","last_reported":1741014584,"current_range_meters":18800,"station_id":"ce4bhg12rcd13ifvqf60","pricing_plan_id":"cebpf4jnsgd1na2vs0mg"},{"bike_id":"54fc3a1e-4591-4647-8e7b-0df8c440658b","system_id":"levelo_inurba_marseille","lat":43.29273,"lon":5.40132,"is_reserved":false,"is_disabled":false,"rental_uris":{"android":"levelo://app?vid=54fc3a1e-4591-4647-8e7b-0df8c440658b","ios":"levelo://app?vid=54fc3a1e-4591-4647-8e7b-0df8c440658b"},"vehicle_type_id":"4","last_reported":1741014584,"current_range_meters":18800,"station_id":"ce4bh312rcd13ifvqdk0","pricing_plan_id":"cebpf4jnsgd1na2vs0mg"},{"bike_id":"954be03c-bedc-4d79-b23c-ddf297b60e57","system_id":"levelo_inurba_marseille","lat":43.2509,"lon":5.39533,"is_reserved":false,"is_disabled":false,"rental_uris":{"android":"levelo://app?vid=954be03c-bedc-4d79-b23c-ddf297b60e57","ios":"levelo://app?vid=954be03c-bedc-4d79-b23c-ddf297b60e57"},"vehicle_type_id":"4","last_reported":1741014584,"current_range_meters":18800,"station_id":"ce4bhm12rcd13ifvqgkg","pricing_plan_id":"cebpf4jnsgd1na2vs0mg"},{"bike_id":"ad7f03a8-b253-4da6-871b-2dafec0c2279","system_id":"levelo_inurba_marseille","lat":43.25867,"lon":5.39906,"is_reserved":false,"is_disabled":false,"rental_uris":{"android":"levelo://app?vid=ad7f03a8-b253-4da6-871b-2dafec0c2279","ios":"levelo://app?vid=ad7f03a8-b253-4da6-871b-2dafec0c2279"},"vehicle_type_id":"4","last_reported":1741014584,"current_range_meters":18800,"station_id":"ce4bhl92rcd13ifvqghg","pricing_plan_id":"cebpf4jnsgd1na2vs0mg"},{"bike_id":"45e0ccec-0b59-489c-81b6-b81e941b06b5","system_id":"levelo_inurba_marseille","lat":43.28611,"lon":5.37063,"is_reserved":false,"is_disabled":false,"rental_uris":{"android":"levelo://app?vid=45e0ccec-0b59-489c-81b6-b81e941b06b5","ios":"levelo://app?vid=45e0ccec-0b59-489c-81b6-b81e941b06b5"},"vehicle_type_id":"4","last_reported":1741014584,"current_range_meters":18800,"station_id":"ce4bht12rcd13ifvqi60","pricing_plan_id":"cebpf4jnsgd1na2vs0mg"},{"bike_id":"eba754a0-2641-4f75-8880-ea27667b20b5","system_id":"levelo_inurba_marseille","lat":43.30144,"lon":5.37434,"is_reserved":false,"is_disabled":false,"rental_uris":{"android":"levelo://app?vid=eba754a0-2641-4f75-8880-ea27667b20b5","ios":"levelo://app?vid=eba754a0-2641-4f75-8880-ea27667b20b5"},"vehicle_type_id":"4","last_reported":1741014584,"current_range_meters":18800,"station_id":"ce4bgs92rcd13ifvqcc0","pricing_plan_id":"cebpf4jnsgd1na2vs0mg"},{"bike_id":"ba45a44e-0c92-45bd-9af5-d7cc33e5ee33","system_id":"levelo_inurba_marseille","lat":43.31472,"lon":5.41329,"is_reserved":false,"is_disabled":false,"rental_uris":{"android":"levelo://app?vid=ba45a44e-0c92-45bd-9af5-d7cc33e5ee33","ios":"levelo://app?vid=ba45a44e-0c92-45bd-9af5-d7cc33e5ee33"},"vehicle_type_id":"4","last_reported":1741014584,"current_range_meters":18800,"station_id":"","pricing_plan_id":"cebpf4jnsgd1na2vs0mg"},{"bike_id":"d1ee12b9-92c2-4a0b-b2a8-8fc4862b773c","system_id":"levelo_inurba_marseille","lat":43.27054,"lon":5.40301,"is_reserved":false,"is_disabled":false,"rental_uris":{"android":"levelo://app?vid=d1ee12b9-92c2-4a0b-b2a8-8fc4862b773c","ios":"levelo://app?vid=d1ee12b9-92c2-4a0b-b2a8-8fc4862b773c"},"vehicle_type_id":"4","last_reported":1741014584,"current_range_meters":19200,"station_id":"ce4bhk92rcd13ifvqgc0","pricing_plan_id":"cebpf4jnsgd1na2vs0mg"},{"bike_id":"47ca7176-dcba-4b9e-8dbb-e2bb239319ab","system_id":"levelo_inurba_marseille","lat":43.31431,"lon":5.38532,"is_reserved":false,"is_disabled":false,"rental_uris":{"android":"levelo://app?vid=47ca7176-dcba-4b9e-8dbb-e2bb239319ab","ios":"levelo://app?vid=47ca7176-dcba-4b9e-8dbb-e2bb239319ab"},"vehicle_type_id":"4","last_reported":1741014584,"current_range_meters":19200,"station_id":"","pricing_plan_id":"cebpf4jnsgd1na2vs0mg"},{"bike_id":"915efbcf-7199-4ec4-9e40-3fee85af0061","system_id":"levelo_inurba_marseille","lat":43.28415,"lon":5.34982,"is_reserved":false,"is_disabled":false,"rental_uris":{"android":"levelo://app?vid=915efbcf-7199-4ec4-9e40-3fee85af0061","ios":"levelo://app?vid=915efbcf-7199-4ec4-9e40-3fee85af0061"},"vehicle_type_id":"4","last_reported":1741014584,"current_range_meters":19200,"station_id":"ce4bhbh2rcd13ifvqepg","pricing_plan_id":"cebpf4jnsgd1na2vs0mg"},{"bike_id":"e6ce3260-6e42-4334-a434-b7f25aa0a5bb","system_id":"levelo_inurba_marseille","lat":43.31329,"lon":5.39701,"is_reserved":false,"is_disabled":true,"rental_uris":{"android":"levelo://app?vid=e6ce3260-6e42-4334-a434-b7f25aa0a5bb","ios":"levelo://app?vid=e6ce3260-6e42-4334-a434-b7f25aa0a5bb"},"vehicle_type_id":"4","last_reported":1741014584,"current_range_meters":19200,"station_id":"ce4bgvp2rcd13ifvqcu0","pricing_plan_id":"cebpf4jnsgd1na2vs0mg"},{"bike_id":"ad7589b6-0b39-46d5-aaf3-38c491869104","system_id":"levelo_inurba_marseille","lat":43.29002,"lon":5.35618,"is_reserved":false,"is_disabled":false,"rental_uris":{"android":"levelo://app?vid=ad7589b6-0b39-46d5-aaf3-38c491869104","ios":"levelo://app?vid=ad7589b6-0b39-46d5-aaf3-38c491869104"},"vehicle_type_id":"4","last_reported":1741014584,"current_range_meters":19200,"station_id":"ce4bhb92rcd13ifvqen0","pricing_plan_id":"cebpf4jnsgd1na2vs0mg"},{"bike_id":"b56e38d9-6464-43db-aba0-576f488f7563","system_id":"levelo_inurba_marseille","lat":43.27483,"lon":5.42474,"is_reserved":false,"is_disabled":false,"rental_uris":{"android":"levelo://app?vid=b56e38d9-6464-43db-aba0-576f488f7563","ios":"levelo://app?vid=b56e38d9-6464-43db-aba0-576f488f7563"},"vehicle_type_id":"4","last_reported":1741014584,"current_range_meters":19200,"station_id":"ce4bhn92rcd13ifvqgrg","pricing_plan_id":"cebpf4jnsgd1na2vs0mg"},{"bike_id":"bf896cc0-5f0b-42d0-a854-5093dcbb2ce9","system_id":"levelo_inurba_marseille","lat":43.28103,"lon":5.37836,"is_reserved":false,"is_disabled":false,"rental_uris":{"android":"levelo://app?vid=bf896cc0-5f0b-42d0-a854-5093dcbb2ce9","ios":"levelo://app?vid=bf896cc0-5f0b-42d0-a854-5093dcbb2ce9"},"vehicle_type_id":"4","last_reported":1741014584,"current_range_meters":18800,"station_id":"ce4bha12rcd13ifvqee0","pricing_plan_id":"cebpf4jnsgd1na2vs0mg"},{"bike_id":"f238de27-3e30-407f-bb3b-d038fed64c5e","system_id":"levelo_inurba_marseille","lat":43.30635,"lon":5.40098,"is_reserved":false,"is_disabled":false,"rental_uris":{"android":"levelo://app?vid=f238de27-3e30-407f-bb3b-d038fed64c5e","ios":"levelo://app?vid=f238de27-3e30-407f-bb3b-d038fed64c5e"},"vehicle_type_id":"4","last_reported":1741014584,"current_range_meters":19200,"station_id":"ce4bh112rcd13ifvqda0","pricing_plan_id":"cebpf4jnsgd1na2vs0mg"},{"bike_id":"d3ea36ae-f494-4ffd-ab84-2544fb79e1c8","system_id":"levelo_inurba_marseille","lat":43.29627,"lon":5.40599,"is_reserved":false,"is_disabled":false,"rental_uris":{"android":"levelo://app?vid=d3ea36ae-f494-4ffd-ab84-2544fb79e1c8","ios":"levelo://app?vid=d3ea36ae-f494-4ffd-ab84-2544fb79e1c8"},"vehicle_type_id":"4","last_reported":1741014584,"current_range_meters":19200,"station_id":"ce4bh0h2rcd13ifvqd60","pricing_plan_id":"cebpf4jnsgd1na2vs0mg"},{"bike_id":"0398969e-2ea9-4de4-bb47-6b28e777afb2","system_id":"levelo_inurba_marseille","lat":43.26561,"lon":5.38997,"is_reserved":false,"is_disabled":false,"rental_uris":{"android":"levelo://app?vid=0398969e-2ea9-4de4-bb47-6b28e777afb2","ios":"levelo://app?vid=0398969e-2ea9-4de4-bb47-6b28e777afb2"},"vehicle_type_id":"4","last_reported":1741014584,"current_range_meters":19200,"station_id":"ce4bhe12rcd13ifvqf30","pricing_plan_id":"cebpf4jnsgd1na2vs0mg"},{"bike_id":"4f22ed03-3f01-49f0-87ec-77cf8c324e7e","system_id":"levelo_inurba_marseille","lat":43.31,"lon":5.38447,"is_reserved":false,"is_disabled":false,"rental_uris":{"android":"levelo://app?vid=4f22ed03-3f01-49f0-87ec-77cf8c324e7e","ios":"levelo://app?vid=4f22ed03-3f01-49f0-87ec-77cf8c324e7e"},"vehicle_type_id":"4","last_reported":1741014584,"current_range_meters":19600,"station_id":"","pricing_plan_id":"cebpf4jnsgd1na2vs0mg"},{"bike_id":"063bc073-22d2-4cd4-a24d-b86cb315323e","system_id":"levelo_inurba_marseille","lat":43.29531,"lon":5.38543,"is_reserved":false,"is_disabled":false,"rental_uris":{"android":"levelo://app?vid=063bc073-22d2-4cd4-a24d-b86cb315323e","ios":"levelo://app?vid=063bc073-22d2-4cd4-a24d-b86cb315323e"},"vehicle_type_id":"4","last_reported":1741014584,"current_range_meters":19600,"station_id":"ce4bgih2rcd13ifvqba0","pricing_plan_id":"cebpf4jnsgd1na2vs0mg"},{"bike_id":"627de5ad-a350-42a7-8eae-2dbdf6455eba","system_id":"levelo_inurba_marseille","lat":43.30143,"lon":5.37408,"is_reserved":false,"is_disabled":false,"rental_uris":{"android":"levelo://app?vid=627de5ad-a350-42a7-8eae-2dbdf6455eba","ios":"levelo://app?vid=627de5ad-a350-42a7-8eae-2dbdf6455eba"},"vehicle_type_id":"4","last_reported":1741014584,"current_range_meters":19600,"station_id":"ce4bgs92rcd13ifvqcc0","pricing_plan_id":"cebpf4jnsgd1na2vs0mg"},{"bike_id":"7cd5e07c-ad2a-4af8-99d9-77c41335ce79","system_id":"levelo_inurba_marseille","lat":43.24169,"lon":5.36393,"is_reserved":false,"is_disabled":false,"rental_uris":{"android":"levelo://app?vid=7cd5e07c-ad2a-4af8-99d9-77c41335ce79","ios":"levelo://app?vid=7cd5e07c-ad2a-4af8-99d9-77c41335ce79"},"vehicle_type_id":"4","last_reported":1741014584,"current_range_meters":19600,"station_id":"cpo36qri1sfpv3e86is0","pricing_plan_id":"cebpf4jnsgd1na2vs0mg"},{"bike_id":"1b961fca-ba90-4c6d-b36e-722773178719","system_id":"levelo_inurba_marseille","lat":43.26702,"lon":5.38265,"is_reserved":false,"is_disabled":false,"rental_uris":{"android":"levelo://app?vid=1b961fca-ba90-4c6d-b36e-722773178719","ios":"levelo://app?vid=1b961fca-ba90-4c6d-b36e-722773178719"},"vehicle_type_id":"4","last_reported":1741014584,"current_range_meters":19600,"station_id":"ce4bhg92rcd13ifvqf90","pricing_plan_id":"cebpf4jnsgd1na2vs0mg"},{"bike_id":"09650e42-7df5-4ad5-a776-bb267debeea1","system_id":"levelo_inurba_marseille","lat":43.30545,"lon":5.36545,"is_reserved":false,"is_disabled":false,"rental_uris":{"android":"levelo://app?vid=09650e42-7df5-4ad5-a776-bb267debeea1","ios":"levelo://app?vid=09650e42-7df5-4ad5-a776-bb267debeea1"},"vehicle_type_id":"4","last_reported":1741014584,"current_range_meters":19600,"station_id":"ce4bgs12rcd13ifvqcag","pricing_plan_id":"cebpf4jnsgd1na2vs0mg"},{"bike_id":"2e70cc00-93d2-40fd-a88c-b83f98d83cdd","system_id":"levelo_inurba_marseille","lat":43.25957,"lon":5.40881,"is_reserved":false,"is_disabled":false,"rental_uris":{"android":"levelo://app?vid=2e70cc00-93d2-40fd-a88c-b83f98d83cdd","ios":"levelo://app?vid=2e70cc00-93d2-40fd-a88c-b83f98d83cdd"},"vehicle_type_id":"4","last_reported":1741014584,"current_range_meters":19600,"station_id":"ce4bhm92rcd13ifvqglg","pricing_plan_id":"cebpf4jnsgd1na2vs0mg"},{"bike_id":"4a23e3e1-7440-4395-b398-75d54a767cee","system_id":"levelo_inurba_marseille","lat":43.29616,"lon":5.37727,"is_reserved":false,"is_disabled":false,"rental_uris":{"android":"levelo://app?vid=4a23e3e1-7440-4395-b398-75d54a767cee","ios":"levelo://app?vid=4a23e3e1-7440-4395-b398-75d54a767cee"},"vehicle_type_id":"4","last_reported":1741014584,"current_range_meters":19600,"station_id":"ce4bgi92rcd13ifvqb90","pricing_plan_id":"cebpf4jnsgd1na2vs0mg"},{"bike_id":"4c829075-9c8e-4529-933b-ca0c248618e7","system_id":"levelo_inurba_marseille","lat":43.240793,"lon":5.377454,"is_reserved":false,"is_disabled":false,"rental_uris":{"android":"levelo://app?vid=4c829075-9c8e-4529-933b-ca0c248618e7","ios":"levelo://app?vid=4c829075-9c8e-4529-933b-ca0c248618e7"},"vehicle_type_id":"4","last_reported":1741014584,"current_range_meters":19600,"station_id":"ce4bhnp2rcd13ifvqgvg","pricing_plan_id":"cebpf4jnsgd1na2vs0mg"},{"bike_id":"a2b9d686-216a-4f50-ae4b-e7710a444cd6","system_id":"levelo_inurba_marseille","lat":43.2502,"lon":5.38912,"is_reserved":false,"is_disabled":false,"rental_uris":{"android":"levelo://app?vid=a2b9d686-216a-4f50-ae4b-e7710a444cd6","ios":"levelo://app?vid=a2b9d686-216a-4f50-ae4b-e7710a444cd6"},"vehicle_type_id":"4","last_reported":1741014584,"current_range_meters":19600,"station_id":"ce4bhgp2rcd13ifvqfd0","pricing_plan_id":"cebpf4jnsgd1na2vs0mg"},{"bike_id":"01e7159a-7714-4e28-93b7-c6f28683ccf6","system_id":"levelo_inurba_marseille","lat":43.33006,"lon":5.39169,"is_reserved":false,"is_disabled":false,"rental_uris":{"android":"levelo://app?vid=01e7159a-7714-4e28-93b7-c6f28683ccf6","ios":"levelo://app?vid=01e7159a-7714-4e28-93b7-c6f28683ccf6"},"vehicle_type_id":"4","last_reported":1741014584,"current_range_meters":20000,"station_id":"","pricing_plan_id":"cebpf4jnsgd1na2vs0mg"},{"bike_id":"18eabf67-f40e-4f22-9baa-0c94d620568b","system_id":"levelo_inurba_marseille","lat":43.29777,"lon":5.38106,"is_reserved":false,"is_disabled":false,"rental_uris":{"android":"levelo://app?vid=18eabf67-f40e-4f22-9baa-0c94d620568b","ios":"levelo://app?vid=18eabf67-f40e-4f22-9baa-0c94d620568b"},"vehicle_type_id":"4","last_reported":1741014584,"current_range_meters":20000,"station_id":"ce4bgip2rcd13ifvqbb0","pricing_plan_id":"cebpf4jnsgd1na2vs0mg"},{"bike_id":"6f16a9fc-9931-41a1-a80e-de22bef0e0b1","system_id":"levelo_inurba_marseille","lat":43.29539,"lon":5.38553,"is_reserved":false,"is_disabled":false,"rental_uris":{"android":"levelo://app?vid=6f16a9fc-9931-41a1-a80e-de22bef0e0b1","ios":"levelo://app?vid=6f16a9fc-9931-41a1-a80e-de22bef0e0b1"},"vehicle_type_id":"4","last_reported":1741014584,"current_range_meters":20000,"station_id":"ce4bgih2rcd13ifvqba0","pricing_plan_id":"cebpf4jnsgd1na2vs0mg"},{"bike_id":"a6dbafc9-d10a-4177-9036-d884e77ccffc","system_id":"levelo_inurba_marseille","lat":43.28275,"lon":5.35068,"is_reserved":false,"is_disabled":false,"rental_uris":{"android":"levelo://app?vid=a6dbafc9-d10a-4177-9036-d884e77ccffc","ios":"levelo://app?vid=a6dbafc9-d10a-4177-9036-d884e77ccffc"},"vehicle_type_id":"4","last_reported":1741014584,"current_range_meters":20000,"station_id":"ce4bhbp2rcd13ifvqerg","pricing_plan_id":"cebpf4jnsgd1na2vs0mg"},{"bike_id":"3b875d1e-5445-4af2-b7b2-286b39e040a8","system_id":"levelo_inurba_marseille","lat":43.32486,"lon":5.36578,"is_reserved":false,"is_disabled":false,"rental_uris":{"android":"levelo://app?vid=3b875d1e-5445-4af2-b7b2-286b39e040a8","ios":"levelo://app?vid=3b875d1e-5445-4af2-b7b2-286b39e040a8"},"vehicle_type_id":"4","last_reported":1741014584,"current_range_meters":20000,"station_id":"ce4bhs12rcd13ifvqhvg","pricing_plan_id":"cebpf4jnsgd1na2vs0mg"},