{"last_updated":1744128768,"ttl":60,"version":"2.2","data":{"bikes":[{"bike_id":"97314d50-c7db-465e-b84f-667d0ce0dff3","system_id":"levelo_inurba_marseille","lat":43.29876,"lon":5.38894,"is_reserved":false,"is_disabled":false,"rental_uris":{"android":"levelo://app?vid=97314d50-c7db-465e-b84f-667d0ce0dff3","ios":"levelo://app?vid=97314d50-c7db-465e-b84f-667d0ce0dff3"},"vehicle_type_id":"4","last_reported":1744128768,"current_range_meters":2800,"station_id":"ce4bh392rcd13ifvqdl0","pricing_plan_id":"cebpf4jnsgd1na2vs0mg"},{"bike_id":"d8d4ec16-7066-42e1-b61b-92b13b08b287","system_id":"levelo_inurba_marseille","lat":43.24649,"lon":5.38883,"is_reserved":false,"is_disabled":false,"rental_uris":{"android":"levelo://app?vid=d8d4ec16-7066-42e1-b61b-92b13b08b287","ios":"levelo://app?vid=d8d4ec16-7066-42e1-b61b-92b13b08b287"},"vehicle_type_id":"4","last_reported":1744128768,"current_range_meters":2800,"station_id":"ce4bhg12rcd13ifvqf60","pricing_plan_id":"cebpf4jnsgd1na2vs0mg"},{"bike_id":"60d303c0-8e57-416a-969b-a371fda2d189","system_id":"levelo_inurba_marseille","lat":43.26573,"lon":5.39029,"is_reserved":false,"is_disabled":false,"rental_uris":{"android":"levelo://app?vid=60d303c0-8e57-416a-969b-a371fda2d189","ios":"levelo://app?vid=60d303c0-8e57-416a-969b-a371fda2d189"},"vehicle_type_id":"4","last_reported":1744128768,"current_range_meters":2800,"station_id":"ce4bhe12rcd13ifvqf30","pricing_plan_id":"cebpf4jnsgd1na2vs0mg"},{"bike_id":"0198757a-c515-40b8-9296-0798d93c572a","system_id":"levelo_inurba_marseille","lat":43.27067,"lon":5.42267,"is_reserved":false,"is_disabled":false,"rental_uris":{"android":"levelo://app?vid=0198757a-c515-40b8-9296-0798d93c572a","ios":"levelo://app?vid=0198757a-c515-40b8-9296-0798d93c572a"},"vehicle_type_id":"4","last_reported":1744128768,"current_range_meters":2800,"station_id":"ce4bhk92rcd13ifvqgb0","pricing_plan_id":"cebpf4jnsgd1na2vs0mg"},{"bike_id":"020572ba-a5aa-440a-b36f-c17175204926","system_id":"levelo_inurba_marseille","lat":43.29531,"lon":5.38547,"is_reserved":false,"is_disabled":false,"rental_uris":{"android":"levelo://app?vid=020572ba-a5aa-440a-b36f-c17175204926","ios":"levelo://app?vid=020572ba-a5aa-440a-b36f-c17175204926"},"vehicle_type_id":"4","last_reported":1744128768,"current_range_meters":2800,"station_id":"ce4bgih2rcd13ifvqba0","pricing_plan_id":"cebpf4jnsgd1na2vs0mg"},{"bike_id":"89dca0c6-da32-4ed6-900a-32699f33ce16","system_id":"levelo_inurba_marseille","lat":43.29023,"lon":5.38126,"is_reserved":false,"is_disabled":false,"rental_uris":{"android":"levelo://app?vid=89dca0c6-da32-4ed6-900a-32699f33ce16","ios":"levelo://app?vid=89dca0c6-da32-4ed6-900a-32699f33ce16"},"vehicle_type_id":"4","last_reported":1744128768,"current_range_meters":2800,"station_id":"ce4bh4p2rcd13ifvqe1g","pricing_plan_id":"cebpf4jnsgd1na2vs0mg"},{"bike_id":"033715ca-9076-4202-bf22-725e69b7b6ca","system_id":"levelo_inurba_marseille","lat":43.28441,"lon":5.39204,"is_reserved":false,"is_disabled":false,"rental_uris":{"android":"levelo://app?vid=033715ca-9076-4202-bf22-725e69b7b6ca","ios":"levelo://app?vid=033715ca-9076-4202-bf22-725e69b7b6ca"},"vehicle_type_id":"4","last_reported":1744128768,"current_range_meters":2800,"station_id":"ce4bhoh2rcd13ifvqh5g","pricing_plan_id":"cebpf4jnsgd1na2vs0mg"},{"bike_id":"ed99f174-aa6d-47a2-beb3-7166774f8eca","system_id":"levelo_inurba_marseille","lat":43.33023,"lon":5.39037,"is_reserved":false,"is_disabled":false,"rental_uris":{"android":"levelo://app?vid=ed99f174-aa6d-47a2-beb3-7166774f8eca","ios":"levelo://app?vid=ed99f174-aa6d-47a2-beb3-7166774f8eca"},"vehicle_type_id":"4","last_reported":1744128768,"current_range_meters":3200,"station_id":"ce4bhr92rcd13ifvqhrg","pricing_plan_id":"cebpf4jnsgd1na2vs0mg"},{"bike_id":"03f52eee-e526-40e8-82e2-69d4f0429a5a","system_id":"levelo_inurba_marseille","lat":43.29006,"lon":5.3559,"is_reserved":false,"is_disabled":false,"rental_uris":{"android":"levelo://app?vid=03f52eee-e526-40e8-82e2-69d4f0429a5a","ios":"levelo://app?vid=03f52eee-e526-40e8-82e2-69d4f0429a5a"},"vehicle_type_id":"4","last_reported":1744128768,"current_range_meters":3200,"station_id":"ce4bhb92rcd13ifvqen0","pricing_plan_id":"cebpf4jnsgd1na2vs0mg"},{"bike_id":"1a2ec308-1c65-4396-bd1e-c430143e383b","system_id":"levelo_inurba_marseille","lat":43.28721,"lon":5.36094,"is_reserved":false,"is_disabled":false,"rental_uris":{"android":"levelo://app?vid=1a2ec308-1c65-4396-bd1e-c430143e383b","ios":"levelo://app?vid=1a2ec308-1c65-4396-bd1e-c430143e383b"},"vehicle_type_id":"4","last_reported":1744128768,"current_range_meters":3200,"station_id":"cki0cbj6b192h4jlfktg","pricing_plan_id":"cebpf4jnsgd1na2vs0mg"},{"bike_id":"d3045b13-ea31-46e1-9d34-d6ac8eb2daa2","system_id":"levelo_inurba_marseille","lat":43.27374,"lon":5.362553,"is_reserved":false,"is_disabled":true,"rental_uris":{"android":"levelo://app?vid=d3045b13-ea31-46e1-9d34-d6ac8eb2daa2","ios":"levelo://app?vid=d3045b13-ea31-46e1-9d34-d6ac8eb2daa2"},"vehicle_type_id":"4","last_reported":1744128768,"current_range_meters":3200,"station_id":"ce4bhbh2rcd13ifvqeo0","pricing_plan_id":"cebpf4jnsgd1na2vs0mg"},{"bike_id":"a959694d-18ce-4d80-917f-23c91ed81065","system_id":"levelo_inurba_marseille","lat":43.29902,"lon":5.43665,"is_reserved":false,"is_disabled":true,"rental_uris":{"android":"levelo://app?vid=a959694d-18ce-4d80-917f-23c91ed81065","ios":"levelo://app?vid=a959694d-18ce-4d80-917f-23c91ed81065"},"vehicle_type_id":"4","last_reported":1744128768,"current_range_meters":3200,"station_id":"ce4bhpp2rcd13ifvqhfg","pricing_plan_id":"cebpf4jnsgd1na2vs0mg"},{"bike_id":"5515bc54-413e-4d32-9ec0-e6b9e8382c0f","system_id":"levelo_inurba_marseille","lat":43.28478,"lon":5.38405,"is_reserved":false,"is_disabled":false,"rental_uris":{"android":"levelo://app?vid=5515bc54-413e-4d32-9ec0-e6b9e8382c0f","ios":"levelo://app?vid=5515bc54-413e-4d32-9ec0-e6b9e8382c0f"},"vehicle_type_id":"4","last_reported":1744128768,"current_range_meters":3200,"station_id":"ce4bh512rcd13ifvqe3g","pricing_plan_id":"cebpf4jnsgd1na2vs0mg"},{"bike_id":"cf1d17b2-fbed-4d58-9a3c-93234bbda787","system_id":"levelo_inurba_marseille","lat":43.28612,"lon":5.35104,"is_reserved":false,"is_disabled":false,"rental_uris":{"android":"levelo://app?vid=cf1d17b2-fbed-4d58-9a3c-93234bbda787","ios":"levelo://app?vid=cf1d17b2-fbed-4d58-9a3c-93234bbda787"},"vehicle_type_id":"4","last_reported":1744128768,"current_range_meters":3600,"station_id":"ce4bhch2rcd13ifvqeug","pricing_plan_id":"cebpf4jnsgd1na2vs0mg"},{"bike_id":"2f99d42d-d568-42e8-9451-7fb3724f17a2","system_id":"levelo_inurba_marseille","lat":43.26677,"lon":5.38271,"is_reserved":false,"is_disabled":false,"rental_uris":{"android":"levelo://app?vid=2f99d42d-d568-42e8-9451-7fb3724f17a2","ios":"levelo://app?vid=2f99d42d-d568-42e8-9451-7fb3724f17a2"},"vehicle_type_id":"4","last_reported":1744128768,"current_range_meters":3600,"station_id":"ce4bhg92rcd13ifvqf90","pricing_plan_id":"cebpf4jnsgd1na2vs0mg"},{"bike_id":"c88d20db-8061-400b-b257-7cec34d869f5","system_id":"levelo_inurba_marseille","lat":43.31318,"lon":5.39713,"is_reserved":false,"is_disabled":true,"rental_uris":{"android":"levelo://app?vid=c88d20db-8061-400b-b257-7cec34d869f5","ios":"levelo://app?vid=c88d20db-8061-400b-b257-7cec34d869f5"},"vehicle_type_id":"4","last_reported":1744128768,"current_range_meters":4000,"station_id":"ce4bgvp2rcd13ifvqcu0","pricing_plan_id":"cebpf4jnsgd1na2vs0mg"},{"bike_id":"b1c72100-d76d-47c6-ad30-91962fd7e911","system_id":"levelo_inurba_marseille","lat":43.23188,"lon":5.39985,"is_reserved":false,"is_disabled":false,"rental_uris":{"android":"levelo://app?vid=b1c72100-d76d-47c6-ad30-91962fd7e911","ios":"levelo://app?vid=b1c72100-d76d-47c6-ad30-91962fd7e911"},"vehicle_type_id":"4","last_reported":1744128768,"current_range_meters":4000,"station_id":"ce4bhn12rcd13ifvqgqg","pricing_plan_id":"cebpf4jnsgd1na2vs0mg"},{"bike_id":"fd58b7ae-85f3-48a5-b1c5-73bfa4ff75cc","system_id":"levelo_inurba_marseille","lat":43.30311,"lon":5.3688,"is_reserved":false,"is_disabled":false,"rental_uris":{"android":"levelo://app?vid=fd58b7ae-85f3-48a5-b1c5-73bfa4ff75cc","ios":"levelo://app?vid=fd58b7ae-85f3-48a5-b1c5-73bfa4ff75cc"},"vehicle_type_id":"4","last_reported":1744128768,"current_range_meters":4000,"station_id":"ce4bgqh2rcd13ifvqc5g","pricing_plan_id":"cebpf4jnsgd1na2vs0mg"},{"bike_id":"aeb52dd4-b070-41b1-8388-03aa8fd4059e","system_id":"levelo_inurba_marseille","lat":43.29297,"lon":5.37454,"is_reserved":false,"is_disabled":false,"rental_uris":{"android":"levelo://app?vid=aeb52dd4-b070-41b1-8388-03aa8fd4059e","ios":"levelo://app?vid=aeb52dd4-b070-41b1-8388-03aa8fd4059e"},"vehicle_type_id":"4","last_reported":1744128768,"current_range_meters":4000,"station_id":"ce4bgi12rcd13ifvqb70","pricing_plan_id":"cebpf4jnsgd1na2vs0mg"},{"bike_id":"9ca3e7a0-b048-42ce-982a-cd9e4812540b","system_id":"levelo_inurba_marseille","lat":43.30134,"lon":5.3809,"is_reserved":false,"is_disabled":false,"rental_uris":{"android":"levelo://app?vid=9ca3e7a0-b048-42ce-982a-cd9e4812540b","ios":"levelo://app?vid=9ca3e7a0-b048-42ce-982a-cd9e4812540b"},"vehicle_type_id":"4","last_reported":1744128768,"current_range_meters":4000,"station_id":"ce4bgjp2rcd13ifvqbh0","pricing_plan_id":"cebpf4jnsgd1na2vs0mg"},{"bike_id":"14beac6a-b60c-44ce-b661-1aafeddb42ec","system_id":"levelo_inurba_marseille","lat":43.274914,"lon":5.424519,"is_reserved":false,"is_disabled":false,"rental_uris":{"android":"levelo://app?vid=14beac6a-b60c-44ce-b661-1aafeddb42ec","ios":"levelo://app?vid=14beac6a-b60c-44ce-b661-1aafeddb42ec"},"vehicle_type_id":"4","last_reported":1744128768,"current_range_meters":4000,"station_id":"ce4bhn92rcd13ifvqgrg","pricing_plan_id":"cebpf4jnsgd1na2vs0mg"},{"bike_id":"3fd79a58-daef-4157-979b-75beb21f7957","system_id":"levelo_inurba_marseille","lat":43.29274,"lon":5.36855,"is_reserved":false,"is_disabled":false,"rental_uris":{"android":"levelo://app?vid=3fd79a58-daef-4157-979b-75beb21f7957","ios":"levelo://app?vid=3fd79a58-daef-4157-979b-75beb21f7957"},"vehicle_type_id":"4","last_reported":1744128768,"current_range_meters":4400,"station_id":"ce4bhbp2rcd13ifvqesg","pricing_plan_id":"cebpf4jnsgd1na2vs0mg"},{"bike_id":"13a9cf59-2593-441f-80d0-15439641e26d","system_id":"levelo_inurba_marseille","lat":43.27429,"lon":5.39415,"is_reserved":false,"is_disabled":false,"rental_uris":{"android":"levelo://app?vid=13a9cf59-2593-441f-80d0-15439641e26d","ios":"levelo://app?vid=13a9cf59-2593-441f-80d0-15439641e26d"},"vehicle_type_id":"4","last_reported":1744128768,"current_range_meters":4400,"station_id":"ce4bhdp2rcd13ifvqf20","pricing_plan_id":"cebpf4jnsgd1na2vs0mg"},{"bike_id":"5b79fd17-71c7-46ba-a08e-72b15d99e820","system_id":"levelo_inurba_marseille","lat":43.22505,"lon":5.34783,"is_reserved":false,"is_disabled":true,"rental_uris":{"android":"levelo://app?vid=5b79fd17-71c7-46ba-a08e-72b15d99e820","ios":"levelo://app?vid=5b79fd17-71c7-46ba-a08e-72b15d99e820"},"vehicle_type_id":"4","last_reported":1744128768,"current_range_meters":4400,"station_id":"st_cvj5dfep6f1abm77gieg","pricing_plan_id":"cebpf4jnsgd1na2vs0mg"},{"bike_id":"b95f3cd3-0a5b-40e0-b06e-939996ffefa6","system_id":"levelo_inurba_marseille","lat":43.278122,"lon":5.407205,"is_reserved":false,"is_disabled":true,"rental_uris":{"android":"levelo://app?vid=b95f3cd3-0a5b-40e0-b06e-939996ffefa6","ios":"levelo://app?vid=b95f3cd3-0a5b-40e0-b06e-939996ffefa6"},"vehicle_type_id":"4","last_reported":1744128768,"current_range_meters":4400,"station_id":"ce4bhnh2rcd13ifvqgtg","pricing_plan_id":"cebpf4jnsgd1na2vs0mg"},{"bike_id":"50838ff1-e221-49e3-8a9c-61b9a43536ee","system_id":"levelo_inurba_marseille","lat":43.29865,"lon":5.38911,"is_reserved":false,"is_disabled":false,"rental_uris":{"android":"levelo://app?vid=50838ff1-e221-49e3-8a9c-61b9a43536ee","ios":"levelo://app?vid=50838ff1-e221-49e3-8a9c-61b9a43536ee"},"vehicle_type_id":"4","last_reported":1744128768,"current_range_meters":4400,"station_id":"ce4bh392rcd13ifvqdl0","pricing_plan_id":"cebpf4jnsgd1na2vs0mg"},{"bike_id":"fe5b1333-7bd9-47e1-b21a-d7a25449069c","system_id":"levelo_inurba_marseille","lat":43.29205,"lon":5.35797,"is_reserved":false,"is_disabled":false,"rental_uris":{"android":"levelo://app?vid=fe5b1333-7bd9-47e1-b21a-d7a25449069c","ios":"levelo://app?vid=fe5b1333-7bd9-47e1-b21a-d7a25449069c"},"vehicle_type_id":"4","last_reported":1744128768,"current_range_meters":4800,"station_id":"ce4bhb12rcd13ifvqel0","pricing_plan_id":"cebpf4jnsgd1na2vs0mg"},{"bike_id":"c4041f44-cb3a-4d4e-bb77-b159966d53ee","system_id":"levelo_inurba_marseille","lat":43.28667,"lon":5.36352,"is_reserved":false,"is_disabled":false,"rental_uris":{"android":"levelo://app?vid=c4041f44-cb3a-4d4e-bb77-b159966d53ee","ios":"levelo://app?vid=c4041f44-cb3a-4d4e-bb77-b159966d53ee"},"vehicle_type_id":"4","last_reported":1744128768,"current_range_meters":4800,"station_id":"ce4bhah2rcd13ifvqej0","pricing_plan_id":"cebpf4jnsgd1na2vs0mg"},{"bike_id":"1e03a877-1c71-458d-ad9a-0c61fb361bdf","system_id":"levelo_inurba_marseille","lat":43.29622,"lon":5.37738,"is_reserved":false,"is_disabled":false,"rental_uris":{"android":"levelo://app?vid=1e03a877-1c71-458d-ad9a-0c61fb361bdf","ios":"levelo://app?vid=1e03a877-1c71-458d-ad9a-0c61fb361bdf"},"vehicle_type_id":"4","last_reported":1744128768,"current_range_meters":4800,"station_id":"ce4bgi92rcd13ifvqb90","pricing_plan_id":"cebpf4jnsgd1na2vs0mg"},{"bike_id":"f218191b-e628-4117-b40f-b6687bdeb9bc","system_id":"levelo_inurba_marseille","lat":43.28855,"lon":5.3586,"is_reserved":false,"is_disabled":false,"rental_uris":{"android":"levelo://app?vid=f218191b-e628-4117-b40f-b6687bdeb9bc","ios":"levelo://app?vid=f218191b-e628-4117-b40f-b6687bdeb9bc"},"vehicle_type_id":"4","last_reported":1744128768,"current_range_meters":4800,"station_id":"ce4bhb12rcd13ifvqem0","pricing_plan_id":"cebpf4jnsgd1na2vs0mg"},{"bike_id":"badc7e59-6ed6-49a9-9e06-638c17d2efac","system_id":"levelo_inurba_marseille","lat":43.26567,"lon":5.39012,"is_reserved":false,"is_disabled":false,"rental_uris":{"android":"levelo://app?vid=badc7e59-6ed6-49a9-9e06-638c17d2efac","ios":"levelo://app?vid=badc7e59-6ed6-49a9-9e06-638c17d2efac"},"vehicle_type_id":"4","last_reported":1744128768,"current_range_meters":5600,"station_id":"ce4bhe12rcd13ifvqf30","pricing_plan_id":"cebpf4jnsgd1na2vs0mg"},{"bike_id":"dc940442-68e0-461e-87dd-f1b50db1b4cb","system_id":"levelo_inurba_marseille","lat":43.29797,"lon":5.40391,"is_reserved":false,"is_disabled":false,"rental_uris":{"android":"levelo://app?vid=dc940442-68e0-461e-87dd-f1b50db1b4cb","ios":"levelo://app?vid=dc940442-68e0-461e-87dd-f1b50db1b4cb"},"vehicle_type_id":"4","last_reported":1744128768,"current_range_meters":5600,"station_id":"ce4bh112rcd13ifvqd90","pricing_plan_id":"cebpf4jnsgd1na2vs0mg"},{"bike_id":"2c358e51-bff9-4546-8292-76faf7ac33be","system_id":"levelo_inurba_marseille","lat":43.27374,"lon":5.36254,"is_reserved":false,"is_disabled":false,"rental_uris":{"android":"levelo://app?vid=2c358e51-bff9-4546-8292-76faf7ac33be","ios":"levelo://app?vid=2c358e51-bff9-4546-8292-76faf7ac33be"},"vehicle_type_id":"4","last_reported":1744128768,"current_range_meters":5600,"station_id":"ce4bhbh2rcd13ifvqeo0","pricing_plan_id":"cebpf4jnsgd1na2vs0mg"},{"bike_id":"ad7e9527-8495-44e0-a2be-6b4b6f4d1bac","system_id":"levelo_inurba_marseille","lat":43.28727,"lon":5.36087,"is_reserved":false,"is_disabled":false,"rental_uris":{"android":"levelo://app?vid=ad7e9527-8495-44e0-a2be-6b4b6f4d1bac","ios":"levelo://app?vid=ad7e9527-8495-44e0-a2be-6b4b6f4d1bac"},"vehicle_type_id":"4","last_reported":1744128768,"current_range_meters":5600,"station_id":"cki0cbj6b192h4jlfktg","pricing_plan_id":"cebpf4jnsgd1na2vs0mg"},{"bike_id":"c5a5491c-ad9c-41f9-9064-dfc5246b59ce","system_id":"levelo_inurba_marseille","lat":43.28038,"lon":5.36947,"is_reserved":false,"is_disabled":false,"rental_uris":{"android":"levelo://app?vid=c5a5491c-ad9c-41f9-9064-dfc5246b59ce","ios":"levelo://app?vid=c5a5491c-ad9c-41f9-9064-dfc5246b59ce"},"vehicle_type_id":"4","last_reported":1744128768,"current_range_meters":6000,"station_id":"ce4bha12rcd13ifvqef0","pricing_plan_id":"cebpf4jnsgd1na2vs0mg"},{"bike_id":"c894fdd1-8eaf-4ce9-9191-06e205808a4c","system_id":"levelo_inurba_marseille","lat":43.28936,"lon":5.36638,"is_reserved":false,"is_disabled":false,"rental_uris":{"android":"levelo://app?vid=c894fdd1-8eaf-4ce9-9191-06e205808a4c","ios":"levelo://app?vid=c894fdd1-8eaf-4ce9-9191-06e205808a4c"},"vehicle_type_id":"4","last_reported":1744128768,"current_range_meters":6000,"station_id":"ce4bhap2rcd13ifvqek0","pricing_plan_id":"cebpf4jnsgd1na2vs0mg"},{"bike_id":"7819c983-ecd6-4063-a1e3-e79453583a4d","system_id":"levelo_inurba_marseille","lat":43.31723,"lon":5.42404,"is_reserved":false,"is_disabled":false,"rental_uris":{"android":"levelo://app?vid=7819c983-ecd6-4063-a1e3-e79453583a4d","ios":"levelo://app?vid=7819c983-ecd6-4063-a1e3-e79453583a4d"},"vehicle_type_id":"4","last_reported":1744128768,"current_range_meters":6000,"station_id":"ce4bhp92rcd13ifvqhbg","pricing_plan_id":"cebpf4jnsgd1na2vs0mg"},{"bike_id":"87bda883-ac94-49fc-94c2-3a86e52b4f97","system_id":"levelo_inurba_marseille","lat":43.30721,"lon":5.38356,"is_reserved":false,"is_disabled":false,"rental_uris":{"android":"levelo://app?vid=87bda883-ac94-49fc-94c2-3a86e52b4f97","ios":"levelo://app?vid=87bda883-ac94-49fc-94c2-3a86e52b4f97"},"vehicle_type_id":"4","last_reported":1744128768,"current_range_meters":6000,"station_id":"","pricing_plan_id":"cebpf4jnsgd1na2vs0mg"},{"bike_id":"0ac444af-1baa-44fb-9d64-7377959ffe02","system_id":"levelo_inurba_marseille","lat":43.29963,"lon":5.38494,"is_reserved":false,"is_disabled":false,"rental_uris":{"android":"levelo://app?vid=0ac444af-1baa-44fb-9d64-7377959ffe02","ios":"levelo://app?vid=0ac444af-1baa-44fb-9d64-7377959ffe02"},"vehicle_type_id":"4","last_reported":1744128768,"current_range_meters":6400,"station_id":"ce4bgj92rcd13ifvqbd0","pricing_plan_id":"cebpf4jnsgd1na2vs0mg"},{"bike_id":"fe99e046-985a-46b1-851c-b9ef21b28f6c","system_id":"levelo_inurba_marseille","lat":43.27077,"lon":5.42267,"is_reserved":false,"is_disabled":false,"rental_uris":{"android":"levelo://app?vid=fe99e046-985a-46b1-851c-b9ef21b28f6c","ios":"levelo://app?vid=fe99e046-985a-46b1-851c-b9ef21b28f6c"},"vehicle_type_id":"4","last_reported":1744128768,"current_range_meters":6000,"station_id":"ce4bhk92rcd13ifvqgb0","pricing_plan_id":"cebpf4jnsgd1na2vs0mg"},{"bike_id":"513f903a-3646-4465-9254-15d225d940c9","system_id":"levelo_inurba_marseille","lat":43.28664,"lon":5.3635,"is_reserved":false,"is_disabled":false,"rental_uris":{"android":"levelo://app?vid=513f903a-3646-4465-9254-15d225d940c9","ios":"levelo://app?vid=513f903a-3646-4465-9254-15d225d940c9"},"vehicle_type_id":"4","last_reported":1744128768,"current_range_meters":6000,"station_id":"ce4bhah2rcd13ifvqej0","pricing_plan_id":"cebpf4jnsgd1na2vs0mg"},{"bike_id":"cc057f14-b1e1-4dee-b107-8741c01c5964","system_id":"levelo_inurba_marseille","lat":43.321151,"lon":5.367856,"is_reserved":false,"is_disabled":true,"rental_uris":{"android":"levelo://app?vid=cc057f14-b1e1-4dee-b107-8741c01c5964","ios":"levelo://app?vid=cc057f14-b1e1-4dee-b107-8741c01c5964"},"vehicle_type_id":"4","last_reported":1744128768,"current_range_meters":6000,"station_id":"ce4bhrh2rcd13ifvqhug","pricing_plan_id":"cebpf4jnsgd1na2vs0mg"},{"bike_id":"feba1751-97a6-426b-b2dc-b9e064609dc9","system_id":"levelo_inurba_marseille","lat":43.29798,"lon":5.38111,"is_reserved":false,"is_disabled":false,"rental_uris":{"android":"levelo://app?vid=feba1751-97a6-426b-b2dc-b9e064609dc9","ios":"levelo://app?vid=feba1751-97a6-426b-b2dc-b9e064609dc9"},"vehicle_type_id":"4","last_reported":1744128768,"current_range_meters":6000,"station_id":"ce4bgip2rcd13ifvqbb0","pricing_plan_id":"cebpf4jnsgd1na2vs0mg"},{"bike_id":"eca09071-2542-4749-9b90-e88f72291534","system_id":"levelo_inurba_marseille","lat":43.29006,"lon":5.35613,"is_reserved":false,"is_disabled":false,"rental_uris":{"android":"levelo://app?vid=eca09071-2542-4749-9b90-e88f72291534","ios":"levelo://app?vid=eca09071-2542-4749-9b90-e88f72291534"},"vehicle_type_id":"4","last_reported":1744128768,"current_range_meters":6000,"station_id":"ce4bhb92rcd13ifvqen0","pricing_plan_id":"cebpf4jnsgd1na2vs0mg"},{"bike_id":"a3a727c8-796b-491d-b4ee-719c67afda4d","system_id":"levelo_inurba_marseille","lat":43.28079,"lon":5.39659,"is_reserved":false,"is_disabled":false,"rental_uris":{"android":"levelo://app?vid=a3a727c8-796b-491d-b4ee-719c67afda4d","ios":"levelo://app?vid=a3a727c8-796b-491d-b4ee-719c67afda4d"},"vehicle_type_id":"4","last_reported":1744128768,"current_range_meters":6000,"station_id":"ce4bho12rcd13ifvqh2g","pricing_plan_id":"cebpf4jnsgd1na2vs0mg"},{"bike_id":"cbb3eacd-49cf-4bad-b76d-871adb108bb6","system_id":"levelo_inurba_marseille","lat":43.26557,"lon":5.37282,"is_reserved":false,"is_disabled":false,"rental_uris":{"android":"levelo://app?vid=cbb3eacd-49cf-4bad-b76d-871adb108bb6","ios":"levelo://app?vid=cbb3eacd-49cf-4bad-b76d-871adb108bb6"},"vehicle_type_id":"4","last_reported":1744128768,"current_range_meters":6400,"station_id":"ce4bhg12rcd13ifvqf70","pricing_plan_id":"cebpf4jnsgd1na2vs0mg"},{"bike_id":"0a97b44d-30bf-4e7f-9776-24a7a0066167","system_id":"levelo_inurba_marseille","lat":43.28104,"lon":5.37846,"is_reserved":false,"is_disabled":false,"rental_uris":{"android":"levelo://app?vid=0a97b44d-30bf-4e7f-9776-24a7a0066167","ios":"levelo://app?vid=0a97b44d-30bf-4e7f-9776-24a7a0066167"},"vehicle_type_id":"4","last_reported":1744128768,"current_range_meters":6000,"station_id":"ce4bha12rcd13ifvqee0","pricing_plan_id":"cebpf4jnsgd1na2vs0mg"},{"bike_id":"252e6c12-3e63-49da-b6ab-9d85406b6d2d","system_id":"levelo_inurba_marseille","lat":43.28423,"lon":5.35003,"is_reserved":false,"is_disabled":false,"rental_uris":{"android":"levelo://app?vid=252e6c12-3e63-49da-b6ab-9d85406b6d2d","ios":"levelo://app?vid=252e6c12-3e63-49da-b6ab-9d85406b6d2d"},"vehicle_type_id":"4","last_reported":1744128768,"current_range_meters":6400,"station_id":"ce4bhbh2rcd13ifvqepg","pricing_plan_id":"cebpf4jnsgd1na2vs0mg"},{"bike_id":"d967bf8b-d607-4ac5-8599-a6cd093c8315","system_id":"levelo_inurba_marseille","lat":43.23188,"lon":5.39981,"is_reserved":false,"is_disabled":false,"rental_uris":{"android":"levelo://app?vid=d967bf8b-d607-4ac5-8599-a6cd093c8315","ios":"levelo://app?vid=d967bf8b-d607-4ac5-8599-a6cd093c8315"},"vehicle_type_id":"4","last_reported":1744128768,"current_range_meters":6400,"station_id":"ce4bhn12rcd13ifvqgqg","pricing_plan_id":"cebpf4jnsgd1na2vs0mg"},{"bike_id":"cf87d2fc-1e72-4225-9aaa-946045288977","system_id":"levelo_inurba_marseille","lat":43.2837,"lon":5.3861,"is_reserved":false,"is_disabled":false,"rental_uris":{"android":"levelo://app?vid=cf87d2fc-1e72-4225-9aaa-946045288977","ios":"levelo://app?vid=cf87d2fc-1e72-4225-9aaa-946045288977"},"vehicle_type_id":"4","last_reported":1744128768,"current_range_meters":5600,"station_id":"ce4bh492rcd13ifvqdvg","pricing_plan_id":"cebpf4jnsgd1na2vs0mg"},{"bike_id":"ed5d32e5-0be7-4a84-8f6a-8480cbb72258","system_id":"levelo_inurba_marseille","lat":43.299193,"lon":5.381271,"is_reserved":false,"is_disabled":false,"rental_uris":{"android":"levelo://app?vid=ed5d32e5-0be7-4a84-8f6a-8480cbb72258","ios":"levelo://app?vid=ed5d32e5-0be7-4a84-8f6a-8480cbb72258"},"vehicle_type_id":"4","last_reported":1744128768,"current_range_meters":6400,"station_id":"cki0cbj6b192h4jlfktg","pricing_plan_id":"cebpf4jnsgd1na2vs0mg"},{"bike_id":"804bab0a-da4f-42d2-9c11-f089c1d7989b","system_id":"levelo_inurba_marseille","lat":43.30086,"lon":5.39076,"is_reserved":false,"is_disabled":false,"rental_uris":{"android":"levelo://app?vid=804bab0a-da4f-42d2-9c11-f089c1d7989b","ios":"levelo://app?vid=804bab0a-da4f-42d2-9c11-f089c1d7989b"},"vehicle_type_id":"4","last_reported":1744128768,"current_range_meters":6400,"station_id":"ce4bh192rcd13ifvqdb0","pricing_plan_id":"cebpf4jnsgd1na2vs0mg"},{"bike_id":"06ee8641-2a07-437f-a1b1-0e26276a9f98","system_id":"levelo_inurba_marseille","lat":43.26565,"lon":5.39005,"is_reserved":false,"is_disabled":false,"rental_uris":{"android":"levelo://app?vid=06ee8641-2a07-437f-a1b1-0e26276a9f98","ios":"levelo://app?vid=06ee8641-2a07-437f-a1b1-0e26276a9f98"},"vehicle_type_id":"4","last_reported":1744128768,"current_range_meters":6800,"station_id":"ce4bhe12rcd13ifvqf30","pricing_plan_id":"cebpf4jnsgd1na2vs0mg"},{"bike_id":"159779cf-52bd-4b36-a130-092d2c35fb4d","system_id":"levelo_inurba_marseille","lat":43.27386,"lon":5.36252,"is_reserved":false,"is_disabled":false,"rental_uris":{"android":"levelo://app?vid=159779cf-52bd-4b36-a130-092d2c35fb4d","ios":"levelo://app?vid=159779cf-52bd-4b36-a130-092d2c35fb4d"},"vehicle_type_id":"4","last_reported":1744128768,"current_range_meters":6800,"station_id":"ce4bhbh2rcd13ifvqeo0","pricing_plan_id":"cebpf4jnsgd1na2vs0mg"},{"bike_id":"956eac26-ec55-447e-a291-80e0e04a8c3f","system_id":"levelo_inurba_marseille","lat":43.29936,"lon":5.36548,"is_reserved":false,"is_disabled":false,"rental_uris":{"android":"levelo://app?vid=956eac26-ec55-447e-a291-80e0e04a8c3f","ios":"levelo://app?vid=956eac26-ec55-447e-a291-80e0e04a8c3f"},"vehicle_type_id":"4","last_reported":1744128768,"current_range_meters":6800,"station_id":"ce4bgm92rcd13ifvqbr0","pricing_plan_id":"cebpf4jnsgd1na2vs0mg"},{"bike_id":"ca25748d-dca4-464c-ab9c-8e22b0fe057b","system_id":"levelo_inurba_marseille","lat":43.29779,"lon":5.37109,"is_reserved":false,"is_disabled":false,"rental_uris":{"android":"levelo://app?vid=ca25748d-dca4-464c-ab9c-8e22b0fe057b","ios":"levelo://app?vid=ca25748d-dca4-464c-ab9c-8e22b0fe057b"},"vehicle_type_id":"4","last_reported":1744128768,"current_range_meters":6800,"station_id":"ce4bgop2rcd13ifvqc1g","pricing_plan_id":"cebpf4jnsgd1na2vs0mg"},{"bike_id":"d9a01693-2124-4ece-92a2-e6c63eeda160","system_id":"levelo_inurba_marseille","lat":43.25566,"lon":5.38226,"is_reserved":false,"is_disabled":false,"rental_uris":{"android":"levelo://app?vid=d9a01693-2124-4ece-92a2-e6c63eeda160","ios":"levelo://app?vid=d9a01693-2124-4ece-92a2-e6c63eeda160"},"vehicle_type_id":"4","last_reported":1744128768,"current_range_meters":6800,"station_id":"ce4bhih2rcd13ifvqfs0","pricing_plan_id":"cebpf4jnsgd1na2vs0mg"},{"bike_id":"46df14b2-f9ae-48e2-b6fb-7e1a33e3ecdd","system_id":"levelo_inurba_marseille","lat":43.26501,"lon":5.39533,"is_reserved":false,"is_disabled":false,"rental_uris":{"android":"levelo://app?vid=46df14b2-f9ae-48e2-b6fb-7e1a33e3ecdd","ios":"levelo://app?vid=46df14b2-f9ae-48e2-b6fb-7e1a33e3ecdd"},"vehicle_type_id":"4","last_reported":1744128768,"current_range_meters":6800,"station_id":"ce4bhi12rcd13ifvqfq0","pricing_plan_id":"cebpf4jnsgd1na2vs0mg"},{"bike_id":"ac949ec7-1809-4f43-94fc-f2a2e4a78ee2","system_id":"levelo_inurba_marseille","lat":43.27616,"lon":5.36101,"is_reserved":false,"is_disabled":false,"rental_uris":{"android":"levelo://app?vid=ac949ec7-1809-4f43-94fc-f2a2e4a78ee2","ios":"levelo://app?vid=ac949ec7-1809-4f43-94fc-f2a2e4a78ee2"},"vehicle_type_id":"4","last_reported":1744128768,"current_range_meters":6400,"station_id":"ce4bgj92rcd13ifvqbe0","pricing_plan_id":"cebpf4jnsgd1na2vs0mg"},{"bike_id":"5bc64a13-df24-42f8-bd9d-7e3bc061cf1a","system_id":"levelo_inurba_marseille","lat":43.26564,"lon":5.39004,"is_reserved":false,"is_disabled":false,"rental_uris":{"android":"levelo://app?vid=5bc64a13-df24-42f8-bd9d-7e3bc061cf1a","ios":"levelo://app?vid=5bc64a13-df24-42f8-bd9d-7e3bc061cf1a"},"vehicle_type_id":"4","last_reported":1744128768,"current_range_meters":6800,"station_id":"ce4bhe12rcd13ifvqf30","pricing_plan_id":"cebpf4jnsgd1na2vs0mg"},{"bike_id":"42503793-6e9b-4e08-95bf-4451fcaef295","system_id":"levelo_inurba_marseille","lat":43.31678,"lon":5.43724,"is_reserved":false,"is_disabled":false,"rental_uris":{"android":"levelo://app?vid=42503793-6e9b-4e08-95bf-4451fcaef295","ios":"levelo://app?vid=42503793-6e9b-4e08-95bf-4451fcaef295"},"vehicle_type_id":"4","last_reported":1744128768,"current_range_meters":6800,"station_id":"ce4bhp92rcd13ifvqhcg","pricing_plan_id":"cebpf4jnsgd1na2vs0mg"},{"bike_id":"4b8dddbd-4a73-4c7c-a615-40a931cd78e8","system_id":"levelo_inurba_marseille","lat":43.25086,"lon":5.39514,"is_reserved":false,"is_disabled":false,"rental_uris":{"android":"levelo://app?vid=4b8dddbd-4a73-4c7c-a615-40a931cd78e8","ios":"levelo://app?vid=4b8dddbd-4a73-4c7c-a615-40a931cd78e8"},"vehicle_type_id":"4","last_reported":1744128768,"current_range_meters":7200,"station_id":"ce4bhm12rcd13ifvqgkg","pricing_plan_id":"cebpf4jnsgd1na2vs0mg"},{"bike_id":"9b4d8b01-eb11-4827-905f-bde0dedd5280","system_id":"levelo_inurba_marseille","lat":43.24662,"lon":5.38162,"is_reserved":false,"is_disabled":false,"rental_uris":{"android":"levelo://app?vid=9b4d8b01-eb11-4827-905f-bde0dedd5280","ios":"levelo://app?vid=9b4d8b01-eb11-4827-905f-bde0dedd5280"},"vehicle_type_id":"4","last_reported":1744128768,"current_range_meters":7200,"station_id":"ce4bhih2rcd13ifvqfr0","pricing_plan_id":"cebpf4jnsgd1na2vs0mg"},{"bike_id":"a1a296e4-0c84-474a-a50c-7c03f07c8bff","system_id":"levelo_inurba_marseille","lat":43.27984,"lon":5.409827,"is_reserved":false,"is_disabled":false,"rental_uris":{"android":"levelo://app?vid=a1a296e4-0c84-474a-a50c-7c03f07c8bff","ios":"levelo://app?vid=a1a296e4-0c84-474a-a50c-7c03f07c8bff"},"vehicle_type_id":"4","last_reported":1744128768,"current_range_meters":7200,"station_id":"ce4bhnp2rcd13ifvqh0g","pricing_plan_id":"cebpf4jnsgd1na2vs0mg"},{"bike_id":"0a406830-cf55-4536-a14d-e6db1cb598c4","system_id":"levelo_inurba_marseille","lat":43.27368,"lon":5.36266,"is_reserved":false,"is_disabled":false,"rental_uris":{"android":"levelo://app?vid=0a406830-cf55-4536-a14d-e6db1cb598c4","ios":"levelo://app?vid=0a406830-cf55-4536-a14d-e6db1cb598c4"},"vehicle_type_id":"4","last_reported":1744128768,"current_range_meters":7200,"station_id":"ce4bhbh2rcd13ifvqeo0","pricing_plan_id":"cebpf4jnsgd1na2vs0mg"},{"bike_id":"faed10aa-f469-4f37-8c4a-89065619cc9b","system_id":"levelo_inurba_marseille","lat":43.28653,"lon":5.36363,"is_reserved":false,"is_disabled":false,"rental_uris":{"android":"levelo://app?vid=faed10aa-f469-4f37-8c4a-89065619cc9b","ios":"levelo://app?vid=faed10aa-f469-4f37-8c4a-89065619cc9b"},"vehicle_type_id":"4","last_reported":1744128768,"current_range_meters":7200,"station_id":"ce4bhah2rcd13ifvqej0","pricing_plan_id":"cebpf4jnsgd1na2vs0mg"},{"bike_id":"a2bc1534-fa4c-44c0-9bf1-e145e671d810","system_id":"levelo_inurba_marseille","lat":43.30308,"lon":5.40073,"is_reserved":false,"is_disabled":false,"rental_uris":{"android":"levelo://app?vid=a2bc1534-fa4c-44c0-9bf1-e145e671d810","ios":"levelo://app?vid=a2bc1534-fa4c-44c0-9bf1-e145e671d810"},"vehicle_type_id":"4","last_reported":1744128768,"current_range_meters":7200,"station_id":"","pricing_plan_id":"cebpf4jnsgd1na2vs0mg"},{"bike_id":"295f1e27-96bc-4365-914c-13a236c2a0c4","system_id":"levelo_inurba_marseille","lat":43.29841,"lon":5.36265,"is_reserved":false,"is_disabled":false,"rental_uris":{"android":"levelo://app?vid=295f1e27-96bc-4365-914c-13a236c2a0c4","ios":"levelo://app?vid=295f1e27-96bc-4365-914c-13a236c2a0c4"},"vehicle_type_id":"4","last_reported":1744128768,"current_range_meters":7200,"station_id":"ce4bgpp2rcd13ifvqc3g","pricing_plan_id":"cebpf4jnsgd1na2vs0mg"},{"bike_id":"4fe21798-e4d1-4985-bc15-6a7a89cb6541","system_id":"levelo_inurba_marseille","lat":43.21195,"lon":5.35082,"is_reserved":false,"is_disabled":false,"rental_uris":{"android":"levelo://app?vid=4fe21798-e4d1-4985-bc15-6a7a89cb6541","ios":"levelo://app?vid=4fe21798-e4d1-4985-bc15-6a7a89cb6541"},"vehicle_type_id":"4","last_reported":1744128768,"current_range_meters":7200,"station_id":"st_cvj6sg6p6f1abm77japg","pricing_plan_id":"cebpf4jnsgd1na2vs0mg"},{"bike_id":"3928c0c5-e8ca-409e-a60a-d8d0440cea68","system_id":"levelo_inurba_marseille","lat":43.30331,"lon":5.40427,"is_reserved":false,"is_disabled":false,"rental_uris":{"android":"levelo://app?vid=3928c0c5-e8ca-409e-a60a-d8d0440cea68","ios":"levelo://app?vid=3928c0c5-e8ca-409e-a60a-d8d0440cea68"},"vehicle_type_id":"4","last_reported":1744128768,"current_range_meters":7200,"station_id":"ce4bh012rcd13ifvqd10","pricing_plan_id":"cebpf4jnsgd1na2vs0mg"},{"bike_id":"ced3a9e3-d3f6-4990-af2a-fdb290727192","system_id":"levelo_inurba_marseille","lat":43.275,"lon":5.42448,"is_reserved":false,"is_disabled":false,"rental_uris":{"android":"levelo://app?vid=ced3a9e3-d3f6-4990-af2a-fdb290727192","ios":"levelo://app?vid=ced3a9e3-d3f6-4990-af2a-fdb290727192"},"vehicle_type_id":"4","last_reported":1744128768,"current_range_meters":8000,"station_id":"ce4bhn92rcd13ifvqgrg","pricing_plan_id":"cebpf4jnsgd1na2vs0mg"},{"bike_id":"b82a00c5-e4fc-4ee7-965f-7118b297038e","system_id":"levelo_inurba_marseille","lat":43.25118,"lon":5.40314,"is_reserved":false,"is_disabled":false,"rental_uris":{"android":"levelo://app?vid=b82a00c5-e4fc-4ee7-965f-7118b297038e","ios":"levelo://app?vid=b82a00c5-e4fc-4ee7-965f-7118b297038e"},"vehicle_type_id":"4","last_reported":1744128768,"current_range_meters":8000,"station_id":"ce4bhlh2rcd13ifvqgig","pricing_plan_id":"cebpf4jnsgd1na2vs0mg"},{"bike_id":"fd456719-dff5-4fb7-a66e-89edd1ff45ed","system_id":"levelo_inurba_marseille","lat":43.280808,"lon":5.396539,"is_reserved":false,"is_disabled":false,"rental_uris":{"android":"levelo://app?vid=fd456719-dff5-4fb7-a66e-89edd1ff45ed","ios":"levelo://app?vid=fd456719-dff5-4fb7-a66e-89edd1ff45ed"},"vehicle_type_id":"4","last_reported":1744128768,"current_range_meters":7200,"station_id":"ce4bho12rcd13ifvqh2g","pricing_plan_id":"cebpf4jnsgd1na2vs0mg"},{"bike_id":"7e2bfb3c-422b-4033-ada7-8c5491c48bc9","system_id":"levelo_inurba_marseille","lat":43.25081,"lon":5.39519,"is_reserved":false,"is_disabled":false,"rental_uris":{"android":"levelo://app?vid=7e2bfb3c-422b-4033-ada7-8c5491c48bc9","ios":"levelo://app?vid=7e2bfb3c-422b-4033-ada7-8c5491c48bc9"},"vehicle_type_id":"4","last_reported":1744128768,"current_range_meters":8000,"station_id":"ce4bhm12rcd13ifvqgkg","pricing_plan_id":"cebpf4jnsgd1na2vs0mg"},{"bike_id":"ecef8e9e-03dc-4612-b74e-b978f92e2873","system_id":"levelo_inurba_marseille","lat":43.30099,"lon":5.39104,"is_reserved":false,"is_disabled":true,"rental_uris":{"android":"levelo://app?vid=ecef8e9e-03dc-4612-b74e-b978f92e2873","ios":"levelo://app?vid=ecef8e9e-03dc-4612-b74e-b978f92e2873"},"vehicle_type_id":"4","last_reported":1744128768,"current_range_meters":8000,"station_id":"ce4bh192rcd13ifvqdb0","pricing_plan_id":"cebpf4jnsgd1na2vs0mg"},{"bike_id":"5a397a69-1795-46a6-9ab5-0a8581ce03b4","system_id":"levelo_inurba_marseille","lat":43.29008,"lon":5.35608,"is_reserved":false,"is_disabled":false,"rental_uris":{"android":"levelo://app?vid=5a397a69-1795-46a6-9ab5-0a8581ce03b4","ios":"levelo://app?vid=5a397a69-1795-46a6-9ab5-0a8581ce03b4"},"vehicle_type_id":"4","last_reported":1744128768,"current_range_meters":8000,"station_id":"ce4bhb92rcd13ifvqen0","pricing_plan_id":"cebpf4jnsgd1na2vs0mg"},{"bike_id":"880d7be4-65bf-4147-ab20-2bbe2e5840b7","system_id":"levelo_inurba_marseille","lat":43.26212,"lon":5.3744,"is_reserved":false,"is_disabled":false,"rental_uris":{"android":"levelo://app?vid=880d7be4-65bf-4147-ab20-2bbe2e5840b7","ios":"levelo://app?vid=880d7be4-65bf-4147-ab20-2bbe2e5840b7"},"vehicle_type_id":"4","last_reported":1744128768,"current_range_meters":8000,"station_id":"ce4bhgp2rcd13ifvqfc0","pricing_plan_id":"cebpf4jnsgd1na2vs0mg"},{"bike_id":"d278c9c1-2960-4670-a511-8e6e0ebebbf0","system_id":"levelo_inurba_marseille","lat":43.28941,"lon":5.36638,"is_reserved":false,"is_disabled":false,"rental_uris":{"android":"levelo://app?vid=d278c9c1-2960-4670-a511-8e6e0ebebbf0","ios":"levelo://app?vid=d278c9c1-2960-4670-a511-8e6e0ebebbf0"},"vehicle_type_id":"4","last_reported":1744128768,"current_range_meters":8000,"station_id":"","pricing_plan_id":"cebpf4jnsgd1na2vs0mg"},{"bike_id":"a0c96c7e-3e1f-4900-a614-78c63f115acd","system_id":"levelo_inurba_marseille","lat":43.26028,"lon":5.3756,"is_reserved":false,"is_disabled":false,"rental_uris":{"android":"levelo://app?vid=a0c96c7e-3e1f-4900-a614-78c63f115acd","ios":"levelo://app?vid=a0c96c7e-3e1f-4900-a614-78c63f115acd"},"vehicle_type_id":"4","last_reported":1744128768,"current_range_meters":8000,"station_id":"ce4bhgh2rcd13ifvqfa0","pricing_plan_id":"cebpf4jnsgd1na2vs0mg"},{"bike_id":"47b9f12b-cff2-4fbc-bdd4-b42d8c367102","system_id":"levelo_inurba_marseille","lat":43.28407,"lon":5.37521,"is_reserved":false,"is_disabled":false,"rental_uris":{"android":"levelo://app?vid=47b9f12b-cff2-4fbc-bdd4-b42d8c367102","ios":"levelo://app?vid=47b9f12b-cff2-4fbc-bdd4-b42d8c367102"},"vehicle_type_id":"4","last_reported":1744128768,"current_range_meters":8000,"station_id":"ce4bh412rcd13ifvqds0","pricing_plan_id":"cebpf4jnsgd1na2vs0mg"},{"bike_id":"3ca495c7-4ebb-4b21-9c09-1bc1e560d2d6","system_id":"levelo_inurba_marseille","lat":43.30099,"lon":5.39076,"is_reserved":false,"is_disabled":false,"rental_uris":{"android":"levelo://app?vid=3ca495c7-4ebb-4b21-9c09-1bc1e560d2d6","ios":"levelo://app?vid=3ca495c7-4ebb-4b21-9c09-1bc1e560d2d6"},"vehicle_type_id":"4","last_reported":1744128768,"current_range_meters":8400,"station_id":"ce4bh192rcd13ifvqdb0","pricing_plan_id":"cebpf4jnsgd1na2vs0mg"},{"bike_id":"7108e1f9-06f2-4e1b-8d2f-01f8cf43b1eb","system_id":"levelo_inurba_marseille","lat":43.290406,"lon":5.399642,"is_reserved":false,"is_disabled":false,"rental_uris":{"android":"levelo://app?vid=7108e1f9-06f2-4e1b-8d2f-01f8cf43b1eb","ios":"levelo://app?vid=7108e1f9-06f2-4e1b-8d2f-01f8cf43b1eb"},"vehicle_type_id":"4","last_reported":1744128768,"current_range_meters":8400,"station_id":"ce4bh392rcd13ifvqdm0","pricing_plan_id":"cebpf4jnsgd1na2vs0mg"},{"bike_id":"02f5f556-9aca-41a9-928c-e217b6392b4b","system_id":"levelo_inurba_marseille","lat":43.31827,"lon":5.43511,"is_reserved":false,"is_disabled":false,"rental_uris":{"android":"levelo://app?vid=02f5f556-9aca-41a9-928c-e217b6392b4b","ios":"levelo://app?vid=02f5f556-9aca-41a9-928c-e217b6392b4b"},"vehicle_type_id":"4","last_reported":1744128768,"current_range_meters":8400,"station_id":"","pricing_plan_id":"cebpf4jnsgd1na2vs0mg"},{"bike_id":"8391fb49-d5d7-4cb2-afbd-9565f53dad12","system_id":"levelo_inurba_marseille","lat":43.2867,"lon":5.36357,"is_reserved":false,"is_disabled":false,"rental_uris":{"android":"levelo://app?vid=8391fb49-d5d7-4cb2-afbd-9565f53dad12","ios":"levelo://app?vid=8391fb49-d5d7-4cb2-afbd-9565f53dad12"},"vehicle_type_id":"4","last_reported":1744128768,"current_range_meters":8400,"station_id":"ce4bhah2rcd13ifvqej0","pricing_plan_id":"cebpf4jnsgd1na2vs0mg"},{"bike_id":"f39be6f5-2f69-4c37-b021-559d20b299a4","system_id":"levelo_inurba_marseille","lat":43.30002,"lon":5.3765,"is_reserved":false,"is_disabled":false,"rental_uris":{"android":"levelo://app?vid=f39be6f5-2f69-4c37-b021-559d20b299a4","ios":"levelo://app?vid=f39be6f5-2f69-4c37-b021-559d20b299a4"},"vehicle_type_id":"4","last_reported":1744128768,"current_range_meters":8400,"station_id":"","pricing_plan_id":"cebpf4jnsgd1na2vs0mg"},{"bike_id":"a1214fb6-ec32-4f6d-b480-2c868d210d82","system_id":"levelo_inurba_marseille","lat":43.23194,"lon":5.355544,"is_reserved":false,"is_disabled":false,"rental_uris":{"android":"levelo://app?vid=a1214fb6-ec32-4f6d-b480-2c868d210d82","ios":"levelo://app?vid=a1214fb6-ec32-4f6d-b480-2c868d210d82"},"vehicle_type_id":"4","last_reported":1744128768,"current_range_meters":8400,"station_id":"ce4bhu92rcd13ifvqi70","pricing_plan_id":"cebpf4jnsgd1na2vs0mg"},{"bike_id":"e4ae93b2-a534-4202-b71b-1cf97be29067","system_id":"levelo_inurba_marseille","lat":43.28619,"lon":5.35132,"is_reserved":false,"is_disabled":false,"rental_uris":{"android":"levelo://app?vid=e4ae93b2-a534-4202-b71b-1cf97be29067","ios":"levelo://app?vid=e4ae93b2-a534-4202-b71b-1cf97be29067"},"vehicle_type_id":"4","last_reported":1744128768,"current_range_meters":8400,"station_id":"ce4bhch2rcd13ifvqeug","pricing_plan_id":"cebpf4jnsgd1na2vs0mg"},{"bike_id":"2e9000dc-6400-4918-a994-dd60039ca96d","system_id":"levelo_inurba_marseille","lat":43.319968,"lon":5.381481,"is_reserved":false,"is_disabled":true,"rental_uris":{"android":"levelo://app?vid=2e9000dc-6400-4918-a994-dd60039ca96d","ios":"levelo://app?vid=2e9000dc-6400-4918-a994-dd60039ca96d"},"vehicle_type_id":"4","last_reported":1744128768,"current_range_meters":8400,"station_id":"ce4bhr12rcd13ifvqhpg","pricing_plan_id":"cebpf4jnsgd1na2vs0mg"},{"bike_id":"6d80a856-1595-47bc-8335-f8567545c6b4","system_id":"levelo_inurba_marseille","lat":43.25117,"lon":5.40318,"is_reserved":false,"is_disabled":false,"rental_uris":{"android":"levelo://app?vid=6d80a856-1595-47bc-8335-f8567545c6b4","ios":"levelo://app?vid=6d80a856-1595-47bc-8335-f8567545c6b4"},"vehicle_type_id":"4","last_reported":1744128768,"current_range_meters":8400,"station_id":"ce4bhlh2rcd13ifvqgig","pricing_plan_id":"cebpf4jnsgd1na2vs0mg"},{"bike_id":"82f28cf6-556c-431d-a12b-bd3ce5fc2f28","system_id":"levelo_inurba_marseille","lat":43.27505,"lon":5.37765,"is_reserved":false,"is_disabled":false,"rental_uris":{"android":"levelo://app?vid=82f28cf6-556c-431d-a12b-bd3ce5fc2f28","ios":"levelo://app?vid=82f28cf6-556c-431d-a12b-bd3ce5fc2f28"},"vehicle_type_id":"4","last_reported":1744128768,"current_range_meters":8800,"station_id":"","pricing_plan_id":"cebpf4jnsgd1na2vs0mg"},{"bike_id":"b05bfa8e-083e-43f1-b599-131c99ee4eb8","system_id":"levelo_inurba_marseille","lat":43.29409,"lon":5.38627,"is_reserved":false,"is_disabled":false,"rental_uris":{"android":"levelo://app?vid=b05bfa8e-083e-43f1-b599-131c99ee4eb8","ios":"levelo://app?vid=b05bfa8e-083e-43f1-b599-131c99ee4eb8"},"vehicle_type_id":"4","last_reported":1744128768,"current_range_meters":8800,"station_id":"ce4bh2h2rcd13ifvqdh0","pricing_plan_id":"cebpf4jnsgd1na2vs0mg"},{"bike_id":"3576b946-70b3-456f-a60a-d98e227f015c","system_id":"levelo_inurba_marseille","lat":43.30099,"lon":5.3822,"is_reserved":false,"is_disabled":false,"rental_uris":{"android":"levelo://app?vid=3576b946-70b3-456f-a60a-d98e227f015c","ios":"levelo://app?vid=3576b946-70b3-456f-a60a-d98e227f015c"},"vehicle_type_id":"4","last_reported":1744128768,"current_range_meters":8800,"station_id":"ce4bgup2rcd13ifvqcn0","pricing_plan_id":"cebpf4jnsgd1na2vs0mg"},{"bike_id":"770559e0-7c82-4e06-bdc2-e5b8cccbe1e1","system_id":"levelo_inurba_marseille","lat":43.231423,"lon":5.437281,"is_reserved":false,"is_disabled":false,"rental_uris":{"android":"levelo://app?vid=770559e0-7c82-4e06-bdc2-e5b8cccbe1e1","ios":"levelo://app?vid=770559e0-7c82-4e06-bdc2-e5b8cccbe1e1"},"vehicle_type_id":"4","last_reported":1744128768,"current_range_meters":8800,"station_id":"ce4bhmp2rcd13ifvqgog","pricing_plan_id":"cebpf4jnsgd1na2vs0mg"},{"bike_id":"e619ef45-54d4-4800-9936-fe219362b340","system_id":"levelo_inurba_marseille","lat":43.29036,"lon":5.3812,"is_reserved":false,"is_disabled":false,"rental_uris":{"android":"levelo://app?vid=e619ef45-54d4-4800-9936-fe219362b340","ios":"levelo://app?vid=e619ef45-54d4-4800-9936-fe219362b340"},"vehicle_type_id":"4","last_reported":1744128768,"current_range_meters":8400,"station_id":"ce4bh4p2rcd13ifvqe1g","pricing_plan_id":"cebpf4jnsgd1na2vs0mg"},{"bike_id":"a1a3433d-ab3b-4311-abc7-5e379783a58a","system_id":"levelo_inurba_marseille","lat":43.28613,"lon":5.35116,"is_reserved":false,"is_disabled":false,"rental_uris":{"android":"levelo://app?vid=a1a3433d-ab3b-4311-abc7-5e379783a58a","ios":"levelo://app?vid=a1a3433d-ab3b-4311-abc7-5e379783a58a"},"vehicle_type_id":"4","last_reported":1744128768,"current_range_meters":8000,"station_id":"ce4bhch2rcd13ifvqeug","pricing_plan_id":"cebpf4jnsgd1na2vs0mg"},{"bike_id":"8ce4f713-1bda-4112-86ad-baf65b744177","system_id":"levelo_inurba_marseille","lat":43.29202,"lon":5.39325,"is_reserved":false,"is_disabled":false,"rental_uris":{"android":"levelo://app?vid=8ce4f713-1bda-4112-86ad-baf65b744177","ios":"levelo://app?vid=8ce4f713-1bda-4112-86ad-baf65b744177"},"vehicle_type_id":"4","last_reported":1744128768,"current_range_meters":8800,"station_id":"ce4bh192rcd13ifvqdd0","pricing_plan_id":"cebpf4jnsgd1na2vs0mg"},{"bike_id":"dff0c398-5457-4c82-99b9-071db8607d47","system_id":"levelo_inurba_marseille","lat":43.25685,"lon":5.41927,"is_reserved":false,"is_disabled":false,"rental_uris":{"android":"levelo://app?vid=dff0c398-5457-4c82-99b9-071db8607d47","ios":"levelo://app?vid=dff0c398-5457-4c82-99b9-071db8607d47"},"vehicle_type_id":"4","last_reported":1744128768,"current_range_meters":9200,"station_id":"","pricing_plan_id":"cebpf4jnsgd1na2vs0mg"},{"bike_id":"f17ce36f-e80a-4732-89e2-7a7dfab19d87","system_id":"levelo_inurba_marseille","lat":43.29912,"lon":5.43655,"is_reserved":false,"is_disabled":false,"rental_uris":{"android":"levelo://app?vid=f17ce36f-e80a-4732-89e2-7a7dfab19d87","ios":"levelo://app?vid=f17ce36f-e80a-4732-89e2-7a7dfab19d87"},"vehicle_type_id":"4","last_reported":1744128768,"current_range_meters":9200,"station_id":"ce4bhpp2rcd13ifvqhfg","pricing_plan_id":"cebpf4jnsgd1na2vs0mg"},{"bike_id":"411d2795-768d-4dbd-b0b7-cf9e8b430710","system_id":"levelo_inurba_marseille","lat":43.279999,"lon":5.400111,"is_reserved":false,"is_disabled":false,"rental_uris":{"android":"levelo://app?vid=411d2795-768d-4dbd-b0b7-cf9e8b430710","ios":"levelo://app?vid=411d2795-768d-4dbd-b0b7-cf9e8b430710"},"vehicle_type_id":"4","last_reported":1744128768,"current_range_meters":9200,"station_id":"ce4bho92rcd13ifvqh4g","pricing_plan_id":"cebpf4jnsgd1na2vs0mg"},{"bike_id":"c9709cfa-2cdc-43b2-afb6-ab4ef0fce95f","system_id":"levelo_inurba_marseille","lat":43.28033,"lon":5.36951,"is_reserved":false,"is_disabled":false,"rental_uris":{"android":"levelo://app?vid=c9709cfa-2cdc-43b2-afb6-ab4ef0fce95f","ios":"levelo://app?vid=c9709cfa-2cdc-43b2-afb6-ab4ef0fce95f"},"vehicle_type_id":"4","last_reported":1744128768,"current_range_meters":9200,"station_id":"ce4bha12rcd13ifvqef0","pricing_plan_id":"cebpf4jnsgd1na2vs0mg"},{"bike_id":"9c132947-5547-4324-be44-8cfb6db9d88e","system_id":"levelo_inurba_marseille","lat":43.26212,"lon":5.37442,"is_reserved":false,"is_disabled":false,"rental_uris":{"android":"levelo://app?vid=9c132947-5547-4324-be44-8cfb6db9d88e","ios":"levelo://app?vid=9c132947-5547-4324-be44-8cfb6db9d88e"},"vehicle_type_id":"4","last_reported":1744128768,"current_range_meters":9200,"station_id":"ce4bhgp2rcd13ifvqfc0","pricing_plan_id":"cebpf4jnsgd1na2vs0mg"},{"bike_id":"70810d3e-9936-4863-b211-84f880613e88","system_id":"levelo_inurba_marseille","lat":43.3129,"lon":5.3734,"is_reserved":false,"is_disabled":false,"rental_uris":{"android":"levelo://app?vid=70810d3e-9936-4863-b211-84f880613e88","ios":"levelo://app?vid=70810d3e-9936-4863-b211-84f880613e88"},"vehicle_type_id":"4","last_reported":1744128768,"current_range_meters":9200,"station_id":"","pricing_plan_id":"cebpf4jnsgd1na2vs0mg"},{"bike_id":"7026c7ef-9283-41f8-a453-e8bb10350cb5","system_id":"levelo_inurba_marseille","lat":43.29415,"lon":5.38633,"is_reserved":false,"is_disabled":false,"rental_uris":{"android":"levelo://app?vid=7026c7ef-9283-41f8-a453-e8bb10350cb5","ios":"levelo://app?vid=7026c7ef-9283-41f8-a453-e8bb10350cb5"},"vehicle_type_id":"4","last_reported":1744128768,"current_range_meters":9200,"station_id":"ce4bh2h2rcd13ifvqdh0","pricing_plan_id":"cebpf4jnsgd1na2vs0mg"},{"bike_id":"44895988-5d88-4aba-9d91-fc2d01bf4f73","system_id":"levelo_inurba_marseille","lat":43.251948,"lon":5.400023,"is_reserved":false,"is_disabled":false,"rental_uris":{"android":"levelo://app?vid=44895988-5d88-4aba-9d91-fc2d01bf4f73","ios":"levelo://app?vid=44895988-5d88-4aba-9d91-fc2d01bf4f73"},"vehicle_type_id":"4","last_reported":1744128768,"current_range_meters":8800,"station_id":"cjm6bp8fraef2m0cb0m0","pricing_plan_id":"cebpf4jnsgd1na2vs0mg"},{"bike_id":"c57c451f-2113-4f8f-8962-6b5082c0541f","system_id":"levelo_inurba_marseille","lat":43.28456,"lon":5.34984,"is_reserved":false,"is_disabled":false,"rental_uris":{"android":"levelo://app?vid=c57c451f-2113-4f8f-8962-6b5082c0541f","ios":"levelo://app?vid=c57c451f-2113-4f8f-8962-6b5082c0541f"},"vehicle_type_id":"4","last_reported":1744128768,"current_range_meters":9200,"station_id":"ce4bhbh2rcd13ifvqepg","pricing_plan_id":"cebpf4jnsgd1na2vs0mg"},{"bike_id":"f2820179-14c1-408e-bd5e-b7951d46aee2","system_id":"levelo_inurba_marseille","lat":43.26499,"lon":5.39541,"is_reserved":false,"is_disabled":false,"rental_uris":{"android":"levelo://app?vid=f2820179-14c1-408e-bd5e-b7951d46aee2","ios":"levelo://app?vid=f2820179-14c1-408e-bd5e-b7951d46aee2"},"vehicle_type_id":"4","last_reported":1744128768,"current_range_meters":9600,"station_id":"ce4bhi12rcd13ifvqfq0","pricing_plan_id":"cebpf4jnsgd1na2vs0mg"},{"bike_id":"37b2591d-7265-4820-a87b-554301495f71","system_id":"levelo_inurba_marseille","lat":43.2894,"lon":5.36631,"is_reserved":false,"is_disabled":true,"rental_uris":{"android":"levelo://app?vid=37b2591d-7265-4820-a87b-554301495f71","ios":"levelo://app?vid=37b2591d-7265-4820-a87b-554301495f71"},"vehicle_type_id":"4","last_reported":1744128768,"current_range_meters":9600,"station_id":"ce4bhap2rcd13ifvqek0","pricing_plan_id":"cebpf4jnsgd1na2vs0mg"},{"bike_id":"385c6352-e3ba-4dce-9c4a-e59a544e6998","system_id":"levelo_inurba_marseille","lat":43.28632,"lon":5.35116,"is_reserved":false,"is_disabled":false,"rental_uris":{"android":"levelo://app?vid=385c6352-e3ba-4dce-9c4a-e59a544e6998","ios":"levelo://app?vid=385c6352-e3ba-4dce-9c4a-e59a544e6998"},"vehicle_type_id":"4","last_reported":1744128768,"current_range_meters":9600,"station_id":"ce4bhch2rcd13ifvqeug","pricing_plan_id":"cebpf4jnsgd1na2vs0mg"},{"bike_id":"53fc7c3c-1eeb-4cf4-b2c1-3d90e18b3727","system_id":"levelo_inurba_marseille","lat":43.2978,"lon":5.39343,"is_reserved":false,"is_disabled":false,"rental_uris":{"android":"levelo://app?vid=53fc7c3c-1eeb-4cf4-b2c1-3d90e18b3727","ios":"levelo://app?vid=53fc7c3c-1eeb-4cf4-b2c1-3d90e18b3727"},"vehicle_type_id":"4","last_reported":1744128768,"current_range_meters":9600,"station_id":"chh1huq6cuj3fo74tm60","pricing_plan_id":"cebpf4jnsgd1na2vs0mg"},{"bike_id":"c69c88ed-5ffa-4990-a2e1-b69286124fee","system_id":"levelo_inurba_marseille","lat":43.25488,"lon":5.37644,"is_reserved":false,"is_disabled":false,"rental_uris":{"android":"levelo://app?vid=c69c88ed-5ffa-4990-a2e1-b69286124fee","ios":"levelo://app?vid=c69c88ed-5ffa-4990-a2e1-b69286124fee"},"vehicle_type_id":"4","last_reported":1744128768,"current_range_meters":9600,"station_id":"ce4bhh12rcd13ifvqff0","pricing_plan_id":"cebpf4jnsgd1na2vs0mg"},{"bike_id":"9ad7dd8e-2337-4257-96d7-f20cb7deefeb","system_id":"levelo_inurba_marseille","lat":43.30443,"lon":5.38873,"is_reserved":false,"is_disabled":false,"rental_uris":{"android":"levelo://app?vid=9ad7dd8e-2337-4257-96d7-f20cb7deefeb","ios":"levelo://app?vid=9ad7dd8e-2337-4257-96d7-f20cb7deefeb"},"vehicle_type_id":"4","last_reported":1744128768,"current_range_meters":9600,"station_id":"ce4bgk12rcd13ifvqbi0","pricing_plan_id":"cebpf4jnsgd1na2vs0mg"},{"bike_id":"eca0b6e2-3630-4e48-b97e-66f643f30f72","system_id":"levelo_inurba_marseille","lat":43.24076,"lon":5.37767,"is_reserved":false,"is_disabled":false,"rental_uris":{"android":"levelo://app?vid=eca0b6e2-3630-4e48-b97e-66f643f30f72","ios":"levelo://app?vid=eca0b6e2-3630-4e48-b97e-66f643f30f72"},"vehicle_type_id":"4","last_reported":1744128768,"current_range_meters":9200,"station_id":"ce4bhnp2rcd13ifvqgvg","pricing_plan_id":"cebpf4jnsgd1na2vs0mg"},{"bike_id":"ab1e190a-3710-43f2-8f97-2e8b25930405","system_id":"levelo_inurba_marseille","lat":43.286664,"lon":5.386686,"is_reserved":false,"is_disabled":false,"rental_uris":{"android":"levelo://app?vid=ab1e190a-3710-43f2-8f97-2e8b25930405","ios":"levelo://app?vid=ab1e190a-3710-43f2-8f97-2e8b25930405"},"vehicle_type_id":"4","last_reported":1744128768,"current_range_meters":10000,"station_id":"ce4bh492rcd13ifvqdug","pricing_plan_id":"cebpf4jnsgd1na2vs0mg"},{"bike_id":"42a2a0dd-e073-46d3-a004-33e2e45e3038","system_id":"levelo_inurba_marseille","lat":43.3414,"lon":5.40914,"is_reserved":false,"is_disabled":false,"rental_uris":{"android":"levelo://app?vid=42a2a0dd-e073-46d3-a004-33e2e45e3038","ios":"levelo://app?vid=42a2a0dd-e073-46d3-a004-33e2e45e3038"},"vehicle_type_id":"4","last_reported":1744128768,"current_range_meters":10000,"station_id":"ce4bhqh2rcd13ifvqhlg","pricing_plan_id":"cebpf4jnsgd1na2vs0mg"},{"bike_id":"949509d7-2150-4bd6-b0fa-fd0f69f12e62","system_id":"levelo_inurba_marseille","lat":43.26154,"lon":5.37473,"is_reserved":false,"is_disabled":false,"rental_uris":{"android":"levelo://app?vid=949509d7-2150-4bd6-b0fa-fd0f69f12e62","ios":"levelo://app?vid=949509d7-2150-4bd6-b0fa-fd0f69f12e62"},"vehicle_type_id":"4","last_reported":1744128768,"current_range_meters":10000,"station_id":"ce4bhgp2rcd13ifvqfc0","pricing_plan_id":"cebpf4jnsgd1na2vs0mg"},{"bike_id":"f2f8031e-8acf-441f-a6b8-4b845409031c","system_id":"levelo_inurba_marseille","lat":43.27365,"lon":5.36245,"is_reserved":false,"is_disabled":false,"rental_uris":{"android":"levelo://app?vid=f2f8031e-8acf-441f-a6b8-4b845409031c","ios":"levelo://app?vid=f2f8031e-8acf-441f-a6b8-4b845409031c"},"vehicle_type_id":"4","last_reported":1744128768,"current_range_meters":10000,"station_id":"ce4bhbh2rcd13ifvqeo0","pricing_plan_id":"cebpf4jnsgd1na2vs0mg"},{"bike_id":"1c16ce55-fc77-44db-8b14-5e0e03e28ace","system_id":"levelo_inurba_marseille","lat":43.28418,"lon":5.34986,"is_reserved":false,"is_disabled":false,"rental_uris":{"android":"levelo://app?vid=1c16ce55-fc77-44db-8b14-5e0e03e28ace","ios":"levelo://app?vid=1c16ce55-fc77-44db-8b14-5e0e03e28ace"},"vehicle_type_id":"4","last_reported":1744128768,"current_range_meters":10000,"station_id":"ce4bhbh2rcd13ifvqepg","pricing_plan_id":"cebpf4jnsgd1na2vs0mg"},{"bike_id":"4548e352-9189-4d7e-bcd6-97afbb778f5f","system_id":"levelo_inurba_marseille","lat":43.29258,"lon":5.37639,"is_reserved":false,"is_disabled":false,"rental_uris":{"android":"levelo://app?vid=4548e352-9189-4d7e-bcd6-97afbb778f5f","ios":"levelo://app?vid=4548e352-9189-4d7e-bcd6-97afbb778f5f"},"vehicle_type_id":"4","last_reported":1744128768,"current_range_meters":10800,"station_id":"ce4bgi12rcd13ifvqb80","pricing_plan_id":"cebpf4jnsgd1na2vs0mg"},{"bike_id":"31134649-31b9-42bc-b51e-ef06ed5b347a","system_id":"levelo_inurba_marseille","lat":43.28616,"lon":5.351,"is_reserved":false,"is_disabled":false,"rental_uris":{"android":"levelo://app?vid=31134649-31b9-42bc-b51e-ef06ed5b347a","ios":"levelo://app?vid=31134649-31b9-42bc-b51e-ef06ed5b347a"},"vehicle_type_id":"4","last_reported":1744128768,"current_range_meters":10800,"station_id":"ce4bhch2rcd13ifvqeug","pricing_plan_id":"cebpf4jnsgd1na2vs0mg"},{"bike_id":"462484fb-7399-4810-a9af-37dc48881c50","system_id":"levelo_inurba_marseille","lat":43.25483,"lon":5.37666,"is_reserved":false,"is_disabled":false,"rental_uris":{"android":"levelo://app?vid=462484fb-7399-4810-a9af-37dc48881c50","ios":"levelo://app?vid=462484fb-7399-4810-a9af-37dc48881c50"},"vehicle_type_id":"4","last_reported":1744128768,"current_range_meters":10800,"station_id":"ce4bhh12rcd13ifvqff0","pricing_plan_id":"cebpf4jnsgd1na2vs0mg"},{"bike_id":"ee22328b-554a-4b1a-b84c-e86b9e5143a2","system_id":"levelo_inurba_marseille","lat":43.27388,"lon":5.36267,"is_reserved":false,"is_disabled":false,"rental_uris":{"android":"levelo://app?vid=ee22328b-554a-4b1a-b84c-e86b9e5143a2","ios":"levelo://app?vid=ee22328b-554a-4b1a-b84c-e86b9e5143a2"},"vehicle_type_id":"4","last_reported":1744128768,"current_range_meters":10800,"station_id":"ce4bhbh2rcd13ifvqeo0","pricing_plan_id":"cebpf4jnsgd1na2vs0mg"},{"bike_id":"578f921d-6870-4a55-b3e5-3dd841e7ceca","system_id":"levelo_inurba_marseille","lat":43.30915,"lon":5.40187,"is_reserved":false,"is_disabled":false,"rental_uris":{"android":"levelo://app?vid=578f921d-6870-4a55-b3e5-3dd841e7ceca","ios":"levelo://app?vid=578f921d-6870-4a55-b3e5-3dd841e7ceca"},"vehicle_type_id":"4","last_reported":1744128768,"current_range_meters":10800,"station_id":"ce4bgvp2rcd13ifvqct0","pricing_plan_id":"cebpf4jnsgd1na2vs0mg"},{"bike_id":"0aa02c49-cbb3-4907-a588-f754056f3ba8","system_id":"levelo_inurba_marseille","lat":43.30807,"lon":5.38148,"is_reserved":false,"is_disabled":true,"rental_uris":{"android":"levelo://app?vid=0aa02c49-cbb3-4907-a588-f754056f3ba8","ios":"levelo://app?vid=0aa02c49-cbb3-4907-a588-f754056f3ba8"},"vehicle_type_id":"4","last_reported":1744128768,"current_range_meters":10800,"station_id":"ce4bgt12rcd13ifvqce0","pricing_plan_id":"cebpf4jnsgd1na2vs0mg"},{"bike_id":"81b4eeec-d26b-4050-a92d-04743fb93072","system_id":"levelo_inurba_marseille","lat":43.2319,"lon":5.39983,"is_reserved":false,"is_disabled":true,"rental_uris":{"android":"levelo://app?vid=81b4eeec-d26b-4050-a92d-04743fb93072","ios":"levelo://app?vid=81b4eeec-d26b-4050-a92d-04743fb93072"},"vehicle_type_id":"4","last_reported":1744128768,"current_range_meters":10800,"station_id":"ce4bhn12rcd13ifvqgqg","pricing_plan_id":"cebpf4jnsgd1na2vs0mg"},{"bike_id":"1e23e74f-5732-4bb0-9a77-a1273668c279","system_id":"levelo_inurba_marseille","lat":43.284119,"lon":5.349864,"is_reserved":false,"is_disabled":false,"rental_uris":{"android":"levelo://app?vid=1e23e74f-5732-4bb0-9a77-a1273668c279","ios":"levelo://app?vid=1e23e74f-5732-4bb0-9a77-a1273668c279"},"vehicle_type_id":"4","last_reported":1744128768,"current_range_meters":10800,"station_id":"ce4bhb12rcd13ifvqel0","pricing_plan_id":"cebpf4jnsgd1na2vs0mg"},{"bike_id":"4af48280-972e-4331-a42c-8ad0c9df46e1","system_id":"levelo_inurba_marseille","lat":43.27392,"lon":5.36277,"is_reserved":false,"is_disabled":false,"rental_uris":{"android":"levelo://app?vid=4af48280-972e-4331-a42c-8ad0c9df46e1","ios":"levelo://app?vid=4af48280-972e-4331-a42c-8ad0c9df46e1"},"vehicle_type_id":"4","last_reported":1744128768,"current_range_meters":10800,"station_id":"ce4bhbh2rcd13ifvqeo0","pricing_plan_id":"cebpf4jnsgd1na2vs0mg"},{"bike_id":"68d1cc33-0218-451e-8e10-d32225c21263","system_id":"levelo_inurba_marseille","lat":43.23155,"lon":5.43698,"is_reserved":false,"is_disabled":true,"rental_uris":{"android":"levelo://app?vid=68d1cc33-0218-451e-8e10-d32225c21263","ios":"levelo://app?vid=68d1cc33-0218-451e-8e10-d32225c21263"},"vehicle_type_id":"4","last_reported":1744128768,"current_range_meters":10800,"station_id":"ce4bhmp2rcd13ifvqgog","pricing_plan_id":"cebpf4jnsgd1na2vs0mg"},{"bike_id":"82b21361-0979-44a8-a76f-28827d2feadf","system_id":"levelo_inurba_marseille","lat":43.28664,"lon":5.36356,"is_reserved":false,"is_disabled":false,"rental_uris":{"android":"levelo://app?vid=82b21361-0979-44a8-a76f-28827d2feadf","ios":"levelo://app?vid=82b21361-0979-44a8-a76f-28827d2feadf"},"vehicle_type_id":"4","last_reported":1744128768,"current_range_meters":10000,"station_id":"ce4bhhh2rcd13ifvqfk0","pricing_plan_id":"cebpf4jnsgd1na2vs0mg"},{"bike_id":"eedd2c3a-dd85-4ba7-a51d-3b5c8b81d29e","system_id":"levelo_inurba_marseille","lat":43.29225,"lon":5.36063,"is_reserved":false,"is_disabled":false,"rental_uris":{"android":"levelo://app?vid=eedd2c3a-dd85-4ba7-a51d-3b5c8b81d29e","ios":"levelo://app?vid=eedd2c3a-dd85-4ba7-a51d-3b5c8b81d29e"},"vehicle_type_id":"4","last_reported":1744128768,"current_range_meters":11200,"station_id":"ce4bhbh2rcd13ifvqeqg","pricing_plan_id":"cebpf4jnsgd1na2vs0mg"},{"bike_id":"93e3fd92-d65f-4f36-ba40-a3e5476ebc87","system_id":"levelo_inurba_marseille","lat":43.30673,"lon":5.36619,"is_reserved":false,"is_disabled":false,"rental_uris":{"android":"levelo://app?vid=93e3fd92-d65f-4f36-ba40-a3e5476ebc87","ios":"levelo://app?vid=93e3fd92-d65f-4f36-ba40-a3e5476ebc87"},"vehicle_type_id":"4","last_reported":1744128768,"current_range_meters":11200,"station_id":"","pricing_plan_id":"cebpf4jnsgd1na2vs0mg"},{"bike_id":"f446886e-19b3-4652-a8b3-bf80bbd999e7","system_id":"levelo_inurba_marseille","lat":43.2942,"lon":5.38619,"is_reserved":false,"is_disabled":false,"rental_uris":{"android":"levelo://app?vid=f446886e-19b3-4652-a8b3-bf80bbd999e7","ios":"levelo://app?vid=f446886e-19b3-4652-a8b3-bf80bbd999e7"},"vehicle_type_id":"4","last_reported":1744128768,"current_range_meters":11200,"station_id":"ce4bh2h2rcd13ifvqdh0","pricing_plan_id":"cebpf4jnsgd1na2vs0mg"},{"bike_id":"5b808185-0a5a-48a8-8a34-81f7ce536aa8","system_id":"levelo_inurba_marseille","lat":43.28427,"lon":5.34976,"is_reserved":false,"is_disabled":false,"rental_uris":{"android":"levelo://app?vid=5b808185-0a5a-48a8-8a34-81f7ce536aa8","ios":"levelo://app?vid=5b808185-0a5a-48a8-8a34-81f7ce536aa8"},"vehicle_type_id":"4","last_reported":1744128768,"current_range_meters":11200,"station_id":"ce4bhbh2rcd13ifvqepg","pricing_plan_id":"cebpf4jnsgd1na2vs0mg"},{"bike_id":"650cd787-8c2a-4d8d-94da-55ff49e8aeb3","system_id":"levelo_inurba_marseille","lat":43.288663,"lon":5.358475,"is_reserved":false,"is_disabled":false,"rental_uris":{"android":"levelo://app?vid=650cd787-8c2a-4d8d-94da-55ff49e8aeb3","ios":"levelo://app?vid=650cd787-8c2a-4d8d-94da-55ff49e8aeb3"},"vehicle_type_id":"4","last_reported":1744128768,"current_range_meters":11200,"station_id":"ce4bhb12rcd13ifvqem0","pricing_plan_id":"cebpf4jnsgd1na2vs0mg"},{"bike_id":"ff4da2d1-ff4c-4c30-865b-2d78e7e3d7ba","system_id":"levelo_inurba_marseille","lat":43.26497,"lon":5.39545,"is_reserved":false,"is_disabled":false,"rental_uris":{"android":"levelo://app?vid=ff4da2d1-ff4c-4c30-865b-2d78e7e3d7ba","ios":"levelo://app?vid=ff4da2d1-ff4c-4c30-865b-2d78e7e3d7ba"},"vehicle_type_id":"4","last_reported":1744128768,"current_range_meters":11200,"station_id":"ce4bhi12rcd13ifvqfq0","pricing_plan_id":"cebpf4jnsgd1na2vs0mg"},{"bike_id":"3c6418c0-8cdb-4054-b593-5f6e2485f75f","system_id":"levelo_inurba_marseille","lat":43.27496,"lon":5.42446,"is_reserved":false,"is_disabled":false,"rental_uris":{"android":"levelo://app?vid=3c6418c0-8cdb-4054-b593-5f6e2485f75f","ios":"levelo://app?vid=3c6418c0-8cdb-4054-b593-5f6e2485f75f"},"vehicle_type_id":"4","last_reported":1744128768,"current_range_meters":11600,"station_id":"ce4bhn92rcd13ifvqgrg","pricing_plan_id":"cebpf4jnsgd1na2vs0mg"},{"bike_id":"196aab48-85b0-499e-8220-62200322436d","system_id":"levelo_inurba_marseille","lat":43.23197,"lon":5.3556,"is_reserved":false,"is_disabled":false,"rental_uris":{"android":"levelo://app?vid=196aab48-85b0-499e-8220-62200322436d","ios":"levelo://app?vid=196aab48-85b0-499e-8220-62200322436d"},"vehicle_type_id":"4","last_reported":1744128768,"current_range_meters":11600,"station_id":"ce4bhu92rcd13ifvqi70","pricing_plan_id":"cebpf4jnsgd1na2vs0mg"},{"bike_id":"08f9c0c8-8b33-4578-8a03-20f44d582241","system_id":"levelo_inurba_marseille","lat":43.30613,"lon":5.3716,"is_reserved":false,"is_disabled":false,"rental_uris":{"android":"levelo://app?vid=08f9c0c8-8b33-4578-8a03-20f44d582241","ios":"levelo://app?vid=08f9c0c8-8b33-4578-8a03-20f44d582241"},"vehicle_type_id":"4","last_reported":1744128768,"current_range_meters":11600,"station_id":"","pricing_plan_id":"cebpf4jnsgd1na2vs0mg"},{"bike_id":"e61b09e3-8e9e-412c-96e2-900f0b70b7f5","system_id":"levelo_inurba_marseille","lat":43.24646,"lon":5.38889,"is_reserved":false,"is_disabled":false,"rental_uris":{"android":"levelo://app?vid=e61b09e3-8e9e-412c-96e2-900f0b70b7f5","ios":"levelo://app?vid=e61b09e3-8e9e-412c-96e2-900f0b70b7f5"},"vehicle_type_id":"4","last_reported":1744128768,"current_range_meters":11600,"station_id":"ce4bhg12rcd13ifvqf60","pricing_plan_id":"cebpf4jnsgd1na2vs0mg"},{"bike_id":"147e5cba-3184-41df-a031-de5735fd8210","system_id":"levelo_inurba_marseille","lat":43.30311,"lon":5.36899,"is_reserved":false,"is_disabled":false,"rental_uris":{"android":"levelo://app?vid=147e5cba-3184-41df-a031-de5735fd8210","ios":"levelo://app?vid=147e5cba-3184-41df-a031-de5735fd8210"},"vehicle_type_id":"4","last_reported":1744128768,"current_range_meters":11600,"station_id":"ce4bgqh2rcd13ifvqc5g","pricing_plan_id":"cebpf4jnsgd1na2vs0mg"},{"bike_id":"1ca7d0c4-b7aa-4350-ad9f-4e24c2ba029a","system_id":"levelo_inurba_marseille","lat":43.30375,"lon":5.42491,"is_reserved":false,"is_disabled":true,"rental_uris":{"android":"levelo://app?vid=1ca7d0c4-b7aa-4350-ad9f-4e24c2ba029a","ios":"levelo://app?vid=1ca7d0c4-b7aa-4350-ad9f-4e24c2ba029a"},"vehicle_type_id":"4","last_reported":1744128768,"current_range_meters":12000,"station_id":"ce4bhoh2rcd13ifvqh6g","pricing_plan_id":"cebpf4jnsgd1na2vs0mg"},{"bike_id":"31717a12-c1ac-41a5-9ddb-358fac940030","system_id":"levelo_inurba_marseille","lat":43.285732,"lon":5.39498,"is_reserved":false,"is_disabled":false,"rental_uris":{"android":"levelo://app?vid=31717a12-c1ac-41a5-9ddb-358fac940030","ios":"levelo://app?vid=31717a12-c1ac-41a5-9ddb-358fac940030"},"vehicle_type_id":"4","last_reported":1744128768,"current_range_meters":11600,"station_id":"ce4bh292rcd13ifvqdg0","pricing_plan_id":"cebpf4jnsgd1na2vs0mg"},{"bike_id":"34971c4f-f8ae-4064-bf9d-81a7e81036a4","system_id":"levelo_inurba_marseille","lat":43.29541,"lon":5.39404,"is_reserved":false,"is_disabled":false,"rental_uris":{"android":"levelo://app?vid=34971c4f-f8ae-4064-bf9d-81a7e81036a4","ios":"levelo://app?vid=34971c4f-f8ae-4064-bf9d-81a7e81036a4"},"vehicle_type_id":"4","last_reported":1744128768,"current_range_meters":12000,"station_id":"ce4bh292rcd13ifvqdf0","pricing_plan_id":"cebpf4jnsgd1na2vs0mg"},{"bike_id":"77bf1b8c-314e-4df8-8865-c0b5cdb8fbee","system_id":"levelo_inurba_marseille","lat":43.25085,"lon":5.39523,"is_reserved":false,"is_disabled":false,"rental_uris":{"android":"levelo://app?vid=77bf1b8c-314e-4df8-8865-c0b5cdb8fbee","ios":"levelo://app?vid=77bf1b8c-314e-4df8-8865-c0b5cdb8fbee"},"vehicle_type_id":"4","last_reported":1744128768,"current_range_meters":11600,"station_id":"ce4bhm12rcd13ifvqgkg","pricing_plan_id":"cebpf4jnsgd1na2vs0mg"},{"bike_id":"0dd5c086-3293-494a-946c-5ff1bee89e54","system_id":"levelo_inurba_marseille","lat":43.29422,"lon":5.38643,"is_reserved":false,"is_disabled":false,"rental_uris":{"android":"levelo://app?vid=0dd5c086-3293-494a-946c-5ff1bee89e54","ios":"levelo://app?vid=0dd5c086-3293-494a-946c-5ff1bee89e54"},"vehicle_type_id":"4","last_reported":1744128768,"current_range_meters":12000,"station_id":"ce4bh2h2rcd13ifvqdh0","pricing_plan_id":"cebpf4jnsgd1na2vs0mg"},{"bike_id":"37c756d6-aab0-46f8-a4a4-61a42dc3424c","system_id":"levelo_inurba_marseille","lat":43.28616,"lon":5.3511,"is_reserved":false,"is_disabled":false,"rental_uris":{"android":"levelo://app?vid=37c756d6-aab0-46f8-a4a4-61a42dc3424c","ios":"levelo://app?vid=37c756d6-aab0-46f8-a4a4-61a42dc3424c"},"vehicle_type_id":"4","last_reported":1744128768,"current_range_meters":12000,"station_id":"ce4bhch2rcd13ifvqeug","pricing_plan_id":"cebpf4jnsgd1na2vs0mg"},{"bike_id":"4a62b3af-4166-4a2f-b5d2-39334a3d5c89","system_id":"levelo_inurba_marseille","lat":43.26568,"lon":5.39002,"is_reserved":false,"is_disabled":false,"rental_uris":{"android":"levelo://app?vid=4a62b3af-4166-4a2f-b5d2-39334a3d5c89","ios":"levelo://app?vid=4a62b3af-4166-4a2f-b5d2-39334a3d5c89"},"vehicle_type_id":"4","last_reported":1744128768,"current_range_meters":12000,"station_id":"ce4bhe12rcd13ifvqf30","pricing_plan_id":"cebpf4jnsgd1na2vs0mg"},{"bike_id":"8b087ff5-23a7-4ed1-9eee-c8fbcce4cee8","system_id":"levelo_inurba_marseille","lat":43.300323,"lon":5.396181,"is_reserved":false,"is_disabled":false,"rental_uris":{"android":"levelo://app?vid=8b087ff5-23a7-4ed1-9eee-c8fbcce4cee8","ios":"levelo://app?vid=8b087ff5-23a7-4ed1-9eee-c8fbcce4cee8"},"vehicle_type_id":"4","last_reported":1744128768,"current_range_meters":12400,"station_id":"ce4bh392rcd13ifvqdl0","pricing_plan_id":"cebpf4jnsgd1na2vs0mg"},{"bike_id":"7953e6b7-4f1a-4837-ae61-b144651afbce","system_id":"levelo_inurba_marseille","lat":43.28618,"lon":5.35101,"is_reserved":false,"is_disabled":false,"rental_uris":{"android":"levelo://app?vid=7953e6b7-4f1a-4837-ae61-b144651afbce","ios":"levelo://app?vid=7953e6b7-4f1a-4837-ae61-b144651afbce"},"vehicle_type_id":"4","last_reported":1744128768,"current_range_meters":12400,"station_id":"ce4bhch2rcd13ifvqeug","pricing_plan_id":"cebpf4jnsgd1na2vs0mg"},{"bike_id":"e5591fbc-7213-4ed7-af2e-684b47ff6ed2","system_id":"levelo_inurba_marseille","lat":43.28928,"lon":5.36634,"is_reserved":false,"is_disabled":false,"rental_uris":{"android":"levelo://app?vid=e5591fbc-7213-4ed7-af2e-684b47ff6ed2","ios":"levelo://app?vid=e5591fbc-7213-4ed7-af2e-684b47ff6ed2"},"vehicle_type_id":"4","last_reported":1744128768,"current_range_meters":12400,"station_id":"ce4bhap2rcd13ifvqek0","pricing_plan_id":"cebpf4jnsgd1na2vs0mg"},{"bike_id":"bd6a4b30-e426-4adc-9e8d-3755727815b0","system_id":"levelo_inurba_marseille","lat":43.29266,"lon":5.38426,"is_reserved":false,"is_disabled":false,"rental_uris":{"android":"levelo://app?vid=bd6a4b30-e426-4adc-9e8d-3755727815b0","ios":"levelo://app?vid=bd6a4b30-e426-4adc-9e8d-3755727815b0"},"vehicle_type_id":"4","last_reported":1744128768,"current_range_meters":12400,"station_id":"ce4bh692rcd13ifvqea0","pricing_plan_id":"cebpf4jnsgd1na2vs0mg"},{"bike_id":"fcba2fad-8717-4251-93ef-1b115b919533","system_id":"levelo_inurba_marseille","lat":43.2738,"lon":5.36261,"is_reserved":false,"is_disabled":false,"rental_uris":{"android":"levelo://app?vid=fcba2fad-8717-4251-93ef-1b115b919533","ios":"levelo://app?vid=fcba2fad-8717-4251-93ef-1b115b919533"},"vehicle_type_id":"4","last_reported":1744128768,"current_range_meters":12400,"station_id":"ce4bhbh2rcd13ifvqeo0","pricing_plan_id":"cebpf4jnsgd1na2vs0mg"},{"bike_id":"b397701f-0d3d-44bf-ab3e-3ccc7e74fb2e","system_id":"levelo_inurba_marseille","lat":43.264314,"lon":5.422764,"is_reserved":false,"is_disabled":false,"rental_uris":{"android":"levelo://app?vid=b397701f-0d3d-44bf-ab3e-3ccc7e74fb2e","ios":"levelo://app?vid=b397701f-0d3d-44bf-ab3e-3ccc7e74fb2e"},"vehicle_type_id":"4","last_reported":1744128768,"current_range_meters":12400,"station_id":"","pricing_plan_id":"cebpf4jnsgd1na2vs0mg"},{"bike_id":"1e2317eb-18da-49c4-a867-2786126d13bb","system_id":"levelo_inurba_marseille","lat":43.23195,"lon":5.35551,"is_reserved":false,"is_disabled":false,"rental_uris":{"android":"levelo://app?vid=1e2317eb-18da-49c4-a867-2786126d13bb","ios":"levelo://app?vid=1e2317eb-18da-49c4-a867-2786126d13bb"},"vehicle_type_id":"4","last_reported":1744128768,"current_range_meters":12800,"station_id":"ce4bhu92rcd13ifvqi70","pricing_plan_id":"cebpf4jnsgd1na2vs0mg"},{"bike_id":"9fce7fb9-26b6-4832-9f96-ea1b75c489f0","system_id":"levelo_inurba_marseille","lat":43.23193,"lon":5.35556,"is_reserved":false,"is_disabled":false,"rental_uris":{"android":"levelo://app?vid=9fce7fb9-26b6-4832-9f96-ea1b75c489f0","ios":"levelo://app?vid=9fce7fb9-26b6-4832-9f96-ea1b75c489f0"},"vehicle_type_id":"4","last_reported":1744128768,"current_range_meters":12800,"station_id":"ce4bhu92rcd13ifvqi70","pricing_plan_id":"cebpf4jnsgd1na2vs0mg"},{"bike_id":"1a66fb06-1231-4b06-a150-e0da8c2e2c57","system_id":"levelo_inurba_marseille","lat":43.30307,"lon":5.36879,"is_reserved":false,"is_disabled":false,"rental_uris":{"android":"levelo://app?vid=1a66fb06-1231-4b06-a150-e0da8c2e2c57","ios":"levelo://app?vid=1a66fb06-1231-4b06-a150-e0da8c2e2c57"},"vehicle_type_id":"4","last_reported":1744128768,"current_range_meters":12800,"station_id":"ce4bgqh2rcd13ifvqc5g","pricing_plan_id":"cebpf4jnsgd1na2vs0mg"},{"bike_id":"e4bffa2d-261c-4f4c-b85a-49a2f9138e9e","system_id":"levelo_inurba_marseille","lat":43.28619,"lon":5.35109,"is_reserved":false,"is_disabled":false,"rental_uris":{"android":"levelo://app?vid=e4bffa2d-261c-4f4c-b85a-49a2f9138e9e","ios":"levelo://app?vid=e4bffa2d-261c-4f4c-b85a-49a2f9138e9e"},"vehicle_type_id":"4","last_reported":1744128768,"current_range_meters":12800,"station_id":"ce4bhch2rcd13ifvqeug","pricing_plan_id":"cebpf4jnsgd1na2vs0mg"},{"bike_id":"56ee759a-b574-4911-9e6e-32e32e9ade9a","system_id":"levelo_inurba_marseille","lat":43.28625,"lon":5.35102,"is_reserved":false,"is_disabled":false,"rental_uris":{"android":"levelo://app?vid=56ee759a-b574-4911-9e6e-32e32e9ade9a","ios":"levelo://app?vid=56ee759a-b574-4911-9e6e-32e32e9ade9a"},"vehicle_type_id":"4","last_reported":1744128768,"current_range_meters":12800,"station_id":"ce4bhch2rcd13ifvqeug","pricing_plan_id":"cebpf4jnsgd1na2vs0mg"},{"bike_id":"db36dae9-7031-428f-bd21-04c5ca015500","system_id":"levelo_inurba_marseille","lat":43.32368,"lon":5.38882,"is_reserved":false,"is_disabled":false,"rental_uris":{"android":"levelo://app?vid=db36dae9-7031-428f-bd21-04c5ca015500","ios":"levelo://app?vid=db36dae9-7031-428f-bd21-04c5ca015500"},"vehicle_type_id":"4","last_reported":1744128768,"current_range_meters":12800,"station_id":"ce4bhqp2rcd13ifvqhog","pricing_plan_id":"cebpf4jnsgd1na2vs0mg"},{"bike_id":"79d87762-1b74-465e-ad8f-9b64bf06f343","system_id":"levelo_inurba_marseille","lat":43.28466,"lon":5.38414,"is_reserved":false,"is_disabled":false,"rental_uris":{"android":"levelo://app?vid=79d87762-1b74-465e-ad8f-9b64bf06f343","ios":"levelo://app?vid=79d87762-1b74-465e-ad8f-9b64bf06f343"},"vehicle_type_id":"4","last_reported":1744128768,"current_range_meters":12800,"station_id":"ce4bh512rcd13ifvqe3g","pricing_plan_id":"cebpf4jnsgd1na2vs0mg"},{"bike_id":"e002f585-9ca1-49ef-b99f-a87e50309339","system_id":"levelo_inurba_marseille","lat":43.290179,"lon":5.378136,"is_reserved":false,"is_disabled":false,"rental_uris":{"android":"levelo://app?vid=e002f585-9ca1-49ef-b99f-a87e50309339","ios":"levelo://app?vid=e002f585-9ca1-49ef-b99f-a87e50309339"},"vehicle_type_id":"4","last_reported":1744128768,"current_range_meters":12400,"station_id":"ce4bh9p2rcd13ifvqed0","pricing_plan_id":"cebpf4jnsgd1na2vs0mg"},{"bike_id":"ece7b971-5cac-4ca9-a4cd-155a87359c63","system_id":"levelo_inurba_marseille","lat":43.279458,"lon":5.410418,"is_reserved":false,"is_disabled":false,"rental_uris":{"android":"levelo://app?vid=ece7b971-5cac-4ca9-a4cd-155a87359c63","ios":"levelo://app?vid=ece7b971-5cac-4ca9-a4cd-155a87359c63"},"vehicle_type_id":"4","last_reported":1744128768,"current_range_meters":12800,"station_id":"ce4bgjp2rcd13ifvqbh0","pricing_plan_id":"cebpf4jnsgd1na2vs0mg"},{"bike_id":"65a6457a-2da9-4319-a84d-fc7aa65f0ab4","system_id":"levelo_inurba_marseille","lat":43.27533,"lon":5.360051,"is_reserved":false,"is_disabled":false,"rental_uris":{"android":"levelo://app?vid=65a6457a-2da9-4319-a84d-fc7aa65f0ab4","ios":"levelo://app?vid=65a6457a-2da9-4319-a84d-fc7aa65f0ab4"},"vehicle_type_id":"4","last_reported":1744128768,"current_range_meters":12800,"station_id":"","pricing_plan_id":"cebpf4jnsgd1na2vs0mg"},{"bike_id":"8c33120b-fb8a-43fc-b964-011265f7c0c0","system_id":"levelo_inurba_marseille","lat":43.286121,"lon":5.350986,"is_reserved":false,"is_disabled":false,"rental_uris":{"android":"levelo://app?vid=8c33120b-fb8a-43fc-b964-011265f7c0c0","ios":"levelo://app?vid=8c33120b-fb8a-43fc-b964-011265f7c0c0"},"vehicle_type_id":"4","last_reported":1744128768,"current_range_meters":13600,"station_id":"ce4bhch2rcd13ifvqeug","pricing_plan_id":"cebpf4jnsgd1na2vs0mg"},{"bike_id":"8e1aad19-8edd-4368-9b6a-6e64af04de27","system_id":"levelo_inurba_marseille","lat":43.26788,"lon":5.39411,"is_reserved":false,"is_disabled":false,"rental_uris":{"android":"levelo://app?vid=8e1aad19-8edd-4368-9b6a-6e64af04de27","ios":"levelo://app?vid=8e1aad19-8edd-4368-9b6a-6e64af04de27"},"vehicle_type_id":"4","last_reported":1744128768,"current_range_meters":4800,"station_id":"ce4bhh12rcd13ifvqfg0","pricing_plan_id":"cebpf4jnsgd1na2vs0mg"},{"bike_id":"5400e62e-294f-4e00-9d20-0ec008735323","system_id":"levelo_inurba_marseille","lat":43.31326,"lon":5.39703,"is_reserved":false,"is_disabled":false,"rental_uris":{"android":"levelo://app?vid=5400e62e-294f-4e00-9d20-0ec008735323","ios":"levelo://app?vid=5400e62e-294f-4e00-9d20-0ec008735323"},"vehicle_type_id":"4","last_reported":1744128768,"current_range_meters":13600,"station_id":"ce4bgvp2rcd13ifvqcu0","pricing_plan_id":"cebpf4jnsgd1na2vs0mg"},{"bike_id":"68ba815a-6e75-43cd-8a96-54a492f666f0","system_id":"levelo_inurba_marseille","lat":43.2894,"lon":5.36636,"is_reserved":false,"is_disabled":false,"rental_uris":{"android":"levelo://app?vid=68ba815a-6e75-43cd-8a96-54a492f666f0","ios":"levelo://app?vid=68ba815a-6e75-43cd-8a96-54a492f666f0"},"vehicle_type_id":"4","last_reported":1744128768,"current_range_meters":14000,"station_id":"ce4bhap2rcd13ifvqek0","pricing_plan_id":"cebpf4jnsgd1na2vs0mg"},{"bike_id":"8ac0e8d3-a4c3-4977-b54e-d5cc5be49241","system_id":"levelo_inurba_marseille","lat":43.2953,"lon":5.38534,"is_reserved":false,"is_disabled":false,"rental_uris":{"android":"levelo://app?vid=8ac0e8d3-a4c3-4977-b54e-d5cc5be49241","ios":"levelo://app?vid=8ac0e8d3-a4c3-4977-b54e-d5cc5be49241"},"vehicle_type_id":"4","last_reported":1744128768,"current_range_meters":14000,"station_id":"ce4bgih2rcd13ifvqba0","pricing_plan_id":"cebpf4jnsgd1na2vs0mg"},{"bike_id":"e44ba920-53c8-4c52-807d-206146f9b17c","system_id":"levelo_inurba_marseille","lat":43.29261,"lon":5.38437,"is_reserved":false,"is_disabled":false,"rental_uris":{"android":"levelo://app?vid=e44ba920-53c8-4c52-807d-206146f9b17c","ios":"levelo://app?vid=e44ba920-53c8-4c52-807d-206146f9b17c"},"vehicle_type_id":"4","last_reported":1744128768,"current_range_meters":14000,"station_id":"ce4bh692rcd13ifvqea0","pricing_plan_id":"cebpf4jnsgd1na2vs0mg"},{"bike_id":"bc53b481-4dc9-4bcb-8920-6f3b955764f8","system_id":"levelo_inurba_marseille","lat":43.28374,"lon":5.38638,"is_reserved":false,"is_disabled":false,"rental_uris":{"android":"levelo://app?vid=bc53b481-4dc9-4bcb-8920-6f3b955764f8","ios":"levelo://app?vid=bc53b481-4dc9-4bcb-8920-6f3b955764f8"},"vehicle_type_id":"4","last_reported":1744128768,"current_range_meters":14000,"station_id":"ce4bh492rcd13ifvqdvg","pricing_plan_id":"cebpf4jnsgd1na2vs0mg"},{"bike_id":"b62cc60d-008d-40e8-9155-ebde0c93d444","system_id":"levelo_inurba_marseille","lat":43.25115,"lon":5.40334,"is_reserved":false,"is_disabled":false,"rental_uris":{"android":"levelo://app?vid=b62cc60d-008d-40e8-9155-ebde0c93d444","ios":"levelo://app?vid=b62cc60d-008d-40e8-9155-ebde0c93d444"},"vehicle_type_id":"4","last_reported":1744128768,"current_range_meters":14400,"station_id":"ce4bhlh2rcd13ifvqgig","pricing_plan_id":"cebpf4jnsgd1na2vs0mg"},{"bike_id":"52aa5ff9-5e3d-4e3c-bbfe-97f755567dba","system_id":"levelo_inurba_marseille","lat":43.28418,"lon":5.37503,"is_reserved":false,"is_disabled":false,"rental_uris":{"android":"levelo://app?vid=52aa5ff9-5e3d-4e3c-bbfe-97f755567dba","ios":"levelo://app?vid=52aa5ff9-5e3d-4e3c-bbfe-97f755567dba"},"vehicle_type_id":"4","last_reported":1744128768,"current_range_meters":14400,"station_id":"ce4bh412rcd13ifvqds0","pricing_plan_id":"cebpf4jnsgd1na2vs0mg"},{"bike_id":"87fb41eb-4549-4f1a-81d8-6ef91a1d079f","system_id":"levelo_inurba_marseille","lat":43.27943,"lon":5.41048,"is_reserved":false,"is_disabled":false,"rental_uris":{"android":"levelo://app?vid=87fb41eb-4549-4f1a-81d8-6ef91a1d079f","ios":"levelo://app?vid=87fb41eb-4549-4f1a-81d8-6ef91a1d079f"},"vehicle_type_id":"4","last_reported":1744128768,"current_range_meters":14400,"station_id":"ce4bhnp2rcd13ifvqh0g","pricing_plan_id":"cebpf4jnsgd1na2vs0mg"},{"bike_id":"1e4928fd-8b12-4f7c-a291-793834ce5df7","system_id":"levelo_inurba_marseille","lat":43.27952,"lon":5.4105,"is_reserved":false,"is_disabled":false,"rental_uris":{"android":"levelo://app?vid=1e4928fd-8b12-4f7c-a291-793834ce5df7","ios":"levelo://app?vid=1e4928fd-8b12-4f7c-a291-793834ce5df7"},"vehicle_type_id":"4","last_reported":1744128768,"current_range_meters":14800,"station_id":"ce4bhnp2rcd13ifvqh0g","pricing_plan_id":"cebpf4jnsgd1na2vs0mg"},{"bike_id":"b82be460-391f-4622-8721-ae14d7086d04","system_id":"levelo_inurba_marseille","lat":43.27371,"lon":5.36256,"is_reserved":false,"is_disabled":false,"rental_uris":{"android":"levelo://app?vid=b82be460-391f-4622-8721-ae14d7086d04","ios":"levelo://app?vid=b82be460-391f-4622-8721-ae14d7086d04"},"vehicle_type_id":"4","last_reported":1744128768,"current_range_meters":14800,"station_id":"ce4bhbh2rcd13ifvqeo0","pricing_plan_id":"cebpf4jnsgd1na2vs0mg"},{"bike_id":"e0ee99d6-ce28-4d2d-849a-e4c7c2b18dc5","system_id":"levelo_inurba_marseille","lat":43.29528,"lon":5.39043,"is_reserved":false,"is_disabled":false,"rental_uris":{"android":"levelo://app?vid=e0ee99d6-ce28-4d2d-849a-e4c7c2b18dc5","ios":"levelo://app?vid=e0ee99d6-ce28-4d2d-849a-e4c7c2b18dc5"},"vehicle_type_id":"4","last_reported":1744128768,"current_range_meters":15200,"station_id":"ce4bh3p2rcd13ifvqdp0","pricing_plan_id":"cebpf4jnsgd1na2vs0mg"},{"bike_id":"a01ae443-9e72-4561-bf60-3b007cee8c3d","system_id":"levelo_inurba_marseille","lat":43.292267,"lon":5.364322,"is_reserved":false,"is_disabled":false,"rental_uris":{"android":"levelo://app?vid=a01ae443-9e72-4561-bf60-3b007cee8c3d","ios":"levelo://app?vid=a01ae443-9e72-4561-bf60-3b007cee8c3d"},"vehicle_type_id":"4","last_reported":1744128768,"current_range_meters":14800,"station_id":"ce4bh092rcd13ifvqd20","pricing_plan_id":"cebpf4jnsgd1na2vs0mg"},{"bike_id":"60363987-034d-4294-bcb4-14e59d9b001e","system_id":"levelo_inurba_marseille","lat":43.30132,"lon":5.3878,"is_reserved":false,"is_disabled":false,"rental_uris":{"android":"levelo://app?vid=60363987-034d-4294-bcb4-14e59d9b001e","ios":"levelo://app?vid=60363987-034d-4294-bcb4-14e59d9b001e"},"vehicle_type_id":"4","last_reported":1744128768,"current_range_meters":14800,"station_id":"ce4bghh2rcd13ifvqb60","pricing_plan_id":"cebpf4jnsgd1na2vs0mg"},{"bike_id":"fde73e13-7648-4905-91b3-6f0ebb9df6a4","system_id":"levelo_inurba_marseille","lat":43.261769,"lon":5.379128,"is_reserved":false,"is_disabled":false,"rental_uris":{"android":"levelo://app?vid=fde73e13-7648-4905-91b3-6f0ebb9df6a4","ios":"levelo://app?vid=fde73e13-7648-4905-91b3-6f0ebb9df6a4"},"vehicle_type_id":"4","last_reported":1744128768,"current_range_meters":14400,"station_id":"ce4bhh92rcd13ifvqfh0","pricing_plan_id":"cebpf4jnsgd1na2vs0mg"},{"bike_id":"087f35a4-55ae-4a75-8fa8-6470bfad9afe","system_id":"levelo_inurba_marseille","lat":43.29441,"lon":5.38653,"is_reserved":false,"is_disabled":false,"rental_uris":{"android":"levelo://app?vid=087f35a4-55ae-4a75-8fa8-6470bfad9afe","ios":"levelo://app?vid=087f35a4-55ae-4a75-8fa8-6470bfad9afe"},"vehicle_type_id":"4","last_reported":1744128768,"current_range_meters":14800,"station_id":"ce4bh2h2rcd13ifvqdh0","pricing_plan_id":"cebpf4jnsgd1na2vs0mg"},{"bike_id":"8097db91-56c7-4f2f-836d-bf2648f2b487","system_id":"levelo_inurba_marseille","lat":43.28348,"lon":5.38109,"is_reserved":false,"is_disabled":false,"rental_uris":{"android":"levelo://app?vid=8097db91-56c7-4f2f-836d-bf2648f2b487","ios":"levelo://app?vid=8097db91-56c7-4f2f-836d-bf2648f2b487"},"vehicle_type_id":"4","last_reported":1744128768,"current_range_meters":14400,"station_id":"ce4bh412rcd13ifvqdr0","pricing_plan_id":"cebpf4jnsgd1na2vs0mg"},{"bike_id":"4b7954e4-abed-46e2-ae31-a06056f5c0e4","system_id":"levelo_inurba_marseille","lat":43.28456,"lon":5.35891,"is_reserved":false,"is_disabled":false,"rental_uris":{"android":"levelo://app?vid=4b7954e4-abed-46e2-ae31-a06056f5c0e4","ios":"levelo://app?vid=4b7954e4-abed-46e2-ae31-a06056f5c0e4"},"vehicle_type_id":"4","last_reported":1744128768,"current_range_meters":14800,"station_id":"ce4bhah2rcd13ifvqei0","pricing_plan_id":"cebpf4jnsgd1na2vs0mg"},{"bike_id":"5b272188-c58e-4fc2-857b-cb765067eb43","system_id":"levelo_inurba_marseille","lat":43.3133,"lon":5.39702,"is_reserved":false,"is_disabled":false,"rental_uris":{"android":"levelo://app?vid=5b272188-c58e-4fc2-857b-cb765067eb43","ios":"levelo://app?vid=5b272188-c58e-4fc2-857b-cb765067eb43"},"vehicle_type_id":"4","last_reported":1744128768,"current_range_meters":15200,"station_id":"ce4bgvp2rcd13ifvqcu0","pricing_plan_id":"cebpf4jnsgd1na2vs0mg"},{"bike_id":"bd0f6dae-aa02-473b-92f0-4d9a900d37e8","system_id":"levelo_inurba_marseille","lat":43.28739,"lon":5.36051,"is_reserved":false,"is_disabled":false,"rental_uris":{"android":"levelo://app?vid=bd0f6dae-aa02-473b-92f0-4d9a900d37e8","ios":"levelo://app?vid=bd0f6dae-aa02-473b-92f0-4d9a900d37e8"},"vehicle_type_id":"4","last_reported":1744128768,"current_range_meters":15200,"station_id":"cki0cbj6b192h4jlfktg","pricing_plan_id":"cebpf4jnsgd1na2vs0mg"},{"bike_id":"e24c6fd3-f9cb-40c7-9e57-dd2c20540e9b","system_id":"levelo_inurba_marseille","lat":43.31724,"lon":5.42422,"is_reserved":false,"is_disabled":false,"rental_uris":{"android":"levelo://app?vid=e24c6fd3-f9cb-40c7-9e57-dd2c20540e9b","ios":"levelo://app?vid=e24c6fd3-f9cb-40c7-9e57-dd2c20540e9b"},"vehicle_type_id":"4","last_reported":1744128768,"current_range_meters":15200,"station_id":"ce4bhp92rcd13ifvqhbg","pricing_plan_id":"cebpf4jnsgd1na2vs0mg"},{"bike_id":"f72f75a5-43f0-45ff-942a-fd3cc84b7d49","system_id":"levelo_inurba_marseille","lat":43.27375,"lon":5.36238,"is_reserved":false,"is_disabled":false,"rental_uris":{"android":"levelo://app?vid=f72f75a5-43f0-45ff-942a-fd3cc84b7d49","ios":"levelo://app?vid=f72f75a5-43f0-45ff-942a-fd3cc84b7d49"},"vehicle_type_id":"4","last_reported":1744128768,"current_range_meters":15200,"station_id":"ce4bhbh2rcd13ifvqeo0","pricing_plan_id":"cebpf4jnsgd1na2vs0mg"},{"bike_id":"dc92e84f-c532-4ea5-ba73-f4002b6f85aa","system_id":"levelo_inurba_marseille","lat":43.299,"lon":5.43571,"is_reserved":false,"is_disabled":false,"rental_uris":{"android":"levelo://app?vid=dc92e84f-c532-4ea5-ba73-f4002b6f85aa","ios":"levelo://app?vid=dc92e84f-c532-4ea5-ba73-f4002b6f85aa"},"vehicle_type_id":"4","last_reported":1744128768,"current_range_meters":15200,"station_id":"","pricing_plan_id":"cebpf4jnsgd1na2vs0mg"},{"bike_id":"d220da27-bb5e-4ca4-b262-16736cac0246","system_id":"levelo_inurba_marseille","lat":43.28426,"lon":5.35,"is_reserved":false,"is_disabled":false,"rental_uris":{"android":"levelo://app?vid=d220da27-bb5e-4ca4-b262-16736cac0246","ios":"levelo://app?vid=d220da27-bb5e-4ca4-b262-16736cac0246"},"vehicle_type_id":"4","last_reported":1744128768,"current_range_meters":16000,"station_id":"ce4bhbh2rcd13ifvqepg","pricing_plan_id":"cebpf4jnsgd1na2vs0mg"},{"bike_id":"72aa523e-8431-4007-8ecd-b8dccf63c9e6","system_id":"levelo_inurba_marseille","lat":43.2396,"lon":5.36634,"is_reserved":false,"is_disabled":false,"rental_uris":{"android":"levelo://app?vid=72aa523e-8431-4007-8ecd-b8dccf63c9e6","ios":"levelo://app?vid=72aa523e-8431-4007-8ecd-b8dccf63c9e6"},"vehicle_type_id":"4","last_reported":1744128768,"current_range_meters":16000,"station_id":"ce4bhi12rcd13ifvqfp0","pricing_plan_id":"cebpf4jnsgd1na2vs0mg"},{"bike_id":"659d35fd-a911-471b-bad5-fb7fcaf9b3f7","system_id":"levelo_inurba_marseille","lat":43.29852,"lon":5.36282,"is_reserved":false,"is_disabled":false,"rental_uris":{"android":"levelo://app?vid=659d35fd-a911-471b-bad5-fb7fcaf9b3f7","ios":"levelo://app?vid=659d35fd-a911-471b-bad5-fb7fcaf9b3f7"},"vehicle_type_id":"4","last_reported":1744128768,"current_range_meters":16000,"station_id":"ce4bgpp2rcd13ifvqc3g","pricing_plan_id":"cebpf4jnsgd1na2vs0mg"},{"bike_id":"46c99737-914c-4908-aeb8-48d54b22c93a","system_id":"levelo_inurba_marseille","lat":43.31727,"lon":5.42406,"is_reserved":false,"is_disabled":false,"rental_uris":{"android":"levelo://app?vid=46c99737-914c-4908-aeb8-48d54b22c93a","ios":"levelo://app?vid=46c99737-914c-4908-aeb8-48d54b22c93a"},"vehicle_type_id":"4","last_reported":1744128768,"current_range_meters":16000,"station_id":"ce4bhp92rcd13ifvqhbg","pricing_plan_id":"cebpf4jnsgd1na2vs0mg"},{"bike_id":"e0fd6dfe-2ee7-4885-afd8-4dab70c7b899","system_id":"levelo_inurba_marseille","lat":43.28672,"lon":5.36351,"is_reserved":false,"is_disabled":false,"rental_uris":{"android":"levelo://app?vid=e0fd6dfe-2ee7-4885-afd8-4dab70c7b899","ios":"levelo://app?vid=e0fd6dfe-2ee7-4885-afd8-4dab70c7b899"},"vehicle_type_id":"4","last_reported":1744128768,"current_range_meters":16000,"station_id":"ce4bhah2rcd13ifvqej0","pricing_plan_id":"cebpf4jnsgd1na2vs0mg"},{"bike_id":"22a5ec40-4120-425a-9b45-32ec65c1d7d2","system_id":"levelo_inurba_marseille","lat":43.31498,"lon":5.37309,"is_reserved":false,"is_disabled":false,"rental_uris":{"android":"levelo://app?vid=22a5ec40-4120-425a-9b45-32ec65c1d7d2","ios":"levelo://app?vid=22a5ec40-4120-425a-9b45-32ec65c1d7d2"},"vehicle_type_id":"4","last_reported":1744128768,"current_range_meters":16000,"station_id":"ce4bgt12rcd13ifvqcd0","pricing_plan_id":"cebpf4jnsgd1na2vs0mg"},{"bike_id":"ff46bac7-996e-4266-83f8-b2e54666e28f","system_id":"levelo_inurba_marseille","lat":43.25576,"lon":5.3823,"is_reserved":false,"is_disabled":false,"rental_uris":{"android":"levelo://app?vid=ff46bac7-996e-4266-83f8-b2e54666e28f","ios":"levelo://app?vid=ff46bac7-996e-4266-83f8-b2e54666e28f"},"vehicle_type_id":"4","last_reported":1744128768,"current_range_meters":16400,"station_id":"ce4bhih2rcd13ifvqfs0","pricing_plan_id":"cebpf4jnsgd1na2vs0mg"},{"bike_id":"b1db1fc5-c0d6-450a-90b8-72536e34cae0","system_id":"levelo_inurba_marseille","lat":43.31329,"lon":5.39714,"is_reserved":false,"is_disabled":false,"rental_uris":{"android":"levelo://app?vid=b1db1fc5-c0d6-450a-90b8-72536e34cae0","ios":"levelo://app?vid=b1db1fc5-c0d6-450a-90b8-72536e34cae0"},"vehicle_type_id":"4","last_reported":1744128768,"current_range_meters":16000,"station_id":"ce4bgvp2rcd13ifvqcu0","pricing_plan_id":"cebpf4jnsgd1na2vs0mg"},{"bike_id":"1e099cf5-9456-4ac3-8d36-9153ce8a87f2","system_id":"levelo_inurba_marseille","lat":43.29564,"lon":5.39991,"is_reserved":false,"is_disabled":true,"rental_uris":{"android":"levelo://app?vid=1e099cf5-9456-4ac3-8d36-9153ce8a87f2","ios":"levelo://app?vid=1e099cf5-9456-4ac3-8d36-9153ce8a87f2"},"vehicle_type_id":"4","last_reported":1744128768,"current_range_meters":16800,"station_id":"ce4bh312rcd13ifvqdj0","pricing_plan_id":"cebpf4jnsgd1na2vs0mg"},{"bike_id":"b53bcdbb-79d5-41ab-8c31-3376deab3d7e","system_id":"levelo_inurba_marseille","lat":43.26568,"lon":5.39015,"is_reserved":false,"is_disabled":false,"rental_uris":{"android":"levelo://app?vid=b53bcdbb-79d5-41ab-8c31-3376deab3d7e","ios":"levelo://app?vid=b53bcdbb-79d5-41ab-8c31-3376deab3d7e"},"vehicle_type_id":"4","last_reported":1744128768,"current_range_meters":16800,"station_id":"ce4bhe12rcd13ifvqf30","pricing_plan_id":"cebpf4jnsgd1na2vs0mg"},{"bike_id":"bec8fd83-3a62-414c-93ee-919efe29d1fe","system_id":"levelo_inurba_marseille","lat":43.25112,"lon":5.4032,"is_reserved":false,"is_disabled":false,"rental_uris":{"android":"levelo://app?vid=bec8fd83-3a62-414c-93ee-919efe29d1fe","ios":"levelo://app?vid=bec8fd83-3a62-414c-93ee-919efe29d1fe"},"vehicle_type_id":"4","last_reported":1744128768,"current_range_meters":16400,"station_id":"ce4bhlh2rcd13ifvqgig","pricing_plan_id":"cebpf4jnsgd1na2vs0mg"},{"bike_id":"751a3b31-0b19-4d39-9005-a15e4acea88b","system_id":"levelo_inurba_marseille","lat":43.2781,"lon":5.40711,"is_reserved":false,"is_disabled":false,"rental_uris":{"android":"levelo://app?vid=751a3b31-0b19-4d39-9005-a15e4acea88b","ios":"levelo://app?vid=751a3b31-0b19-4d39-9005-a15e4acea88b"},"vehicle_type_id":"4","last_reported":1744128768,"current_range_meters":16800,"station_id":"ce4bhnh2rcd13ifvqgtg","pricing_plan_id":"cebpf4jnsgd1na2vs0mg"},{"bike_id":"9115f6e2-2bba-4064-8dba-ab011e4bb21d","system_id":"levelo_inurba_marseille","lat":43.32602,"lon":5.37473,"is_reserved":false,"is_disabled":false,"rental_uris":{"android":"levelo://app?vid=9115f6e2-2bba-4064-8dba-ab011e4bb21d","ios":"levelo://app?vid=9115f6e2-2bba-4064-8dba-ab011e4bb21d"},"vehicle_type_id":"4","last_reported":1744128768,"current_range_meters":16800,"station_id":"","pricing_plan_id":"cebpf4jnsgd1na2vs0mg"},{"bike_id":"0c127851-242a-43a1-9e62-2634cb1e84b2","system_id":"levelo_inurba_marseille","lat":43.29895,"lon":5.43671,"is_reserved":false,"is_disabled":false,"rental_uris":{"android":"levelo://app?vid=0c127851-242a-43a1-9e62-2634cb1e84b2","ios":"levelo://app?vid=0c127851-242a-43a1-9e62-2634cb1e84b2"},"vehicle_type_id":"4","last_reported":1744128768,"current_range_meters":16800,"station_id":"ce4bhpp2rcd13ifvqhfg","pricing_plan_id":"cebpf4jnsgd1na2vs0mg"},{"bike_id":"5273534c-3473-4abd-9c4b-e677a5c1499a","system_id":"levelo_inurba_marseille","lat":43.29057,"lon":5.36981,"is_reserved":false,"is_disabled":false,"rental_uris":{"android":"levelo://app?vid=5273534c-3473-4abd-9c4b-e677a5c1499a","ios":"levelo://app?vid=5273534c-3473-4abd-9c4b-e677a5c1499a"},"vehicle_type_id":"4","last_reported":1744128768,"current_range_meters":16800,"station_id":"","pricing_plan_id":"cebpf4jnsgd1na2vs0mg"},{"bike_id":"4e1d7dd4-56f8-4f50-afc6-520b09fd4ed9","system_id":"levelo_inurba_marseille","lat":43.30101,"lon":5.39079,"is_reserved":false,"is_disabled":false,"rental_uris":{"android":"levelo://app?vid=4e1d7dd4-56f8-4f50-afc6-520b09fd4ed9","ios":"levelo://app?vid=4e1d7dd4-56f8-4f50-afc6-520b09fd4ed9"},"vehicle_type_id":"4","last_reported":1744128768,"current_range_meters":17200,"station_id":"ce4bh192rcd13ifvqdb0","pricing_plan_id":"cebpf4jnsgd1na2vs0mg"},{"bike_id":"e72a63a7-189d-4d4b-a8bf-ada5b7acb88c","system_id":"levelo_inurba_marseille","lat":43.292422,"lon":5.383867,"is_reserved":false,"is_disabled":false,"rental_uris":{"android":"levelo://app?vid=e72a63a7-189d-4d4b-a8bf-ada5b7acb88c","ios":"levelo://app?vid=e72a63a7-189d-4d4b-a8bf-ada5b7acb88c"},"vehicle_type_id":"4","last_reported":1744128768,"current_range_meters":17200,"station_id":"ce4bgn12rcd13ifvqbt0","pricing_plan_id":"cebpf4jnsgd1na2vs0mg"},{"bike_id":"27768073-dde6-48e9-bf13-e40e2934834a","system_id":"levelo_inurba_marseille","lat":43.24193,"lon":5.39733,"is_reserved":false,"is_disabled":false,"rental_uris":{"android":"levelo://app?vid=27768073-dde6-48e9-bf13-e40e2934834a","ios":"levelo://app?vid=27768073-dde6-48e9-bf13-e40e2934834a"},"vehicle_type_id":"4","last_reported":1744128768,"current_range_meters":17200,"station_id":"ce4bhn12rcd13ifvqgpg","pricing_plan_id":"cebpf4jnsgd1na2vs0mg"},{"bike_id":"f9da7f22-24e9-4b90-849b-5de05aad938c","system_id":"levelo_inurba_marseille","lat":43.28002,"lon":5.40017,"is_reserved":false,"is_disabled":false,"rental_uris":{"android":"levelo://app?vid=f9da7f22-24e9-4b90-849b-5de05aad938c","ios":"levelo://app?vid=f9da7f22-24e9-4b90-849b-5de05aad938c"},"vehicle_type_id":"4","last_reported":1744128768,"current_range_meters":17200,"station_id":"ce4bho92rcd13ifvqh4g","pricing_plan_id":"cebpf4jnsgd1na2vs0mg"},{"bike_id":"52dfef30-eef0-4dd6-a138-a48c8dcc2c3a","system_id":"levelo_inurba_marseille","lat":43.30428,"lon":5.42806,"is_reserved":false,"is_disabled":true,"rental_uris":{"android":"levelo://app?vid=52dfef30-eef0-4dd6-a138-a48c8dcc2c3a","ios":"levelo://app?vid=52dfef30-eef0-4dd6-a138-a48c8dcc2c3a"},"vehicle_type_id":"4","last_reported":1744128768,"current_range_meters":17600,"station_id":"","pricing_plan_id":"cebpf4jnsgd1na2vs0mg"},{"bike_id":"33586a7c-f52a-4f7d-9e96-bb7e2cca08c4","system_id":"levelo_inurba_marseille","lat":43.28616,"lon":5.35099,"is_reserved":false,"is_disabled":false,"rental_uris":{"android":"levelo://app?vid=33586a7c-f52a-4f7d-9e96-bb7e2cca08c4","ios":"levelo://app?vid=33586a7c-f52a-4f7d-9e96-bb7e2cca08c4"},"vehicle_type_id":"4","last_reported":1744128768,"current_range_meters":17600,"station_id":"ce4bhch2rcd13ifvqeug","pricing_plan_id":"cebpf4jnsgd1na2vs0mg"},{"bike_id":"d290c9ca-d8fc-472f-a060-688fec0160a2","system_id":"levelo_inurba_marseille","lat":43.26557,"lon":5.37281,"is_reserved":false,"is_disabled":false,"rental_uris":{"android":"levelo://app?vid=d290c9ca-d8fc-472f-a060-688fec0160a2","ios":"levelo://app?vid=d290c9ca-d8fc-472f-a060-688fec0160a2"},"vehicle_type_id":"4","last_reported":1744128768,"current_range_meters":17600,"station_id":"ce4bhg12rcd13ifvqf70","pricing_plan_id":"cebpf4jnsgd1na2vs0mg"},{"bike_id":"b37944fb-f9c1-4c8e-ac3a-9da227afb433","system_id":"levelo_inurba_marseille","lat":43.30802,"lon":5.38142,"is_reserved":false,"is_disabled":true,"rental_uris":{"android":"levelo://app?vid=b37944fb-f9c1-4c8e-ac3a-9da227afb433","ios":"levelo://app?vid=b37944fb-f9c1-4c8e-ac3a-9da227afb433"},"vehicle_type_id":"4","last_reported":1744128768,"current_range_meters":17600,"station_id":"ce4bgt12rcd13ifvqce0","pricing_plan_id":"cebpf4jnsgd1na2vs0mg"},{"bike_id":"26fda8a3-c40b-49a4-bf15-8e7a8378eb68","system_id":"levelo_inurba_marseille","lat":43.30602,"lon":5.39358,"is_reserved":false,"is_disabled":true,"rental_uris":{"android":"levelo://app?vid=26fda8a3-c40b-49a4-bf15-8e7a8378eb68","ios":"levelo://app?vid=26fda8a3-c40b-49a4-bf15-8e7a8378eb68"},"vehicle_type_id":"4","last_reported":1744128768,"current_range_meters":18000,"station_id":"ce4bh0p2rcd13ifvqd80","pricing_plan_id":"cebpf4jnsgd1na2vs0mg"},{"bike_id":"d0ab689c-ae47-43a6-bb37-6b4e0ee92582","system_id":"levelo_inurba_marseille","lat":43.21751,"lon":5.34598,"is_reserved":false,"is_disabled":false,"rental_uris":{"android":"levelo://app?vid=d0ab689c-ae47-43a6-bb37-6b4e0ee92582","ios":"levelo://app?vid=d0ab689c-ae47-43a6-bb37-6b4e0ee92582"},"vehicle_type_id":"4","last_reported":1744128768,"current_range_meters":17600,"station_id":"","pricing_plan_id":"cebpf4jnsgd1na2vs0mg"},{"bike_id":"6e5ac126-c372-4a39-b836-bcab5ad1f2e7","system_id":"levelo_inurba_marseille","lat":43.24166,"lon":5.3644,"is_reserved":false,"is_disabled":false,"rental_uris":{"android":"levelo://app?vid=6e5ac126-c372-4a39-b836-bcab5ad1f2e7","ios":"levelo://app?vid=6e5ac126-c372-4a39-b836-bcab5ad1f2e7"},"vehicle_type_id":"4","last_reported":1744128768,"current_range_meters":18000,"station_id":"cpo36qri1sfpv3e86is0","pricing_plan_id":"cebpf4jnsgd1na2vs0mg"},{"bike_id":"ae29291f-9162-44b5-b3d8-783f6a17be02","system_id":"levelo_inurba_marseille","lat":43.30639,"lon":5.40092,"is_reserved":false,"is_disabled":false,"rental_uris":{"android":"levelo://app?vid=ae29291f-9162-44b5-b3d8-783f6a17be02","ios":"levelo://app?vid=ae29291f-9162-44b5-b3d8-783f6a17be02"},"vehicle_type_id":"4","last_reported":1744128768,"current_range_meters":18000,"station_id":"ce4bh112rcd13ifvqda0","pricing_plan_id":"cebpf4jnsgd1na2vs0mg"},{"bike_id":"25cb2e48-395e-494a-91a4-48c6652b6918","system_id":"levelo_inurba_marseille","lat":43.23966,"lon":5.36633,"is_reserved":false,"is_disabled":false,"rental_uris":{"android":"levelo://app?vid=25cb2e48-395e-494a-91a4-48c6652b6918","ios":"levelo://app?vid=25cb2e48-395e-494a-91a4-48c6652b6918"},"vehicle_type_id":"4","last_reported":1744128768,"current_range_meters":18000,"station_id":"ce4bhi12rcd13ifvqfp0","pricing_plan_id":"cebpf4jnsgd1na2vs0mg"},{"bike_id":"2b0d3111-9e37-4f33-99aa-4afa3842e5b1","system_id":"levelo_inurba_marseille","lat":43.29974,"lon":5.38472,"is_reserved":false,"is_disabled":false,"rental_uris":{"android":"levelo://app?vid=2b0d3111-9e37-4f33-99aa-4afa3842e5b1","ios":"levelo://app?vid=2b0d3111-9e37-4f33-99aa-4afa3842e5b1"},"vehicle_type_id":"4","last_reported":1744128768,"current_range_meters":18000,"station_id":"ce4bgk12rcd13ifvqbi0","pricing_plan_id":"cebpf4jnsgd1na2vs0mg"},{"bike_id":"d1ab4a48-3ebf-4448-991f-741c70a9cfa1","system_id":"levelo_inurba_marseille","lat":43.28472,"lon":5.34996,"is_reserved":false,"is_disabled":false,"rental_uris":{"android":"levelo://app?vid=d1ab4a48-3ebf-4448-991f-741c70a9cfa1","ios":"levelo://app?vid=d1ab4a48-3ebf-4448-991f-741c70a9cfa1"},"vehicle_type_id":"4","last_reported":1744128768,"current_range_meters":18000,"station_id":"ce4bhbh2rcd13ifvqepg","pricing_plan_id":"cebpf4jnsgd1na2vs0mg"},{"bike_id":"f736dc1a-802c-4091-8e14-1901431645f5","system_id":"levelo_inurba_marseille","lat":43.29537,"lon":5.38551,"is_reserved":false,"is_disabled":false,"rental_uris":{"android":"levelo://app?vid=f736dc1a-802c-4091-8e14-1901431645f5","ios":"levelo://app?vid=f736dc1a-802c-4091-8e14-1901431645f5"},"vehicle_type_id":"4","last_reported":1744128768,"current_range_meters":18000,"station_id":"ce4bgih2rcd13ifvqba0","pricing_plan_id":"cebpf4jnsgd1na2vs0mg"},{"bike_id":"7bd3f7de-3a74-4fff-b4c6-181d8b119e52","system_id":"levelo_inurba_marseille","lat":43.29791,"lon":5.40413,"is_reserved":false,"is_disabled":true,"rental_uris":{"android":"levelo://app?vid=7bd3f7de-3a74-4fff-b4c6-181d8b119e52","ios":"levelo://app?vid=7bd3f7de-3a74-4fff-b4c6-181d8b119e52"},"vehicle_type_id":"4","last_reported":1744128768,"current_range_meters":18800,"station_id":"ce4bh112rcd13ifvqd90","pricing_plan_id":"cebpf4jnsgd1na2vs0mg"},{"bike_id":"cd6c7242-c8af-4bd8-9746-a762def43082","system_id":"levelo_inurba_marseille","lat":43.21192,"lon":5.35072,"is_reserved":false,"is_disabled":false,"rental_uris":{"android":"levelo://app?vid=cd6c7242-c8af-4bd8-9746-a762def43082","ios":"levelo://app?vid=cd6c7242-c8af-4bd8-9746-a762def43082"},"vehicle_type_id":"4","last_reported":1744128768,"current_range_meters":18800,"station_id":"st_cvj6sg6p6f1abm77japg","pricing_plan_id":"cebpf4jnsgd1na2vs0mg"},{"bike_id":"b6dec0f5-103e-44d0-9927-c9b46eae2381","system_id":"levelo_inurba_marseille","lat":43.26059,"lon":5.39399,"is_reserved":false,"is_disabled":false,"rental_uris":{"android":"levelo://app?vid=b6dec0f5-103e-44d0-9927-c9b46eae2381","ios":"levelo://app?vid=b6dec0f5-103e-44d0-9927-c9b46eae2381"},