{"last_updated":1769976809,"ttl":60,"version":"2.2","data":{"bikes":[{"bike_id":"8f843ca3-d41f-45d7-a1ea-c554adc815ab","system_id":"levelo_inurba_marseille","lat":43.25092,"lon":5.3954,"is_reserved":false,"is_disabled":false,"rental_uris":{"android":"levelo://app?vid=8f843ca3-d41f-45d7-a1ea-c554adc815ab","ios":"levelo://app?vid=8f843ca3-d41f-45d7-a1ea-c554adc815ab"},"vehicle_type_id":"4","last_reported":1769976809,"current_range_meters":2800,"station_id":"ce4bhm12rcd13ifvqgkg","pricing_plan_id":"cebpf4jnsgd1na2vs0mg"},{"bike_id":"50be18c8-6571-412b-accf-593813196826","system_id":"levelo_inurba_marseille","lat":43.25589,"lon":5.38233,"is_reserved":false,"is_disabled":false,"rental_uris":{"android":"levelo://app?vid=50be18c8-6571-412b-accf-593813196826","ios":"levelo://app?vid=50be18c8-6571-412b-accf-593813196826"},"vehicle_type_id":"4","last_reported":1769976809,"current_range_meters":2800,"station_id":"ce4bhih2rcd13ifvqfs0","pricing_plan_id":"cebpf4jnsgd1na2vs0mg"},{"bike_id":"d647989c-57dc-47f2-891b-e9f77042b980","system_id":"levelo_inurba_marseille","lat":43.29016,"lon":5.38126,"is_reserved":false,"is_disabled":false,"rental_uris":{"android":"levelo://app?vid=d647989c-57dc-47f2-891b-e9f77042b980","ios":"levelo://app?vid=d647989c-57dc-47f2-891b-e9f77042b980"},"vehicle_type_id":"4","last_reported":1769976809,"current_range_meters":2800,"station_id":"ce4bh4p2rcd13ifvqe1g","pricing_plan_id":"cebpf4jnsgd1na2vs0mg"},{"bike_id":"d8ad58c2-1203-4015-8476-69a224977c61","system_id":"levelo_inurba_marseille","lat":43.26663,"lon":5.3829,"is_reserved":false,"is_disabled":false,"rental_uris":{"android":"levelo://app?vid=d8ad58c2-1203-4015-8476-69a224977c61","ios":"levelo://app?vid=d8ad58c2-1203-4015-8476-69a224977c61"},"vehicle_type_id":"4","last_reported":1769976809,"current_range_meters":2800,"station_id":"ce4bhg92rcd13ifvqf90","pricing_plan_id":"cebpf4jnsgd1na2vs0mg"},{"bike_id":"d0d25c75-a818-45ff-b16c-9f2520e5bae4","system_id":"levelo_inurba_marseille","lat":43.24811,"lon":5.37453,"is_reserved":false,"is_disabled":false,"rental_uris":{"android":"levelo://app?vid=d0d25c75-a818-45ff-b16c-9f2520e5bae4","ios":"levelo://app?vid=d0d25c75-a818-45ff-b16c-9f2520e5bae4"},"vehicle_type_id":"4","last_reported":1769976809,"current_range_meters":2800,"station_id":"ce4bhgh2rcd13ifvqfb0","pricing_plan_id":"cebpf4jnsgd1na2vs0mg"},{"bike_id":"8b168f0a-124a-4ba7-9621-33e8fc9a8a7c","system_id":"levelo_inurba_marseille","lat":43.29534,"lon":5.38545,"is_reserved":false,"is_disabled":false,"rental_uris":{"android":"levelo://app?vid=8b168f0a-124a-4ba7-9621-33e8fc9a8a7c","ios":"levelo://app?vid=8b168f0a-124a-4ba7-9621-33e8fc9a8a7c"},"vehicle_type_id":"4","last_reported":1769976809,"current_range_meters":2800,"station_id":"ce4bgih2rcd13ifvqba0","pricing_plan_id":"cebpf4jnsgd1na2vs0mg"},{"bike_id":"581ce60f-5f73-418f-b6cd-f362decf7a25","system_id":"levelo_inurba_marseille","lat":43.27952,"lon":5.41039,"is_reserved":false,"is_disabled":false,"rental_uris":{"android":"levelo://app?vid=581ce60f-5f73-418f-b6cd-f362decf7a25","ios":"levelo://app?vid=581ce60f-5f73-418f-b6cd-f362decf7a25"},"vehicle_type_id":"4","last_reported":1769976809,"current_range_meters":2800,"station_id":"ce4bhnp2rcd13ifvqh0g","pricing_plan_id":"cebpf4jnsgd1na2vs0mg"},{"bike_id":"4ae21097-68ff-4a44-bcb7-3e142e11d517","system_id":"levelo_inurba_marseille","lat":43.24177,"lon":5.36405,"is_reserved":false,"is_disabled":false,"rental_uris":{"android":"levelo://app?vid=4ae21097-68ff-4a44-bcb7-3e142e11d517","ios":"levelo://app?vid=4ae21097-68ff-4a44-bcb7-3e142e11d517"},"vehicle_type_id":"4","last_reported":1769976809,"current_range_meters":2800,"station_id":"cpo36qri1sfpv3e86is0","pricing_plan_id":"cebpf4jnsgd1na2vs0mg"},{"bike_id":"1ce878eb-4071-417b-affe-e9036002f1a6","system_id":"levelo_inurba_marseille","lat":43.24807,"lon":5.3748,"is_reserved":false,"is_disabled":false,"rental_uris":{"android":"levelo://app?vid=1ce878eb-4071-417b-affe-e9036002f1a6","ios":"levelo://app?vid=1ce878eb-4071-417b-affe-e9036002f1a6"},"vehicle_type_id":"4","last_reported":1769976809,"current_range_meters":2800,"station_id":"ce4bhgh2rcd13ifvqfb0","pricing_plan_id":"cebpf4jnsgd1na2vs0mg"},{"bike_id":"95e5f413-7daa-4dab-8d77-56b7148d4464","system_id":"levelo_inurba_marseille","lat":43.34143,"lon":5.40902,"is_reserved":false,"is_disabled":false,"rental_uris":{"android":"levelo://app?vid=95e5f413-7daa-4dab-8d77-56b7148d4464","ios":"levelo://app?vid=95e5f413-7daa-4dab-8d77-56b7148d4464"},"vehicle_type_id":"4","last_reported":1769976809,"current_range_meters":2800,"station_id":"ce4bhqh2rcd13ifvqhlg","pricing_plan_id":"cebpf4jnsgd1na2vs0mg"},{"bike_id":"ae9455a0-cefc-4d5e-b9ef-a184dcd08edb","system_id":"levelo_inurba_marseille","lat":43.26536,"lon":5.37297,"is_reserved":false,"is_disabled":true,"rental_uris":{"android":"levelo://app?vid=ae9455a0-cefc-4d5e-b9ef-a184dcd08edb","ios":"levelo://app?vid=ae9455a0-cefc-4d5e-b9ef-a184dcd08edb"},"vehicle_type_id":"4","last_reported":1769976809,"current_range_meters":2800,"station_id":"ce4bhg12rcd13ifvqf70","pricing_plan_id":"cebpf4jnsgd1na2vs0mg"},{"bike_id":"6db7d4e2-6613-4bf1-8965-27a146d49a14","system_id":"levelo_inurba_marseille","lat":43.26434,"lon":5.40399,"is_reserved":false,"is_disabled":false,"rental_uris":{"android":"levelo://app?vid=6db7d4e2-6613-4bf1-8965-27a146d49a14","ios":"levelo://app?vid=6db7d4e2-6613-4bf1-8965-27a146d49a14"},"vehicle_type_id":"4","last_reported":1769976809,"current_range_meters":2800,"station_id":"","pricing_plan_id":"cebpf4jnsgd1na2vs0mg"},{"bike_id":"2aa1b855-a67e-44a5-9e87-0b767dbf6e7a","system_id":"levelo_inurba_marseille","lat":43.27401,"lon":5.36288,"is_reserved":false,"is_disabled":false,"rental_uris":{"android":"levelo://app?vid=2aa1b855-a67e-44a5-9e87-0b767dbf6e7a","ios":"levelo://app?vid=2aa1b855-a67e-44a5-9e87-0b767dbf6e7a"},"vehicle_type_id":"4","last_reported":1769976809,"current_range_meters":2800,"station_id":"ce4bhbh2rcd13ifvqeo0","pricing_plan_id":"cebpf4jnsgd1na2vs0mg"},{"bike_id":"fb770f52-ce98-4cd4-aae7-0a310d77081f","system_id":"levelo_inurba_marseille","lat":43.288375,"lon":5.393019,"is_reserved":false,"is_disabled":false,"rental_uris":{"android":"levelo://app?vid=fb770f52-ce98-4cd4-aae7-0a310d77081f","ios":"levelo://app?vid=fb770f52-ce98-4cd4-aae7-0a310d77081f"},"vehicle_type_id":"4","last_reported":1769976809,"current_range_meters":2800,"station_id":"cki0cbj6b192h4jlfktg","pricing_plan_id":"cebpf4jnsgd1na2vs0mg"},{"bike_id":"d3215a18-ac25-47b2-bc57-dcaef897eb36","system_id":"levelo_inurba_marseille","lat":43.314093,"lon":5.38571,"is_reserved":false,"is_disabled":false,"rental_uris":{"android":"levelo://app?vid=d3215a18-ac25-47b2-bc57-dcaef897eb36","ios":"levelo://app?vid=d3215a18-ac25-47b2-bc57-dcaef897eb36"},"vehicle_type_id":"4","last_reported":1769976809,"current_range_meters":3200,"station_id":"","pricing_plan_id":"cebpf4jnsgd1na2vs0mg"},{"bike_id":"2c87ecac-0fb0-4aed-b96f-c94f3d8eb77c","system_id":"levelo_inurba_marseille","lat":43.30599,"lon":5.37211,"is_reserved":false,"is_disabled":false,"rental_uris":{"android":"levelo://app?vid=2c87ecac-0fb0-4aed-b96f-c94f3d8eb77c","ios":"levelo://app?vid=2c87ecac-0fb0-4aed-b96f-c94f3d8eb77c"},"vehicle_type_id":"4","last_reported":1769976809,"current_range_meters":3200,"station_id":"ce4bgqh2rcd13ifvqc4g","pricing_plan_id":"cebpf4jnsgd1na2vs0mg"},{"bike_id":"2eaade94-53a3-4718-805c-5793d4f259e8","system_id":"levelo_inurba_marseille","lat":43.280291,"lon":5.351754,"is_reserved":false,"is_disabled":false,"rental_uris":{"android":"levelo://app?vid=2eaade94-53a3-4718-805c-5793d4f259e8","ios":"levelo://app?vid=2eaade94-53a3-4718-805c-5793d4f259e8"},"vehicle_type_id":"4","last_reported":1769976809,"current_range_meters":3200,"station_id":"ce4bhb12rcd13ifvqem0","pricing_plan_id":"cebpf4jnsgd1na2vs0mg"},{"bike_id":"697c8a06-61f9-4222-834d-edf7efee31b8","system_id":"levelo_inurba_marseille","lat":43.2416,"lon":5.36416,"is_reserved":false,"is_disabled":false,"rental_uris":{"android":"levelo://app?vid=697c8a06-61f9-4222-834d-edf7efee31b8","ios":"levelo://app?vid=697c8a06-61f9-4222-834d-edf7efee31b8"},"vehicle_type_id":"4","last_reported":1769976809,"current_range_meters":3200,"station_id":"cpo36qri1sfpv3e86is0","pricing_plan_id":"cebpf4jnsgd1na2vs0mg"},{"bike_id":"21a72a69-9fba-4c92-b534-96b106992f8a","system_id":"levelo_inurba_marseille","lat":43.31216,"lon":5.38136,"is_reserved":false,"is_disabled":false,"rental_uris":{"android":"levelo://app?vid=21a72a69-9fba-4c92-b534-96b106992f8a","ios":"levelo://app?vid=21a72a69-9fba-4c92-b534-96b106992f8a"},"vehicle_type_id":"4","last_reported":1769976809,"current_range_meters":3200,"station_id":"","pricing_plan_id":"cebpf4jnsgd1na2vs0mg"},{"bike_id":"f3d8c99c-e824-48b6-acc6-2e7ac075ec73","system_id":"levelo_inurba_marseille","lat":43.29055,"lon":5.35916,"is_reserved":false,"is_disabled":false,"rental_uris":{"android":"levelo://app?vid=f3d8c99c-e824-48b6-acc6-2e7ac075ec73","ios":"levelo://app?vid=f3d8c99c-e824-48b6-acc6-2e7ac075ec73"},"vehicle_type_id":"4","last_reported":1769976809,"current_range_meters":3200,"station_id":"ce4bha92rcd13ifvqeg0","pricing_plan_id":"cebpf4jnsgd1na2vs0mg"},{"bike_id":"6ae5efa6-6ffc-465f-8aec-47e1e40444c5","system_id":"levelo_inurba_marseille","lat":43.287018,"lon":5.37378,"is_reserved":false,"is_disabled":false,"rental_uris":{"android":"levelo://app?vid=6ae5efa6-6ffc-465f-8aec-47e1e40444c5","ios":"levelo://app?vid=6ae5efa6-6ffc-465f-8aec-47e1e40444c5"},"vehicle_type_id":"4","last_reported":1769976809,"current_range_meters":3200,"station_id":"ce4bh3p2rcd13ifvqdq0","pricing_plan_id":"cebpf4jnsgd1na2vs0mg"},{"bike_id":"7725ea14-335e-4d54-91ac-40d50e39e00e","system_id":"levelo_inurba_marseille","lat":43.23191,"lon":5.39993,"is_reserved":false,"is_disabled":false,"rental_uris":{"android":"levelo://app?vid=7725ea14-335e-4d54-91ac-40d50e39e00e","ios":"levelo://app?vid=7725ea14-335e-4d54-91ac-40d50e39e00e"},"vehicle_type_id":"4","last_reported":1769976809,"current_range_meters":3200,"station_id":"ce4bhn12rcd13ifvqgqg","pricing_plan_id":"cebpf4jnsgd1na2vs0mg"},{"bike_id":"e28cd813-c0f1-463d-a579-8998a87473dc","system_id":"levelo_inurba_marseille","lat":43.31278,"lon":5.40175,"is_reserved":false,"is_disabled":false,"rental_uris":{"android":"levelo://app?vid=e28cd813-c0f1-463d-a579-8998a87473dc","ios":"levelo://app?vid=e28cd813-c0f1-463d-a579-8998a87473dc"},"vehicle_type_id":"4","last_reported":1769976809,"current_range_meters":3200,"station_id":"ce4bh092rcd13ifvqd30","pricing_plan_id":"cebpf4jnsgd1na2vs0mg"},{"bike_id":"e35402f5-2622-419d-b8c0-a6e7246c539b","system_id":"levelo_inurba_marseille","lat":43.28569,"lon":5.39489,"is_reserved":false,"is_disabled":false,"rental_uris":{"android":"levelo://app?vid=e35402f5-2622-419d-b8c0-a6e7246c539b","ios":"levelo://app?vid=e35402f5-2622-419d-b8c0-a6e7246c539b"},"vehicle_type_id":"4","last_reported":1769976809,"current_range_meters":3200,"station_id":"ce4bh292rcd13ifvqdg0","pricing_plan_id":"cebpf4jnsgd1na2vs0mg"},{"bike_id":"ef5cdbbf-7f51-4c3d-afa2-ff57da42e253","system_id":"levelo_inurba_marseille","lat":43.28535,"lon":5.4408,"is_reserved":false,"is_disabled":false,"rental_uris":{"android":"levelo://app?vid=ef5cdbbf-7f51-4c3d-afa2-ff57da42e253","ios":"levelo://app?vid=ef5cdbbf-7f51-4c3d-afa2-ff57da42e253"},"vehicle_type_id":"4","last_reported":1769976809,"current_range_meters":3200,"station_id":"st_d3j3df2ikq2c7380ej80","pricing_plan_id":"cebpf4jnsgd1na2vs0mg"},{"bike_id":"f1afac7b-3a1b-4cac-a9fd-69907f58ad17","system_id":"levelo_inurba_marseille","lat":43.26948,"lon":5.40263,"is_reserved":false,"is_disabled":false,"rental_uris":{"android":"levelo://app?vid=f1afac7b-3a1b-4cac-a9fd-69907f58ad17","ios":"levelo://app?vid=f1afac7b-3a1b-4cac-a9fd-69907f58ad17"},"vehicle_type_id":"4","last_reported":1769976809,"current_range_meters":3600,"station_id":"cjm6bp8fraef2m0cb0m0","pricing_plan_id":"cebpf4jnsgd1na2vs0mg"},{"bike_id":"27ee7c2c-779a-4fe8-bbed-098223e005e6","system_id":"levelo_inurba_marseille","lat":43.282735,"lon":5.35058,"is_reserved":false,"is_disabled":false,"rental_uris":{"android":"levelo://app?vid=27ee7c2c-779a-4fe8-bbed-098223e005e6","ios":"levelo://app?vid=27ee7c2c-779a-4fe8-bbed-098223e005e6"},"vehicle_type_id":"4","last_reported":1769976809,"current_range_meters":3600,"station_id":"","pricing_plan_id":"cebpf4jnsgd1na2vs0mg"},{"bike_id":"69836fc3-bf95-4b21-9cc3-5934a1206e22","system_id":"levelo_inurba_marseille","lat":43.2463,"lon":5.43155,"is_reserved":false,"is_disabled":false,"rental_uris":{"android":"levelo://app?vid=69836fc3-bf95-4b21-9cc3-5934a1206e22","ios":"levelo://app?vid=69836fc3-bf95-4b21-9cc3-5934a1206e22"},"vehicle_type_id":"4","last_reported":1769976809,"current_range_meters":3600,"station_id":"st_d2m6c4gdas8pm72e190g","pricing_plan_id":"cebpf4jnsgd1na2vs0mg"},{"bike_id":"886da792-470b-471a-9dfb-10c74ec1ced7","system_id":"levelo_inurba_marseille","lat":43.29638,"lon":5.40592,"is_reserved":false,"is_disabled":false,"rental_uris":{"android":"levelo://app?vid=886da792-470b-471a-9dfb-10c74ec1ced7","ios":"levelo://app?vid=886da792-470b-471a-9dfb-10c74ec1ced7"},"vehicle_type_id":"4","last_reported":1769976809,"current_range_meters":3600,"station_id":"ce4bh0h2rcd13ifvqd60","pricing_plan_id":"cebpf4jnsgd1na2vs0mg"},{"bike_id":"8c0be225-2286-4fd4-866d-a46f1deb5865","system_id":"levelo_inurba_marseille","lat":43.27371,"lon":5.3625,"is_reserved":false,"is_disabled":false,"rental_uris":{"android":"levelo://app?vid=8c0be225-2286-4fd4-866d-a46f1deb5865","ios":"levelo://app?vid=8c0be225-2286-4fd4-866d-a46f1deb5865"},"vehicle_type_id":"4","last_reported":1769976809,"current_range_meters":3600,"station_id":"ce4bhbh2rcd13ifvqeo0","pricing_plan_id":"cebpf4jnsgd1na2vs0mg"},{"bike_id":"d4d18011-2bf0-4a2b-a896-7a5c21af3b9d","system_id":"levelo_inurba_marseille","lat":43.28472,"lon":5.48424,"is_reserved":false,"is_disabled":false,"rental_uris":{"android":"levelo://app?vid=d4d18011-2bf0-4a2b-a896-7a5c21af3b9d","ios":"levelo://app?vid=d4d18011-2bf0-4a2b-a896-7a5c21af3b9d"},"vehicle_type_id":"4","last_reported":1769976809,"current_range_meters":3600,"station_id":"st_d3svhcjqgbts73a3dn0g","pricing_plan_id":"cebpf4jnsgd1na2vs0mg"},{"bike_id":"a0ed992f-17ef-4506-a4ab-d07fd8f0eff4","system_id":"levelo_inurba_marseille","lat":43.255,"lon":5.37694,"is_reserved":false,"is_disabled":false,"rental_uris":{"android":"levelo://app?vid=a0ed992f-17ef-4506-a4ab-d07fd8f0eff4","ios":"levelo://app?vid=a0ed992f-17ef-4506-a4ab-d07fd8f0eff4"},"vehicle_type_id":"4","last_reported":1769976809,"current_range_meters":3600,"station_id":"ce4bhh12rcd13ifvqff0","pricing_plan_id":"cebpf4jnsgd1na2vs0mg"},{"bike_id":"5be20501-8e04-4673-9119-891aadf1acc1","system_id":"levelo_inurba_marseille","lat":43.28498,"lon":5.4839,"is_reserved":false,"is_disabled":false,"rental_uris":{"android":"levelo://app?vid=5be20501-8e04-4673-9119-891aadf1acc1","ios":"levelo://app?vid=5be20501-8e04-4673-9119-891aadf1acc1"},"vehicle_type_id":"4","last_reported":1769976809,"current_range_meters":3600,"station_id":"","pricing_plan_id":"cebpf4jnsgd1na2vs0mg"},{"bike_id":"0e681b67-3fdf-40b6-b942-590e1536d0c5","system_id":"levelo_inurba_marseille","lat":43.24401,"lon":5.37073,"is_reserved":false,"is_disabled":false,"rental_uris":{"android":"levelo://app?vid=0e681b67-3fdf-40b6-b942-590e1536d0c5","ios":"levelo://app?vid=0e681b67-3fdf-40b6-b942-590e1536d0c5"},"vehicle_type_id":"4","last_reported":1769976809,"current_range_meters":3600,"station_id":"ce4bhhh2rcd13ifvqfk0","pricing_plan_id":"cebpf4jnsgd1na2vs0mg"},{"bike_id":"74856cd2-f709-469e-b628-27ee18812e7c","system_id":"levelo_inurba_marseille","lat":43.28155,"lon":5.42634,"is_reserved":false,"is_disabled":false,"rental_uris":{"android":"levelo://app?vid=74856cd2-f709-469e-b628-27ee18812e7c","ios":"levelo://app?vid=74856cd2-f709-469e-b628-27ee18812e7c"},"vehicle_type_id":"4","last_reported":1769976809,"current_range_meters":3600,"station_id":"ce4bhnh2rcd13ifvqgug","pricing_plan_id":"cebpf4jnsgd1na2vs0mg"},{"bike_id":"3d9e2227-10a1-46d8-a7dd-9c39f443eb78","system_id":"levelo_inurba_marseille","lat":43.30417,"lon":5.41289,"is_reserved":false,"is_disabled":false,"rental_uris":{"android":"levelo://app?vid=3d9e2227-10a1-46d8-a7dd-9c39f443eb78","ios":"levelo://app?vid=3d9e2227-10a1-46d8-a7dd-9c39f443eb78"},"vehicle_type_id":"4","last_reported":1769976809,"current_range_meters":3600,"station_id":"ce4bhop2rcd13ifvqh8g","pricing_plan_id":"cebpf4jnsgd1na2vs0mg"},{"bike_id":"d5e67bfe-03c5-4643-9903-6eac267b87da","system_id":"levelo_inurba_marseille","lat":43.24003,"lon":5.37829,"is_reserved":false,"is_disabled":false,"rental_uris":{"android":"levelo://app?vid=d5e67bfe-03c5-4643-9903-6eac267b87da","ios":"levelo://app?vid=d5e67bfe-03c5-4643-9903-6eac267b87da"},"vehicle_type_id":"4","last_reported":1769976809,"current_range_meters":3600,"station_id":"","pricing_plan_id":"cebpf4jnsgd1na2vs0mg"},{"bike_id":"298537c3-8d5d-434e-a14c-bbd01ad397a2","system_id":"levelo_inurba_marseille","lat":43.30203,"lon":5.37077,"is_reserved":false,"is_disabled":false,"rental_uris":{"android":"levelo://app?vid=298537c3-8d5d-434e-a14c-bbd01ad397a2","ios":"levelo://app?vid=298537c3-8d5d-434e-a14c-bbd01ad397a2"},"vehicle_type_id":"4","last_reported":1769976809,"current_range_meters":4000,"station_id":"","pricing_plan_id":"cebpf4jnsgd1na2vs0mg"},{"bike_id":"9cc30e48-be27-44e0-b96d-64657df6657f","system_id":"levelo_inurba_marseille","lat":43.28434,"lon":5.39198,"is_reserved":false,"is_disabled":false,"rental_uris":{"android":"levelo://app?vid=9cc30e48-be27-44e0-b96d-64657df6657f","ios":"levelo://app?vid=9cc30e48-be27-44e0-b96d-64657df6657f"},"vehicle_type_id":"4","last_reported":1769976809,"current_range_meters":4000,"station_id":"ce4bhoh2rcd13ifvqh5g","pricing_plan_id":"cebpf4jnsgd1na2vs0mg"},{"bike_id":"95fb9b5d-387c-4b2b-9bd6-77bdd9f1b121","system_id":"levelo_inurba_marseille","lat":43.28944,"lon":5.36639,"is_reserved":false,"is_disabled":false,"rental_uris":{"android":"levelo://app?vid=95fb9b5d-387c-4b2b-9bd6-77bdd9f1b121","ios":"levelo://app?vid=95fb9b5d-387c-4b2b-9bd6-77bdd9f1b121"},"vehicle_type_id":"4","last_reported":1769976809,"current_range_meters":4000,"station_id":"ce4bhap2rcd13ifvqek0","pricing_plan_id":"cebpf4jnsgd1na2vs0mg"},{"bike_id":"a0f4c4d9-b17d-4551-87f4-b3e192df9153","system_id":"levelo_inurba_marseille","lat":43.23038,"lon":5.35484,"is_reserved":false,"is_disabled":false,"rental_uris":{"android":"levelo://app?vid=a0f4c4d9-b17d-4551-87f4-b3e192df9153","ios":"levelo://app?vid=a0f4c4d9-b17d-4551-87f4-b3e192df9153"},"vehicle_type_id":"4","last_reported":1769976809,"current_range_meters":4000,"station_id":"cpo3342slgdg3j2ifvpg","pricing_plan_id":"cebpf4jnsgd1na2vs0mg"},{"bike_id":"f63ad825-b273-458f-bf2e-2ef630e3fede","system_id":"levelo_inurba_marseille","lat":43.22566,"lon":5.41627,"is_reserved":false,"is_disabled":false,"rental_uris":{"android":"levelo://app?vid=f63ad825-b273-458f-bf2e-2ef630e3fede","ios":"levelo://app?vid=f63ad825-b273-458f-bf2e-2ef630e3fede"},"vehicle_type_id":"4","last_reported":1769976809,"current_range_meters":4000,"station_id":"st_d2o4gvlbi1j2169b742g","pricing_plan_id":"cebpf4jnsgd1na2vs0mg"},{"bike_id":"bb1dfbad-7424-4ef3-85e1-58163ed62194","system_id":"levelo_inurba_marseille","lat":43.21794,"lon":5.34623,"is_reserved":false,"is_disabled":false,"rental_uris":{"android":"levelo://app?vid=bb1dfbad-7424-4ef3-85e1-58163ed62194","ios":"levelo://app?vid=bb1dfbad-7424-4ef3-85e1-58163ed62194"},"vehicle_type_id":"4","last_reported":1769976809,"current_range_meters":4000,"station_id":"","pricing_plan_id":"cebpf4jnsgd1na2vs0mg"},{"bike_id":"cc731f67-1844-4163-aa7c-d2e98863ffc7","system_id":"levelo_inurba_marseille","lat":43.23374,"lon":5.41274,"is_reserved":false,"is_disabled":false,"rental_uris":{"android":"levelo://app?vid=cc731f67-1844-4163-aa7c-d2e98863ffc7","ios":"levelo://app?vid=cc731f67-1844-4163-aa7c-d2e98863ffc7"},"vehicle_type_id":"4","last_reported":1769976809,"current_range_meters":4000,"station_id":"","pricing_plan_id":"cebpf4jnsgd1na2vs0mg"},{"bike_id":"519cc48e-d066-4eae-ab86-d197d14dc892","system_id":"levelo_inurba_marseille","lat":43.298847,"lon":5.397296,"is_reserved":false,"is_disabled":false,"rental_uris":{"android":"levelo://app?vid=519cc48e-d066-4eae-ab86-d197d14dc892","ios":"levelo://app?vid=519cc48e-d066-4eae-ab86-d197d14dc892"},"vehicle_type_id":"4","last_reported":1769976809,"current_range_meters":4000,"station_id":"ce4bh312rcd13ifvqdj0","pricing_plan_id":"cebpf4jnsgd1na2vs0mg"},{"bike_id":"9c099e81-4484-40a8-98c3-4961ce66244b","system_id":"levelo_inurba_marseille","lat":43.28467,"lon":5.38436,"is_reserved":false,"is_disabled":true,"rental_uris":{"android":"levelo://app?vid=9c099e81-4484-40a8-98c3-4961ce66244b","ios":"levelo://app?vid=9c099e81-4484-40a8-98c3-4961ce66244b"},"vehicle_type_id":"4","last_reported":1769976809,"current_range_meters":4000,"station_id":"ce4bh512rcd13ifvqe3g","pricing_plan_id":"cebpf4jnsgd1na2vs0mg"},{"bike_id":"ea996b6a-e4df-4475-a81a-600ad94271b6","system_id":"levelo_inurba_marseille","lat":43.30288,"lon":5.39791,"is_reserved":false,"is_disabled":false,"rental_uris":{"android":"levelo://app?vid=ea996b6a-e4df-4475-a81a-600ad94271b6","ios":"levelo://app?vid=ea996b6a-e4df-4475-a81a-600ad94271b6"},"vehicle_type_id":"4","last_reported":1769976809,"current_range_meters":4000,"station_id":"","pricing_plan_id":"cebpf4jnsgd1na2vs0mg"},{"bike_id":"d651559f-ebd3-4bcf-abfc-167cb96a457e","system_id":"levelo_inurba_marseille","lat":43.288593,"lon":5.425182,"is_reserved":false,"is_disabled":false,"rental_uris":{"android":"levelo://app?vid=d651559f-ebd3-4bcf-abfc-167cb96a457e","ios":"levelo://app?vid=d651559f-ebd3-4bcf-abfc-167cb96a457e"},"vehicle_type_id":"4","last_reported":1769976809,"current_range_meters":4000,"station_id":"st_d3b462108ojc7389ooeg","pricing_plan_id":"cebpf4jnsgd1na2vs0mg"},{"bike_id":"afd2a58c-aa1e-45af-a46d-f59be6945103","system_id":"levelo_inurba_marseille","lat":43.28198,"lon":5.3905,"is_reserved":false,"is_disabled":false,"rental_uris":{"android":"levelo://app?vid=afd2a58c-aa1e-45af-a46d-f59be6945103","ios":"levelo://app?vid=afd2a58c-aa1e-45af-a46d-f59be6945103"},"vehicle_type_id":"4","last_reported":1769976809,"current_range_meters":4000,"station_id":"ce4bhn92rcd13ifvqgsg","pricing_plan_id":"cebpf4jnsgd1na2vs0mg"},{"bike_id":"2d2b1675-0701-46a0-947b-c00e06e1e30f","system_id":"levelo_inurba_marseille","lat":43.25098,"lon":5.39512,"is_reserved":false,"is_disabled":false,"rental_uris":{"android":"levelo://app?vid=2d2b1675-0701-46a0-947b-c00e06e1e30f","ios":"levelo://app?vid=2d2b1675-0701-46a0-947b-c00e06e1e30f"},"vehicle_type_id":"4","last_reported":1769976809,"current_range_meters":4000,"station_id":"ce4bhm12rcd13ifvqgkg","pricing_plan_id":"cebpf4jnsgd1na2vs0mg"},{"bike_id":"433edc8a-6e54-4d49-bd7b-6c4bd9d13042","system_id":"levelo_inurba_marseille","lat":43.28571,"lon":5.39493,"is_reserved":false,"is_disabled":false,"rental_uris":{"android":"levelo://app?vid=433edc8a-6e54-4d49-bd7b-6c4bd9d13042","ios":"levelo://app?vid=433edc8a-6e54-4d49-bd7b-6c4bd9d13042"},"vehicle_type_id":"4","last_reported":1769976809,"current_range_meters":4000,"station_id":"ce4bh292rcd13ifvqdg0","pricing_plan_id":"cebpf4jnsgd1na2vs0mg"},{"bike_id":"e701a3f7-2e1f-487e-bad5-83c9140f1723","system_id":"levelo_inurba_marseille","lat":43.31764,"lon":5.37382,"is_reserved":false,"is_disabled":false,"rental_uris":{"android":"levelo://app?vid=e701a3f7-2e1f-487e-bad5-83c9140f1723","ios":"levelo://app?vid=e701a3f7-2e1f-487e-bad5-83c9140f1723"},"vehicle_type_id":"4","last_reported":1769976809,"current_range_meters":4000,"station_id":"","pricing_plan_id":"cebpf4jnsgd1na2vs0mg"},{"bike_id":"178d6e40-c2d2-4bfc-a219-950ebc5c922c","system_id":"levelo_inurba_marseille","lat":43.27959,"lon":5.3874,"is_reserved":false,"is_disabled":false,"rental_uris":{"android":"levelo://app?vid=178d6e40-c2d2-4bfc-a219-950ebc5c922c","ios":"levelo://app?vid=178d6e40-c2d2-4bfc-a219-950ebc5c922c"},"vehicle_type_id":"4","last_reported":1769976809,"current_range_meters":4000,"station_id":"ce4bhg12rcd13ifvqf80","pricing_plan_id":"cebpf4jnsgd1na2vs0mg"},{"bike_id":"cda423b0-114c-4365-aeb1-89fb80c8de39","system_id":"levelo_inurba_marseille","lat":43.24801,"lon":5.37454,"is_reserved":false,"is_disabled":false,"rental_uris":{"android":"levelo://app?vid=cda423b0-114c-4365-aeb1-89fb80c8de39","ios":"levelo://app?vid=cda423b0-114c-4365-aeb1-89fb80c8de39"},"vehicle_type_id":"4","last_reported":1769976809,"current_range_meters":4400,"station_id":"ce4bhgh2rcd13ifvqfb0","pricing_plan_id":"cebpf4jnsgd1na2vs0mg"},{"bike_id":"683fe00d-0712-4b14-a842-3ba684e09203","system_id":"levelo_inurba_marseille","lat":43.28478,"lon":5.38403,"is_reserved":false,"is_disabled":false,"rental_uris":{"android":"levelo://app?vid=683fe00d-0712-4b14-a842-3ba684e09203","ios":"levelo://app?vid=683fe00d-0712-4b14-a842-3ba684e09203"},"vehicle_type_id":"4","last_reported":1769976809,"current_range_meters":4400,"station_id":"ce4bh512rcd13ifvqe3g","pricing_plan_id":"cebpf4jnsgd1na2vs0mg"},{"bike_id":"1b85baa8-054d-452c-96ac-e14de5f87229","system_id":"levelo_inurba_marseille","lat":43.26567,"lon":5.40321,"is_reserved":false,"is_disabled":false,"rental_uris":{"android":"levelo://app?vid=1b85baa8-054d-452c-96ac-e14de5f87229","ios":"levelo://app?vid=1b85baa8-054d-452c-96ac-e14de5f87229"},"vehicle_type_id":"4","last_reported":1769976809,"current_range_meters":4400,"station_id":"ce4bhmp2rcd13ifvqgng","pricing_plan_id":"cebpf4jnsgd1na2vs0mg"},{"bike_id":"fb793f9e-27c8-4aa6-9e5b-d172f980944b","system_id":"levelo_inurba_marseille","lat":43.27988,"lon":5.40972,"is_reserved":false,"is_disabled":true,"rental_uris":{"android":"levelo://app?vid=fb793f9e-27c8-4aa6-9e5b-d172f980944b","ios":"levelo://app?vid=fb793f9e-27c8-4aa6-9e5b-d172f980944b"},"vehicle_type_id":"4","last_reported":1769976809,"current_range_meters":4400,"station_id":"","pricing_plan_id":"cebpf4jnsgd1na2vs0mg"},{"bike_id":"7a4412cf-c498-4121-be46-049419c026d4","system_id":"levelo_inurba_marseille","lat":43.27944,"lon":5.41042,"is_reserved":false,"is_disabled":false,"rental_uris":{"android":"levelo://app?vid=7a4412cf-c498-4121-be46-049419c026d4","ios":"levelo://app?vid=7a4412cf-c498-4121-be46-049419c026d4"},"vehicle_type_id":"4","last_reported":1769976809,"current_range_meters":4400,"station_id":"ce4bhnp2rcd13ifvqh0g","pricing_plan_id":"cebpf4jnsgd1na2vs0mg"},{"bike_id":"e66c0050-63ae-4842-902f-7ed4f4ed8737","system_id":"levelo_inurba_marseille","lat":43.22574,"lon":5.4162,"is_reserved":false,"is_disabled":false,"rental_uris":{"android":"levelo://app?vid=e66c0050-63ae-4842-902f-7ed4f4ed8737","ios":"levelo://app?vid=e66c0050-63ae-4842-902f-7ed4f4ed8737"},"vehicle_type_id":"4","last_reported":1769976809,"current_range_meters":4400,"station_id":"st_d2o4gvlbi1j2169b742g","pricing_plan_id":"cebpf4jnsgd1na2vs0mg"},{"bike_id":"004df261-4f08-4a49-a173-244244948504","system_id":"levelo_inurba_marseille","lat":43.29766,"lon":5.37765,"is_reserved":false,"is_disabled":false,"rental_uris":{"android":"levelo://app?vid=004df261-4f08-4a49-a173-244244948504","ios":"levelo://app?vid=004df261-4f08-4a49-a173-244244948504"},"vehicle_type_id":"4","last_reported":1769976809,"current_range_meters":4400,"station_id":"","pricing_plan_id":"cebpf4jnsgd1na2vs0mg"},{"bike_id":"2618561d-cd06-4493-b916-9511a3eac222","system_id":"levelo_inurba_marseille","lat":43.27373,"lon":5.36245,"is_reserved":false,"is_disabled":false,"rental_uris":{"android":"levelo://app?vid=2618561d-cd06-4493-b916-9511a3eac222","ios":"levelo://app?vid=2618561d-cd06-4493-b916-9511a3eac222"},"vehicle_type_id":"4","last_reported":1769976809,"current_range_meters":4400,"station_id":"ce4bhbh2rcd13ifvqeo0","pricing_plan_id":"cebpf4jnsgd1na2vs0mg"},{"bike_id":"fecd7f71-cb93-4d6b-8f91-93abcbf1e2e4","system_id":"levelo_inurba_marseille","lat":43.2837,"lon":5.38615,"is_reserved":false,"is_disabled":false,"rental_uris":{"android":"levelo://app?vid=fecd7f71-cb93-4d6b-8f91-93abcbf1e2e4","ios":"levelo://app?vid=fecd7f71-cb93-4d6b-8f91-93abcbf1e2e4"},"vehicle_type_id":"4","last_reported":1769976809,"current_range_meters":4400,"station_id":"ce4bh492rcd13ifvqdvg","pricing_plan_id":"cebpf4jnsgd1na2vs0mg"},{"bike_id":"a6e26a0f-f73b-4462-82cf-9518bca8be33","system_id":"levelo_inurba_marseille","lat":43.27357,"lon":5.3624,"is_reserved":false,"is_disabled":false,"rental_uris":{"android":"levelo://app?vid=a6e26a0f-f73b-4462-82cf-9518bca8be33","ios":"levelo://app?vid=a6e26a0f-f73b-4462-82cf-9518bca8be33"},"vehicle_type_id":"4","last_reported":1769976809,"current_range_meters":4400,"station_id":"ce4bhbh2rcd13ifvqeo0","pricing_plan_id":"cebpf4jnsgd1na2vs0mg"},{"bike_id":"c4eb45ca-b90e-47bc-a3f3-0050a4363126","system_id":"levelo_inurba_marseille","lat":43.29543,"lon":5.38544,"is_reserved":false,"is_disabled":false,"rental_uris":{"android":"levelo://app?vid=c4eb45ca-b90e-47bc-a3f3-0050a4363126","ios":"levelo://app?vid=c4eb45ca-b90e-47bc-a3f3-0050a4363126"},"vehicle_type_id":"4","last_reported":1769976809,"current_range_meters":4400,"station_id":"ce4bgih2rcd13ifvqba0","pricing_plan_id":"cebpf4jnsgd1na2vs0mg"},{"bike_id":"bc301fbc-199a-4a71-9334-3e976410d813","system_id":"levelo_inurba_marseille","lat":43.26571,"lon":5.39029,"is_reserved":false,"is_disabled":false,"rental_uris":{"android":"levelo://app?vid=bc301fbc-199a-4a71-9334-3e976410d813","ios":"levelo://app?vid=bc301fbc-199a-4a71-9334-3e976410d813"},"vehicle_type_id":"4","last_reported":1769976809,"current_range_meters":4400,"station_id":"ce4bhe12rcd13ifvqf30","pricing_plan_id":"cebpf4jnsgd1na2vs0mg"},{"bike_id":"bd0b3557-9fd7-4e9c-b122-eda4f40b316d","system_id":"levelo_inurba_marseille","lat":43.24816,"lon":5.37456,"is_reserved":false,"is_disabled":false,"rental_uris":{"android":"levelo://app?vid=bd0b3557-9fd7-4e9c-b122-eda4f40b316d","ios":"levelo://app?vid=bd0b3557-9fd7-4e9c-b122-eda4f40b316d"},"vehicle_type_id":"4","last_reported":1769976809,"current_range_meters":4800,"station_id":"ce4bhgh2rcd13ifvqfb0","pricing_plan_id":"cebpf4jnsgd1na2vs0mg"},{"bike_id":"ec77c27c-93c9-4c58-b70c-9c56f74ef4ba","system_id":"levelo_inurba_marseille","lat":43.31118,"lon":5.37772,"is_reserved":false,"is_disabled":false,"rental_uris":{"android":"levelo://app?vid=ec77c27c-93c9-4c58-b70c-9c56f74ef4ba","ios":"levelo://app?vid=ec77c27c-93c9-4c58-b70c-9c56f74ef4ba"},"vehicle_type_id":"4","last_reported":1769976809,"current_range_meters":4800,"station_id":"ce4bgt92rcd13ifvqcg0","pricing_plan_id":"cebpf4jnsgd1na2vs0mg"},{"bike_id":"d0ee8c38-72c8-4a11-9f6a-de79eceead1a","system_id":"levelo_inurba_marseille","lat":43.23144,"lon":5.43694,"is_reserved":false,"is_disabled":false,"rental_uris":{"android":"levelo://app?vid=d0ee8c38-72c8-4a11-9f6a-de79eceead1a","ios":"levelo://app?vid=d0ee8c38-72c8-4a11-9f6a-de79eceead1a"},"vehicle_type_id":"4","last_reported":1769976809,"current_range_meters":4800,"station_id":"ce4bhmp2rcd13ifvqgog","pricing_plan_id":"cebpf4jnsgd1na2vs0mg"},{"bike_id":"44c05c0c-ce2b-4be5-b8a9-bbb2ef08eb87","system_id":"levelo_inurba_marseille","lat":43.290742,"lon":5.371574,"is_reserved":false,"is_disabled":false,"rental_uris":{"android":"levelo://app?vid=44c05c0c-ce2b-4be5-b8a9-bbb2ef08eb87","ios":"levelo://app?vid=44c05c0c-ce2b-4be5-b8a9-bbb2ef08eb87"},"vehicle_type_id":"4","last_reported":1769976809,"current_range_meters":4800,"station_id":"ce4bh5p2rcd13ifvqe4g","pricing_plan_id":"cebpf4jnsgd1na2vs0mg"},{"bike_id":"9bad3cd0-bef0-467d-9645-3842ab91872d","system_id":"levelo_inurba_marseille","lat":43.29206,"lon":5.3935,"is_reserved":false,"is_disabled":false,"rental_uris":{"android":"levelo://app?vid=9bad3cd0-bef0-467d-9645-3842ab91872d","ios":"levelo://app?vid=9bad3cd0-bef0-467d-9645-3842ab91872d"},"vehicle_type_id":"4","last_reported":1769976809,"current_range_meters":4800,"station_id":"ce4bh192rcd13ifvqdd0","pricing_plan_id":"cebpf4jnsgd1na2vs0mg"},{"bike_id":"39a54037-8b2e-4d03-89d2-c8ae001cb3df","system_id":"levelo_inurba_marseille","lat":43.31536,"lon":5.38034,"is_reserved":false,"is_disabled":false,"rental_uris":{"android":"levelo://app?vid=39a54037-8b2e-4d03-89d2-c8ae001cb3df","ios":"levelo://app?vid=39a54037-8b2e-4d03-89d2-c8ae001cb3df"},"vehicle_type_id":"4","last_reported":1769976809,"current_range_meters":4800,"station_id":"ce4bhsp2rcd13ifvqi50","pricing_plan_id":"cebpf4jnsgd1na2vs0mg"},{"bike_id":"2a592709-71c1-4f28-ad03-9439755ead14","system_id":"levelo_inurba_marseille","lat":43.28568,"lon":5.39482,"is_reserved":false,"is_disabled":false,"rental_uris":{"android":"levelo://app?vid=2a592709-71c1-4f28-ad03-9439755ead14","ios":"levelo://app?vid=2a592709-71c1-4f28-ad03-9439755ead14"},"vehicle_type_id":"4","last_reported":1769976809,"current_range_meters":4800,"station_id":"ce4bh292rcd13ifvqdg0","pricing_plan_id":"cebpf4jnsgd1na2vs0mg"},{"bike_id":"0a8bd2b9-8f66-47cb-8794-72cdd9e9bbcd","system_id":"levelo_inurba_marseille","lat":43.27812,"lon":5.40706,"is_reserved":false,"is_disabled":false,"rental_uris":{"android":"levelo://app?vid=0a8bd2b9-8f66-47cb-8794-72cdd9e9bbcd","ios":"levelo://app?vid=0a8bd2b9-8f66-47cb-8794-72cdd9e9bbcd"},"vehicle_type_id":"4","last_reported":1769976809,"current_range_meters":4800,"station_id":"ce4bhnh2rcd13ifvqgtg","pricing_plan_id":"cebpf4jnsgd1na2vs0mg"},{"bike_id":"d7711ff0-1a22-4998-a446-c609cbbfcbe0","system_id":"levelo_inurba_marseille","lat":43.289841,"lon":5.378235,"is_reserved":false,"is_disabled":false,"rental_uris":{"android":"levelo://app?vid=d7711ff0-1a22-4998-a446-c609cbbfcbe0","ios":"levelo://app?vid=d7711ff0-1a22-4998-a446-c609cbbfcbe0"},"vehicle_type_id":"4","last_reported":1769976809,"current_range_meters":4800,"station_id":"ce4bh9p2rcd13ifvqed0","pricing_plan_id":"cebpf4jnsgd1na2vs0mg"},{"bike_id":"d8d7d7c6-6bfe-4fb0-85f9-b02b994f2a2a","system_id":"levelo_inurba_marseille","lat":43.29204,"lon":5.3619,"is_reserved":false,"is_disabled":true,"rental_uris":{"android":"levelo://app?vid=d8d7d7c6-6bfe-4fb0-85f9-b02b994f2a2a","ios":"levelo://app?vid=d8d7d7c6-6bfe-4fb0-85f9-b02b994f2a2a"},"vehicle_type_id":"4","last_reported":1769976809,"current_range_meters":5600,"station_id":"ce4bhbh2rcd13ifvqeqg","pricing_plan_id":"cebpf4jnsgd1na2vs0mg"},{"bike_id":"ecdd52fd-98df-4ed8-9b9f-16db4fdb1985","system_id":"levelo_inurba_marseille","lat":43.24071,"lon":5.377971,"is_reserved":false,"is_disabled":false,"rental_uris":{"android":"levelo://app?vid=ecdd52fd-98df-4ed8-9b9f-16db4fdb1985","ios":"levelo://app?vid=ecdd52fd-98df-4ed8-9b9f-16db4fdb1985"},"vehicle_type_id":"4","last_reported":1769976809,"current_range_meters":5600,"station_id":"ce4bhgp2rcd13ifvqfc0","pricing_plan_id":"cebpf4jnsgd1na2vs0mg"},{"bike_id":"83954c91-b1be-419e-85e2-be05d774291d","system_id":"levelo_inurba_marseille","lat":43.24077,"lon":5.37756,"is_reserved":false,"is_disabled":false,"rental_uris":{"android":"levelo://app?vid=83954c91-b1be-419e-85e2-be05d774291d","ios":"levelo://app?vid=83954c91-b1be-419e-85e2-be05d774291d"},"vehicle_type_id":"4","last_reported":1769976809,"current_range_meters":5600,"station_id":"ce4bhnp2rcd13ifvqgvg","pricing_plan_id":"cebpf4jnsgd1na2vs0mg"},{"bike_id":"4bf50099-7288-4f24-87c7-44039c046e7f","system_id":"levelo_inurba_marseille","lat":43.26685,"lon":5.38282,"is_reserved":false,"is_disabled":false,"rental_uris":{"android":"levelo://app?vid=4bf50099-7288-4f24-87c7-44039c046e7f","ios":"levelo://app?vid=4bf50099-7288-4f24-87c7-44039c046e7f"},"vehicle_type_id":"4","last_reported":1769976809,"current_range_meters":5600,"station_id":"ce4bhg92rcd13ifvqf90","pricing_plan_id":"cebpf4jnsgd1na2vs0mg"},{"bike_id":"43223b70-9436-492d-a211-2e6bd6bde1ae","system_id":"levelo_inurba_marseille","lat":43.3052,"lon":5.38422,"is_reserved":false,"is_disabled":false,"rental_uris":{"android":"levelo://app?vid=43223b70-9436-492d-a211-2e6bd6bde1ae","ios":"levelo://app?vid=43223b70-9436-492d-a211-2e6bd6bde1ae"},"vehicle_type_id":"4","last_reported":1769976809,"current_range_meters":5600,"station_id":"ce4bgg92rcd13ifvqb30","pricing_plan_id":"cebpf4jnsgd1na2vs0mg"},{"bike_id":"149fac80-f4bf-4497-a59f-f9d1dc14b18c","system_id":"levelo_inurba_marseille","lat":43.23195,"lon":5.35561,"is_reserved":false,"is_disabled":false,"rental_uris":{"android":"levelo://app?vid=149fac80-f4bf-4497-a59f-f9d1dc14b18c","ios":"levelo://app?vid=149fac80-f4bf-4497-a59f-f9d1dc14b18c"},"vehicle_type_id":"4","last_reported":1769976809,"current_range_meters":5600,"station_id":"ce4bhu92rcd13ifvqi70","pricing_plan_id":"cebpf4jnsgd1na2vs0mg"},{"bike_id":"1b262235-a4c8-42b2-9b62-c37b9e14300f","system_id":"levelo_inurba_marseille","lat":43.27815,"lon":5.40712,"is_reserved":false,"is_disabled":false,"rental_uris":{"android":"levelo://app?vid=1b262235-a4c8-42b2-9b62-c37b9e14300f","ios":"levelo://app?vid=1b262235-a4c8-42b2-9b62-c37b9e14300f"},"vehicle_type_id":"4","last_reported":1769976809,"current_range_meters":5600,"station_id":"ce4bhnh2rcd13ifvqgtg","pricing_plan_id":"cebpf4jnsgd1na2vs0mg"},{"bike_id":"e19dcbee-55f5-4a14-8d7c-7f5193d4d389","system_id":"levelo_inurba_marseille","lat":43.27954,"lon":5.41061,"is_reserved":false,"is_disabled":false,"rental_uris":{"android":"levelo://app?vid=e19dcbee-55f5-4a14-8d7c-7f5193d4d389","ios":"levelo://app?vid=e19dcbee-55f5-4a14-8d7c-7f5193d4d389"},"vehicle_type_id":"4","last_reported":1769976809,"current_range_meters":5600,"station_id":"ce4bhnp2rcd13ifvqh0g","pricing_plan_id":"cebpf4jnsgd1na2vs0mg"},{"bike_id":"f8a0ae1c-a37d-4006-8541-a752d1a3cea9","system_id":"levelo_inurba_marseille","lat":43.29643,"lon":5.40133,"is_reserved":false,"is_disabled":false,"rental_uris":{"android":"levelo://app?vid=f8a0ae1c-a37d-4006-8541-a752d1a3cea9","ios":"levelo://app?vid=f8a0ae1c-a37d-4006-8541-a752d1a3cea9"},"vehicle_type_id":"4","last_reported":1769976809,"current_range_meters":5600,"station_id":"","pricing_plan_id":"cebpf4jnsgd1na2vs0mg"},{"bike_id":"6e2e9e6b-9180-4489-adb4-62a40596f5aa","system_id":"levelo_inurba_marseille","lat":43.29251,"lon":5.40912,"is_reserved":false,"is_disabled":false,"rental_uris":{"android":"levelo://app?vid=6e2e9e6b-9180-4489-adb4-62a40596f5aa","ios":"levelo://app?vid=6e2e9e6b-9180-4489-adb4-62a40596f5aa"},"vehicle_type_id":"4","last_reported":1769976809,"current_range_meters":5600,"station_id":"ce4bh192rcd13ifvqdc0","pricing_plan_id":"cebpf4jnsgd1na2vs0mg"},{"bike_id":"0d9d3404-87e5-4955-8e5f-cc6505a9e73e","system_id":"levelo_inurba_marseille","lat":43.22938,"lon":5.35378,"is_reserved":false,"is_disabled":false,"rental_uris":{"android":"levelo://app?vid=0d9d3404-87e5-4955-8e5f-cc6505a9e73e","ios":"levelo://app?vid=0d9d3404-87e5-4955-8e5f-cc6505a9e73e"},"vehicle_type_id":"4","last_reported":1769976809,"current_range_meters":5600,"station_id":"cpo3532slgdg3j2ikp40","pricing_plan_id":"cebpf4jnsgd1na2vs0mg"},{"bike_id":"7adc550f-ff61-4ae8-810f-40db8232e47c","system_id":"levelo_inurba_marseille","lat":43.30416,"lon":5.39755,"is_reserved":false,"is_disabled":false,"rental_uris":{"android":"levelo://app?vid=7adc550f-ff61-4ae8-810f-40db8232e47c","ios":"levelo://app?vid=7adc550f-ff61-4ae8-810f-40db8232e47c"},"vehicle_type_id":"4","last_reported":1769976809,"current_range_meters":5600,"station_id":"ce4bh092rcd13ifvqd20","pricing_plan_id":"cebpf4jnsgd1na2vs0mg"},{"bike_id":"79479160-05a6-47d1-9d42-838443764917","system_id":"levelo_inurba_marseille","lat":43.281084,"lon":5.378295,"is_reserved":false,"is_disabled":false,"rental_uris":{"android":"levelo://app?vid=79479160-05a6-47d1-9d42-838443764917","ios":"levelo://app?vid=79479160-05a6-47d1-9d42-838443764917"},"vehicle_type_id":"4","last_reported":1769976809,"current_range_meters":5600,"station_id":"ce4bha12rcd13ifvqee0","pricing_plan_id":"cebpf4jnsgd1na2vs0mg"},{"bike_id":"ee39f90f-3222-4732-9961-b784c72f0999","system_id":"levelo_inurba_marseille","lat":43.23195,"lon":5.3555,"is_reserved":false,"is_disabled":false,"rental_uris":{"android":"levelo://app?vid=ee39f90f-3222-4732-9961-b784c72f0999","ios":"levelo://app?vid=ee39f90f-3222-4732-9961-b784c72f0999"},"vehicle_type_id":"4","last_reported":1769976809,"current_range_meters":5600,"station_id":"ce4bhu92rcd13ifvqi70","pricing_plan_id":"cebpf4jnsgd1na2vs0mg"},{"bike_id":"3f016251-f617-46a2-8e71-d5c73095e4c4","system_id":"levelo_inurba_marseille","lat":43.29027,"lon":5.35666,"is_reserved":false,"is_disabled":true,"rental_uris":{"android":"levelo://app?vid=3f016251-f617-46a2-8e71-d5c73095e4c4","ios":"levelo://app?vid=3f016251-f617-46a2-8e71-d5c73095e4c4"},"vehicle_type_id":"4","last_reported":1769976809,"current_range_meters":6000,"station_id":"ce4bhb92rcd13ifvqen0","pricing_plan_id":"cebpf4jnsgd1na2vs0mg"},{"bike_id":"4b538e95-d67b-4c55-8519-1ec597c2ad3f","system_id":"levelo_inurba_marseille","lat":43.24079,"lon":5.37758,"is_reserved":false,"is_disabled":false,"rental_uris":{"android":"levelo://app?vid=4b538e95-d67b-4c55-8519-1ec597c2ad3f","ios":"levelo://app?vid=4b538e95-d67b-4c55-8519-1ec597c2ad3f"},"vehicle_type_id":"4","last_reported":1769976809,"current_range_meters":6000,"station_id":"ce4bhnp2rcd13ifvqgvg","pricing_plan_id":"cebpf4jnsgd1na2vs0mg"},{"bike_id":"a892fbdd-0992-497e-89b1-841c298473b9","system_id":"levelo_inurba_marseille","lat":43.2925,"lon":5.37623,"is_reserved":false,"is_disabled":false,"rental_uris":{"android":"levelo://app?vid=a892fbdd-0992-497e-89b1-841c298473b9","ios":"levelo://app?vid=a892fbdd-0992-497e-89b1-841c298473b9"},"vehicle_type_id":"4","last_reported":1769976809,"current_range_meters":6000,"station_id":"ce4bgi12rcd13ifvqb80","pricing_plan_id":"cebpf4jnsgd1na2vs0mg"},{"bike_id":"5e1c4385-fefc-40d8-9043-9539df7efdd8","system_id":"levelo_inurba_marseille","lat":43.337444,"lon":5.374475,"is_reserved":false,"is_disabled":false,"rental_uris":{"android":"levelo://app?vid=5e1c4385-fefc-40d8-9043-9539df7efdd8","ios":"levelo://app?vid=5e1c4385-fefc-40d8-9043-9539df7efdd8"},"vehicle_type_id":"4","last_reported":1769976809,"current_range_meters":6000,"station_id":"ce4bhbp2rcd13ifvqesg","pricing_plan_id":"cebpf4jnsgd1na2vs0mg"},{"bike_id":"4d465256-74d1-4fca-bebd-272b2e453993","system_id":"levelo_inurba_marseille","lat":43.28687,"lon":5.38678,"is_reserved":false,"is_disabled":false,"rental_uris":{"android":"levelo://app?vid=4d465256-74d1-4fca-bebd-272b2e453993","ios":"levelo://app?vid=4d465256-74d1-4fca-bebd-272b2e453993"},"vehicle_type_id":"4","last_reported":1769976809,"current_range_meters":6000,"station_id":"ce4bh492rcd13ifvqdug","pricing_plan_id":"cebpf4jnsgd1na2vs0mg"},{"bike_id":"ff6065a2-0e71-4d35-8eda-c24b991ceb70","system_id":"levelo_inurba_marseille","lat":43.2737,"lon":5.36255,"is_reserved":false,"is_disabled":false,"rental_uris":{"android":"levelo://app?vid=ff6065a2-0e71-4d35-8eda-c24b991ceb70","ios":"levelo://app?vid=ff6065a2-0e71-4d35-8eda-c24b991ceb70"},"vehicle_type_id":"4","last_reported":1769976809,"current_range_meters":6000,"station_id":"ce4bhbh2rcd13ifvqeo0","pricing_plan_id":"cebpf4jnsgd1na2vs0mg"},{"bike_id":"a341f96e-826a-4bb8-bbb0-599009d9f871","system_id":"levelo_inurba_marseille","lat":43.31116,"lon":5.37776,"is_reserved":false,"is_disabled":false,"rental_uris":{"android":"levelo://app?vid=a341f96e-826a-4bb8-bbb0-599009d9f871","ios":"levelo://app?vid=a341f96e-826a-4bb8-bbb0-599009d9f871"},"vehicle_type_id":"4","last_reported":1769976809,"current_range_meters":6000,"station_id":"ce4bgt92rcd13ifvqcg0","pricing_plan_id":"cebpf4jnsgd1na2vs0mg"},{"bike_id":"0b331fa1-be61-4ee4-8f48-817f3b90db42","system_id":"levelo_inurba_marseille","lat":43.28692,"lon":5.35561,"is_reserved":false,"is_disabled":false,"rental_uris":{"android":"levelo://app?vid=0b331fa1-be61-4ee4-8f48-817f3b90db42","ios":"levelo://app?vid=0b331fa1-be61-4ee4-8f48-817f3b90db42"},"vehicle_type_id":"4","last_reported":1769976809,"current_range_meters":6000,"station_id":"","pricing_plan_id":"cebpf4jnsgd1na2vs0mg"},{"bike_id":"cc15c741-b789-4619-bb15-d01163161379","system_id":"levelo_inurba_marseille","lat":43.31043,"lon":5.39313,"is_reserved":false,"is_disabled":false,"rental_uris":{"android":"levelo://app?vid=cc15c741-b789-4619-bb15-d01163161379","ios":"levelo://app?vid=cc15c741-b789-4619-bb15-d01163161379"},"vehicle_type_id":"4","last_reported":1769976809,"current_range_meters":6000,"station_id":"","pricing_plan_id":"cebpf4jnsgd1na2vs0mg"},{"bike_id":"d874c52f-61f8-49d9-97d2-8f16e6103b47","system_id":"levelo_inurba_marseille","lat":43.30811,"lon":5.38179,"is_reserved":false,"is_disabled":false,"rental_uris":{"android":"levelo://app?vid=d874c52f-61f8-49d9-97d2-8f16e6103b47","ios":"levelo://app?vid=d874c52f-61f8-49d9-97d2-8f16e6103b47"},"vehicle_type_id":"4","last_reported":1769976809,"current_range_meters":6000,"station_id":"ce4bgt12rcd13ifvqce0","pricing_plan_id":"cebpf4jnsgd1na2vs0mg"},{"bike_id":"c16bbffc-3f7b-4299-aa6c-4c3611fa54d9","system_id":"levelo_inurba_marseille","lat":43.28433,"lon":5.39058,"is_reserved":false,"is_disabled":true,"rental_uris":{"android":"levelo://app?vid=c16bbffc-3f7b-4299-aa6c-4c3611fa54d9","ios":"levelo://app?vid=c16bbffc-3f7b-4299-aa6c-4c3611fa54d9"},"vehicle_type_id":"4","last_reported":1769976809,"current_range_meters":6400,"station_id":"","pricing_plan_id":"cebpf4jnsgd1na2vs0mg"},{"bike_id":"f6bcfc5f-399d-4f23-8749-1c22032eba26","system_id":"levelo_inurba_marseille","lat":43.24553,"lon":5.39515,"is_reserved":false,"is_disabled":false,"rental_uris":{"android":"levelo://app?vid=f6bcfc5f-399d-4f23-8749-1c22032eba26","ios":"levelo://app?vid=f6bcfc5f-399d-4f23-8749-1c22032eba26"},"vehicle_type_id":"4","last_reported":1769976809,"current_range_meters":6400,"station_id":"ce4bhlp2rcd13ifvqgjg","pricing_plan_id":"cebpf4jnsgd1na2vs0mg"},{"bike_id":"b96d36cb-5930-44e6-9ff1-1e45b51ede98","system_id":"levelo_inurba_marseille","lat":43.29515,"lon":5.39398,"is_reserved":false,"is_disabled":false,"rental_uris":{"android":"levelo://app?vid=b96d36cb-5930-44e6-9ff1-1e45b51ede98","ios":"levelo://app?vid=b96d36cb-5930-44e6-9ff1-1e45b51ede98"},"vehicle_type_id":"4","last_reported":1769976809,"current_range_meters":6400,"station_id":"ce4bh292rcd13ifvqdf0","pricing_plan_id":"cebpf4jnsgd1na2vs0mg"},{"bike_id":"d431d2dc-fe64-4d55-be3e-18b6291747e9","system_id":"levelo_inurba_marseille","lat":43.23062,"lon":5.35487,"is_reserved":false,"is_disabled":false,"rental_uris":{"android":"levelo://app?vid=d431d2dc-fe64-4d55-be3e-18b6291747e9","ios":"levelo://app?vid=d431d2dc-fe64-4d55-be3e-18b6291747e9"},"vehicle_type_id":"4","last_reported":1769976809,"current_range_meters":6400,"station_id":"cpo3342slgdg3j2ifvpg","pricing_plan_id":"cebpf4jnsgd1na2vs0mg"},{"bike_id":"ddcbae43-31a1-4a2a-a439-401aedcebd53","system_id":"levelo_inurba_marseille","lat":43.28467,"lon":5.35875,"is_reserved":false,"is_disabled":false,"rental_uris":{"android":"levelo://app?vid=ddcbae43-31a1-4a2a-a439-401aedcebd53","ios":"levelo://app?vid=ddcbae43-31a1-4a2a-a439-401aedcebd53"},"vehicle_type_id":"4","last_reported":1769976809,"current_range_meters":6400,"station_id":"ce4bhah2rcd13ifvqei0","pricing_plan_id":"cebpf4jnsgd1na2vs0mg"},{"bike_id":"003757f1-f4de-4ff1-907e-8d9a40ed0bb7","system_id":"levelo_inurba_marseille","lat":43.31109,"lon":5.37765,"is_reserved":false,"is_disabled":false,"rental_uris":{"android":"levelo://app?vid=003757f1-f4de-4ff1-907e-8d9a40ed0bb7","ios":"levelo://app?vid=003757f1-f4de-4ff1-907e-8d9a40ed0bb7"},"vehicle_type_id":"4","last_reported":1769976809,"current_range_meters":6400,"station_id":"ce4bgt92rcd13ifvqcg0","pricing_plan_id":"cebpf4jnsgd1na2vs0mg"},{"bike_id":"e40da927-9515-43ba-b410-05fb88db39cd","system_id":"levelo_inurba_marseille","lat":43.29187,"lon":5.39325,"is_reserved":false,"is_disabled":false,"rental_uris":{"android":"levelo://app?vid=e40da927-9515-43ba-b410-05fb88db39cd","ios":"levelo://app?vid=e40da927-9515-43ba-b410-05fb88db39cd"},"vehicle_type_id":"4","last_reported":1769976809,"current_range_meters":6400,"station_id":"ce4bh192rcd13ifvqdd0","pricing_plan_id":"cebpf4jnsgd1na2vs0mg"},{"bike_id":"93e60425-8aae-4f4b-b447-57ef8147db67","system_id":"levelo_inurba_marseille","lat":43.28487,"lon":5.48409,"is_reserved":false,"is_disabled":false,"rental_uris":{"android":"levelo://app?vid=93e60425-8aae-4f4b-b447-57ef8147db67","ios":"levelo://app?vid=93e60425-8aae-4f4b-b447-57ef8147db67"},"vehicle_type_id":"4","last_reported":1769976809,"current_range_meters":6400,"station_id":"","pricing_plan_id":"cebpf4jnsgd1na2vs0mg"},{"bike_id":"2c9d9ec4-87d2-4a0f-9375-615bf9c41c46","system_id":"levelo_inurba_marseille","lat":43.26193,"lon":5.37454,"is_reserved":false,"is_disabled":false,"rental_uris":{"android":"levelo://app?vid=2c9d9ec4-87d2-4a0f-9375-615bf9c41c46","ios":"levelo://app?vid=2c9d9ec4-87d2-4a0f-9375-615bf9c41c46"},"vehicle_type_id":"4","last_reported":1769976809,"current_range_meters":6400,"station_id":"ce4bhgp2rcd13ifvqfc0","pricing_plan_id":"cebpf4jnsgd1na2vs0mg"},{"bike_id":"767dc731-f365-45e9-b7a0-0144ed9ff9a5","system_id":"levelo_inurba_marseille","lat":43.31143,"lon":5.36944,"is_reserved":false,"is_disabled":false,"rental_uris":{"android":"levelo://app?vid=767dc731-f365-45e9-b7a0-0144ed9ff9a5","ios":"levelo://app?vid=767dc731-f365-45e9-b7a0-0144ed9ff9a5"},"vehicle_type_id":"4","last_reported":1769976809,"current_range_meters":6400,"station_id":"","pricing_plan_id":"cebpf4jnsgd1na2vs0mg"},{"bike_id":"26bd2557-3046-4212-82fc-da1fdbd42b2c","system_id":"levelo_inurba_marseille","lat":43.28529,"lon":5.44126,"is_reserved":false,"is_disabled":false,"rental_uris":{"android":"levelo://app?vid=26bd2557-3046-4212-82fc-da1fdbd42b2c","ios":"levelo://app?vid=26bd2557-3046-4212-82fc-da1fdbd42b2c"},"vehicle_type_id":"4","last_reported":1769976809,"current_range_meters":6400,"station_id":"st_d3j3df2ikq2c7380ej80","pricing_plan_id":"cebpf4jnsgd1na2vs0mg"},{"bike_id":"74ac2feb-a7ae-41ed-97e6-16a7d353da55","system_id":"levelo_inurba_marseille","lat":43.24809,"lon":5.37463,"is_reserved":false,"is_disabled":true,"rental_uris":{"android":"levelo://app?vid=74ac2feb-a7ae-41ed-97e6-16a7d353da55","ios":"levelo://app?vid=74ac2feb-a7ae-41ed-97e6-16a7d353da55"},"vehicle_type_id":"4","last_reported":1769976809,"current_range_meters":6400,"station_id":"ce4bhgh2rcd13ifvqfb0","pricing_plan_id":"cebpf4jnsgd1na2vs0mg"},{"bike_id":"b4aee4d3-892f-4c3a-b975-2ea1f13d72e4","system_id":"levelo_inurba_marseille","lat":43.34135,"lon":5.40902,"is_reserved":false,"is_disabled":false,"rental_uris":{"android":"levelo://app?vid=b4aee4d3-892f-4c3a-b975-2ea1f13d72e4","ios":"levelo://app?vid=b4aee4d3-892f-4c3a-b975-2ea1f13d72e4"},"vehicle_type_id":"4","last_reported":1769976809,"current_range_meters":6400,"station_id":"ce4bhqh2rcd13ifvqhlg","pricing_plan_id":"cebpf4jnsgd1na2vs0mg"},{"bike_id":"92c39e43-0cd4-4171-abec-21e14bf07368","system_id":"levelo_inurba_marseille","lat":43.25581,"lon":5.38232,"is_reserved":false,"is_disabled":false,"rental_uris":{"android":"levelo://app?vid=92c39e43-0cd4-4171-abec-21e14bf07368","ios":"levelo://app?vid=92c39e43-0cd4-4171-abec-21e14bf07368"},"vehicle_type_id":"4","last_reported":1769976809,"current_range_meters":6400,"station_id":"ce4bhih2rcd13ifvqfs0","pricing_plan_id":"cebpf4jnsgd1na2vs0mg"},{"bike_id":"0b595329-88a5-4dab-8a2c-b70bbda22e84","system_id":"levelo_inurba_marseille","lat":43.27948,"lon":5.41027,"is_reserved":false,"is_disabled":false,"rental_uris":{"android":"levelo://app?vid=0b595329-88a5-4dab-8a2c-b70bbda22e84","ios":"levelo://app?vid=0b595329-88a5-4dab-8a2c-b70bbda22e84"},"vehicle_type_id":"4","last_reported":1769976809,"current_range_meters":6400,"station_id":"ce4bhnp2rcd13ifvqh0g","pricing_plan_id":"cebpf4jnsgd1na2vs0mg"},{"bike_id":"6683b936-5f74-4236-9c71-81c279f26420","system_id":"levelo_inurba_marseille","lat":43.25514,"lon":5.37655,"is_reserved":false,"is_disabled":false,"rental_uris":{"android":"levelo://app?vid=6683b936-5f74-4236-9c71-81c279f26420","ios":"levelo://app?vid=6683b936-5f74-4236-9c71-81c279f26420"},"vehicle_type_id":"4","last_reported":1769976809,"current_range_meters":6400,"station_id":"ce4bhh12rcd13ifvqff0","pricing_plan_id":"cebpf4jnsgd1na2vs0mg"},{"bike_id":"f36422c2-50e1-463c-a699-2686f62d13e2","system_id":"levelo_inurba_marseille","lat":43.30142,"lon":5.39849,"is_reserved":false,"is_disabled":false,"rental_uris":{"android":"levelo://app?vid=f36422c2-50e1-463c-a699-2686f62d13e2","ios":"levelo://app?vid=f36422c2-50e1-463c-a699-2686f62d13e2"},"vehicle_type_id":"4","last_reported":1769976809,"current_range_meters":6400,"station_id":"ce4bh0h2rcd13ifvqd40","pricing_plan_id":"cebpf4jnsgd1na2vs0mg"},{"bike_id":"e1b9d24f-2421-486f-a00c-01e9adfdba49","system_id":"levelo_inurba_marseille","lat":43.23193,"lon":5.3997,"is_reserved":false,"is_disabled":false,"rental_uris":{"android":"levelo://app?vid=e1b9d24f-2421-486f-a00c-01e9adfdba49","ios":"levelo://app?vid=e1b9d24f-2421-486f-a00c-01e9adfdba49"},"vehicle_type_id":"4","last_reported":1769976809,"current_range_meters":6400,"station_id":"ce4bhn12rcd13ifvqgqg","pricing_plan_id":"cebpf4jnsgd1na2vs0mg"},{"bike_id":"e5b9c854-52bd-4571-9d09-3836aec2957e","system_id":"levelo_inurba_marseille","lat":43.2417,"lon":5.364,"is_reserved":false,"is_disabled":false,"rental_uris":{"android":"levelo://app?vid=e5b9c854-52bd-4571-9d09-3836aec2957e","ios":"levelo://app?vid=e5b9c854-52bd-4571-9d09-3836aec2957e"},"vehicle_type_id":"4","last_reported":1769976809,"current_range_meters":6400,"station_id":"cpo36qri1sfpv3e86is0","pricing_plan_id":"cebpf4jnsgd1na2vs0mg"},{"bike_id":"e3e986c3-0db0-40fd-a1a5-f07ce5425792","system_id":"levelo_inurba_marseille","lat":43.27327,"lon":5.39073,"is_reserved":false,"is_disabled":true,"rental_uris":{"android":"levelo://app?vid=e3e986c3-0db0-40fd-a1a5-f07ce5425792","ios":"levelo://app?vid=e3e986c3-0db0-40fd-a1a5-f07ce5425792"},"vehicle_type_id":"4","last_reported":1769976809,"current_range_meters":6400,"station_id":"ce4bhgp2rcd13ifvqfe0","pricing_plan_id":"cebpf4jnsgd1na2vs0mg"},{"bike_id":"5b4c0c7a-c0c9-4273-96c2-faded5f9cc26","system_id":"levelo_inurba_marseille","lat":43.27948,"lon":5.41036,"is_reserved":false,"is_disabled":false,"rental_uris":{"android":"levelo://app?vid=5b4c0c7a-c0c9-4273-96c2-faded5f9cc26","ios":"levelo://app?vid=5b4c0c7a-c0c9-4273-96c2-faded5f9cc26"},"vehicle_type_id":"4","last_reported":1769976809,"current_range_meters":6800,"station_id":"ce4bhnp2rcd13ifvqh0g","pricing_plan_id":"cebpf4jnsgd1na2vs0mg"},{"bike_id":"6f8455de-cdcb-4115-8f9f-1a1c57d7cc8a","system_id":"levelo_inurba_marseille","lat":43.24998,"lon":5.38935,"is_reserved":false,"is_disabled":false,"rental_uris":{"android":"levelo://app?vid=6f8455de-cdcb-4115-8f9f-1a1c57d7cc8a","ios":"levelo://app?vid=6f8455de-cdcb-4115-8f9f-1a1c57d7cc8a"},"vehicle_type_id":"4","last_reported":1769976809,"current_range_meters":6800,"station_id":"ce4bhgp2rcd13ifvqfd0","pricing_plan_id":"cebpf4jnsgd1na2vs0mg"},{"bike_id":"3ac10527-5b40-4b0f-8372-2e018bfa2ce4","system_id":"levelo_inurba_marseille","lat":43.26383,"lon":5.41069,"is_reserved":false,"is_disabled":false,"rental_uris":{"android":"levelo://app?vid=3ac10527-5b40-4b0f-8372-2e018bfa2ce4","ios":"levelo://app?vid=3ac10527-5b40-4b0f-8372-2e018bfa2ce4"},"vehicle_type_id":"4","last_reported":1769976809,"current_range_meters":6800,"station_id":"st_d4e5ca6na9uc73bfl5fg","pricing_plan_id":"cebpf4jnsgd1na2vs0mg"},{"bike_id":"dc68db14-c906-4c81-af24-38ade0c0fe18","system_id":"levelo_inurba_marseille","lat":43.22557,"lon":5.41633,"is_reserved":false,"is_disabled":false,"rental_uris":{"android":"levelo://app?vid=dc68db14-c906-4c81-af24-38ade0c0fe18","ios":"levelo://app?vid=dc68db14-c906-4c81-af24-38ade0c0fe18"},"vehicle_type_id":"4","last_reported":1769976809,"current_range_meters":6800,"station_id":"st_d2o4gvlbi1j2169b742g","pricing_plan_id":"cebpf4jnsgd1na2vs0mg"},{"bike_id":"55821144-4cea-4c88-a4ef-ac2c18f1fa0e","system_id":"levelo_inurba_marseille","lat":43.24069,"lon":5.37762,"is_reserved":false,"is_disabled":false,"rental_uris":{"android":"levelo://app?vid=55821144-4cea-4c88-a4ef-ac2c18f1fa0e","ios":"levelo://app?vid=55821144-4cea-4c88-a4ef-ac2c18f1fa0e"},"vehicle_type_id":"4","last_reported":1769976809,"current_range_meters":6800,"station_id":"ce4bhnp2rcd13ifvqgvg","pricing_plan_id":"cebpf4jnsgd1na2vs0mg"},{"bike_id":"1c1f8539-b1ae-43f7-94e2-f9ba91100b64","system_id":"levelo_inurba_marseille","lat":43.31656,"lon":5.37728,"is_reserved":false,"is_disabled":false,"rental_uris":{"android":"levelo://app?vid=1c1f8539-b1ae-43f7-94e2-f9ba91100b64","ios":"levelo://app?vid=1c1f8539-b1ae-43f7-94e2-f9ba91100b64"},"vehicle_type_id":"4","last_reported":1769976809,"current_range_meters":6800,"station_id":"","pricing_plan_id":"cebpf4jnsgd1na2vs0mg"},{"bike_id":"8d19955e-e09c-4b47-a6e3-ae607dbe5088","system_id":"levelo_inurba_marseille","lat":43.26209,"lon":5.37448,"is_reserved":false,"is_disabled":true,"rental_uris":{"android":"levelo://app?vid=8d19955e-e09c-4b47-a6e3-ae607dbe5088","ios":"levelo://app?vid=8d19955e-e09c-4b47-a6e3-ae607dbe5088"},"vehicle_type_id":"4","last_reported":1769976809,"current_range_meters":6800,"station_id":"ce4bhgp2rcd13ifvqfc0","pricing_plan_id":"cebpf4jnsgd1na2vs0mg"},{"bike_id":"869fb81b-5a0e-4b82-99e1-ad788233cd9c","system_id":"levelo_inurba_marseille","lat":43.28107,"lon":5.37846,"is_reserved":false,"is_disabled":false,"rental_uris":{"android":"levelo://app?vid=869fb81b-5a0e-4b82-99e1-ad788233cd9c","ios":"levelo://app?vid=869fb81b-5a0e-4b82-99e1-ad788233cd9c"},"vehicle_type_id":"4","last_reported":1769976809,"current_range_meters":6800,"station_id":"ce4bha12rcd13ifvqee0","pricing_plan_id":"cebpf4jnsgd1na2vs0mg"},{"bike_id":"ba1d96b0-32b8-465c-8cae-95618aefc0ee","system_id":"levelo_inurba_marseille","lat":43.28924,"lon":5.38395,"is_reserved":false,"is_disabled":true,"rental_uris":{"android":"levelo://app?vid=ba1d96b0-32b8-465c-8cae-95618aefc0ee","ios":"levelo://app?vid=ba1d96b0-32b8-465c-8cae-95618aefc0ee"},"vehicle_type_id":"4","last_reported":1769976809,"current_range_meters":6800,"station_id":"ce4bh612rcd13ifvqe6g","pricing_plan_id":"cebpf4jnsgd1na2vs0mg"},{"bike_id":"289560c3-59fb-4c27-b9ad-0012b93fa898","system_id":"levelo_inurba_marseille","lat":43.29508,"lon":5.39406,"is_reserved":false,"is_disabled":false,"rental_uris":{"android":"levelo://app?vid=289560c3-59fb-4c27-b9ad-0012b93fa898","ios":"levelo://app?vid=289560c3-59fb-4c27-b9ad-0012b93fa898"},"vehicle_type_id":"4","last_reported":1769976809,"current_range_meters":6800,"station_id":"ce4bh292rcd13ifvqdf0","pricing_plan_id":"cebpf4jnsgd1na2vs0mg"},{"bike_id":"04dd1811-6e1f-4e2c-ad0b-087db9e82e49","system_id":"levelo_inurba_marseille","lat":43.29171,"lon":5.37168,"is_reserved":false,"is_disabled":false,"rental_uris":{"android":"levelo://app?vid=04dd1811-6e1f-4e2c-ad0b-087db9e82e49","ios":"levelo://app?vid=04dd1811-6e1f-4e2c-ad0b-087db9e82e49"},"vehicle_type_id":"4","last_reported":1769976809,"current_range_meters":6800,"station_id":"ce4bha92rcd13ifvqeh0","pricing_plan_id":"cebpf4jnsgd1na2vs0mg"},{"bike_id":"6f70f7c4-40d6-414f-8b9b-325d1bbb8b8e","system_id":"levelo_inurba_marseille","lat":43.26063,"lon":5.39415,"is_reserved":false,"is_disabled":false,"rental_uris":{"android":"levelo://app?vid=6f70f7c4-40d6-414f-8b9b-325d1bbb8b8e","ios":"levelo://app?vid=6f70f7c4-40d6-414f-8b9b-325d1bbb8b8e"},"vehicle_type_id":"4","last_reported":1769976809,"current_range_meters":6800,"station_id":"ce4bhh92rcd13ifvqfj0","pricing_plan_id":"cebpf4jnsgd1na2vs0mg"},{"bike_id":"c9f48c9b-8a34-442c-b519-55185a953e4a","system_id":"levelo_inurba_marseille","lat":43.290243,"lon":5.375633,"is_reserved":false,"is_disabled":false,"rental_uris":{"android":"levelo://app?vid=c9f48c9b-8a34-442c-b519-55185a953e4a","ios":"levelo://app?vid=c9f48c9b-8a34-442c-b519-55185a953e4a"},"vehicle_type_id":"4","last_reported":1769976809,"current_range_meters":6800,"station_id":"ce4bh692rcd13ifvqe90","pricing_plan_id":"cebpf4jnsgd1na2vs0mg"},{"bike_id":"f8da5dec-ebc1-4fa1-b434-896e04e90bb7","system_id":"levelo_inurba_marseille","lat":43.25115,"lon":5.40332,"is_reserved":false,"is_disabled":false,"rental_uris":{"android":"levelo://app?vid=f8da5dec-ebc1-4fa1-b434-896e04e90bb7","ios":"levelo://app?vid=f8da5dec-ebc1-4fa1-b434-896e04e90bb7"},"vehicle_type_id":"4","last_reported":1769976809,"current_range_meters":6800,"station_id":"ce4bhlh2rcd13ifvqgig","pricing_plan_id":"cebpf4jnsgd1na2vs0mg"},{"bike_id":"e685b8e3-afce-4dcd-a202-86a08c955aff","system_id":"levelo_inurba_marseille","lat":43.23187,"lon":5.35557,"is_reserved":false,"is_disabled":false,"rental_uris":{"android":"levelo://app?vid=e685b8e3-afce-4dcd-a202-86a08c955aff","ios":"levelo://app?vid=e685b8e3-afce-4dcd-a202-86a08c955aff"},"vehicle_type_id":"4","last_reported":1769976809,"current_range_meters":6800,"station_id":"ce4bhu92rcd13ifvqi70","pricing_plan_id":"cebpf4jnsgd1na2vs0mg"},{"bike_id":"53336c15-c4a9-4afd-ad5c-4a4cebf6f0c1","system_id":"levelo_inurba_marseille","lat":43.24173,"lon":5.36404,"is_reserved":false,"is_disabled":false,"rental_uris":{"android":"levelo://app?vid=53336c15-c4a9-4afd-ad5c-4a4cebf6f0c1","ios":"levelo://app?vid=53336c15-c4a9-4afd-ad5c-4a4cebf6f0c1"},"vehicle_type_id":"4","last_reported":1769976809,"current_range_meters":6800,"station_id":"cpo36qri1sfpv3e86is0","pricing_plan_id":"cebpf4jnsgd1na2vs0mg"},{"bike_id":"45494373-182a-4c2c-b628-7cdced94deb6","system_id":"levelo_inurba_marseille","lat":43.29877,"lon":5.38919,"is_reserved":false,"is_disabled":false,"rental_uris":{"android":"levelo://app?vid=45494373-182a-4c2c-b628-7cdced94deb6","ios":"levelo://app?vid=45494373-182a-4c2c-b628-7cdced94deb6"},"vehicle_type_id":"4","last_reported":1769976809,"current_range_meters":7200,"station_id":"ce4bh392rcd13ifvqdl0","pricing_plan_id":"cebpf4jnsgd1na2vs0mg"},{"bike_id":"0a1300ad-2f14-46b7-8956-d36a4a430b42","system_id":"levelo_inurba_marseille","lat":43.24803,"lon":5.37449,"is_reserved":false,"is_disabled":false,"rental_uris":{"android":"levelo://app?vid=0a1300ad-2f14-46b7-8956-d36a4a430b42","ios":"levelo://app?vid=0a1300ad-2f14-46b7-8956-d36a4a430b42"},"vehicle_type_id":"4","last_reported":1769976809,"current_range_meters":7200,"station_id":"ce4bhgh2rcd13ifvqfb0","pricing_plan_id":"cebpf4jnsgd1na2vs0mg"},{"bike_id":"d2ee53f1-49b6-44a6-a171-d364ff8162cf","system_id":"levelo_inurba_marseille","lat":43.33367,"lon":5.43129,"is_reserved":false,"is_disabled":false,"rental_uris":{"android":"levelo://app?vid=d2ee53f1-49b6-44a6-a171-d364ff8162cf","ios":"levelo://app?vid=d2ee53f1-49b6-44a6-a171-d364ff8162cf"},"vehicle_type_id":"4","last_reported":1769976809,"current_range_meters":7200,"station_id":"","pricing_plan_id":"cebpf4jnsgd1na2vs0mg"},{"bike_id":"f81ac8eb-d835-4090-92f7-492504da6106","system_id":"levelo_inurba_marseille","lat":43.30949,"lon":5.39018,"is_reserved":false,"is_disabled":false,"rental_uris":{"android":"levelo://app?vid=f81ac8eb-d835-4090-92f7-492504da6106","ios":"levelo://app?vid=f81ac8eb-d835-4090-92f7-492504da6106"},"vehicle_type_id":"4","last_reported":1769976809,"current_range_meters":7200,"station_id":"ce4bgup2rcd13ifvqco0","pricing_plan_id":"cebpf4jnsgd1na2vs0mg"},{"bike_id":"ab6c83e0-5dad-4068-933a-4059e6467edb","system_id":"levelo_inurba_marseille","lat":43.265622,"lon":5.403213,"is_reserved":false,"is_disabled":false,"rental_uris":{"android":"levelo://app?vid=ab6c83e0-5dad-4068-933a-4059e6467edb","ios":"levelo://app?vid=ab6c83e0-5dad-4068-933a-4059e6467edb"},"vehicle_type_id":"4","last_reported":1769976809,"current_range_meters":7200,"station_id":"ce4bhmp2rcd13ifvqgng","pricing_plan_id":"cebpf4jnsgd1na2vs0mg"},{"bike_id":"b00753f6-9e43-40ef-9959-628446071746","system_id":"levelo_inurba_marseille","lat":43.27807,"lon":5.40717,"is_reserved":false,"is_disabled":true,"rental_uris":{"android":"levelo://app?vid=b00753f6-9e43-40ef-9959-628446071746","ios":"levelo://app?vid=b00753f6-9e43-40ef-9959-628446071746"},"vehicle_type_id":"4","last_reported":1769976809,"current_range_meters":7200,"station_id":"ce4bhnh2rcd13ifvqgtg","pricing_plan_id":"cebpf4jnsgd1na2vs0mg"},{"bike_id":"12e57557-c8f6-495c-93bd-34dffc11460c","system_id":"levelo_inurba_marseille","lat":43.29529,"lon":5.38538,"is_reserved":false,"is_disabled":false,"rental_uris":{"android":"levelo://app?vid=12e57557-c8f6-495c-93bd-34dffc11460c","ios":"levelo://app?vid=12e57557-c8f6-495c-93bd-34dffc11460c"},"vehicle_type_id":"4","last_reported":1769976809,"current_range_meters":7200,"station_id":"ce4bgih2rcd13ifvqba0","pricing_plan_id":"cebpf4jnsgd1na2vs0mg"},{"bike_id":"2cfe0b76-7fe5-4fd9-b3a3-329506bfba9f","system_id":"levelo_inurba_marseille","lat":43.26585,"lon":5.39017,"is_reserved":false,"is_disabled":false,"rental_uris":{"android":"levelo://app?vid=2cfe0b76-7fe5-4fd9-b3a3-329506bfba9f","ios":"levelo://app?vid=2cfe0b76-7fe5-4fd9-b3a3-329506bfba9f"},"vehicle_type_id":"4","last_reported":1769976809,"current_range_meters":7200,"station_id":"ce4bhe12rcd13ifvqf30","pricing_plan_id":"cebpf4jnsgd1na2vs0mg"},{"bike_id":"8bb7b732-ca43-4507-82e9-af15cdb95eb1","system_id":"levelo_inurba_marseille","lat":43.2868,"lon":5.37466,"is_reserved":false,"is_disabled":false,"rental_uris":{"android":"levelo://app?vid=8bb7b732-ca43-4507-82e9-af15cdb95eb1","ios":"levelo://app?vid=8bb7b732-ca43-4507-82e9-af15cdb95eb1"},"vehicle_type_id":"4","last_reported":1769976809,"current_range_meters":7200,"station_id":"","pricing_plan_id":"cebpf4jnsgd1na2vs0mg"},{"bike_id":"ef3ac042-6517-4112-9988-08ee387cbd2b","system_id":"levelo_inurba_marseille","lat":43.28974,"lon":5.39055,"is_reserved":false,"is_disabled":false,"rental_uris":{"android":"levelo://app?vid=ef3ac042-6517-4112-9988-08ee387cbd2b","ios":"levelo://app?vid=ef3ac042-6517-4112-9988-08ee387cbd2b"},"vehicle_type_id":"4","last_reported":1769976809,"current_range_meters":7200,"station_id":"","pricing_plan_id":"cebpf4jnsgd1na2vs0mg"},{"bike_id":"cec514c3-7ecb-423b-80b5-18639cf7781d","system_id":"levelo_inurba_marseille","lat":43.25638,"lon":5.37659,"is_reserved":false,"is_disabled":false,"rental_uris":{"android":"levelo://app?vid=cec514c3-7ecb-423b-80b5-18639cf7781d","ios":"levelo://app?vid=cec514c3-7ecb-423b-80b5-18639cf7781d"},"vehicle_type_id":"4","last_reported":1769976809,"current_range_meters":7200,"station_id":"","pricing_plan_id":"cebpf4jnsgd1na2vs0mg"},{"bike_id":"bafe06f4-691a-42ad-b544-2647048d76df","system_id":"levelo_inurba_marseille","lat":43.23029,"lon":5.35501,"is_reserved":false,"is_disabled":false,"rental_uris":{"android":"levelo://app?vid=bafe06f4-691a-42ad-b544-2647048d76df","ios":"levelo://app?vid=bafe06f4-691a-42ad-b544-2647048d76df"},"vehicle_type_id":"4","last_reported":1769976809,"current_range_meters":7200,"station_id":"cpo3342slgdg3j2ifvpg","pricing_plan_id":"cebpf4jnsgd1na2vs0mg"},{"bike_id":"7dc17180-b588-4aeb-a334-6dc04f53330c","system_id":"levelo_inurba_marseille","lat":43.28702,"lon":5.37385,"is_reserved":false,"is_disabled":false,"rental_uris":{"android":"levelo://app?vid=7dc17180-b588-4aeb-a334-6dc04f53330c","ios":"levelo://app?vid=7dc17180-b588-4aeb-a334-6dc04f53330c"},"vehicle_type_id":"4","last_reported":1769976809,"current_range_meters":7200,"station_id":"ce4bh3p2rcd13ifvqdq0","pricing_plan_id":"cebpf4jnsgd1na2vs0mg"},{"bike_id":"2b052603-1775-4258-80ad-ae63b6286ef5","system_id":"levelo_inurba_marseille","lat":43.29751,"lon":5.35968,"is_reserved":false,"is_disabled":true,"rental_uris":{"android":"levelo://app?vid=2b052603-1775-4258-80ad-ae63b6286ef5","ios":"levelo://app?vid=2b052603-1775-4258-80ad-ae63b6286ef5"},"vehicle_type_id":"4","last_reported":1769976809,"current_range_meters":7200,"station_id":"","pricing_plan_id":"cebpf4jnsgd1na2vs0mg"},{"bike_id":"a1238032-13c3-4e05-a4c3-c3bf83d0a36e","system_id":"levelo_inurba_marseille","lat":43.31116,"lon":5.37762,"is_reserved":false,"is_disabled":false,"rental_uris":{"android":"levelo://app?vid=a1238032-13c3-4e05-a4c3-c3bf83d0a36e","ios":"levelo://app?vid=a1238032-13c3-4e05-a4c3-c3bf83d0a36e"},"vehicle_type_id":"4","last_reported":1769976809,"current_range_meters":7200,"station_id":"ce4bgt92rcd13ifvqcg0","pricing_plan_id":"cebpf4jnsgd1na2vs0mg"},{"bike_id":"064b8bc8-52f1-41a1-98a8-692ee47c9995","system_id":"levelo_inurba_marseille","lat":43.21749,"lon":5.34595,"is_reserved":false,"is_disabled":true,"rental_uris":{"android":"levelo://app?vid=064b8bc8-52f1-41a1-98a8-692ee47c9995","ios":"levelo://app?vid=064b8bc8-52f1-41a1-98a8-692ee47c9995"},"vehicle_type_id":"4","last_reported":1769976809,"current_range_meters":7200,"station_id":"","pricing_plan_id":"cebpf4jnsgd1na2vs0mg"},{"bike_id":"669cbfea-a557-4cea-af48-034865d30cc0","system_id":"levelo_inurba_marseille","lat":43.25339,"lon":5.4217,"is_reserved":false,"is_disabled":true,"rental_uris":{"android":"levelo://app?vid=669cbfea-a557-4cea-af48-034865d30cc0","ios":"levelo://app?vid=669cbfea-a557-4cea-af48-034865d30cc0"},"vehicle_type_id":"4","last_reported":1769976809,"current_range_meters":7200,"station_id":"st_d2m65c5bi1j21697t3ng","pricing_plan_id":"cebpf4jnsgd1na2vs0mg"},{"bike_id":"58982c61-2f00-4e02-b620-223b4d372a1d","system_id":"levelo_inurba_marseille","lat":43.25568,"lon":5.38235,"is_reserved":false,"is_disabled":false,"rental_uris":{"android":"levelo://app?vid=58982c61-2f00-4e02-b620-223b4d372a1d","ios":"levelo://app?vid=58982c61-2f00-4e02-b620-223b4d372a1d"},"vehicle_type_id":"4","last_reported":1769976809,"current_range_meters":7200,"station_id":"ce4bhih2rcd13ifvqfs0","pricing_plan_id":"cebpf4jnsgd1na2vs0mg"},{"bike_id":"5abec86c-dad6-43f1-a3f4-aae181aca07b","system_id":"levelo_inurba_marseille","lat":43.2954,"lon":5.38546,"is_reserved":false,"is_disabled":false,"rental_uris":{"android":"levelo://app?vid=5abec86c-dad6-43f1-a3f4-aae181aca07b","ios":"levelo://app?vid=5abec86c-dad6-43f1-a3f4-aae181aca07b"},"vehicle_type_id":"4","last_reported":1769976809,"current_range_meters":7200,"station_id":"ce4bgih2rcd13ifvqba0","pricing_plan_id":"cebpf4jnsgd1na2vs0mg"},{"bike_id":"d1a4c207-5791-4015-8c48-e9fcda8077be","system_id":"levelo_inurba_marseille","lat":43.3317,"lon":5.37677,"is_reserved":false,"is_disabled":false,"rental_uris":{"android":"levelo://app?vid=d1a4c207-5791-4015-8c48-e9fcda8077be","ios":"levelo://app?vid=d1a4c207-5791-4015-8c48-e9fcda8077be"},"vehicle_type_id":"4","last_reported":1769976809,"current_range_meters":8000,"station_id":"st_d46cu089ee8s73dldbu0","pricing_plan_id":"cebpf4jnsgd1na2vs0mg"},{"bike_id":"eae001be-3b34-469f-b5f5-7615da95a4ed","system_id":"levelo_inurba_marseille","lat":43.27825,"lon":5.40721,"is_reserved":false,"is_disabled":false,"rental_uris":{"android":"levelo://app?vid=eae001be-3b34-469f-b5f5-7615da95a4ed","ios":"levelo://app?vid=eae001be-3b34-469f-b5f5-7615da95a4ed"},"vehicle_type_id":"4","last_reported":1769976809,"current_range_meters":8000,"station_id":"ce4bhnh2rcd13ifvqgtg","pricing_plan_id":"cebpf4jnsgd1na2vs0mg"},{"bike_id":"0a0d558e-7698-4c76-9579-fd855d1ed701","system_id":"levelo_inurba_marseille","lat":43.28488,"lon":5.38417,"is_reserved":false,"is_disabled":false,"rental_uris":{"android":"levelo://app?vid=0a0d558e-7698-4c76-9579-fd855d1ed701","ios":"levelo://app?vid=0a0d558e-7698-4c76-9579-fd855d1ed701"},"vehicle_type_id":"4","last_reported":1769976809,"current_range_meters":8000,"station_id":"ce4bh512rcd13ifvqe3g","pricing_plan_id":"cebpf4jnsgd1na2vs0mg"},{"bike_id":"55392003-6bce-4df2-a517-2db7a8819d4b","system_id":"levelo_inurba_marseille","lat":43.283364,"lon":5.381039,"is_reserved":false,"is_disabled":false,"rental_uris":{"android":"levelo://app?vid=55392003-6bce-4df2-a517-2db7a8819d4b","ios":"levelo://app?vid=55392003-6bce-4df2-a517-2db7a8819d4b"},"vehicle_type_id":"4","last_reported":1769976809,"current_range_meters":8000,"station_id":"ce4bh412rcd13ifvqdr0","pricing_plan_id":"cebpf4jnsgd1na2vs0mg"},{"bike_id":"cda7d8d9-ec08-4ba8-ab16-db0e7515076a","system_id":"levelo_inurba_marseille","lat":43.29025,"lon":5.38648,"is_reserved":false,"is_disabled":false,"rental_uris":{"android":"levelo://app?vid=cda7d8d9-ec08-4ba8-ab16-db0e7515076a","ios":"levelo://app?vid=cda7d8d9-ec08-4ba8-ab16-db0e7515076a"},"vehicle_type_id":"4","last_reported":1769976809,"current_range_meters":8000,"station_id":"ce4bh4p2rcd13ifvqe0g","pricing_plan_id":"cebpf4jnsgd1na2vs0mg"},{"bike_id":"4f5d5401-a251-4bec-a1d9-6a46b0771284","system_id":"levelo_inurba_marseille","lat":43.29306,"lon":5.37185,"is_reserved":false,"is_disabled":false,"rental_uris":{"android":"levelo://app?vid=4f5d5401-a251-4bec-a1d9-6a46b0771284","ios":"levelo://app?vid=4f5d5401-a251-4bec-a1d9-6a46b0771284"},"vehicle_type_id":"4","last_reported":1769976809,"current_range_meters":8000,"station_id":"ce4bgh92rcd13ifvqb40","pricing_plan_id":"cebpf4jnsgd1na2vs0mg"},{"bike_id":"51487434-2c5b-44ec-b6f1-b2d802fd5baf","system_id":"levelo_inurba_marseille","lat":43.29625,"lon":5.37151,"is_reserved":false,"is_disabled":false,"rental_uris":{"android":"levelo://app?vid=51487434-2c5b-44ec-b6f1-b2d802fd5baf","ios":"levelo://app?vid=51487434-2c5b-44ec-b6f1-b2d802fd5baf"},"vehicle_type_id":"4","last_reported":1769976809,"current_range_meters":8000,"station_id":"ce4bgnh2rcd13ifvqc0g","pricing_plan_id":"cebpf4jnsgd1na2vs0mg"},{"bike_id":"e1d85e8f-816e-43e5-832f-fa3bb6c7d9fd","system_id":"levelo_inurba_marseille","lat":43.29783,"lon":5.44108,"is_reserved":false,"is_disabled":false,"rental_uris":{"android":"levelo://app?vid=e1d85e8f-816e-43e5-832f-fa3bb6c7d9fd","ios":"levelo://app?vid=e1d85e8f-816e-43e5-832f-fa3bb6c7d9fd"},"vehicle_type_id":"4","last_reported":1769976809,"current_range_meters":8000,"station_id":"","pricing_plan_id":"cebpf4jnsgd1na2vs0mg"},{"bike_id":"d02a39b5-b9e6-42c0-89cf-ec41b03ef41c","system_id":"levelo_inurba_marseille","lat":43.273723,"lon":5.362576,"is_reserved":false,"is_disabled":false,"rental_uris":{"android":"levelo://app?vid=d02a39b5-b9e6-42c0-89cf-ec41b03ef41c","ios":"levelo://app?vid=d02a39b5-b9e6-42c0-89cf-ec41b03ef41c"},"vehicle_type_id":"4","last_reported":1769976809,"current_range_meters":8000,"station_id":"ce4bhbh2rcd13ifvqeo0","pricing_plan_id":"cebpf4jnsgd1na2vs0mg"},{"bike_id":"eba67f38-b33e-49ea-b1e8-34c117c3492a","system_id":"levelo_inurba_marseille","lat":43.29373,"lon":5.37847,"is_reserved":false,"is_disabled":false,"rental_uris":{"android":"levelo://app?vid=eba67f38-b33e-49ea-b1e8-34c117c3492a","ios":"levelo://app?vid=eba67f38-b33e-49ea-b1e8-34c117c3492a"},"vehicle_type_id":"4","last_reported":1769976809,"current_range_meters":8000,"station_id":"ce4bgjh2rcd13ifvqbf0","pricing_plan_id":"cebpf4jnsgd1na2vs0mg"},{"bike_id":"15f38625-14a2-40fd-bec6-91fdb6960c8c","system_id":"levelo_inurba_marseille","lat":43.28801,"lon":5.39051,"is_reserved":false,"is_disabled":false,"rental_uris":{"android":"levelo://app?vid=15f38625-14a2-40fd-bec6-91fdb6960c8c","ios":"levelo://app?vid=15f38625-14a2-40fd-bec6-91fdb6960c8c"},"vehicle_type_id":"4","last_reported":1769976809,"current_range_meters":8000,"station_id":"","pricing_plan_id":"cebpf4jnsgd1na2vs0mg"},{"bike_id":"d4b5b096-da69-4ec4-914a-6285463fedd1","system_id":"levelo_inurba_marseille","lat":43.26034,"lon":5.37547,"is_reserved":false,"is_disabled":false,"rental_uris":{"android":"levelo://app?vid=d4b5b096-da69-4ec4-914a-6285463fedd1","ios":"levelo://app?vid=d4b5b096-da69-4ec4-914a-6285463fedd1"},"vehicle_type_id":"4","last_reported":1769976809,"current_range_meters":8000,"station_id":"ce4bhgh2rcd13ifvqfa0","pricing_plan_id":"cebpf4jnsgd1na2vs0mg"},{"bike_id":"869324cd-afc1-4bfa-b7c4-a01f8fe780d6","system_id":"levelo_inurba_marseille","lat":43.2454,"lon":5.39533,"is_reserved":false,"is_disabled":false,"rental_uris":{"android":"levelo://app?vid=869324cd-afc1-4bfa-b7c4-a01f8fe780d6","ios":"levelo://app?vid=869324cd-afc1-4bfa-b7c4-a01f8fe780d6"},"vehicle_type_id":"4","last_reported":1769976809,"current_range_meters":8000,"station_id":"ce4bhlp2rcd13ifvqgjg","pricing_plan_id":"cebpf4jnsgd1na2vs0mg"},{"bike_id":"6632b7eb-39fd-4ac6-ab18-a3a8fd79732f","system_id":"levelo_inurba_marseille","lat":43.30885,"lon":5.37158,"is_reserved":false,"is_disabled":false,"rental_uris":{"android":"levelo://app?vid=6632b7eb-39fd-4ac6-ab18-a3a8fd79732f","ios":"levelo://app?vid=6632b7eb-39fd-4ac6-ab18-a3a8fd79732f"},"vehicle_type_id":"4","last_reported":1769976809,"current_range_meters":8000,"station_id":"ce4bguh2rcd13ifvqckg","pricing_plan_id":"cebpf4jnsgd1na2vs0mg"},{"bike_id":"b9a9097f-13d0-49a9-bb46-6f5237ccc9ec","system_id":"levelo_inurba_marseille","lat":43.27386,"lon":5.36263,"is_reserved":false,"is_disabled":false,"rental_uris":{"android":"levelo://app?vid=b9a9097f-13d0-49a9-bb46-6f5237ccc9ec","ios":"levelo://app?vid=b9a9097f-13d0-49a9-bb46-6f5237ccc9ec"},"vehicle_type_id":"4","last_reported":1769976809,"current_range_meters":8000,"station_id":"ce4bhbh2rcd13ifvqeo0","pricing_plan_id":"cebpf4jnsgd1na2vs0mg"},{"bike_id":"ae6076f5-67fa-439f-8c52-3710dfc4ce50","system_id":"levelo_inurba_marseille","lat":43.27808,"lon":5.40711,"is_reserved":false,"is_disabled":false,"rental_uris":{"android":"levelo://app?vid=ae6076f5-67fa-439f-8c52-3710dfc4ce50","ios":"levelo://app?vid=ae6076f5-67fa-439f-8c52-3710dfc4ce50"},"vehicle_type_id":"4","last_reported":1769976809,"current_range_meters":8000,"station_id":"ce4bhnh2rcd13ifvqgtg","pricing_plan_id":"cebpf4jnsgd1na2vs0mg"},{"bike_id":"5a46f343-f8c0-4bd7-9859-14e3ca910ba6","system_id":"levelo_inurba_marseille","lat":43.29478,"lon":5.43337,"is_reserved":false,"is_disabled":false,"rental_uris":{"android":"levelo://app?vid=5a46f343-f8c0-4bd7-9859-14e3ca910ba6","ios":"levelo://app?vid=5a46f343-f8c0-4bd7-9859-14e3ca910ba6"},"vehicle_type_id":"4","last_reported":1769976809,"current_range_meters":8000,"station_id":"st_d3j5ugp08ojc73fj9d10","pricing_plan_id":"cebpf4jnsgd1na2vs0mg"},{"bike_id":"48defe86-fd01-4bdf-bb58-0b96240d5da2","system_id":"levelo_inurba_marseille","lat":43.2849,"lon":5.48391,"is_reserved":false,"is_disabled":false,"rental_uris":{"android":"levelo://app?vid=48defe86-fd01-4bdf-bb58-0b96240d5da2","ios":"levelo://app?vid=48defe86-fd01-4bdf-bb58-0b96240d5da2"},"vehicle_type_id":"4","last_reported":1769976809,"current_range_meters":8000,"station_id":"st_d3svhcjqgbts73a3dn0g","pricing_plan_id":"cebpf4jnsgd1na2vs0mg"},{"bike_id":"1a060955-a65c-4f5e-809a-5d0e0f38c668","system_id":"levelo_inurba_marseille","lat":43.27839,"lon":5.39203,"is_reserved":false,"is_disabled":false,"rental_uris":{"android":"levelo://app?vid=1a060955-a65c-4f5e-809a-5d0e0f38c668","ios":"levelo://app?vid=1a060955-a65c-4f5e-809a-5d0e0f38c668"},"vehicle_type_id":"4","last_reported":1769976809,"current_range_meters":8000,"station_id":"ce4bhjp2rcd13ifvqga0","pricing_plan_id":"cebpf4jnsgd1na2vs0mg"},{"bike_id":"b8b94943-9f85-4dce-9193-e4086fb48a3d","system_id":"levelo_inurba_marseille","lat":43.28207,"lon":5.39001,"is_reserved":false,"is_disabled":false,"rental_uris":{"android":"levelo://app?vid=b8b94943-9f85-4dce-9193-e4086fb48a3d","ios":"levelo://app?vid=b8b94943-9f85-4dce-9193-e4086fb48a3d"},"vehicle_type_id":"4","last_reported":1769976809,"current_range_meters":8400,"station_id":"","pricing_plan_id":"cebpf4jnsgd1na2vs0mg"},{"bike_id":"8e479c4c-f95e-4e59-acb0-f1005eec9b92","system_id":"levelo_inurba_marseille","lat":43.29279,"lon":5.38416,"is_reserved":false,"is_disabled":false,"rental_uris":{"android":"levelo://app?vid=8e479c4c-f95e-4e59-acb0-f1005eec9b92","ios":"levelo://app?vid=8e479c4c-f95e-4e59-acb0-f1005eec9b92"},"vehicle_type_id":"4","last_reported":1769976809,"current_range_meters":8400,"station_id":"ce4bh692rcd13ifvqea0","pricing_plan_id":"cebpf4jnsgd1na2vs0mg"},{"bike_id":"da1cc9b1-3b64-490a-b8d8-fe9a47834cfd","system_id":"levelo_inurba_marseille","lat":43.2795,"lon":5.38711,"is_reserved":false,"is_disabled":false,"rental_uris":{"android":"levelo://app?vid=da1cc9b1-3b64-490a-b8d8-fe9a47834cfd","ios":"levelo://app?vid=da1cc9b1-3b64-490a-b8d8-fe9a47834cfd"},"vehicle_type_id":"4","last_reported":1769976809,"current_range_meters":8400,"station_id":"ce4bhg12rcd13ifvqf80","pricing_plan_id":"cebpf4jnsgd1na2vs0mg"},{"bike_id":"4d614b31-2487-459c-80b4-20568895cab0","system_id":"levelo_inurba_marseille","lat":43.24021,"lon":5.37793,"is_reserved":false,"is_disabled":true,"rental_uris":{"android":"levelo://app?vid=4d614b31-2487-459c-80b4-20568895cab0","ios":"levelo://app?vid=4d614b31-2487-459c-80b4-20568895cab0"},"vehicle_type_id":"4","last_reported":1769976809,"current_range_meters":8400,"station_id":"ce4bhnp2rcd13ifvqgvg","pricing_plan_id":"cebpf4jnsgd1na2vs0mg"},{"bike_id":"fff7e7d9-a5a2-4648-8c64-acd8db891467","system_id":"levelo_inurba_marseille","lat":43.2623,"lon":5.4045,"is_reserved":false,"is_disabled":true,"rental_uris":{"android":"levelo://app?vid=fff7e7d9-a5a2-4648-8c64-acd8db891467","ios":"levelo://app?vid=fff7e7d9-a5a2-4648-8c64-acd8db891467"},"vehicle_type_id":"4","last_reported":1769976809,"current_range_meters":8400,"station_id":"ce4bhmh2rcd13ifvqgmg","pricing_plan_id":"cebpf4jnsgd1na2vs0mg"},{"bike_id":"90cc7704-1d56-4c80-bbd3-26f6402cccdc","system_id":"levelo_inurba_marseille","lat":43.24945,"lon":5.40502,"is_reserved":false,"is_disabled":false,"rental_uris":{"android":"levelo://app?vid=90cc7704-1d56-4c80-bbd3-26f6402cccdc","ios":"levelo://app?vid=90cc7704-1d56-4c80-bbd3-26f6402cccdc"},"vehicle_type_id":"4","last_reported":1769976809,"current_range_meters":8400,"station_id":"st_d2ngiaodas8pm72gd1h0","pricing_plan_id":"cebpf4jnsgd1na2vs0mg"},{"bike_id":"1fa8e335-1ff0-404e-b8c4-82c4c2c91fd1","system_id":"levelo_inurba_marseille","lat":43.3117,"lon":5.38718,"is_reserved":false,"is_disabled":false,"rental_uris":{"android":"levelo://app?vid=1fa8e335-1ff0-404e-b8c4-82c4c2c91fd1","ios":"levelo://app?vid=1fa8e335-1ff0-404e-b8c4-82c4c2c91fd1"},"vehicle_type_id":"4","last_reported":1769976809,"current_range_meters":8400,"station_id":"ce4bgv12rcd13ifvqcp0","pricing_plan_id":"cebpf4jnsgd1na2vs0mg"},{"bike_id":"4c50b102-00aa-40e2-83bd-5e90d2e54b17","system_id":"levelo_inurba_marseille","lat":43.27959,"lon":5.40059,"is_reserved":false,"is_disabled":false,"rental_uris":{"android":"levelo://app?vid=4c50b102-00aa-40e2-83bd-5e90d2e54b17","ios":"levelo://app?vid=4c50b102-00aa-40e2-83bd-5e90d2e54b17"},"vehicle_type_id":"4","last_reported":1769976809,"current_range_meters":8400,"station_id":"","pricing_plan_id":"cebpf4jnsgd1na2vs0mg"},{"bike_id":"ead9d525-178d-43f7-b202-498aac541976","system_id":"levelo_inurba_marseille","lat":43.22562,"lon":5.41636,"is_reserved":false,"is_disabled":false,"rental_uris":{"android":"levelo://app?vid=ead9d525-178d-43f7-b202-498aac541976","ios":"levelo://app?vid=ead9d525-178d-43f7-b202-498aac541976"},"vehicle_type_id":"4","last_reported":1769976809,"current_range_meters":8400,"station_id":"st_d2o4gvlbi1j2169b742g","pricing_plan_id":"cebpf4jnsgd1na2vs0mg"},{"bike_id":"3a58788c-4a23-4531-9872-db4b04a34512","system_id":"levelo_inurba_marseille","lat":43.25014,"lon":5.38918,"is_reserved":false,"is_disabled":false,"rental_uris":{"android":"levelo://app?vid=3a58788c-4a23-4531-9872-db4b04a34512","ios":"levelo://app?vid=3a58788c-4a23-4531-9872-db4b04a34512"},"vehicle_type_id":"4","last_reported":1769976809,"current_range_meters":8400,"station_id":"ce4bhgp2rcd13ifvqfd0","pricing_plan_id":"cebpf4jnsgd1na2vs0mg"},{"bike_id":"4d234310-ea19-474f-8ae8-207b3c7be220","system_id":"levelo_inurba_marseille","lat":43.28164,"lon":5.4265,"is_reserved":false,"is_disabled":false,"rental_uris":{"android":"levelo://app?vid=4d234310-ea19-474f-8ae8-207b3c7be220","ios":"levelo://app?vid=4d234310-ea19-474f-8ae8-207b3c7be220"},"vehicle_type_id":"4","last_reported":1769976809,"current_range_meters":8400,"station_id":"ce4bhnh2rcd13ifvqgug","pricing_plan_id":"cebpf4jnsgd1na2vs0mg"},{"bike_id":"231e54e6-7161-4587-916f-33b52f42e31e","system_id":"levelo_inurba_marseille","lat":43.28462,"lon":5.35897,"is_reserved":false,"is_disabled":false,"rental_uris":{"android":"levelo://app?vid=231e54e6-7161-4587-916f-33b52f42e31e","ios":"levelo://app?vid=231e54e6-7161-4587-916f-33b52f42e31e"},"vehicle_type_id":"4","last_reported":1769976809,"current_range_meters":8400,"station_id":"ce4bhah2rcd13ifvqei0","pricing_plan_id":"cebpf4jnsgd1na2vs0mg"},{"bike_id":"f89b88c3-6db9-484c-b630-41883ad25982","system_id":"levelo_inurba_marseille","lat":43.31536,"lon":5.38034,"is_reserved":false,"is_disabled":false,"rental_uris":{"android":"levelo://app?vid=f89b88c3-6db9-484c-b630-41883ad25982","ios":"levelo://app?vid=f89b88c3-6db9-484c-b630-41883ad25982"},"vehicle_type_id":"4","last_reported":1769976809,"current_range_meters":8400,"station_id":"ce4bhsp2rcd13ifvqi50","pricing_plan_id":"cebpf4jnsgd1na2vs0mg"},{"bike_id":"a8689520-55da-4b01-8143-85728e8bbdaa","system_id":"levelo_inurba_marseille","lat":43.26667,"lon":5.38604,"is_reserved":false,"is_disabled":false,"rental_uris":{"android":"levelo://app?vid=a8689520-55da-4b01-8143-85728e8bbdaa","ios":"levelo://app?vid=a8689520-55da-4b01-8143-85728e8bbdaa"},"vehicle_type_id":"4","last_reported":1769976809,"current_range_meters":8400,"station_id":"","pricing_plan_id":"cebpf4jnsgd1na2vs0mg"},{"bike_id":"4471fc4d-a4dc-4233-80ae-609410d3b216","system_id":"levelo_inurba_marseille","lat":43.303075,"lon":5.369021,"is_reserved":false,"is_disabled":false,"rental_uris":{"android":"levelo://app?vid=4471fc4d-a4dc-4233-80ae-609410d3b216","ios":"levelo://app?vid=4471fc4d-a4dc-4233-80ae-609410d3b216"},"vehicle_type_id":"4","last_reported":1769976809,"current_range_meters":8400,"station_id":"ce4bgqh2rcd13ifvqc5g","pricing_plan_id":"cebpf4jnsgd1na2vs0mg"},{"bike_id":"0f50e352-4e9f-4bc1-85f5-056cf06c966f","system_id":"levelo_inurba_marseille","lat":43.2961,"lon":5.37726,"is_reserved":false,"is_disabled":false,"rental_uris":{"android":"levelo://app?vid=0f50e352-4e9f-4bc1-85f5-056cf06c966f","ios":"levelo://app?vid=0f50e352-4e9f-4bc1-85f5-056cf06c966f"},"vehicle_type_id":"4","last_reported":1769976809,"current_range_meters":8800,"station_id":"ce4bgi92rcd13ifvqb90","pricing_plan_id":"cebpf4jnsgd1na2vs0mg"},{"bike_id":"c908c76d-5841-48a6-bd50-48ef6a9cf886","system_id":"levelo_inurba_marseille","lat":43.32488,"lon":5.38287,"is_reserved":false,"is_disabled":false,"rental_uris":{"android":"levelo://app?vid=c908c76d-5841-48a6-bd50-48ef6a9cf886","ios":"levelo://app?vid=c908c76d-5841-48a6-bd50-48ef6a9cf886"},"vehicle_type_id":"4","last_reported":1769976809,"current_range_meters":8800,"station_id":"st_d4asgbiv49dc73anf9m0","pricing_plan_id":"cebpf4jnsgd1na2vs0mg"},{"bike_id":"e09e2717-153b-489f-b446-f480f14d97b2","system_id":"levelo_inurba_marseille","lat":43.27944,"lon":5.41053,"is_reserved":false,"is_disabled":false,"rental_uris":{"android":"levelo://app?vid=e09e2717-153b-489f-b446-f480f14d97b2","ios":"levelo://app?vid=e09e2717-153b-489f-b446-f480f14d97b2"},"vehicle_type_id":"4","last_reported":1769976809,"current_range_meters":8800,"station_id":"ce4bhnp2rcd13ifvqh0g","pricing_plan_id":"cebpf4jnsgd1na2vs0mg"},{"bike_id":"915f07f8-71e8-442d-9fd7-f7e4f42ace83","system_id":"levelo_inurba_marseille","lat":43.23788,"lon":5.36657,"is_reserved":false,"is_disabled":false,"rental_uris":{"android":"levelo://app?vid=915f07f8-71e8-442d-9fd7-f7e4f42ace83","ios":"levelo://app?vid=915f07f8-71e8-442d-9fd7-f7e4f42ace83"},"vehicle_type_id":"4","last_reported":1769976809,"current_range_meters":8800,"station_id":"st_d3nk18o9ro0c73en2l3g","pricing_plan_id":"cebpf4jnsgd1na2vs0mg"},{"bike_id":"7c0d9424-4c16-451a-a5e1-26585d6883f7","system_id":"levelo_inurba_marseille","lat":43.28871,"lon":5.4251,"is_reserved":false,"is_disabled":false,"rental_uris":{"android":"levelo://app?vid=7c0d9424-4c16-451a-a5e1-26585d6883f7","ios":"levelo://app?vid=7c0d9424-4c16-451a-a5e1-26585d6883f7"},"vehicle_type_id":"4","last_reported":1769976809,"current_range_meters":8800,"station_id":"st_d3b462108ojc7389ooeg","pricing_plan_id":"cebpf4jnsgd1na2vs0mg"},{"bike_id":"4b39f1cc-8d5c-4330-8483-0300616cf7c0","system_id":"levelo_inurba_marseille","lat":43.2406,"lon":5.36365,"is_reserved":false,"is_disabled":false,"rental_uris":{"android":"levelo://app?vid=4b39f1cc-8d5c-4330-8483-0300616cf7c0","ios":"levelo://app?vid=4b39f1cc-8d5c-4330-8483-0300616cf7c0"},"vehicle_type_id":"4","last_reported":1769976809,"current_range_meters":8800,"station_id":"","pricing_plan_id":"cebpf4jnsgd1na2vs0mg"},{"bike_id":"968124df-403c-4028-a767-f0e5bc650d2a","system_id":"levelo_inurba_marseille","lat":43.30265,"lon":5.40097,"is_reserved":false,"is_disabled":false,"rental_uris":{"android":"levelo://app?vid=968124df-403c-4028-a767-f0e5bc650d2a","ios":"levelo://app?vid=968124df-403c-4028-a767-f0e5bc650d2a"},"vehicle_type_id":"4","last_reported":1769976809,"current_range_meters":8800,"station_id":"ce4bgvh2rcd13ifvqcs0","pricing_plan_id":"cebpf4jnsgd1na2vs0mg"},{"bike_id":"c6e0ebb0-23b1-4303-abfe-64a4c571d6a5","system_id":"levelo_inurba_marseille","lat":43.26611,"lon":5.38949,"is_reserved":false,"is_disabled":false,"rental_uris":{"android":"levelo://app?vid=c6e0ebb0-23b1-4303-abfe-64a4c571d6a5","ios":"levelo://app?vid=c6e0ebb0-23b1-4303-abfe-64a4c571d6a5"},"vehicle_type_id":"4","last_reported":1769976809,"current_range_meters":8800,"station_id":"","pricing_plan_id":"cebpf4jnsgd1na2vs0mg"},{"bike_id":"d64baf67-1a62-4b86-9aae-88e7781f3b30","system_id":"levelo_inurba_marseille","lat":43.23192,"lon":5.39988,"is_reserved":false,"is_disabled":false,"rental_uris":{"android":"levelo://app?vid=d64baf67-1a62-4b86-9aae-88e7781f3b30","ios":"levelo://app?vid=d64baf67-1a62-4b86-9aae-88e7781f3b30"},"vehicle_type_id":"4","last_reported":1769976809,"current_range_meters":8800,"station_id":"ce4bhn12rcd13ifvqgqg","pricing_plan_id":"cebpf4jnsgd1na2vs0mg"},{"bike_id":"c648ab2e-8122-4c22-93e2-f0e91d649f63","system_id":"levelo_inurba_marseille","lat":43.28929,"lon":5.38407,"is_reserved":false,"is_disabled":false,"rental_uris":{"android":"levelo://app?vid=c648ab2e-8122-4c22-93e2-f0e91d649f63","ios":"levelo://app?vid=c648ab2e-8122-4c22-93e2-f0e91d649f63"},"vehicle_type_id":"4","last_reported":1769976809,"current_range_meters":8800,"station_id":"ce4bh612rcd13ifvqe6g","pricing_plan_id":"cebpf4jnsgd1na2vs0mg"},{"bike_id":"1d871e15-87dd-49cd-870e-4c3cf09f339c","system_id":"levelo_inurba_marseille","lat":43.23783,"lon":5.36666,"is_reserved":false,"is_disabled":false,"rental_uris":{"android":"levelo://app?vid=1d871e15-87dd-49cd-870e-4c3cf09f339c","ios":"levelo://app?vid=1d871e15-87dd-49cd-870e-4c3cf09f339c"},"vehicle_type_id":"4","last_reported":1769976809,"current_range_meters":8800,"station_id":"st_d3nk18o9ro0c73en2l3g","pricing_plan_id":"cebpf4jnsgd1na2vs0mg"},{"bike_id":"647e8c67-198d-4317-8b12-fb4881b15010","system_id":"levelo_inurba_marseille","lat":43.29782,"lon":5.36467,"is_reserved":false,"is_disabled":false,"rental_uris":{"android":"levelo://app?vid=647e8c67-198d-4317-8b12-fb4881b15010","ios":"levelo://app?vid=647e8c67-198d-4317-8b12-fb4881b15010"},"vehicle_type_id":"4","last_reported":1769976809,"current_range_meters":8800,"station_id":"","pricing_plan_id":"cebpf4jnsgd1na2vs0mg"},{"bike_id":"bad2142d-9f55-4621-b045-df305d11c2d1","system_id":"levelo_inurba_marseille","lat":43.31173,"lon":5.36818,"is_reserved":false,"is_disabled":false,"rental_uris":{"android":"levelo://app?vid=bad2142d-9f55-4621-b045-df305d11c2d1","ios":"levelo://app?vid=bad2142d-9f55-4621-b045-df305d11c2d1"},"vehicle_type_id":"4","last_reported":1769976809,"current_range_meters":8800,"station_id":"","pricing_plan_id":"cebpf4jnsgd1na2vs0mg"},{"bike_id":"bb09783a-a390-4fda-b75a-eedd1b2b11f9","system_id":"levelo_inurba_marseille","lat":43.28657,"lon":5.35078,"is_reserved":false,"is_disabled":false,"rental_uris":{"android":"levelo://app?vid=bb09783a-a390-4fda-b75a-eedd1b2b11f9","ios":"levelo://app?vid=bb09783a-a390-4fda-b75a-eedd1b2b11f9"},"vehicle_type_id":"4","last_reported":1769976809,"current_range_meters":8800,"station_id":"ce4bhch2rcd13ifvqeug","pricing_plan_id":"cebpf4jnsgd1na2vs0mg"},{"bike_id":"07a8f0de-8f5d-4ee6-a2fa-cbf26afc63cc","system_id":"levelo_inurba_marseille","lat":43.24548,"lon":5.39523,"is_reserved":false,"is_disabled":false,"rental_uris":{"android":"levelo://app?vid=07a8f0de-8f5d-4ee6-a2fa-cbf26afc63cc","ios":"levelo://app?vid=07a8f0de-8f5d-4ee6-a2fa-cbf26afc63cc"},"vehicle_type_id":"4","last_reported":1769976809,"current_range_meters":8800,"station_id":"ce4bhlp2rcd13ifvqgjg","pricing_plan_id":"cebpf4jnsgd1na2vs0mg"},{"bike_id":"df56c3cd-b8f3-4331-9204-6cdae907a930","system_id":"levelo_inurba_marseille","lat":43.29971,"lon":5.37167,"is_reserved":false,"is_disabled":true,"rental_uris":{"android":"levelo://app?vid=df56c3cd-b8f3-4331-9204-6cdae907a930","ios":"levelo://app?vid=df56c3cd-b8f3-4331-9204-6cdae907a930"},"vehicle_type_id":"4","last_reported":1769976809,"current_range_meters":8800,"station_id":"ce4bgr92rcd13ifvqc7g","pricing_plan_id":"cebpf4jnsgd1na2vs0mg"},{"bike_id":"80f86e00-c283-4a17-a19a-e4aecae6582f","system_id":"levelo_inurba_marseille","lat":43.29198,"lon":5.39311,"is_reserved":false,"is_disabled":true,"rental_uris":{"android":"levelo://app?vid=80f86e00-c283-4a17-a19a-e4aecae6582f","ios":"levelo://app?vid=80f86e00-c283-4a17-a19a-e4aecae6582f"},"vehicle_type_id":"4","last_reported":1769976809,"current_range_meters":8800,"station_id":"ce4bh192rcd13ifvqdd0","pricing_plan_id":"cebpf4jnsgd1na2vs0mg"},{"bike_id":"6df1b066-686c-4ba1-a6e1-1236e751eeeb","system_id":"levelo_inurba_marseille","lat":43.250908,"lon":5.395301,"is_reserved":false,"is_disabled":false,"rental_uris":{"android":"levelo://app?vid=6df1b066-686c-4ba1-a6e1-1236e751eeeb","ios":"levelo://app?vid=6df1b066-686c-4ba1-a6e1-1236e751eeeb"},"vehicle_type_id":"4","last_reported":1769976809,"current_range_meters":8800,"station_id":"ce4bhm12rcd13ifvqgkg","pricing_plan_id":"cebpf4jnsgd1na2vs0mg"},{"bike_id":"4c8d6559-5c0e-4c38-8c22-f1ad5781fe43","system_id":"levelo_inurba_marseille","lat":43.29263,"lon":5.40144,"is_reserved":false,"is_disabled":false,"rental_uris":{"android":"levelo://app?vid=4c8d6559-5c0e-4c38-8c22-f1ad5781fe43","ios":"levelo://app?vid=4c8d6559-5c0e-4c38-8c22-f1ad5781fe43"},"vehicle_type_id":"4","last_reported":1769976809,"current_range_meters":8800,"station_id":"ce4bh312rcd13ifvqdk0","pricing_plan_id":"cebpf4jnsgd1na2vs0mg"},{"bike_id":"598c3be9-e516-4a68-8ee3-e84cf24002f9","system_id":"levelo_inurba_marseille","lat":43.25019,"lon":5.38899,"is_reserved":false,"is_disabled":true,"rental_uris":{"android":"levelo://app?vid=598c3be9-e516-4a68-8ee3-e84cf24002f9","ios":"levelo://app?vid=598c3be9-e516-4a68-8ee3-e84cf24002f9"},"vehicle_type_id":"4","last_reported":1769976809,"current_range_meters":8800,"station_id":"ce4bhgp2rcd13ifvqfd0","pricing_plan_id":"cebpf4jnsgd1na2vs0mg"},{"bike_id":"ef7394c4-2156-4b9c-9d8c-159e5222bedb","system_id":"levelo_inurba_marseille","lat":43.2988,"lon":5.38911,"is_reserved":false,"is_disabled":false,"rental_uris":{"android":"levelo://app?vid=ef7394c4-2156-4b9c-9d8c-159e5222bedb","ios":"levelo://app?vid=ef7394c4-2156-4b9c-9d8c-159e5222bedb"},"vehicle_type_id":"4","last_reported":1769976809,"current_range_meters":8800,"station_id":"ce4bh392rcd13ifvqdl0","pricing_plan_id":"cebpf4jnsgd1na2vs0mg"},{"bike_id":"07e4c309-bdf7-4781-9e9a-f1935a3cd4b4","system_id":"levelo_inurba_marseille","lat":43.29252,"lon":5.40915,"is_reserved":false,"is_disabled":false,"rental_uris":{"android":"levelo://app?vid=07e4c309-bdf7-4781-9e9a-f1935a3cd4b4","ios":"levelo://app?vid=07e4c309-bdf7-4781-9e9a-f1935a3cd4b4"},"vehicle_type_id":"4","last_reported":1769976809,"current_range_meters":8800,"station_id":"ce4bh192rcd13ifvqdc0","pricing_plan_id":"cebpf4jnsgd1na2vs0mg"},{"bike_id":"94cbe5a1-172e-4cc9-bb27-f3369919b100","system_id":"levelo_inurba_marseille","lat":43.24087,"lon":5.37714,"is_reserved":false,"is_disabled":false,"rental_uris":{"android":"levelo://app?vid=94cbe5a1-172e-4cc9-bb27-f3369919b100","ios":"levelo://app?vid=94cbe5a1-172e-4cc9-bb27-f3369919b100"},"vehicle_type_id":"4","last_reported":1769976809,"current_range_meters":9200,"station_id":"ce4bhnp2rcd13ifvqgvg","pricing_plan_id":"cebpf4jnsgd1na2vs0mg"},{"bike_id":"fcc56630-d6aa-427a-9b6b-6381e911d09d","system_id":"levelo_inurba_marseille","lat":43.27954,"lon":5.41044,"is_reserved":false,"is_disabled":false,"rental_uris":{"android":"levelo://app?vid=fcc56630-d6aa-427a-9b6b-6381e911d09d","ios":"levelo://app?vid=fcc56630-d6aa-427a-9b6b-6381e911d09d"},"vehicle_type_id":"4","last_reported":1769976809,"current_range_meters":9200,"station_id":"ce4bhnp2rcd13ifvqh0g","pricing_plan_id":"cebpf4jnsgd1na2vs0mg"},{"bike_id":"150852f1-1d16-421c-adfb-165dfa4a78b5","system_id":"levelo_inurba_marseille","lat":43.28486,"lon":5.38414,"is_reserved":false,"is_disabled":false,"rental_uris":{"android":"levelo://app?vid=150852f1-1d16-421c-adfb-165dfa4a78b5","ios":"levelo://app?vid=150852f1-1d16-421c-adfb-165dfa4a78b5"},"vehicle_type_id":"4","last_reported":1769976809,"current_range_meters":9200,"station_id":"ce4bh512rcd13ifvqe3g","pricing_plan_id":"cebpf4jnsgd1na2vs0mg"},{"bike_id":"c727b0e5-6d02-4d30-8ab7-176d38c9e150","system_id":"levelo_inurba_marseille","lat":43.317193,"lon":5.423934,"is_reserved":false,"is_disabled":false,"rental_uris":{"android":"levelo://app?vid=c727b0e5-6d02-4d30-8ab7-176d38c9e150","ios":"levelo://app?vid=c727b0e5-6d02-4d30-8ab7-176d38c9e150"},"vehicle_type_id":"4","last_reported":1769976809,"current_range_meters":9200,"station_id":"ce4bhp92rcd13ifvqhbg","pricing_plan_id":"cebpf4jnsgd1na2vs0mg"},{"bike_id":"6d2bb9ff-17c6-499e-90e8-48f0e611a99f","system_id":"levelo_inurba_marseille","lat":43.3014,"lon":5.38782,"is_reserved":false,"is_disabled":false,"rental_uris":{"android":"levelo://app?vid=6d2bb9ff-17c6-499e-90e8-48f0e611a99f","ios":"levelo://app?vid=6d2bb9ff-17c6-499e-90e8-48f0e611a99f"},"vehicle_type_id":"4","last_reported":1769976809,"current_range_meters":9200,"station_id":"ce4bghh2rcd13ifvqb60","pricing_plan_id":"cebpf4jnsgd1na2vs0mg"},{"bike_id":"282b4c58-6430-4481-adf2-6fc926d2a7c4","system_id":"levelo_inurba_marseille","lat":43.23189,"lon":5.35563,"is_reserved":false,"is_disabled":false,"rental_uris":{"android":"levelo://app?vid=282b4c58-6430-4481-adf2-6fc926d2a7c4","ios":"levelo://app?vid=282b4c58-6430-4481-adf2-6fc926d2a7c4"},"vehicle_type_id":"4","last_reported":1769976809,"current_range_meters":9200,"station_id":"ce4bhu92rcd13ifvqi70","pricing_plan_id":"cebpf4jnsgd1na2vs0mg"},{"bike_id":"7339baea-42a7-44c8-866b-b3318d7a94e4","system_id":"levelo_inurba_marseille","lat":43.31052,"lon":5.37176,"is_reserved":false,"is_disabled":false,"rental_uris":{"android":"levelo://app?vid=7339baea-42a7-44c8-866b-b3318d7a94e4","ios":"levelo://app?vid=7339baea-42a7-44c8-866b-b3318d7a94e4"},"vehicle_type_id":"4","last_reported":1769976809,"current_range_meters":9200,"station_id":"st_d4kl2rp97mjs73e7tdfg","pricing_plan_id":"cebpf4jnsgd1na2vs0mg"},{"bike_id":"9793b84d-9eb4-4d22-8eec-fae4bbb0768d","system_id":"levelo_inurba_marseille","lat":43.27939,"lon":5.4103,"is_reserved":false,"is_disabled":false,"rental_uris":{"android":"levelo://app?vid=9793b84d-9eb4-4d22-8eec-fae4bbb0768d","ios":"levelo://app?vid=9793b84d-9eb4-4d22-8eec-fae4bbb0768d"},"vehicle_type_id":"4","last_reported":1769976809,"current_range_meters":9200,"station_id":"ce4bhnp2rcd13ifvqh0g","pricing_plan_id":"cebpf4jnsgd1na2vs0mg"},{"bike_id":"1abf9e9a-1918-4306-bac2-36b45cf037f6","system_id":"levelo_inurba_marseille","lat":43.28699,"lon":5.37382,"is_reserved":false,"is_disabled":false,"rental_uris":{"android":"levelo://app?vid=1abf9e9a-1918-4306-bac2-36b45cf037f6","ios":"levelo://app?vid=1abf9e9a-1918-4306-bac2-36b45cf037f6"},"vehicle_type_id":"4","last_reported":1769976809,"current_range_meters":9200,"station_id":"ce4bh3p2rcd13ifvqdq0","pricing_plan_id":"cebpf4jnsgd1na2vs0mg"},{"bike_id":"c7b2d8b3-c92c-4789-a37e-83de1b953f8c","system_id":"levelo_inurba_marseille","lat":43.26566,"lon":5.37284,"is_reserved":false,"is_disabled":false,"rental_uris":{"android":"levelo://app?vid=c7b2d8b3-c92c-4789-a37e-83de1b953f8c","ios":"levelo://app?vid=c7b2d8b3-c92c-4789-a37e-83de1b953f8c"},"vehicle_type_id":"4","last_reported":1769976809,"current_range_meters":9200,"station_id":"ce4bhg12rcd13ifvqf70","pricing_plan_id":"cebpf4jnsgd1na2vs0mg"},{"bike_id":"76695816-489b-4401-ac2a-0147df0088c5","system_id":"levelo_inurba_marseille","lat":43.30451,"lon":5.37921,"is_reserved":false,"is_disabled":true,"rental_uris":{"android":"levelo://app?vid=76695816-489b-4401-ac2a-0147df0088c5","ios":"levelo://app?vid=76695816-489b-4401-ac2a-0147df0088c5"},"vehicle_type_id":"4","last_reported":1769976809,"current_range_meters":9600,"station_id":"ce4bgup2rcd13ifvqcn0","pricing_plan_id":"cebpf4jnsgd1na2vs0mg"},