{"last_updated":1727684054,"ttl":60,"version":"2.2","data":{"bikes":[{"bike_id":"0cdd0135-7a1f-4995-b3da-6001eda86b4a","system_id":"levelo_inurba_marseille","lat":43.28266,"lon":5.35055,"is_reserved":false,"is_disabled":false,"rental_uris":{"android":"levelo://app?vid=0cdd0135-7a1f-4995-b3da-6001eda86b4a","ios":"levelo://app?vid=0cdd0135-7a1f-4995-b3da-6001eda86b4a"},"vehicle_type_id":"4","last_reported":1727684054,"current_range_meters":28000,"station_id":"ce4bhbp2rcd13ifvqerg","pricing_plan_id":"cebpf4jnsgd1na2vs0mg"},{"bike_id":"a78ef135-8636-4c7f-8ea0-04e46d0f96bc","system_id":"levelo_inurba_marseille","lat":43.27559,"lon":5.38422,"is_reserved":false,"is_disabled":false,"rental_uris":{"android":"levelo://app?vid=a78ef135-8636-4c7f-8ea0-04e46d0f96bc","ios":"levelo://app?vid=a78ef135-8636-4c7f-8ea0-04e46d0f96bc"},"vehicle_type_id":"4","last_reported":1727684054,"current_range_meters":28800,"station_id":"ce4bhh92rcd13ifvqfi0","pricing_plan_id":"cebpf4jnsgd1na2vs0mg"},{"bike_id":"fad06edd-02b7-4219-9ed7-a9ae19fc9c65","system_id":"levelo_inurba_marseille","lat":43.31344,"lon":5.36739,"is_reserved":false,"is_disabled":false,"rental_uris":{"android":"levelo://app?vid=fad06edd-02b7-4219-9ed7-a9ae19fc9c65","ios":"levelo://app?vid=fad06edd-02b7-4219-9ed7-a9ae19fc9c65"},"vehicle_type_id":"4","last_reported":1727684054,"current_range_meters":20400,"station_id":"ce4bgr92rcd13ifvqc6g","pricing_plan_id":"cebpf4jnsgd1na2vs0mg"},{"bike_id":"9147dc1b-1028-4f90-8b33-bb250aba95a6","system_id":"levelo_inurba_marseille","lat":43.32483,"lon":5.36575,"is_reserved":false,"is_disabled":false,"rental_uris":{"android":"levelo://app?vid=9147dc1b-1028-4f90-8b33-bb250aba95a6","ios":"levelo://app?vid=9147dc1b-1028-4f90-8b33-bb250aba95a6"},"vehicle_type_id":"4","last_reported":1727684054,"current_range_meters":30400,"station_id":"ce4bhs12rcd13ifvqhvg","pricing_plan_id":"cebpf4jnsgd1na2vs0mg"},{"bike_id":"851623aa-a5ab-48ff-9ad4-d53f2098701a","system_id":"levelo_inurba_marseille","lat":43.30519,"lon":5.36524,"is_reserved":false,"is_disabled":false,"rental_uris":{"android":"levelo://app?vid=851623aa-a5ab-48ff-9ad4-d53f2098701a","ios":"levelo://app?vid=851623aa-a5ab-48ff-9ad4-d53f2098701a"},"vehicle_type_id":"4","last_reported":1727684054,"current_range_meters":25600,"station_id":"ce4bgs12rcd13ifvqcag","pricing_plan_id":"cebpf4jnsgd1na2vs0mg"},{"bike_id":"69ae6f5c-02e4-418c-bfd3-ee6d71c166e1","system_id":"levelo_inurba_marseille","lat":43.28106,"lon":5.37838,"is_reserved":false,"is_disabled":false,"rental_uris":{"android":"levelo://app?vid=69ae6f5c-02e4-418c-bfd3-ee6d71c166e1","ios":"levelo://app?vid=69ae6f5c-02e4-418c-bfd3-ee6d71c166e1"},"vehicle_type_id":"4","last_reported":1727684054,"current_range_meters":19200,"station_id":"ce4bha12rcd13ifvqee0","pricing_plan_id":"cebpf4jnsgd1na2vs0mg"},{"bike_id":"4e8dda6c-5587-48a5-9c3f-4dd1fd76d8b1","system_id":"levelo_inurba_marseille","lat":43.29004,"lon":5.3561,"is_reserved":false,"is_disabled":false,"rental_uris":{"android":"levelo://app?vid=4e8dda6c-5587-48a5-9c3f-4dd1fd76d8b1","ios":"levelo://app?vid=4e8dda6c-5587-48a5-9c3f-4dd1fd76d8b1"},"vehicle_type_id":"4","last_reported":1727684054,"current_range_meters":38800,"station_id":"ce4bhb92rcd13ifvqen0","pricing_plan_id":"cebpf4jnsgd1na2vs0mg"},{"bike_id":"431acd76-2fda-479a-af23-895917a7252a","system_id":"levelo_inurba_marseille","lat":43.3221,"lon":5.38739,"is_reserved":false,"is_disabled":false,"rental_uris":{"android":"levelo://app?vid=431acd76-2fda-479a-af23-895917a7252a","ios":"levelo://app?vid=431acd76-2fda-479a-af23-895917a7252a"},"vehicle_type_id":"4","last_reported":1727684054,"current_range_meters":22000,"station_id":"","pricing_plan_id":"cebpf4jnsgd1na2vs0mg"},{"bike_id":"5816cec8-8917-4734-9ca3-2441e17f7ba1","system_id":"levelo_inurba_marseille","lat":43.24171,"lon":5.36405,"is_reserved":false,"is_disabled":false,"rental_uris":{"android":"levelo://app?vid=5816cec8-8917-4734-9ca3-2441e17f7ba1","ios":"levelo://app?vid=5816cec8-8917-4734-9ca3-2441e17f7ba1"},"vehicle_type_id":"4","last_reported":1727684054,"current_range_meters":22000,"station_id":"cpo36qri1sfpv3e86is0","pricing_plan_id":"cebpf4jnsgd1na2vs0mg"},{"bike_id":"a846e99c-6226-4e68-8d62-a02a83f6fcdd","system_id":"levelo_inurba_marseille","lat":43.32475,"lon":5.36563,"is_reserved":false,"is_disabled":false,"rental_uris":{"android":"levelo://app?vid=a846e99c-6226-4e68-8d62-a02a83f6fcdd","ios":"levelo://app?vid=a846e99c-6226-4e68-8d62-a02a83f6fcdd"},"vehicle_type_id":"4","last_reported":1727684054,"current_range_meters":6400,"station_id":"ce4bhs12rcd13ifvqhvg","pricing_plan_id":"cebpf4jnsgd1na2vs0mg"},{"bike_id":"be0e4c5b-8079-4c61-b218-6f9e92849133","system_id":"levelo_inurba_marseille","lat":43.23154,"lon":5.43685,"is_reserved":false,"is_disabled":false,"rental_uris":{"android":"levelo://app?vid=be0e4c5b-8079-4c61-b218-6f9e92849133","ios":"levelo://app?vid=be0e4c5b-8079-4c61-b218-6f9e92849133"},"vehicle_type_id":"4","last_reported":1727684054,"current_range_meters":38800,"station_id":"ce4bhmp2rcd13ifvqgog","pricing_plan_id":"cebpf4jnsgd1na2vs0mg"},{"bike_id":"9c0bc3dd-3e82-4feb-bf8a-bd21fbb65b2c","system_id":"levelo_inurba_marseille","lat":43.31214,"lon":5.36872,"is_reserved":false,"is_disabled":false,"rental_uris":{"android":"levelo://app?vid=9c0bc3dd-3e82-4feb-bf8a-bd21fbb65b2c","ios":"levelo://app?vid=9c0bc3dd-3e82-4feb-bf8a-bd21fbb65b2c"},"vehicle_type_id":"4","last_reported":1727684054,"current_range_meters":38800,"station_id":"ce4bgl92rcd13ifvqbq0","pricing_plan_id":"cebpf4jnsgd1na2vs0mg"},{"bike_id":"1ca12eed-d137-48ff-8240-40f4d71fd9ec","system_id":"levelo_inurba_marseille","lat":43.28266,"lon":5.35066,"is_reserved":false,"is_disabled":false,"rental_uris":{"android":"levelo://app?vid=1ca12eed-d137-48ff-8240-40f4d71fd9ec","ios":"levelo://app?vid=1ca12eed-d137-48ff-8240-40f4d71fd9ec"},"vehicle_type_id":"4","last_reported":1727684054,"current_range_meters":6400,"station_id":"ce4bhbp2rcd13ifvqerg","pricing_plan_id":"cebpf4jnsgd1na2vs0mg"},{"bike_id":"ce0aaa8a-c9fd-45a4-baa7-833213abde39","system_id":"levelo_inurba_marseille","lat":43.3091,"lon":5.36859,"is_reserved":false,"is_disabled":false,"rental_uris":{"android":"levelo://app?vid=ce0aaa8a-c9fd-45a4-baa7-833213abde39","ios":"levelo://app?vid=ce0aaa8a-c9fd-45a4-baa7-833213abde39"},"vehicle_type_id":"4","last_reported":1727684054,"current_range_meters":38800,"station_id":"ce4bgn92rcd13ifvqbvg","pricing_plan_id":"cebpf4jnsgd1na2vs0mg"},{"bike_id":"a9739188-f961-4ead-812b-0e1aef88d271","system_id":"levelo_inurba_marseille","lat":43.30549,"lon":5.36531,"is_reserved":false,"is_disabled":false,"rental_uris":{"android":"levelo://app?vid=a9739188-f961-4ead-812b-0e1aef88d271","ios":"levelo://app?vid=a9739188-f961-4ead-812b-0e1aef88d271"},"vehicle_type_id":"4","last_reported":1727684054,"current_range_meters":33200,"station_id":"ce4bgs12rcd13ifvqcag","pricing_plan_id":"cebpf4jnsgd1na2vs0mg"},{"bike_id":"53a604b9-1fa6-483d-8322-69400e38509b","system_id":"levelo_inurba_marseille","lat":43.2668,"lon":5.38265,"is_reserved":false,"is_disabled":false,"rental_uris":{"android":"levelo://app?vid=53a604b9-1fa6-483d-8322-69400e38509b","ios":"levelo://app?vid=53a604b9-1fa6-483d-8322-69400e38509b"},"vehicle_type_id":"4","last_reported":1727684054,"current_range_meters":30400,"station_id":"ce4bhg92rcd13ifvqf90","pricing_plan_id":"cebpf4jnsgd1na2vs0mg"},{"bike_id":"27e736d0-8bef-407f-b15e-fc27fcb1ac4e","system_id":"levelo_inurba_marseille","lat":43.29415,"lon":5.38623,"is_reserved":false,"is_disabled":false,"rental_uris":{"android":"levelo://app?vid=27e736d0-8bef-407f-b15e-fc27fcb1ac4e","ios":"levelo://app?vid=27e736d0-8bef-407f-b15e-fc27fcb1ac4e"},"vehicle_type_id":"4","last_reported":1727684054,"current_range_meters":28800,"station_id":"ce4bh2h2rcd13ifvqdh0","pricing_plan_id":"cebpf4jnsgd1na2vs0mg"},{"bike_id":"e3e14dad-567d-4dd0-97a2-394078a6587d","system_id":"levelo_inurba_marseille","lat":43.29838,"lon":5.36261,"is_reserved":false,"is_disabled":false,"rental_uris":{"android":"levelo://app?vid=e3e14dad-567d-4dd0-97a2-394078a6587d","ios":"levelo://app?vid=e3e14dad-567d-4dd0-97a2-394078a6587d"},"vehicle_type_id":"4","last_reported":1727684054,"current_range_meters":16000,"station_id":"ce4bgpp2rcd13ifvqc3g","pricing_plan_id":"cebpf4jnsgd1na2vs0mg"},{"bike_id":"ad39acce-a3c1-44d4-971b-ebc578fc76ab","system_id":"levelo_inurba_marseille","lat":43.28158,"lon":5.426385,"is_reserved":false,"is_disabled":false,"rental_uris":{"android":"levelo://app?vid=ad39acce-a3c1-44d4-971b-ebc578fc76ab","ios":"levelo://app?vid=ad39acce-a3c1-44d4-971b-ebc578fc76ab"},"vehicle_type_id":"4","last_reported":1727684054,"current_range_meters":29600,"station_id":"ce4bhnh2rcd13ifvqgug","pricing_plan_id":"cebpf4jnsgd1na2vs0mg"},{"bike_id":"6ee17b70-ae6f-4634-beaa-ffab1a8db800","system_id":"levelo_inurba_marseille","lat":43.29921,"lon":5.37471,"is_reserved":false,"is_disabled":false,"rental_uris":{"android":"levelo://app?vid=6ee17b70-ae6f-4634-beaa-ffab1a8db800","ios":"levelo://app?vid=6ee17b70-ae6f-4634-beaa-ffab1a8db800"},"vehicle_type_id":"4","last_reported":1727684054,"current_range_meters":27200,"station_id":"ce4bgjh2rcd13ifvqbg0","pricing_plan_id":"cebpf4jnsgd1na2vs0mg"},{"bike_id":"f6b7c6ca-0429-4738-8f47-e7c9015c936a","system_id":"levelo_inurba_marseille","lat":43.29373,"lon":5.37836,"is_reserved":false,"is_disabled":false,"rental_uris":{"android":"levelo://app?vid=f6b7c6ca-0429-4738-8f47-e7c9015c936a","ios":"levelo://app?vid=f6b7c6ca-0429-4738-8f47-e7c9015c936a"},"vehicle_type_id":"4","last_reported":1727684054,"current_range_meters":34800,"station_id":"ce4bgjh2rcd13ifvqbf0","pricing_plan_id":"cebpf4jnsgd1na2vs0mg"},{"bike_id":"8e802307-2567-4179-a80f-de510875f3b6","system_id":"levelo_inurba_marseille","lat":43.29368,"lon":5.37843,"is_reserved":false,"is_disabled":false,"rental_uris":{"android":"levelo://app?vid=8e802307-2567-4179-a80f-de510875f3b6","ios":"levelo://app?vid=8e802307-2567-4179-a80f-de510875f3b6"},"vehicle_type_id":"4","last_reported":1727684054,"current_range_meters":13600,"station_id":"ce4bgjh2rcd13ifvqbf0","pricing_plan_id":"cebpf4jnsgd1na2vs0mg"},{"bike_id":"0521cc37-3a0f-4bc8-964a-96f026706e98","system_id":"levelo_inurba_marseille","lat":43.28021,"lon":5.36084,"is_reserved":false,"is_disabled":false,"rental_uris":{"android":"levelo://app?vid=0521cc37-3a0f-4bc8-964a-96f026706e98","ios":"levelo://app?vid=0521cc37-3a0f-4bc8-964a-96f026706e98"},"vehicle_type_id":"4","last_reported":1727684054,"current_range_meters":19600,"station_id":"","pricing_plan_id":"cebpf4jnsgd1na2vs0mg"},{"bike_id":"fd938040-c77b-4d3b-94f7-48c0ef9561e1","system_id":"levelo_inurba_marseille","lat":43.25,"lon":5.389292,"is_reserved":false,"is_disabled":false,"rental_uris":{"android":"levelo://app?vid=fd938040-c77b-4d3b-94f7-48c0ef9561e1","ios":"levelo://app?vid=fd938040-c77b-4d3b-94f7-48c0ef9561e1"},"vehicle_type_id":"4","last_reported":1727684054,"current_range_meters":25600,"station_id":"ce4bhgp2rcd13ifvqfd0","pricing_plan_id":"cebpf4jnsgd1na2vs0mg"},{"bike_id":"85e14133-988d-4b21-9098-bd3c14cace39","system_id":"levelo_inurba_marseille","lat":43.27495,"lon":5.42448,"is_reserved":false,"is_disabled":false,"rental_uris":{"android":"levelo://app?vid=85e14133-988d-4b21-9098-bd3c14cace39","ios":"levelo://app?vid=85e14133-988d-4b21-9098-bd3c14cace39"},"vehicle_type_id":"4","last_reported":1727684054,"current_range_meters":32800,"station_id":"ce4bhn92rcd13ifvqgrg","pricing_plan_id":"cebpf4jnsgd1na2vs0mg"},{"bike_id":"3a2ba1c6-0034-408d-bbc8-754ee52df5a0","system_id":"levelo_inurba_marseille","lat":43.27487,"lon":5.42458,"is_reserved":false,"is_disabled":false,"rental_uris":{"android":"levelo://app?vid=3a2ba1c6-0034-408d-bbc8-754ee52df5a0","ios":"levelo://app?vid=3a2ba1c6-0034-408d-bbc8-754ee52df5a0"},"vehicle_type_id":"4","last_reported":1727684054,"current_range_meters":11600,"station_id":"ce4bhn92rcd13ifvqgrg","pricing_plan_id":"cebpf4jnsgd1na2vs0mg"},{"bike_id":"de9541b9-cbca-4692-a5ed-01ba084f79f5","system_id":"levelo_inurba_marseille","lat":43.32472,"lon":5.36568,"is_reserved":false,"is_disabled":false,"rental_uris":{"android":"levelo://app?vid=de9541b9-cbca-4692-a5ed-01ba084f79f5","ios":"levelo://app?vid=de9541b9-cbca-4692-a5ed-01ba084f79f5"},"vehicle_type_id":"4","last_reported":1727684054,"current_range_meters":29600,"station_id":"ce4bhs12rcd13ifvqhvg","pricing_plan_id":"cebpf4jnsgd1na2vs0mg"},{"bike_id":"00ec7c2f-d5eb-4b68-8325-159a97d856e6","system_id":"levelo_inurba_marseille","lat":43.25716,"lon":5.41109,"is_reserved":false,"is_disabled":false,"rental_uris":{"android":"levelo://app?vid=00ec7c2f-d5eb-4b68-8325-159a97d856e6","ios":"levelo://app?vid=00ec7c2f-d5eb-4b68-8325-159a97d856e6"},"vehicle_type_id":"4","last_reported":1727684054,"current_range_meters":36400,"station_id":"ce4bhkp2rcd13ifvqgd0","pricing_plan_id":"cebpf4jnsgd1na2vs0mg"},{"bike_id":"2cfbebee-2e3d-4295-841d-f91ce0d6dc6f","system_id":"levelo_inurba_marseille","lat":43.33605,"lon":5.41023,"is_reserved":false,"is_disabled":false,"rental_uris":{"android":"levelo://app?vid=2cfbebee-2e3d-4295-841d-f91ce0d6dc6f","ios":"levelo://app?vid=2cfbebee-2e3d-4295-841d-f91ce0d6dc6f"},"vehicle_type_id":"4","last_reported":1727684054,"current_range_meters":38800,"station_id":"ce4bhqh2rcd13ifvqhmg","pricing_plan_id":"cebpf4jnsgd1na2vs0mg"},{"bike_id":"809af459-9a6f-465f-9341-4579b88b044a","system_id":"levelo_inurba_marseille","lat":43.28932,"lon":5.36394,"is_reserved":false,"is_disabled":false,"rental_uris":{"android":"levelo://app?vid=809af459-9a6f-465f-9341-4579b88b044a","ios":"levelo://app?vid=809af459-9a6f-465f-9341-4579b88b044a"},"vehicle_type_id":"4","last_reported":1727684054,"current_range_meters":38000,"station_id":"ce4bhc92rcd13ifvqetg","pricing_plan_id":"cebpf4jnsgd1na2vs0mg"},{"bike_id":"1ce7c25b-6bd2-4b64-b4ae-543ea784fc5d","system_id":"levelo_inurba_marseille","lat":43.337444,"lon":5.374475,"is_reserved":false,"is_disabled":false,"rental_uris":{"android":"levelo://app?vid=1ce7c25b-6bd2-4b64-b4ae-543ea784fc5d","ios":"levelo://app?vid=1ce7c25b-6bd2-4b64-b4ae-543ea784fc5d"},"vehicle_type_id":"4","last_reported":1727684054,"current_range_meters":28800,"station_id":"","pricing_plan_id":"cebpf4jnsgd1na2vs0mg"},{"bike_id":"8e923b95-9920-4db3-95cf-4c32fcd41a80","system_id":"levelo_inurba_marseille","lat":43.317212,"lon":5.436378,"is_reserved":false,"is_disabled":false,"rental_uris":{"android":"levelo://app?vid=8e923b95-9920-4db3-95cf-4c32fcd41a80","ios":"levelo://app?vid=8e923b95-9920-4db3-95cf-4c32fcd41a80"},"vehicle_type_id":"4","last_reported":1727684054,"current_range_meters":14400,"station_id":"","pricing_plan_id":"cebpf4jnsgd1na2vs0mg"},{"bike_id":"00b5ea90-b0c9-4846-bff3-d1daea89ad7b","system_id":"levelo_inurba_marseille","lat":43.26782,"lon":5.39403,"is_reserved":false,"is_disabled":false,"rental_uris":{"android":"levelo://app?vid=00b5ea90-b0c9-4846-bff3-d1daea89ad7b","ios":"levelo://app?vid=00b5ea90-b0c9-4846-bff3-d1daea89ad7b"},"vehicle_type_id":"4","last_reported":1727684054,"current_range_meters":24800,"station_id":"ce4bhh12rcd13ifvqfg0","pricing_plan_id":"cebpf4jnsgd1na2vs0mg"},{"bike_id":"944448a2-f788-4397-8bf9-9e18b0b6b5d1","system_id":"levelo_inurba_marseille","lat":43.27496,"lon":5.42446,"is_reserved":false,"is_disabled":false,"rental_uris":{"android":"levelo://app?vid=944448a2-f788-4397-8bf9-9e18b0b6b5d1","ios":"levelo://app?vid=944448a2-f788-4397-8bf9-9e18b0b6b5d1"},"vehicle_type_id":"4","last_reported":1727684054,"current_range_meters":9200,"station_id":"ce4bhn92rcd13ifvqgrg","pricing_plan_id":"cebpf4jnsgd1na2vs0mg"},{"bike_id":"0c6a3edd-0259-43fd-a8d1-3d4bb6023605","system_id":"levelo_inurba_marseille","lat":43.24393,"lon":5.37059,"is_reserved":false,"is_disabled":false,"rental_uris":{"android":"levelo://app?vid=0c6a3edd-0259-43fd-a8d1-3d4bb6023605","ios":"levelo://app?vid=0c6a3edd-0259-43fd-a8d1-3d4bb6023605"},"vehicle_type_id":"4","last_reported":1727684054,"current_range_meters":38000,"station_id":"ce4bhhh2rcd13ifvqfk0","pricing_plan_id":"cebpf4jnsgd1na2vs0mg"},{"bike_id":"560b16ee-a2a1-4ea6-8979-7b2096d0f470","system_id":"levelo_inurba_marseille","lat":43.32477,"lon":5.36566,"is_reserved":false,"is_disabled":false,"rental_uris":{"android":"levelo://app?vid=560b16ee-a2a1-4ea6-8979-7b2096d0f470","ios":"levelo://app?vid=560b16ee-a2a1-4ea6-8979-7b2096d0f470"},"vehicle_type_id":"4","last_reported":1727684054,"current_range_meters":22000,"station_id":"ce4bhs12rcd13ifvqhvg","pricing_plan_id":"cebpf4jnsgd1na2vs0mg"},{"bike_id":"503e168b-bf03-4880-a3f6-f2112dfa7168","system_id":"levelo_inurba_marseille","lat":43.337444,"lon":5.374475,"is_reserved":false,"is_disabled":false,"rental_uris":{"android":"levelo://app?vid=503e168b-bf03-4880-a3f6-f2112dfa7168","ios":"levelo://app?vid=503e168b-bf03-4880-a3f6-f2112dfa7168"},"vehicle_type_id":"4","last_reported":1727684054,"current_range_meters":11200,"station_id":"","pricing_plan_id":"cebpf4jnsgd1na2vs0mg"},{"bike_id":"f98e0981-67cb-4619-a3fc-b0389a567a4e","system_id":"levelo_inurba_marseille","lat":43.31229,"lon":5.36878,"is_reserved":false,"is_disabled":false,"rental_uris":{"android":"levelo://app?vid=f98e0981-67cb-4619-a3fc-b0389a567a4e","ios":"levelo://app?vid=f98e0981-67cb-4619-a3fc-b0389a567a4e"},"vehicle_type_id":"4","last_reported":1727684054,"current_range_meters":12800,"station_id":"ce4bgl92rcd13ifvqbq0","pricing_plan_id":"cebpf4jnsgd1na2vs0mg"},{"bike_id":"b4f4e997-3e39-4aa5-a8f8-778d52122386","system_id":"levelo_inurba_marseille","lat":43.30886,"lon":5.39645,"is_reserved":false,"is_disabled":false,"rental_uris":{"android":"levelo://app?vid=b4f4e997-3e39-4aa5-a8f8-778d52122386","ios":"levelo://app?vid=b4f4e997-3e39-4aa5-a8f8-778d52122386"},"vehicle_type_id":"4","last_reported":1727684054,"current_range_meters":37600,"station_id":"ce4bh012rcd13ifvqcv0","pricing_plan_id":"cebpf4jnsgd1na2vs0mg"},{"bike_id":"2d6275cc-7366-4d7e-8321-3495c41b4d77","system_id":"levelo_inurba_marseille","lat":43.29736,"lon":5.37675,"is_reserved":false,"is_disabled":false,"rental_uris":{"android":"levelo://app?vid=2d6275cc-7366-4d7e-8321-3495c41b4d77","ios":"levelo://app?vid=2d6275cc-7366-4d7e-8321-3495c41b4d77"},"vehicle_type_id":"4","last_reported":1727684054,"current_range_meters":20400,"station_id":"ce4bgkh2rcd13ifvqbl0","pricing_plan_id":"cebpf4jnsgd1na2vs0mg"},{"bike_id":"4c739781-d766-4177-b7e3-fd3b8cbf3f97","system_id":"levelo_inurba_marseille","lat":43.27989,"lon":5.41663,"is_reserved":false,"is_disabled":false,"rental_uris":{"android":"levelo://app?vid=4c739781-d766-4177-b7e3-fd3b8cbf3f97","ios":"levelo://app?vid=4c739781-d766-4177-b7e3-fd3b8cbf3f97"},"vehicle_type_id":"4","last_reported":1727684054,"current_range_meters":20800,"station_id":"ce4bho12rcd13ifvqh1g","pricing_plan_id":"cebpf4jnsgd1na2vs0mg"},{"bike_id":"9fdde57c-440c-45dc-9fbb-cb54c0aa4043","system_id":"levelo_inurba_marseille","lat":43.23148,"lon":5.43719,"is_reserved":false,"is_disabled":false,"rental_uris":{"android":"levelo://app?vid=9fdde57c-440c-45dc-9fbb-cb54c0aa4043","ios":"levelo://app?vid=9fdde57c-440c-45dc-9fbb-cb54c0aa4043"},"vehicle_type_id":"4","last_reported":1727684054,"current_range_meters":12800,"station_id":"ce4bhmp2rcd13ifvqgog","pricing_plan_id":"cebpf4jnsgd1na2vs0mg"},{"bike_id":"65a58a02-edc7-45e7-bf9d-300a8e4127d0","system_id":"levelo_inurba_marseille","lat":43.305368,"lon":5.36733,"is_reserved":false,"is_disabled":false,"rental_uris":{"android":"levelo://app?vid=65a58a02-edc7-45e7-bf9d-300a8e4127d0","ios":"levelo://app?vid=65a58a02-edc7-45e7-bf9d-300a8e4127d0"},"vehicle_type_id":"4","last_reported":1727684054,"current_range_meters":19600,"station_id":"ce4bgrp2rcd13ifvqc9g","pricing_plan_id":"cebpf4jnsgd1na2vs0mg"},{"bike_id":"594467aa-d042-46e6-a521-511a3034de0d","system_id":"levelo_inurba_marseille","lat":43.30467,"lon":5.37901,"is_reserved":false,"is_disabled":false,"rental_uris":{"android":"levelo://app?vid=594467aa-d042-46e6-a521-511a3034de0d","ios":"levelo://app?vid=594467aa-d042-46e6-a521-511a3034de0d"},"vehicle_type_id":"4","last_reported":1727684054,"current_range_meters":24000,"station_id":"ce4bgup2rcd13ifvqcn0","pricing_plan_id":"cebpf4jnsgd1na2vs0mg"},{"bike_id":"855cc9d5-5f4c-4a0b-b9bd-6fd5142a08b8","system_id":"levelo_inurba_marseille","lat":43.2408,"lon":5.37741,"is_reserved":false,"is_disabled":false,"rental_uris":{"android":"levelo://app?vid=855cc9d5-5f4c-4a0b-b9bd-6fd5142a08b8","ios":"levelo://app?vid=855cc9d5-5f4c-4a0b-b9bd-6fd5142a08b8"},"vehicle_type_id":"4","last_reported":1727684054,"current_range_meters":24400,"station_id":"ce4bhnp2rcd13ifvqgvg","pricing_plan_id":"cebpf4jnsgd1na2vs0mg"},{"bike_id":"662377ca-a910-4716-ace2-86901b6a8e67","system_id":"levelo_inurba_marseille","lat":43.30142,"lon":5.38099,"is_reserved":false,"is_disabled":false,"rental_uris":{"android":"levelo://app?vid=662377ca-a910-4716-ace2-86901b6a8e67","ios":"levelo://app?vid=662377ca-a910-4716-ace2-86901b6a8e67"},"vehicle_type_id":"4","last_reported":1727684054,"current_range_meters":8400,"station_id":"ce4bgjp2rcd13ifvqbh0","pricing_plan_id":"cebpf4jnsgd1na2vs0mg"},{"bike_id":"3f7977c0-5841-4365-88e2-539faab7676d","system_id":"levelo_inurba_marseille","lat":43.29412,"lon":5.386156,"is_reserved":false,"is_disabled":false,"rental_uris":{"android":"levelo://app?vid=3f7977c0-5841-4365-88e2-539faab7676d","ios":"levelo://app?vid=3f7977c0-5841-4365-88e2-539faab7676d"},"vehicle_type_id":"4","last_reported":1727684054,"current_range_meters":38400,"station_id":"ce4bh2h2rcd13ifvqdh0","pricing_plan_id":"cebpf4jnsgd1na2vs0mg"},{"bike_id":"a7699da9-a62f-4d9e-a63b-1d32daa4307f","system_id":"levelo_inurba_marseille","lat":43.27495,"lon":5.42454,"is_reserved":false,"is_disabled":false,"rental_uris":{"android":"levelo://app?vid=a7699da9-a62f-4d9e-a63b-1d32daa4307f","ios":"levelo://app?vid=a7699da9-a62f-4d9e-a63b-1d32daa4307f"},"vehicle_type_id":"4","last_reported":1727684054,"current_range_meters":32000,"station_id":"ce4bhn92rcd13ifvqgrg","pricing_plan_id":"cebpf4jnsgd1na2vs0mg"},{"bike_id":"c5d3ce40-aba5-406c-8699-a57ef63a76d4","system_id":"levelo_inurba_marseille","lat":43.30537,"lon":5.36544,"is_reserved":false,"is_disabled":false,"rental_uris":{"android":"levelo://app?vid=c5d3ce40-aba5-406c-8699-a57ef63a76d4","ios":"levelo://app?vid=c5d3ce40-aba5-406c-8699-a57ef63a76d4"},"vehicle_type_id":"4","last_reported":1727684054,"current_range_meters":8400,"station_id":"ce4bgs12rcd13ifvqcag","pricing_plan_id":"cebpf4jnsgd1na2vs0mg"},{"bike_id":"d44939cd-0aed-4575-9cd6-0d087f0bad31","system_id":"levelo_inurba_marseille","lat":43.31366,"lon":5.36696,"is_reserved":false,"is_disabled":false,"rental_uris":{"android":"levelo://app?vid=d44939cd-0aed-4575-9cd6-0d087f0bad31","ios":"levelo://app?vid=d44939cd-0aed-4575-9cd6-0d087f0bad31"},"vehicle_type_id":"4","last_reported":1727684054,"current_range_meters":28400,"station_id":"ce4bgr92rcd13ifvqc6g","pricing_plan_id":"cebpf4jnsgd1na2vs0mg"},{"bike_id":"9cab4b77-e73b-485b-9196-05681379298d","system_id":"levelo_inurba_marseille","lat":43.32313,"lon":5.38295,"is_reserved":false,"is_disabled":false,"rental_uris":{"android":"levelo://app?vid=9cab4b77-e73b-485b-9196-05681379298d","ios":"levelo://app?vid=9cab4b77-e73b-485b-9196-05681379298d"},"vehicle_type_id":"4","last_reported":1727684054,"current_range_meters":34000,"station_id":"ce4bhr12rcd13ifvqhqg","pricing_plan_id":"cebpf4jnsgd1na2vs0mg"},{"bike_id":"e819adc7-50d4-41f0-9e7e-660315b24ae6","system_id":"levelo_inurba_marseille","lat":43.29846,"lon":5.36275,"is_reserved":false,"is_disabled":false,"rental_uris":{"android":"levelo://app?vid=e819adc7-50d4-41f0-9e7e-660315b24ae6","ios":"levelo://app?vid=e819adc7-50d4-41f0-9e7e-660315b24ae6"},"vehicle_type_id":"4","last_reported":1727684054,"current_range_meters":19200,"station_id":"ce4bgpp2rcd13ifvqc3g","pricing_plan_id":"cebpf4jnsgd1na2vs0mg"},{"bike_id":"be9da5be-7fb9-4808-84e4-3e1fbf8d7bcc","system_id":"levelo_inurba_marseille","lat":43.33607,"lon":5.41017,"is_reserved":false,"is_disabled":false,"rental_uris":{"android":"levelo://app?vid=be9da5be-7fb9-4808-84e4-3e1fbf8d7bcc","ios":"levelo://app?vid=be9da5be-7fb9-4808-84e4-3e1fbf8d7bcc"},"vehicle_type_id":"4","last_reported":1727684054,"current_range_meters":15200,"station_id":"ce4bhqh2rcd13ifvqhmg","pricing_plan_id":"cebpf4jnsgd1na2vs0mg"},{"bike_id":"3b11f84d-9693-435a-b10d-5f4d60aec8bd","system_id":"levelo_inurba_marseille","lat":43.33613,"lon":5.41028,"is_reserved":false,"is_disabled":false,"rental_uris":{"android":"levelo://app?vid=3b11f84d-9693-435a-b10d-5f4d60aec8bd","ios":"levelo://app?vid=3b11f84d-9693-435a-b10d-5f4d60aec8bd"},"vehicle_type_id":"4","last_reported":1727684054,"current_range_meters":33600,"station_id":"ce4bhqh2rcd13ifvqhmg","pricing_plan_id":"cebpf4jnsgd1na2vs0mg"},{"bike_id":"14b16226-72d1-4b1f-b853-d2b23cfd6f6e","system_id":"levelo_inurba_marseille","lat":43.30467,"lon":5.37898,"is_reserved":false,"is_disabled":false,"rental_uris":{"android":"levelo://app?vid=14b16226-72d1-4b1f-b853-d2b23cfd6f6e","ios":"levelo://app?vid=14b16226-72d1-4b1f-b853-d2b23cfd6f6e"},"vehicle_type_id":"4","last_reported":1727684054,"current_range_meters":22000,"station_id":"ce4bgup2rcd13ifvqcn0","pricing_plan_id":"cebpf4jnsgd1na2vs0mg"},{"bike_id":"7bee4cc2-6d04-44fe-9dbf-956ad3feebb6","system_id":"levelo_inurba_marseille","lat":43.29715,"lon":5.36616,"is_reserved":false,"is_disabled":false,"rental_uris":{"android":"levelo://app?vid=7bee4cc2-6d04-44fe-9dbf-956ad3feebb6","ios":"levelo://app?vid=7bee4cc2-6d04-44fe-9dbf-956ad3feebb6"},"vehicle_type_id":"4","last_reported":1727684054,"current_range_meters":38400,"station_id":"ce4bgn12rcd13ifvqbt0","pricing_plan_id":"cebpf4jnsgd1na2vs0mg"},{"bike_id":"63d72871-aa4d-447e-9117-969ba5202d5b","system_id":"levelo_inurba_marseille","lat":43.24076,"lon":5.37761,"is_reserved":false,"is_disabled":false,"rental_uris":{"android":"levelo://app?vid=63d72871-aa4d-447e-9117-969ba5202d5b","ios":"levelo://app?vid=63d72871-aa4d-447e-9117-969ba5202d5b"},"vehicle_type_id":"4","last_reported":1727684054,"current_range_meters":11600,"station_id":"ce4bhnp2rcd13ifvqgvg","pricing_plan_id":"cebpf4jnsgd1na2vs0mg"},{"bike_id":"e150718b-3b11-4746-aaf5-ed9fe54bd243","system_id":"levelo_inurba_marseille","lat":43.24077,"lon":5.37746,"is_reserved":false,"is_disabled":false,"rental_uris":{"android":"levelo://app?vid=e150718b-3b11-4746-aaf5-ed9fe54bd243","ios":"levelo://app?vid=e150718b-3b11-4746-aaf5-ed9fe54bd243"},"vehicle_type_id":"4","last_reported":1727684054,"current_range_meters":12000,"station_id":"ce4bhnp2rcd13ifvqgvg","pricing_plan_id":"cebpf4jnsgd1na2vs0mg"},{"bike_id":"f675718c-9af4-4902-b658-fc903325dca7","system_id":"levelo_inurba_marseille","lat":43.27486,"lon":5.42459,"is_reserved":false,"is_disabled":false,"rental_uris":{"android":"levelo://app?vid=f675718c-9af4-4902-b658-fc903325dca7","ios":"levelo://app?vid=f675718c-9af4-4902-b658-fc903325dca7"},"vehicle_type_id":"4","last_reported":1727684054,"current_range_meters":19600,"station_id":"ce4bhn92rcd13ifvqgrg","pricing_plan_id":"cebpf4jnsgd1na2vs0mg"},{"bike_id":"f1e618c0-1063-43f9-b136-d2235020af04","system_id":"levelo_inurba_marseille","lat":43.29412,"lon":5.38617,"is_reserved":false,"is_disabled":false,"rental_uris":{"android":"levelo://app?vid=f1e618c0-1063-43f9-b136-d2235020af04","ios":"levelo://app?vid=f1e618c0-1063-43f9-b136-d2235020af04"},"vehicle_type_id":"4","last_reported":1727684054,"current_range_meters":38000,"station_id":"ce4bh2h2rcd13ifvqdh0","pricing_plan_id":"cebpf4jnsgd1na2vs0mg"},{"bike_id":"883dbd06-c2fc-4488-9b5e-ef4f05339f9b","system_id":"levelo_inurba_marseille","lat":43.30214,"lon":5.36616,"is_reserved":false,"is_disabled":false,"rental_uris":{"android":"levelo://app?vid=883dbd06-c2fc-4488-9b5e-ef4f05339f9b","ios":"levelo://app?vid=883dbd06-c2fc-4488-9b5e-ef4f05339f9b"},"vehicle_type_id":"4","last_reported":1727684054,"current_range_meters":26000,"station_id":"ce4bgrh2rcd13ifvqc8g","pricing_plan_id":"cebpf4jnsgd1na2vs0mg"},{"bike_id":"61b80206-8211-4df0-b90b-eee6dba44a64","system_id":"levelo_inurba_marseille","lat":43.27559,"lon":5.38426,"is_reserved":false,"is_disabled":false,"rental_uris":{"android":"levelo://app?vid=61b80206-8211-4df0-b90b-eee6dba44a64","ios":"levelo://app?vid=61b80206-8211-4df0-b90b-eee6dba44a64"},"vehicle_type_id":"4","last_reported":1727684054,"current_range_meters":19600,"station_id":"ce4bhh92rcd13ifvqfi0","pricing_plan_id":"cebpf4jnsgd1na2vs0mg"},{"bike_id":"cf2a99f0-171d-46e2-b5f9-b8e518581e33","system_id":"levelo_inurba_marseille","lat":43.23962,"lon":5.36638,"is_reserved":false,"is_disabled":false,"rental_uris":{"android":"levelo://app?vid=cf2a99f0-171d-46e2-b5f9-b8e518581e33","ios":"levelo://app?vid=cf2a99f0-171d-46e2-b5f9-b8e518581e33"},"vehicle_type_id":"4","last_reported":1727684054,"current_range_meters":28400,"station_id":"ce4bhi12rcd13ifvqfp0","pricing_plan_id":"cebpf4jnsgd1na2vs0mg"},{"bike_id":"52c36d09-608c-40d9-875a-48f517b25a24","system_id":"levelo_inurba_marseille","lat":43.29295,"lon":5.37462,"is_reserved":false,"is_disabled":false,"rental_uris":{"android":"levelo://app?vid=52c36d09-608c-40d9-875a-48f517b25a24","ios":"levelo://app?vid=52c36d09-608c-40d9-875a-48f517b25a24"},"vehicle_type_id":"4","last_reported":1727684054,"current_range_meters":28800,"station_id":"ce4bgi12rcd13ifvqb70","pricing_plan_id":"cebpf4jnsgd1na2vs0mg"},{"bike_id":"ccef7d23-76db-4b6d-a1d2-7cf11b28025d","system_id":"levelo_inurba_marseille","lat":43.28338,"lon":5.38101,"is_reserved":false,"is_disabled":false,"rental_uris":{"android":"levelo://app?vid=ccef7d23-76db-4b6d-a1d2-7cf11b28025d","ios":"levelo://app?vid=ccef7d23-76db-4b6d-a1d2-7cf11b28025d"},"vehicle_type_id":"4","last_reported":1727684054,"current_range_meters":3200,"station_id":"ce4bh412rcd13ifvqdr0","pricing_plan_id":"cebpf4jnsgd1na2vs0mg"},{"bike_id":"ba231a7c-548f-4119-aafd-63c791fc13f0","system_id":"levelo_inurba_marseille","lat":43.29005,"lon":5.356124,"is_reserved":false,"is_disabled":false,"rental_uris":{"android":"levelo://app?vid=ba231a7c-548f-4119-aafd-63c791fc13f0","ios":"levelo://app?vid=ba231a7c-548f-4119-aafd-63c791fc13f0"},"vehicle_type_id":"4","last_reported":1727684054,"current_range_meters":23200,"station_id":"ce4bhb92rcd13ifvqen0","pricing_plan_id":"cebpf4jnsgd1na2vs0mg"},{"bike_id":"4c59b6a6-13a5-4f15-8ea7-e82f231118a7","system_id":"levelo_inurba_marseille","lat":43.29895,"lon":5.4366,"is_reserved":false,"is_disabled":false,"rental_uris":{"android":"levelo://app?vid=4c59b6a6-13a5-4f15-8ea7-e82f231118a7","ios":"levelo://app?vid=4c59b6a6-13a5-4f15-8ea7-e82f231118a7"},"vehicle_type_id":"4","last_reported":1727684054,"current_range_meters":38800,"station_id":"ce4bhpp2rcd13ifvqhfg","pricing_plan_id":"cebpf4jnsgd1na2vs0mg"},{"bike_id":"8d8ba914-7d74-49c9-b3c6-a0b3ceb04f74","system_id":"levelo_inurba_marseille","lat":43.30911,"lon":5.36857,"is_reserved":false,"is_disabled":false,"rental_uris":{"android":"levelo://app?vid=8d8ba914-7d74-49c9-b3c6-a0b3ceb04f74","ios":"levelo://app?vid=8d8ba914-7d74-49c9-b3c6-a0b3ceb04f74"},"vehicle_type_id":"4","last_reported":1727684054,"current_range_meters":21600,"station_id":"ce4bgn92rcd13ifvqbvg","pricing_plan_id":"cebpf4jnsgd1na2vs0mg"},{"bike_id":"ec5110fe-d233-4931-9806-8e0a9dfe3451","system_id":"levelo_inurba_marseille","lat":43.26029,"lon":5.37548,"is_reserved":false,"is_disabled":false,"rental_uris":{"android":"levelo://app?vid=ec5110fe-d233-4931-9806-8e0a9dfe3451","ios":"levelo://app?vid=ec5110fe-d233-4931-9806-8e0a9dfe3451"},"vehicle_type_id":"4","last_reported":1727684054,"current_range_meters":21600,"station_id":"ce4bhgh2rcd13ifvqfa0","pricing_plan_id":"cebpf4jnsgd1na2vs0mg"},{"bike_id":"f08e3828-86de-46cb-a23c-c1b68e7c55bd","system_id":"levelo_inurba_marseille","lat":43.33028,"lon":5.3905,"is_reserved":false,"is_disabled":false,"rental_uris":{"android":"levelo://app?vid=f08e3828-86de-46cb-a23c-c1b68e7c55bd","ios":"levelo://app?vid=f08e3828-86de-46cb-a23c-c1b68e7c55bd"},"vehicle_type_id":"4","last_reported":1727684054,"current_range_meters":16400,"station_id":"ce4bhr92rcd13ifvqhrg","pricing_plan_id":"cebpf4jnsgd1na2vs0mg"},{"bike_id":"93e6c59f-cde2-4fa2-b81f-7a5adac8788f","system_id":"levelo_inurba_marseille","lat":43.25718,"lon":5.41109,"is_reserved":false,"is_disabled":false,"rental_uris":{"android":"levelo://app?vid=93e6c59f-cde2-4fa2-b81f-7a5adac8788f","ios":"levelo://app?vid=93e6c59f-cde2-4fa2-b81f-7a5adac8788f"},"vehicle_type_id":"4","last_reported":1727684054,"current_range_meters":36800,"station_id":"ce4bhkp2rcd13ifvqgd0","pricing_plan_id":"cebpf4jnsgd1na2vs0mg"},{"bike_id":"8c0ff82d-0d9e-4109-8a40-c47aee51e2f8","system_id":"levelo_inurba_marseille","lat":43.30152,"lon":5.38077,"is_reserved":false,"is_disabled":false,"rental_uris":{"android":"levelo://app?vid=8c0ff82d-0d9e-4109-8a40-c47aee51e2f8","ios":"levelo://app?vid=8c0ff82d-0d9e-4109-8a40-c47aee51e2f8"},"vehicle_type_id":"4","last_reported":1727684054,"current_range_meters":16800,"station_id":"ce4bgjp2rcd13ifvqbh0","pricing_plan_id":"cebpf4jnsgd1na2vs0mg"},{"bike_id":"e9c9a824-77dd-4a8d-b5f7-16a11637475b","system_id":"levelo_inurba_marseille","lat":43.32548,"lon":5.41449,"is_reserved":false,"is_disabled":false,"rental_uris":{"android":"levelo://app?vid=e9c9a824-77dd-4a8d-b5f7-16a11637475b","ios":"levelo://app?vid=e9c9a824-77dd-4a8d-b5f7-16a11637475b"},"vehicle_type_id":"4","last_reported":1727684054,"current_range_meters":38800,"station_id":"ce4bhq12rcd13ifvqhhg","pricing_plan_id":"cebpf4jnsgd1na2vs0mg"},{"bike_id":"a2cebfe8-17a6-4c8a-9675-79b8388fe63f","system_id":"levelo_inurba_marseille","lat":43.30154,"lon":5.38082,"is_reserved":false,"is_disabled":false,"rental_uris":{"android":"levelo://app?vid=a2cebfe8-17a6-4c8a-9675-79b8388fe63f","ios":"levelo://app?vid=a2cebfe8-17a6-4c8a-9675-79b8388fe63f"},"vehicle_type_id":"4","last_reported":1727684054,"current_range_meters":38000,"station_id":"ce4bgjp2rcd13ifvqbh0","pricing_plan_id":"cebpf4jnsgd1na2vs0mg"},{"bike_id":"0bd9f675-75fd-4f7a-8ce7-28244076c338","system_id":"levelo_inurba_marseille","lat":43.29308,"lon":5.37453,"is_reserved":false,"is_disabled":false,"rental_uris":{"android":"levelo://app?vid=0bd9f675-75fd-4f7a-8ce7-28244076c338","ios":"levelo://app?vid=0bd9f675-75fd-4f7a-8ce7-28244076c338"},"vehicle_type_id":"4","last_reported":1727684054,"current_range_meters":32000,"station_id":"ce4bgi12rcd13ifvqb70","pricing_plan_id":"cebpf4jnsgd1na2vs0mg"},{"bike_id":"ef050b4a-3d26-43ae-a74c-7151d560e583","system_id":"levelo_inurba_marseille","lat":43.293,"lon":5.37449,"is_reserved":false,"is_disabled":false,"rental_uris":{"android":"levelo://app?vid=ef050b4a-3d26-43ae-a74c-7151d560e583","ios":"levelo://app?vid=ef050b4a-3d26-43ae-a74c-7151d560e583"},"vehicle_type_id":"4","last_reported":1727684054,"current_range_meters":35200,"station_id":"ce4bgi12rcd13ifvqb70","pricing_plan_id":"cebpf4jnsgd1na2vs0mg"},{"bike_id":"124cc49e-bc3f-4ee2-96b6-78f4c29aba27","system_id":"levelo_inurba_marseille","lat":43.25005,"lon":5.38918,"is_reserved":false,"is_disabled":false,"rental_uris":{"android":"levelo://app?vid=124cc49e-bc3f-4ee2-96b6-78f4c29aba27","ios":"levelo://app?vid=124cc49e-bc3f-4ee2-96b6-78f4c29aba27"},"vehicle_type_id":"4","last_reported":1727684054,"current_range_meters":18800,"station_id":"ce4bhgp2rcd13ifvqfd0","pricing_plan_id":"cebpf4jnsgd1na2vs0mg"},{"bike_id":"fd14ba81-3f44-4ac1-b066-8941269a20c6","system_id":"levelo_inurba_marseille","lat":43.292408,"lon":5.42677,"is_reserved":false,"is_disabled":false,"rental_uris":{"android":"levelo://app?vid=fd14ba81-3f44-4ac1-b066-8941269a20c6","ios":"levelo://app?vid=fd14ba81-3f44-4ac1-b066-8941269a20c6"},"vehicle_type_id":"4","last_reported":1727684054,"current_range_meters":13600,"station_id":"ce4bhnh2rcd13ifvqgug","pricing_plan_id":"cebpf4jnsgd1na2vs0mg"},{"bike_id":"c1a1b9e4-f961-4823-b111-afdf24cf4ace","system_id":"levelo_inurba_marseille","lat":43.29913,"lon":5.37471,"is_reserved":false,"is_disabled":false,"rental_uris":{"android":"levelo://app?vid=c1a1b9e4-f961-4823-b111-afdf24cf4ace","ios":"levelo://app?vid=c1a1b9e4-f961-4823-b111-afdf24cf4ace"},"vehicle_type_id":"4","last_reported":1727684054,"current_range_meters":38800,"station_id":"ce4bgjh2rcd13ifvqbg0","pricing_plan_id":"cebpf4jnsgd1na2vs0mg"},{"bike_id":"030e1dad-b4d7-4d4b-9578-8c0f9bc0024a","system_id":"levelo_inurba_marseille","lat":43.33604,"lon":5.41022,"is_reserved":false,"is_disabled":false,"rental_uris":{"android":"levelo://app?vid=030e1dad-b4d7-4d4b-9578-8c0f9bc0024a","ios":"levelo://app?vid=030e1dad-b4d7-4d4b-9578-8c0f9bc0024a"},"vehicle_type_id":"4","last_reported":1727684054,"current_range_meters":7200,"station_id":"ce4bhqh2rcd13ifvqhmg","pricing_plan_id":"cebpf4jnsgd1na2vs0mg"},{"bike_id":"4133267d-f7b0-4a0f-bb30-b412df70e59c","system_id":"levelo_inurba_marseille","lat":43.27206,"lon":5.39182,"is_reserved":false,"is_disabled":false,"rental_uris":{"android":"levelo://app?vid=4133267d-f7b0-4a0f-bb30-b412df70e59c","ios":"levelo://app?vid=4133267d-f7b0-4a0f-bb30-b412df70e59c"},"vehicle_type_id":"4","last_reported":1727684054,"current_range_meters":19200,"station_id":"ce4bhhp2rcd13ifvqfm0","pricing_plan_id":"cebpf4jnsgd1na2vs0mg"},{"bike_id":"d9f34128-96e7-4722-a31b-fb36f438d0e9","system_id":"levelo_inurba_marseille","lat":43.25937,"lon":5.40906,"is_reserved":false,"is_disabled":false,"rental_uris":{"android":"levelo://app?vid=d9f34128-96e7-4722-a31b-fb36f438d0e9","ios":"levelo://app?vid=d9f34128-96e7-4722-a31b-fb36f438d0e9"},"vehicle_type_id":"4","last_reported":1727684054,"current_range_meters":26800,"station_id":"ce4bhm92rcd13ifvqglg","pricing_plan_id":"cebpf4jnsgd1na2vs0mg"},{"bike_id":"33e5c408-3ee0-484c-80c1-638bf9c63d10","system_id":"levelo_inurba_marseille","lat":43.24545,"lon":5.3953,"is_reserved":false,"is_disabled":false,"rental_uris":{"android":"levelo://app?vid=33e5c408-3ee0-484c-80c1-638bf9c63d10","ios":"levelo://app?vid=33e5c408-3ee0-484c-80c1-638bf9c63d10"},"vehicle_type_id":"4","last_reported":1727684054,"current_range_meters":24000,"station_id":"ce4bhlp2rcd13ifvqgjg","pricing_plan_id":"cebpf4jnsgd1na2vs0mg"},{"bike_id":"405b5f1d-b9eb-4659-95d5-5c2ff06d8e1a","system_id":"levelo_inurba_marseille","lat":43.27495,"lon":5.42455,"is_reserved":false,"is_disabled":false,"rental_uris":{"android":"levelo://app?vid=405b5f1d-b9eb-4659-95d5-5c2ff06d8e1a","ios":"levelo://app?vid=405b5f1d-b9eb-4659-95d5-5c2ff06d8e1a"},"vehicle_type_id":"4","last_reported":1727684054,"current_range_meters":18800,"station_id":"ce4bhn92rcd13ifvqgrg","pricing_plan_id":"cebpf4jnsgd1na2vs0mg"},{"bike_id":"113aab23-9d41-4a5f-95c0-d776ac45c2b9","system_id":"levelo_inurba_marseille","lat":43.2594,"lon":5.40902,"is_reserved":false,"is_disabled":false,"rental_uris":{"android":"levelo://app?vid=113aab23-9d41-4a5f-95c0-d776ac45c2b9","ios":"levelo://app?vid=113aab23-9d41-4a5f-95c0-d776ac45c2b9"},"vehicle_type_id":"4","last_reported":1727684054,"current_range_meters":19600,"station_id":"ce4bhm92rcd13ifvqglg","pricing_plan_id":"cebpf4jnsgd1na2vs0mg"},{"bike_id":"18b188e6-aa6a-4bd7-ad05-6ca16854b93f","system_id":"levelo_inurba_marseille","lat":43.27075,"lon":5.42278,"is_reserved":false,"is_disabled":false,"rental_uris":{"android":"levelo://app?vid=18b188e6-aa6a-4bd7-ad05-6ca16854b93f","ios":"levelo://app?vid=18b188e6-aa6a-4bd7-ad05-6ca16854b93f"},"vehicle_type_id":"4","last_reported":1727684054,"current_range_meters":30000,"station_id":"ce4bhk92rcd13ifvqgb0","pricing_plan_id":"cebpf4jnsgd1na2vs0mg"},{"bike_id":"408d9401-5194-45b1-948e-a2c15040c41f","system_id":"levelo_inurba_marseille","lat":43.23192,"lon":5.35539,"is_reserved":false,"is_disabled":false,"rental_uris":{"android":"levelo://app?vid=408d9401-5194-45b1-948e-a2c15040c41f","ios":"levelo://app?vid=408d9401-5194-45b1-948e-a2c15040c41f"},"vehicle_type_id":"4","last_reported":1727684054,"current_range_meters":11200,"station_id":"ce4bhu92rcd13ifvqi70","pricing_plan_id":"cebpf4jnsgd1na2vs0mg"},{"bike_id":"ec9a2442-8fdc-4e6b-9728-b801d3db7c4e","system_id":"levelo_inurba_marseille","lat":43.29956,"lon":5.41313,"is_reserved":false,"is_disabled":false,"rental_uris":{"android":"levelo://app?vid=ec9a2442-8fdc-4e6b-9728-b801d3db7c4e","ios":"levelo://app?vid=ec9a2442-8fdc-4e6b-9728-b801d3db7c4e"},"vehicle_type_id":"4","last_reported":1727684054,"current_range_meters":27200,"station_id":"ce4bhp12rcd13ifvqh9g","pricing_plan_id":"cebpf4jnsgd1na2vs0mg"},{"bike_id":"94fdfe10-8c09-41e0-b800-38c859b3f321","system_id":"levelo_inurba_marseille","lat":43.32918,"lon":5.39068,"is_reserved":false,"is_disabled":false,"rental_uris":{"android":"levelo://app?vid=94fdfe10-8c09-41e0-b800-38c859b3f321","ios":"levelo://app?vid=94fdfe10-8c09-41e0-b800-38c859b3f321"},"vehicle_type_id":"4","last_reported":1727684054,"current_range_meters":34000,"station_id":"","pricing_plan_id":"cebpf4jnsgd1na2vs0mg"},{"bike_id":"45f7fed1-ab4b-4a5f-b418-a46557244602","system_id":"levelo_inurba_marseille","lat":43.30911,"lon":5.36851,"is_reserved":false,"is_disabled":false,"rental_uris":{"android":"levelo://app?vid=45f7fed1-ab4b-4a5f-b418-a46557244602","ios":"levelo://app?vid=45f7fed1-ab4b-4a5f-b418-a46557244602"},"vehicle_type_id":"4","last_reported":1727684054,"current_range_meters":35600,"station_id":"ce4bgn92rcd13ifvqbvg","pricing_plan_id":"cebpf4jnsgd1na2vs0mg"},{"bike_id":"826b3619-d5fd-4e06-ad36-d0bfcef692af","system_id":"levelo_inurba_marseille","lat":43.26496,"lon":5.39542,"is_reserved":false,"is_disabled":false,"rental_uris":{"android":"levelo://app?vid=826b3619-d5fd-4e06-ad36-d0bfcef692af","ios":"levelo://app?vid=826b3619-d5fd-4e06-ad36-d0bfcef692af"},"vehicle_type_id":"4","last_reported":1727684054,"current_range_meters":22000,"station_id":"ce4bhi12rcd13ifvqfq0","pricing_plan_id":"cebpf4jnsgd1na2vs0mg"},{"bike_id":"24f66ba0-9728-4d6c-96ef-74d761c96131","system_id":"levelo_inurba_marseille","lat":43.304678,"lon":5.379006,"is_reserved":false,"is_disabled":false,"rental_uris":{"android":"levelo://app?vid=24f66ba0-9728-4d6c-96ef-74d761c96131","ios":"levelo://app?vid=24f66ba0-9728-4d6c-96ef-74d761c96131"},"vehicle_type_id":"4","last_reported":1727684054,"current_range_meters":39200,"station_id":"ce4bgup2rcd13ifvqcn0","pricing_plan_id":"cebpf4jnsgd1na2vs0mg"},{"bike_id":"b4a0c9b3-a962-403a-8921-adccaae64d6c","system_id":"levelo_inurba_marseille","lat":43.31226,"lon":5.36862,"is_reserved":false,"is_disabled":false,"rental_uris":{"android":"levelo://app?vid=b4a0c9b3-a962-403a-8921-adccaae64d6c","ios":"levelo://app?vid=b4a0c9b3-a962-403a-8921-adccaae64d6c"},"vehicle_type_id":"4","last_reported":1727684054,"current_range_meters":39200,"station_id":"ce4bgl92rcd13ifvqbq0","pricing_plan_id":"cebpf4jnsgd1na2vs0mg"},{"bike_id":"40af7eb4-6cd7-462c-b9fb-34273e78aa71","system_id":"levelo_inurba_marseille","lat":43.2407,"lon":5.37755,"is_reserved":false,"is_disabled":false,"rental_uris":{"android":"levelo://app?vid=40af7eb4-6cd7-462c-b9fb-34273e78aa71","ios":"levelo://app?vid=40af7eb4-6cd7-462c-b9fb-34273e78aa71"},"vehicle_type_id":"4","last_reported":1727684054,"current_range_meters":7200,"station_id":"ce4bhnp2rcd13ifvqgvg","pricing_plan_id":"cebpf4jnsgd1na2vs0mg"},{"bike_id":"f66754fa-b192-4239-b70a-57b134736b4d","system_id":"levelo_inurba_marseille","lat":43.26786,"lon":5.39421,"is_reserved":false,"is_disabled":false,"rental_uris":{"android":"levelo://app?vid=f66754fa-b192-4239-b70a-57b134736b4d","ios":"levelo://app?vid=f66754fa-b192-4239-b70a-57b134736b4d"},"vehicle_type_id":"4","last_reported":1727684054,"current_range_meters":35200,"station_id":"ce4bhh12rcd13ifvqfg0","pricing_plan_id":"cebpf4jnsgd1na2vs0mg"},{"bike_id":"a63d4449-4f5a-4f1c-9a3c-27c8d74bd2a3","system_id":"levelo_inurba_marseille","lat":43.24392,"lon":5.37061,"is_reserved":false,"is_disabled":false,"rental_uris":{"android":"levelo://app?vid=a63d4449-4f5a-4f1c-9a3c-27c8d74bd2a3","ios":"levelo://app?vid=a63d4449-4f5a-4f1c-9a3c-27c8d74bd2a3"},"vehicle_type_id":"4","last_reported":1727684054,"current_range_meters":7200,"station_id":"ce4bhhh2rcd13ifvqfk0","pricing_plan_id":"cebpf4jnsgd1na2vs0mg"},{"bike_id":"431fd07b-7141-48dc-8ce2-ed25e62e0064","system_id":"levelo_inurba_marseille","lat":43.2408,"lon":5.3775,"is_reserved":false,"is_disabled":false,"rental_uris":{"android":"levelo://app?vid=431fd07b-7141-48dc-8ce2-ed25e62e0064","ios":"levelo://app?vid=431fd07b-7141-48dc-8ce2-ed25e62e0064"},"vehicle_type_id":"4","last_reported":1727684054,"current_range_meters":27600,"station_id":"ce4bhnp2rcd13ifvqgvg","pricing_plan_id":"cebpf4jnsgd1na2vs0mg"},{"bike_id":"b187d656-363f-4d58-ae4c-249a3172d21b","system_id":"levelo_inurba_marseille","lat":43.27069,"lon":5.42278,"is_reserved":false,"is_disabled":false,"rental_uris":{"android":"levelo://app?vid=b187d656-363f-4d58-ae4c-249a3172d21b","ios":"levelo://app?vid=b187d656-363f-4d58-ae4c-249a3172d21b"},"vehicle_type_id":"4","last_reported":1727684054,"current_range_meters":32800,"station_id":"ce4bhk92rcd13ifvqgb0","pricing_plan_id":"cebpf4jnsgd1na2vs0mg"},{"bike_id":"b5bfd473-5584-41f3-a5b7-200400ca7669","system_id":"levelo_inurba_marseille","lat":43.28419,"lon":5.34987,"is_reserved":false,"is_disabled":false,"rental_uris":{"android":"levelo://app?vid=b5bfd473-5584-41f3-a5b7-200400ca7669","ios":"levelo://app?vid=b5bfd473-5584-41f3-a5b7-200400ca7669"},"vehicle_type_id":"4","last_reported":1727684054,"current_range_meters":37600,"station_id":"ce4bhbh2rcd13ifvqepg","pricing_plan_id":"cebpf4jnsgd1na2vs0mg"},{"bike_id":"66e5dcb6-1197-445b-894b-e224282b1b0a","system_id":"levelo_inurba_marseille","lat":43.29022,"lon":5.39958,"is_reserved":false,"is_disabled":false,"rental_uris":{"android":"levelo://app?vid=66e5dcb6-1197-445b-894b-e224282b1b0a","ios":"levelo://app?vid=66e5dcb6-1197-445b-894b-e224282b1b0a"},"vehicle_type_id":"4","last_reported":1727684054,"current_range_meters":28400,"station_id":"ce4bh392rcd13ifvqdm0","pricing_plan_id":"cebpf4jnsgd1na2vs0mg"},{"bike_id":"81a3242c-03a9-4973-8513-f9f3502e650e","system_id":"levelo_inurba_marseille","lat":43.23149,"lon":5.43722,"is_reserved":false,"is_disabled":false,"rental_uris":{"android":"levelo://app?vid=81a3242c-03a9-4973-8513-f9f3502e650e","ios":"levelo://app?vid=81a3242c-03a9-4973-8513-f9f3502e650e"},"vehicle_type_id":"4","last_reported":1727684054,"current_range_meters":24800,"station_id":"ce4bhmp2rcd13ifvqgog","pricing_plan_id":"cebpf4jnsgd1na2vs0mg"},{"bike_id":"471de403-0722-4646-97ed-a72fdd5ef03d","system_id":"levelo_inurba_marseille","lat":43.3122,"lon":5.36887,"is_reserved":false,"is_disabled":false,"rental_uris":{"android":"levelo://app?vid=471de403-0722-4646-97ed-a72fdd5ef03d","ios":"levelo://app?vid=471de403-0722-4646-97ed-a72fdd5ef03d"},"vehicle_type_id":"4","last_reported":1727684054,"current_range_meters":18000,"station_id":"ce4bgl92rcd13ifvqbq0","pricing_plan_id":"cebpf4jnsgd1na2vs0mg"},{"bike_id":"cd4ce21f-42e9-4fc0-aed4-f067c3cecd8a","system_id":"levelo_inurba_marseille","lat":43.30526,"lon":5.3673,"is_reserved":false,"is_disabled":false,"rental_uris":{"android":"levelo://app?vid=cd4ce21f-42e9-4fc0-aed4-f067c3cecd8a","ios":"levelo://app?vid=cd4ce21f-42e9-4fc0-aed4-f067c3cecd8a"},"vehicle_type_id":"4","last_reported":1727684054,"current_range_meters":16400,"station_id":"ce4bgrp2rcd13ifvqc9g","pricing_plan_id":"cebpf4jnsgd1na2vs0mg"},{"bike_id":"c7534af6-9c5f-4930-8232-294abe9ce8d4","system_id":"levelo_inurba_marseille","lat":43.29732,"lon":5.37672,"is_reserved":false,"is_disabled":false,"rental_uris":{"android":"levelo://app?vid=c7534af6-9c5f-4930-8232-294abe9ce8d4","ios":"levelo://app?vid=c7534af6-9c5f-4930-8232-294abe9ce8d4"},"vehicle_type_id":"4","last_reported":1727684054,"current_range_meters":32400,"station_id":"ce4bgkh2rcd13ifvqbl0","pricing_plan_id":"cebpf4jnsgd1na2vs0mg"},{"bike_id":"b5649e49-dd00-41c5-9844-687f278fac4b","system_id":"levelo_inurba_marseille","lat":43.3055,"lon":5.36528,"is_reserved":false,"is_disabled":false,"rental_uris":{"android":"levelo://app?vid=b5649e49-dd00-41c5-9844-687f278fac4b","ios":"levelo://app?vid=b5649e49-dd00-41c5-9844-687f278fac4b"},"vehicle_type_id":"4","last_reported":1727684054,"current_range_meters":6400,"station_id":"ce4bgs12rcd13ifvqcag","pricing_plan_id":"cebpf4jnsgd1na2vs0mg"},{"bike_id":"73b40ebb-a5f4-48a1-997d-33ebf095574d","system_id":"levelo_inurba_marseille","lat":43.29975,"lon":5.38496,"is_reserved":false,"is_disabled":false,"rental_uris":{"android":"levelo://app?vid=73b40ebb-a5f4-48a1-997d-33ebf095574d","ios":"levelo://app?vid=73b40ebb-a5f4-48a1-997d-33ebf095574d"},"vehicle_type_id":"4","last_reported":1727684054,"current_range_meters":38000,"station_id":"ce4bgj92rcd13ifvqbd0","pricing_plan_id":"cebpf4jnsgd1na2vs0mg"},{"bike_id":"d9da1a4a-a201-4736-a80d-2b7abbfed6aa","system_id":"levelo_inurba_marseille","lat":43.3014,"lon":5.37424,"is_reserved":false,"is_disabled":false,"rental_uris":{"android":"levelo://app?vid=d9da1a4a-a201-4736-a80d-2b7abbfed6aa","ios":"levelo://app?vid=d9da1a4a-a201-4736-a80d-2b7abbfed6aa"},"vehicle_type_id":"4","last_reported":1727684054,"current_range_meters":32400,"station_id":"ce4bgs92rcd13ifvqcc0","pricing_plan_id":"cebpf4jnsgd1na2vs0mg"},{"bike_id":"23f1a8ad-c84d-4189-af53-44e7534f25f7","system_id":"levelo_inurba_marseille","lat":43.23154,"lon":5.43709,"is_reserved":false,"is_disabled":false,"rental_uris":{"android":"levelo://app?vid=23f1a8ad-c84d-4189-af53-44e7534f25f7","ios":"levelo://app?vid=23f1a8ad-c84d-4189-af53-44e7534f25f7"},"vehicle_type_id":"4","last_reported":1727684054,"current_range_meters":18000,"station_id":"ce4bhmp2rcd13ifvqgog","pricing_plan_id":"cebpf4jnsgd1na2vs0mg"},{"bike_id":"263086d4-fe32-42d3-9223-82a79c2f5238","system_id":"levelo_inurba_marseille","lat":43.30471,"lon":5.37906,"is_reserved":false,"is_disabled":false,"rental_uris":{"android":"levelo://app?vid=263086d4-fe32-42d3-9223-82a79c2f5238","ios":"levelo://app?vid=263086d4-fe32-42d3-9223-82a79c2f5238"},"vehicle_type_id":"4","last_reported":1727684054,"current_range_meters":17200,"station_id":"ce4bgup2rcd13ifvqcn0","pricing_plan_id":"cebpf4jnsgd1na2vs0mg"},{"bike_id":"bb95ca68-7139-4cd1-9c20-3ac229a34ec8","system_id":"levelo_inurba_marseille","lat":43.24072,"lon":5.37756,"is_reserved":false,"is_disabled":false,"rental_uris":{"android":"levelo://app?vid=bb95ca68-7139-4cd1-9c20-3ac229a34ec8","ios":"levelo://app?vid=bb95ca68-7139-4cd1-9c20-3ac229a34ec8"},"vehicle_type_id":"4","last_reported":1727684054,"current_range_meters":22800,"station_id":"ce4bhnp2rcd13ifvqgvg","pricing_plan_id":"cebpf4jnsgd1na2vs0mg"},{"bike_id":"e271f224-b7a3-4d22-a818-9f61502b9809","system_id":"levelo_inurba_marseille","lat":43.24548,"lon":5.39522,"is_reserved":false,"is_disabled":false,"rental_uris":{"android":"levelo://app?vid=e271f224-b7a3-4d22-a818-9f61502b9809","ios":"levelo://app?vid=e271f224-b7a3-4d22-a818-9f61502b9809"},"vehicle_type_id":"4","last_reported":1727684054,"current_range_meters":21600,"station_id":"ce4bhlp2rcd13ifvqgjg","pricing_plan_id":"cebpf4jnsgd1na2vs0mg"},{"bike_id":"d94c6013-cd53-4322-9c98-8f9210f42299","system_id":"levelo_inurba_marseille","lat":43.26494,"lon":5.39544,"is_reserved":false,"is_disabled":false,"rental_uris":{"android":"levelo://app?vid=d94c6013-cd53-4322-9c98-8f9210f42299","ios":"levelo://app?vid=d94c6013-cd53-4322-9c98-8f9210f42299"},"vehicle_type_id":"4","last_reported":1727684054,"current_range_meters":8400,"station_id":"ce4bhi12rcd13ifvqfq0","pricing_plan_id":"cebpf4jnsgd1na2vs0mg"},{"bike_id":"bd681dc6-59c5-40c9-b24b-67b88a000f88","system_id":"levelo_inurba_marseille","lat":43.31356,"lon":5.36724,"is_reserved":false,"is_disabled":false,"rental_uris":{"android":"levelo://app?vid=bd681dc6-59c5-40c9-b24b-67b88a000f88","ios":"levelo://app?vid=bd681dc6-59c5-40c9-b24b-67b88a000f88"},"vehicle_type_id":"4","last_reported":1727684054,"current_range_meters":26800,"station_id":"ce4bgr92rcd13ifvqc6g","pricing_plan_id":"cebpf4jnsgd1na2vs0mg"},{"bike_id":"a479afc6-e4b0-4b7d-925a-663cafaecb0e","system_id":"levelo_inurba_marseille","lat":43.24075,"lon":5.37759,"is_reserved":false,"is_disabled":false,"rental_uris":{"android":"levelo://app?vid=a479afc6-e4b0-4b7d-925a-663cafaecb0e","ios":"levelo://app?vid=a479afc6-e4b0-4b7d-925a-663cafaecb0e"},"vehicle_type_id":"4","last_reported":1727684054,"current_range_meters":24000,"station_id":"ce4bhnp2rcd13ifvqgvg","pricing_plan_id":"cebpf4jnsgd1na2vs0mg"},{"bike_id":"7497ada0-4e52-442c-9aa1-86afe522b93f","system_id":"levelo_inurba_marseille","lat":43.29898,"lon":5.43651,"is_reserved":false,"is_disabled":false,"rental_uris":{"android":"levelo://app?vid=7497ada0-4e52-442c-9aa1-86afe522b93f","ios":"levelo://app?vid=7497ada0-4e52-442c-9aa1-86afe522b93f"},"vehicle_type_id":"4","last_reported":1727684054,"current_range_meters":20000,"station_id":"ce4bhpp2rcd13ifvqhfg","pricing_plan_id":"cebpf4jnsgd1na2vs0mg"},{"bike_id":"d31565ef-bfc4-4f47-b8f2-e14f7f1689f5","system_id":"levelo_inurba_marseille","lat":43.3054,"lon":5.3671,"is_reserved":false,"is_disabled":false,"rental_uris":{"android":"levelo://app?vid=d31565ef-bfc4-4f47-b8f2-e14f7f1689f5","ios":"levelo://app?vid=d31565ef-bfc4-4f47-b8f2-e14f7f1689f5"},"vehicle_type_id":"4","last_reported":1727684054,"current_range_meters":36800,"station_id":"ce4bgrp2rcd13ifvqc9g","pricing_plan_id":"cebpf4jnsgd1na2vs0mg"},{"bike_id":"2fc5e30a-d3c5-4964-9eca-6507365bcc88","system_id":"levelo_inurba_marseille","lat":43.29932,"lon":5.36542,"is_reserved":false,"is_disabled":false,"rental_uris":{"android":"levelo://app?vid=2fc5e30a-d3c5-4964-9eca-6507365bcc88","ios":"levelo://app?vid=2fc5e30a-d3c5-4964-9eca-6507365bcc88"},"vehicle_type_id":"4","last_reported":1727684054,"current_range_meters":18000,"station_id":"ce4bgm92rcd13ifvqbr0","pricing_plan_id":"cebpf4jnsgd1na2vs0mg"},{"bike_id":"79e8eb0e-8aaa-4437-9b3e-42fa94394fdf","system_id":"levelo_inurba_marseille","lat":43.27317,"lon":5.3909,"is_reserved":false,"is_disabled":false,"rental_uris":{"android":"levelo://app?vid=79e8eb0e-8aaa-4437-9b3e-42fa94394fdf","ios":"levelo://app?vid=79e8eb0e-8aaa-4437-9b3e-42fa94394fdf"},"vehicle_type_id":"4","last_reported":1727684054,"current_range_meters":25600,"station_id":"ce4bhgp2rcd13ifvqfe0","pricing_plan_id":"cebpf4jnsgd1na2vs0mg"},{"bike_id":"315880d6-2164-456e-b31d-c53f62b4acb8","system_id":"levelo_inurba_marseille","lat":43.30153,"lon":5.38074,"is_reserved":false,"is_disabled":false,"rental_uris":{"android":"levelo://app?vid=315880d6-2164-456e-b31d-c53f62b4acb8","ios":"levelo://app?vid=315880d6-2164-456e-b31d-c53f62b4acb8"},"vehicle_type_id":"4","last_reported":1727684054,"current_range_meters":33200,"station_id":"ce4bgjp2rcd13ifvqbh0","pricing_plan_id":"cebpf4jnsgd1na2vs0mg"},{"bike_id":"03dde6f4-1886-4b77-a01a-53c7e3b12574","system_id":"levelo_inurba_marseille","lat":43.26943,"lon":5.38633,"is_reserved":false,"is_disabled":false,"rental_uris":{"android":"levelo://app?vid=03dde6f4-1886-4b77-a01a-53c7e3b12574","ios":"levelo://app?vid=03dde6f4-1886-4b77-a01a-53c7e3b12574"},"vehicle_type_id":"4","last_reported":1727684054,"current_range_meters":36400,"station_id":"ce4bhh92rcd13ifvqfh0","pricing_plan_id":"cebpf4jnsgd1na2vs0mg"},{"bike_id":"f414b21f-848f-44ec-af44-5bc3096d6ed1","system_id":"levelo_inurba_marseille","lat":43.303138,"lon":5.368918,"is_reserved":false,"is_disabled":false,"rental_uris":{"android":"levelo://app?vid=f414b21f-848f-44ec-af44-5bc3096d6ed1","ios":"levelo://app?vid=f414b21f-848f-44ec-af44-5bc3096d6ed1"},"vehicle_type_id":"4","last_reported":1727684054,"current_range_meters":38800,"station_id":"ce4bgqh2rcd13ifvqc5g","pricing_plan_id":"cebpf4jnsgd1na2vs0mg"},{"bike_id":"530ebee0-3821-4918-8f9b-3c2003125331","system_id":"levelo_inurba_marseille","lat":43.24082,"lon":5.37744,"is_reserved":false,"is_disabled":false,"rental_uris":{"android":"levelo://app?vid=530ebee0-3821-4918-8f9b-3c2003125331","ios":"levelo://app?vid=530ebee0-3821-4918-8f9b-3c2003125331"},"vehicle_type_id":"4","last_reported":1727684054,"current_range_meters":8400,"station_id":"ce4bhnp2rcd13ifvqgvg","pricing_plan_id":"cebpf4jnsgd1na2vs0mg"},{"bike_id":"87039c6c-3a2f-44e3-9ded-90190baf7c99","system_id":"levelo_inurba_marseille","lat":43.25931,"lon":5.4091,"is_reserved":false,"is_disabled":false,"rental_uris":{"android":"levelo://app?vid=87039c6c-3a2f-44e3-9ded-90190baf7c99","ios":"levelo://app?vid=87039c6c-3a2f-44e3-9ded-90190baf7c99"},"vehicle_type_id":"4","last_reported":1727684054,"current_range_meters":19600,"station_id":"ce4bhm92rcd13ifvqglg","pricing_plan_id":"cebpf4jnsgd1na2vs0mg"},{"bike_id":"063fa2f8-ca03-4e7a-922c-ed029093f8ea","system_id":"levelo_inurba_marseille","lat":43.24544,"lon":5.39522,"is_reserved":false,"is_disabled":false,"rental_uris":{"android":"levelo://app?vid=063fa2f8-ca03-4e7a-922c-ed029093f8ea","ios":"levelo://app?vid=063fa2f8-ca03-4e7a-922c-ed029093f8ea"},"vehicle_type_id":"4","last_reported":1727684054,"current_range_meters":20000,"station_id":"ce4bhlp2rcd13ifvqgjg","pricing_plan_id":"cebpf4jnsgd1na2vs0mg"},{"bike_id":"a062e986-4d6c-44c4-9c62-8e69d5cd5a09","system_id":"levelo_inurba_marseille","lat":43.26489,"lon":5.39555,"is_reserved":false,"is_disabled":false,"rental_uris":{"android":"levelo://app?vid=a062e986-4d6c-44c4-9c62-8e69d5cd5a09","ios":"levelo://app?vid=a062e986-4d6c-44c4-9c62-8e69d5cd5a09"},"vehicle_type_id":"4","last_reported":1727684054,"current_range_meters":28800,"station_id":"ce4bhi12rcd13ifvqfq0","pricing_plan_id":"cebpf4jnsgd1na2vs0mg"},{"bike_id":"199c9dad-84bd-4f92-bc6b-87043419e7a5","system_id":"levelo_inurba_marseille","lat":43.258575,"lon":5.399047,"is_reserved":false,"is_disabled":false,"rental_uris":{"android":"levelo://app?vid=199c9dad-84bd-4f92-bc6b-87043419e7a5","ios":"levelo://app?vid=199c9dad-84bd-4f92-bc6b-87043419e7a5"},"vehicle_type_id":"4","last_reported":1727684054,"current_range_meters":28000,"station_id":"ce4bhl92rcd13ifvqghg","pricing_plan_id":"cebpf4jnsgd1na2vs0mg"},{"bike_id":"b4c510d0-b40d-465d-baea-98076f90b54c","system_id":"levelo_inurba_marseille","lat":43.32345,"lon":5.40625,"is_reserved":false,"is_disabled":false,"rental_uris":{"android":"levelo://app?vid=b4c510d0-b40d-465d-baea-98076f90b54c","ios":"levelo://app?vid=b4c510d0-b40d-465d-baea-98076f90b54c"},"vehicle_type_id":"4","last_reported":1727684054,"current_range_meters":8000,"station_id":"ce4bhq92rcd13ifvqhjg","pricing_plan_id":"cebpf4jnsgd1na2vs0mg"},{"bike_id":"db4a67dd-3afe-428b-b928-424c51b31f24","system_id":"levelo_inurba_marseille","lat":43.30305,"lon":5.36896,"is_reserved":false,"is_disabled":false,"rental_uris":{"android":"levelo://app?vid=db4a67dd-3afe-428b-b928-424c51b31f24","ios":"levelo://app?vid=db4a67dd-3afe-428b-b928-424c51b31f24"},"vehicle_type_id":"4","last_reported":1727684054,"current_range_meters":38800,"station_id":"ce4bgqh2rcd13ifvqc5g","pricing_plan_id":"cebpf4jnsgd1na2vs0mg"},{"bike_id":"88b03e43-181a-428b-85a8-9b6f0f93a2ec","system_id":"levelo_inurba_marseille","lat":43.33718,"lon":5.39165,"is_reserved":false,"is_disabled":false,"rental_uris":{"android":"levelo://app?vid=88b03e43-181a-428b-85a8-9b6f0f93a2ec","ios":"levelo://app?vid=88b03e43-181a-428b-85a8-9b6f0f93a2ec"},"vehicle_type_id":"4","last_reported":1727684054,"current_range_meters":26000,"station_id":"ce4bhr92rcd13ifvqhsg","pricing_plan_id":"cebpf4jnsgd1na2vs0mg"},{"bike_id":"6d713e72-44cf-4d8b-adc7-d7681c25c3cd","system_id":"levelo_inurba_marseille","lat":43.29576,"lon":5.37505,"is_reserved":false,"is_disabled":false,"rental_uris":{"android":"levelo://app?vid=6d713e72-44cf-4d8b-adc7-d7681c25c3cd","ios":"levelo://app?vid=6d713e72-44cf-4d8b-adc7-d7681c25c3cd"},"vehicle_type_id":"4","last_reported":1727684054,"current_range_meters":8400,"station_id":"ce4bgh92rcd13ifvqb50","pricing_plan_id":"cebpf4jnsgd1na2vs0mg"},{"bike_id":"83115145-dad2-4ef0-984d-db9d4390c153","system_id":"levelo_inurba_marseille","lat":43.24083,"lon":5.37749,"is_reserved":false,"is_disabled":false,"rental_uris":{"android":"levelo://app?vid=83115145-dad2-4ef0-984d-db9d4390c153","ios":"levelo://app?vid=83115145-dad2-4ef0-984d-db9d4390c153"},"vehicle_type_id":"4","last_reported":1727684054,"current_range_meters":6400,"station_id":"ce4bhnp2rcd13ifvqgvg","pricing_plan_id":"cebpf4jnsgd1na2vs0mg"},{"bike_id":"8ed776a1-a273-47f5-bd5e-e3e0683b8847","system_id":"levelo_inurba_marseille","lat":43.29035,"lon":5.37571,"is_reserved":false,"is_disabled":false,"rental_uris":{"android":"levelo://app?vid=8ed776a1-a273-47f5-bd5e-e3e0683b8847","ios":"levelo://app?vid=8ed776a1-a273-47f5-bd5e-e3e0683b8847"},"vehicle_type_id":"4","last_reported":1727684054,"current_range_meters":38000,"station_id":"ce4bh692rcd13ifvqe90","pricing_plan_id":"cebpf4jnsgd1na2vs0mg"},{"bike_id":"7e96e272-77c6-4c7f-9738-135ce0a1a91f","system_id":"levelo_inurba_marseille","lat":43.29367,"lon":5.3784,"is_reserved":false,"is_disabled":false,"rental_uris":{"android":"levelo://app?vid=7e96e272-77c6-4c7f-9738-135ce0a1a91f","ios":"levelo://app?vid=7e96e272-77c6-4c7f-9738-135ce0a1a91f"},"vehicle_type_id":"4","last_reported":1727684054,"current_range_meters":38800,"station_id":"ce4bgjh2rcd13ifvqbf0","pricing_plan_id":"cebpf4jnsgd1na2vs0mg"},{"bike_id":"e22276d2-44e8-444a-b7bd-e635cc7c16bf","system_id":"levelo_inurba_marseille","lat":43.337444,"lon":5.374475,"is_reserved":false,"is_disabled":false,"rental_uris":{"android":"levelo://app?vid=e22276d2-44e8-444a-b7bd-e635cc7c16bf","ios":"levelo://app?vid=e22276d2-44e8-444a-b7bd-e635cc7c16bf"},"vehicle_type_id":"4","last_reported":1727684054,"current_range_meters":38800,"station_id":"ce4bhb92rcd13ifvqen0","pricing_plan_id":"cebpf4jnsgd1na2vs0mg"},{"bike_id":"78163965-4b44-41bd-a17c-b48780a89da3","system_id":"levelo_inurba_marseille","lat":43.24546,"lon":5.39523,"is_reserved":false,"is_disabled":false,"rental_uris":{"android":"levelo://app?vid=78163965-4b44-41bd-a17c-b48780a89da3","ios":"levelo://app?vid=78163965-4b44-41bd-a17c-b48780a89da3"},"vehicle_type_id":"4","last_reported":1727684054,"current_range_meters":6800,"station_id":"ce4bhlp2rcd13ifvqgjg","pricing_plan_id":"cebpf4jnsgd1na2vs0mg"},{"bike_id":"efdb6d89-2d54-42e1-85c1-ccc9e19e3a19","system_id":"levelo_inurba_marseille","lat":43.23149,"lon":5.43717,"is_reserved":false,"is_disabled":false,"rental_uris":{"android":"levelo://app?vid=efdb6d89-2d54-42e1-85c1-ccc9e19e3a19","ios":"levelo://app?vid=efdb6d89-2d54-42e1-85c1-ccc9e19e3a19"},"vehicle_type_id":"4","last_reported":1727684054,"current_range_meters":26800,"station_id":"ce4bhmp2rcd13ifvqgog","pricing_plan_id":"cebpf4jnsgd1na2vs0mg"},{"bike_id":"80052677-a184-47b6-b7ba-4401badcd8a9","system_id":"levelo_inurba_marseille","lat":43.32287,"lon":5.38265,"is_reserved":false,"is_disabled":false,"rental_uris":{"android":"levelo://app?vid=80052677-a184-47b6-b7ba-4401badcd8a9","ios":"levelo://app?vid=80052677-a184-47b6-b7ba-4401badcd8a9"},"vehicle_type_id":"4","last_reported":1727684054,"current_range_meters":38800,"station_id":"ce4bhr12rcd13ifvqhqg","pricing_plan_id":"cebpf4jnsgd1na2vs0mg"},{"bike_id":"105e42e4-8068-41c8-85a4-c23266291b6f","system_id":"levelo_inurba_marseille","lat":43.30154,"lon":5.38075,"is_reserved":false,"is_disabled":false,"rental_uris":{"android":"levelo://app?vid=105e42e4-8068-41c8-85a4-c23266291b6f","ios":"levelo://app?vid=105e42e4-8068-41c8-85a4-c23266291b6f"},"vehicle_type_id":"4","last_reported":1727684054,"current_range_meters":27200,"station_id":"ce4bgjp2rcd13ifvqbh0","pricing_plan_id":"cebpf4jnsgd1na2vs0mg"},{"bike_id":"d1b83edf-3e74-4b05-8da2-5889ecb2faec","system_id":"levelo_inurba_marseille","lat":43.29703,"lon":5.37709,"is_reserved":false,"is_disabled":false,"rental_uris":{"android":"levelo://app?vid=d1b83edf-3e74-4b05-8da2-5889ecb2faec","ios":"levelo://app?vid=d1b83edf-3e74-4b05-8da2-5889ecb2faec"},"vehicle_type_id":"4","last_reported":1727684054,"current_range_meters":10800,"station_id":"ce4bgkh2rcd13ifvqbl0","pricing_plan_id":"cebpf4jnsgd1na2vs0mg"},{"bike_id":"4ee0a48d-e5be-46c6-b167-67aed17f176f","system_id":"levelo_inurba_marseille","lat":43.24647,"lon":5.38892,"is_reserved":false,"is_disabled":false,"rental_uris":{"android":"levelo://app?vid=4ee0a48d-e5be-46c6-b167-67aed17f176f","ios":"levelo://app?vid=4ee0a48d-e5be-46c6-b167-67aed17f176f"},"vehicle_type_id":"4","last_reported":1727684054,"current_range_meters":16800,"station_id":"ce4bhg12rcd13ifvqf60","pricing_plan_id":"cebpf4jnsgd1na2vs0mg"},{"bike_id":"0fd73f05-8e43-492f-90cc-fb7f2fe4e440","system_id":"levelo_inurba_marseille","lat":43.24072,"lon":5.37761,"is_reserved":false,"is_disabled":false,"rental_uris":{"android":"levelo://app?vid=0fd73f05-8e43-492f-90cc-fb7f2fe4e440","ios":"levelo://app?vid=0fd73f05-8e43-492f-90cc-fb7f2fe4e440"},"vehicle_type_id":"4","last_reported":1727684054,"current_range_meters":34800,"station_id":"ce4bhnp2rcd13ifvqgvg","pricing_plan_id":"cebpf4jnsgd1na2vs0mg"},{"bike_id":"625d6a88-eabd-4781-bcf3-17f173c69536","system_id":"levelo_inurba_marseille","lat":43.28154,"lon":5.42643,"is_reserved":false,"is_disabled":false,"rental_uris":{"android":"levelo://app?vid=625d6a88-eabd-4781-bcf3-17f173c69536","ios":"levelo://app?vid=625d6a88-eabd-4781-bcf3-17f173c69536"},"vehicle_type_id":"4","last_reported":1727684054,"current_range_meters":29600,"station_id":"ce4bhnh2rcd13ifvqgug","pricing_plan_id":"cebpf4jnsgd1na2vs0mg"},{"bike_id":"eae568a8-5dcd-4cf7-8902-d8cb05ec95c8","system_id":"levelo_inurba_marseille","lat":43.26685,"lon":5.38274,"is_reserved":false,"is_disabled":false,"rental_uris":{"android":"levelo://app?vid=eae568a8-5dcd-4cf7-8902-d8cb05ec95c8","ios":"levelo://app?vid=eae568a8-5dcd-4cf7-8902-d8cb05ec95c8"},"vehicle_type_id":"4","last_reported":1727684054,"current_range_meters":35600,"station_id":"ce4bhg92rcd13ifvqf90","pricing_plan_id":"cebpf4jnsgd1na2vs0mg"},{"bike_id":"7e3b78d1-52db-483d-a159-db69c5797841","system_id":"levelo_inurba_marseille","lat":43.25725,"lon":5.41111,"is_reserved":false,"is_disabled":false,"rental_uris":{"android":"levelo://app?vid=7e3b78d1-52db-483d-a159-db69c5797841","ios":"levelo://app?vid=7e3b78d1-52db-483d-a159-db69c5797841"},"vehicle_type_id":"4","last_reported":1727684054,"current_range_meters":24800,"station_id":"ce4bhkp2rcd13ifvqgd0","pricing_plan_id":"cebpf4jnsgd1na2vs0mg"},{"bike_id":"5b1e6b45-b9f7-4757-8096-289c0ad74507","system_id":"levelo_inurba_marseille","lat":43.3091,"lon":5.36858,"is_reserved":false,"is_disabled":false,"rental_uris":{"android":"levelo://app?vid=5b1e6b45-b9f7-4757-8096-289c0ad74507","ios":"levelo://app?vid=5b1e6b45-b9f7-4757-8096-289c0ad74507"},"vehicle_type_id":"4","last_reported":1727684054,"current_range_meters":26000,"station_id":"ce4bgn92rcd13ifvqbvg","pricing_plan_id":"cebpf4jnsgd1na2vs0mg"},{"bike_id":"df361b3e-d4f6-4f76-9887-5f4f249d5d52","system_id":"levelo_inurba_marseille","lat":43.31349,"lon":5.36733,"is_reserved":false,"is_disabled":false,"rental_uris":{"android":"levelo://app?vid=df361b3e-d4f6-4f76-9887-5f4f249d5d52","ios":"levelo://app?vid=df361b3e-d4f6-4f76-9887-5f4f249d5d52"},"vehicle_type_id":"4","last_reported":1727684054,"current_range_meters":31200,"station_id":"ce4bgr92rcd13ifvqc6g","pricing_plan_id":"cebpf4jnsgd1na2vs0mg"},{"bike_id":"15e6c52c-2e8e-4646-b211-8568e363d640","system_id":"levelo_inurba_marseille","lat":43.34142,"lon":5.40906,"is_reserved":false,"is_disabled":false,"rental_uris":{"android":"levelo://app?vid=15e6c52c-2e8e-4646-b211-8568e363d640","ios":"levelo://app?vid=15e6c52c-2e8e-4646-b211-8568e363d640"},"vehicle_type_id":"4","last_reported":1727684054,"current_range_meters":20000,"station_id":"ce4bhqh2rcd13ifvqhlg","pricing_plan_id":"cebpf4jnsgd1na2vs0mg"},{"bike_id":"666f0b70-7417-4f82-8936-5c41b33b6fbc","system_id":"levelo_inurba_marseille","lat":43.29965,"lon":5.41315,"is_reserved":false,"is_disabled":false,"rental_uris":{"android":"levelo://app?vid=666f0b70-7417-4f82-8936-5c41b33b6fbc","ios":"levelo://app?vid=666f0b70-7417-4f82-8936-5c41b33b6fbc"},"vehicle_type_id":"4","last_reported":1727684054,"current_range_meters":39200,"station_id":"ce4bhp12rcd13ifvqh9g","pricing_plan_id":"cebpf4jnsgd1na2vs0mg"},{"bike_id":"0701cf2a-674c-4c9d-af1e-6650acbaaf74","system_id":"levelo_inurba_marseille","lat":43.28384,"lon":5.37302,"is_reserved":false,"is_disabled":false,"rental_uris":{"android":"levelo://app?vid=0701cf2a-674c-4c9d-af1e-6650acbaaf74","ios":"levelo://app?vid=0701cf2a-674c-4c9d-af1e-6650acbaaf74"},"vehicle_type_id":"4","last_reported":1727684054,"current_range_meters":6400,"station_id":"","pricing_plan_id":"cebpf4jnsgd1na2vs0mg"},{"bike_id":"96e4d0a3-856d-454a-a337-2aed8432f72d","system_id":"levelo_inurba_marseille","lat":43.2757,"lon":5.38439,"is_reserved":false,"is_disabled":false,"rental_uris":{"android":"levelo://app?vid=96e4d0a3-856d-454a-a337-2aed8432f72d","ios":"levelo://app?vid=96e4d0a3-856d-454a-a337-2aed8432f72d"},"vehicle_type_id":"4","last_reported":1727684054,"current_range_meters":38000,"station_id":"ce4bhh92rcd13ifvqfi0","pricing_plan_id":"cebpf4jnsgd1na2vs0mg"},{"bike_id":"ff270fa4-1f74-4337-a3df-64b554e56bd4","system_id":"levelo_inurba_marseille","lat":43.3095,"lon":5.39039,"is_reserved":false,"is_disabled":false,"rental_uris":{"android":"levelo://app?vid=ff270fa4-1f74-4337-a3df-64b554e56bd4","ios":"levelo://app?vid=ff270fa4-1f74-4337-a3df-64b554e56bd4"},"vehicle_type_id":"4","last_reported":1727684054,"current_range_meters":19600,"station_id":"ce4bgup2rcd13ifvqco0","pricing_plan_id":"cebpf4jnsgd1na2vs0mg"},{"bike_id":"6fed74f2-1353-48f3-9825-479d416e26f0","system_id":"levelo_inurba_marseille","lat":43.30476,"lon":5.37888,"is_reserved":false,"is_disabled":false,"rental_uris":{"android":"levelo://app?vid=6fed74f2-1353-48f3-9825-479d416e26f0","ios":"levelo://app?vid=6fed74f2-1353-48f3-9825-479d416e26f0"},"vehicle_type_id":"4","last_reported":1727684054,"current_range_meters":30800,"station_id":"ce4bgup2rcd13ifvqcn0","pricing_plan_id":"cebpf4jnsgd1na2vs0mg"},{"bike_id":"08aa4a0f-6472-4dd1-9ab2-6f45d502de3f","system_id":"levelo_inurba_marseille","lat":43.301392,"lon":5.374246,"is_reserved":false,"is_disabled":false,"rental_uris":{"android":"levelo://app?vid=08aa4a0f-6472-4dd1-9ab2-6f45d502de3f","ios":"levelo://app?vid=08aa4a0f-6472-4dd1-9ab2-6f45d502de3f"},"vehicle_type_id":"4","last_reported":1727684054,"current_range_meters":39200,"station_id":"ce4bgs92rcd13ifvqcc0","pricing_plan_id":"cebpf4jnsgd1na2vs0mg"},{"bike_id":"7199a17f-8505-4d54-b9b6-2ec943c49cf2","system_id":"levelo_inurba_marseille","lat":43.33031,"lon":5.39381,"is_reserved":false,"is_disabled":false,"rental_uris":{"android":"levelo://app?vid=7199a17f-8505-4d54-b9b6-2ec943c49cf2","ios":"levelo://app?vid=7199a17f-8505-4d54-b9b6-2ec943c49cf2"},"vehicle_type_id":"4","last_reported":1727684054,"current_range_meters":36800,"station_id":"","pricing_plan_id":"cebpf4jnsgd1na2vs0mg"},{"bike_id":"9f4b8806-0737-4c36-bde4-6bc8c0d0630a","system_id":"levelo_inurba_marseille","lat":43.2396,"lon":5.36633,"is_reserved":false,"is_disabled":false,"rental_uris":{"android":"levelo://app?vid=9f4b8806-0737-4c36-bde4-6bc8c0d0630a","ios":"levelo://app?vid=9f4b8806-0737-4c36-bde4-6bc8c0d0630a"},"vehicle_type_id":"4","last_reported":1727684054,"current_range_meters":40000,"station_id":"ce4bhi12rcd13ifvqfp0","pricing_plan_id":"cebpf4jnsgd1na2vs0mg"},{"bike_id":"e3931778-988b-4915-9d0a-b8542670c10b","system_id":"levelo_inurba_marseille","lat":43.32542,"lon":5.41446,"is_reserved":false,"is_disabled":false,"rental_uris":{"android":"levelo://app?vid=e3931778-988b-4915-9d0a-b8542670c10b","ios":"levelo://app?vid=e3931778-988b-4915-9d0a-b8542670c10b"},"vehicle_type_id":"4","last_reported":1727684054,"current_range_meters":27600,"station_id":"ce4bhq12rcd13ifvqhhg","pricing_plan_id":"cebpf4jnsgd1na2vs0mg"},{"bike_id":"c89039fe-3b7f-4d0f-81d3-7a380e2b76b7","system_id":"levelo_inurba_marseille","lat":43.23145,"lon":5.43701,"is_reserved":false,"is_disabled":false,"rental_uris":{"android":"levelo://app?vid=c89039fe-3b7f-4d0f-81d3-7a380e2b76b7","ios":"levelo://app?vid=c89039fe-3b7f-4d0f-81d3-7a380e2b76b7"},"vehicle_type_id":"4","last_reported":1727684054,"current_range_meters":16800,"station_id":"ce4bhmp2rcd13ifvqgog","pricing_plan_id":"cebpf4jnsgd1na2vs0mg"},{"bike_id":"78323160-a684-4351-8108-f7ebcc0842b2","system_id":"levelo_inurba_marseille","lat":43.23153,"lon":5.43711,"is_reserved":false,"is_disabled":false,"rental_uris":{"android":"levelo://app?vid=78323160-a684-4351-8108-f7ebcc0842b2","ios":"levelo://app?vid=78323160-a684-4351-8108-f7ebcc0842b2"},"vehicle_type_id":"4","last_reported":1727684054,"current_range_meters":16000,"station_id":"ce4bhmp2rcd13ifvqgog","pricing_plan_id":"cebpf4jnsgd1na2vs0mg"},{"bike_id":"0aff8ccb-c6d1-4d37-bc76-1b17caf59258","system_id":"levelo_inurba_marseille","lat":43.30142,"lon":5.37413,"is_reserved":false,"is_disabled":false,"rental_uris":{"android":"levelo://app?vid=0aff8ccb-c6d1-4d37-bc76-1b17caf59258","ios":"levelo://app?vid=0aff8ccb-c6d1-4d37-bc76-1b17caf59258"},"vehicle_type_id":"4","last_reported":1727684054,"current_range_meters":37600,"station_id":"ce4bgs92rcd13ifvqcc0","pricing_plan_id":"cebpf4jnsgd1na2vs0mg"},{"bike_id":"a96df9a9-f4b8-4603-9f37-7e22533cbaa1","system_id":"levelo_inurba_marseille","lat":43.30951,"lon":5.39043,"is_reserved":false,"is_disabled":false,"rental_uris":{"android":"levelo://app?vid=a96df9a9-f4b8-4603-9f37-7e22533cbaa1","ios":"levelo://app?vid=a96df9a9-f4b8-4603-9f37-7e22533cbaa1"},"vehicle_type_id":"4","last_reported":1727684054,"current_range_meters":2000,"station_id":"ce4bgup2rcd13ifvqco0","pricing_plan_id":"cebpf4jnsgd1na2vs0mg"},{"bike_id":"ab89ae6d-d720-438e-b6bd-997a68cb9954","system_id":"levelo_inurba_marseille","lat":43.27987,"lon":5.40018,"is_reserved":false,"is_disabled":false,"rental_uris":{"android":"levelo://app?vid=ab89ae6d-d720-438e-b6bd-997a68cb9954","ios":"levelo://app?vid=ab89ae6d-d720-438e-b6bd-997a68cb9954"},"vehicle_type_id":"4","last_reported":1727684054,"current_range_meters":38800,"station_id":"ce4bho92rcd13ifvqh4g","pricing_plan_id":"cebpf4jnsgd1na2vs0mg"},{"bike_id":"24f26dc1-6907-4265-afc2-82869a1fcbb2","system_id":"levelo_inurba_marseille","lat":43.30555,"lon":5.36525,"is_reserved":false,"is_disabled":false,"rental_uris":{"android":"levelo://app?vid=24f26dc1-6907-4265-afc2-82869a1fcbb2","ios":"levelo://app?vid=24f26dc1-6907-4265-afc2-82869a1fcbb2"},"vehicle_type_id":"4","last_reported":1727684054,"current_range_meters":21600,"station_id":"ce4bgs12rcd13ifvqcag","pricing_plan_id":"cebpf4jnsgd1na2vs0mg"},{"bike_id":"8e8f50d7-00f7-4064-ab0a-ca4e0d743fdd","system_id":"levelo_inurba_marseille","lat":43.25115,"lon":5.40326,"is_reserved":false,"is_disabled":false,"rental_uris":{"android":"levelo://app?vid=8e8f50d7-00f7-4064-ab0a-ca4e0d743fdd","ios":"levelo://app?vid=8e8f50d7-00f7-4064-ab0a-ca4e0d743fdd"},"vehicle_type_id":"4","last_reported":1727684054,"current_range_meters":1600,"station_id":"ce4bhlh2rcd13ifvqgig","pricing_plan_id":"cebpf4jnsgd1na2vs0mg"},{"bike_id":"aa69ea77-4a91-4601-9261-d3cacee7eb3d","system_id":"levelo_inurba_marseille","lat":43.30909,"lon":5.36862,"is_reserved":false,"is_disabled":false,"rental_uris":{"android":"levelo://app?vid=aa69ea77-4a91-4601-9261-d3cacee7eb3d","ios":"levelo://app?vid=aa69ea77-4a91-4601-9261-d3cacee7eb3d"},"vehicle_type_id":"4","last_reported":1727684054,"current_range_meters":38800,"station_id":"ce4bgn92rcd13ifvqbvg","pricing_plan_id":"cebpf4jnsgd1na2vs0mg"},{"bike_id":"c7bd2519-2094-49e9-9d5a-56c00b1a2b1c","system_id":"levelo_inurba_marseille","lat":43.26558,"lon":5.39028,"is_reserved":false,"is_disabled":false,"rental_uris":{"android":"levelo://app?vid=c7bd2519-2094-49e9-9d5a-56c00b1a2b1c","ios":"levelo://app?vid=c7bd2519-2094-49e9-9d5a-56c00b1a2b1c"},"vehicle_type_id":"4","last_reported":1727684054,"current_range_meters":38400,"station_id":"ce4bhe12rcd13ifvqf30","pricing_plan_id":"cebpf4jnsgd1na2vs0mg"},{"bike_id":"1ed095f5-d992-439d-8293-42cd1e535d29","system_id":"levelo_inurba_marseille","lat":43.33611,"lon":5.41031,"is_reserved":false,"is_disabled":false,"rental_uris":{"android":"levelo://app?vid=1ed095f5-d992-439d-8293-42cd1e535d29","ios":"levelo://app?vid=1ed095f5-d992-439d-8293-42cd1e535d29"},"vehicle_type_id":"4","last_reported":1727684054,"current_range_meters":30400,"station_id":"ce4bhqh2rcd13ifvqhmg","pricing_plan_id":"cebpf4jnsgd1na2vs0mg"},{"bike_id":"ad74eb91-1b07-4d1c-be32-c25e2bdd80e9","system_id":"levelo_inurba_marseille","lat":43.24082,"lon":5.37753,"is_reserved":false,"is_disabled":false,"rental_uris":{"android":"levelo://app?vid=ad74eb91-1b07-4d1c-be32-c25e2bdd80e9","ios":"levelo://app?vid=ad74eb91-1b07-4d1c-be32-c25e2bdd80e9"},"vehicle_type_id":"4","last_reported":1727684054,"current_range_meters":12000,"station_id":"ce4bhnp2rcd13ifvqgvg","pricing_plan_id":"cebpf4jnsgd1na2vs0mg"},{"bike_id":"2ab05bf8-eca7-437d-b897-4c5c531ec1af","system_id":"levelo_inurba_marseille","lat":43.31697,"lon":5.377473,"is_reserved":false,"is_disabled":false,"rental_uris":{"android":"levelo://app?vid=2ab05bf8-eca7-437d-b897-4c5c531ec1af","ios":"levelo://app?vid=2ab05bf8-eca7-437d-b897-4c5c531ec1af"},"vehicle_type_id":"4","last_reported":1727684054,"current_range_meters":4400,"station_id":"ce4bgth2rcd13ifvqch0","pricing_plan_id":"cebpf4jnsgd1na2vs0mg"},{"bike_id":"0d3d8b9e-e9aa-4d76-b660-fe94cd2b1f5c","system_id":"levelo_inurba_marseille","lat":43.30947,"lon":5.3903,"is_reserved":false,"is_disabled":false,"rental_uris":{"android":"levelo://app?vid=0d3d8b9e-e9aa-4d76-b660-fe94cd2b1f5c","ios":"levelo://app?vid=0d3d8b9e-e9aa-4d76-b660-fe94cd2b1f5c"},"vehicle_type_id":"4","last_reported":1727684054,"current_range_meters":25200,"station_id":"ce4bgup2rcd13ifvqco0","pricing_plan_id":"cebpf4jnsgd1na2vs0mg"},{"bike_id":"ece9fc5e-e0ee-4ca0-8f59-27887a2142cd","system_id":"levelo_inurba_marseille","lat":43.30541,"lon":5.36528,"is_reserved":false,"is_disabled":false,"rental_uris":{"android":"levelo://app?vid=ece9fc5e-e0ee-4ca0-8f59-27887a2142cd","ios":"levelo://app?vid=ece9fc5e-e0ee-4ca0-8f59-27887a2142cd"},"vehicle_type_id":"4","last_reported":1727684054,"current_range_meters":39200,"station_id":"ce4bgs12rcd13ifvqcag","pricing_plan_id":"cebpf4jnsgd1na2vs0mg"},{"bike_id":"593d4694-b30f-4bb6-9159-8d4ed8d9b09e","system_id":"levelo_inurba_marseille","lat":43.34146,"lon":5.40902,"is_reserved":false,"is_disabled":false,"rental_uris":{"android":"levelo://app?vid=593d4694-b30f-4bb6-9159-8d4ed8d9b09e","ios":"levelo://app?vid=593d4694-b30f-4bb6-9159-8d4ed8d9b09e"},"vehicle_type_id":"4","last_reported":1727684054,"current_range_meters":38400,"station_id":"ce4bhqh2rcd13ifvqhlg","pricing_plan_id":"cebpf4jnsgd1na2vs0mg"},{"bike_id":"37b4aafb-2b43-44ac-9811-3822d689cd57","system_id":"levelo_inurba_marseille","lat":43.30904,"lon":5.36852,"is_reserved":false,"is_disabled":false,"rental_uris":{"android":"levelo://app?vid=37b4aafb-2b43-44ac-9811-3822d689cd57","ios":"levelo://app?vid=37b4aafb-2b43-44ac-9811-3822d689cd57"},"vehicle_type_id":"4","last_reported":1727684054,"current_range_meters":25200,"station_id":"ce4bgn92rcd13ifvqbvg","pricing_plan_id":"cebpf4jnsgd1na2vs0mg"},{"bike_id":"16aef7bc-6e34-4da1-be38-669be00420e2","system_id":"levelo_inurba_marseille","lat":43.299,"lon":5.43677,"is_reserved":false,"is_disabled":false,"rental_uris":{"android":"levelo://app?vid=16aef7bc-6e34-4da1-be38-669be00420e2","ios":"levelo://app?vid=16aef7bc-6e34-4da1-be38-669be00420e2"},"vehicle_type_id":"4","last_reported":1727684054,"current_range_meters":24400,"station_id":"ce4bhpp2rcd13ifvqhfg","pricing_plan_id":"cebpf4jnsgd1na2vs0mg"},{"bike_id":"652e78a2-5f27-4063-ae3f-94f74753319e","system_id":"levelo_inurba_marseille","lat":43.29005,"lon":5.35616,"is_reserved":false,"is_disabled":false,"rental_uris":{"android":"levelo://app?vid=652e78a2-5f27-4063-ae3f-94f74753319e","ios":"levelo://app?vid=652e78a2-5f27-4063-ae3f-94f74753319e"},"vehicle_type_id":"4","last_reported":1727684054,"current_range_meters":39200,"station_id":"ce4bhb92rcd13ifvqen0","pricing_plan_id":"cebpf4jnsgd1na2vs0mg"},{"bike_id":"53f1b2f7-4012-4f91-9de8-ccd7a852925e","system_id":"levelo_inurba_marseille","lat":43.27492,"lon":5.42458,"is_reserved":false,"is_disabled":false,"rental_uris":{"android":"levelo://app?vid=53f1b2f7-4012-4f91-9de8-ccd7a852925e","ios":"levelo://app?vid=53f1b2f7-4012-4f91-9de8-ccd7a852925e"},"vehicle_type_id":"4","last_reported":1727684054,"current_range_meters":24800,"station_id":"ce4bhn92rcd13ifvqgrg","pricing_plan_id":"cebpf4jnsgd1na2vs0mg"},{"bike_id":"de6a9ca1-3625-4e92-b6fc-cd71be0895d9","system_id":"levelo_inurba_marseille","lat":43.27492,"lon":5.42453,"is_reserved":false,"is_disabled":false,"rental_uris":{"android":"levelo://app?vid=de6a9ca1-3625-4e92-b6fc-cd71be0895d9","ios":"levelo://app?vid=de6a9ca1-3625-4e92-b6fc-cd71be0895d9"},"vehicle_type_id":"4","last_reported":1727684054,"current_range_meters":23200,"station_id":"ce4bhn92rcd13ifvqgrg","pricing_plan_id":"cebpf4jnsgd1na2vs0mg"},{"bike_id":"f3eb5318-be75-4013-92e8-342d3c54666e","system_id":"levelo_inurba_marseille","lat":43.32535,"lon":5.41441,"is_reserved":false,"is_disabled":false,"rental_uris":{"android":"levelo://app?vid=f3eb5318-be75-4013-92e8-342d3c54666e","ios":"levelo://app?vid=f3eb5318-be75-4013-92e8-342d3c54666e"},"vehicle_type_id":"4","last_reported":1727684054,"current_range_meters":38800,"station_id":"ce4bhq12rcd13ifvqhhg","pricing_plan_id":"cebpf4jnsgd1na2vs0mg"},{"bike_id":"275b0a25-1a9f-498c-9202-be550b06c3de","system_id":"levelo_inurba_marseille","lat":43.32286,"lon":5.38279,"is_reserved":false,"is_disabled":false,"rental_uris":{"android":"levelo://app?vid=275b0a25-1a9f-498c-9202-be550b06c3de","ios":"levelo://app?vid=275b0a25-1a9f-498c-9202-be550b06c3de"},"vehicle_type_id":"4","last_reported":1727684054,"current_range_meters":38800,"station_id":"ce4bhr12rcd13ifvqhqg","pricing_plan_id":"cebpf4jnsgd1na2vs0mg"},{"bike_id":"3cb65a7d-426d-422d-9181-963d0dd320e6","system_id":"levelo_inurba_marseille","lat":43.31226,"lon":5.36872,"is_reserved":false,"is_disabled":false,"rental_uris":{"android":"levelo://app?vid=3cb65a7d-426d-422d-9181-963d0dd320e6","ios":"levelo://app?vid=3cb65a7d-426d-422d-9181-963d0dd320e6"},"vehicle_type_id":"4","last_reported":1727684054,"current_range_meters":28800,"station_id":"ce4bgl92rcd13ifvqbq0","pricing_plan_id":"cebpf4jnsgd1na2vs0mg"},{"bike_id":"5ff5c59b-a0ee-4fc7-a5d6-d26bc584b96f","system_id":"levelo_inurba_marseille","lat":43.31362,"lon":5.36701,"is_reserved":false,"is_disabled":false,"rental_uris":{"android":"levelo://app?vid=5ff5c59b-a0ee-4fc7-a5d6-d26bc584b96f","ios":"levelo://app?vid=5ff5c59b-a0ee-4fc7-a5d6-d26bc584b96f"},"vehicle_type_id":"4","last_reported":1727684054,"current_range_meters":18800,"station_id":"ce4bgr92rcd13ifvqc6g","pricing_plan_id":"cebpf4jnsgd1na2vs0mg"},{"bike_id":"743aaec9-5f87-4532-a234-302310d7174f","system_id":"levelo_inurba_marseille","lat":43.23153,"lon":5.43711,"is_reserved":false,"is_disabled":false,"rental_uris":{"android":"levelo://app?vid=743aaec9-5f87-4532-a234-302310d7174f","ios":"levelo://app?vid=743aaec9-5f87-4532-a234-302310d7174f"},"vehicle_type_id":"4","last_reported":1727684054,"current_range_meters":21600,"station_id":"ce4bhmp2rcd13ifvqgog","pricing_plan_id":"cebpf4jnsgd1na2vs0mg"},{"bike_id":"02831115-3e96-4e2e-b6e8-37c19567632e","system_id":"levelo_inurba_marseille","lat":43.31338,"lon":5.36741,"is_reserved":false,"is_disabled":false,"rental_uris":{"android":"levelo://app?vid=02831115-3e96-4e2e-b6e8-37c19567632e","ios":"levelo://app?vid=02831115-3e96-4e2e-b6e8-37c19567632e"},"vehicle_type_id":"4","last_reported":1727684054,"current_range_meters":31200,"station_id":"ce4bgr92rcd13ifvqc6g","pricing_plan_id":"cebpf4jnsgd1na2vs0mg"},{"bike_id":"68045304-da17-423e-8397-34e9397e4f81","system_id":"levelo_inurba_marseille","lat":43.3079,"lon":5.38162,"is_reserved":false,"is_disabled":false,"rental_uris":{"android":"levelo://app?vid=68045304-da17-423e-8397-34e9397e4f81","ios":"levelo://app?vid=68045304-da17-423e-8397-34e9397e4f81"},"vehicle_type_id":"4","last_reported":1727684054,"current_range_meters":30400,"station_id":"ce4bgt12rcd13ifvqce0","pricing_plan_id":"cebpf4jnsgd1na2vs0mg"},{"bike_id":"a12f51b5-a775-4980-ab61-36d31c556bd7","system_id":"levelo_inurba_marseille","lat":43.30896,"lon":5.37208,"is_reserved":false,"is_disabled":false,"rental_uris":{"android":"levelo://app?vid=a12f51b5-a775-4980-ab61-36d31c556bd7","ios":"levelo://app?vid=a12f51b5-a775-4980-ab61-36d31c556bd7"},"vehicle_type_id":"4","last_reported":1727684054,"current_range_meters":6400,"station_id":"ce4bguh2rcd13ifvqckg","pricing_plan_id":"cebpf4jnsgd1na2vs0mg"},{"bike_id":"075d0778-1278-45f4-be16-8ca4f062658f","system_id":"levelo_inurba_marseille","lat":43.29303,"lon":5.37466,"is_reserved":false,"is_disabled":false,"rental_uris":{"android":"levelo://app?vid=075d0778-1278-45f4-be16-8ca4f062658f","ios":"levelo://app?vid=075d0778-1278-45f4-be16-8ca4f062658f"},"vehicle_type_id":"4","last_reported":1727684054,"current_range_meters":27600,"station_id":"ce4bgi12rcd13ifvqb70","pricing_plan_id":"cebpf4jnsgd1na2vs0mg"},{"bike_id":"aa645bce-2fe9-4223-87ff-0aca3a5a18be","system_id":"levelo_inurba_marseille","lat":43.292664,"lon":5.401123,"is_reserved":false,"is_disabled":false,"rental_uris":{"android":"levelo://app?vid=aa645bce-2fe9-4223-87ff-0aca3a5a18be","ios":"levelo://app?vid=aa645bce-2fe9-4223-87ff-0aca3a5a18be"},"vehicle_type_id":"4","last_reported":1727684054,"current_range_meters":33600,"station_id":"ce4bh312rcd13ifvqdk0","pricing_plan_id":"cebpf4jnsgd1na2vs0mg"},{"bike_id":"85dc8084-1ba3-40bf-9756-e39b2df95291","system_id":"levelo_inurba_marseille","lat":43.313547,"lon":5.367257,"is_reserved":false,"is_disabled":false,"rental_uris":{"android":"levelo://app?vid=85dc8084-1ba3-40bf-9756-e39b2df95291","ios":"levelo://app?vid=85dc8084-1ba3-40bf-9756-e39b2df95291"},"vehicle_type_id":"4","last_reported":1727684054,"current_range_meters":15200,"station_id":"ce4bgr92rcd13ifvqc6g","pricing_plan_id":"cebpf4jnsgd1na2vs0mg"},{"bike_id":"c3840656-d50f-4e0e-8444-9f4d33172a37","system_id":"levelo_inurba_marseille","lat":43.27497,"lon":5.42449,"is_reserved":false,"is_disabled":false,"rental_uris":{"android":"levelo://app?vid=c3840656-d50f-4e0e-8444-9f4d33172a37","ios":"levelo://app?vid=c3840656-d50f-4e0e-8444-9f4d33172a37"},"vehicle_type_id":"4","last_reported":1727684054,"current_range_meters":31200,"station_id":"ce4bhn92rcd13ifvqgrg","pricing_plan_id":"cebpf4jnsgd1na2vs0mg"},{"bike_id":"20cb3451-c87b-4134-b73b-5aa2b7adc4a8","system_id":"levelo_inurba_marseille","lat":43.30909,"lon":5.36861,"is_reserved":false,"is_disabled":false,"rental_uris":{"android":"levelo://app?vid=20cb3451-c87b-4134-b73b-5aa2b7adc4a8","ios":"levelo://app?vid=20cb3451-c87b-4134-b73b-5aa2b7adc4a8"},"vehicle_type_id":"4","last_reported":1727684054,"current_range_meters":23200,"station_id":"ce4bgn92rcd13ifvqbvg","pricing_plan_id":"cebpf4jnsgd1na2vs0mg"},{"bike_id":"03127d5b-4d21-4c1c-8753-af36215e309d","system_id":"levelo_inurba_marseille","lat":43.23155,"lon":5.43711,"is_reserved":false,"is_disabled":false,"rental_uris":{"android":"levelo://app?vid=03127d5b-4d21-4c1c-8753-af36215e309d","ios":"levelo://app?vid=03127d5b-4d21-4c1c-8753-af36215e309d"},"vehicle_type_id":"4","last_reported":1727684054,"current_range_meters":25200,"station_id":"ce4bhmp2rcd13ifvqgog","pricing_plan_id":"cebpf4jnsgd1na2vs0mg"},{"bike_id":"98a09996-2d0a-4949-a68c-797355264897","system_id":"levelo_inurba_marseille","lat":43.27491,"lon":5.42463,"is_reserved":false,"is_disabled":false,"rental_uris":{"android":"levelo://app?vid=98a09996-2d0a-4949-a68c-797355264897","ios":"levelo://app?vid=98a09996-2d0a-4949-a68c-797355264897"},"vehicle_type_id":"4","last_reported":1727684054,"current_range_meters":25600,"station_id":"ce4bhn92rcd13ifvqgrg","pricing_plan_id":"cebpf4jnsgd1na2vs0mg"},{"bike_id":"e7de440b-45ed-46a8-99b6-cf20a42fade8","system_id":"levelo_inurba_marseille","lat":43.32286,"lon":5.38277,"is_reserved":false,"is_disabled":false,"rental_uris":{"android":"levelo://app?vid=e7de440b-45ed-46a8-99b6-cf20a42fade8","ios":"levelo://app?vid=e7de440b-45ed-46a8-99b6-cf20a42fade8"},"vehicle_type_id":"4","last_reported":1727684054,"current_range_meters":30400,"station_id":"ce4bhr12rcd13ifvqhqg","pricing_plan_id":"cebpf4jnsgd1na2vs0mg"},{"bike_id":"e4361fa2-90d9-45ff-9d8a-e7b112f4e011","system_id":"levelo_inurba_marseille","lat":43.285044,"lon":5.391236,"is_reserved":false,"is_disabled":false,"rental_uris":{"android":"levelo://app?vid=e4361fa2-90d9-45ff-9d8a-e7b112f4e011","ios":"levelo://app?vid=e4361fa2-90d9-45ff-9d8a-e7b112f4e011"},"vehicle_type_id":"4","last_reported":1727684054,"current_range_meters":24400,"station_id":"ce4bh3p2rcd13ifvqdp0","pricing_plan_id":"cebpf4jnsgd1na2vs0mg"},{"bike_id":"6d4229e8-13ca-4e6b-8873-615ad0f90a03","system_id":"levelo_inurba_marseille","lat":43.2679,"lon":5.39413,"is_reserved":false,"is_disabled":false,"rental_uris":{"android":"levelo://app?vid=6d4229e8-13ca-4e6b-8873-615ad0f90a03","ios":"levelo://app?vid=6d4229e8-13ca-4e6b-8873-615ad0f90a03"},"vehicle_type_id":"4","last_reported":1727684054,"current_range_meters":12800,"station_id":"ce4bhh12rcd13ifvqfg0","pricing_plan_id":"cebpf4jnsgd1na2vs0mg"},{"bike_id":"238dd7bb-5ad8-4e43-a0ca-0adde20a0833","system_id":"levelo_inurba_marseille","lat":43.27321,"lon":5.39079,"is_reserved":false,"is_disabled":false,"rental_uris":{"android":"levelo://app?vid=238dd7bb-5ad8-4e43-a0ca-0adde20a0833","ios":"levelo://app?vid=238dd7bb-5ad8-4e43-a0ca-0adde20a0833"},"vehicle_type_id":"4","last_reported":1727684054,"current_range_meters":28800,"station_id":"ce4bhgp2rcd13ifvqfe0","pricing_plan_id":"cebpf4jnsgd1na2vs0mg"},{"bike_id":"58556d49-c880-488f-bbc8-312024e5ca7b","system_id":"levelo_inurba_marseille","lat":43.283447,"lon":5.386374,"is_reserved":false,"is_disabled":false,"rental_uris":{"android":"levelo://app?vid=58556d49-c880-488f-bbc8-312024e5ca7b","ios":"levelo://app?vid=58556d49-c880-488f-bbc8-312024e5ca7b"},"vehicle_type_id":"4","last_reported":1727684054,"current_range_meters":19600,"station_id":"ce4bh492rcd13ifvqdvg","pricing_plan_id":"cebpf4jnsgd1na2vs0mg"},{"bike_id":"91f4a15d-cfb5-453c-b5d2-3698a330ef68","system_id":"levelo_inurba_marseille","lat":43.28699,"lon":5.37395,"is_reserved":false,"is_disabled":false,"rental_uris":{"android":"levelo://app?vid=91f4a15d-cfb5-453c-b5d2-3698a330ef68","ios":"levelo://app?vid=91f4a15d-cfb5-453c-b5d2-3698a330ef68"},"vehicle_type_id":"4","last_reported":1727684054,"current_range_meters":38800,"station_id":"ce4bh3p2rcd13ifvqdq0","pricing_plan_id":"cebpf4jnsgd1na2vs0mg"},{"bike_id":"f4907c76-b743-49c5-9a21-dc7896bd4c92","system_id":"levelo_inurba_marseille","lat":43.2731,"lon":5.39079,"is_reserved":false,"is_disabled":false,"rental_uris":{"android":"levelo://app?vid=f4907c76-b743-49c5-9a21-dc7896bd4c92","ios":"levelo://app?vid=f4907c76-b743-49c5-9a21-dc7896bd4c92"},"vehicle_type_id":"4","last_reported":1727684054,"current_range_meters":24000,"station_id":"ce4bhgp2rcd13ifvqfe0","pricing_plan_id":"cebpf4jnsgd1na2vs0mg"},{"bike_id":"36f05c4b-38b9-4722-994c-67db57214abb","system_id":"levelo_inurba_marseille","lat":43.31234,"lon":5.36876,"is_reserved":false,"is_disabled":false,"rental_uris":{"android":"levelo://app?vid=36f05c4b-38b9-4722-994c-67db57214abb","ios":"levelo://app?vid=36f05c4b-38b9-4722-994c-67db57214abb"},"vehicle_type_id":"4","last_reported":1727684054,"current_range_meters":26000,"station_id":"ce4bgl92rcd13ifvqbq0","pricing_plan_id":"cebpf4jnsgd1na2vs0mg"},{"bike_id":"b4c39d4b-0aff-4869-989b-ba0d1edc59c1","system_id":"levelo_inurba_marseille","lat":43.275,"lon":5.42455,"is_reserved":false,"is_disabled":false,"rental_uris":{"android":"levelo://app?vid=b4c39d4b-0aff-4869-989b-ba0d1edc59c1","ios":"levelo://app?vid=b4c39d4b-0aff-4869-989b-ba0d1edc59c1"},"vehicle_type_id":"4","last_reported":1727684054,"current_range_meters":27600,"station_id":"ce4bhn92rcd13ifvqgrg","pricing_plan_id":"cebpf4jnsgd1na2vs0mg"},{"bike_id":"406f3d7c-8f11-41f4-857b-2d92be57ddb4","system_id":"levelo_inurba_marseille","lat":43.30473,"lon":5.37901,"is_reserved":false,"is_disabled":false,"rental_uris":{"android":"levelo://app?vid=406f3d7c-8f11-41f4-857b-2d92be57ddb4","ios":"levelo://app?vid=406f3d7c-8f11-41f4-857b-2d92be57ddb4"},"vehicle_type_id":"4","last_reported":1727684054,"current_range_meters":10800,"station_id":"ce4bgup2rcd13ifvqcn0","pricing_plan_id":"cebpf4jnsgd1na2vs0mg"},{"bike_id":"4031f65c-a421-4d09-a0e2-193626b8cce1","system_id":"levelo_inurba_marseille","lat":43.33023,"lon":5.39044,"is_reserved":false,"is_disabled":false,"rental_uris":{"android":"levelo://app?vid=4031f65c-a421-4d09-a0e2-193626b8cce1","ios":"levelo://app?vid=4031f65c-a421-4d09-a0e2-193626b8cce1"},"vehicle_type_id":"4","last_reported":1727684054,"current_range_meters":33600,"station_id":"ce4bhr92rcd13ifvqhrg","pricing_plan_id":"cebpf4jnsgd1na2vs0mg"},{"bike_id":"49103c36-092f-43a6-a665-96ac4218adb8","system_id":"levelo_inurba_marseille","lat":43.32294,"lon":5.38273,"is_reserved":false,"is_disabled":false,"rental_uris":{"android":"levelo://app?vid=49103c36-092f-43a6-a665-96ac4218adb8","ios":"levelo://app?vid=49103c36-092f-43a6-a665-96ac4218adb8"},"vehicle_type_id":"4","last_reported":1727684054,"current_range_meters":38800,"station_id":"ce4bhr12rcd13ifvqhqg","pricing_plan_id":"cebpf4jnsgd1na2vs0mg"},{"bike_id":"e0de1742-9d94-403a-a3a3-2cfc26e18c8f","system_id":"levelo_inurba_marseille","lat":43.31231,"lon":5.36892,"is_reserved":false,"is_disabled":false,"rental_uris":{"android":"levelo://app?vid=e0de1742-9d94-403a-a3a3-2cfc26e18c8f","ios":"levelo://app?vid=e0de1742-9d94-403a-a3a3-2cfc26e18c8f"},"vehicle_type_id":"4","last_reported":1727684054,"current_range_meters":23200,"station_id":"ce4bgl92rcd13ifvqbq0","pricing_plan_id":"cebpf4jnsgd1na2vs0mg"},{"bike_id":"5c27e096-999b-4b83-b5c1-d02c09560974","system_id":"levelo_inurba_marseille","lat":43.290009,"lon":5.356124,"is_reserved":false,"is_disabled":false,"rental_uris":{"android":"levelo://app?vid=5c27e096-999b-4b83-b5c1-d02c09560974","ios":"levelo://app?vid=5c27e096-999b-4b83-b5c1-d02c09560974"},"vehicle_type_id":"4","last_reported":1727684054,"current_range_meters":6400,"station_id":"ce4bhb92rcd13ifvqen0","pricing_plan_id":"cebpf4jnsgd1na2vs0mg"},{"bike_id":"659d253e-0229-453c-85e5-3ade3b9ea1fe","system_id":"levelo_inurba_marseille","lat":43.27491,"lon":5.42455,"is_reserved":false,"is_disabled":false,"rental_uris":{"android":"levelo://app?vid=659d253e-0229-453c-85e5-3ade3b9ea1fe","ios":"levelo://app?vid=659d253e-0229-453c-85e5-3ade3b9ea1fe"},"vehicle_type_id":"4","last_reported":1727684054,"current_range_meters":3200,"station_id":"ce4bhn92rcd13ifvqgrg","pricing_plan_id":"cebpf4jnsgd1na2vs0mg"},{"bike_id":"acbda63c-dbd1-4c18-8049-4209d813bc5e","system_id":"levelo_inurba_marseille","lat":43.27486,"lon":5.42454,"is_reserved":false,"is_disabled":false,"rental_uris":{"android":"levelo://app?vid=acbda63c-dbd1-4c18-8049-4209d813bc5e","ios":"levelo://app?vid=acbda63c-dbd1-4c18-8049-4209d813bc5e"},"vehicle_type_id":"4","last_reported":1727684054,"current_range_meters":29600,"station_id":"ce4bhn92rcd13ifvqgrg","pricing_plan_id":"cebpf4jnsgd1na2vs0mg"},{"bike_id":"6f0f9c32-de70-4574-9b89-cca29ab0554e","system_id":"levelo_inurba_marseille","lat":43.337444,"lon":5.374475,"is_reserved":false,"is_disabled":false,"rental_uris":{"android":"levelo://app?vid=6f0f9c32-de70-4574-9b89-cca29ab0554e","ios":"levelo://app?vid=6f0f9c32-de70-4574-9b89-cca29ab0554e"},"vehicle_type_id":"4","last_reported":1727684054,"current_range_meters":22400,"station_id":"","pricing_plan_id":"cebpf4jnsgd1na2vs0mg"},{"bike_id":"e81c534f-9b46-49f6-a76e-ba049404d3cf","system_id":"levelo_inurba_marseille","lat":43.3136,"lon":5.36722,"is_reserved":false,"is_disabled":false,"rental_uris":{"android":"levelo://app?vid=e81c534f-9b46-49f6-a76e-ba049404d3cf","ios":"levelo://app?vid=e81c534f-9b46-49f6-a76e-ba049404d3cf"},"vehicle_type_id":"4","last_reported":1727684054,"current_range_meters":34000,"station_id":"ce4bgr92rcd13ifvqc6g","pricing_plan_id":"cebpf4jnsgd1na2vs0mg"},{"bike_id":"b9897cf6-b27e-4987-8a36-ce737823aa7b","system_id":"levelo_inurba_marseille","lat":43.32305,"lon":5.38292,"is_reserved":false,"is_disabled":false,"rental_uris":{"android":"levelo://app?vid=b9897cf6-b27e-4987-8a36-ce737823aa7b","ios":"levelo://app?vid=b9897cf6-b27e-4987-8a36-ce737823aa7b"},"vehicle_type_id":"4","last_reported":1727684054,"current_range_meters":37600,"station_id":"ce4bhr12rcd13ifvqhqg","pricing_plan_id":"cebpf4jnsgd1na2vs0mg"},{"bike_id":"0687a646-be72-47a3-8907-22e0afb02a46","system_id":"levelo_inurba_marseille","lat":43.23957,"lon":5.36629,"is_reserved":false,"is_disabled":false,"rental_uris":{"android":"levelo://app?vid=0687a646-be72-47a3-8907-22e0afb02a46","ios":"levelo://app?vid=0687a646-be72-47a3-8907-22e0afb02a46"},"vehicle_type_id":"4","last_reported":1727684054,"current_range_meters":25600,"station_id":"ce4bhi12rcd13ifvqfp0","pricing_plan_id":"cebpf4jnsgd1na2vs0mg"},{"bike_id":"7cd461bf-fd57-40be-9cef-8bd1ae7fe910","system_id":"levelo_inurba_marseille","lat":43.29034,"lon":5.37565,"is_reserved":false,"is_disabled":false,"rental_uris":{"android":"levelo://app?vid=7cd461bf-fd57-40be-9cef-8bd1ae7fe910","ios":"levelo://app?vid=7cd461bf-fd57-40be-9cef-8bd1ae7fe910"},"vehicle_type_id":"4","last_reported":1727684054,"current_range_meters":17200,"station_id":"ce4bh692rcd13ifvqe90","pricing_plan_id":"cebpf4jnsgd1na2vs0mg"},{"bike_id":"591df501-a73f-43d2-bbfb-9426ba66c201","system_id":"levelo_inurba_marseille","lat":43.30543,"lon":5.36708,"is_reserved":false,"is_disabled":false,"rental_uris":{"android":"levelo://app?vid=591df501-a73f-43d2-bbfb-9426ba66c201","ios":"levelo://app?vid=591df501-a73f-43d2-bbfb-9426ba66c201"},"vehicle_type_id":"4","last_reported":1727684054,"current_range_meters":27600,"station_id":"ce4bgrp2rcd13ifvqc9g","pricing_plan_id":"cebpf4jnsgd1na2vs0mg"},{"bike_id":"49218039-50a1-43b5-b1ce-9b0e865ba1f7","system_id":"levelo_inurba_marseille","lat":43.31344,"lon":5.36735,"is_reserved":false,"is_disabled":false,"rental_uris":{"android":"levelo://app?vid=49218039-50a1-43b5-b1ce-9b0e865ba1f7","ios":"levelo://app?vid=49218039-50a1-43b5-b1ce-9b0e865ba1f7"},"vehicle_type_id":"4","last_reported":1727684054,"current_range_meters":35600,"station_id":"ce4bgr92rcd13ifvqc6g","pricing_plan_id":"cebpf4jnsgd1na2vs0mg"},{"bike_id":"90c05d40-f5db-4a12-95b3-f8d41ae2e51b","system_id":"levelo_inurba_marseille","lat":43.32377,"lon":5.3892,"is_reserved":false,"is_disabled":false,"rental_uris":{"android":"levelo://app?vid=90c05d40-f5db-4a12-95b3-f8d41ae2e51b","ios":"levelo://app?vid=90c05d40-f5db-4a12-95b3-f8d41ae2e51b"},"vehicle_type_id":"4","last_reported":1727684054,"current_range_meters":26000,"station_id":"ce4bhqp2rcd13ifvqhog","pricing_plan_id":"cebpf4jnsgd1na2vs0mg"},{"bike_id":"47de87f8-244c-4665-af6e-19fd7d9f6b6d","system_id":"levelo_inurba_marseille","lat":43.29416,"lon":5.3862,"is_reserved":false,"is_disabled":false,"rental_uris":{"android":"levelo://app?vid=47de87f8-244c-4665-af6e-19fd7d9f6b6d","ios":"levelo://app?vid=47de87f8-244c-4665-af6e-19fd7d9f6b6d"},"vehicle_type_id":"4","last_reported":1727684054,"current_range_meters":22800,"station_id":"ce4bh2h2rcd13ifvqdh0","pricing_plan_id":"cebpf4jnsgd1na2vs0mg"},{"bike_id":"d8aced43-4b68-4b4e-9432-8f1d2ddc4add","system_id":"levelo_inurba_marseille","lat":43.30468,"lon":5.37914,"is_reserved":false,"is_disabled":false,"rental_uris":{"android":"levelo://app?vid=d8aced43-4b68-4b4e-9432-8f1d2ddc4add","ios":"levelo://app?vid=d8aced43-4b68-4b4e-9432-8f1d2ddc4add"},"vehicle_type_id":"4","last_reported":1727684054,"current_range_meters":38800,"station_id":"ce4bgup2rcd13ifvqcn0","pricing_plan_id":"cebpf4jnsgd1na2vs0mg"},{"bike_id":"b18fb3e3-4ebe-4164-ba10-8087d6fcc0f0","system_id":"levelo_inurba_marseille","lat":43.24808,"lon":5.37457,"is_reserved":false,"is_disabled":false,"rental_uris":{"android":"levelo://app?vid=b18fb3e3-4ebe-4164-ba10-8087d6fcc0f0","ios":"levelo://app?vid=b18fb3e3-4ebe-4164-ba10-8087d6fcc0f0"},"vehicle_type_id":"4","last_reported":1727684054,"current_range_meters":38400,"station_id":"ce4bhgh2rcd13ifvqfb0","pricing_plan_id":"cebpf4jnsgd1na2vs0mg"},{"bike_id":"ad849844-2b79-4647-a70b-b8bdc7c4d534","system_id":"levelo_inurba_marseille","lat":43.29579,"lon":5.37509,"is_reserved":false,"is_disabled":false,"rental_uris":{"android":"levelo://app?vid=ad849844-2b79-4647-a70b-b8bdc7c4d534","ios":"levelo://app?vid=ad849844-2b79-4647-a70b-b8bdc7c4d534"},"vehicle_type_id":"4","last_reported":1727684054,"current_range_meters":38800,"station_id":"ce4bgh92rcd13ifvqb50","pricing_plan_id":"cebpf4jnsgd1na2vs0mg"},