{"last_updated":1761646291,"ttl":60,"version":"2.2","data":{"bikes":[{"bike_id":"a3e621ac-ddcd-4be3-978b-0f7aa74b0b3c","system_id":"levelo_inurba_marseille","lat":43.29629,"lon":5.4059,"is_reserved":false,"is_disabled":false,"rental_uris":{"android":"levelo://app?vid=a3e621ac-ddcd-4be3-978b-0f7aa74b0b3c","ios":"levelo://app?vid=a3e621ac-ddcd-4be3-978b-0f7aa74b0b3c"},"vehicle_type_id":"4","last_reported":1761646291,"current_range_meters":2800,"station_id":"ce4bh0h2rcd13ifvqd60","pricing_plan_id":"cebpf4jnsgd1na2vs0mg"},{"bike_id":"ca1c602e-df5f-4e08-aad7-43ca8ba1f695","system_id":"levelo_inurba_marseille","lat":43.27217,"lon":5.39175,"is_reserved":false,"is_disabled":false,"rental_uris":{"android":"levelo://app?vid=ca1c602e-df5f-4e08-aad7-43ca8ba1f695","ios":"levelo://app?vid=ca1c602e-df5f-4e08-aad7-43ca8ba1f695"},"vehicle_type_id":"4","last_reported":1761646291,"current_range_meters":2800,"station_id":"ce4bhhp2rcd13ifvqfm0","pricing_plan_id":"cebpf4jnsgd1na2vs0mg"},{"bike_id":"1ed9ca78-6a6e-4b3c-bb08-868d9f84e7a9","system_id":"levelo_inurba_marseille","lat":43.26952,"lon":5.3863,"is_reserved":false,"is_disabled":false,"rental_uris":{"android":"levelo://app?vid=1ed9ca78-6a6e-4b3c-bb08-868d9f84e7a9","ios":"levelo://app?vid=1ed9ca78-6a6e-4b3c-bb08-868d9f84e7a9"},"vehicle_type_id":"4","last_reported":1761646291,"current_range_meters":3200,"station_id":"ce4bhh92rcd13ifvqfh0","pricing_plan_id":"cebpf4jnsgd1na2vs0mg"},{"bike_id":"6b07f98d-fe55-4e0f-a8d5-45d225510bc9","system_id":"levelo_inurba_marseille","lat":43.29798,"lon":5.3711,"is_reserved":false,"is_disabled":false,"rental_uris":{"android":"levelo://app?vid=6b07f98d-fe55-4e0f-a8d5-45d225510bc9","ios":"levelo://app?vid=6b07f98d-fe55-4e0f-a8d5-45d225510bc9"},"vehicle_type_id":"4","last_reported":1761646291,"current_range_meters":3200,"station_id":"ce4bgop2rcd13ifvqc1g","pricing_plan_id":"cebpf4jnsgd1na2vs0mg"},{"bike_id":"dd539c3d-8244-460c-97df-764a86a3f675","system_id":"levelo_inurba_marseille","lat":43.286285,"lon":5.359264,"is_reserved":false,"is_disabled":false,"rental_uris":{"android":"levelo://app?vid=dd539c3d-8244-460c-97df-764a86a3f675","ios":"levelo://app?vid=dd539c3d-8244-460c-97df-764a86a3f675"},"vehicle_type_id":"4","last_reported":1761646291,"current_range_meters":3200,"station_id":"","pricing_plan_id":"cebpf4jnsgd1na2vs0mg"},{"bike_id":"b8470f0e-6453-476c-af6d-d4fadadf4cfb","system_id":"levelo_inurba_marseille","lat":43.26567,"lon":5.37278,"is_reserved":false,"is_disabled":false,"rental_uris":{"android":"levelo://app?vid=b8470f0e-6453-476c-af6d-d4fadadf4cfb","ios":"levelo://app?vid=b8470f0e-6453-476c-af6d-d4fadadf4cfb"},"vehicle_type_id":"4","last_reported":1761646291,"current_range_meters":3600,"station_id":"ce4bhg12rcd13ifvqf70","pricing_plan_id":"cebpf4jnsgd1na2vs0mg"},{"bike_id":"1b48f07a-6509-479a-b2a3-e1ebebd17894","system_id":"levelo_inurba_marseille","lat":43.30542,"lon":5.36696,"is_reserved":false,"is_disabled":true,"rental_uris":{"android":"levelo://app?vid=1b48f07a-6509-479a-b2a3-e1ebebd17894","ios":"levelo://app?vid=1b48f07a-6509-479a-b2a3-e1ebebd17894"},"vehicle_type_id":"4","last_reported":1761646291,"current_range_meters":4000,"station_id":"ce4bgrp2rcd13ifvqc9g","pricing_plan_id":"cebpf4jnsgd1na2vs0mg"},{"bike_id":"515996c4-1a2b-4560-8e0e-c6e49415e0f6","system_id":"levelo_inurba_marseille","lat":43.28671,"lon":5.36354,"is_reserved":false,"is_disabled":false,"rental_uris":{"android":"levelo://app?vid=515996c4-1a2b-4560-8e0e-c6e49415e0f6","ios":"levelo://app?vid=515996c4-1a2b-4560-8e0e-c6e49415e0f6"},"vehicle_type_id":"4","last_reported":1761646291,"current_range_meters":4400,"station_id":"ce4bhah2rcd13ifvqej0","pricing_plan_id":"cebpf4jnsgd1na2vs0mg"},{"bike_id":"e31adebb-66b9-44e9-8c60-2f3c56003d66","system_id":"levelo_inurba_marseille","lat":43.29841,"lon":5.36263,"is_reserved":false,"is_disabled":false,"rental_uris":{"android":"levelo://app?vid=e31adebb-66b9-44e9-8c60-2f3c56003d66","ios":"levelo://app?vid=e31adebb-66b9-44e9-8c60-2f3c56003d66"},"vehicle_type_id":"4","last_reported":1761646291,"current_range_meters":4800,"station_id":"ce4bgpp2rcd13ifvqc3g","pricing_plan_id":"cebpf4jnsgd1na2vs0mg"},{"bike_id":"c0b81f28-bbba-4247-a74b-c55a34b31846","system_id":"levelo_inurba_marseille","lat":43.33258,"lon":5.41086,"is_reserved":false,"is_disabled":true,"rental_uris":{"android":"levelo://app?vid=c0b81f28-bbba-4247-a74b-c55a34b31846","ios":"levelo://app?vid=c0b81f28-bbba-4247-a74b-c55a34b31846"},"vehicle_type_id":"4","last_reported":1761646291,"current_range_meters":4800,"station_id":"","pricing_plan_id":"cebpf4jnsgd1na2vs0mg"},{"bike_id":"7f291b72-44df-4592-81f1-112aee29185e","system_id":"levelo_inurba_marseille","lat":43.3055,"lon":5.36696,"is_reserved":false,"is_disabled":false,"rental_uris":{"android":"levelo://app?vid=7f291b72-44df-4592-81f1-112aee29185e","ios":"levelo://app?vid=7f291b72-44df-4592-81f1-112aee29185e"},"vehicle_type_id":"4","last_reported":1761646291,"current_range_meters":4800,"station_id":"ce4bgrp2rcd13ifvqc9g","pricing_plan_id":"cebpf4jnsgd1na2vs0mg"},{"bike_id":"a0a6ce23-13ec-4fe1-a57a-cf3a8ac1e91f","system_id":"levelo_inurba_marseille","lat":43.29968,"lon":5.3849,"is_reserved":false,"is_disabled":false,"rental_uris":{"android":"levelo://app?vid=a0a6ce23-13ec-4fe1-a57a-cf3a8ac1e91f","ios":"levelo://app?vid=a0a6ce23-13ec-4fe1-a57a-cf3a8ac1e91f"},"vehicle_type_id":"4","last_reported":1761646291,"current_range_meters":4800,"station_id":"ce4bgj92rcd13ifvqbd0","pricing_plan_id":"cebpf4jnsgd1na2vs0mg"},{"bike_id":"9730f67b-3515-47de-97a6-e772c4e15f1a","system_id":"levelo_inurba_marseille","lat":43.30459,"lon":5.379,"is_reserved":false,"is_disabled":false,"rental_uris":{"android":"levelo://app?vid=9730f67b-3515-47de-97a6-e772c4e15f1a","ios":"levelo://app?vid=9730f67b-3515-47de-97a6-e772c4e15f1a"},"vehicle_type_id":"4","last_reported":1761646291,"current_range_meters":4800,"station_id":"ce4bgup2rcd13ifvqcn0","pricing_plan_id":"cebpf4jnsgd1na2vs0mg"},{"bike_id":"89f5e288-30f7-4d5e-84c5-aebc375a274f","system_id":"levelo_inurba_marseille","lat":43.30542,"lon":5.36622,"is_reserved":false,"is_disabled":false,"rental_uris":{"android":"levelo://app?vid=89f5e288-30f7-4d5e-84c5-aebc375a274f","ios":"levelo://app?vid=89f5e288-30f7-4d5e-84c5-aebc375a274f"},"vehicle_type_id":"4","last_reported":1761646291,"current_range_meters":4800,"station_id":"","pricing_plan_id":"cebpf4jnsgd1na2vs0mg"},{"bike_id":"41d45b45-3a52-4b5a-b2b3-1e62d5490ada","system_id":"levelo_inurba_marseille","lat":43.285269,"lon":5.440978,"is_reserved":false,"is_disabled":false,"rental_uris":{"android":"levelo://app?vid=41d45b45-3a52-4b5a-b2b3-1e62d5490ada","ios":"levelo://app?vid=41d45b45-3a52-4b5a-b2b3-1e62d5490ada"},"vehicle_type_id":"4","last_reported":1761646291,"current_range_meters":5600,"station_id":"st_d3j3df2ikq2c7380ej80","pricing_plan_id":"cebpf4jnsgd1na2vs0mg"},{"bike_id":"28eddb5b-069d-4731-bfcb-58ca5b74d73d","system_id":"levelo_inurba_marseille","lat":43.306438,"lon":5.400786,"is_reserved":false,"is_disabled":false,"rental_uris":{"android":"levelo://app?vid=28eddb5b-069d-4731-bfcb-58ca5b74d73d","ios":"levelo://app?vid=28eddb5b-069d-4731-bfcb-58ca5b74d73d"},"vehicle_type_id":"4","last_reported":1761646291,"current_range_meters":5600,"station_id":"ce4bh112rcd13ifvqda0","pricing_plan_id":"cebpf4jnsgd1na2vs0mg"},{"bike_id":"64b75b4a-3497-4861-8cc2-90dd62cd9f5e","system_id":"levelo_inurba_marseille","lat":43.293001,"lon":5.434495,"is_reserved":false,"is_disabled":false,"rental_uris":{"android":"levelo://app?vid=64b75b4a-3497-4861-8cc2-90dd62cd9f5e","ios":"levelo://app?vid=64b75b4a-3497-4861-8cc2-90dd62cd9f5e"},"vehicle_type_id":"4","last_reported":1761646291,"current_range_meters":6000,"station_id":"","pricing_plan_id":"cebpf4jnsgd1na2vs0mg"},{"bike_id":"3ea13603-c9ad-4550-9948-b83f47812af6","system_id":"levelo_inurba_marseille","lat":43.290973,"lon":5.366322,"is_reserved":false,"is_disabled":false,"rental_uris":{"android":"levelo://app?vid=3ea13603-c9ad-4550-9948-b83f47812af6","ios":"levelo://app?vid=3ea13603-c9ad-4550-9948-b83f47812af6"},"vehicle_type_id":"4","last_reported":1761646291,"current_range_meters":6000,"station_id":"","pricing_plan_id":"cebpf4jnsgd1na2vs0mg"},{"bike_id":"6f453795-b98e-4fc0-ac2e-7124597fbae8","system_id":"levelo_inurba_marseille","lat":43.26683,"lon":5.38273,"is_reserved":false,"is_disabled":false,"rental_uris":{"android":"levelo://app?vid=6f453795-b98e-4fc0-ac2e-7124597fbae8","ios":"levelo://app?vid=6f453795-b98e-4fc0-ac2e-7124597fbae8"},"vehicle_type_id":"4","last_reported":1761646291,"current_range_meters":6000,"station_id":"ce4bhg92rcd13ifvqf90","pricing_plan_id":"cebpf4jnsgd1na2vs0mg"},{"bike_id":"e4ccce50-4824-4895-aa8c-033835526f23","system_id":"levelo_inurba_marseille","lat":43.31875,"lon":5.399927,"is_reserved":false,"is_disabled":false,"rental_uris":{"android":"levelo://app?vid=e4ccce50-4824-4895-aa8c-033835526f23","ios":"levelo://app?vid=e4ccce50-4824-4895-aa8c-033835526f23"},"vehicle_type_id":"4","last_reported":1761646291,"current_range_meters":6000,"station_id":"","pricing_plan_id":"cebpf4jnsgd1na2vs0mg"},{"bike_id":"de5cece4-6186-4ccb-b70e-a25e8bd3fc86","system_id":"levelo_inurba_marseille","lat":43.337444,"lon":5.374475,"is_reserved":false,"is_disabled":false,"rental_uris":{"android":"levelo://app?vid=de5cece4-6186-4ccb-b70e-a25e8bd3fc86","ios":"levelo://app?vid=de5cece4-6186-4ccb-b70e-a25e8bd3fc86"},"vehicle_type_id":"4","last_reported":1761646291,"current_range_meters":6000,"station_id":"","pricing_plan_id":"cebpf4jnsgd1na2vs0mg"},{"bike_id":"bb5ca92b-91a2-4e6b-8a65-69614c391295","system_id":"levelo_inurba_marseille","lat":43.29865,"lon":5.36284,"is_reserved":false,"is_disabled":false,"rental_uris":{"android":"levelo://app?vid=bb5ca92b-91a2-4e6b-8a65-69614c391295","ios":"levelo://app?vid=bb5ca92b-91a2-4e6b-8a65-69614c391295"},"vehicle_type_id":"4","last_reported":1761646291,"current_range_meters":6400,"station_id":"ce4bgpp2rcd13ifvqc3g","pricing_plan_id":"cebpf4jnsgd1na2vs0mg"},{"bike_id":"4ade9d83-f2d5-4d19-a54e-74fbd9ec2b53","system_id":"levelo_inurba_marseille","lat":43.31071,"lon":5.40101,"is_reserved":false,"is_disabled":false,"rental_uris":{"android":"levelo://app?vid=4ade9d83-f2d5-4d19-a54e-74fbd9ec2b53","ios":"levelo://app?vid=4ade9d83-f2d5-4d19-a54e-74fbd9ec2b53"},"vehicle_type_id":"4","last_reported":1761646291,"current_range_meters":6400,"station_id":"","pricing_plan_id":"cebpf4jnsgd1na2vs0mg"},{"bike_id":"8847af5d-c1ad-4d8d-a5c1-273c3b41c105","system_id":"levelo_inurba_marseille","lat":43.322446,"lon":5.419554,"is_reserved":false,"is_disabled":false,"rental_uris":{"android":"levelo://app?vid=8847af5d-c1ad-4d8d-a5c1-273c3b41c105","ios":"levelo://app?vid=8847af5d-c1ad-4d8d-a5c1-273c3b41c105"},"vehicle_type_id":"4","last_reported":1761646291,"current_range_meters":6800,"station_id":"","pricing_plan_id":"cebpf4jnsgd1na2vs0mg"},{"bike_id":"ce5122e8-7954-4f12-b01f-98c0a22e86f3","system_id":"levelo_inurba_marseille","lat":43.3059,"lon":5.39354,"is_reserved":false,"is_disabled":false,"rental_uris":{"android":"levelo://app?vid=ce5122e8-7954-4f12-b01f-98c0a22e86f3","ios":"levelo://app?vid=ce5122e8-7954-4f12-b01f-98c0a22e86f3"},"vehicle_type_id":"4","last_reported":1761646291,"current_range_meters":7200,"station_id":"ce4bh0p2rcd13ifvqd80","pricing_plan_id":"cebpf4jnsgd1na2vs0mg"},{"bike_id":"221243a1-438f-4d71-b800-2056f9b5d681","system_id":"levelo_inurba_marseille","lat":43.31239,"lon":5.36827,"is_reserved":false,"is_disabled":false,"rental_uris":{"android":"levelo://app?vid=221243a1-438f-4d71-b800-2056f9b5d681","ios":"levelo://app?vid=221243a1-438f-4d71-b800-2056f9b5d681"},"vehicle_type_id":"4","last_reported":1761646291,"current_range_meters":7200,"station_id":"ce4bgl92rcd13ifvqbq0","pricing_plan_id":"cebpf4jnsgd1na2vs0mg"},{"bike_id":"0d645f28-d342-44a9-95a7-3687b3e1d799","system_id":"levelo_inurba_marseille","lat":43.267784,"lon":5.394225,"is_reserved":false,"is_disabled":false,"rental_uris":{"android":"levelo://app?vid=0d645f28-d342-44a9-95a7-3687b3e1d799","ios":"levelo://app?vid=0d645f28-d342-44a9-95a7-3687b3e1d799"},"vehicle_type_id":"4","last_reported":1761646291,"current_range_meters":7200,"station_id":"ce4bhh12rcd13ifvqfg0","pricing_plan_id":"cebpf4jnsgd1na2vs0mg"},{"bike_id":"347eb2db-1df7-4746-bdc8-5c9e2c4e7281","system_id":"levelo_inurba_marseille","lat":43.2976,"lon":5.42776,"is_reserved":false,"is_disabled":false,"rental_uris":{"android":"levelo://app?vid=347eb2db-1df7-4746-bdc8-5c9e2c4e7281","ios":"levelo://app?vid=347eb2db-1df7-4746-bdc8-5c9e2c4e7281"},"vehicle_type_id":"4","last_reported":1761646291,"current_range_meters":7200,"station_id":"st_d3md5207bmas73dh9klg","pricing_plan_id":"cebpf4jnsgd1na2vs0mg"},{"bike_id":"ee931f28-9837-442f-83f1-5da5369abe2a","system_id":"levelo_inurba_marseille","lat":43.29785,"lon":5.39338,"is_reserved":false,"is_disabled":false,"rental_uris":{"android":"levelo://app?vid=ee931f28-9837-442f-83f1-5da5369abe2a","ios":"levelo://app?vid=ee931f28-9837-442f-83f1-5da5369abe2a"},"vehicle_type_id":"4","last_reported":1761646291,"current_range_meters":8000,"station_id":"chh1huq6cuj3fo74tm60","pricing_plan_id":"cebpf4jnsgd1na2vs0mg"},{"bike_id":"8a16f262-b153-4eeb-813b-ac3f0306817b","system_id":"levelo_inurba_marseille","lat":43.29277,"lon":5.37638,"is_reserved":false,"is_disabled":false,"rental_uris":{"android":"levelo://app?vid=8a16f262-b153-4eeb-813b-ac3f0306817b","ios":"levelo://app?vid=8a16f262-b153-4eeb-813b-ac3f0306817b"},"vehicle_type_id":"4","last_reported":1761646291,"current_range_meters":8000,"station_id":"ce4bgi12rcd13ifvqb80","pricing_plan_id":"cebpf4jnsgd1na2vs0mg"},{"bike_id":"b9aed265-7bb5-4917-9a1f-df45ce79c285","system_id":"levelo_inurba_marseille","lat":43.25007,"lon":5.38915,"is_reserved":false,"is_disabled":false,"rental_uris":{"android":"levelo://app?vid=b9aed265-7bb5-4917-9a1f-df45ce79c285","ios":"levelo://app?vid=b9aed265-7bb5-4917-9a1f-df45ce79c285"},"vehicle_type_id":"4","last_reported":1761646291,"current_range_meters":8000,"station_id":"ce4bhgp2rcd13ifvqfd0","pricing_plan_id":"cebpf4jnsgd1na2vs0mg"},{"bike_id":"95560b5f-8ea8-4033-94ba-80ee0a78620c","system_id":"levelo_inurba_marseille","lat":43.30372,"lon":5.42489,"is_reserved":false,"is_disabled":false,"rental_uris":{"android":"levelo://app?vid=95560b5f-8ea8-4033-94ba-80ee0a78620c","ios":"levelo://app?vid=95560b5f-8ea8-4033-94ba-80ee0a78620c"},"vehicle_type_id":"4","last_reported":1761646291,"current_range_meters":8400,"station_id":"ce4bhoh2rcd13ifvqh6g","pricing_plan_id":"cebpf4jnsgd1na2vs0mg"},{"bike_id":"1ed2ee42-ee1c-44dd-91b4-37eb2ec3be39","system_id":"levelo_inurba_marseille","lat":43.30951,"lon":5.39027,"is_reserved":false,"is_disabled":false,"rental_uris":{"android":"levelo://app?vid=1ed2ee42-ee1c-44dd-91b4-37eb2ec3be39","ios":"levelo://app?vid=1ed2ee42-ee1c-44dd-91b4-37eb2ec3be39"},"vehicle_type_id":"4","last_reported":1761646291,"current_range_meters":8800,"station_id":"ce4bgup2rcd13ifvqco0","pricing_plan_id":"cebpf4jnsgd1na2vs0mg"},{"bike_id":"d729c0db-f8e3-4a17-9c0f-f35d2bace2da","system_id":"levelo_inurba_marseille","lat":43.313203,"lon":5.367342,"is_reserved":false,"is_disabled":false,"rental_uris":{"android":"levelo://app?vid=d729c0db-f8e3-4a17-9c0f-f35d2bace2da","ios":"levelo://app?vid=d729c0db-f8e3-4a17-9c0f-f35d2bace2da"},"vehicle_type_id":"4","last_reported":1761646291,"current_range_meters":8800,"station_id":"ce4bgr92rcd13ifvqc6g","pricing_plan_id":"cebpf4jnsgd1na2vs0mg"},{"bike_id":"aca20572-74b8-48d5-91aa-406d204cb96f","system_id":"levelo_inurba_marseille","lat":43.33737,"lon":5.39188,"is_reserved":false,"is_disabled":false,"rental_uris":{"android":"levelo://app?vid=aca20572-74b8-48d5-91aa-406d204cb96f","ios":"levelo://app?vid=aca20572-74b8-48d5-91aa-406d204cb96f"},"vehicle_type_id":"4","last_reported":1761646291,"current_range_meters":8800,"station_id":"ce4bhr92rcd13ifvqhsg","pricing_plan_id":"cebpf4jnsgd1na2vs0mg"},{"bike_id":"ac9553c1-2e20-49d2-9627-d54e379f7e28","system_id":"levelo_inurba_marseille","lat":43.3134,"lon":5.36718,"is_reserved":false,"is_disabled":true,"rental_uris":{"android":"levelo://app?vid=ac9553c1-2e20-49d2-9627-d54e379f7e28","ios":"levelo://app?vid=ac9553c1-2e20-49d2-9627-d54e379f7e28"},"vehicle_type_id":"4","last_reported":1761646291,"current_range_meters":8800,"station_id":"ce4bgr92rcd13ifvqc6g","pricing_plan_id":"cebpf4jnsgd1na2vs0mg"},{"bike_id":"bbbf3dbb-fbe2-4b7e-bfad-c027ca4e1c25","system_id":"levelo_inurba_marseille","lat":43.284786,"lon":5.483942,"is_reserved":false,"is_disabled":false,"rental_uris":{"android":"levelo://app?vid=bbbf3dbb-fbe2-4b7e-bfad-c027ca4e1c25","ios":"levelo://app?vid=bbbf3dbb-fbe2-4b7e-bfad-c027ca4e1c25"},"vehicle_type_id":"4","last_reported":1761646291,"current_range_meters":9200,"station_id":"st_d3svhcjqgbts73a3dn0g","pricing_plan_id":"cebpf4jnsgd1na2vs0mg"},{"bike_id":"1a87486d-9750-4564-8342-a39435267187","system_id":"levelo_inurba_marseille","lat":43.29541,"lon":5.37497,"is_reserved":false,"is_disabled":false,"rental_uris":{"android":"levelo://app?vid=1a87486d-9750-4564-8342-a39435267187","ios":"levelo://app?vid=1a87486d-9750-4564-8342-a39435267187"},"vehicle_type_id":"4","last_reported":1761646291,"current_range_meters":9200,"station_id":"ce4bgkp2rcd13ifvqbmg","pricing_plan_id":"cebpf4jnsgd1na2vs0mg"},{"bike_id":"8c71c05b-dd29-470b-8b05-4159f459865a","system_id":"levelo_inurba_marseille","lat":43.27683,"lon":5.38889,"is_reserved":false,"is_disabled":false,"rental_uris":{"android":"levelo://app?vid=8c71c05b-dd29-470b-8b05-4159f459865a","ios":"levelo://app?vid=8c71c05b-dd29-470b-8b05-4159f459865a"},"vehicle_type_id":"4","last_reported":1761646291,"current_range_meters":9200,"station_id":"ce4bhi12rcd13ifvqfo0","pricing_plan_id":"cebpf4jnsgd1na2vs0mg"},{"bike_id":"f5adc0f6-8f78-420c-a3cc-2381696afa4a","system_id":"levelo_inurba_marseille","lat":43.288625,"lon":5.425251,"is_reserved":false,"is_disabled":true,"rental_uris":{"android":"levelo://app?vid=f5adc0f6-8f78-420c-a3cc-2381696afa4a","ios":"levelo://app?vid=f5adc0f6-8f78-420c-a3cc-2381696afa4a"},"vehicle_type_id":"4","last_reported":1761646291,"current_range_meters":9200,"station_id":"st_d3b462108ojc7389ooeg","pricing_plan_id":"cebpf4jnsgd1na2vs0mg"},{"bike_id":"67f87939-909c-44d7-b052-5b5de6dbe78c","system_id":"levelo_inurba_marseille","lat":43.27621,"lon":5.36105,"is_reserved":false,"is_disabled":false,"rental_uris":{"android":"levelo://app?vid=67f87939-909c-44d7-b052-5b5de6dbe78c","ios":"levelo://app?vid=67f87939-909c-44d7-b052-5b5de6dbe78c"},"vehicle_type_id":"4","last_reported":1761646291,"current_range_meters":9600,"station_id":"ce4bgj92rcd13ifvqbe0","pricing_plan_id":"cebpf4jnsgd1na2vs0mg"},{"bike_id":"2319520a-fc10-4ea5-a5ca-d3a4702f6c7b","system_id":"levelo_inurba_marseille","lat":43.29896,"lon":5.43658,"is_reserved":false,"is_disabled":false,"rental_uris":{"android":"levelo://app?vid=2319520a-fc10-4ea5-a5ca-d3a4702f6c7b","ios":"levelo://app?vid=2319520a-fc10-4ea5-a5ca-d3a4702f6c7b"},"vehicle_type_id":"4","last_reported":1761646291,"current_range_meters":9600,"station_id":"ce4bhpp2rcd13ifvqhfg","pricing_plan_id":"cebpf4jnsgd1na2vs0mg"},{"bike_id":"3712597a-f605-4d93-8fb3-2c42f9eb8ad3","system_id":"levelo_inurba_marseille","lat":43.29024,"lon":5.38135,"is_reserved":false,"is_disabled":false,"rental_uris":{"android":"levelo://app?vid=3712597a-f605-4d93-8fb3-2c42f9eb8ad3","ios":"levelo://app?vid=3712597a-f605-4d93-8fb3-2c42f9eb8ad3"},"vehicle_type_id":"4","last_reported":1761646291,"current_range_meters":9600,"station_id":"ce4bh4p2rcd13ifvqe1g","pricing_plan_id":"cebpf4jnsgd1na2vs0mg"},{"bike_id":"eea3c3c3-734f-4fd3-8061-ed84cfe47b38","system_id":"levelo_inurba_marseille","lat":43.325645,"lon":5.39143,"is_reserved":false,"is_disabled":false,"rental_uris":{"android":"levelo://app?vid=eea3c3c3-734f-4fd3-8061-ed84cfe47b38","ios":"levelo://app?vid=eea3c3c3-734f-4fd3-8061-ed84cfe47b38"},"vehicle_type_id":"4","last_reported":1761646291,"current_range_meters":9600,"station_id":"","pricing_plan_id":"cebpf4jnsgd1na2vs0mg"},{"bike_id":"b3241da2-f8bb-47f5-a1fb-added95072c1","system_id":"levelo_inurba_marseille","lat":43.253371,"lon":5.421779,"is_reserved":false,"is_disabled":false,"rental_uris":{"android":"levelo://app?vid=b3241da2-f8bb-47f5-a1fb-added95072c1","ios":"levelo://app?vid=b3241da2-f8bb-47f5-a1fb-added95072c1"},"vehicle_type_id":"4","last_reported":1761646291,"current_range_meters":9600,"station_id":"st_d2m65c5bi1j21697t3ng","pricing_plan_id":"cebpf4jnsgd1na2vs0mg"},{"bike_id":"c896b697-d7c3-47ea-81cb-50811f76c96f","system_id":"levelo_inurba_marseille","lat":43.25072,"lon":5.39497,"is_reserved":false,"is_disabled":false,"rental_uris":{"android":"levelo://app?vid=c896b697-d7c3-47ea-81cb-50811f76c96f","ios":"levelo://app?vid=c896b697-d7c3-47ea-81cb-50811f76c96f"},"vehicle_type_id":"4","last_reported":1761646291,"current_range_meters":10000,"station_id":"ce4bhm12rcd13ifvqgkg","pricing_plan_id":"cebpf4jnsgd1na2vs0mg"},{"bike_id":"836f14e1-39bc-446a-8e26-833658824b6e","system_id":"levelo_inurba_marseille","lat":43.28196,"lon":5.39049,"is_reserved":false,"is_disabled":false,"rental_uris":{"android":"levelo://app?vid=836f14e1-39bc-446a-8e26-833658824b6e","ios":"levelo://app?vid=836f14e1-39bc-446a-8e26-833658824b6e"},"vehicle_type_id":"4","last_reported":1761646291,"current_range_meters":10800,"station_id":"ce4bhn92rcd13ifvqgsg","pricing_plan_id":"cebpf4jnsgd1na2vs0mg"},{"bike_id":"795f9f9f-e0ff-49f9-b742-8bd62277a437","system_id":"levelo_inurba_marseille","lat":43.29052,"lon":5.35904,"is_reserved":false,"is_disabled":false,"rental_uris":{"android":"levelo://app?vid=795f9f9f-e0ff-49f9-b742-8bd62277a437","ios":"levelo://app?vid=795f9f9f-e0ff-49f9-b742-8bd62277a437"},"vehicle_type_id":"4","last_reported":1761646291,"current_range_meters":10800,"station_id":"ce4bha92rcd13ifvqeg0","pricing_plan_id":"cebpf4jnsgd1na2vs0mg"},{"bike_id":"acaeba34-1a7c-4115-ab05-31aea207f213","system_id":"levelo_inurba_marseille","lat":43.30888,"lon":5.39622,"is_reserved":false,"is_disabled":false,"rental_uris":{"android":"levelo://app?vid=acaeba34-1a7c-4115-ab05-31aea207f213","ios":"levelo://app?vid=acaeba34-1a7c-4115-ab05-31aea207f213"},"vehicle_type_id":"4","last_reported":1761646291,"current_range_meters":10800,"station_id":"ce4bh012rcd13ifvqcv0","pricing_plan_id":"cebpf4jnsgd1na2vs0mg"},{"bike_id":"7291643b-fb08-4f85-959e-b65d0482acd5","system_id":"levelo_inurba_marseille","lat":43.295274,"lon":5.385389,"is_reserved":false,"is_disabled":false,"rental_uris":{"android":"levelo://app?vid=7291643b-fb08-4f85-959e-b65d0482acd5","ios":"levelo://app?vid=7291643b-fb08-4f85-959e-b65d0482acd5"},"vehicle_type_id":"4","last_reported":1761646291,"current_range_meters":10800,"station_id":"ce4bgih2rcd13ifvqba0","pricing_plan_id":"cebpf4jnsgd1na2vs0mg"},{"bike_id":"10d22194-cee2-410f-b80d-88da72e5434d","system_id":"levelo_inurba_marseille","lat":43.23145,"lon":5.43734,"is_reserved":false,"is_disabled":false,"rental_uris":{"android":"levelo://app?vid=10d22194-cee2-410f-b80d-88da72e5434d","ios":"levelo://app?vid=10d22194-cee2-410f-b80d-88da72e5434d"},"vehicle_type_id":"4","last_reported":1761646291,"current_range_meters":10800,"station_id":"ce4bhmp2rcd13ifvqgog","pricing_plan_id":"cebpf4jnsgd1na2vs0mg"},{"bike_id":"d840e009-d66a-4263-964b-f2c1c855217d","system_id":"levelo_inurba_marseille","lat":43.297572,"lon":5.427779,"is_reserved":false,"is_disabled":false,"rental_uris":{"android":"levelo://app?vid=d840e009-d66a-4263-964b-f2c1c855217d","ios":"levelo://app?vid=d840e009-d66a-4263-964b-f2c1c855217d"},"vehicle_type_id":"4","last_reported":1761646291,"current_range_meters":10800,"station_id":"st_d3md5207bmas73dh9klg","pricing_plan_id":"cebpf4jnsgd1na2vs0mg"},{"bike_id":"1880ebb9-7edb-463e-976b-226e958b9ebe","system_id":"levelo_inurba_marseille","lat":43.31097,"lon":5.37487,"is_reserved":false,"is_disabled":false,"rental_uris":{"android":"levelo://app?vid=1880ebb9-7edb-463e-976b-226e958b9ebe","ios":"levelo://app?vid=1880ebb9-7edb-463e-976b-226e958b9ebe"},"vehicle_type_id":"4","last_reported":1761646291,"current_range_meters":11200,"station_id":"ce4bgt12rcd13ifvqce0","pricing_plan_id":"cebpf4jnsgd1na2vs0mg"},{"bike_id":"aaaed192-3f15-422a-b1fc-58052d869cd7","system_id":"levelo_inurba_marseille","lat":43.26684,"lon":5.38263,"is_reserved":false,"is_disabled":false,"rental_uris":{"android":"levelo://app?vid=aaaed192-3f15-422a-b1fc-58052d869cd7","ios":"levelo://app?vid=aaaed192-3f15-422a-b1fc-58052d869cd7"},"vehicle_type_id":"4","last_reported":1761646291,"current_range_meters":11200,"station_id":"ce4bhg92rcd13ifvqf90","pricing_plan_id":"cebpf4jnsgd1na2vs0mg"},{"bike_id":"346d6f79-04b0-4e22-920d-e52df028ef66","system_id":"levelo_inurba_marseille","lat":43.23968,"lon":5.36629,"is_reserved":false,"is_disabled":false,"rental_uris":{"android":"levelo://app?vid=346d6f79-04b0-4e22-920d-e52df028ef66","ios":"levelo://app?vid=346d6f79-04b0-4e22-920d-e52df028ef66"},"vehicle_type_id":"4","last_reported":1761646291,"current_range_meters":11200,"station_id":"ce4bhi12rcd13ifvqfp0","pricing_plan_id":"cebpf4jnsgd1na2vs0mg"},{"bike_id":"f3673a60-efd2-465f-aa18-cb0baaf105f7","system_id":"levelo_inurba_marseille","lat":43.31061,"lon":5.40121,"is_reserved":false,"is_disabled":false,"rental_uris":{"android":"levelo://app?vid=f3673a60-efd2-465f-aa18-cb0baaf105f7","ios":"levelo://app?vid=f3673a60-efd2-465f-aa18-cb0baaf105f7"},"vehicle_type_id":"4","last_reported":1761646291,"current_range_meters":11200,"station_id":"","pricing_plan_id":"cebpf4jnsgd1na2vs0mg"},{"bike_id":"34e3cfd5-6526-4896-abc4-5005c47afa2a","system_id":"levelo_inurba_marseille","lat":43.29581,"lon":5.36742,"is_reserved":false,"is_disabled":false,"rental_uris":{"android":"levelo://app?vid=34e3cfd5-6526-4896-abc4-5005c47afa2a","ios":"levelo://app?vid=34e3cfd5-6526-4896-abc4-5005c47afa2a"},"vehicle_type_id":"4","last_reported":1761646291,"current_range_meters":11200,"station_id":"ce4bgph2rcd13ifvqc2g","pricing_plan_id":"cebpf4jnsgd1na2vs0mg"},{"bike_id":"ff806bd2-c7e9-493a-9703-ad992684e451","system_id":"levelo_inurba_marseille","lat":43.296263,"lon":5.377142,"is_reserved":false,"is_disabled":true,"rental_uris":{"android":"levelo://app?vid=ff806bd2-c7e9-493a-9703-ad992684e451","ios":"levelo://app?vid=ff806bd2-c7e9-493a-9703-ad992684e451"},"vehicle_type_id":"4","last_reported":1761646291,"current_range_meters":11600,"station_id":"","pricing_plan_id":"cebpf4jnsgd1na2vs0mg"},{"bike_id":"dbcbcef0-4b5f-446e-9d2e-80d991993c2b","system_id":"levelo_inurba_marseille","lat":43.295,"lon":5.40242,"is_reserved":false,"is_disabled":false,"rental_uris":{"android":"levelo://app?vid=dbcbcef0-4b5f-446e-9d2e-80d991993c2b","ios":"levelo://app?vid=dbcbcef0-4b5f-446e-9d2e-80d991993c2b"},"vehicle_type_id":"4","last_reported":1761646291,"current_range_meters":11600,"station_id":"","pricing_plan_id":"cebpf4jnsgd1na2vs0mg"},{"bike_id":"4bf9d265-8b82-4e6d-af96-57b56fdfaed3","system_id":"levelo_inurba_marseille","lat":43.2975,"lon":5.42763,"is_reserved":false,"is_disabled":false,"rental_uris":{"android":"levelo://app?vid=4bf9d265-8b82-4e6d-af96-57b56fdfaed3","ios":"levelo://app?vid=4bf9d265-8b82-4e6d-af96-57b56fdfaed3"},"vehicle_type_id":"4","last_reported":1761646291,"current_range_meters":12000,"station_id":"st_d3md5207bmas73dh9klg","pricing_plan_id":"cebpf4jnsgd1na2vs0mg"},{"bike_id":"13d21ce8-8c86-4daa-b22e-e4a109236182","system_id":"levelo_inurba_marseille","lat":43.2903,"lon":5.35915,"is_reserved":false,"is_disabled":false,"rental_uris":{"android":"levelo://app?vid=13d21ce8-8c86-4daa-b22e-e4a109236182","ios":"levelo://app?vid=13d21ce8-8c86-4daa-b22e-e4a109236182"},"vehicle_type_id":"4","last_reported":1761646291,"current_range_meters":12000,"station_id":"ce4bha92rcd13ifvqeg0","pricing_plan_id":"cebpf4jnsgd1na2vs0mg"},{"bike_id":"8062c369-ff3b-4a48-b2ef-d270e82c4cf4","system_id":"levelo_inurba_marseille","lat":43.230581,"lon":5.35489,"is_reserved":false,"is_disabled":false,"rental_uris":{"android":"levelo://app?vid=8062c369-ff3b-4a48-b2ef-d270e82c4cf4","ios":"levelo://app?vid=8062c369-ff3b-4a48-b2ef-d270e82c4cf4"},"vehicle_type_id":"4","last_reported":1761646291,"current_range_meters":12000,"station_id":"cpo3342slgdg3j2ifvpg","pricing_plan_id":"cebpf4jnsgd1na2vs0mg"},{"bike_id":"29e5cfe7-9204-4fea-9b8c-b8cca7494ef8","system_id":"levelo_inurba_marseille","lat":43.27208,"lon":5.39171,"is_reserved":false,"is_disabled":false,"rental_uris":{"android":"levelo://app?vid=29e5cfe7-9204-4fea-9b8c-b8cca7494ef8","ios":"levelo://app?vid=29e5cfe7-9204-4fea-9b8c-b8cca7494ef8"},"vehicle_type_id":"4","last_reported":1761646291,"current_range_meters":12000,"station_id":"ce4bhhp2rcd13ifvqfm0","pricing_plan_id":"cebpf4jnsgd1na2vs0mg"},{"bike_id":"9fbd96ee-563a-43f7-87fd-6fffaeedac55","system_id":"levelo_inurba_marseille","lat":43.25855,"lon":5.39905,"is_reserved":false,"is_disabled":true,"rental_uris":{"android":"levelo://app?vid=9fbd96ee-563a-43f7-87fd-6fffaeedac55","ios":"levelo://app?vid=9fbd96ee-563a-43f7-87fd-6fffaeedac55"},"vehicle_type_id":"4","last_reported":1761646291,"current_range_meters":12000,"station_id":"ce4bhl92rcd13ifvqghg","pricing_plan_id":"cebpf4jnsgd1na2vs0mg"},{"bike_id":"7959d7ed-7e79-4e16-ac7b-2595ff91abf9","system_id":"levelo_inurba_marseille","lat":43.3088,"lon":5.37183,"is_reserved":false,"is_disabled":false,"rental_uris":{"android":"levelo://app?vid=7959d7ed-7e79-4e16-ac7b-2595ff91abf9","ios":"levelo://app?vid=7959d7ed-7e79-4e16-ac7b-2595ff91abf9"},"vehicle_type_id":"4","last_reported":1761646291,"current_range_meters":12000,"station_id":"ce4bguh2rcd13ifvqckg","pricing_plan_id":"cebpf4jnsgd1na2vs0mg"},{"bike_id":"f78a0ee6-9a9f-4c1d-bd59-b10a7225e0a1","system_id":"levelo_inurba_marseille","lat":43.274089,"lon":5.394332,"is_reserved":false,"is_disabled":false,"rental_uris":{"android":"levelo://app?vid=f78a0ee6-9a9f-4c1d-bd59-b10a7225e0a1","ios":"levelo://app?vid=f78a0ee6-9a9f-4c1d-bd59-b10a7225e0a1"},"vehicle_type_id":"4","last_reported":1761646291,"current_range_meters":12000,"station_id":"ce4bhh92rcd13ifvqfh0","pricing_plan_id":"cebpf4jnsgd1na2vs0mg"},{"bike_id":"7b1b6fda-acbf-4bcc-9c4e-eb02a7bb672a","system_id":"levelo_inurba_marseille","lat":43.241642,"lon":5.363968,"is_reserved":false,"is_disabled":false,"rental_uris":{"android":"levelo://app?vid=7b1b6fda-acbf-4bcc-9c4e-eb02a7bb672a","ios":"levelo://app?vid=7b1b6fda-acbf-4bcc-9c4e-eb02a7bb672a"},"vehicle_type_id":"4","last_reported":1761646291,"current_range_meters":12400,"station_id":"cpo36qri1sfpv3e86is0","pricing_plan_id":"cebpf4jnsgd1na2vs0mg"},{"bike_id":"5baac084-f795-47a1-8772-dd91e14d5025","system_id":"levelo_inurba_marseille","lat":43.31493,"lon":5.37306,"is_reserved":false,"is_disabled":false,"rental_uris":{"android":"levelo://app?vid=5baac084-f795-47a1-8772-dd91e14d5025","ios":"levelo://app?vid=5baac084-f795-47a1-8772-dd91e14d5025"},"vehicle_type_id":"4","last_reported":1761646291,"current_range_meters":12400,"station_id":"ce4bgt12rcd13ifvqcd0","pricing_plan_id":"cebpf4jnsgd1na2vs0mg"},{"bike_id":"9eb27e8b-0951-4c08-8214-6e629081e2a3","system_id":"levelo_inurba_marseille","lat":43.24182,"lon":5.36385,"is_reserved":false,"is_disabled":false,"rental_uris":{"android":"levelo://app?vid=9eb27e8b-0951-4c08-8214-6e629081e2a3","ios":"levelo://app?vid=9eb27e8b-0951-4c08-8214-6e629081e2a3"},"vehicle_type_id":"4","last_reported":1761646291,"current_range_meters":12400,"station_id":"cpo36qri1sfpv3e86is0","pricing_plan_id":"cebpf4jnsgd1na2vs0mg"},{"bike_id":"c781be08-6f24-4612-94cb-7756790f86ea","system_id":"levelo_inurba_marseille","lat":43.2417,"lon":5.36396,"is_reserved":false,"is_disabled":false,"rental_uris":{"android":"levelo://app?vid=c781be08-6f24-4612-94cb-7756790f86ea","ios":"levelo://app?vid=c781be08-6f24-4612-94cb-7756790f86ea"},"vehicle_type_id":"4","last_reported":1761646291,"current_range_meters":12400,"station_id":"cpo36qri1sfpv3e86is0","pricing_plan_id":"cebpf4jnsgd1na2vs0mg"},{"bike_id":"6abb9e09-33f3-43f3-9417-8cc0cf0144f6","system_id":"levelo_inurba_marseille","lat":43.2992,"lon":5.37459,"is_reserved":false,"is_disabled":false,"rental_uris":{"android":"levelo://app?vid=6abb9e09-33f3-43f3-9417-8cc0cf0144f6","ios":"levelo://app?vid=6abb9e09-33f3-43f3-9417-8cc0cf0144f6"},"vehicle_type_id":"4","last_reported":1761646291,"current_range_meters":12800,"station_id":"ce4bgjh2rcd13ifvqbg0","pricing_plan_id":"cebpf4jnsgd1na2vs0mg"},{"bike_id":"da7305bc-9098-4a3f-9bea-8372d29d8b76","system_id":"levelo_inurba_marseille","lat":43.31246,"lon":5.36829,"is_reserved":false,"is_disabled":false,"rental_uris":{"android":"levelo://app?vid=da7305bc-9098-4a3f-9bea-8372d29d8b76","ios":"levelo://app?vid=da7305bc-9098-4a3f-9bea-8372d29d8b76"},"vehicle_type_id":"4","last_reported":1761646291,"current_range_meters":12800,"station_id":"ce4bgl92rcd13ifvqbq0","pricing_plan_id":"cebpf4jnsgd1na2vs0mg"},{"bike_id":"0a9d44fb-2329-4fb0-a206-b0f04f54a65c","system_id":"levelo_inurba_marseille","lat":43.301166,"lon":5.398506,"is_reserved":false,"is_disabled":false,"rental_uris":{"android":"levelo://app?vid=0a9d44fb-2329-4fb0-a206-b0f04f54a65c","ios":"levelo://app?vid=0a9d44fb-2329-4fb0-a206-b0f04f54a65c"},"vehicle_type_id":"4","last_reported":1761646291,"current_range_meters":13600,"station_id":"ce4bh0h2rcd13ifvqd40","pricing_plan_id":"cebpf4jnsgd1na2vs0mg"},{"bike_id":"d7b556e6-ac3d-4fe4-b136-c7cd05c756e3","system_id":"levelo_inurba_marseille","lat":43.23072,"lon":5.35485,"is_reserved":false,"is_disabled":false,"rental_uris":{"android":"levelo://app?vid=d7b556e6-ac3d-4fe4-b136-c7cd05c756e3","ios":"levelo://app?vid=d7b556e6-ac3d-4fe4-b136-c7cd05c756e3"},"vehicle_type_id":"4","last_reported":1761646291,"current_range_meters":13600,"station_id":"cpo3342slgdg3j2ifvpg","pricing_plan_id":"cebpf4jnsgd1na2vs0mg"},{"bike_id":"f568391f-b71f-4807-9099-53eb6b0dc22d","system_id":"levelo_inurba_marseille","lat":43.29786,"lon":5.38143,"is_reserved":false,"is_disabled":false,"rental_uris":{"android":"levelo://app?vid=f568391f-b71f-4807-9099-53eb6b0dc22d","ios":"levelo://app?vid=f568391f-b71f-4807-9099-53eb6b0dc22d"},"vehicle_type_id":"4","last_reported":1761646291,"current_range_meters":13600,"station_id":"ce4bgip2rcd13ifvqbb0","pricing_plan_id":"cebpf4jnsgd1na2vs0mg"},{"bike_id":"d5ca831f-8041-403e-ada8-7b4196c3d5be","system_id":"levelo_inurba_marseille","lat":43.293714,"lon":5.379385,"is_reserved":false,"is_disabled":false,"rental_uris":{"android":"levelo://app?vid=d5ca831f-8041-403e-ada8-7b4196c3d5be","ios":"levelo://app?vid=d5ca831f-8041-403e-ada8-7b4196c3d5be"},"vehicle_type_id":"4","last_reported":1761646291,"current_range_meters":13600,"station_id":"","pricing_plan_id":"cebpf4jnsgd1na2vs0mg"},{"bike_id":"69c6ea73-c9b7-44a2-8e41-bf465556bfde","system_id":"levelo_inurba_marseille","lat":43.29078,"lon":5.38143,"is_reserved":false,"is_disabled":false,"rental_uris":{"android":"levelo://app?vid=69c6ea73-c9b7-44a2-8e41-bf465556bfde","ios":"levelo://app?vid=69c6ea73-c9b7-44a2-8e41-bf465556bfde"},"vehicle_type_id":"4","last_reported":1761646291,"current_range_meters":14000,"station_id":"ce4bh512rcd13ifvqe2g","pricing_plan_id":"cebpf4jnsgd1na2vs0mg"},{"bike_id":"aaa731ae-3c8e-44e7-b3b3-1a62fe8fd280","system_id":"levelo_inurba_marseille","lat":43.22561,"lon":5.4163,"is_reserved":false,"is_disabled":false,"rental_uris":{"android":"levelo://app?vid=aaa731ae-3c8e-44e7-b3b3-1a62fe8fd280","ios":"levelo://app?vid=aaa731ae-3c8e-44e7-b3b3-1a62fe8fd280"},"vehicle_type_id":"4","last_reported":1761646291,"current_range_meters":14400,"station_id":"st_d2o4gvlbi1j2169b742g","pricing_plan_id":"cebpf4jnsgd1na2vs0mg"},{"bike_id":"c037642b-f6fd-4e2f-8530-7f44943200ec","system_id":"levelo_inurba_marseille","lat":43.29433,"lon":5.39751,"is_reserved":false,"is_disabled":false,"rental_uris":{"android":"levelo://app?vid=c037642b-f6fd-4e2f-8530-7f44943200ec","ios":"levelo://app?vid=c037642b-f6fd-4e2f-8530-7f44943200ec"},"vehicle_type_id":"4","last_reported":1761646291,"current_range_meters":14400,"station_id":"ce4bh3h2rcd13ifvqdo0","pricing_plan_id":"cebpf4jnsgd1na2vs0mg"},{"bike_id":"69f173cb-83c1-4154-ba86-283d5f50435c","system_id":"levelo_inurba_marseille","lat":43.291899,"lon":5.37623,"is_reserved":false,"is_disabled":false,"rental_uris":{"android":"levelo://app?vid=69f173cb-83c1-4154-ba86-283d5f50435c","ios":"levelo://app?vid=69f173cb-83c1-4154-ba86-283d5f50435c"},"vehicle_type_id":"4","last_reported":1761646291,"current_range_meters":14400,"station_id":"ce4bgi12rcd13ifvqb80","pricing_plan_id":"cebpf4jnsgd1na2vs0mg"},{"bike_id":"db88a8a5-5637-4384-a6d7-41d8f099747a","system_id":"levelo_inurba_marseille","lat":43.312379,"lon":5.368484,"is_reserved":false,"is_disabled":false,"rental_uris":{"android":"levelo://app?vid=db88a8a5-5637-4384-a6d7-41d8f099747a","ios":"levelo://app?vid=db88a8a5-5637-4384-a6d7-41d8f099747a"},"vehicle_type_id":"4","last_reported":1761646291,"current_range_meters":14400,"station_id":"ce4bgr92rcd13ifvqc6g","pricing_plan_id":"cebpf4jnsgd1na2vs0mg"},{"bike_id":"a60cb070-d57c-4cd2-8d5d-f1d4b549ff3a","system_id":"levelo_inurba_marseille","lat":43.32351,"lon":5.36755,"is_reserved":false,"is_disabled":false,"rental_uris":{"android":"levelo://app?vid=a60cb070-d57c-4cd2-8d5d-f1d4b549ff3a","ios":"levelo://app?vid=a60cb070-d57c-4cd2-8d5d-f1d4b549ff3a"},"vehicle_type_id":"4","last_reported":1761646291,"current_range_meters":14400,"station_id":"ce4bhsh2rcd13ifvqi2g","pricing_plan_id":"cebpf4jnsgd1na2vs0mg"},{"bike_id":"0b29f2b5-468f-4c39-baef-fa8688d42667","system_id":"levelo_inurba_marseille","lat":43.292274,"lon":5.360695,"is_reserved":false,"is_disabled":false,"rental_uris":{"android":"levelo://app?vid=0b29f2b5-468f-4c39-baef-fa8688d42667","ios":"levelo://app?vid=0b29f2b5-468f-4c39-baef-fa8688d42667"},"vehicle_type_id":"4","last_reported":1761646291,"current_range_meters":14400,"station_id":"ce4bhbh2rcd13ifvqeqg","pricing_plan_id":"cebpf4jnsgd1na2vs0mg"},{"bike_id":"ef4e0d5b-3e99-4ff6-a010-5338cf809c70","system_id":"levelo_inurba_marseille","lat":43.32655,"lon":5.40983,"is_reserved":false,"is_disabled":false,"rental_uris":{"android":"levelo://app?vid=ef4e0d5b-3e99-4ff6-a010-5338cf809c70","ios":"levelo://app?vid=ef4e0d5b-3e99-4ff6-a010-5338cf809c70"},"vehicle_type_id":"4","last_reported":1761646291,"current_range_meters":14400,"station_id":"ce4bhpp2rcd13ifvqhgg","pricing_plan_id":"cebpf4jnsgd1na2vs0mg"},{"bike_id":"e975e8a7-f7cd-4da8-aa29-5220da96c704","system_id":"levelo_inurba_marseille","lat":43.32356,"lon":5.36736,"is_reserved":false,"is_disabled":true,"rental_uris":{"android":"levelo://app?vid=e975e8a7-f7cd-4da8-aa29-5220da96c704","ios":"levelo://app?vid=e975e8a7-f7cd-4da8-aa29-5220da96c704"},"vehicle_type_id":"4","last_reported":1761646291,"current_range_meters":14400,"station_id":"ce4bhsh2rcd13ifvqi2g","pricing_plan_id":"cebpf4jnsgd1na2vs0mg"},{"bike_id":"e1ca1064-3ac1-495e-b8d2-df8047d11b2e","system_id":"levelo_inurba_marseille","lat":43.284808,"lon":5.483867,"is_reserved":false,"is_disabled":false,"rental_uris":{"android":"levelo://app?vid=e1ca1064-3ac1-495e-b8d2-df8047d11b2e","ios":"levelo://app?vid=e1ca1064-3ac1-495e-b8d2-df8047d11b2e"},"vehicle_type_id":"4","last_reported":1761646291,"current_range_meters":14400,"station_id":"st_d3svhcjqgbts73a3dn0g","pricing_plan_id":"cebpf4jnsgd1na2vs0mg"},{"bike_id":"310e927d-d5b8-4a6f-82be-2d623690659d","system_id":"levelo_inurba_marseille","lat":43.31294,"lon":5.37746,"is_reserved":false,"is_disabled":false,"rental_uris":{"android":"levelo://app?vid=310e927d-d5b8-4a6f-82be-2d623690659d","ios":"levelo://app?vid=310e927d-d5b8-4a6f-82be-2d623690659d"},"vehicle_type_id":"4","last_reported":1761646291,"current_range_meters":14800,"station_id":"","pricing_plan_id":"cebpf4jnsgd1na2vs0mg"},{"bike_id":"39ffcab8-0f9d-40f0-bd54-6dbc1a53fb91","system_id":"levelo_inurba_marseille","lat":43.25936,"lon":5.40876,"is_reserved":false,"is_disabled":false,"rental_uris":{"android":"levelo://app?vid=39ffcab8-0f9d-40f0-bd54-6dbc1a53fb91","ios":"levelo://app?vid=39ffcab8-0f9d-40f0-bd54-6dbc1a53fb91"},"vehicle_type_id":"4","last_reported":1761646291,"current_range_meters":14800,"station_id":"ce4bhm92rcd13ifvqglg","pricing_plan_id":"cebpf4jnsgd1na2vs0mg"},{"bike_id":"67b6b2af-170f-4d3f-b658-3b5832e081b4","system_id":"levelo_inurba_marseille","lat":43.24653,"lon":5.3815,"is_reserved":false,"is_disabled":false,"rental_uris":{"android":"levelo://app?vid=67b6b2af-170f-4d3f-b658-3b5832e081b4","ios":"levelo://app?vid=67b6b2af-170f-4d3f-b658-3b5832e081b4"},"vehicle_type_id":"4","last_reported":1761646291,"current_range_meters":14800,"station_id":"ce4bhih2rcd13ifvqfr0","pricing_plan_id":"cebpf4jnsgd1na2vs0mg"},{"bike_id":"dccef0b1-edb3-49b5-866c-43e10e5763cc","system_id":"levelo_inurba_marseille","lat":43.28809,"lon":5.43836,"is_reserved":false,"is_disabled":false,"rental_uris":{"android":"levelo://app?vid=dccef0b1-edb3-49b5-866c-43e10e5763cc","ios":"levelo://app?vid=dccef0b1-edb3-49b5-866c-43e10e5763cc"},"vehicle_type_id":"4","last_reported":1761646291,"current_range_meters":14800,"station_id":"","pricing_plan_id":"cebpf4jnsgd1na2vs0mg"},{"bike_id":"18dddb8e-0d93-487d-a3c1-3245c18648cd","system_id":"levelo_inurba_marseille","lat":43.29845,"lon":5.36269,"is_reserved":false,"is_disabled":false,"rental_uris":{"android":"levelo://app?vid=18dddb8e-0d93-487d-a3c1-3245c18648cd","ios":"levelo://app?vid=18dddb8e-0d93-487d-a3c1-3245c18648cd"},"vehicle_type_id":"4","last_reported":1761646291,"current_range_meters":14800,"station_id":"ce4bgpp2rcd13ifvqc3g","pricing_plan_id":"cebpf4jnsgd1na2vs0mg"},{"bike_id":"49ed0d39-51fe-4cd4-8527-50556baa8749","system_id":"levelo_inurba_marseille","lat":43.22531,"lon":5.348321,"is_reserved":false,"is_disabled":false,"rental_uris":{"android":"levelo://app?vid=49ed0d39-51fe-4cd4-8527-50556baa8749","ios":"levelo://app?vid=49ed0d39-51fe-4cd4-8527-50556baa8749"},"vehicle_type_id":"4","last_reported":1761646291,"current_range_meters":14800,"station_id":"","pricing_plan_id":"cebpf4jnsgd1na2vs0mg"},{"bike_id":"a98b84b6-0814-4406-870e-6dd4d59b60e3","system_id":"levelo_inurba_marseille","lat":43.24075,"lon":5.37756,"is_reserved":false,"is_disabled":false,"rental_uris":{"android":"levelo://app?vid=a98b84b6-0814-4406-870e-6dd4d59b60e3","ios":"levelo://app?vid=a98b84b6-0814-4406-870e-6dd4d59b60e3"},"vehicle_type_id":"4","last_reported":1761646291,"current_range_meters":14800,"station_id":"ce4bhnp2rcd13ifvqgvg","pricing_plan_id":"cebpf4jnsgd1na2vs0mg"},{"bike_id":"e8b00d39-8726-45ab-902a-db5ebf514149","system_id":"levelo_inurba_marseille","lat":43.24065,"lon":5.37749,"is_reserved":false,"is_disabled":false,"rental_uris":{"android":"levelo://app?vid=e8b00d39-8726-45ab-902a-db5ebf514149","ios":"levelo://app?vid=e8b00d39-8726-45ab-902a-db5ebf514149"},"vehicle_type_id":"4","last_reported":1761646291,"current_range_meters":15200,"station_id":"ce4bhnp2rcd13ifvqgvg","pricing_plan_id":"cebpf4jnsgd1na2vs0mg"},{"bike_id":"fecf8e86-049e-49c6-ae26-487ea7fda6cf","system_id":"levelo_inurba_marseille","lat":43.24181,"lon":5.39717,"is_reserved":false,"is_disabled":false,"rental_uris":{"android":"levelo://app?vid=fecf8e86-049e-49c6-ae26-487ea7fda6cf","ios":"levelo://app?vid=fecf8e86-049e-49c6-ae26-487ea7fda6cf"},"vehicle_type_id":"4","last_reported":1761646291,"current_range_meters":15200,"station_id":"ce4bhn12rcd13ifvqgpg","pricing_plan_id":"cebpf4jnsgd1na2vs0mg"},{"bike_id":"e0e8459e-4585-476d-a572-7bcb703886bb","system_id":"levelo_inurba_marseille","lat":43.29043,"lon":5.3996,"is_reserved":false,"is_disabled":true,"rental_uris":{"android":"levelo://app?vid=e0e8459e-4585-476d-a572-7bcb703886bb","ios":"levelo://app?vid=e0e8459e-4585-476d-a572-7bcb703886bb"},"vehicle_type_id":"4","last_reported":1761646291,"current_range_meters":15200,"station_id":"ce4bh392rcd13ifvqdm0","pricing_plan_id":"cebpf4jnsgd1na2vs0mg"},{"bike_id":"dced2bcc-e95f-44ce-b7d8-7bb47def612a","system_id":"levelo_inurba_marseille","lat":43.230618,"lon":5.354904,"is_reserved":false,"is_disabled":false,"rental_uris":{"android":"levelo://app?vid=dced2bcc-e95f-44ce-b7d8-7bb47def612a","ios":"levelo://app?vid=dced2bcc-e95f-44ce-b7d8-7bb47def612a"},"vehicle_type_id":"4","last_reported":1761646291,"current_range_meters":15200,"station_id":"cpo3342slgdg3j2ifvpg","pricing_plan_id":"cebpf4jnsgd1na2vs0mg"},{"bike_id":"553ca2a5-4405-4b83-89a7-047e96cdb660","system_id":"levelo_inurba_marseille","lat":43.2922,"lon":5.36076,"is_reserved":false,"is_disabled":false,"rental_uris":{"android":"levelo://app?vid=553ca2a5-4405-4b83-89a7-047e96cdb660","ios":"levelo://app?vid=553ca2a5-4405-4b83-89a7-047e96cdb660"},"vehicle_type_id":"4","last_reported":1761646291,"current_range_meters":15200,"station_id":"ce4bhbh2rcd13ifvqeqg","pricing_plan_id":"cebpf4jnsgd1na2vs0mg"},{"bike_id":"94e6b0aa-f8c9-477e-8091-c3a189e0f238","system_id":"levelo_inurba_marseille","lat":43.29691,"lon":5.38121,"is_reserved":false,"is_disabled":false,"rental_uris":{"android":"levelo://app?vid=94e6b0aa-f8c9-477e-8091-c3a189e0f238","ios":"levelo://app?vid=94e6b0aa-f8c9-477e-8091-c3a189e0f238"},"vehicle_type_id":"4","last_reported":1761646291,"current_range_meters":16000,"station_id":"","pricing_plan_id":"cebpf4jnsgd1na2vs0mg"},{"bike_id":"f4ae8a8d-d71a-4e48-9339-66550bde7b84","system_id":"levelo_inurba_marseille","lat":43.296782,"lon":5.378637,"is_reserved":false,"is_disabled":false,"rental_uris":{"android":"levelo://app?vid=f4ae8a8d-d71a-4e48-9339-66550bde7b84","ios":"levelo://app?vid=f4ae8a8d-d71a-4e48-9339-66550bde7b84"},"vehicle_type_id":"4","last_reported":1761646291,"current_range_meters":16000,"station_id":"","pricing_plan_id":"cebpf4jnsgd1na2vs0mg"},{"bike_id":"2be3bf9b-39f4-4c37-8c01-9e9bcabe1c53","system_id":"levelo_inurba_marseille","lat":43.33741,"lon":5.37444,"is_reserved":false,"is_disabled":false,"rental_uris":{"android":"levelo://app?vid=2be3bf9b-39f4-4c37-8c01-9e9bcabe1c53","ios":"levelo://app?vid=2be3bf9b-39f4-4c37-8c01-9e9bcabe1c53"},"vehicle_type_id":"4","last_reported":1761646291,"current_range_meters":16000,"station_id":"","pricing_plan_id":"cebpf4jnsgd1na2vs0mg"},{"bike_id":"4ddfb4bb-556a-4528-9867-2221062f07d7","system_id":"levelo_inurba_marseille","lat":43.25933,"lon":5.40904,"is_reserved":false,"is_disabled":false,"rental_uris":{"android":"levelo://app?vid=4ddfb4bb-556a-4528-9867-2221062f07d7","ios":"levelo://app?vid=4ddfb4bb-556a-4528-9867-2221062f07d7"},"vehicle_type_id":"4","last_reported":1761646291,"current_range_meters":16000,"station_id":"ce4bhm92rcd13ifvqglg","pricing_plan_id":"cebpf4jnsgd1na2vs0mg"},{"bike_id":"c09b8e76-bdda-4598-a096-bf80b222c7dc","system_id":"levelo_inurba_marseille","lat":43.30173,"lon":5.36614,"is_reserved":false,"is_disabled":false,"rental_uris":{"android":"levelo://app?vid=c09b8e76-bdda-4598-a096-bf80b222c7dc","ios":"levelo://app?vid=c09b8e76-bdda-4598-a096-bf80b222c7dc"},"vehicle_type_id":"4","last_reported":1761646291,"current_range_meters":16000,"station_id":"ce4bgrh2rcd13ifvqc8g","pricing_plan_id":"cebpf4jnsgd1na2vs0mg"},{"bike_id":"ae8ebe94-fc0f-4409-8f77-39eb5c613a67","system_id":"levelo_inurba_marseille","lat":43.337444,"lon":5.374475,"is_reserved":false,"is_disabled":false,"rental_uris":{"android":"levelo://app?vid=ae8ebe94-fc0f-4409-8f77-39eb5c613a67","ios":"levelo://app?vid=ae8ebe94-fc0f-4409-8f77-39eb5c613a67"},"vehicle_type_id":"4","last_reported":1761646291,"current_range_meters":16400,"station_id":"","pricing_plan_id":"cebpf4jnsgd1na2vs0mg"},{"bike_id":"902a8100-99e3-4d92-9b77-c60c0882d9d8","system_id":"levelo_inurba_marseille","lat":43.27931,"lon":5.41052,"is_reserved":false,"is_disabled":false,"rental_uris":{"android":"levelo://app?vid=902a8100-99e3-4d92-9b77-c60c0882d9d8","ios":"levelo://app?vid=902a8100-99e3-4d92-9b77-c60c0882d9d8"},"vehicle_type_id":"4","last_reported":1761646291,"current_range_meters":16400,"station_id":"ce4bhnp2rcd13ifvqh0g","pricing_plan_id":"cebpf4jnsgd1na2vs0mg"},{"bike_id":"85377363-cbd4-45ea-ab32-d8f5e1c2d1e3","system_id":"levelo_inurba_marseille","lat":43.24807,"lon":5.37449,"is_reserved":false,"is_disabled":true,"rental_uris":{"android":"levelo://app?vid=85377363-cbd4-45ea-ab32-d8f5e1c2d1e3","ios":"levelo://app?vid=85377363-cbd4-45ea-ab32-d8f5e1c2d1e3"},"vehicle_type_id":"4","last_reported":1761646291,"current_range_meters":16800,"station_id":"ce4bhgh2rcd13ifvqfb0","pricing_plan_id":"cebpf4jnsgd1na2vs0mg"},{"bike_id":"dc3f4f27-0c87-4208-8c15-6b40e049f762","system_id":"levelo_inurba_marseille","lat":43.231555,"lon":5.437056,"is_reserved":false,"is_disabled":false,"rental_uris":{"android":"levelo://app?vid=dc3f4f27-0c87-4208-8c15-6b40e049f762","ios":"levelo://app?vid=dc3f4f27-0c87-4208-8c15-6b40e049f762"},"vehicle_type_id":"4","last_reported":1761646291,"current_range_meters":16800,"station_id":"","pricing_plan_id":"cebpf4jnsgd1na2vs0mg"},{"bike_id":"32d7653e-b033-4183-b4c0-f44169bb9067","system_id":"levelo_inurba_marseille","lat":43.327066,"lon":5.392027,"is_reserved":false,"is_disabled":false,"rental_uris":{"android":"levelo://app?vid=32d7653e-b033-4183-b4c0-f44169bb9067","ios":"levelo://app?vid=32d7653e-b033-4183-b4c0-f44169bb9067"},"vehicle_type_id":"4","last_reported":1761646291,"current_range_meters":16800,"station_id":"","pricing_plan_id":"cebpf4jnsgd1na2vs0mg"},{"bike_id":"452e8e6e-6805-4d8b-9b13-79df7a637126","system_id":"levelo_inurba_marseille","lat":43.24398,"lon":5.3706,"is_reserved":false,"is_disabled":false,"rental_uris":{"android":"levelo://app?vid=452e8e6e-6805-4d8b-9b13-79df7a637126","ios":"levelo://app?vid=452e8e6e-6805-4d8b-9b13-79df7a637126"},"vehicle_type_id":"4","last_reported":1761646291,"current_range_meters":16800,"station_id":"ce4bhhh2rcd13ifvqfk0","pricing_plan_id":"cebpf4jnsgd1na2vs0mg"},{"bike_id":"87f73197-ea2a-4801-9947-0f7cedc037c8","system_id":"levelo_inurba_marseille","lat":43.26202,"lon":5.37971,"is_reserved":false,"is_disabled":false,"rental_uris":{"android":"levelo://app?vid=87f73197-ea2a-4801-9947-0f7cedc037c8","ios":"levelo://app?vid=87f73197-ea2a-4801-9947-0f7cedc037c8"},"vehicle_type_id":"4","last_reported":1761646291,"current_range_meters":17200,"station_id":"ce4bhjp2rcd13ifvqg90","pricing_plan_id":"cebpf4jnsgd1na2vs0mg"},{"bike_id":"0a9a9cbd-e39a-4308-9e5f-8902d7024666","system_id":"levelo_inurba_marseille","lat":43.2822,"lon":5.39061,"is_reserved":false,"is_disabled":false,"rental_uris":{"android":"levelo://app?vid=0a9a9cbd-e39a-4308-9e5f-8902d7024666","ios":"levelo://app?vid=0a9a9cbd-e39a-4308-9e5f-8902d7024666"},"vehicle_type_id":"4","last_reported":1761646291,"current_range_meters":17200,"station_id":"ce4bhn92rcd13ifvqgsg","pricing_plan_id":"cebpf4jnsgd1na2vs0mg"},{"bike_id":"02dd205b-e97c-4104-9683-066d2523fd3f","system_id":"levelo_inurba_marseille","lat":43.23064,"lon":5.354894,"is_reserved":false,"is_disabled":false,"rental_uris":{"android":"levelo://app?vid=02dd205b-e97c-4104-9683-066d2523fd3f","ios":"levelo://app?vid=02dd205b-e97c-4104-9683-066d2523fd3f"},"vehicle_type_id":"4","last_reported":1761646291,"current_range_meters":17200,"station_id":"cpo3342slgdg3j2ifvpg","pricing_plan_id":"cebpf4jnsgd1na2vs0mg"},{"bike_id":"fc0ec4b0-3301-435f-a8cb-285894800f7a","system_id":"levelo_inurba_marseille","lat":43.32469,"lon":5.36558,"is_reserved":false,"is_disabled":false,"rental_uris":{"android":"levelo://app?vid=fc0ec4b0-3301-435f-a8cb-285894800f7a","ios":"levelo://app?vid=fc0ec4b0-3301-435f-a8cb-285894800f7a"},"vehicle_type_id":"4","last_reported":1761646291,"current_range_meters":17200,"station_id":"ce4bhs12rcd13ifvqhvg","pricing_plan_id":"cebpf4jnsgd1na2vs0mg"},{"bike_id":"f79a84f4-55d0-4441-8119-340765a2973b","system_id":"levelo_inurba_marseille","lat":43.25928,"lon":5.40905,"is_reserved":false,"is_disabled":false,"rental_uris":{"android":"levelo://app?vid=f79a84f4-55d0-4441-8119-340765a2973b","ios":"levelo://app?vid=f79a84f4-55d0-4441-8119-340765a2973b"},"vehicle_type_id":"4","last_reported":1761646291,"current_range_meters":17600,"station_id":"ce4bhm92rcd13ifvqglg","pricing_plan_id":"cebpf4jnsgd1na2vs0mg"},{"bike_id":"0278b3ce-87fd-4225-a971-5cd6d347c42c","system_id":"levelo_inurba_marseille","lat":43.29225,"lon":5.36073,"is_reserved":false,"is_disabled":false,"rental_uris":{"android":"levelo://app?vid=0278b3ce-87fd-4225-a971-5cd6d347c42c","ios":"levelo://app?vid=0278b3ce-87fd-4225-a971-5cd6d347c42c"},"vehicle_type_id":"4","last_reported":1761646291,"current_range_meters":17600,"station_id":"ce4bhbh2rcd13ifvqeqg","pricing_plan_id":"cebpf4jnsgd1na2vs0mg"},{"bike_id":"fc689893-6350-4e0a-916a-a88878849e6a","system_id":"levelo_inurba_marseille","lat":43.30379,"lon":5.42492,"is_reserved":false,"is_disabled":false,"rental_uris":{"android":"levelo://app?vid=fc689893-6350-4e0a-916a-a88878849e6a","ios":"levelo://app?vid=fc689893-6350-4e0a-916a-a88878849e6a"},"vehicle_type_id":"4","last_reported":1761646291,"current_range_meters":17600,"station_id":"ce4bhoh2rcd13ifvqh6g","pricing_plan_id":"cebpf4jnsgd1na2vs0mg"},{"bike_id":"2b8781f1-9477-4dc4-b793-c006a6885d7d","system_id":"levelo_inurba_marseille","lat":43.30921,"lon":5.36845,"is_reserved":false,"is_disabled":false,"rental_uris":{"android":"levelo://app?vid=2b8781f1-9477-4dc4-b793-c006a6885d7d","ios":"levelo://app?vid=2b8781f1-9477-4dc4-b793-c006a6885d7d"},"vehicle_type_id":"4","last_reported":1761646291,"current_range_meters":17600,"station_id":"ce4bgn92rcd13ifvqbvg","pricing_plan_id":"cebpf4jnsgd1na2vs0mg"},{"bike_id":"99373ff4-c6ad-47a3-8ec0-acdae6a78daf","system_id":"levelo_inurba_marseille","lat":43.305568,"lon":5.365365,"is_reserved":false,"is_disabled":false,"rental_uris":{"android":"levelo://app?vid=99373ff4-c6ad-47a3-8ec0-acdae6a78daf","ios":"levelo://app?vid=99373ff4-c6ad-47a3-8ec0-acdae6a78daf"},"vehicle_type_id":"4","last_reported":1761646291,"current_range_meters":17600,"station_id":"ce4bgs12rcd13ifvqcag","pricing_plan_id":"cebpf4jnsgd1na2vs0mg"},{"bike_id":"83e84d1d-f7de-41f8-8095-190c452d420d","system_id":"levelo_inurba_marseille","lat":43.3095,"lon":5.39043,"is_reserved":false,"is_disabled":false,"rental_uris":{"android":"levelo://app?vid=83e84d1d-f7de-41f8-8095-190c452d420d","ios":"levelo://app?vid=83e84d1d-f7de-41f8-8095-190c452d420d"},"vehicle_type_id":"4","last_reported":1761646291,"current_range_meters":17600,"station_id":"ce4bgup2rcd13ifvqco0","pricing_plan_id":"cebpf4jnsgd1na2vs0mg"},{"bike_id":"85a7df2c-8dcf-46f5-826c-c18168f09c7e","system_id":"levelo_inurba_marseille","lat":43.23062,"lon":5.35493,"is_reserved":false,"is_disabled":false,"rental_uris":{"android":"levelo://app?vid=85a7df2c-8dcf-46f5-826c-c18168f09c7e","ios":"levelo://app?vid=85a7df2c-8dcf-46f5-826c-c18168f09c7e"},"vehicle_type_id":"4","last_reported":1761646291,"current_range_meters":17600,"station_id":"cpo3342slgdg3j2ifvpg","pricing_plan_id":"cebpf4jnsgd1na2vs0mg"},{"bike_id":"d5d227ed-f82b-41ab-be3e-db91ac78eac3","system_id":"levelo_inurba_marseille","lat":43.29257,"lon":5.37632,"is_reserved":false,"is_disabled":false,"rental_uris":{"android":"levelo://app?vid=d5d227ed-f82b-41ab-be3e-db91ac78eac3","ios":"levelo://app?vid=d5d227ed-f82b-41ab-be3e-db91ac78eac3"},"vehicle_type_id":"4","last_reported":1761646291,"current_range_meters":18000,"station_id":"ce4bgi12rcd13ifvqb80","pricing_plan_id":"cebpf4jnsgd1na2vs0mg"},{"bike_id":"760e19d7-feba-4336-8bb7-6d4a6c700460","system_id":"levelo_inurba_marseille","lat":43.266686,"lon":5.382585,"is_reserved":false,"is_disabled":false,"rental_uris":{"android":"levelo://app?vid=760e19d7-feba-4336-8bb7-6d4a6c700460","ios":"levelo://app?vid=760e19d7-feba-4336-8bb7-6d4a6c700460"},"vehicle_type_id":"4","last_reported":1761646291,"current_range_meters":18000,"station_id":"ce4bhg92rcd13ifvqf90","pricing_plan_id":"cebpf4jnsgd1na2vs0mg"},{"bike_id":"a5b9631c-fc00-4689-bef7-803838a946a9","system_id":"levelo_inurba_marseille","lat":43.23165,"lon":5.4371,"is_reserved":false,"is_disabled":false,"rental_uris":{"android":"levelo://app?vid=a5b9631c-fc00-4689-bef7-803838a946a9","ios":"levelo://app?vid=a5b9631c-fc00-4689-bef7-803838a946a9"},"vehicle_type_id":"4","last_reported":1761646291,"current_range_meters":18000,"station_id":"ce4bhmp2rcd13ifvqgog","pricing_plan_id":"cebpf4jnsgd1na2vs0mg"},{"bike_id":"8892c35d-6bfd-41c1-a44b-1b646fc53c9b","system_id":"levelo_inurba_marseille","lat":43.23057,"lon":5.35489,"is_reserved":false,"is_disabled":false,"rental_uris":{"android":"levelo://app?vid=8892c35d-6bfd-41c1-a44b-1b646fc53c9b","ios":"levelo://app?vid=8892c35d-6bfd-41c1-a44b-1b646fc53c9b"},"vehicle_type_id":"4","last_reported":1761646291,"current_range_meters":18000,"station_id":"cpo3342slgdg3j2ifvpg","pricing_plan_id":"cebpf4jnsgd1na2vs0mg"},{"bike_id":"9290c7a7-69c0-4b47-8ea2-eb69edee6a84","system_id":"levelo_inurba_marseille","lat":43.23151,"lon":5.43698,"is_reserved":false,"is_disabled":false,"rental_uris":{"android":"levelo://app?vid=9290c7a7-69c0-4b47-8ea2-eb69edee6a84","ios":"levelo://app?vid=9290c7a7-69c0-4b47-8ea2-eb69edee6a84"},"vehicle_type_id":"4","last_reported":1761646291,"current_range_meters":18000,"station_id":"ce4bhmp2rcd13ifvqgog","pricing_plan_id":"cebpf4jnsgd1na2vs0mg"},{"bike_id":"62048c1d-e486-4431-b42e-9f448f8dd9e9","system_id":"levelo_inurba_marseille","lat":43.29005,"lon":5.3561,"is_reserved":false,"is_disabled":false,"rental_uris":{"android":"levelo://app?vid=62048c1d-e486-4431-b42e-9f448f8dd9e9","ios":"levelo://app?vid=62048c1d-e486-4431-b42e-9f448f8dd9e9"},"vehicle_type_id":"4","last_reported":1761646291,"current_range_meters":18000,"station_id":"ce4bhb92rcd13ifvqen0","pricing_plan_id":"cebpf4jnsgd1na2vs0mg"},{"bike_id":"11ef3bae-f74c-4d6c-9e1c-74445fbc74b3","system_id":"levelo_inurba_marseille","lat":43.255106,"lon":5.376552,"is_reserved":false,"is_disabled":false,"rental_uris":{"android":"levelo://app?vid=11ef3bae-f74c-4d6c-9e1c-74445fbc74b3","ios":"levelo://app?vid=11ef3bae-f74c-4d6c-9e1c-74445fbc74b3"},"vehicle_type_id":"4","last_reported":1761646291,"current_range_meters":18000,"station_id":"ce4bhh12rcd13ifvqff0","pricing_plan_id":"cebpf4jnsgd1na2vs0mg"},{"bike_id":"aa0e7e4b-f890-4f53-a40a-615d9f77115a","system_id":"levelo_inurba_marseille","lat":43.321091,"lon":5.367743,"is_reserved":false,"is_disabled":false,"rental_uris":{"android":"levelo://app?vid=aa0e7e4b-f890-4f53-a40a-615d9f77115a","ios":"levelo://app?vid=aa0e7e4b-f890-4f53-a40a-615d9f77115a"},"vehicle_type_id":"4","last_reported":1761646291,"current_range_meters":18800,"station_id":"ce4bhrh2rcd13ifvqhug","pricing_plan_id":"cebpf4jnsgd1na2vs0mg"},{"bike_id":"90912449-47ee-4e3c-bc07-700ef10cb085","system_id":"levelo_inurba_marseille","lat":43.30594,"lon":5.39361,"is_reserved":false,"is_disabled":false,"rental_uris":{"android":"levelo://app?vid=90912449-47ee-4e3c-bc07-700ef10cb085","ios":"levelo://app?vid=90912449-47ee-4e3c-bc07-700ef10cb085"},"vehicle_type_id":"4","last_reported":1761646291,"current_range_meters":18800,"station_id":"ce4bh0p2rcd13ifvqd80","pricing_plan_id":"cebpf4jnsgd1na2vs0mg"},{"bike_id":"1ff14011-1bb3-49a1-9941-97d38a0c81be","system_id":"levelo_inurba_marseille","lat":43.25099,"lon":5.39511,"is_reserved":false,"is_disabled":false,"rental_uris":{"android":"levelo://app?vid=1ff14011-1bb3-49a1-9941-97d38a0c81be","ios":"levelo://app?vid=1ff14011-1bb3-49a1-9941-97d38a0c81be"},"vehicle_type_id":"4","last_reported":1761646291,"current_range_meters":18800,"station_id":"ce4bhm12rcd13ifvqgkg","pricing_plan_id":"cebpf4jnsgd1na2vs0mg"},{"bike_id":"d5712682-7a3e-4a03-91a1-046a77be28b1","system_id":"levelo_inurba_marseille","lat":43.31162,"lon":5.38724,"is_reserved":false,"is_disabled":false,"rental_uris":{"android":"levelo://app?vid=d5712682-7a3e-4a03-91a1-046a77be28b1","ios":"levelo://app?vid=d5712682-7a3e-4a03-91a1-046a77be28b1"},"vehicle_type_id":"4","last_reported":1761646291,"current_range_meters":18800,"station_id":"ce4bgv12rcd13ifvqcp0","pricing_plan_id":"cebpf4jnsgd1na2vs0mg"},{"bike_id":"8743deb1-3e1b-4fe6-ab63-b75dc0a57f17","system_id":"levelo_inurba_marseille","lat":43.230659,"lon":5.354913,"is_reserved":false,"is_disabled":false,"rental_uris":{"android":"levelo://app?vid=8743deb1-3e1b-4fe6-ab63-b75dc0a57f17","ios":"levelo://app?vid=8743deb1-3e1b-4fe6-ab63-b75dc0a57f17"},"vehicle_type_id":"4","last_reported":1761646291,"current_range_meters":18800,"station_id":"cpo3342slgdg3j2ifvpg","pricing_plan_id":"cebpf4jnsgd1na2vs0mg"},{"bike_id":"6ce8387a-7217-4885-b90c-41215d188545","system_id":"levelo_inurba_marseille","lat":43.288666,"lon":5.409351,"is_reserved":false,"is_disabled":false,"rental_uris":{"android":"levelo://app?vid=6ce8387a-7217-4885-b90c-41215d188545","ios":"levelo://app?vid=6ce8387a-7217-4885-b90c-41215d188545"},"vehicle_type_id":"4","last_reported":1761646291,"current_range_meters":18800,"station_id":"","pricing_plan_id":"cebpf4jnsgd1na2vs0mg"},{"bike_id":"3c172d5e-4be3-4447-81d6-5d4b4efa8bc0","system_id":"levelo_inurba_marseille","lat":43.265398,"lon":5.385409,"is_reserved":false,"is_disabled":false,"rental_uris":{"android":"levelo://app?vid=3c172d5e-4be3-4447-81d6-5d4b4efa8bc0","ios":"levelo://app?vid=3c172d5e-4be3-4447-81d6-5d4b4efa8bc0"},"vehicle_type_id":"4","last_reported":1761646291,"current_range_meters":18800,"station_id":"","pricing_plan_id":"cebpf4jnsgd1na2vs0mg"},{"bike_id":"f7d637e7-948c-4234-820d-6d0c6be93587","system_id":"levelo_inurba_marseille","lat":43.28251,"lon":5.35075,"is_reserved":false,"is_disabled":false,"rental_uris":{"android":"levelo://app?vid=f7d637e7-948c-4234-820d-6d0c6be93587","ios":"levelo://app?vid=f7d637e7-948c-4234-820d-6d0c6be93587"},"vehicle_type_id":"4","last_reported":1761646291,"current_range_meters":19200,"station_id":"ce4bhbp2rcd13ifvqerg","pricing_plan_id":"cebpf4jnsgd1na2vs0mg"},{"bike_id":"d3a42040-2141-4afa-ac78-ffd4f86fafb2","system_id":"levelo_inurba_marseille","lat":43.261914,"lon":5.374595,"is_reserved":false,"is_disabled":false,"rental_uris":{"android":"levelo://app?vid=d3a42040-2141-4afa-ac78-ffd4f86fafb2","ios":"levelo://app?vid=d3a42040-2141-4afa-ac78-ffd4f86fafb2"},"vehicle_type_id":"4","last_reported":1761646291,"current_range_meters":19200,"station_id":"ce4bhgp2rcd13ifvqfc0","pricing_plan_id":"cebpf4jnsgd1na2vs0mg"},{"bike_id":"f4dc36c7-6111-46e3-863e-30c22df8c912","system_id":"levelo_inurba_marseille","lat":43.26788,"lon":5.3941,"is_reserved":false,"is_disabled":false,"rental_uris":{"android":"levelo://app?vid=f4dc36c7-6111-46e3-863e-30c22df8c912","ios":"levelo://app?vid=f4dc36c7-6111-46e3-863e-30c22df8c912"},"vehicle_type_id":"4","last_reported":1761646291,"current_range_meters":19200,"station_id":"ce4bhh12rcd13ifvqfg0","pricing_plan_id":"cebpf4jnsgd1na2vs0mg"},{"bike_id":"cf532674-ded9-4c61-87c1-a0668ebf0df3","system_id":"levelo_inurba_marseille","lat":43.24078,"lon":5.37751,"is_reserved":false,"is_disabled":false,"rental_uris":{"android":"levelo://app?vid=cf532674-ded9-4c61-87c1-a0668ebf0df3","ios":"levelo://app?vid=cf532674-ded9-4c61-87c1-a0668ebf0df3"},"vehicle_type_id":"4","last_reported":1761646291,"current_range_meters":19200,"station_id":"ce4bhnp2rcd13ifvqgvg","pricing_plan_id":"cebpf4jnsgd1na2vs0mg"},{"bike_id":"96b93a83-82f2-4d31-acb8-139fbce4500d","system_id":"levelo_inurba_marseille","lat":43.229305,"lon":5.353885,"is_reserved":false,"is_disabled":false,"rental_uris":{"android":"levelo://app?vid=96b93a83-82f2-4d31-acb8-139fbce4500d","ios":"levelo://app?vid=96b93a83-82f2-4d31-acb8-139fbce4500d"},"vehicle_type_id":"4","last_reported":1761646291,"current_range_meters":19200,"station_id":"cpo3532slgdg3j2ikp40","pricing_plan_id":"cebpf4jnsgd1na2vs0mg"},{"bike_id":"56fd111b-345a-4693-9a2f-92da0def9adb","system_id":"levelo_inurba_marseille","lat":43.29261,"lon":5.3844,"is_reserved":false,"is_disabled":true,"rental_uris":{"android":"levelo://app?vid=56fd111b-345a-4693-9a2f-92da0def9adb","ios":"levelo://app?vid=56fd111b-345a-4693-9a2f-92da0def9adb"},"vehicle_type_id":"4","last_reported":1761646291,"current_range_meters":19600,"station_id":"","pricing_plan_id":"cebpf4jnsgd1na2vs0mg"},{"bike_id":"941eca81-61b6-4376-acbb-773a2fc9f625","system_id":"levelo_inurba_marseille","lat":43.320936,"lon":5.367755,"is_reserved":false,"is_disabled":false,"rental_uris":{"android":"levelo://app?vid=941eca81-61b6-4376-acbb-773a2fc9f625","ios":"levelo://app?vid=941eca81-61b6-4376-acbb-773a2fc9f625"},"vehicle_type_id":"4","last_reported":1761646291,"current_range_meters":19600,"station_id":"ce4bhrh2rcd13ifvqhug","pricing_plan_id":"cebpf4jnsgd1na2vs0mg"},{"bike_id":"6d8da19b-0143-43ba-a2b6-b774a32597d4","system_id":"levelo_inurba_marseille","lat":43.28148,"lon":5.34757,"is_reserved":false,"is_disabled":false,"rental_uris":{"android":"levelo://app?vid=6d8da19b-0143-43ba-a2b6-b774a32597d4","ios":"levelo://app?vid=6d8da19b-0143-43ba-a2b6-b774a32597d4"},"vehicle_type_id":"4","last_reported":1761646291,"current_range_meters":19600,"station_id":"","pricing_plan_id":"cebpf4jnsgd1na2vs0mg"},{"bike_id":"a431b989-469f-46d2-b4ee-4e2bfd83fa60","system_id":"levelo_inurba_marseille","lat":43.27175,"lon":5.40988,"is_reserved":false,"is_disabled":false,"rental_uris":{"android":"levelo://app?vid=a431b989-469f-46d2-b4ee-4e2bfd83fa60","ios":"levelo://app?vid=a431b989-469f-46d2-b4ee-4e2bfd83fa60"},"vehicle_type_id":"4","last_reported":1761646291,"current_range_meters":19600,"station_id":"ce4bhl12rcd13ifvqgf0","pricing_plan_id":"cebpf4jnsgd1na2vs0mg"},{"bike_id":"cc24e2d6-1c19-4c0f-9066-da2f75e78c9a","system_id":"levelo_inurba_marseille","lat":43.30908,"lon":5.36844,"is_reserved":false,"is_disabled":false,"rental_uris":{"android":"levelo://app?vid=cc24e2d6-1c19-4c0f-9066-da2f75e78c9a","ios":"levelo://app?vid=cc24e2d6-1c19-4c0f-9066-da2f75e78c9a"},"vehicle_type_id":"4","last_reported":1761646291,"current_range_meters":19600,"station_id":"ce4bgn92rcd13ifvqbvg","pricing_plan_id":"cebpf4jnsgd1na2vs0mg"},{"bike_id":"14fed8bf-0e52-4b67-9780-8d00ed00b796","system_id":"levelo_inurba_marseille","lat":43.25092,"lon":5.39506,"is_reserved":false,"is_disabled":false,"rental_uris":{"android":"levelo://app?vid=14fed8bf-0e52-4b67-9780-8d00ed00b796","ios":"levelo://app?vid=14fed8bf-0e52-4b67-9780-8d00ed00b796"},"vehicle_type_id":"4","last_reported":1761646291,"current_range_meters":19600,"station_id":"ce4bhm12rcd13ifvqgkg","pricing_plan_id":"cebpf4jnsgd1na2vs0mg"},{"bike_id":"6697e614-e283-408e-99cf-55cf61ed668d","system_id":"levelo_inurba_marseille","lat":43.299877,"lon":5.371749,"is_reserved":false,"is_disabled":false,"rental_uris":{"android":"levelo://app?vid=6697e614-e283-408e-99cf-55cf61ed668d","ios":"levelo://app?vid=6697e614-e283-408e-99cf-55cf61ed668d"},"vehicle_type_id":"4","last_reported":1761646291,"current_range_meters":19600,"station_id":"ce4bgr92rcd13ifvqc7g","pricing_plan_id":"cebpf4jnsgd1na2vs0mg"},{"bike_id":"e9ba3964-7167-4306-9562-51c9b206931d","system_id":"levelo_inurba_marseille","lat":43.24391,"lon":5.37072,"is_reserved":false,"is_disabled":false,"rental_uris":{"android":"levelo://app?vid=e9ba3964-7167-4306-9562-51c9b206931d","ios":"levelo://app?vid=e9ba3964-7167-4306-9562-51c9b206931d"},"vehicle_type_id":"4","last_reported":1761646291,"current_range_meters":19600,"station_id":"ce4bhhh2rcd13ifvqfk0","pricing_plan_id":"cebpf4jnsgd1na2vs0mg"},{"bike_id":"f6adb9c1-4a78-4322-baec-aa5f6f5d93b6","system_id":"levelo_inurba_marseille","lat":43.225321,"lon":5.348302,"is_reserved":false,"is_disabled":false,"rental_uris":{"android":"levelo://app?vid=f6adb9c1-4a78-4322-baec-aa5f6f5d93b6","ios":"levelo://app?vid=f6adb9c1-4a78-4322-baec-aa5f6f5d93b6"},"vehicle_type_id":"4","last_reported":1761646291,"current_range_meters":19600,"station_id":"","pricing_plan_id":"cebpf4jnsgd1na2vs0mg"},{"bike_id":"e3260d53-1f31-4048-a6b1-57d9b1375877","system_id":"levelo_inurba_marseille","lat":43.2852,"lon":5.44103,"is_reserved":false,"is_disabled":false,"rental_uris":{"android":"levelo://app?vid=e3260d53-1f31-4048-a6b1-57d9b1375877","ios":"levelo://app?vid=e3260d53-1f31-4048-a6b1-57d9b1375877"},"vehicle_type_id":"4","last_reported":1761646291,"current_range_meters":20000,"station_id":"st_d3j3df2ikq2c7380ej80","pricing_plan_id":"cebpf4jnsgd1na2vs0mg"},{"bike_id":"3d00cf23-a66b-47a1-8eb3-f05af16b09a1","system_id":"levelo_inurba_marseille","lat":43.243945,"lon":5.370729,"is_reserved":false,"is_disabled":false,"rental_uris":{"android":"levelo://app?vid=3d00cf23-a66b-47a1-8eb3-f05af16b09a1","ios":"levelo://app?vid=3d00cf23-a66b-47a1-8eb3-f05af16b09a1"},"vehicle_type_id":"4","last_reported":1761646291,"current_range_meters":20000,"station_id":"ce4bhhh2rcd13ifvqfk0","pricing_plan_id":"cebpf4jnsgd1na2vs0mg"},{"bike_id":"b2cf44c8-c04f-4c2f-84fe-5cf427eaa07e","system_id":"levelo_inurba_marseille","lat":43.305946,"lon":5.393656,"is_reserved":false,"is_disabled":false,"rental_uris":{"android":"levelo://app?vid=b2cf44c8-c04f-4c2f-84fe-5cf427eaa07e","ios":"levelo://app?vid=b2cf44c8-c04f-4c2f-84fe-5cf427eaa07e"},"vehicle_type_id":"4","last_reported":1761646291,"current_range_meters":20000,"station_id":"ce4bh0p2rcd13ifvqd80","pricing_plan_id":"cebpf4jnsgd1na2vs0mg"},{"bike_id":"8e2dcd31-6a9c-4b7f-a366-5e2640173d3c","system_id":"levelo_inurba_marseille","lat":43.229622,"lon":5.35365,"is_reserved":false,"is_disabled":false,"rental_uris":{"android":"levelo://app?vid=8e2dcd31-6a9c-4b7f-a366-5e2640173d3c","ios":"levelo://app?vid=8e2dcd31-6a9c-4b7f-a366-5e2640173d3c"},"vehicle_type_id":"4","last_reported":1761646291,"current_range_meters":20000,"station_id":"cpo3532slgdg3j2ikp40","pricing_plan_id":"cebpf4jnsgd1na2vs0mg"},{"bike_id":"8f40e585-9573-4a47-a5fc-e6719e6dcb82","system_id":"levelo_inurba_marseille","lat":43.30171,"lon":5.36629,"is_reserved":false,"is_disabled":false,"rental_uris":{"android":"levelo://app?vid=8f40e585-9573-4a47-a5fc-e6719e6dcb82","ios":"levelo://app?vid=8f40e585-9573-4a47-a5fc-e6719e6dcb82"},"vehicle_type_id":"4","last_reported":1761646291,"current_range_meters":20000,"station_id":"ce4bgrh2rcd13ifvqc8g","pricing_plan_id":"cebpf4jnsgd1na2vs0mg"},{"bike_id":"6578b1a7-048d-4541-ac17-886c2d1e6d6a","system_id":"levelo_inurba_marseille","lat":43.27205,"lon":5.39164,"is_reserved":false,"is_disabled":false,"rental_uris":{"android":"levelo://app?vid=6578b1a7-048d-4541-ac17-886c2d1e6d6a","ios":"levelo://app?vid=6578b1a7-048d-4541-ac17-886c2d1e6d6a"},"vehicle_type_id":"4","last_reported":1761646291,"current_range_meters":20000,"station_id":"ce4bhhp2rcd13ifvqfm0","pricing_plan_id":"cebpf4jnsgd1na2vs0mg"},{"bike_id":"60e48d99-4eb3-4f02-8e95-5ec5b2f3486e","system_id":"levelo_inurba_marseille","lat":43.24176,"lon":5.397312,"is_reserved":false,"is_disabled":false,"rental_uris":{"android":"levelo://app?vid=60e48d99-4eb3-4f02-8e95-5ec5b2f3486e","ios":"levelo://app?vid=60e48d99-4eb3-4f02-8e95-5ec5b2f3486e"},"vehicle_type_id":"4","last_reported":1761646291,"current_range_meters":20000,"station_id":"ce4bhn12rcd13ifvqgpg","pricing_plan_id":"cebpf4jnsgd1na2vs0mg"},{"bike_id":"f86f1e16-7bbf-41e3-a8ac-3bbb676027a4","system_id":"levelo_inurba_marseille","lat":43.28484,"lon":5.3855,"is_reserved":false,"is_disabled":false,"rental_uris":{"android":"levelo://app?vid=f86f1e16-7bbf-41e3-a8ac-3bbb676027a4","ios":"levelo://app?vid=f86f1e16-7bbf-41e3-a8ac-3bbb676027a4"},"vehicle_type_id":"4","last_reported":1761646291,"current_range_meters":20000,"station_id":"ce4bh8p2rcd13ifvqeb0","pricing_plan_id":"cebpf4jnsgd1na2vs0mg"},{"bike_id":"be2dc5fb-e27d-4d1a-97df-2261a1e2677e","system_id":"levelo_inurba_marseille","lat":43.265644,"lon":5.390147,"is_reserved":false,"is_disabled":true,"rental_uris":{"android":"levelo://app?vid=be2dc5fb-e27d-4d1a-97df-2261a1e2677e","ios":"levelo://app?vid=be2dc5fb-e27d-4d1a-97df-2261a1e2677e"},"vehicle_type_id":"4","last_reported":1761646291,"current_range_meters":20000,"station_id":"","pricing_plan_id":"cebpf4jnsgd1na2vs0mg"},{"bike_id":"faee4aed-34d1-4e59-9f3e-bc2337688920","system_id":"levelo_inurba_marseille","lat":43.31717,"lon":5.43696,"is_reserved":false,"is_disabled":true,"rental_uris":{"android":"levelo://app?vid=faee4aed-34d1-4e59-9f3e-bc2337688920","ios":"levelo://app?vid=faee4aed-34d1-4e59-9f3e-bc2337688920"},"vehicle_type_id":"4","last_reported":1761646291,"current_range_meters":20000,"station_id":"ce4bhp92rcd13ifvqhcg","pricing_plan_id":"cebpf4jnsgd1na2vs0mg"},{"bike_id":"1d2f5121-1156-406d-9bfb-6de607efd7cf","system_id":"levelo_inurba_marseille","lat":43.25934,"lon":5.40894,"is_reserved":false,"is_disabled":false,"rental_uris":{"android":"levelo://app?vid=1d2f5121-1156-406d-9bfb-6de607efd7cf","ios":"levelo://app?vid=1d2f5121-1156-406d-9bfb-6de607efd7cf"},"vehicle_type_id":"4","last_reported":1761646291,"current_range_meters":20000,"station_id":"ce4bhm92rcd13ifvqglg","pricing_plan_id":"cebpf4jnsgd1na2vs0mg"},{"bike_id":"efa11b73-8f4f-43ea-8d90-4d68787997a0","system_id":"levelo_inurba_marseille","lat":43.30531,"lon":5.36706,"is_reserved":false,"is_disabled":false,"rental_uris":{"android":"levelo://app?vid=efa11b73-8f4f-43ea-8d90-4d68787997a0","ios":"levelo://app?vid=efa11b73-8f4f-43ea-8d90-4d68787997a0"},"vehicle_type_id":"4","last_reported":1761646291,"current_range_meters":20000,"station_id":"ce4bgrp2rcd13ifvqc9g","pricing_plan_id":"cebpf4jnsgd1na2vs0mg"},{"bike_id":"4f24d0df-7b9a-48fa-a400-a6a0ae0f4ff8","system_id":"levelo_inurba_marseille","lat":43.24161,"lon":5.39718,"is_reserved":false,"is_disabled":false,"rental_uris":{"android":"levelo://app?vid=4f24d0df-7b9a-48fa-a400-a6a0ae0f4ff8","ios":"levelo://app?vid=4f24d0df-7b9a-48fa-a400-a6a0ae0f4ff8"},"vehicle_type_id":"4","last_reported":1761646291,"current_range_meters":20000,"station_id":"ce4bhn12rcd13ifvqgpg","pricing_plan_id":"cebpf4jnsgd1na2vs0mg"},{"bike_id":"39d094ac-6017-4390-8e80-c3e2498dcfcf","system_id":"levelo_inurba_marseille","lat":43.24634,"lon":5.43156,"is_reserved":false,"is_disabled":false,"rental_uris":{"android":"levelo://app?vid=39d094ac-6017-4390-8e80-c3e2498dcfcf","ios":"levelo://app?vid=39d094ac-6017-4390-8e80-c3e2498dcfcf"},"vehicle_type_id":"4","last_reported":1761646291,"current_range_meters":20400,"station_id":"st_d2m6c4gdas8pm72e190g","pricing_plan_id":"cebpf4jnsgd1na2vs0mg"},{"bike_id":"98819f4e-9e8f-4b32-8615-e08640d2c475","system_id":"levelo_inurba_marseille","lat":43.27362,"lon":5.36241,"is_reserved":false,"is_disabled":false,"rental_uris":{"android":"levelo://app?vid=98819f4e-9e8f-4b32-8615-e08640d2c475","ios":"levelo://app?vid=98819f4e-9e8f-4b32-8615-e08640d2c475"},"vehicle_type_id":"4","last_reported":1761646291,"current_range_meters":20400,"station_id":"ce4bhbh2rcd13ifvqeo0","pricing_plan_id":"cebpf4jnsgd1na2vs0mg"},{"bike_id":"d8f01a87-338f-417f-87fc-81131e46bf2c","system_id":"levelo_inurba_marseille","lat":43.28271,"lon":5.35081,"is_reserved":false,"is_disabled":false,"rental_uris":{"android":"levelo://app?vid=d8f01a87-338f-417f-87fc-81131e46bf2c","ios":"levelo://app?vid=d8f01a87-338f-417f-87fc-81131e46bf2c"},"vehicle_type_id":"4","last_reported":1761646291,"current_range_meters":20400,"station_id":"ce4bhbp2rcd13ifvqerg","pricing_plan_id":"cebpf4jnsgd1na2vs0mg"},{"bike_id":"5d6dab70-76c7-420b-ad97-bb518b3696b2","system_id":"levelo_inurba_marseille","lat":43.30533,"lon":5.36526,"is_reserved":false,"is_disabled":false,"rental_uris":{"android":"levelo://app?vid=5d6dab70-76c7-420b-ad97-bb518b3696b2","ios":"levelo://app?vid=5d6dab70-76c7-420b-ad97-bb518b3696b2"},"vehicle_type_id":"4","last_reported":1761646291,"current_range_meters":20400,"station_id":"ce4bgs12rcd13ifvqcag","pricing_plan_id":"cebpf4jnsgd1na2vs0mg"},{"bike_id":"0a61e5cd-3cd0-469c-b899-eaf7f5e2c2f9","system_id":"levelo_inurba_marseille","lat":43.24166,"lon":5.39706,"is_reserved":false,"is_disabled":false,"rental_uris":{"android":"levelo://app?vid=0a61e5cd-3cd0-469c-b899-eaf7f5e2c2f9","ios":"levelo://app?vid=0a61e5cd-3cd0-469c-b899-eaf7f5e2c2f9"},"vehicle_type_id":"4","last_reported":1761646291,"current_range_meters":20400,"station_id":"ce4bhn12rcd13ifvqgpg","pricing_plan_id":"cebpf4jnsgd1na2vs0mg"},{"bike_id":"75dc66b3-0d26-400d-85b7-e985f64e2136","system_id":"levelo_inurba_marseille","lat":43.28988,"lon":5.43697,"is_reserved":false,"is_disabled":false,"rental_uris":{"android":"levelo://app?vid=75dc66b3-0d26-400d-85b7-e985f64e2136","ios":"levelo://app?vid=75dc66b3-0d26-400d-85b7-e985f64e2136"},"vehicle_type_id":"4","last_reported":1761646291,"current_range_meters":20800,"station_id":"","pricing_plan_id":"cebpf4jnsgd1na2vs0mg"},{"bike_id":"0aaccd4f-3ae6-4377-997d-dfcefde2220d","system_id":"levelo_inurba_marseille","lat":43.23971,"lon":5.36614,"is_reserved":false,"is_disabled":false,"rental_uris":{"android":"levelo://app?vid=0aaccd4f-3ae6-4377-997d-dfcefde2220d","ios":"levelo://app?vid=0aaccd4f-3ae6-4377-997d-dfcefde2220d"},"vehicle_type_id":"4","last_reported":1761646291,"current_range_meters":20800,"station_id":"ce4bhi12rcd13ifvqfp0","pricing_plan_id":"cebpf4jnsgd1na2vs0mg"},{"bike_id":"1a34b5a4-3c1e-479b-b6f5-76f97d5c5c52","system_id":"levelo_inurba_marseille","lat":43.28527,"lon":5.441,"is_reserved":false,"is_disabled":false,"rental_uris":{"android":"levelo://app?vid=1a34b5a4-3c1e-479b-b6f5-76f97d5c5c52","ios":"levelo://app?vid=1a34b5a4-3c1e-479b-b6f5-76f97d5c5c52"},"vehicle_type_id":"4","last_reported":1761646291,"current_range_meters":20800,"station_id":"st_d3j3df2ikq2c7380ej80","pricing_plan_id":"cebpf4jnsgd1na2vs0mg"},{"bike_id":"0a0f5fe2-a99d-4a4d-afc6-8a0aeeb4e546","system_id":"levelo_inurba_marseille","lat":43.29632,"lon":5.37154,"is_reserved":false,"is_disabled":false,"rental_uris":{"android":"levelo://app?vid=0a0f5fe2-a99d-4a4d-afc6-8a0aeeb4e546","ios":"levelo://app?vid=0a0f5fe2-a99d-4a4d-afc6-8a0aeeb4e546"},"vehicle_type_id":"4","last_reported":1761646291,"current_range_meters":20800,"station_id":"ce4bgnh2rcd13ifvqc0g","pricing_plan_id":"cebpf4jnsgd1na2vs0mg"},{"bike_id":"29fedfcf-711f-4172-b067-9501d1ef7f5b","system_id":"levelo_inurba_marseille","lat":43.25517,"lon":5.37648,"is_reserved":false,"is_disabled":false,"rental_uris":{"android":"levelo://app?vid=29fedfcf-711f-4172-b067-9501d1ef7f5b","ios":"levelo://app?vid=29fedfcf-711f-4172-b067-9501d1ef7f5b"},"vehicle_type_id":"4","last_reported":1761646291,"current_range_meters":20800,"station_id":"ce4bhh12rcd13ifvqff0","pricing_plan_id":"cebpf4jnsgd1na2vs0mg"},{"bike_id":"9263afd0-c97c-4a6a-bc8f-9cd87e895d9a","system_id":"levelo_inurba_marseille","lat":43.260563,"lon":5.394026,"is_reserved":false,"is_disabled":false,"rental_uris":{"android":"levelo://app?vid=9263afd0-c97c-4a6a-bc8f-9cd87e895d9a","ios":"levelo://app?vid=9263afd0-c97c-4a6a-bc8f-9cd87e895d9a"},"vehicle_type_id":"4","last_reported":1761646291,"current_range_meters":20800,"station_id":"ce4bhh92rcd13ifvqfj0","pricing_plan_id":"cebpf4jnsgd1na2vs0mg"},{"bike_id":"274d77b4-bd72-4c55-8f33-fb5287848718","system_id":"levelo_inurba_marseille","lat":43.30118,"lon":5.3987,"is_reserved":false,"is_disabled":true,"rental_uris":{"android":"levelo://app?vid=274d77b4-bd72-4c55-8f33-fb5287848718","ios":"levelo://app?vid=274d77b4-bd72-4c55-8f33-fb5287848718"},"vehicle_type_id":"4","last_reported":1761646291,"current_range_meters":20800,"station_id":"ce4bh0h2rcd13ifvqd40","pricing_plan_id":"cebpf4jnsgd1na2vs0mg"},{"bike_id":"a049967b-d347-4414-83a8-1154d36b087e","system_id":"levelo_inurba_marseille","lat":43.24398,"lon":5.37066,"is_reserved":false,"is_disabled":false,"rental_uris":{"android":"levelo://app?vid=a049967b-d347-4414-83a8-1154d36b087e","ios":"levelo://app?vid=a049967b-d347-4414-83a8-1154d36b087e"},"vehicle_type_id":"4","last_reported":1761646291,"current_range_meters":20800,"station_id":"ce4bhhh2rcd13ifvqfk0","pricing_plan_id":"cebpf4jnsgd1na2vs0mg"},{"bike_id":"f56b40e7-5172-4850-bf46-834ca3385354","system_id":"levelo_inurba_marseille","lat":43.2737,"lon":5.36266,"is_reserved":false,"is_disabled":false,"rental_uris":{"android":"levelo://app?vid=f56b40e7-5172-4850-bf46-834ca3385354","ios":"levelo://app?vid=f56b40e7-5172-4850-bf46-834ca3385354"},"vehicle_type_id":"4","last_reported":1761646291,"current_range_meters":20800,"station_id":"ce4bhbh2rcd13ifvqeo0","pricing_plan_id":"cebpf4jnsgd1na2vs0mg"},{"bike_id":"7360dde9-c6f3-4146-8f4e-b7bda3257fd2","system_id":"levelo_inurba_marseille","lat":43.30534,"lon":5.36527,"is_reserved":false,"is_disabled":false,"rental_uris":{"android":"levelo://app?vid=7360dde9-c6f3-4146-8f4e-b7bda3257fd2","ios":"levelo://app?vid=7360dde9-c6f3-4146-8f4e-b7bda3257fd2"},"vehicle_type_id":"4","last_reported":1761646291,"current_range_meters":21600,"station_id":"ce4bgs12rcd13ifvqcag","pricing_plan_id":"cebpf4jnsgd1na2vs0mg"},{"bike_id":"9fbba057-dacf-495b-8346-f987d25ac873","system_id":"levelo_inurba_marseille","lat":43.33756,"lon":5.37468,"is_reserved":false,"is_disabled":false,"rental_uris":{"android":"levelo://app?vid=9fbba057-dacf-495b-8346-f987d25ac873","ios":"levelo://app?vid=9fbba057-dacf-495b-8346-f987d25ac873"},"vehicle_type_id":"4","last_reported":1761646291,"current_range_meters":21600,"station_id":"","pricing_plan_id":"cebpf4jnsgd1na2vs0mg"},{"bike_id":"ff172ac2-7565-43b3-b14a-170de46f0b4c","system_id":"levelo_inurba_marseille","lat":43.24165,"lon":5.39727,"is_reserved":false,"is_disabled":false,"rental_uris":{"android":"levelo://app?vid=ff172ac2-7565-43b3-b14a-170de46f0b4c","ios":"levelo://app?vid=ff172ac2-7565-43b3-b14a-170de46f0b4c"},"vehicle_type_id":"4","last_reported":1761646291,"current_range_meters":21600,"station_id":"ce4bhn12rcd13ifvqgpg","pricing_plan_id":"cebpf4jnsgd1na2vs0mg"},{"bike_id":"723a003b-69e7-40c1-8770-b8861d0b490a","system_id":"levelo_inurba_marseille","lat":43.229321,"lon":5.353789,"is_reserved":false,"is_disabled":false,"rental_uris":{"android":"levelo://app?vid=723a003b-69e7-40c1-8770-b8861d0b490a","ios":"levelo://app?vid=723a003b-69e7-40c1-8770-b8861d0b490a"},"vehicle_type_id":"4","last_reported":1761646291,"current_range_meters":21600,"station_id":"cpo3532slgdg3j2ikp40","pricing_plan_id":"cebpf4jnsgd1na2vs0mg"},{"bike_id":"edc72fb2-7f14-4c75-8c38-0a11b9902215","system_id":"levelo_inurba_marseille","lat":43.23963,"lon":5.36619,"is_reserved":false,"is_disabled":false,"rental_uris":{"android":"levelo://app?vid=edc72fb2-7f14-4c75-8c38-0a11b9902215","ios":"levelo://app?vid=edc72fb2-7f14-4c75-8c38-0a11b9902215"},"vehicle_type_id":"4","last_reported":1761646291,"current_range_meters":21600,"station_id":"ce4bhi12rcd13ifvqfp0","pricing_plan_id":"cebpf4jnsgd1na2vs0mg"},{"bike_id":"0fba78d5-912a-412f-bf5f-025346b8bbf6","system_id":"levelo_inurba_marseille","lat":43.31112,"lon":5.37763,"is_reserved":false,"is_disabled":false,"rental_uris":{"android":"levelo://app?vid=0fba78d5-912a-412f-bf5f-025346b8bbf6","ios":"levelo://app?vid=0fba78d5-912a-412f-bf5f-025346b8bbf6"},"vehicle_type_id":"4","last_reported":1761646291,"current_range_meters":21600,"station_id":"ce4bgt92rcd13ifvqcg0","pricing_plan_id":"cebpf4jnsgd1na2vs0mg"},{"bike_id":"036e4f11-a538-44e0-9363-2a866923620b","system_id":"levelo_inurba_marseille","lat":43.255134,"lon":5.376565,"is_reserved":false,"is_disabled":false,"rental_uris":{"android":"levelo://app?vid=036e4f11-a538-44e0-9363-2a866923620b","ios":"levelo://app?vid=036e4f11-a538-44e0-9363-2a866923620b"},"vehicle_type_id":"4","last_reported":1761646291,"current_range_meters":21600,"station_id":"ce4bhh12rcd13ifvqff0","pricing_plan_id":"cebpf4jnsgd1na2vs0mg"},{"bike_id":"c2e003b4-d5cc-4ac1-ab60-2570d2a48b19","system_id":"levelo_inurba_marseille","lat":43.30418,"lon":5.41275,"is_reserved":false,"is_disabled":false,"rental_uris":{"android":"levelo://app?vid=c2e003b4-d5cc-4ac1-ab60-2570d2a48b19","ios":"levelo://app?vid=c2e003b4-d5cc-4ac1-ab60-2570d2a48b19"},"vehicle_type_id":"4","last_reported":1761646291,"current_range_meters":22000,"station_id":"ce4bhop2rcd13ifvqh8g","pricing_plan_id":"cebpf4jnsgd1na2vs0mg"},{"bike_id":"db0d7fd2-78fb-49f2-88b1-362741a795cb","system_id":"levelo_inurba_marseille","lat":43.337444,"lon":5.374475,"is_reserved":false,"is_disabled":false,"rental_uris":{"android":"levelo://app?vid=db0d7fd2-78fb-49f2-88b1-362741a795cb","ios":"levelo://app?vid=db0d7fd2-78fb-49f2-88b1-362741a795cb"},"vehicle_type_id":"4","last_reported":1761646291,"current_range_meters":22000,"station_id":"","pricing_plan_id":"cebpf4jnsgd1na2vs0mg"},{"bike_id":"d9a6a1f6-ad3e-4d83-b3dd-5f0ef903b947","system_id":"levelo_inurba_marseille","lat":43.230866,"lon":5.354803,"is_reserved":false,"is_disabled":false,"rental_uris":{"android":"levelo://app?vid=d9a6a1f6-ad3e-4d83-b3dd-5f0ef903b947","ios":"levelo://app?vid=d9a6a1f6-ad3e-4d83-b3dd-5f0ef903b947"},"vehicle_type_id":"4","last_reported":1761646291,"current_range_meters":22000,"station_id":"","pricing_plan_id":"cebpf4jnsgd1na2vs0mg"},{"bike_id":"73d2c7a9-abd8-4225-9534-1732f4db4615","system_id":"levelo_inurba_marseille","lat":43.29207,"lon":5.3932,"is_reserved":false,"is_disabled":false,"rental_uris":{"android":"levelo://app?vid=73d2c7a9-abd8-4225-9534-1732f4db4615","ios":"levelo://app?vid=73d2c7a9-abd8-4225-9534-1732f4db4615"},"vehicle_type_id":"4","last_reported":1761646291,"current_range_meters":22000,"station_id":"ce4bh192rcd13ifvqdd0","pricing_plan_id":"cebpf4jnsgd1na2vs0mg"},{"bike_id":"60124c99-7509-485c-bcc0-5ad1b206b985","system_id":"levelo_inurba_marseille","lat":43.29801,"lon":5.37089,"is_reserved":false,"is_disabled":false,"rental_uris":{"android":"levelo://app?vid=60124c99-7509-485c-bcc0-5ad1b206b985","ios":"levelo://app?vid=60124c99-7509-485c-bcc0-5ad1b206b985"},"vehicle_type_id":"4","last_reported":1761646291,"current_range_meters":22000,"station_id":"ce4bgop2rcd13ifvqc1g","pricing_plan_id":"cebpf4jnsgd1na2vs0mg"},{"bike_id":"d004e21d-b380-4df7-8af1-a1966efa1550","system_id":"levelo_inurba_marseille","lat":43.2894,"lon":5.39628,"is_reserved":false,"is_disabled":false,"rental_uris":{"android":"levelo://app?vid=d004e21d-b380-4df7-8af1-a1966efa1550","ios":"levelo://app?vid=d004e21d-b380-4df7-8af1-a1966efa1550"},"vehicle_type_id":"4","last_reported":1761646291,"current_range_meters":22000,"station_id":"ce4bh3h2rcd13ifvqdn0","pricing_plan_id":"cebpf4jnsgd1na2vs0mg"},{"bike_id":"556c95c4-e39d-4a50-b32b-6e1b11658636","system_id":"levelo_inurba_marseille","lat":43.24167,"lon":5.36408,"is_reserved":false,"is_disabled":false,"rental_uris":{"android":"levelo://app?vid=556c95c4-e39d-4a50-b32b-6e1b11658636","ios":"levelo://app?vid=556c95c4-e39d-4a50-b32b-6e1b11658636"},"vehicle_type_id":"4","last_reported":1761646291,"current_range_meters":22000,"station_id":"cpo36qri1sfpv3e86is0","pricing_plan_id":"cebpf4jnsgd1na2vs0mg"},{"bike_id":"0f82576d-f37e-4634-87a4-042dadbbb587","system_id":"levelo_inurba_marseille","lat":43.30523,"lon":5.36693,"is_reserved":false,"is_disabled":false,"rental_uris":{"android":"levelo://app?vid=0f82576d-f37e-4634-87a4-042dadbbb587","ios":"levelo://app?vid=0f82576d-f37e-4634-87a4-042dadbbb587"},"vehicle_type_id":"4","last_reported":1761646291,"current_range_meters":22000,"station_id":"ce4bgrp2rcd13ifvqc9g","pricing_plan_id":"cebpf4jnsgd1na2vs0mg"},{"bike_id":"3e0eea37-e2ab-4506-808f-4a9b915ac580","system_id":"levelo_inurba_marseille","lat":43.289368,"lon":5.366335,"is_reserved":false,"is_disabled":false,"rental_uris":{"android":"levelo://app?vid=3e0eea37-e2ab-4506-808f-4a9b915ac580","ios":"levelo://app?vid=3e0eea37-e2ab-4506-808f-4a9b915ac580"},"vehicle_type_id":"4","last_reported":1761646291,"current_range_meters":22000,"station_id":"ce4bhap2rcd13ifvqek0","pricing_plan_id":"cebpf4jnsgd1na2vs0mg"},{"bike_id":"1bf0ecbf-7f1b-4be3-ba74-3ecb5a24a575","system_id":"levelo_inurba_marseille","lat":43.31075,"lon":5.38353,"is_reserved":false,"is_disabled":false,"rental_uris":{"android":"levelo://app?vid=1bf0ecbf-7f1b-4be3-ba74-3ecb5a24a575","ios":"levelo://app?vid=1bf0ecbf-7f1b-4be3-ba74-3ecb5a24a575"},"vehicle_type_id":"4","last_reported":1761646291,"current_range_meters":22000,"station_id":"ce4bgv92rcd13ifvqcr0","pricing_plan_id":"cebpf4jnsgd1na2vs0mg"},{"bike_id":"26fe4e43-6685-4528-a529-fbd524981758","system_id":"levelo_inurba_marseille","lat":43.240713,"lon":5.377539,"is_reserved":false,"is_disabled":false,"rental_uris":{"android":"levelo://app?vid=26fe4e43-6685-4528-a529-fbd524981758","ios":"levelo://app?vid=26fe4e43-6685-4528-a529-fbd524981758"},"vehicle_type_id":"4","last_reported":1761646291,"current_range_meters":22000,"station_id":"ce4bhnp2rcd13ifvqgvg","pricing_plan_id":"cebpf4jnsgd1na2vs0mg"},{"bike_id":"b2aa46f8-51df-4ae0-88d0-5a6448e0eee5","system_id":"levelo_inurba_marseille","lat":43.31355,"lon":5.38488,"is_reserved":false,"is_disabled":false,"rental_uris":{"android":"levelo://app?vid=b2aa46f8-51df-4ae0-88d0-5a6448e0eee5","ios":"levelo://app?vid=b2aa46f8-51df-4ae0-88d0-5a6448e0eee5"},"vehicle_type_id":"4","last_reported":1761646291,"current_range_meters":22000,"station_id":"ce4bgt92rcd13ifvqcf0","pricing_plan_id":"cebpf4jnsgd1na2vs0mg"},{"bike_id":"47e1e78b-045c-462a-97bf-cd3a9dfd847d","system_id":"levelo_inurba_marseille","lat":43.298447,"lon":5.362734,"is_reserved":false,"is_disabled":false,"rental_uris":{"android":"levelo://app?vid=47e1e78b-045c-462a-97bf-cd3a9dfd847d","ios":"levelo://app?vid=47e1e78b-045c-462a-97bf-cd3a9dfd847d"},"vehicle_type_id":"4","last_reported":1761646291,"current_range_meters":22400,"station_id":"ce4bgpp2rcd13ifvqc3g","pricing_plan_id":"cebpf4jnsgd1na2vs0mg"},{"bike_id":"fbb75000-48f5-4dbe-aa37-aa4a8d769d08","system_id":"levelo_inurba_marseille","lat":43.229232,"lon":5.353785,"is_reserved":false,"is_disabled":false,"rental_uris":{"android":"levelo://app?vid=fbb75000-48f5-4dbe-aa37-aa4a8d769d08","ios":"levelo://app?vid=fbb75000-48f5-4dbe-aa37-aa4a8d769d08"},"vehicle_type_id":"4","last_reported":1761646291,"current_range_meters":22400,"station_id":"cpo3532slgdg3j2ikp40","pricing_plan_id":"cebpf4jnsgd1na2vs0mg"},{"bike_id":"9d19aa12-f7d8-4182-8cd0-6d800ec08c05","system_id":"levelo_inurba_marseille","lat":43.276166,"lon":5.360981,"is_reserved":false,"is_disabled":true,"rental_uris":{"android":"levelo://app?vid=9d19aa12-f7d8-4182-8cd0-6d800ec08c05","ios":"levelo://app?vid=9d19aa12-f7d8-4182-8cd0-6d800ec08c05"},"vehicle_type_id":"4","last_reported":1761646291,"current_range_meters":22400,"station_id":"ce4bgj92rcd13ifvqbe0","pricing_plan_id":"cebpf4jnsgd1na2vs0mg"},{"bike_id":"7e8c1e26-ecbd-4814-afed-2c8de011139c","system_id":"levelo_inurba_marseille","lat":43.26691,"lon":5.38273,"is_reserved":false,"is_disabled":false,"rental_uris":{"android":"levelo://app?vid=7e8c1e26-ecbd-4814-afed-2c8de011139c","ios":"levelo://app?vid=7e8c1e26-ecbd-4814-afed-2c8de011139c"},"vehicle_type_id":"4","last_reported":1761646291,"current_range_meters":22800,"station_id":"ce4bhg92rcd13ifvqf90","pricing_plan_id":"cebpf4jnsgd1na2vs0mg"},{"bike_id":"6fa77929-e505-416b-9afd-2bfca1b80818","system_id":"levelo_inurba_marseille","lat":43.30912,"lon":5.36851,"is_reserved":false,"is_disabled":false,"rental_uris":{"android":"levelo://app?vid=6fa77929-e505-416b-9afd-2bfca1b80818","ios":"levelo://app?vid=6fa77929-e505-416b-9afd-2bfca1b80818"},"vehicle_type_id":"4","last_reported":1761646291,"current_range_meters":22800,"station_id":"ce4bgn92rcd13ifvqbvg","pricing_plan_id":"cebpf4jnsgd1na2vs0mg"},{"bike_id":"a0474314-7ae2-4494-9e0f-783c40c1c91a","system_id":"levelo_inurba_marseille","lat":43.229256,"lon":5.353759,"is_reserved":false,"is_disabled":false,"rental_uris":{"android":"levelo://app?vid=a0474314-7ae2-4494-9e0f-783c40c1c91a","ios":"levelo://app?vid=a0474314-7ae2-4494-9e0f-783c40c1c91a"},"vehicle_type_id":"4","last_reported":1761646291,"current_range_meters":22800,"station_id":"cpo3532slgdg3j2ikp40","pricing_plan_id":"cebpf4jnsgd1na2vs0mg"},{"bike_id":"6d97205d-76b8-4960-b8da-fb89b08a83b7","system_id":"levelo_inurba_marseille","lat":43.26785,"lon":5.39412,"is_reserved":false,"is_disabled":false,"rental_uris":{"android":"levelo://app?vid=6d97205d-76b8-4960-b8da-fb89b08a83b7","ios":"levelo://app?vid=6d97205d-76b8-4960-b8da-fb89b08a83b7"},"vehicle_type_id":"4","last_reported":1761646291,"current_range_meters":22800,"station_id":"ce4bhh12rcd13ifvqfg0","pricing_plan_id":"cebpf4jnsgd1na2vs0mg"},{"bike_id":"cd14ddf7-fd4c-467d-9de5-6b88d966db5b","system_id":"levelo_inurba_marseille","lat":43.33921,"lon":5.39776,"is_reserved":false,"is_disabled":false,"rental_uris":{"android":"levelo://app?vid=cd14ddf7-fd4c-467d-9de5-6b88d966db5b","ios":"levelo://app?vid=cd14ddf7-fd4c-467d-9de5-6b88d966db5b"},"vehicle_type_id":"4","last_reported":1761646291,"current_range_meters":22800,"station_id":"","pricing_plan_id":"cebpf4jnsgd1na2vs0mg"},{"bike_id":"e7648629-0488-45b6-9788-6dcb1c23e80a","system_id":"levelo_inurba_marseille","lat":43.309,"lon":5.36842,"is_reserved":false,"is_disabled":false,"rental_uris":{"android":"levelo://app?vid=e7648629-0488-45b6-9788-6dcb1c23e80a","ios":"levelo://app?vid=e7648629-0488-45b6-9788-6dcb1c23e80a"},"vehicle_type_id":"4","last_reported":1761646291,"current_range_meters":22800,"station_id":"ce4bgn92rcd13ifvqbvg","pricing_plan_id":"cebpf4jnsgd1na2vs0mg"},{"bike_id":"15089b8d-1a24-4f0b-b439-3c1a393be168","system_id":"levelo_inurba_marseille","lat":43.25584,"lon":5.38227,"is_reserved":false,"is_disabled":false,"rental_uris":{"android":"levelo://app?vid=15089b8d-1a24-4f0b-b439-3c1a393be168","ios":"levelo://app?vid=15089b8d-1a24-4f0b-b439-3c1a393be168"},"vehicle_type_id":"4","last_reported":1761646291,"current_range_meters":23200,"station_id":"ce4bhih2rcd13ifvqfs0","pricing_plan_id":"cebpf4jnsgd1na2vs0mg"},{"bike_id":"f1fd0721-ff1a-4bd5-988e-a77e52cf7919","system_id":"levelo_inurba_marseille","lat":43.32115,"lon":5.36768,"is_reserved":false,"is_disabled":false,"rental_uris":{"android":"levelo://app?vid=f1fd0721-ff1a-4bd5-988e-a77e52cf7919","ios":"levelo://app?vid=f1fd0721-ff1a-4bd5-988e-a77e52cf7919"},"vehicle_type_id":"4","last_reported":1761646291,"current_range_meters":23200,"station_id":"ce4bhrh2rcd13ifvqhug","pricing_plan_id":"cebpf4jnsgd1na2vs0mg"},{"bike_id":"51f5d3a4-5ca4-428d-8c3a-6dc58c961bd7","system_id":"levelo_inurba_marseille","lat":43.31247,"lon":5.36834,"is_reserved":false,"is_disabled":false,"rental_uris":{"android":"levelo://app?vid=51f5d3a4-5ca4-428d-8c3a-6dc58c961bd7","ios":"levelo://app?vid=51f5d3a4-5ca4-428d-8c3a-6dc58c961bd7"},"vehicle_type_id":"4","last_reported":1761646291,"current_range_meters":23200,"station_id":"ce4bgl92rcd13ifvqbq0","pricing_plan_id":"cebpf4jnsgd1na2vs0mg"},{"bike_id":"b1fe57ed-71d9-4e16-b5a4-9d7bcf1ece4b","system_id":"levelo_inurba_marseille","lat":43.27321,"lon":5.39091,"is_reserved":false,"is_disabled":false,"rental_uris":{"android":"levelo://app?vid=b1fe57ed-71d9-4e16-b5a4-9d7bcf1ece4b","ios":"levelo://app?vid=b1fe57ed-71d9-4e16-b5a4-9d7bcf1ece4b"},"vehicle_type_id":"4","last_reported":1761646291,"current_range_meters":23200,"station_id":"ce4bhgp2rcd13ifvqfe0","pricing_plan_id":"cebpf4jnsgd1na2vs0mg"},{"bike_id":"10552fc2-2372-4584-a938-5d5246131af1","system_id":"levelo_inurba_marseille","lat":43.26944,"lon":5.40264,"is_reserved":false,"is_disabled":true,"rental_uris":{"android":"levelo://app?vid=10552fc2-2372-4584-a938-5d5246131af1","ios":"levelo://app?vid=10552fc2-2372-4584-a938-5d5246131af1"},"vehicle_type_id":"4","last_reported":1761646291,"current_range_meters":23200,"station_id":"cjm6bp8fraef2m0cb0m0","pricing_plan_id":"cebpf4jnsgd1na2vs0mg"},{"bike_id":"8ae664c8-f40a-4765-924e-4ef788b3936b","system_id":"levelo_inurba_marseille","lat":43.28418,"lon":5.37518,"is_reserved":false,"is_disabled":false,"rental_uris":{"android":"levelo://app?vid=8ae664c8-f40a-4765-924e-4ef788b3936b","ios":"levelo://app?vid=8ae664c8-f40a-4765-924e-4ef788b3936b"},"vehicle_type_id":"4","last_reported":1761646291,"current_range_meters":23200,"station_id":"ce4bh412rcd13ifvqds0","pricing_plan_id":"cebpf4jnsgd1na2vs0mg"},{"bike_id":"3ae55b5e-2e2e-4c57-811d-a0779f10eeea","system_id":"levelo_inurba_marseille","lat":43.25509,"lon":5.37659,"is_reserved":false,"is_disabled":false,"rental_uris":{"android":"levelo://app?vid=3ae55b5e-2e2e-4c57-811d-a0779f10eeea","ios":"levelo://app?vid=3ae55b5e-2e2e-4c57-811d-a0779f10eeea"},"vehicle_type_id":"4","last_reported":1761646291,"current_range_meters":23200,"station_id":"ce4bhh12rcd13ifvqff0","pricing_plan_id":"cebpf4jnsgd1na2vs0mg"},{"bike_id":"eaa4c121-cf6a-4527-8936-534fc8c83ae3","system_id":"levelo_inurba_marseille","lat":43.31081,"lon":5.42429,"is_reserved":false,"is_disabled":false,"rental_uris":{"android":"levelo://app?vid=eaa4c121-cf6a-4527-8936-534fc8c83ae3","ios":"levelo://app?vid=eaa4c121-cf6a-4527-8936-534fc8c83ae3"},"vehicle_type_id":"4","last_reported":1761646291,"current_range_meters":23200,"station_id":"ce4bhp92rcd13ifvqhag","pricing_plan_id":"cebpf4jnsgd1na2vs0mg"},{"bike_id":"77a042a8-2793-4ee9-b380-8dd324269098","system_id":"levelo_inurba_marseille","lat":43.31071,"lon":5.38354,"is_reserved":false,"is_disabled":false,"rental_uris":{"android":"levelo://app?vid=77a042a8-2793-4ee9-b380-8dd324269098","ios":"levelo://app?vid=77a042a8-2793-4ee9-b380-8dd324269098"},"vehicle_type_id":"4","last_reported":1761646291,"current_range_meters":23200,"station_id":"ce4bgv92rcd13ifvqcr0","pricing_plan_id":"cebpf4jnsgd1na2vs0mg"},{"bike_id":"5dad549c-22f5-4fe4-be34-75c579151a18","system_id":"levelo_inurba_marseille","lat":43.24072,"lon":5.37754,"is_reserved":false,"is_disabled":false,"rental_uris":{"android":"levelo://app?vid=5dad549c-22f5-4fe4-be34-75c579151a18","ios":"levelo://app?vid=5dad549c-22f5-4fe4-be34-75c579151a18"},"vehicle_type_id":"4","last_reported":1761646291,"current_range_meters":24000,"station_id":"ce4bhnp2rcd13ifvqgvg","pricing_plan_id":"cebpf4jnsgd1na2vs0mg"},{"bike_id":"a0257cb7-6e09-4e57-9074-9166ca511388","system_id":"levelo_inurba_marseille","lat":43.22566,"lon":5.41628,"is_reserved":false,"is_disabled":false,"rental_uris":{"android":"levelo://app?vid=a0257cb7-6e09-4e57-9074-9166ca511388","ios":"levelo://app?vid=a0257cb7-6e09-4e57-9074-9166ca511388"},"vehicle_type_id":"4","last_reported":1761646291,"current_range_meters":24000,"station_id":"st_d2o4gvlbi1j2169b742g","pricing_plan_id":"cebpf4jnsgd1na2vs0mg"},{"bike_id":"1beb15b8-a5a8-4709-b5e9-b2ac3acbb08e","system_id":"levelo_inurba_marseille","lat":43.24391,"lon":5.37054,"is_reserved":false,"is_disabled":false,"rental_uris":{"android":"levelo://app?vid=1beb15b8-a5a8-4709-b5e9-b2ac3acbb08e","ios":"levelo://app?vid=1beb15b8-a5a8-4709-b5e9-b2ac3acbb08e"},"vehicle_type_id":"4","last_reported":1761646291,"current_range_meters":24000,"station_id":"ce4bhhh2rcd13ifvqfk0","pricing_plan_id":"cebpf4jnsgd1na2vs0mg"},{"bike_id":"215661ea-3f6f-4808-928f-8970d80fc0d3","system_id":"levelo_inurba_marseille","lat":43.31342,"lon":5.37928,"is_reserved":false,"is_disabled":false,"rental_uris":{"android":"levelo://app?vid=215661ea-3f6f-4808-928f-8970d80fc0d3","ios":"levelo://app?vid=215661ea-3f6f-4808-928f-8970d80fc0d3"},"vehicle_type_id":"4","last_reported":1761646291,"current_range_meters":24000,"station_id":"","pricing_plan_id":"cebpf4jnsgd1na2vs0mg"},{"bike_id":"1c3fcfc8-1d41-453e-a80c-77758ea9e916","system_id":"levelo_inurba_marseille","lat":43.28477,"lon":5.48396,"is_reserved":false,"is_disabled":false,"rental_uris":{"android":"levelo://app?vid=1c3fcfc8-1d41-453e-a80c-77758ea9e916","ios":"levelo://app?vid=1c3fcfc8-1d41-453e-a80c-77758ea9e916"},"vehicle_type_id":"4","last_reported":1761646291,"current_range_meters":24000,"station_id":"st_d3svhcjqgbts73a3dn0g","pricing_plan_id":"cebpf4jnsgd1na2vs0mg"},{"bike_id":"8f4ff0ea-c2dd-4de1-ad67-c5df20823b5a","system_id":"levelo_inurba_marseille","lat":43.337444,"lon":5.374475,"is_reserved":false,"is_disabled":true,"rental_uris":{"android":"levelo://app?vid=8f4ff0ea-c2dd-4de1-ad67-c5df20823b5a","ios":"levelo://app?vid=8f4ff0ea-c2dd-4de1-ad67-c5df20823b5a"},"vehicle_type_id":"4","last_reported":1761646291,"current_range_meters":24000,"station_id":"","pricing_plan_id":"cebpf4jnsgd1na2vs0mg"},{"bike_id":"c8659c21-4a09-41c8-8fe9-93410494433a","system_id":"levelo_inurba_marseille","lat":43.26674,"lon":5.38275,"is_reserved":false,"is_disabled":false,"rental_uris":{"android":"levelo://app?vid=c8659c21-4a09-41c8-8fe9-93410494433a","ios":"levelo://app?vid=c8659c21-4a09-41c8-8fe9-93410494433a"},"vehicle_type_id":"4","last_reported":1761646291,"current_range_meters":24000,"station_id":"ce4bhg92rcd13ifvqf90","pricing_plan_id":"cebpf4jnsgd1na2vs0mg"},{"bike_id":"81563b75-1bf0-4b4f-824a-60f1dc6fb170","system_id":"levelo_inurba_marseille","lat":43.26554,"lon":5.37285,"is_reserved":false,"is_disabled":false,"rental_uris":{"android":"levelo://app?vid=81563b75-1bf0-4b4f-824a-60f1dc6fb170","ios":"levelo://app?vid=81563b75-1bf0-4b4f-824a-60f1dc6fb170"},"vehicle_type_id":"4","last_reported":1761646291,"current_range_meters":24000,"station_id":"ce4bhg12rcd13ifvqf70","pricing_plan_id":"cebpf4jnsgd1na2vs0mg"},