{"last_updated":1750792121,"ttl":60,"version":"2.2","data":{"bikes":[{"bike_id":"3da29fb8-fc97-44c6-b9ac-31dd456b2fd4","system_id":"levelo_inurba_marseille","lat":43.33771,"lon":5.37424,"is_reserved":false,"is_disabled":true,"rental_uris":{"android":"levelo://app?vid=3da29fb8-fc97-44c6-b9ac-31dd456b2fd4","ios":"levelo://app?vid=3da29fb8-fc97-44c6-b9ac-31dd456b2fd4"},"vehicle_type_id":"4","last_reported":1750792122,"current_range_meters":0,"station_id":"","pricing_plan_id":"cebpf4jnsgd1na2vs0mg"},{"bike_id":"01861ad8-a8d7-4be6-816e-651927c87584","system_id":"levelo_inurba_marseille","lat":43.33751,"lon":5.37456,"is_reserved":false,"is_disabled":true,"rental_uris":{"android":"levelo://app?vid=01861ad8-a8d7-4be6-816e-651927c87584","ios":"levelo://app?vid=01861ad8-a8d7-4be6-816e-651927c87584"},"vehicle_type_id":"4","last_reported":1750792122,"current_range_meters":0,"station_id":"","pricing_plan_id":"cebpf4jnsgd1na2vs0mg"},{"bike_id":"f0a1d594-9817-42ab-a8d6-aea4947e8858","system_id":"levelo_inurba_marseille","lat":43.288329,"lon":5.434368,"is_reserved":false,"is_disabled":true,"rental_uris":{"android":"levelo://app?vid=f0a1d594-9817-42ab-a8d6-aea4947e8858","ios":"levelo://app?vid=f0a1d594-9817-42ab-a8d6-aea4947e8858"},"vehicle_type_id":"4","last_reported":1750792122,"current_range_meters":0,"station_id":"","pricing_plan_id":"cebpf4jnsgd1na2vs0mg"},{"bike_id":"763475c0-a5de-4444-b5fb-a67ccd172449","system_id":"levelo_inurba_marseille","lat":43.26531,"lon":5.37318,"is_reserved":false,"is_disabled":true,"rental_uris":{"android":"levelo://app?vid=763475c0-a5de-4444-b5fb-a67ccd172449","ios":"levelo://app?vid=763475c0-a5de-4444-b5fb-a67ccd172449"},"vehicle_type_id":"4","last_reported":1750792122,"current_range_meters":0,"station_id":"","pricing_plan_id":"cebpf4jnsgd1na2vs0mg"},{"bike_id":"62a493c7-4534-4419-ad43-0582de34a72a","system_id":"levelo_inurba_marseille","lat":43.21366,"lon":5.355183,"is_reserved":false,"is_disabled":true,"rental_uris":{"android":"levelo://app?vid=62a493c7-4534-4419-ad43-0582de34a72a","ios":"levelo://app?vid=62a493c7-4534-4419-ad43-0582de34a72a"},"vehicle_type_id":"4","last_reported":1750792122,"current_range_meters":0,"station_id":"","pricing_plan_id":"cebpf4jnsgd1na2vs0mg"},{"bike_id":"139d47bd-ff87-42d8-a4c6-89da4be6f80c","system_id":"levelo_inurba_marseille","lat":43.27962,"lon":5.44252,"is_reserved":false,"is_disabled":true,"rental_uris":{"android":"levelo://app?vid=139d47bd-ff87-42d8-a4c6-89da4be6f80c","ios":"levelo://app?vid=139d47bd-ff87-42d8-a4c6-89da4be6f80c"},"vehicle_type_id":"4","last_reported":1750792122,"current_range_meters":0,"station_id":"","pricing_plan_id":"cebpf4jnsgd1na2vs0mg"},{"bike_id":"b2bdbce0-514e-4feb-9f75-48ff1c68b9f3","system_id":"levelo_inurba_marseille","lat":43.305524,"lon":5.365573,"is_reserved":false,"is_disabled":true,"rental_uris":{"android":"levelo://app?vid=b2bdbce0-514e-4feb-9f75-48ff1c68b9f3","ios":"levelo://app?vid=b2bdbce0-514e-4feb-9f75-48ff1c68b9f3"},"vehicle_type_id":"4","last_reported":1750792122,"current_range_meters":0,"station_id":"","pricing_plan_id":"cebpf4jnsgd1na2vs0mg"},{"bike_id":"d07b07aa-5732-4368-b606-c642421b7603","system_id":"levelo_inurba_marseille","lat":43.33128,"lon":5.36064,"is_reserved":false,"is_disabled":true,"rental_uris":{"android":"levelo://app?vid=d07b07aa-5732-4368-b606-c642421b7603","ios":"levelo://app?vid=d07b07aa-5732-4368-b606-c642421b7603"},"vehicle_type_id":"4","last_reported":1750792122,"current_range_meters":0,"station_id":"","pricing_plan_id":"cebpf4jnsgd1na2vs0mg"},{"bike_id":"d6ce388f-ca76-4c7c-9e3f-e6b4d12862f1","system_id":"levelo_inurba_marseille","lat":43.2455,"lon":5.41448,"is_reserved":false,"is_disabled":true,"rental_uris":{"android":"levelo://app?vid=d6ce388f-ca76-4c7c-9e3f-e6b4d12862f1","ios":"levelo://app?vid=d6ce388f-ca76-4c7c-9e3f-e6b4d12862f1"},"vehicle_type_id":"4","last_reported":1750792122,"current_range_meters":0,"station_id":"","pricing_plan_id":"cebpf4jnsgd1na2vs0mg"},{"bike_id":"3a3a1818-f20a-442b-bfcf-0e0a18008f43","system_id":"levelo_inurba_marseille","lat":43.26612,"lon":5.37491,"is_reserved":false,"is_disabled":true,"rental_uris":{"android":"levelo://app?vid=3a3a1818-f20a-442b-bfcf-0e0a18008f43","ios":"levelo://app?vid=3a3a1818-f20a-442b-bfcf-0e0a18008f43"},"vehicle_type_id":"4","last_reported":1750792122,"current_range_meters":0,"station_id":"","pricing_plan_id":"cebpf4jnsgd1na2vs0mg"},{"bike_id":"d6609b4f-333b-43c1-9ebe-8726f5e76e88","system_id":"levelo_inurba_marseille","lat":43.337444,"lon":5.374475,"is_reserved":false,"is_disabled":true,"rental_uris":{"android":"levelo://app?vid=d6609b4f-333b-43c1-9ebe-8726f5e76e88","ios":"levelo://app?vid=d6609b4f-333b-43c1-9ebe-8726f5e76e88"},"vehicle_type_id":"4","last_reported":1750792122,"current_range_meters":0,"station_id":"","pricing_plan_id":"cebpf4jnsgd1na2vs0mg"},{"bike_id":"9cb193d0-906b-4ac2-85c5-eea810b1d20f","system_id":"levelo_inurba_marseille","lat":43.294,"lon":5.43172,"is_reserved":false,"is_disabled":true,"rental_uris":{"android":"levelo://app?vid=9cb193d0-906b-4ac2-85c5-eea810b1d20f","ios":"levelo://app?vid=9cb193d0-906b-4ac2-85c5-eea810b1d20f"},"vehicle_type_id":"4","last_reported":1750792122,"current_range_meters":0,"station_id":"","pricing_plan_id":"cebpf4jnsgd1na2vs0mg"},{"bike_id":"bd17737b-22d2-4e4f-88e8-4eb661d864c4","system_id":"levelo_inurba_marseille","lat":43.29186,"lon":5.46055,"is_reserved":false,"is_disabled":true,"rental_uris":{"android":"levelo://app?vid=bd17737b-22d2-4e4f-88e8-4eb661d864c4","ios":"levelo://app?vid=bd17737b-22d2-4e4f-88e8-4eb661d864c4"},"vehicle_type_id":"4","last_reported":1750792122,"current_range_meters":0,"station_id":"","pricing_plan_id":"cebpf4jnsgd1na2vs0mg"},{"bike_id":"3d07ef76-af52-42e0-81f1-5f4963c9ee29","system_id":"levelo_inurba_marseille","lat":43.294701,"lon":5.438349,"is_reserved":false,"is_disabled":true,"rental_uris":{"android":"levelo://app?vid=3d07ef76-af52-42e0-81f1-5f4963c9ee29","ios":"levelo://app?vid=3d07ef76-af52-42e0-81f1-5f4963c9ee29"},"vehicle_type_id":"4","last_reported":1750792122,"current_range_meters":0,"station_id":"","pricing_plan_id":"cebpf4jnsgd1na2vs0mg"},{"bike_id":"0c86cdad-b64a-47bf-ba91-5b398064181c","system_id":"levelo_inurba_marseille","lat":43.384196,"lon":5.358629,"is_reserved":false,"is_disabled":true,"rental_uris":{"android":"levelo://app?vid=0c86cdad-b64a-47bf-ba91-5b398064181c","ios":"levelo://app?vid=0c86cdad-b64a-47bf-ba91-5b398064181c"},"vehicle_type_id":"4","last_reported":1750792122,"current_range_meters":0,"station_id":"","pricing_plan_id":"cebpf4jnsgd1na2vs0mg"},{"bike_id":"a2355479-e15c-4a3c-9773-3ade4a70652f","system_id":"levelo_inurba_marseille","lat":43.29964,"lon":5.38498,"is_reserved":false,"is_disabled":true,"rental_uris":{"android":"levelo://app?vid=a2355479-e15c-4a3c-9773-3ade4a70652f","ios":"levelo://app?vid=a2355479-e15c-4a3c-9773-3ade4a70652f"},"vehicle_type_id":"4","last_reported":1750792122,"current_range_meters":0,"station_id":"ce4bgj92rcd13ifvqbd0","pricing_plan_id":"cebpf4jnsgd1na2vs0mg"},{"bike_id":"40fe1985-3be0-4e4f-80b4-f9f03be51c36","system_id":"levelo_inurba_marseille","lat":43.29956,"lon":5.38497,"is_reserved":false,"is_disabled":true,"rental_uris":{"android":"levelo://app?vid=40fe1985-3be0-4e4f-80b4-f9f03be51c36","ios":"levelo://app?vid=40fe1985-3be0-4e4f-80b4-f9f03be51c36"},"vehicle_type_id":"4","last_reported":1750792122,"current_range_meters":0,"station_id":"ce4bgj92rcd13ifvqbd0","pricing_plan_id":"cebpf4jnsgd1na2vs0mg"},{"bike_id":"12975305-0310-4518-b233-c09e4056708f","system_id":"levelo_inurba_marseille","lat":43.27613,"lon":5.36104,"is_reserved":false,"is_disabled":true,"rental_uris":{"android":"levelo://app?vid=12975305-0310-4518-b233-c09e4056708f","ios":"levelo://app?vid=12975305-0310-4518-b233-c09e4056708f"},"vehicle_type_id":"4","last_reported":1750792122,"current_range_meters":0,"station_id":"ce4bgj92rcd13ifvqbe0","pricing_plan_id":"cebpf4jnsgd1na2vs0mg"},{"bike_id":"17ee8d6c-5f8e-425c-9ae9-259b72c90af7","system_id":"levelo_inurba_marseille","lat":43.30938,"lon":5.3904,"is_reserved":false,"is_disabled":true,"rental_uris":{"android":"levelo://app?vid=17ee8d6c-5f8e-425c-9ae9-259b72c90af7","ios":"levelo://app?vid=17ee8d6c-5f8e-425c-9ae9-259b72c90af7"},"vehicle_type_id":"4","last_reported":1750792122,"current_range_meters":0,"station_id":"ce4bgup2rcd13ifvqco0","pricing_plan_id":"cebpf4jnsgd1na2vs0mg"},{"bike_id":"8f1b3c1e-25be-4eaf-a8ed-7dcfe08b566c","system_id":"levelo_inurba_marseille","lat":43.29423,"lon":5.38618,"is_reserved":false,"is_disabled":true,"rental_uris":{"android":"levelo://app?vid=8f1b3c1e-25be-4eaf-a8ed-7dcfe08b566c","ios":"levelo://app?vid=8f1b3c1e-25be-4eaf-a8ed-7dcfe08b566c"},"vehicle_type_id":"4","last_reported":1750792122,"current_range_meters":0,"station_id":"ce4bh2h2rcd13ifvqdh0","pricing_plan_id":"cebpf4jnsgd1na2vs0mg"},{"bike_id":"633924a9-c3c9-45ec-87a0-19832ff6ee11","system_id":"levelo_inurba_marseille","lat":43.28718,"lon":5.37937,"is_reserved":false,"is_disabled":true,"rental_uris":{"android":"levelo://app?vid=633924a9-c3c9-45ec-87a0-19832ff6ee11","ios":"levelo://app?vid=633924a9-c3c9-45ec-87a0-19832ff6ee11"},"vehicle_type_id":"4","last_reported":1750792122,"current_range_meters":0,"station_id":"ce4bh9p2rcd13ifvqec0","pricing_plan_id":"cebpf4jnsgd1na2vs0mg"},{"bike_id":"5dfc4326-3e0a-4099-abe8-be27157c75af","system_id":"levelo_inurba_marseille","lat":43.275577,"lon":5.384205,"is_reserved":false,"is_disabled":true,"rental_uris":{"android":"levelo://app?vid=5dfc4326-3e0a-4099-abe8-be27157c75af","ios":"levelo://app?vid=5dfc4326-3e0a-4099-abe8-be27157c75af"},"vehicle_type_id":"4","last_reported":1750792122,"current_range_meters":0,"station_id":"ce4bhh92rcd13ifvqfi0","pricing_plan_id":"cebpf4jnsgd1na2vs0mg"},{"bike_id":"1b6a8c71-8e5f-4f4f-a52d-1fff6ae059ba","system_id":"levelo_inurba_marseille","lat":43.25852,"lon":5.39899,"is_reserved":false,"is_disabled":true,"rental_uris":{"android":"levelo://app?vid=1b6a8c71-8e5f-4f4f-a52d-1fff6ae059ba","ios":"levelo://app?vid=1b6a8c71-8e5f-4f4f-a52d-1fff6ae059ba"},"vehicle_type_id":"4","last_reported":1750792122,"current_range_meters":0,"station_id":"ce4bhl92rcd13ifvqghg","pricing_plan_id":"cebpf4jnsgd1na2vs0mg"},{"bike_id":"69b85ff0-525f-4e56-b244-402f8a03c06f","system_id":"levelo_inurba_marseille","lat":43.231854,"lon":5.399871,"is_reserved":false,"is_disabled":true,"rental_uris":{"android":"levelo://app?vid=69b85ff0-525f-4e56-b244-402f8a03c06f","ios":"levelo://app?vid=69b85ff0-525f-4e56-b244-402f8a03c06f"},"vehicle_type_id":"4","last_reported":1750792122,"current_range_meters":0,"station_id":"ce4bhn12rcd13ifvqgqg","pricing_plan_id":"cebpf4jnsgd1na2vs0mg"},{"bike_id":"20d47005-cace-496a-b214-2d861decab4e","system_id":"levelo_inurba_marseille","lat":43.21754,"lon":5.34581,"is_reserved":false,"is_disabled":true,"rental_uris":{"android":"levelo://app?vid=20d47005-cace-496a-b214-2d861decab4e","ios":"levelo://app?vid=20d47005-cace-496a-b214-2d861decab4e"},"vehicle_type_id":"4","last_reported":1750792122,"current_range_meters":0,"station_id":"st_cvj6r9ubvosntc0bgbag","pricing_plan_id":"cebpf4jnsgd1na2vs0mg"},{"bike_id":"38323bbc-cacc-4f09-9ef6-9eee22665212","system_id":"levelo_inurba_marseille","lat":43.30461,"lon":5.37902,"is_reserved":false,"is_disabled":true,"rental_uris":{"android":"levelo://app?vid=38323bbc-cacc-4f09-9ef6-9eee22665212","ios":"levelo://app?vid=38323bbc-cacc-4f09-9ef6-9eee22665212"},"vehicle_type_id":"4","last_reported":1750792122,"current_range_meters":400,"station_id":"ce4bgup2rcd13ifvqcn0","pricing_plan_id":"cebpf4jnsgd1na2vs0mg"},{"bike_id":"d290ad3a-ee69-47be-a94e-f80c9391a5ee","system_id":"levelo_inurba_marseille","lat":43.29562,"lon":5.406255,"is_reserved":false,"is_disabled":true,"rental_uris":{"android":"levelo://app?vid=d290ad3a-ee69-47be-a94e-f80c9391a5ee","ios":"levelo://app?vid=d290ad3a-ee69-47be-a94e-f80c9391a5ee"},"vehicle_type_id":"4","last_reported":1750792122,"current_range_meters":400,"station_id":"ce4bh112rcd13ifvqda0","pricing_plan_id":"cebpf4jnsgd1na2vs0mg"},{"bike_id":"37304afa-e202-4d37-b3c1-da946b0c3511","system_id":"levelo_inurba_marseille","lat":43.2927,"lon":5.38438,"is_reserved":false,"is_disabled":true,"rental_uris":{"android":"levelo://app?vid=37304afa-e202-4d37-b3c1-da946b0c3511","ios":"levelo://app?vid=37304afa-e202-4d37-b3c1-da946b0c3511"},"vehicle_type_id":"4","last_reported":1750792122,"current_range_meters":400,"station_id":"ce4bh692rcd13ifvqea0","pricing_plan_id":"cebpf4jnsgd1na2vs0mg"},{"bike_id":"1039935b-8a9b-4f15-995a-777f27b0c52f","system_id":"levelo_inurba_marseille","lat":43.2799,"lon":5.41658,"is_reserved":false,"is_disabled":true,"rental_uris":{"android":"levelo://app?vid=1039935b-8a9b-4f15-995a-777f27b0c52f","ios":"levelo://app?vid=1039935b-8a9b-4f15-995a-777f27b0c52f"},"vehicle_type_id":"4","last_reported":1750792122,"current_range_meters":400,"station_id":"ce4bho12rcd13ifvqh1g","pricing_plan_id":"cebpf4jnsgd1na2vs0mg"},{"bike_id":"85c58f10-925d-4344-b389-09267487a6fc","system_id":"levelo_inurba_marseille","lat":43.21121,"lon":5.4195,"is_reserved":false,"is_disabled":true,"rental_uris":{"android":"levelo://app?vid=85c58f10-925d-4344-b389-09267487a6fc","ios":"levelo://app?vid=85c58f10-925d-4344-b389-09267487a6fc"},"vehicle_type_id":"4","last_reported":1750792122,"current_range_meters":800,"station_id":"","pricing_plan_id":"cebpf4jnsgd1na2vs0mg"},{"bike_id":"1092c028-30e6-4c25-ad16-a1bd6ed1a0c2","system_id":"levelo_inurba_marseille","lat":43.29844,"lon":5.36266,"is_reserved":false,"is_disabled":true,"rental_uris":{"android":"levelo://app?vid=1092c028-30e6-4c25-ad16-a1bd6ed1a0c2","ios":"levelo://app?vid=1092c028-30e6-4c25-ad16-a1bd6ed1a0c2"},"vehicle_type_id":"4","last_reported":1750792122,"current_range_meters":800,"station_id":"ce4bgpp2rcd13ifvqc3g","pricing_plan_id":"cebpf4jnsgd1na2vs0mg"},{"bike_id":"0bdc1b8b-0389-413c-8772-4a4383d2a142","system_id":"levelo_inurba_marseille","lat":43.31318,"lon":5.39694,"is_reserved":false,"is_disabled":true,"rental_uris":{"android":"levelo://app?vid=0bdc1b8b-0389-413c-8772-4a4383d2a142","ios":"levelo://app?vid=0bdc1b8b-0389-413c-8772-4a4383d2a142"},"vehicle_type_id":"4","last_reported":1750792122,"current_range_meters":800,"station_id":"ce4bgvp2rcd13ifvqcu0","pricing_plan_id":"cebpf4jnsgd1na2vs0mg"},{"bike_id":"b56337a1-122f-4216-8698-aee5a39d833e","system_id":"levelo_inurba_marseille","lat":43.27961,"lon":5.39962,"is_reserved":false,"is_disabled":true,"rental_uris":{"android":"levelo://app?vid=b56337a1-122f-4216-8698-aee5a39d833e","ios":"levelo://app?vid=b56337a1-122f-4216-8698-aee5a39d833e"},"vehicle_type_id":"4","last_reported":1750792122,"current_range_meters":800,"station_id":"ce4bho92rcd13ifvqh4g","pricing_plan_id":"cebpf4jnsgd1na2vs0mg"},{"bike_id":"09eff840-d140-498f-a10a-9428ffdc7f52","system_id":"levelo_inurba_marseille","lat":43.32041,"lon":5.41542,"is_reserved":false,"is_disabled":true,"rental_uris":{"android":"levelo://app?vid=09eff840-d140-498f-a10a-9428ffdc7f52","ios":"levelo://app?vid=09eff840-d140-498f-a10a-9428ffdc7f52"},"vehicle_type_id":"4","last_reported":1750792122,"current_range_meters":800,"station_id":"ce4bhq92rcd13ifvqhkg","pricing_plan_id":"cebpf4jnsgd1na2vs0mg"},{"bike_id":"bbbe8304-a4b0-4990-b6be-13477b5dc830","system_id":"levelo_inurba_marseille","lat":43.30691,"lon":5.40032,"is_reserved":false,"is_disabled":true,"rental_uris":{"android":"levelo://app?vid=bbbe8304-a4b0-4990-b6be-13477b5dc830","ios":"levelo://app?vid=bbbe8304-a4b0-4990-b6be-13477b5dc830"},"vehicle_type_id":"4","last_reported":1750792122,"current_range_meters":1200,"station_id":"","pricing_plan_id":"cebpf4jnsgd1na2vs0mg"},{"bike_id":"d94a6864-daee-4fbb-b2e6-90ace98c8f11","system_id":"levelo_inurba_marseille","lat":43.30141,"lon":5.39855,"is_reserved":false,"is_disabled":true,"rental_uris":{"android":"levelo://app?vid=d94a6864-daee-4fbb-b2e6-90ace98c8f11","ios":"levelo://app?vid=d94a6864-daee-4fbb-b2e6-90ace98c8f11"},"vehicle_type_id":"4","last_reported":1750792122,"current_range_meters":1200,"station_id":"ce4bh0h2rcd13ifvqd40","pricing_plan_id":"cebpf4jnsgd1na2vs0mg"},{"bike_id":"92302896-6594-416f-bb92-0af7cf67ca20","system_id":"levelo_inurba_marseille","lat":43.28153,"lon":5.42639,"is_reserved":false,"is_disabled":true,"rental_uris":{"android":"levelo://app?vid=92302896-6594-416f-bb92-0af7cf67ca20","ios":"levelo://app?vid=92302896-6594-416f-bb92-0af7cf67ca20"},"vehicle_type_id":"4","last_reported":1750792122,"current_range_meters":1200,"station_id":"ce4bhnh2rcd13ifvqgug","pricing_plan_id":"cebpf4jnsgd1na2vs0mg"},{"bike_id":"8b70af1c-9abd-4ac7-b6dc-f374909e1799","system_id":"levelo_inurba_marseille","lat":43.29024,"lon":5.38638,"is_reserved":false,"is_disabled":true,"rental_uris":{"android":"levelo://app?vid=8b70af1c-9abd-4ac7-b6dc-f374909e1799","ios":"levelo://app?vid=8b70af1c-9abd-4ac7-b6dc-f374909e1799"},"vehicle_type_id":"4","last_reported":1750792122,"current_range_meters":1600,"station_id":"ce4bh4p2rcd13ifvqe0g","pricing_plan_id":"cebpf4jnsgd1na2vs0mg"},{"bike_id":"cad60224-1b49-4fde-84b5-50fdc6af606f","system_id":"levelo_inurba_marseille","lat":43.289245,"lon":5.383918,"is_reserved":false,"is_disabled":true,"rental_uris":{"android":"levelo://app?vid=cad60224-1b49-4fde-84b5-50fdc6af606f","ios":"levelo://app?vid=cad60224-1b49-4fde-84b5-50fdc6af606f"},"vehicle_type_id":"4","last_reported":1750792122,"current_range_meters":1600,"station_id":"ce4bh612rcd13ifvqe6g","pricing_plan_id":"cebpf4jnsgd1na2vs0mg"},{"bike_id":"e6c5169c-ca25-4e20-926e-381d9666be2d","system_id":"levelo_inurba_marseille","lat":43.28621,"lon":5.37057,"is_reserved":false,"is_disabled":true,"rental_uris":{"android":"levelo://app?vid=e6c5169c-ca25-4e20-926e-381d9666be2d","ios":"levelo://app?vid=e6c5169c-ca25-4e20-926e-381d9666be2d"},"vehicle_type_id":"4","last_reported":1750792122,"current_range_meters":1600,"station_id":"ce4bht12rcd13ifvqi60","pricing_plan_id":"cebpf4jnsgd1na2vs0mg"},{"bike_id":"4b51865d-7689-4312-90ec-3578d1f30155","system_id":"levelo_inurba_marseille","lat":43.31394,"lon":5.39193,"is_reserved":false,"is_disabled":true,"rental_uris":{"android":"levelo://app?vid=4b51865d-7689-4312-90ec-3578d1f30155","ios":"levelo://app?vid=4b51865d-7689-4312-90ec-3578d1f30155"},"vehicle_type_id":"4","last_reported":1750792122,"current_range_meters":2000,"station_id":"","pricing_plan_id":"cebpf4jnsgd1na2vs0mg"},{"bike_id":"d71f16d6-61e2-42ab-a6ce-ed0d3cc96edf","system_id":"levelo_inurba_marseille","lat":43.293667,"lon":5.378408,"is_reserved":false,"is_disabled":true,"rental_uris":{"android":"levelo://app?vid=d71f16d6-61e2-42ab-a6ce-ed0d3cc96edf","ios":"levelo://app?vid=d71f16d6-61e2-42ab-a6ce-ed0d3cc96edf"},"vehicle_type_id":"4","last_reported":1750792122,"current_range_meters":2000,"station_id":"ce4bgjh2rcd13ifvqbf0","pricing_plan_id":"cebpf4jnsgd1na2vs0mg"},{"bike_id":"8118ea30-6a77-4096-a036-a461ebd52c32","system_id":"levelo_inurba_marseille","lat":43.29054,"lon":5.39962,"is_reserved":false,"is_disabled":true,"rental_uris":{"android":"levelo://app?vid=8118ea30-6a77-4096-a036-a461ebd52c32","ios":"levelo://app?vid=8118ea30-6a77-4096-a036-a461ebd52c32"},"vehicle_type_id":"4","last_reported":1750792122,"current_range_meters":2000,"station_id":"ce4bh392rcd13ifvqdm0","pricing_plan_id":"cebpf4jnsgd1na2vs0mg"},{"bike_id":"2685c487-de57-44af-8b66-208a2ed5a60b","system_id":"levelo_inurba_marseille","lat":43.28969,"lon":5.37835,"is_reserved":false,"is_disabled":true,"rental_uris":{"android":"levelo://app?vid=2685c487-de57-44af-8b66-208a2ed5a60b","ios":"levelo://app?vid=2685c487-de57-44af-8b66-208a2ed5a60b"},"vehicle_type_id":"4","last_reported":1750792122,"current_range_meters":2000,"station_id":"ce4bh9p2rcd13ifvqed0","pricing_plan_id":"cebpf4jnsgd1na2vs0mg"},{"bike_id":"db216eec-d10d-4f96-854e-7db0ce34c55a","system_id":"levelo_inurba_marseille","lat":43.28436,"lon":5.39204,"is_reserved":false,"is_disabled":true,"rental_uris":{"android":"levelo://app?vid=db216eec-d10d-4f96-854e-7db0ce34c55a","ios":"levelo://app?vid=db216eec-d10d-4f96-854e-7db0ce34c55a"},"vehicle_type_id":"4","last_reported":1750792122,"current_range_meters":2000,"station_id":"ce4bhoh2rcd13ifvqh5g","pricing_plan_id":"cebpf4jnsgd1na2vs0mg"},{"bike_id":"8c6de0c1-9eaf-4c18-8155-d956789067ae","system_id":"levelo_inurba_marseille","lat":43.27971,"lon":5.44226,"is_reserved":false,"is_disabled":false,"rental_uris":{"android":"levelo://app?vid=8c6de0c1-9eaf-4c18-8155-d956789067ae","ios":"levelo://app?vid=8c6de0c1-9eaf-4c18-8155-d956789067ae"},"vehicle_type_id":"4","last_reported":1750792122,"current_range_meters":2800,"station_id":"","pricing_plan_id":"cebpf4jnsgd1na2vs0mg"},{"bike_id":"a9e5e555-fdaf-49c0-b286-f0f2659b17d0","system_id":"levelo_inurba_marseille","lat":43.28287,"lon":5.43169,"is_reserved":false,"is_disabled":false,"rental_uris":{"android":"levelo://app?vid=a9e5e555-fdaf-49c0-b286-f0f2659b17d0","ios":"levelo://app?vid=a9e5e555-fdaf-49c0-b286-f0f2659b17d0"},"vehicle_type_id":"4","last_reported":1750792122,"current_range_meters":2800,"station_id":"","pricing_plan_id":"cebpf4jnsgd1na2vs0mg"},{"bike_id":"319c5d72-852c-45f3-a830-6e79fa957354","system_id":"levelo_inurba_marseille","lat":43.30327,"lon":5.40434,"is_reserved":false,"is_disabled":false,"rental_uris":{"android":"levelo://app?vid=319c5d72-852c-45f3-a830-6e79fa957354","ios":"levelo://app?vid=319c5d72-852c-45f3-a830-6e79fa957354"},"vehicle_type_id":"4","last_reported":1750792122,"current_range_meters":2800,"station_id":"ce4bh012rcd13ifvqd10","pricing_plan_id":"cebpf4jnsgd1na2vs0mg"},{"bike_id":"dd954e22-fb08-4fc4-af08-24710e0929aa","system_id":"levelo_inurba_marseille","lat":43.28415,"lon":5.34975,"is_reserved":false,"is_disabled":false,"rental_uris":{"android":"levelo://app?vid=dd954e22-fb08-4fc4-af08-24710e0929aa","ios":"levelo://app?vid=dd954e22-fb08-4fc4-af08-24710e0929aa"},"vehicle_type_id":"4","last_reported":1750792122,"current_range_meters":2800,"station_id":"ce4bhbh2rcd13ifvqepg","pricing_plan_id":"cebpf4jnsgd1na2vs0mg"},{"bike_id":"47858d32-849f-475e-88e9-15783fc66d16","system_id":"levelo_inurba_marseille","lat":43.29711,"lon":5.37679,"is_reserved":false,"is_disabled":false,"rental_uris":{"android":"levelo://app?vid=47858d32-849f-475e-88e9-15783fc66d16","ios":"levelo://app?vid=47858d32-849f-475e-88e9-15783fc66d16"},"vehicle_type_id":"4","last_reported":1750792122,"current_range_meters":3200,"station_id":"ce4bgkh2rcd13ifvqbl0","pricing_plan_id":"cebpf4jnsgd1na2vs0mg"},{"bike_id":"2e1d9f18-91ce-45bd-9165-2b56f81bfa55","system_id":"levelo_inurba_marseille","lat":43.30783,"lon":5.37651,"is_reserved":false,"is_disabled":false,"rental_uris":{"android":"levelo://app?vid=2e1d9f18-91ce-45bd-9165-2b56f81bfa55","ios":"levelo://app?vid=2e1d9f18-91ce-45bd-9165-2b56f81bfa55"},"vehicle_type_id":"4","last_reported":1750792122,"current_range_meters":3200,"station_id":"ce4bgv92rcd13ifvqcq0","pricing_plan_id":"cebpf4jnsgd1na2vs0mg"},{"bike_id":"23fd56a3-eba5-4fd1-8841-ebb9ba2acbb7","system_id":"levelo_inurba_marseille","lat":43.307626,"lon":5.39608,"is_reserved":false,"is_disabled":false,"rental_uris":{"android":"levelo://app?vid=23fd56a3-eba5-4fd1-8841-ebb9ba2acbb7","ios":"levelo://app?vid=23fd56a3-eba5-4fd1-8841-ebb9ba2acbb7"},"vehicle_type_id":"4","last_reported":1750792122,"current_range_meters":3200,"station_id":"ce4bh012rcd13ifvqcv0","pricing_plan_id":"cebpf4jnsgd1na2vs0mg"},{"bike_id":"aebeb6ea-1092-4e92-aea8-169f27604418","system_id":"levelo_inurba_marseille","lat":43.28402,"lon":5.34986,"is_reserved":false,"is_disabled":false,"rental_uris":{"android":"levelo://app?vid=aebeb6ea-1092-4e92-aea8-169f27604418","ios":"levelo://app?vid=aebeb6ea-1092-4e92-aea8-169f27604418"},"vehicle_type_id":"4","last_reported":1750792122,"current_range_meters":3200,"station_id":"ce4bhbh2rcd13ifvqepg","pricing_plan_id":"cebpf4jnsgd1na2vs0mg"},{"bike_id":"d0482b01-394f-4a26-851a-4f4bbb8bb771","system_id":"levelo_inurba_marseille","lat":43.24662,"lon":5.38166,"is_reserved":false,"is_disabled":false,"rental_uris":{"android":"levelo://app?vid=d0482b01-394f-4a26-851a-4f4bbb8bb771","ios":"levelo://app?vid=d0482b01-394f-4a26-851a-4f4bbb8bb771"},"vehicle_type_id":"4","last_reported":1750792122,"current_range_meters":3200,"station_id":"ce4bhih2rcd13ifvqfr0","pricing_plan_id":"cebpf4jnsgd1na2vs0mg"},{"bike_id":"2bc9997c-9f3c-42b9-b7aa-602a6d040618","system_id":"levelo_inurba_marseille","lat":43.29971,"lon":5.38492,"is_reserved":false,"is_disabled":false,"rental_uris":{"android":"levelo://app?vid=2bc9997c-9f3c-42b9-b7aa-602a6d040618","ios":"levelo://app?vid=2bc9997c-9f3c-42b9-b7aa-602a6d040618"},"vehicle_type_id":"4","last_reported":1750792122,"current_range_meters":3600,"station_id":"ce4bgj92rcd13ifvqbd0","pricing_plan_id":"cebpf4jnsgd1na2vs0mg"},{"bike_id":"e264da73-674c-4a25-b6c7-be5a1689f11c","system_id":"levelo_inurba_marseille","lat":43.30645,"lon":5.40085,"is_reserved":false,"is_disabled":false,"rental_uris":{"android":"levelo://app?vid=e264da73-674c-4a25-b6c7-be5a1689f11c","ios":"levelo://app?vid=e264da73-674c-4a25-b6c7-be5a1689f11c"},"vehicle_type_id":"4","last_reported":1750792122,"current_range_meters":3600,"station_id":"ce4bh112rcd13ifvqda0","pricing_plan_id":"cebpf4jnsgd1na2vs0mg"},{"bike_id":"7611817b-124c-4486-a6ef-914e422e6175","system_id":"levelo_inurba_marseille","lat":43.28928,"lon":5.38404,"is_reserved":false,"is_disabled":false,"rental_uris":{"android":"levelo://app?vid=7611817b-124c-4486-a6ef-914e422e6175","ios":"levelo://app?vid=7611817b-124c-4486-a6ef-914e422e6175"},"vehicle_type_id":"4","last_reported":1750792122,"current_range_meters":3600,"station_id":"ce4bh612rcd13ifvqe6g","pricing_plan_id":"cebpf4jnsgd1na2vs0mg"},{"bike_id":"17139277-f6ef-439b-86dd-ab3ce7a402d2","system_id":"levelo_inurba_marseille","lat":43.24387,"lon":5.37054,"is_reserved":false,"is_disabled":false,"rental_uris":{"android":"levelo://app?vid=17139277-f6ef-439b-86dd-ab3ce7a402d2","ios":"levelo://app?vid=17139277-f6ef-439b-86dd-ab3ce7a402d2"},"vehicle_type_id":"4","last_reported":1750792122,"current_range_meters":3600,"station_id":"ce4bhhh2rcd13ifvqfk0","pricing_plan_id":"cebpf4jnsgd1na2vs0mg"},{"bike_id":"17d0afaa-6951-4dde-a43d-60017e75021c","system_id":"levelo_inurba_marseille","lat":43.291681,"lon":5.421175,"is_reserved":false,"is_disabled":false,"rental_uris":{"android":"levelo://app?vid=17d0afaa-6951-4dde-a43d-60017e75021c","ios":"levelo://app?vid=17d0afaa-6951-4dde-a43d-60017e75021c"},"vehicle_type_id":"4","last_reported":1750792122,"current_range_meters":4000,"station_id":"","pricing_plan_id":"cebpf4jnsgd1na2vs0mg"},{"bike_id":"b7e4f741-d968-4f14-b845-ca76a3e7f2c1","system_id":"levelo_inurba_marseille","lat":43.28567,"lon":5.39494,"is_reserved":false,"is_disabled":false,"rental_uris":{"android":"levelo://app?vid=b7e4f741-d968-4f14-b845-ca76a3e7f2c1","ios":"levelo://app?vid=b7e4f741-d968-4f14-b845-ca76a3e7f2c1"},"vehicle_type_id":"4","last_reported":1750792122,"current_range_meters":4000,"station_id":"ce4bh292rcd13ifvqdg0","pricing_plan_id":"cebpf4jnsgd1na2vs0mg"},{"bike_id":"045dac8a-fc30-46e4-bf3f-70ae0bdd41e6","system_id":"levelo_inurba_marseille","lat":43.24392,"lon":5.37064,"is_reserved":false,"is_disabled":false,"rental_uris":{"android":"levelo://app?vid=045dac8a-fc30-46e4-bf3f-70ae0bdd41e6","ios":"levelo://app?vid=045dac8a-fc30-46e4-bf3f-70ae0bdd41e6"},"vehicle_type_id":"4","last_reported":1750792122,"current_range_meters":4000,"station_id":"ce4bhhh2rcd13ifvqfk0","pricing_plan_id":"cebpf4jnsgd1na2vs0mg"},{"bike_id":"a77c160c-a981-433e-9584-aa7473f05944","system_id":"levelo_inurba_marseille","lat":43.30372,"lon":5.42477,"is_reserved":false,"is_disabled":false,"rental_uris":{"android":"levelo://app?vid=a77c160c-a981-433e-9584-aa7473f05944","ios":"levelo://app?vid=a77c160c-a981-433e-9584-aa7473f05944"},"vehicle_type_id":"4","last_reported":1750792122,"current_range_meters":4000,"station_id":"ce4bhoh2rcd13ifvqh6g","pricing_plan_id":"cebpf4jnsgd1na2vs0mg"},{"bike_id":"5724cefe-91b2-45a3-a789-8142c9e67198","system_id":"levelo_inurba_marseille","lat":43.34143,"lon":5.40905,"is_reserved":false,"is_disabled":false,"rental_uris":{"android":"levelo://app?vid=5724cefe-91b2-45a3-a789-8142c9e67198","ios":"levelo://app?vid=5724cefe-91b2-45a3-a789-8142c9e67198"},"vehicle_type_id":"4","last_reported":1750792122,"current_range_meters":4000,"station_id":"ce4bhqh2rcd13ifvqhlg","pricing_plan_id":"cebpf4jnsgd1na2vs0mg"},{"bike_id":"b946e26e-d98b-459e-93e8-2807b1d71782","system_id":"levelo_inurba_marseille","lat":43.29784,"lon":5.39334,"is_reserved":false,"is_disabled":false,"rental_uris":{"android":"levelo://app?vid=b946e26e-d98b-459e-93e8-2807b1d71782","ios":"levelo://app?vid=b946e26e-d98b-459e-93e8-2807b1d71782"},"vehicle_type_id":"4","last_reported":1750792122,"current_range_meters":4000,"station_id":"chh1huq6cuj3fo74tm60","pricing_plan_id":"cebpf4jnsgd1na2vs0mg"},{"bike_id":"5eb6e32f-5649-4235-9eba-82ce31dbbf74","system_id":"levelo_inurba_marseille","lat":43.30955,"lon":5.3903,"is_reserved":false,"is_disabled":false,"rental_uris":{"android":"levelo://app?vid=5eb6e32f-5649-4235-9eba-82ce31dbbf74","ios":"levelo://app?vid=5eb6e32f-5649-4235-9eba-82ce31dbbf74"},"vehicle_type_id":"4","last_reported":1750792122,"current_range_meters":4400,"station_id":"ce4bgup2rcd13ifvqco0","pricing_plan_id":"cebpf4jnsgd1na2vs0mg"},{"bike_id":"32e8537b-de0a-4a76-9ccf-6ea806b7a351","system_id":"levelo_inurba_marseille","lat":43.29789,"lon":5.38087,"is_reserved":false,"is_disabled":false,"rental_uris":{"android":"levelo://app?vid=32e8537b-de0a-4a76-9ccf-6ea806b7a351","ios":"levelo://app?vid=32e8537b-de0a-4a76-9ccf-6ea806b7a351"},"vehicle_type_id":"4","last_reported":1750792122,"current_range_meters":4800,"station_id":"ce4bgip2rcd13ifvqbb0","pricing_plan_id":"cebpf4jnsgd1na2vs0mg"},{"bike_id":"2ee0f703-efa5-42a1-adc9-6301a4b68f6c","system_id":"levelo_inurba_marseille","lat":43.3132,"lon":5.39691,"is_reserved":false,"is_disabled":false,"rental_uris":{"android":"levelo://app?vid=2ee0f703-efa5-42a1-adc9-6301a4b68f6c","ios":"levelo://app?vid=2ee0f703-efa5-42a1-adc9-6301a4b68f6c"},"vehicle_type_id":"4","last_reported":1750792122,"current_range_meters":4800,"station_id":"ce4bgvp2rcd13ifvqcu0","pricing_plan_id":"cebpf4jnsgd1na2vs0mg"},{"bike_id":"ea55d7c2-ac10-4769-a3ae-81b9beaeefdb","system_id":"levelo_inurba_marseille","lat":43.29611,"lon":5.37735,"is_reserved":false,"is_disabled":false,"rental_uris":{"android":"levelo://app?vid=ea55d7c2-ac10-4769-a3ae-81b9beaeefdb","ios":"levelo://app?vid=ea55d7c2-ac10-4769-a3ae-81b9beaeefdb"},"vehicle_type_id":"4","last_reported":1750792122,"current_range_meters":5600,"station_id":"ce4bgi92rcd13ifvqb90","pricing_plan_id":"cebpf4jnsgd1na2vs0mg"},{"bike_id":"a1bf6caa-5c04-4b64-9208-3f4434bc85ec","system_id":"levelo_inurba_marseille","lat":43.29525,"lon":5.38546,"is_reserved":false,"is_disabled":false,"rental_uris":{"android":"levelo://app?vid=a1bf6caa-5c04-4b64-9208-3f4434bc85ec","ios":"levelo://app?vid=a1bf6caa-5c04-4b64-9208-3f4434bc85ec"},"vehicle_type_id":"4","last_reported":1750792122,"current_range_meters":6000,"station_id":"ce4bgih2rcd13ifvqba0","pricing_plan_id":"cebpf4jnsgd1na2vs0mg"},{"bike_id":"805d8749-1fa4-40bf-ac45-ebbacbdb64cb","system_id":"levelo_inurba_marseille","lat":43.299619,"lon":5.397128,"is_reserved":false,"is_disabled":false,"rental_uris":{"android":"levelo://app?vid=805d8749-1fa4-40bf-ac45-ebbacbdb64cb","ios":"levelo://app?vid=805d8749-1fa4-40bf-ac45-ebbacbdb64cb"},"vehicle_type_id":"4","last_reported":1750792122,"current_range_meters":6000,"station_id":"ce4bh0h2rcd13ifvqd50","pricing_plan_id":"cebpf4jnsgd1na2vs0mg"},{"bike_id":"7b59e10f-7852-4152-8870-a83f6b5c1d00","system_id":"levelo_inurba_marseille","lat":43.29036,"lon":5.39949,"is_reserved":false,"is_disabled":false,"rental_uris":{"android":"levelo://app?vid=7b59e10f-7852-4152-8870-a83f6b5c1d00","ios":"levelo://app?vid=7b59e10f-7852-4152-8870-a83f6b5c1d00"},"vehicle_type_id":"4","last_reported":1750792122,"current_range_meters":6000,"station_id":"ce4bh392rcd13ifvqdm0","pricing_plan_id":"cebpf4jnsgd1na2vs0mg"},{"bike_id":"39556b21-077a-48cc-b8de-87c1fea7edf6","system_id":"levelo_inurba_marseille","lat":43.27374,"lon":5.3625,"is_reserved":false,"is_disabled":false,"rental_uris":{"android":"levelo://app?vid=39556b21-077a-48cc-b8de-87c1fea7edf6","ios":"levelo://app?vid=39556b21-077a-48cc-b8de-87c1fea7edf6"},"vehicle_type_id":"4","last_reported":1750792122,"current_range_meters":6000,"station_id":"ce4bhbh2rcd13ifvqeo0","pricing_plan_id":"cebpf4jnsgd1na2vs0mg"},{"bike_id":"186ae715-2aed-4e29-849e-3575b01ae79e","system_id":"levelo_inurba_marseille","lat":43.30308,"lon":5.3921,"is_reserved":false,"is_disabled":false,"rental_uris":{"android":"levelo://app?vid=186ae715-2aed-4e29-849e-3575b01ae79e","ios":"levelo://app?vid=186ae715-2aed-4e29-849e-3575b01ae79e"},"vehicle_type_id":"4","last_reported":1750792122,"current_range_meters":6400,"station_id":"ce4bgkh2rcd13ifvqbk0","pricing_plan_id":"cebpf4jnsgd1na2vs0mg"},{"bike_id":"5288953e-8918-4358-b298-8409fda27c23","system_id":"levelo_inurba_marseille","lat":43.31113,"lon":5.37766,"is_reserved":false,"is_disabled":false,"rental_uris":{"android":"levelo://app?vid=5288953e-8918-4358-b298-8409fda27c23","ios":"levelo://app?vid=5288953e-8918-4358-b298-8409fda27c23"},"vehicle_type_id":"4","last_reported":1750792122,"current_range_meters":6400,"station_id":"ce4bgt92rcd13ifvqcg0","pricing_plan_id":"cebpf4jnsgd1na2vs0mg"},{"bike_id":"8939d6d6-03f8-4850-9565-c04c3d4d58e2","system_id":"levelo_inurba_marseille","lat":43.31682,"lon":5.40474,"is_reserved":false,"is_disabled":false,"rental_uris":{"android":"levelo://app?vid=8939d6d6-03f8-4850-9565-c04c3d4d58e2","ios":"levelo://app?vid=8939d6d6-03f8-4850-9565-c04c3d4d58e2"},"vehicle_type_id":"4","last_reported":1750792122,"current_range_meters":6400,"station_id":"ce4bh012rcd13ifvqd00","pricing_plan_id":"cebpf4jnsgd1na2vs0mg"},{"bike_id":"b026235c-dcea-4098-85b9-edf6609ddaa6","system_id":"levelo_inurba_marseille","lat":43.24402,"lon":5.37062,"is_reserved":false,"is_disabled":false,"rental_uris":{"android":"levelo://app?vid=b026235c-dcea-4098-85b9-edf6609ddaa6","ios":"levelo://app?vid=b026235c-dcea-4098-85b9-edf6609ddaa6"},"vehicle_type_id":"4","last_reported":1750792122,"current_range_meters":6400,"station_id":"ce4bhhh2rcd13ifvqfk0","pricing_plan_id":"cebpf4jnsgd1na2vs0mg"},{"bike_id":"34d55f23-45c1-4cee-888d-8f51f3b0ae80","system_id":"levelo_inurba_marseille","lat":43.32518,"lon":5.43377,"is_reserved":false,"is_disabled":false,"rental_uris":{"android":"levelo://app?vid=34d55f23-45c1-4cee-888d-8f51f3b0ae80","ios":"levelo://app?vid=34d55f23-45c1-4cee-888d-8f51f3b0ae80"},"vehicle_type_id":"4","last_reported":1750792122,"current_range_meters":6800,"station_id":"","pricing_plan_id":"cebpf4jnsgd1na2vs0mg"},{"bike_id":"57bc96de-fc33-48c7-805f-a14ba69968cc","system_id":"levelo_inurba_marseille","lat":43.29594,"lon":5.38102,"is_reserved":false,"is_disabled":false,"rental_uris":{"android":"levelo://app?vid=57bc96de-fc33-48c7-805f-a14ba69968cc","ios":"levelo://app?vid=57bc96de-fc33-48c7-805f-a14ba69968cc"},"vehicle_type_id":"4","last_reported":1750792122,"current_range_meters":6800,"station_id":"ce4bgl12rcd13ifvqbo0","pricing_plan_id":"cebpf4jnsgd1na2vs0mg"},{"bike_id":"87a07f50-9772-41c2-b46a-dbadb6419903","system_id":"levelo_inurba_marseille","lat":43.30932,"lon":5.40145,"is_reserved":false,"is_disabled":false,"rental_uris":{"android":"levelo://app?vid=87a07f50-9772-41c2-b46a-dbadb6419903","ios":"levelo://app?vid=87a07f50-9772-41c2-b46a-dbadb6419903"},"vehicle_type_id":"4","last_reported":1750792122,"current_range_meters":6800,"station_id":"ce4bgvp2rcd13ifvqct0","pricing_plan_id":"cebpf4jnsgd1na2vs0mg"},{"bike_id":"0b6455cb-38cb-4edc-83aa-17ebe22a74f4","system_id":"levelo_inurba_marseille","lat":43.27371,"lon":5.36261,"is_reserved":false,"is_disabled":false,"rental_uris":{"android":"levelo://app?vid=0b6455cb-38cb-4edc-83aa-17ebe22a74f4","ios":"levelo://app?vid=0b6455cb-38cb-4edc-83aa-17ebe22a74f4"},"vehicle_type_id":"4","last_reported":1750792122,"current_range_meters":6800,"station_id":"ce4bhbh2rcd13ifvqeo0","pricing_plan_id":"cebpf4jnsgd1na2vs0mg"},{"bike_id":"cb2eb46e-9bff-4868-80ba-f19c97f460d0","system_id":"levelo_inurba_marseille","lat":43.27372,"lon":5.36239,"is_reserved":false,"is_disabled":false,"rental_uris":{"android":"levelo://app?vid=cb2eb46e-9bff-4868-80ba-f19c97f460d0","ios":"levelo://app?vid=cb2eb46e-9bff-4868-80ba-f19c97f460d0"},"vehicle_type_id":"4","last_reported":1750792122,"current_range_meters":6800,"station_id":"ce4bhbh2rcd13ifvqeo0","pricing_plan_id":"cebpf4jnsgd1na2vs0mg"},{"bike_id":"d2a4f8a2-1171-4127-8e5d-38df3a435220","system_id":"levelo_inurba_marseille","lat":43.24657,"lon":5.38894,"is_reserved":false,"is_disabled":false,"rental_uris":{"android":"levelo://app?vid=d2a4f8a2-1171-4127-8e5d-38df3a435220","ios":"levelo://app?vid=d2a4f8a2-1171-4127-8e5d-38df3a435220"},"vehicle_type_id":"4","last_reported":1750792122,"current_range_meters":6800,"station_id":"ce4bhg12rcd13ifvqf60","pricing_plan_id":"cebpf4jnsgd1na2vs0mg"},{"bike_id":"37e8e3d7-9693-4634-86f1-20f2a3fbbf68","system_id":"levelo_inurba_marseille","lat":43.29897,"lon":5.436647,"is_reserved":false,"is_disabled":false,"rental_uris":{"android":"levelo://app?vid=37e8e3d7-9693-4634-86f1-20f2a3fbbf68","ios":"levelo://app?vid=37e8e3d7-9693-4634-86f1-20f2a3fbbf68"},"vehicle_type_id":"4","last_reported":1750792122,"current_range_meters":6800,"station_id":"ce4bhpp2rcd13ifvqhfg","pricing_plan_id":"cebpf4jnsgd1na2vs0mg"},{"bike_id":"465d2323-f97d-48b0-a820-bc5fa54ae0fa","system_id":"levelo_inurba_marseille","lat":43.28358,"lon":5.45893,"is_reserved":false,"is_disabled":false,"rental_uris":{"android":"levelo://app?vid=465d2323-f97d-48b0-a820-bc5fa54ae0fa","ios":"levelo://app?vid=465d2323-f97d-48b0-a820-bc5fa54ae0fa"},"vehicle_type_id":"4","last_reported":1750792122,"current_range_meters":7200,"station_id":"","pricing_plan_id":"cebpf4jnsgd1na2vs0mg"},{"bike_id":"242ec51e-7ccb-46d0-a703-60e411f25ee6","system_id":"levelo_inurba_marseille","lat":43.29301,"lon":5.37452,"is_reserved":false,"is_disabled":false,"rental_uris":{"android":"levelo://app?vid=242ec51e-7ccb-46d0-a703-60e411f25ee6","ios":"levelo://app?vid=242ec51e-7ccb-46d0-a703-60e411f25ee6"},"vehicle_type_id":"4","last_reported":1750792122,"current_range_meters":7200,"station_id":"ce4bgi12rcd13ifvqb70","pricing_plan_id":"cebpf4jnsgd1na2vs0mg"},{"bike_id":"278d6864-1701-4bed-b219-782b85732544","system_id":"levelo_inurba_marseille","lat":43.29304,"lon":5.37462,"is_reserved":false,"is_disabled":false,"rental_uris":{"android":"levelo://app?vid=278d6864-1701-4bed-b219-782b85732544","ios":"levelo://app?vid=278d6864-1701-4bed-b219-782b85732544"},"vehicle_type_id":"4","last_reported":1750792122,"current_range_meters":7200,"station_id":"ce4bgi12rcd13ifvqb70","pricing_plan_id":"cebpf4jnsgd1na2vs0mg"},{"bike_id":"2fbb2382-0e85-43fd-9e49-a7f99053f862","system_id":"levelo_inurba_marseille","lat":43.27962,"lon":5.41035,"is_reserved":false,"is_disabled":false,"rental_uris":{"android":"levelo://app?vid=2fbb2382-0e85-43fd-9e49-a7f99053f862","ios":"levelo://app?vid=2fbb2382-0e85-43fd-9e49-a7f99053f862"},"vehicle_type_id":"4","last_reported":1750792122,"current_range_meters":7200,"station_id":"ce4bhnp2rcd13ifvqh0g","pricing_plan_id":"cebpf4jnsgd1na2vs0mg"},{"bike_id":"5d7049bb-7e9f-4be8-be51-9b7065e42925","system_id":"levelo_inurba_marseille","lat":43.28609,"lon":5.37063,"is_reserved":false,"is_disabled":false,"rental_uris":{"android":"levelo://app?vid=5d7049bb-7e9f-4be8-be51-9b7065e42925","ios":"levelo://app?vid=5d7049bb-7e9f-4be8-be51-9b7065e42925"},"vehicle_type_id":"4","last_reported":1750792122,"current_range_meters":7200,"station_id":"ce4bht12rcd13ifvqi60","pricing_plan_id":"cebpf4jnsgd1na2vs0mg"},{"bike_id":"525ba54b-eef9-4041-8308-9b6f234c05a4","system_id":"levelo_inurba_marseille","lat":43.29589,"lon":5.36741,"is_reserved":false,"is_disabled":false,"rental_uris":{"android":"levelo://app?vid=525ba54b-eef9-4041-8308-9b6f234c05a4","ios":"levelo://app?vid=525ba54b-eef9-4041-8308-9b6f234c05a4"},"vehicle_type_id":"4","last_reported":1750792122,"current_range_meters":8000,"station_id":"ce4bgph2rcd13ifvqc2g","pricing_plan_id":"cebpf4jnsgd1na2vs0mg"},{"bike_id":"44f01031-bcd9-423c-a1ab-6f17bd4b5af8","system_id":"levelo_inurba_marseille","lat":43.30889,"lon":5.39659,"is_reserved":false,"is_disabled":false,"rental_uris":{"android":"levelo://app?vid=44f01031-bcd9-423c-a1ab-6f17bd4b5af8","ios":"levelo://app?vid=44f01031-bcd9-423c-a1ab-6f17bd4b5af8"},"vehicle_type_id":"4","last_reported":1750792122,"current_range_meters":8000,"station_id":"ce4bh012rcd13ifvqcv0","pricing_plan_id":"cebpf4jnsgd1na2vs0mg"},{"bike_id":"32bf8c14-a744-4cd8-ba0d-7e75c2176b7b","system_id":"levelo_inurba_marseille","lat":43.286282,"lon":5.385187,"is_reserved":false,"is_disabled":false,"rental_uris":{"android":"levelo://app?vid=32bf8c14-a744-4cd8-ba0d-7e75c2176b7b","ios":"levelo://app?vid=32bf8c14-a744-4cd8-ba0d-7e75c2176b7b"},"vehicle_type_id":"4","last_reported":1750792122,"current_range_meters":8000,"station_id":"ce4bh512rcd13ifvqe3g","pricing_plan_id":"cebpf4jnsgd1na2vs0mg"},{"bike_id":"dd6864e5-26e1-4872-b17b-806a7d300479","system_id":"levelo_inurba_marseille","lat":43.29265,"lon":5.38435,"is_reserved":false,"is_disabled":false,"rental_uris":{"android":"levelo://app?vid=dd6864e5-26e1-4872-b17b-806a7d300479","ios":"levelo://app?vid=dd6864e5-26e1-4872-b17b-806a7d300479"},"vehicle_type_id":"4","last_reported":1750792122,"current_range_meters":8000,"station_id":"ce4bh692rcd13ifvqea0","pricing_plan_id":"cebpf4jnsgd1na2vs0mg"},{"bike_id":"8c52b308-7389-4a8b-9997-1ec6f0c5a796","system_id":"levelo_inurba_marseille","lat":43.28425,"lon":5.35004,"is_reserved":false,"is_disabled":false,"rental_uris":{"android":"levelo://app?vid=8c52b308-7389-4a8b-9997-1ec6f0c5a796","ios":"levelo://app?vid=8c52b308-7389-4a8b-9997-1ec6f0c5a796"},"vehicle_type_id":"4","last_reported":1750792122,"current_range_meters":8000,"station_id":"ce4bhbh2rcd13ifvqepg","pricing_plan_id":"cebpf4jnsgd1na2vs0mg"},{"bike_id":"a092c41c-0118-4d86-b43e-981a2615e33e","system_id":"levelo_inurba_marseille","lat":43.34698,"lon":5.34524,"is_reserved":false,"is_disabled":false,"rental_uris":{"android":"levelo://app?vid=a092c41c-0118-4d86-b43e-981a2615e33e","ios":"levelo://app?vid=a092c41c-0118-4d86-b43e-981a2615e33e"},"vehicle_type_id":"4","last_reported":1750792122,"current_range_meters":8400,"station_id":"","pricing_plan_id":"cebpf4jnsgd1na2vs0mg"},{"bike_id":"113b198a-6e1b-46eb-8e6f-7d0d14639408","system_id":"levelo_inurba_marseille","lat":43.28788,"lon":5.36382,"is_reserved":false,"is_disabled":false,"rental_uris":{"android":"levelo://app?vid=113b198a-6e1b-46eb-8e6f-7d0d14639408","ios":"levelo://app?vid=113b198a-6e1b-46eb-8e6f-7d0d14639408"},"vehicle_type_id":"4","last_reported":1750792122,"current_range_meters":8400,"station_id":"","pricing_plan_id":"cebpf4jnsgd1na2vs0mg"},{"bike_id":"1620ae26-dff9-4f16-82b2-5d8c53975dce","system_id":"levelo_inurba_marseille","lat":43.27913,"lon":5.38014,"is_reserved":false,"is_disabled":false,"rental_uris":{"android":"levelo://app?vid=1620ae26-dff9-4f16-82b2-5d8c53975dce","ios":"levelo://app?vid=1620ae26-dff9-4f16-82b2-5d8c53975dce"},"vehicle_type_id":"4","last_reported":1750792122,"current_range_meters":8400,"station_id":"ce4bhf92rcd13ifvqf50","pricing_plan_id":"cebpf4jnsgd1na2vs0mg"},{"bike_id":"93fe92da-4647-43de-acb1-4b26e347123d","system_id":"levelo_inurba_marseille","lat":43.262075,"lon":5.374429,"is_reserved":false,"is_disabled":false,"rental_uris":{"android":"levelo://app?vid=93fe92da-4647-43de-acb1-4b26e347123d","ios":"levelo://app?vid=93fe92da-4647-43de-acb1-4b26e347123d"},"vehicle_type_id":"4","last_reported":1750792122,"current_range_meters":8400,"station_id":"ce4bhgp2rcd13ifvqfc0","pricing_plan_id":"cebpf4jnsgd1na2vs0mg"},{"bike_id":"32a21f5b-7b84-4390-8f2f-2e6a54912942","system_id":"levelo_inurba_marseille","lat":43.254801,"lon":5.376078,"is_reserved":false,"is_disabled":false,"rental_uris":{"android":"levelo://app?vid=32a21f5b-7b84-4390-8f2f-2e6a54912942","ios":"levelo://app?vid=32a21f5b-7b84-4390-8f2f-2e6a54912942"},"vehicle_type_id":"4","last_reported":1750792122,"current_range_meters":8400,"station_id":"ce4bhh12rcd13ifvqff0","pricing_plan_id":"cebpf4jnsgd1na2vs0mg"},{"bike_id":"78d4a468-1a2b-4c2c-a0b2-451a1d63d1ce","system_id":"levelo_inurba_marseille","lat":43.32041,"lon":5.41554,"is_reserved":false,"is_disabled":false,"rental_uris":{"android":"levelo://app?vid=78d4a468-1a2b-4c2c-a0b2-451a1d63d1ce","ios":"levelo://app?vid=78d4a468-1a2b-4c2c-a0b2-451a1d63d1ce"},"vehicle_type_id":"4","last_reported":1750792122,"current_range_meters":8400,"station_id":"ce4bhq92rcd13ifvqhkg","pricing_plan_id":"cebpf4jnsgd1na2vs0mg"},{"bike_id":"f333bcb3-17e0-43f1-847f-eb3d745e3e41","system_id":"levelo_inurba_marseille","lat":43.29366,"lon":5.4282,"is_reserved":false,"is_disabled":false,"rental_uris":{"android":"levelo://app?vid=f333bcb3-17e0-43f1-847f-eb3d745e3e41","ios":"levelo://app?vid=f333bcb3-17e0-43f1-847f-eb3d745e3e41"},"vehicle_type_id":"4","last_reported":1750792122,"current_range_meters":8800,"station_id":"","pricing_plan_id":"cebpf4jnsgd1na2vs0mg"},{"bike_id":"e127ef7e-24d3-4248-81fa-66c5e7c3e582","system_id":"levelo_inurba_marseille","lat":43.29605,"lon":5.37941,"is_reserved":false,"is_disabled":false,"rental_uris":{"android":"levelo://app?vid=e127ef7e-24d3-4248-81fa-66c5e7c3e582","ios":"levelo://app?vid=e127ef7e-24d3-4248-81fa-66c5e7c3e582"},"vehicle_type_id":"4","last_reported":1750792122,"current_range_meters":8800,"station_id":"","pricing_plan_id":"cebpf4jnsgd1na2vs0mg"},{"bike_id":"d9655a1c-ca88-4141-adc7-f38b54d03e12","system_id":"levelo_inurba_marseille","lat":43.27619,"lon":5.36107,"is_reserved":false,"is_disabled":false,"rental_uris":{"android":"levelo://app?vid=d9655a1c-ca88-4141-adc7-f38b54d03e12","ios":"levelo://app?vid=d9655a1c-ca88-4141-adc7-f38b54d03e12"},"vehicle_type_id":"4","last_reported":1750792122,"current_range_meters":8800,"station_id":"ce4bgj92rcd13ifvqbe0","pricing_plan_id":"cebpf4jnsgd1na2vs0mg"},{"bike_id":"2a76f130-17c0-4c02-a41f-dc2c9cf4161b","system_id":"levelo_inurba_marseille","lat":43.25513,"lon":5.37656,"is_reserved":false,"is_disabled":false,"rental_uris":{"android":"levelo://app?vid=2a76f130-17c0-4c02-a41f-dc2c9cf4161b","ios":"levelo://app?vid=2a76f130-17c0-4c02-a41f-dc2c9cf4161b"},"vehicle_type_id":"4","last_reported":1750792122,"current_range_meters":8800,"station_id":"ce4bhh12rcd13ifvqff0","pricing_plan_id":"cebpf4jnsgd1na2vs0mg"},{"bike_id":"d15c8810-0a93-46cd-9a65-7eabef92df0f","system_id":"levelo_inurba_marseille","lat":43.31995,"lon":5.38168,"is_reserved":false,"is_disabled":false,"rental_uris":{"android":"levelo://app?vid=d15c8810-0a93-46cd-9a65-7eabef92df0f","ios":"levelo://app?vid=d15c8810-0a93-46cd-9a65-7eabef92df0f"},"vehicle_type_id":"4","last_reported":1750792122,"current_range_meters":8800,"station_id":"ce4bhr12rcd13ifvqhpg","pricing_plan_id":"cebpf4jnsgd1na2vs0mg"},{"bike_id":"82daa609-66e4-4b91-8a1c-a20f4b557675","system_id":"levelo_inurba_marseille","lat":43.30336,"lon":5.36691,"is_reserved":false,"is_disabled":false,"rental_uris":{"android":"levelo://app?vid=82daa609-66e4-4b91-8a1c-a20f4b557675","ios":"levelo://app?vid=82daa609-66e4-4b91-8a1c-a20f4b557675"},"vehicle_type_id":"4","last_reported":1750792122,"current_range_meters":9200,"station_id":"","pricing_plan_id":"cebpf4jnsgd1na2vs0mg"},{"bike_id":"d647d82e-58fb-4efa-913b-7b5c87759cda","system_id":"levelo_inurba_marseille","lat":43.27005,"lon":5.3987,"is_reserved":false,"is_disabled":false,"rental_uris":{"android":"levelo://app?vid=d647d82e-58fb-4efa-913b-7b5c87759cda","ios":"levelo://app?vid=d647d82e-58fb-4efa-913b-7b5c87759cda"},"vehicle_type_id":"4","last_reported":1750792122,"current_range_meters":9200,"station_id":"","pricing_plan_id":"cebpf4jnsgd1na2vs0mg"},{"bike_id":"ccc9455a-4fe1-428f-9b6e-8a34983a5a2c","system_id":"levelo_inurba_marseille","lat":43.29802,"lon":5.40397,"is_reserved":false,"is_disabled":false,"rental_uris":{"android":"levelo://app?vid=ccc9455a-4fe1-428f-9b6e-8a34983a5a2c","ios":"levelo://app?vid=ccc9455a-4fe1-428f-9b6e-8a34983a5a2c"},"vehicle_type_id":"4","last_reported":1750792122,"current_range_meters":9200,"station_id":"ce4bh112rcd13ifvqd90","pricing_plan_id":"cebpf4jnsgd1na2vs0mg"},{"bike_id":"1e4d163d-e061-4fd4-9ff3-ffcf63d2eb92","system_id":"levelo_inurba_marseille","lat":43.28075,"lon":5.39659,"is_reserved":false,"is_disabled":false,"rental_uris":{"android":"levelo://app?vid=1e4d163d-e061-4fd4-9ff3-ffcf63d2eb92","ios":"levelo://app?vid=1e4d163d-e061-4fd4-9ff3-ffcf63d2eb92"},"vehicle_type_id":"4","last_reported":1750792122,"current_range_meters":9200,"station_id":"ce4bho12rcd13ifvqh2g","pricing_plan_id":"cebpf4jnsgd1na2vs0mg"},{"bike_id":"e162441c-93a0-47e1-a54d-425b473afb50","system_id":"levelo_inurba_marseille","lat":43.23186,"lon":5.35567,"is_reserved":false,"is_disabled":false,"rental_uris":{"android":"levelo://app?vid=e162441c-93a0-47e1-a54d-425b473afb50","ios":"levelo://app?vid=e162441c-93a0-47e1-a54d-425b473afb50"},"vehicle_type_id":"4","last_reported":1750792122,"current_range_meters":9200,"station_id":"ce4bhu92rcd13ifvqi70","pricing_plan_id":"cebpf4jnsgd1na2vs0mg"},{"bike_id":"7699de57-5279-4452-bc33-1479644fe4e0","system_id":"levelo_inurba_marseille","lat":43.287292,"lon":5.360884,"is_reserved":false,"is_disabled":false,"rental_uris":{"android":"levelo://app?vid=7699de57-5279-4452-bc33-1479644fe4e0","ios":"levelo://app?vid=7699de57-5279-4452-bc33-1479644fe4e0"},"vehicle_type_id":"4","last_reported":1750792122,"current_range_meters":9200,"station_id":"cki0cbj6b192h4jlfktg","pricing_plan_id":"cebpf4jnsgd1na2vs0mg"},{"bike_id":"e12d25ad-6a34-4f7d-a8b9-169850127fad","system_id":"levelo_inurba_marseille","lat":43.32695,"lon":5.40285,"is_reserved":false,"is_disabled":false,"rental_uris":{"android":"levelo://app?vid=e12d25ad-6a34-4f7d-a8b9-169850127fad","ios":"levelo://app?vid=e12d25ad-6a34-4f7d-a8b9-169850127fad"},"vehicle_type_id":"4","last_reported":1750792122,"current_range_meters":9600,"station_id":"","pricing_plan_id":"cebpf4jnsgd1na2vs0mg"},{"bike_id":"51dcb3e1-2b07-4a2e-9a2b-e4ec75156f6c","system_id":"levelo_inurba_marseille","lat":43.2292,"lon":5.35383,"is_reserved":false,"is_disabled":false,"rental_uris":{"android":"levelo://app?vid=51dcb3e1-2b07-4a2e-9a2b-e4ec75156f6c","ios":"levelo://app?vid=51dcb3e1-2b07-4a2e-9a2b-e4ec75156f6c"},"vehicle_type_id":"4","last_reported":1750792122,"current_range_meters":9600,"station_id":"cpo3532slgdg3j2ikp40","pricing_plan_id":"cebpf4jnsgd1na2vs0mg"},{"bike_id":"b7d27408-8db6-4d78-be1b-d4ad1c3f5edb","system_id":"levelo_inurba_marseille","lat":43.3073,"lon":5.42432,"is_reserved":false,"is_disabled":false,"rental_uris":{"android":"levelo://app?vid=b7d27408-8db6-4d78-be1b-d4ad1c3f5edb","ios":"levelo://app?vid=b7d27408-8db6-4d78-be1b-d4ad1c3f5edb"},"vehicle_type_id":"4","last_reported":1750792122,"current_range_meters":9600,"station_id":"st_cvj6ca6bvosntc0bfgr0","pricing_plan_id":"cebpf4jnsgd1na2vs0mg"},{"bike_id":"2c692c15-8652-4224-8bad-6043597b7089","system_id":"levelo_inurba_marseille","lat":43.29529,"lon":5.39041,"is_reserved":false,"is_disabled":false,"rental_uris":{"android":"levelo://app?vid=2c692c15-8652-4224-8bad-6043597b7089","ios":"levelo://app?vid=2c692c15-8652-4224-8bad-6043597b7089"},"vehicle_type_id":"4","last_reported":1750792122,"current_range_meters":10000,"station_id":"ce4bh3p2rcd13ifvqdp0","pricing_plan_id":"cebpf4jnsgd1na2vs0mg"},{"bike_id":"3e0a67eb-4d67-4c3f-a724-95500407e096","system_id":"levelo_inurba_marseille","lat":43.28719,"lon":5.37931,"is_reserved":false,"is_disabled":false,"rental_uris":{"android":"levelo://app?vid=3e0a67eb-4d67-4c3f-a724-95500407e096","ios":"levelo://app?vid=3e0a67eb-4d67-4c3f-a724-95500407e096"},"vehicle_type_id":"4","last_reported":1750792122,"current_range_meters":10000,"station_id":"ce4bh9p2rcd13ifvqec0","pricing_plan_id":"cebpf4jnsgd1na2vs0mg"},{"bike_id":"c940cda6-f203-4a99-88c0-6637ff62e74b","system_id":"levelo_inurba_marseille","lat":43.27377,"lon":5.36236,"is_reserved":false,"is_disabled":false,"rental_uris":{"android":"levelo://app?vid=c940cda6-f203-4a99-88c0-6637ff62e74b","ios":"levelo://app?vid=c940cda6-f203-4a99-88c0-6637ff62e74b"},"vehicle_type_id":"4","last_reported":1750792122,"current_range_meters":10000,"station_id":"ce4bhbh2rcd13ifvqeo0","pricing_plan_id":"cebpf4jnsgd1na2vs0mg"},{"bike_id":"a5885120-8d68-4c1c-8569-9665fdd6d3a4","system_id":"levelo_inurba_marseille","lat":43.26489,"lon":5.40364,"is_reserved":false,"is_disabled":false,"rental_uris":{"android":"levelo://app?vid=a5885120-8d68-4c1c-8569-9665fdd6d3a4","ios":"levelo://app?vid=a5885120-8d68-4c1c-8569-9665fdd6d3a4"},"vehicle_type_id":"4","last_reported":1750792122,"current_range_meters":10800,"station_id":"","pricing_plan_id":"cebpf4jnsgd1na2vs0mg"},{"bike_id":"88230a78-9fbf-4e6f-8358-9006acfaa40c","system_id":"levelo_inurba_marseille","lat":43.2499,"lon":5.38914,"is_reserved":false,"is_disabled":false,"rental_uris":{"android":"levelo://app?vid=88230a78-9fbf-4e6f-8358-9006acfaa40c","ios":"levelo://app?vid=88230a78-9fbf-4e6f-8358-9006acfaa40c"},"vehicle_type_id":"4","last_reported":1750792122,"current_range_meters":10800,"station_id":"ce4bhgp2rcd13ifvqfd0","pricing_plan_id":"cebpf4jnsgd1na2vs0mg"},{"bike_id":"fe5ae774-5203-46ee-8377-be0ee9d4be63","system_id":"levelo_inurba_marseille","lat":43.27205,"lon":5.39172,"is_reserved":false,"is_disabled":false,"rental_uris":{"android":"levelo://app?vid=fe5ae774-5203-46ee-8377-be0ee9d4be63","ios":"levelo://app?vid=fe5ae774-5203-46ee-8377-be0ee9d4be63"},"vehicle_type_id":"4","last_reported":1750792122,"current_range_meters":10800,"station_id":"ce4bhhp2rcd13ifvqfm0","pricing_plan_id":"cebpf4jnsgd1na2vs0mg"},{"bike_id":"ac395451-660c-4273-b441-e1fbc8f6e0f3","system_id":"levelo_inurba_marseille","lat":43.295324,"lon":5.385939,"is_reserved":false,"is_disabled":false,"rental_uris":{"android":"levelo://app?vid=ac395451-660c-4273-b441-e1fbc8f6e0f3","ios":"levelo://app?vid=ac395451-660c-4273-b441-e1fbc8f6e0f3"},"vehicle_type_id":"4","last_reported":1750792122,"current_range_meters":11200,"station_id":"ce4bgih2rcd13ifvqba0","pricing_plan_id":"cebpf4jnsgd1na2vs0mg"},{"bike_id":"1f9c8078-a25d-44d1-9893-5bb51332c481","system_id":"levelo_inurba_marseille","lat":43.30645,"lon":5.40096,"is_reserved":false,"is_disabled":false,"rental_uris":{"android":"levelo://app?vid=1f9c8078-a25d-44d1-9893-5bb51332c481","ios":"levelo://app?vid=1f9c8078-a25d-44d1-9893-5bb51332c481"},"vehicle_type_id":"4","last_reported":1750792122,"current_range_meters":11200,"station_id":"ce4bh112rcd13ifvqda0","pricing_plan_id":"cebpf4jnsgd1na2vs0mg"},{"bike_id":"a0ff4855-0ad0-4734-bf40-7d0809c1a466","system_id":"levelo_inurba_marseille","lat":43.28408,"lon":5.3751,"is_reserved":false,"is_disabled":false,"rental_uris":{"android":"levelo://app?vid=a0ff4855-0ad0-4734-bf40-7d0809c1a466","ios":"levelo://app?vid=a0ff4855-0ad0-4734-bf40-7d0809c1a466"},"vehicle_type_id":"4","last_reported":1750792122,"current_range_meters":11200,"station_id":"ce4bh412rcd13ifvqds0","pricing_plan_id":"cebpf4jnsgd1na2vs0mg"},{"bike_id":"5066f0e9-ac9a-47b3-a29a-e80cf26c0013","system_id":"levelo_inurba_marseille","lat":43.28102,"lon":5.37834,"is_reserved":false,"is_disabled":false,"rental_uris":{"android":"levelo://app?vid=5066f0e9-ac9a-47b3-a29a-e80cf26c0013","ios":"levelo://app?vid=5066f0e9-ac9a-47b3-a29a-e80cf26c0013"},"vehicle_type_id":"4","last_reported":1750792122,"current_range_meters":11200,"station_id":"ce4bha12rcd13ifvqee0","pricing_plan_id":"cebpf4jnsgd1na2vs0mg"},{"bike_id":"b243e5e3-90c3-459d-8d9c-bd129840d140","system_id":"levelo_inurba_marseille","lat":43.28935,"lon":5.36643,"is_reserved":false,"is_disabled":false,"rental_uris":{"android":"levelo://app?vid=b243e5e3-90c3-459d-8d9c-bd129840d140","ios":"levelo://app?vid=b243e5e3-90c3-459d-8d9c-bd129840d140"},"vehicle_type_id":"4","last_reported":1750792122,"current_range_meters":11200,"station_id":"ce4bhap2rcd13ifvqek0","pricing_plan_id":"cebpf4jnsgd1na2vs0mg"},{"bike_id":"56ebbace-06fb-4eea-95d5-3e9df964bbc6","system_id":"levelo_inurba_marseille","lat":43.27372,"lon":5.36255,"is_reserved":false,"is_disabled":false,"rental_uris":{"android":"levelo://app?vid=56ebbace-06fb-4eea-95d5-3e9df964bbc6","ios":"levelo://app?vid=56ebbace-06fb-4eea-95d5-3e9df964bbc6"},"vehicle_type_id":"4","last_reported":1750792122,"current_range_meters":11200,"station_id":"ce4bhbh2rcd13ifvqeo0","pricing_plan_id":"cebpf4jnsgd1na2vs0mg"},{"bike_id":"812ed64a-d77e-45ca-bd16-2819bfe1369e","system_id":"levelo_inurba_marseille","lat":43.27377,"lon":5.36236,"is_reserved":false,"is_disabled":false,"rental_uris":{"android":"levelo://app?vid=812ed64a-d77e-45ca-bd16-2819bfe1369e","ios":"levelo://app?vid=812ed64a-d77e-45ca-bd16-2819bfe1369e"},"vehicle_type_id":"4","last_reported":1750792122,"current_range_meters":11200,"station_id":"ce4bhbh2rcd13ifvqeo0","pricing_plan_id":"cebpf4jnsgd1na2vs0mg"},{"bike_id":"a05b3fcc-d293-416d-a975-fa97dcc56f03","system_id":"levelo_inurba_marseille","lat":43.26241,"lon":5.40441,"is_reserved":false,"is_disabled":false,"rental_uris":{"android":"levelo://app?vid=a05b3fcc-d293-416d-a975-fa97dcc56f03","ios":"levelo://app?vid=a05b3fcc-d293-416d-a975-fa97dcc56f03"},"vehicle_type_id":"4","last_reported":1750792122,"current_range_meters":11200,"station_id":"ce4bhmh2rcd13ifvqgmg","pricing_plan_id":"cebpf4jnsgd1na2vs0mg"},{"bike_id":"3e0f5345-cfae-479a-9b41-9237c8726756","system_id":"levelo_inurba_marseille","lat":43.29682,"lon":5.36331,"is_reserved":false,"is_disabled":false,"rental_uris":{"android":"levelo://app?vid=3e0f5345-cfae-479a-9b41-9237c8726756","ios":"levelo://app?vid=3e0f5345-cfae-479a-9b41-9237c8726756"},"vehicle_type_id":"4","last_reported":1750792122,"current_range_meters":11600,"station_id":"","pricing_plan_id":"cebpf4jnsgd1na2vs0mg"},{"bike_id":"095eabd1-5dcf-4106-9219-bdac4470d970","system_id":"levelo_inurba_marseille","lat":43.32863,"lon":5.43361,"is_reserved":false,"is_disabled":false,"rental_uris":{"android":"levelo://app?vid=095eabd1-5dcf-4106-9219-bdac4470d970","ios":"levelo://app?vid=095eabd1-5dcf-4106-9219-bdac4470d970"},"vehicle_type_id":"4","last_reported":1750792122,"current_range_meters":11600,"station_id":"","pricing_plan_id":"cebpf4jnsgd1na2vs0mg"},{"bike_id":"ea58c5af-7e24-472a-9042-4626112e91cb","system_id":"levelo_inurba_marseille","lat":43.291979,"lon":5.358054,"is_reserved":false,"is_disabled":false,"rental_uris":{"android":"levelo://app?vid=ea58c5af-7e24-472a-9042-4626112e91cb","ios":"levelo://app?vid=ea58c5af-7e24-472a-9042-4626112e91cb"},"vehicle_type_id":"4","last_reported":1750792122,"current_range_meters":11600,"station_id":"","pricing_plan_id":"cebpf4jnsgd1na2vs0mg"},{"bike_id":"7c3f6852-4f29-42a9-a8c1-e2b82bb43fcf","system_id":"levelo_inurba_marseille","lat":43.292652,"lon":5.426709,"is_reserved":false,"is_disabled":false,"rental_uris":{"android":"levelo://app?vid=7c3f6852-4f29-42a9-a8c1-e2b82bb43fcf","ios":"levelo://app?vid=7c3f6852-4f29-42a9-a8c1-e2b82bb43fcf"},"vehicle_type_id":"4","last_reported":1750792122,"current_range_meters":11600,"station_id":"","pricing_plan_id":"cebpf4jnsgd1na2vs0mg"},{"bike_id":"c3cb1c98-490f-4368-aea7-43154b127509","system_id":"levelo_inurba_marseille","lat":43.31132,"lon":5.37745,"is_reserved":false,"is_disabled":false,"rental_uris":{"android":"levelo://app?vid=c3cb1c98-490f-4368-aea7-43154b127509","ios":"levelo://app?vid=c3cb1c98-490f-4368-aea7-43154b127509"},"vehicle_type_id":"4","last_reported":1750792122,"current_range_meters":11600,"station_id":"ce4bgt92rcd13ifvqcg0","pricing_plan_id":"cebpf4jnsgd1na2vs0mg"},{"bike_id":"b0ff0609-f2ae-4ae1-ab06-63023fb09784","system_id":"levelo_inurba_marseille","lat":43.27999,"lon":5.41662,"is_reserved":false,"is_disabled":false,"rental_uris":{"android":"levelo://app?vid=b0ff0609-f2ae-4ae1-ab06-63023fb09784","ios":"levelo://app?vid=b0ff0609-f2ae-4ae1-ab06-63023fb09784"},"vehicle_type_id":"4","last_reported":1750792122,"current_range_meters":11600,"station_id":"ce4bho12rcd13ifvqh1g","pricing_plan_id":"cebpf4jnsgd1na2vs0mg"},{"bike_id":"50ead7e5-8038-4782-87c7-aa1c790b33de","system_id":"levelo_inurba_marseille","lat":43.27245,"lon":5.40044,"is_reserved":false,"is_disabled":false,"rental_uris":{"android":"levelo://app?vid=50ead7e5-8038-4782-87c7-aa1c790b33de","ios":"levelo://app?vid=50ead7e5-8038-4782-87c7-aa1c790b33de"},"vehicle_type_id":"4","last_reported":1750792122,"current_range_meters":12000,"station_id":"","pricing_plan_id":"cebpf4jnsgd1na2vs0mg"},{"bike_id":"b6b861fa-fd27-43ad-89fb-4be1a264be92","system_id":"levelo_inurba_marseille","lat":43.25307,"lon":5.37497,"is_reserved":false,"is_disabled":false,"rental_uris":{"android":"levelo://app?vid=b6b861fa-fd27-43ad-89fb-4be1a264be92","ios":"levelo://app?vid=b6b861fa-fd27-43ad-89fb-4be1a264be92"},"vehicle_type_id":"4","last_reported":1750792122,"current_range_meters":12000,"station_id":"","pricing_plan_id":"cebpf4jnsgd1na2vs0mg"},{"bike_id":"895a35dc-c1cd-4082-8c2a-bdb4120dff09","system_id":"levelo_inurba_marseille","lat":43.30132,"lon":5.41808,"is_reserved":false,"is_disabled":false,"rental_uris":{"android":"levelo://app?vid=895a35dc-c1cd-4082-8c2a-bdb4120dff09","ios":"levelo://app?vid=895a35dc-c1cd-4082-8c2a-bdb4120dff09"},"vehicle_type_id":"4","last_reported":1750792122,"current_range_meters":12000,"station_id":"","pricing_plan_id":"cebpf4jnsgd1na2vs0mg"},{"bike_id":"df4e7d0f-f7b4-4fdb-8e76-c7087e56c4bd","system_id":"levelo_inurba_marseille","lat":43.27623,"lon":5.36087,"is_reserved":false,"is_disabled":false,"rental_uris":{"android":"levelo://app?vid=df4e7d0f-f7b4-4fdb-8e76-c7087e56c4bd","ios":"levelo://app?vid=df4e7d0f-f7b4-4fdb-8e76-c7087e56c4bd"},"vehicle_type_id":"4","last_reported":1750792122,"current_range_meters":12000,"station_id":"ce4bgj92rcd13ifvqbe0","pricing_plan_id":"cebpf4jnsgd1na2vs0mg"},{"bike_id":"485d0cb9-7c2d-4ae1-bd60-1cb460b5ab1e","system_id":"levelo_inurba_marseille","lat":43.30787,"lon":5.37646,"is_reserved":false,"is_disabled":false,"rental_uris":{"android":"levelo://app?vid=485d0cb9-7c2d-4ae1-bd60-1cb460b5ab1e","ios":"levelo://app?vid=485d0cb9-7c2d-4ae1-bd60-1cb460b5ab1e"},"vehicle_type_id":"4","last_reported":1750792122,"current_range_meters":12000,"station_id":"ce4bgv92rcd13ifvqcq0","pricing_plan_id":"cebpf4jnsgd1na2vs0mg"},{"bike_id":"679f8202-d44e-4218-9977-31e6fbf34057","system_id":"levelo_inurba_marseille","lat":43.290364,"lon":5.375611,"is_reserved":false,"is_disabled":false,"rental_uris":{"android":"levelo://app?vid=679f8202-d44e-4218-9977-31e6fbf34057","ios":"levelo://app?vid=679f8202-d44e-4218-9977-31e6fbf34057"},"vehicle_type_id":"4","last_reported":1750792122,"current_range_meters":12000,"station_id":"ce4bh692rcd13ifvqe90","pricing_plan_id":"cebpf4jnsgd1na2vs0mg"},{"bike_id":"3b0b0389-3d2d-46f7-a9fd-6938c2219b1f","system_id":"levelo_inurba_marseille","lat":43.31524,"lon":5.38038,"is_reserved":false,"is_disabled":false,"rental_uris":{"android":"levelo://app?vid=3b0b0389-3d2d-46f7-a9fd-6938c2219b1f","ios":"levelo://app?vid=3b0b0389-3d2d-46f7-a9fd-6938c2219b1f"},"vehicle_type_id":"4","last_reported":1750792122,"current_range_meters":12000,"station_id":"ce4bhsp2rcd13ifvqi50","pricing_plan_id":"cebpf4jnsgd1na2vs0mg"},{"bike_id":"f30b7e2c-e6a8-47ac-9582-47bca9aac1bf","system_id":"levelo_inurba_marseille","lat":43.33172,"lon":5.38185,"is_reserved":false,"is_disabled":false,"rental_uris":{"android":"levelo://app?vid=f30b7e2c-e6a8-47ac-9582-47bca9aac1bf","ios":"levelo://app?vid=f30b7e2c-e6a8-47ac-9582-47bca9aac1bf"},"vehicle_type_id":"4","last_reported":1750792122,"current_range_meters":12400,"station_id":"","pricing_plan_id":"cebpf4jnsgd1na2vs0mg"},{"bike_id":"11ebf4fb-e752-44af-81e3-7d28e8eee9cc","system_id":"levelo_inurba_marseille","lat":43.28108,"lon":5.43213,"is_reserved":false,"is_disabled":false,"rental_uris":{"android":"levelo://app?vid=11ebf4fb-e752-44af-81e3-7d28e8eee9cc","ios":"levelo://app?vid=11ebf4fb-e752-44af-81e3-7d28e8eee9cc"},"vehicle_type_id":"4","last_reported":1750792122,"current_range_meters":12400,"station_id":"","pricing_plan_id":"cebpf4jnsgd1na2vs0mg"},{"bike_id":"d73e9bbc-c090-470a-8032-f86234a90165","system_id":"levelo_inurba_marseille","lat":43.28918,"lon":5.36302,"is_reserved":false,"is_disabled":false,"rental_uris":{"android":"levelo://app?vid=d73e9bbc-c090-470a-8032-f86234a90165","ios":"levelo://app?vid=d73e9bbc-c090-470a-8032-f86234a90165"},"vehicle_type_id":"4","last_reported":1750792122,"current_range_meters":12400,"station_id":"","pricing_plan_id":"cebpf4jnsgd1na2vs0mg"},{"bike_id":"b0e984a3-506d-4d2d-a80a-13dc42d99bb0","system_id":"levelo_inurba_marseille","lat":43.2762,"lon":5.36119,"is_reserved":false,"is_disabled":false,"rental_uris":{"android":"levelo://app?vid=b0e984a3-506d-4d2d-a80a-13dc42d99bb0","ios":"levelo://app?vid=b0e984a3-506d-4d2d-a80a-13dc42d99bb0"},"vehicle_type_id":"4","last_reported":1750792122,"current_range_meters":12400,"station_id":"ce4bgj92rcd13ifvqbe0","pricing_plan_id":"cebpf4jnsgd1na2vs0mg"},{"bike_id":"f0722291-e984-4921-bedd-61e1e6cab576","system_id":"levelo_inurba_marseille","lat":43.316831,"lon":5.404828,"is_reserved":false,"is_disabled":false,"rental_uris":{"android":"levelo://app?vid=f0722291-e984-4921-bedd-61e1e6cab576","ios":"levelo://app?vid=f0722291-e984-4921-bedd-61e1e6cab576"},"vehicle_type_id":"4","last_reported":1750792122,"current_range_meters":12400,"station_id":"ce4bh012rcd13ifvqd00","pricing_plan_id":"cebpf4jnsgd1na2vs0mg"},{"bike_id":"cef721fd-afe4-48d0-89b0-0777a634e87f","system_id":"levelo_inurba_marseille","lat":43.244,"lon":5.37109,"is_reserved":false,"is_disabled":false,"rental_uris":{"android":"levelo://app?vid=cef721fd-afe4-48d0-89b0-0777a634e87f","ios":"levelo://app?vid=cef721fd-afe4-48d0-89b0-0777a634e87f"},"vehicle_type_id":"4","last_reported":1750792122,"current_range_meters":12400,"station_id":"ce4bhhh2rcd13ifvqfk0","pricing_plan_id":"cebpf4jnsgd1na2vs0mg"},{"bike_id":"3f29bc4a-e294-4aca-91af-a4eb5f7b985e","system_id":"levelo_inurba_marseille","lat":43.22936,"lon":5.35376,"is_reserved":false,"is_disabled":false,"rental_uris":{"android":"levelo://app?vid=3f29bc4a-e294-4aca-91af-a4eb5f7b985e","ios":"levelo://app?vid=3f29bc4a-e294-4aca-91af-a4eb5f7b985e"},"vehicle_type_id":"4","last_reported":1750792122,"current_range_meters":12400,"station_id":"cpo3532slgdg3j2ikp40","pricing_plan_id":"cebpf4jnsgd1na2vs0mg"},{"bike_id":"7ac17504-68bd-46ac-991b-b2baba9bc111","system_id":"levelo_inurba_marseille","lat":43.28937,"lon":5.36633,"is_reserved":false,"is_disabled":false,"rental_uris":{"android":"levelo://app?vid=7ac17504-68bd-46ac-991b-b2baba9bc111","ios":"levelo://app?vid=7ac17504-68bd-46ac-991b-b2baba9bc111"},"vehicle_type_id":"4","last_reported":1750792122,"current_range_meters":12800,"station_id":"ce4bhap2rcd13ifvqek0","pricing_plan_id":"cebpf4jnsgd1na2vs0mg"},{"bike_id":"6ca83aa0-0d23-46b4-b60b-956a9d3bfc66","system_id":"levelo_inurba_marseille","lat":43.25505,"lon":5.37648,"is_reserved":false,"is_disabled":false,"rental_uris":{"android":"levelo://app?vid=6ca83aa0-0d23-46b4-b60b-956a9d3bfc66","ios":"levelo://app?vid=6ca83aa0-0d23-46b4-b60b-956a9d3bfc66"},"vehicle_type_id":"4","last_reported":1750792122,"current_range_meters":12800,"station_id":"ce4bhh12rcd13ifvqff0","pricing_plan_id":"cebpf4jnsgd1na2vs0mg"},{"bike_id":"da10b27a-bd9c-482e-af2d-d543659fb765","system_id":"levelo_inurba_marseille","lat":43.27993,"lon":5.40008,"is_reserved":false,"is_disabled":false,"rental_uris":{"android":"levelo://app?vid=da10b27a-bd9c-482e-af2d-d543659fb765","ios":"levelo://app?vid=da10b27a-bd9c-482e-af2d-d543659fb765"},"vehicle_type_id":"4","last_reported":1750792122,"current_range_meters":12800,"station_id":"ce4bho92rcd13ifvqh4g","pricing_plan_id":"cebpf4jnsgd1na2vs0mg"},{"bike_id":"36b8d534-3492-401a-a3e5-861eb38cf118","system_id":"levelo_inurba_marseille","lat":43.26229,"lon":5.37427,"is_reserved":false,"is_disabled":false,"rental_uris":{"android":"levelo://app?vid=36b8d534-3492-401a-a3e5-861eb38cf118","ios":"levelo://app?vid=36b8d534-3492-401a-a3e5-861eb38cf118"},"vehicle_type_id":"4","last_reported":1750792122,"current_range_meters":13600,"station_id":"","pricing_plan_id":"cebpf4jnsgd1na2vs0mg"},{"bike_id":"079ac75e-d7c0-4066-bc08-f69e7c10e747","system_id":"levelo_inurba_marseille","lat":43.30891,"lon":5.37196,"is_reserved":false,"is_disabled":false,"rental_uris":{"android":"levelo://app?vid=079ac75e-d7c0-4066-bc08-f69e7c10e747","ios":"levelo://app?vid=079ac75e-d7c0-4066-bc08-f69e7c10e747"},"vehicle_type_id":"4","last_reported":1750792122,"current_range_meters":13600,"station_id":"ce4bguh2rcd13ifvqckg","pricing_plan_id":"cebpf4jnsgd1na2vs0mg"},{"bike_id":"476a0e8e-d375-436b-8c7a-12847ccad301","system_id":"levelo_inurba_marseille","lat":43.273718,"lon":5.362582,"is_reserved":false,"is_disabled":false,"rental_uris":{"android":"levelo://app?vid=476a0e8e-d375-436b-8c7a-12847ccad301","ios":"levelo://app?vid=476a0e8e-d375-436b-8c7a-12847ccad301"},"vehicle_type_id":"4","last_reported":1750792122,"current_range_meters":13600,"station_id":"ce4bhbh2rcd13ifvqeo0","pricing_plan_id":"cebpf4jnsgd1na2vs0mg"},{"bike_id":"663a11df-990a-4ac9-bb60-8f6d38f4783d","system_id":"levelo_inurba_marseille","lat":43.31997,"lon":5.3817,"is_reserved":false,"is_disabled":false,"rental_uris":{"android":"levelo://app?vid=663a11df-990a-4ac9-bb60-8f6d38f4783d","ios":"levelo://app?vid=663a11df-990a-4ac9-bb60-8f6d38f4783d"},"vehicle_type_id":"4","last_reported":1750792122,"current_range_meters":13600,"station_id":"ce4bhr12rcd13ifvqhpg","pricing_plan_id":"cebpf4jnsgd1na2vs0mg"},{"bike_id":"c036be5b-7cce-41a2-8ecc-a5bd69a1b1ac","system_id":"levelo_inurba_marseille","lat":43.30885,"lon":5.39647,"is_reserved":false,"is_disabled":false,"rental_uris":{"android":"levelo://app?vid=c036be5b-7cce-41a2-8ecc-a5bd69a1b1ac","ios":"levelo://app?vid=c036be5b-7cce-41a2-8ecc-a5bd69a1b1ac"},"vehicle_type_id":"4","last_reported":1750792122,"current_range_meters":14000,"station_id":"ce4bh012rcd13ifvqcv0","pricing_plan_id":"cebpf4jnsgd1na2vs0mg"},{"bike_id":"37639598-87cb-49f2-bb28-e8116a49605f","system_id":"levelo_inurba_marseille","lat":43.22519,"lon":5.34784,"is_reserved":false,"is_disabled":false,"rental_uris":{"android":"levelo://app?vid=37639598-87cb-49f2-bb28-e8116a49605f","ios":"levelo://app?vid=37639598-87cb-49f2-bb28-e8116a49605f"},"vehicle_type_id":"4","last_reported":1750792122,"current_range_meters":14000,"station_id":"st_cvj5dfep6f1abm77gieg","pricing_plan_id":"cebpf4jnsgd1na2vs0mg"},{"bike_id":"51b217be-9488-41c1-b083-6d728251b280","system_id":"levelo_inurba_marseille","lat":43.243416,"lon":5.368808,"is_reserved":false,"is_disabled":false,"rental_uris":{"android":"levelo://app?vid=51b217be-9488-41c1-b083-6d728251b280","ios":"levelo://app?vid=51b217be-9488-41c1-b083-6d728251b280"},"vehicle_type_id":"4","last_reported":1750792122,"current_range_meters":14400,"station_id":"","pricing_plan_id":"cebpf4jnsgd1na2vs0mg"},{"bike_id":"00317fdd-1ecb-4bed-827e-4c611cfa5f8b","system_id":"levelo_inurba_marseille","lat":43.27077,"lon":5.42268,"is_reserved":false,"is_disabled":false,"rental_uris":{"android":"levelo://app?vid=00317fdd-1ecb-4bed-827e-4c611cfa5f8b","ios":"levelo://app?vid=00317fdd-1ecb-4bed-827e-4c611cfa5f8b"},"vehicle_type_id":"4","last_reported":1750792122,"current_range_meters":14400,"station_id":"ce4bhk92rcd13ifvqgb0","pricing_plan_id":"cebpf4jnsgd1na2vs0mg"},{"bike_id":"6748dfce-717a-44fa-9862-ac6b16ecbdce","system_id":"levelo_inurba_marseille","lat":43.30946,"lon":5.39028,"is_reserved":false,"is_disabled":false,"rental_uris":{"android":"levelo://app?vid=6748dfce-717a-44fa-9862-ac6b16ecbdce","ios":"levelo://app?vid=6748dfce-717a-44fa-9862-ac6b16ecbdce"},"vehicle_type_id":"4","last_reported":1750792122,"current_range_meters":14800,"station_id":"ce4bgup2rcd13ifvqco0","pricing_plan_id":"cebpf4jnsgd1na2vs0mg"},{"bike_id":"e557c96e-672e-4e77-aa82-8ea16996846a","system_id":"levelo_inurba_marseille","lat":43.295247,"lon":5.390414,"is_reserved":false,"is_disabled":false,"rental_uris":{"android":"levelo://app?vid=e557c96e-672e-4e77-aa82-8ea16996846a","ios":"levelo://app?vid=e557c96e-672e-4e77-aa82-8ea16996846a"},"vehicle_type_id":"4","last_reported":1750792122,"current_range_meters":14800,"station_id":"ce4bh3p2rcd13ifvqdp0","pricing_plan_id":"cebpf4jnsgd1na2vs0mg"},{"bike_id":"ad8983d0-708a-4a7a-8c29-0ef2f9680065","system_id":"levelo_inurba_marseille","lat":43.279453,"lon":5.41062,"is_reserved":false,"is_disabled":false,"rental_uris":{"android":"levelo://app?vid=ad8983d0-708a-4a7a-8c29-0ef2f9680065","ios":"levelo://app?vid=ad8983d0-708a-4a7a-8c29-0ef2f9680065"},"vehicle_type_id":"4","last_reported":1750792122,"current_range_meters":14800,"station_id":"ce4bhoh2rcd13ifvqh5g","pricing_plan_id":"cebpf4jnsgd1na2vs0mg"},{"bike_id":"7ea3c9bd-f9bd-438e-b9e1-cdbe4f91c60d","system_id":"levelo_inurba_marseille","lat":43.22878,"lon":5.3527,"is_reserved":false,"is_disabled":false,"rental_uris":{"android":"levelo://app?vid=7ea3c9bd-f9bd-438e-b9e1-cdbe4f91c60d","ios":"levelo://app?vid=7ea3c9bd-f9bd-438e-b9e1-cdbe4f91c60d"},"vehicle_type_id":"4","last_reported":1750792122,"current_range_meters":15200,"station_id":"","pricing_plan_id":"cebpf4jnsgd1na2vs0mg"},{"bike_id":"af112b62-19de-41d4-b8d7-e14d0172315d","system_id":"levelo_inurba_marseille","lat":43.32713,"lon":5.3916,"is_reserved":false,"is_disabled":false,"rental_uris":{"android":"levelo://app?vid=af112b62-19de-41d4-b8d7-e14d0172315d","ios":"levelo://app?vid=af112b62-19de-41d4-b8d7-e14d0172315d"},"vehicle_type_id":"4","last_reported":1750792122,"current_range_meters":15200,"station_id":"","pricing_plan_id":"cebpf4jnsgd1na2vs0mg"},{"bike_id":"2ffe14e8-a329-4095-87e2-51eb0718dbc8","system_id":"levelo_inurba_marseille","lat":43.30132,"lon":5.38763,"is_reserved":false,"is_disabled":false,"rental_uris":{"android":"levelo://app?vid=2ffe14e8-a329-4095-87e2-51eb0718dbc8","ios":"levelo://app?vid=2ffe14e8-a329-4095-87e2-51eb0718dbc8"},"vehicle_type_id":"4","last_reported":1750792122,"current_range_meters":15200,"station_id":"ce4bghh2rcd13ifvqb60","pricing_plan_id":"cebpf4jnsgd1na2vs0mg"},{"bike_id":"24bec0ac-4c6c-4842-80e7-9983c2b33e58","system_id":"levelo_inurba_marseille","lat":43.2122,"lon":5.35034,"is_reserved":false,"is_disabled":false,"rental_uris":{"android":"levelo://app?vid=24bec0ac-4c6c-4842-80e7-9983c2b33e58","ios":"levelo://app?vid=24bec0ac-4c6c-4842-80e7-9983c2b33e58"},"vehicle_type_id":"4","last_reported":1750792122,"current_range_meters":16000,"station_id":"","pricing_plan_id":"cebpf4jnsgd1na2vs0mg"},{"bike_id":"aaf18517-e7d3-4c50-a7ce-9a967584e160","system_id":"levelo_inurba_marseille","lat":43.29885,"lon":5.38902,"is_reserved":false,"is_disabled":false,"rental_uris":{"android":"levelo://app?vid=aaf18517-e7d3-4c50-a7ce-9a967584e160","ios":"levelo://app?vid=aaf18517-e7d3-4c50-a7ce-9a967584e160"},"vehicle_type_id":"4","last_reported":1750792122,"current_range_meters":16000,"station_id":"ce4bh392rcd13ifvqdl0","pricing_plan_id":"cebpf4jnsgd1na2vs0mg"},{"bike_id":"b580fa37-ecd4-4941-931c-daae9fcd8c1b","system_id":"levelo_inurba_marseille","lat":43.29098,"lon":5.38121,"is_reserved":false,"is_disabled":false,"rental_uris":{"android":"levelo://app?vid=b580fa37-ecd4-4941-931c-daae9fcd8c1b","ios":"levelo://app?vid=b580fa37-ecd4-4941-931c-daae9fcd8c1b"},"vehicle_type_id":"4","last_reported":1750792122,"current_range_meters":16000,"station_id":"ce4bh512rcd13ifvqe2g","pricing_plan_id":"cebpf4jnsgd1na2vs0mg"},{"bike_id":"541fec90-c264-4582-96aa-9180a4a4964d","system_id":"levelo_inurba_marseille","lat":43.278719,"lon":5.380378,"is_reserved":false,"is_disabled":false,"rental_uris":{"android":"levelo://app?vid=541fec90-c264-4582-96aa-9180a4a4964d","ios":"levelo://app?vid=541fec90-c264-4582-96aa-9180a4a4964d"},"vehicle_type_id":"4","last_reported":1750792122,"current_range_meters":16000,"station_id":"ce4bhf92rcd13ifvqf50","pricing_plan_id":"cebpf4jnsgd1na2vs0mg"},{"bike_id":"85aebb63-1277-49af-91e5-22f2d655e266","system_id":"levelo_inurba_marseille","lat":43.29906,"lon":5.43668,"is_reserved":false,"is_disabled":false,"rental_uris":{"android":"levelo://app?vid=85aebb63-1277-49af-91e5-22f2d655e266","ios":"levelo://app?vid=85aebb63-1277-49af-91e5-22f2d655e266"},"vehicle_type_id":"4","last_reported":1750792122,"current_range_meters":16000,"station_id":"ce4bhpp2rcd13ifvqhfg","pricing_plan_id":"cebpf4jnsgd1na2vs0mg"},{"bike_id":"26a14eba-87a9-47b8-9607-30bd0042d428","system_id":"levelo_inurba_marseille","lat":43.31457,"lon":5.39435,"is_reserved":false,"is_disabled":false,"rental_uris":{"android":"levelo://app?vid=26a14eba-87a9-47b8-9607-30bd0042d428","ios":"levelo://app?vid=26a14eba-87a9-47b8-9607-30bd0042d428"},"vehicle_type_id":"4","last_reported":1750792122,"current_range_meters":16400,"station_id":"","pricing_plan_id":"cebpf4jnsgd1na2vs0mg"},{"bike_id":"7ead7f1b-8b5a-4090-8edd-85e5e3dbd5c4","system_id":"levelo_inurba_marseille","lat":43.29778,"lon":5.37079,"is_reserved":false,"is_disabled":false,"rental_uris":{"android":"levelo://app?vid=7ead7f1b-8b5a-4090-8edd-85e5e3dbd5c4","ios":"levelo://app?vid=7ead7f1b-8b5a-4090-8edd-85e5e3dbd5c4"},"vehicle_type_id":"4","last_reported":1750792122,"current_range_meters":16400,"station_id":"ce4bgop2rcd13ifvqc1g","pricing_plan_id":"cebpf4jnsgd1na2vs0mg"},{"bike_id":"2cb960e4-6929-441e-a7c2-3bf3ff399bd5","system_id":"levelo_inurba_marseille","lat":43.28829,"lon":5.39404,"is_reserved":false,"is_disabled":false,"rental_uris":{"android":"levelo://app?vid=2cb960e4-6929-441e-a7c2-3bf3ff399bd5","ios":"levelo://app?vid=2cb960e4-6929-441e-a7c2-3bf3ff399bd5"},"vehicle_type_id":"4","last_reported":1750792122,"current_range_meters":16400,"station_id":"ce4bh2p2rcd13ifvqdi0","pricing_plan_id":"cebpf4jnsgd1na2vs0mg"},{"bike_id":"afe1c148-82e2-4894-ba24-af39c260afb3","system_id":"levelo_inurba_marseille","lat":43.28666,"lon":5.38665,"is_reserved":false,"is_disabled":false,"rental_uris":{"android":"levelo://app?vid=afe1c148-82e2-4894-ba24-af39c260afb3","ios":"levelo://app?vid=afe1c148-82e2-4894-ba24-af39c260afb3"},"vehicle_type_id":"4","last_reported":1750792122,"current_range_meters":16400,"station_id":"ce4bh492rcd13ifvqdug","pricing_plan_id":"cebpf4jnsgd1na2vs0mg"},{"bike_id":"2387a87f-8f73-4df6-8d2d-167779ba5792","system_id":"levelo_inurba_marseille","lat":43.28682,"lon":5.38662,"is_reserved":false,"is_disabled":false,"rental_uris":{"android":"levelo://app?vid=2387a87f-8f73-4df6-8d2d-167779ba5792","ios":"levelo://app?vid=2387a87f-8f73-4df6-8d2d-167779ba5792"},"vehicle_type_id":"4","last_reported":1750792122,"current_range_meters":16400,"station_id":"ce4bh492rcd13ifvqdug","pricing_plan_id":"cebpf4jnsgd1na2vs0mg"},{"bike_id":"07dead3e-fced-4a36-b1c0-dda7dd873caf","system_id":"levelo_inurba_marseille","lat":43.23199,"lon":5.35554,"is_reserved":false,"is_disabled":false,"rental_uris":{"android":"levelo://app?vid=07dead3e-fced-4a36-b1c0-dda7dd873caf","ios":"levelo://app?vid=07dead3e-fced-4a36-b1c0-dda7dd873caf"},"vehicle_type_id":"4","last_reported":1750792122,"current_range_meters":16400,"station_id":"ce4bhu92rcd13ifvqi70","pricing_plan_id":"cebpf4jnsgd1na2vs0mg"},{"bike_id":"c9378442-8a73-4d70-a55c-bf37f13dceb1","system_id":"levelo_inurba_marseille","lat":43.21192,"lon":5.3505,"is_reserved":false,"is_disabled":false,"rental_uris":{"android":"levelo://app?vid=c9378442-8a73-4d70-a55c-bf37f13dceb1","ios":"levelo://app?vid=c9378442-8a73-4d70-a55c-bf37f13dceb1"},"vehicle_type_id":"4","last_reported":1750792122,"current_range_meters":16400,"station_id":"st_cvj6sg6p6f1abm77japg","pricing_plan_id":"cebpf4jnsgd1na2vs0mg"},{"bike_id":"5eee8925-0941-460b-a942-18fcb70bac7c","system_id":"levelo_inurba_marseille","lat":43.2723,"lon":5.40068,"is_reserved":false,"is_disabled":false,"rental_uris":{"android":"levelo://app?vid=5eee8925-0941-460b-a942-18fcb70bac7c","ios":"levelo://app?vid=5eee8925-0941-460b-a942-18fcb70bac7c"},"vehicle_type_id":"4","last_reported":1750792122,"current_range_meters":16800,"station_id":"","pricing_plan_id":"cebpf4jnsgd1na2vs0mg"},{"bike_id":"73003e5e-1157-4cf0-aafe-d13c75118280","system_id":"levelo_inurba_marseille","lat":43.33423,"lon":5.3965,"is_reserved":false,"is_disabled":false,"rental_uris":{"android":"levelo://app?vid=73003e5e-1157-4cf0-aafe-d13c75118280","ios":"levelo://app?vid=73003e5e-1157-4cf0-aafe-d13c75118280"},"vehicle_type_id":"4","last_reported":1750792122,"current_range_meters":16800,"station_id":"","pricing_plan_id":"cebpf4jnsgd1na2vs0mg"},{"bike_id":"62c0ae9e-9e5d-4757-b598-f1bb6b049cd5","system_id":"levelo_inurba_marseille","lat":43.26224,"lon":5.37437,"is_reserved":false,"is_disabled":false,"rental_uris":{"android":"levelo://app?vid=62c0ae9e-9e5d-4757-b598-f1bb6b049cd5","ios":"levelo://app?vid=62c0ae9e-9e5d-4757-b598-f1bb6b049cd5"},"vehicle_type_id":"4","last_reported":1750792122,"current_range_meters":16800,"station_id":"","pricing_plan_id":"cebpf4jnsgd1na2vs0mg"},{"bike_id":"5ea21571-4117-413e-b8e7-3eaf4891bb45","system_id":"levelo_inurba_marseille","lat":43.2931,"lon":5.37461,"is_reserved":false,"is_disabled":false,"rental_uris":{"android":"levelo://app?vid=5ea21571-4117-413e-b8e7-3eaf4891bb45","ios":"levelo://app?vid=5ea21571-4117-413e-b8e7-3eaf4891bb45"},"vehicle_type_id":"4","last_reported":1750792122,"current_range_meters":16800,"station_id":"ce4bgi12rcd13ifvqb70","pricing_plan_id":"cebpf4jnsgd1na2vs0mg"},{"bike_id":"d736b98d-bcdf-4a9a-9bf0-21b6a4b89e96","system_id":"levelo_inurba_marseille","lat":43.289124,"lon":5.395794,"is_reserved":false,"is_disabled":false,"rental_uris":{"android":"levelo://app?vid=d736b98d-bcdf-4a9a-9bf0-21b6a4b89e96","ios":"levelo://app?vid=d736b98d-bcdf-4a9a-9bf0-21b6a4b89e96"},"vehicle_type_id":"4","last_reported":1750792122,"current_range_meters":16800,"station_id":"ce4bh3h2rcd13ifvqdn0","pricing_plan_id":"cebpf4jnsgd1na2vs0mg"},{"bike_id":"e3cbe31d-3f2f-4c4c-a959-3bdba55d2dad","system_id":"levelo_inurba_marseille","lat":43.229318,"lon":5.353828,"is_reserved":false,"is_disabled":false,"rental_uris":{"android":"levelo://app?vid=e3cbe31d-3f2f-4c4c-a959-3bdba55d2dad","ios":"levelo://app?vid=e3cbe31d-3f2f-4c4c-a959-3bdba55d2dad"},"vehicle_type_id":"4","last_reported":1750792122,"current_range_meters":16800,"station_id":"cpo3532slgdg3j2ikp40","pricing_plan_id":"cebpf4jnsgd1na2vs0mg"},{"bike_id":"6d66f760-917a-49b1-b200-d585832e6166","system_id":"levelo_inurba_marseille","lat":43.22943,"lon":5.3538,"is_reserved":false,"is_disabled":false,"rental_uris":{"android":"levelo://app?vid=6d66f760-917a-49b1-b200-d585832e6166","ios":"levelo://app?vid=6d66f760-917a-49b1-b200-d585832e6166"},"vehicle_type_id":"4","last_reported":1750792122,"current_range_meters":16800,"station_id":"cpo3532slgdg3j2ikp40","pricing_plan_id":"cebpf4jnsgd1na2vs0mg"},{"bike_id":"1f23ae54-85c5-46b5-991c-eb3711dda4ea","system_id":"levelo_inurba_marseille","lat":43.24181,"lon":5.36377,"is_reserved":false,"is_disabled":false,"rental_uris":{"android":"levelo://app?vid=1f23ae54-85c5-46b5-991c-eb3711dda4ea","ios":"levelo://app?vid=1f23ae54-85c5-46b5-991c-eb3711dda4ea"},"vehicle_type_id":"4","last_reported":1750792122,"current_range_meters":16800,"station_id":"cpo36qri1sfpv3e86is0","pricing_plan_id":"cebpf4jnsgd1na2vs0mg"},{"bike_id":"3b951d47-daef-4f47-9b11-1cb55583c0cc","system_id":"levelo_inurba_marseille","lat":43.21203,"lon":5.35056,"is_reserved":false,"is_disabled":false,"rental_uris":{"android":"levelo://app?vid=3b951d47-daef-4f47-9b11-1cb55583c0cc","ios":"levelo://app?vid=3b951d47-daef-4f47-9b11-1cb55583c0cc"},"vehicle_type_id":"4","last_reported":1750792122,"current_range_meters":16800,"station_id":"st_cvj6sg6p6f1abm77japg","pricing_plan_id":"cebpf4jnsgd1na2vs0mg"},{"bike_id":"602fa7cd-040f-47c4-b5be-5b4d5f9bb83a","system_id":"levelo_inurba_marseille","lat":43.26211,"lon":5.37447,"is_reserved":false,"is_disabled":false,"rental_uris":{"android":"levelo://app?vid=602fa7cd-040f-47c4-b5be-5b4d5f9bb83a","ios":"levelo://app?vid=602fa7cd-040f-47c4-b5be-5b4d5f9bb83a"},"vehicle_type_id":"4","last_reported":1750792122,"current_range_meters":17200,"station_id":"ce4bhgp2rcd13ifvqfc0","pricing_plan_id":"cebpf4jnsgd1na2vs0mg"},{"bike_id":"6da0d080-b7af-4ec5-9975-c8710b868cdc","system_id":"levelo_inurba_marseille","lat":43.2439,"lon":5.37059,"is_reserved":false,"is_disabled":false,"rental_uris":{"android":"levelo://app?vid=6da0d080-b7af-4ec5-9975-c8710b868cdc","ios":"levelo://app?vid=6da0d080-b7af-4ec5-9975-c8710b868cdc"},"vehicle_type_id":"4","last_reported":1750792122,"current_range_meters":17200,"station_id":"ce4bhhh2rcd13ifvqfk0","pricing_plan_id":"cebpf4jnsgd1na2vs0mg"},{"bike_id":"dd0a7967-da46-4f5f-8164-02f0cf82800f","system_id":"levelo_inurba_marseille","lat":43.251242,"lon":5.403488,"is_reserved":false,"is_disabled":false,"rental_uris":{"android":"levelo://app?vid=dd0a7967-da46-4f5f-8164-02f0cf82800f","ios":"levelo://app?vid=dd0a7967-da46-4f5f-8164-02f0cf82800f"},"vehicle_type_id":"4","last_reported":1750792122,"current_range_meters":17200,"station_id":"ce4bhlh2rcd13ifvqgig","pricing_plan_id":"cebpf4jnsgd1na2vs0mg"},{"bike_id":"e999d062-42ba-4fb3-a91a-d1a0af7790b6","system_id":"levelo_inurba_marseille","lat":43.31994,"lon":5.38143,"is_reserved":false,"is_disabled":false,"rental_uris":{"android":"levelo://app?vid=e999d062-42ba-4fb3-a91a-d1a0af7790b6","ios":"levelo://app?vid=e999d062-42ba-4fb3-a91a-d1a0af7790b6"},"vehicle_type_id":"4","last_reported":1750792122,"current_range_meters":17200,"station_id":"ce4bhr12rcd13ifvqhpg","pricing_plan_id":"cebpf4jnsgd1na2vs0mg"},{"bike_id":"fc1021d2-7bd8-41cc-a566-5df5c9bc4ea6","system_id":"levelo_inurba_marseille","lat":43.21204,"lon":5.35071,"is_reserved":false,"is_disabled":false,"rental_uris":{"android":"levelo://app?vid=fc1021d2-7bd8-41cc-a566-5df5c9bc4ea6","ios":"levelo://app?vid=fc1021d2-7bd8-41cc-a566-5df5c9bc4ea6"},"vehicle_type_id":"4","last_reported":1750792122,"current_range_meters":17200,"station_id":"st_cvj6sg6p6f1abm77japg","pricing_plan_id":"cebpf4jnsgd1na2vs0mg"},{"bike_id":"e2f5b300-4a63-4778-aada-c29a8a0ea1e8","system_id":"levelo_inurba_marseille","lat":43.32831,"lon":5.39144,"is_reserved":false,"is_disabled":false,"rental_uris":{"android":"levelo://app?vid=e2f5b300-4a63-4778-aada-c29a8a0ea1e8","ios":"levelo://app?vid=e2f5b300-4a63-4778-aada-c29a8a0ea1e8"},"vehicle_type_id":"4","last_reported":1750792122,"current_range_meters":17600,"station_id":"","pricing_plan_id":"cebpf4jnsgd1na2vs0mg"},{"bike_id":"e8f01134-9211-4fca-8c64-adf9bc370934","system_id":"levelo_inurba_marseille","lat":43.27622,"lon":5.36103,"is_reserved":false,"is_disabled":false,"rental_uris":{"android":"levelo://app?vid=e8f01134-9211-4fca-8c64-adf9bc370934","ios":"levelo://app?vid=e8f01134-9211-4fca-8c64-adf9bc370934"},"vehicle_type_id":"4","last_reported":1750792122,"current_range_meters":17600,"station_id":"ce4bgj92rcd13ifvqbe0","pricing_plan_id":"cebpf4jnsgd1na2vs0mg"},{"bike_id":"11776689-77fa-4746-8f98-af479b04dfa6","system_id":"levelo_inurba_marseille","lat":43.27566,"lon":5.38428,"is_reserved":false,"is_disabled":false,"rental_uris":{"android":"levelo://app?vid=11776689-77fa-4746-8f98-af479b04dfa6","ios":"levelo://app?vid=11776689-77fa-4746-8f98-af479b04dfa6"},"vehicle_type_id":"4","last_reported":1750792122,"current_range_meters":17600,"station_id":"ce4bhh92rcd13ifvqfi0","pricing_plan_id":"cebpf4jnsgd1na2vs0mg"},{"bike_id":"7d385f68-724a-43fe-93be-0c1a98ce8f3a","system_id":"levelo_inurba_marseille","lat":43.27505,"lon":5.42453,"is_reserved":false,"is_disabled":false,"rental_uris":{"android":"levelo://app?vid=7d385f68-724a-43fe-93be-0c1a98ce8f3a","ios":"levelo://app?vid=7d385f68-724a-43fe-93be-0c1a98ce8f3a"},"vehicle_type_id":"4","last_reported":1750792122,"current_range_meters":17600,"station_id":"ce4bhn92rcd13ifvqgrg","pricing_plan_id":"cebpf4jnsgd1na2vs0mg"},{"bike_id":"8fc36912-d7a7-4c5e-bf3c-ae03694d6ba3","system_id":"levelo_inurba_marseille","lat":43.21206,"lon":5.35054,"is_reserved":false,"is_disabled":false,"rental_uris":{"android":"levelo://app?vid=8fc36912-d7a7-4c5e-bf3c-ae03694d6ba3","ios":"levelo://app?vid=8fc36912-d7a7-4c5e-bf3c-ae03694d6ba3"},"vehicle_type_id":"4","last_reported":1750792122,"current_range_meters":17600,"station_id":"st_cvj6sg6p6f1abm77japg","pricing_plan_id":"cebpf4jnsgd1na2vs0mg"},{"bike_id":"5b0059f2-5a2a-41ce-b903-1f956adfdd24","system_id":"levelo_inurba_marseille","lat":43.29789,"lon":5.43529,"is_reserved":false,"is_disabled":false,"rental_uris":{"android":"levelo://app?vid=5b0059f2-5a2a-41ce-b903-1f956adfdd24","ios":"levelo://app?vid=5b0059f2-5a2a-41ce-b903-1f956adfdd24"},"vehicle_type_id":"4","last_reported":1750792122,"current_range_meters":18000,"station_id":"","pricing_plan_id":"cebpf4jnsgd1na2vs0mg"},{"bike_id":"42afa0fb-0c0f-46e2-acd0-b6ed1bdd6bf2","system_id":"levelo_inurba_marseille","lat":43.30141,"lon":5.38784,"is_reserved":false,"is_disabled":false,"rental_uris":{"android":"levelo://app?vid=42afa0fb-0c0f-46e2-acd0-b6ed1bdd6bf2","ios":"levelo://app?vid=42afa0fb-0c0f-46e2-acd0-b6ed1bdd6bf2"},"vehicle_type_id":"4","last_reported":1750792122,"current_range_meters":18000,"station_id":"ce4bghh2rcd13ifvqb60","pricing_plan_id":"cebpf4jnsgd1na2vs0mg"},{"bike_id":"21abe4f5-1034-46f9-929a-06bd976bd6f4","system_id":"levelo_inurba_marseille","lat":43.3025,"lon":5.40055,"is_reserved":false,"is_disabled":false,"rental_uris":{"android":"levelo://app?vid=21abe4f5-1034-46f9-929a-06bd976bd6f4","ios":"levelo://app?vid=21abe4f5-1034-46f9-929a-06bd976bd6f4"},"vehicle_type_id":"4","last_reported":1750792122,"current_range_meters":18000,"station_id":"ce4bgvh2rcd13ifvqcs0","pricing_plan_id":"cebpf4jnsgd1na2vs0mg"},{"bike_id":"55120179-28de-4686-ab14-32811c502cc6","system_id":"levelo_inurba_marseille","lat":43.27365,"lon":5.36254,"is_reserved":false,"is_disabled":false,"rental_uris":{"android":"levelo://app?vid=55120179-28de-4686-ab14-32811c502cc6","ios":"levelo://app?vid=55120179-28de-4686-ab14-32811c502cc6"},"vehicle_type_id":"4","last_reported":1750792122,"current_range_meters":18000,"station_id":"ce4bhbh2rcd13ifvqeo0","pricing_plan_id":"cebpf4jnsgd1na2vs0mg"},{"bike_id":"92a9dcd9-3d2e-4b06-a957-288834a3cf35","system_id":"levelo_inurba_marseille","lat":43.2736,"lon":5.36242,"is_reserved":false,"is_disabled":false,"rental_uris":{"android":"levelo://app?vid=92a9dcd9-3d2e-4b06-a957-288834a3cf35","ios":"levelo://app?vid=92a9dcd9-3d2e-4b06-a957-288834a3cf35"},"vehicle_type_id":"4","last_reported":1750792122,"current_range_meters":18000,"station_id":"ce4bhbh2rcd13ifvqeo0","pricing_plan_id":"cebpf4jnsgd1na2vs0mg"},{"bike_id":"51b9029c-a8b4-49be-88a9-639814edcae4","system_id":"levelo_inurba_marseille","lat":43.28433,"lon":5.3501,"is_reserved":false,"is_disabled":false,"rental_uris":{"android":"levelo://app?vid=51b9029c-a8b4-49be-88a9-639814edcae4","ios":"levelo://app?vid=51b9029c-a8b4-49be-88a9-639814edcae4"},"vehicle_type_id":"4","last_reported":1750792122,"current_range_meters":18000,"station_id":"ce4bhbh2rcd13ifvqepg","pricing_plan_id":"cebpf4jnsgd1na2vs0mg"},{"bike_id":"ecae2d13-464e-41b6-9163-d80de5db3400","system_id":"levelo_inurba_marseille","lat":43.26064,"lon":5.39411,"is_reserved":false,"is_disabled":false,"rental_uris":{"android":"levelo://app?vid=ecae2d13-464e-41b6-9163-d80de5db3400","ios":"levelo://app?vid=ecae2d13-464e-41b6-9163-d80de5db3400"},"vehicle_type_id":"4","last_reported":1750792122,"current_range_meters":18000,"station_id":"ce4bhh92rcd13ifvqfj0","pricing_plan_id":"cebpf4jnsgd1na2vs0mg"},{"bike_id":"08f96c08-f3ca-49d3-8700-120c3b3d2557","system_id":"levelo_inurba_marseille","lat":43.29786,"lon":5.39334,"is_reserved":false,"is_disabled":false,"rental_uris":{"android":"levelo://app?vid=08f96c08-f3ca-49d3-8700-120c3b3d2557","ios":"levelo://app?vid=08f96c08-f3ca-49d3-8700-120c3b3d2557"},"vehicle_type_id":"4","last_reported":1750792122,"current_range_meters":18000,"station_id":"chh1huq6cuj3fo74tm60","pricing_plan_id":"cebpf4jnsgd1na2vs0mg"},{"bike_id":"18028507-ab03-4edb-86b7-ab7704d2c26f","system_id":"levelo_inurba_marseille","lat":43.21216,"lon":5.35058,"is_reserved":false,"is_disabled":false,"rental_uris":{"android":"levelo://app?vid=18028507-ab03-4edb-86b7-ab7704d2c26f","ios":"levelo://app?vid=18028507-ab03-4edb-86b7-ab7704d2c26f"},"vehicle_type_id":"4","last_reported":1750792122,"current_range_meters":18000,"station_id":"st_cvj6sg6p6f1abm77japg","pricing_plan_id":"cebpf4jnsgd1na2vs0mg"},{"bike_id":"1c2a11f9-f244-41b9-862e-7b4e018b1d66","system_id":"levelo_inurba_marseille","lat":43.295189,"lon":5.3751,"is_reserved":false,"is_disabled":false,"rental_uris":{"android":"levelo://app?vid=1c2a11f9-f244-41b9-862e-7b4e018b1d66","ios":"levelo://app?vid=1c2a11f9-f244-41b9-862e-7b4e018b1d66"},"vehicle_type_id":"4","last_reported":1750792122,"current_range_meters":18800,"station_id":"ce4bgkp2rcd13ifvqbmg","pricing_plan_id":"cebpf4jnsgd1na2vs0mg"},{"bike_id":"6f3b4e48-d256-4020-b8e5-58d653061f45","system_id":"levelo_inurba_marseille","lat":43.29941,"lon":5.36561,"is_reserved":false,"is_disabled":false,"rental_uris":{"android":"levelo://app?vid=6f3b4e48-d256-4020-b8e5-58d653061f45","ios":"levelo://app?vid=6f3b4e48-d256-4020-b8e5-58d653061f45"},"vehicle_type_id":"4","last_reported":1750792122,"current_range_meters":18800,"station_id":"ce4bgm92rcd13ifvqbr0","pricing_plan_id":"cebpf4jnsgd1na2vs0mg"},{"bike_id":"d339e6ef-e47e-462a-8994-ec8edd712660","system_id":"levelo_inurba_marseille","lat":43.28841,"lon":5.39319,"is_reserved":false,"is_disabled":false,"rental_uris":{"android":"levelo://app?vid=d339e6ef-e47e-462a-8994-ec8edd712660","ios":"levelo://app?vid=d339e6ef-e47e-462a-8994-ec8edd712660"},"vehicle_type_id":"4","last_reported":1750792122,"current_range_meters":18800,"station_id":"ce4bh2p2rcd13ifvqdi0","pricing_plan_id":"cebpf4jnsgd1na2vs0mg"},{"bike_id":"0afd4c2a-5a02-4d05-a3f9-ab3a2c3b10b5","system_id":"levelo_inurba_marseille","lat":43.28422,"lon":5.34981,"is_reserved":false,"is_disabled":false,"rental_uris":{"android":"levelo://app?vid=0afd4c2a-5a02-4d05-a3f9-ab3a2c3b10b5","ios":"levelo://app?vid=0afd4c2a-5a02-4d05-a3f9-ab3a2c3b10b5"},"vehicle_type_id":"4","last_reported":1750792122,"current_range_meters":18800,"station_id":"ce4bhbh2rcd13ifvqepg","pricing_plan_id":"cebpf4jnsgd1na2vs0mg"},{"bike_id":"83d64502-1fc6-4760-a2e0-8853a567ee49","system_id":"levelo_inurba_marseille","lat":43.33183,"lon":5.41039,"is_reserved":false,"is_disabled":false,"rental_uris":{"android":"levelo://app?vid=83d64502-1fc6-4760-a2e0-8853a567ee49","ios":"levelo://app?vid=83d64502-1fc6-4760-a2e0-8853a567ee49"},"vehicle_type_id":"4","last_reported":1750792122,"current_range_meters":19200,"station_id":"","pricing_plan_id":"cebpf4jnsgd1na2vs0mg"},{"bike_id":"c92df524-3b76-4b49-80be-dabb9d15dd3b","system_id":"levelo_inurba_marseille","lat":43.30272,"lon":5.37721,"is_reserved":false,"is_disabled":false,"rental_uris":{"android":"levelo://app?vid=c92df524-3b76-4b49-80be-dabb9d15dd3b","ios":"levelo://app?vid=c92df524-3b76-4b49-80be-dabb9d15dd3b"},"vehicle_type_id":"4","last_reported":1750792122,"current_range_meters":19200,"station_id":"ce4bguh2rcd13ifvqcj0","pricing_plan_id":"cebpf4jnsgd1na2vs0mg"},{"bike_id":"84308bc3-8ab6-46f1-b3fe-c675f213c74b","system_id":"levelo_inurba_marseille","lat":43.28033,"lon":5.36939,"is_reserved":false,"is_disabled":false,"rental_uris":{"android":"levelo://app?vid=84308bc3-8ab6-46f1-b3fe-c675f213c74b","ios":"levelo://app?vid=84308bc3-8ab6-46f1-b3fe-c675f213c74b"},"vehicle_type_id":"4","last_reported":1750792122,"current_range_meters":19200,"station_id":"ce4bha12rcd13ifvqef0","pricing_plan_id":"cebpf4jnsgd1na2vs0mg"},{"bike_id":"ae84ea09-0cf3-4795-8cf9-40b3008a6f17","system_id":"levelo_inurba_marseille","lat":43.28419,"lon":5.34978,"is_reserved":false,"is_disabled":false,"rental_uris":{"android":"levelo://app?vid=ae84ea09-0cf3-4795-8cf9-40b3008a6f17","ios":"levelo://app?vid=ae84ea09-0cf3-4795-8cf9-40b3008a6f17"},"vehicle_type_id":"4","last_reported":1750792122,"current_range_meters":19200,"station_id":"ce4bhbh2rcd13ifvqepg","pricing_plan_id":"cebpf4jnsgd1na2vs0mg"},{"bike_id":"64c4a215-35fd-4aaf-9bf6-b0b267ebe1bc","system_id":"levelo_inurba_marseille","lat":43.28421,"lon":5.34979,"is_reserved":false,"is_disabled":false,"rental_uris":{"android":"levelo://app?vid=64c4a215-35fd-4aaf-9bf6-b0b267ebe1bc","ios":"levelo://app?vid=64c4a215-35fd-4aaf-9bf6-b0b267ebe1bc"},"vehicle_type_id":"4","last_reported":1750792122,"current_range_meters":19200,"station_id":"ce4bhbh2rcd13ifvqepg","pricing_plan_id":"cebpf4jnsgd1na2vs0mg"},{"bike_id":"9d52ae7c-3bfc-4879-b169-67c07cec03d9","system_id":"levelo_inurba_marseille","lat":43.28446,"lon":5.36801,"is_reserved":false,"is_disabled":false,"rental_uris":{"android":"levelo://app?vid=9d52ae7c-3bfc-4879-b169-67c07cec03d9","ios":"levelo://app?vid=9d52ae7c-3bfc-4879-b169-67c07cec03d9"},"vehicle_type_id":"4","last_reported":1750792122,"current_range_meters":19600,"station_id":"","pricing_plan_id":"cebpf4jnsgd1na2vs0mg"},{"bike_id":"3d21d0f0-9689-45fd-8c3f-19e588fcfb39","system_id":"levelo_inurba_marseille","lat":43.29303,"lon":5.37456,"is_reserved":false,"is_disabled":false,"rental_uris":{"android":"levelo://app?vid=3d21d0f0-9689-45fd-8c3f-19e588fcfb39","ios":"levelo://app?vid=3d21d0f0-9689-45fd-8c3f-19e588fcfb39"},"vehicle_type_id":"4","last_reported":1750792122,"current_range_meters":19600,"station_id":"ce4bgi12rcd13ifvqb70","pricing_plan_id":"cebpf4jnsgd1na2vs0mg"},{"bike_id":"74e5ffb4-1971-4247-94ec-482def45ebb7","system_id":"levelo_inurba_marseille","lat":43.31277,"lon":5.40164,"is_reserved":false,"is_disabled":false,"rental_uris":{"android":"levelo://app?vid=74e5ffb4-1971-4247-94ec-482def45ebb7","ios":"levelo://app?vid=74e5ffb4-1971-4247-94ec-482def45ebb7"},"vehicle_type_id":"4","last_reported":1750792122,"current_range_meters":19600,"station_id":"ce4bh092rcd13ifvqd30","pricing_plan_id":"cebpf4jnsgd1na2vs0mg"},{"bike_id":"a10b6ed0-0eb8-4f24-949f-d88742dd1c73","system_id":"levelo_inurba_marseille","lat":43.295206,"lon":5.394068,"is_reserved":false,"is_disabled":false,"rental_uris":{"android":"levelo://app?vid=a10b6ed0-0eb8-4f24-949f-d88742dd1c73","ios":"levelo://app?vid=a10b6ed0-0eb8-4f24-949f-d88742dd1c73"},"vehicle_type_id":"4","last_reported":1750792122,"current_range_meters":19600,"station_id":"ce4bh292rcd13ifvqdf0","pricing_plan_id":"cebpf4jnsgd1na2vs0mg"},{"bike_id":"06a92f20-93c5-4830-b0ae-6f2610ef512f","system_id":"levelo_inurba_marseille","lat":43.28614,"lon":5.35101,"is_reserved":false,"is_disabled":false,"rental_uris":{"android":"levelo://app?vid=06a92f20-93c5-4830-b0ae-6f2610ef512f","ios":"levelo://app?vid=06a92f20-93c5-4830-b0ae-6f2610ef512f"},"vehicle_type_id":"4","last_reported":1750792122,"current_range_meters":19600,"station_id":"ce4bhch2rcd13ifvqeug","pricing_plan_id":"cebpf4jnsgd1na2vs0mg"},{"bike_id":"408b35ed-77dd-47ec-85ee-f52e3c913292","system_id":"levelo_inurba_marseille","lat":43.24392,"lon":5.37045,"is_reserved":false,"is_disabled":false,"rental_uris":{"android":"levelo://app?vid=408b35ed-77dd-47ec-85ee-f52e3c913292","ios":"levelo://app?vid=408b35ed-77dd-47ec-85ee-f52e3c913292"},"vehicle_type_id":"4","last_reported":1750792122,"current_range_meters":19600,"station_id":"ce4bhhh2rcd13ifvqfk0","pricing_plan_id":"cebpf4jnsgd1na2vs0mg"},{"bike_id":"a15fed96-cb71-4a62-a856-0b8c445ea9f0","system_id":"levelo_inurba_marseille","lat":43.29518,"lon":5.37507,"is_reserved":false,"is_disabled":false,"rental_uris":{"android":"levelo://app?vid=a15fed96-cb71-4a62-a856-0b8c445ea9f0","ios":"levelo://app?vid=a15fed96-cb71-4a62-a856-0b8c445ea9f0"},"vehicle_type_id":"4","last_reported":1750792122,"current_range_meters":20000,"station_id":"ce4bgkp2rcd13ifvqbmg","pricing_plan_id":"cebpf4jnsgd1na2vs0mg"},{"bike_id":"668a2c15-f452-4dac-837d-4584ebee837c","system_id":"levelo_inurba_marseille","lat":43.30624,"lon":5.37214,"is_reserved":false,"is_disabled":false,"rental_uris":{"android":"levelo://app?vid=668a2c15-f452-4dac-837d-4584ebee837c","ios":"levelo://app?vid=668a2c15-f452-4dac-837d-4584ebee837c"},"vehicle_type_id":"4","last_reported":1750792122,"current_range_meters":20000,"station_id":"ce4bgqh2rcd13ifvqc4g","pricing_plan_id":"cebpf4jnsgd1na2vs0mg"},