{"last_updated":1707059151,"ttl":30,"version":"2.2","data":{"bikes":[{"bike_id":"ff368464-34ff-46f7-8517-5166986fad15","system_id":"levelo_inurba_marseille","lat":43.312239,"lon":5.368562,"is_reserved":false,"is_disabled":false,"rental_uris":{"android":"levelo://app?vid=ff368464-34ff-46f7-8517-5166986fad15","ios":"levelo://app?vid=ff368464-34ff-46f7-8517-5166986fad15"},"vehicle_type_id":"4","last_reported":1707059151,"current_range_meters":18800,"station_id":"ce4bgl92rcd13ifvqbq0","pricing_plan_id":"free"},{"bike_id":"778d8da8-0096-4aba-a55e-e3b00d9008f8","system_id":"levelo_inurba_marseille","lat":43.312239,"lon":5.368562,"is_reserved":false,"is_disabled":false,"rental_uris":{"android":"levelo://app?vid=778d8da8-0096-4aba-a55e-e3b00d9008f8","ios":"levelo://app?vid=778d8da8-0096-4aba-a55e-e3b00d9008f8"},"vehicle_type_id":"4","last_reported":1707059151,"current_range_meters":0,"station_id":"ce4bgl92rcd13ifvqbq0","pricing_plan_id":"free"},{"bike_id":"8bea6ee2-bb12-4611-84ff-9527b54da0c8","system_id":"levelo_inurba_marseille","lat":43.310689,"lon":5.367713,"is_reserved":false,"is_disabled":false,"rental_uris":{"android":"levelo://app?vid=8bea6ee2-bb12-4611-84ff-9527b54da0c8","ios":"levelo://app?vid=8bea6ee2-bb12-4611-84ff-9527b54da0c8"},"vehicle_type_id":"4","last_reported":1707059151,"current_range_meters":28400,"station_id":"","pricing_plan_id":"free"},{"bike_id":"2a59adcd-4e1f-4cd0-ab64-05ab3d76c61f","system_id":"levelo_inurba_marseille","lat":43.309076,"lon":5.368465,"is_reserved":false,"is_disabled":false,"rental_uris":{"android":"levelo://app?vid=2a59adcd-4e1f-4cd0-ab64-05ab3d76c61f","ios":"levelo://app?vid=2a59adcd-4e1f-4cd0-ab64-05ab3d76c61f"},"vehicle_type_id":"4","last_reported":1707059151,"current_range_meters":21200,"station_id":"ce4bgn92rcd13ifvqbvg","pricing_plan_id":"free"},{"bike_id":"f0e3f4a6-98f2-45cc-b4d3-d687f550f02c","system_id":"levelo_inurba_marseille","lat":43.314811,"lon":5.373104,"is_reserved":false,"is_disabled":false,"rental_uris":{"android":"levelo://app?vid=f0e3f4a6-98f2-45cc-b4d3-d687f550f02c","ios":"levelo://app?vid=f0e3f4a6-98f2-45cc-b4d3-d687f550f02c"},"vehicle_type_id":"4","last_reported":1707059151,"current_range_meters":31200,"station_id":"ce4bgt12rcd13ifvqcd0","pricing_plan_id":"free"},{"bike_id":"77b6c284-4794-4cce-894d-0eaecfb3b297","system_id":"levelo_inurba_marseille","lat":43.314811,"lon":5.373104,"is_reserved":false,"is_disabled":false,"rental_uris":{"android":"levelo://app?vid=77b6c284-4794-4cce-894d-0eaecfb3b297","ios":"levelo://app?vid=77b6c284-4794-4cce-894d-0eaecfb3b297"},"vehicle_type_id":"4","last_reported":1707059151,"current_range_meters":7600,"station_id":"ce4bgt12rcd13ifvqcd0","pricing_plan_id":"free"},{"bike_id":"fb5ac4c2-b2b1-4a2f-a025-61c13e66d55d","system_id":"levelo_inurba_marseille","lat":43.314811,"lon":5.373104,"is_reserved":false,"is_disabled":false,"rental_uris":{"android":"levelo://app?vid=fb5ac4c2-b2b1-4a2f-a025-61c13e66d55d","ios":"levelo://app?vid=fb5ac4c2-b2b1-4a2f-a025-61c13e66d55d"},"vehicle_type_id":"4","last_reported":1707059151,"current_range_meters":6400,"station_id":"ce4bgt12rcd13ifvqcd0","pricing_plan_id":"free"},{"bike_id":"5189a1d3-7b09-4646-85cb-12ea8cd8b2c6","system_id":"levelo_inurba_marseille","lat":43.31506,"lon":5.37296,"is_reserved":false,"is_disabled":false,"rental_uris":{"android":"levelo://app?vid=5189a1d3-7b09-4646-85cb-12ea8cd8b2c6","ios":"levelo://app?vid=5189a1d3-7b09-4646-85cb-12ea8cd8b2c6"},"vehicle_type_id":"4","last_reported":1707059151,"current_range_meters":31200,"station_id":"ce4bgt12rcd13ifvqcd0","pricing_plan_id":"free"},{"bike_id":"dc932658-287f-423b-9fef-833df6924156","system_id":"levelo_inurba_marseille","lat":43.314811,"lon":5.373104,"is_reserved":false,"is_disabled":false,"rental_uris":{"android":"levelo://app?vid=dc932658-287f-423b-9fef-833df6924156","ios":"levelo://app?vid=dc932658-287f-423b-9fef-833df6924156"},"vehicle_type_id":"4","last_reported":1707059151,"current_range_meters":2000,"station_id":"ce4bgt12rcd13ifvqcd0","pricing_plan_id":"free"},{"bike_id":"6ecd07a2-ee5e-47c4-93be-a7d99db601d7","system_id":"levelo_inurba_marseille","lat":43.31496,"lon":5.37306,"is_reserved":false,"is_disabled":false,"rental_uris":{"android":"levelo://app?vid=6ecd07a2-ee5e-47c4-93be-a7d99db601d7","ios":"levelo://app?vid=6ecd07a2-ee5e-47c4-93be-a7d99db601d7"},"vehicle_type_id":"4","last_reported":1707059151,"current_range_meters":0,"station_id":"ce4bgt12rcd13ifvqcd0","pricing_plan_id":"free"},{"bike_id":"82634a15-58d6-490e-9ad8-4261dbaa00cb","system_id":"levelo_inurba_marseille","lat":43.309085,"lon":5.37187,"is_reserved":false,"is_disabled":false,"rental_uris":{"android":"levelo://app?vid=82634a15-58d6-490e-9ad8-4261dbaa00cb","ios":"levelo://app?vid=82634a15-58d6-490e-9ad8-4261dbaa00cb"},"vehicle_type_id":"4","last_reported":1707059151,"current_range_meters":0,"station_id":"ce4bguh2rcd13ifvqckg","pricing_plan_id":"free"},{"bike_id":"c60e7252-bcc2-4201-a624-aec62d3d6b5d","system_id":"levelo_inurba_marseille","lat":43.316473,"lon":5.376847,"is_reserved":false,"is_disabled":false,"rental_uris":{"android":"levelo://app?vid=c60e7252-bcc2-4201-a624-aec62d3d6b5d","ios":"levelo://app?vid=c60e7252-bcc2-4201-a624-aec62d3d6b5d"},"vehicle_type_id":"4","last_reported":1707059151,"current_range_meters":1600,"station_id":"","pricing_plan_id":"free"},{"bike_id":"ba19dddd-a606-45e4-9284-89012d5ea8ad","system_id":"levelo_inurba_marseille","lat":43.303046,"lon":5.368981,"is_reserved":false,"is_disabled":false,"rental_uris":{"android":"levelo://app?vid=ba19dddd-a606-45e4-9284-89012d5ea8ad","ios":"levelo://app?vid=ba19dddd-a606-45e4-9284-89012d5ea8ad"},"vehicle_type_id":"4","last_reported":1707059151,"current_range_meters":10400,"station_id":"ce4bgqh2rcd13ifvqc5g","pricing_plan_id":"free"},{"bike_id":"8d413466-9bc7-461a-9510-0f9fc336a503","system_id":"levelo_inurba_marseille","lat":43.324771,"lon":5.36557,"is_reserved":false,"is_disabled":false,"rental_uris":{"android":"levelo://app?vid=8d413466-9bc7-461a-9510-0f9fc336a503","ios":"levelo://app?vid=8d413466-9bc7-461a-9510-0f9fc336a503"},"vehicle_type_id":"4","last_reported":1707059151,"current_range_meters":15600,"station_id":"ce4bhs12rcd13ifvqhvg","pricing_plan_id":"free"},{"bike_id":"f97abb96-3e05-45bb-a92e-c8c80b6261b2","system_id":"levelo_inurba_marseille","lat":43.308012,"lon":5.381511,"is_reserved":false,"is_disabled":false,"rental_uris":{"android":"levelo://app?vid=f97abb96-3e05-45bb-a92e-c8c80b6261b2","ios":"levelo://app?vid=f97abb96-3e05-45bb-a92e-c8c80b6261b2"},"vehicle_type_id":"4","last_reported":1707059151,"current_range_meters":12000,"station_id":"ce4bgt12rcd13ifvqce0","pricing_plan_id":"free"},{"bike_id":"bc974708-dcbd-4a8a-ac0d-164e8d7c65dc","system_id":"levelo_inurba_marseille","lat":43.324771,"lon":5.36557,"is_reserved":false,"is_disabled":false,"rental_uris":{"android":"levelo://app?vid=bc974708-dcbd-4a8a-ac0d-164e8d7c65dc","ios":"levelo://app?vid=bc974708-dcbd-4a8a-ac0d-164e8d7c65dc"},"vehicle_type_id":"4","last_reported":1707059151,"current_range_meters":21600,"station_id":"ce4bhs12rcd13ifvqhvg","pricing_plan_id":"free"},{"bike_id":"15f9313c-cf00-4691-ab40-aeb4c123bcb8","system_id":"levelo_inurba_marseille","lat":43.302784,"lon":5.377158,"is_reserved":false,"is_disabled":false,"rental_uris":{"android":"levelo://app?vid=15f9313c-cf00-4691-ab40-aeb4c123bcb8","ios":"levelo://app?vid=15f9313c-cf00-4691-ab40-aeb4c123bcb8"},"vehicle_type_id":"4","last_reported":1707059151,"current_range_meters":22400,"station_id":"ce4bguh2rcd13ifvqcj0","pricing_plan_id":"free"},{"bike_id":"9caec0aa-1b06-42cb-adaf-d5ec9592de19","system_id":"levelo_inurba_marseille","lat":43.302784,"lon":5.377158,"is_reserved":false,"is_disabled":false,"rental_uris":{"android":"levelo://app?vid=9caec0aa-1b06-42cb-adaf-d5ec9592de19","ios":"levelo://app?vid=9caec0aa-1b06-42cb-adaf-d5ec9592de19"},"vehicle_type_id":"4","last_reported":1707059151,"current_range_meters":2800,"station_id":"ce4bguh2rcd13ifvqcj0","pricing_plan_id":"free"},{"bike_id":"9e4c9c03-cc81-4fbe-b77f-ab0f880ec72a","system_id":"levelo_inurba_marseille","lat":43.30143,"lon":5.37413,"is_reserved":false,"is_disabled":false,"rental_uris":{"android":"levelo://app?vid=9e4c9c03-cc81-4fbe-b77f-ab0f880ec72a","ios":"levelo://app?vid=9e4c9c03-cc81-4fbe-b77f-ab0f880ec72a"},"vehicle_type_id":"4","last_reported":1707059151,"current_range_meters":11200,"station_id":"ce4bgs92rcd13ifvqcc0","pricing_plan_id":"free"},{"bike_id":"51d2c81d-abd5-403a-a08a-66e9b8018141","system_id":"levelo_inurba_marseille","lat":43.313571,"lon":5.384829,"is_reserved":false,"is_disabled":false,"rental_uris":{"android":"levelo://app?vid=51d2c81d-abd5-403a-a08a-66e9b8018141","ios":"levelo://app?vid=51d2c81d-abd5-403a-a08a-66e9b8018141"},"vehicle_type_id":"4","last_reported":1707059151,"current_range_meters":19200,"station_id":"ce4bgt92rcd13ifvqcf0","pricing_plan_id":"free"},{"bike_id":"647d1139-545e-488b-9e0b-edfe2b82ef0a","system_id":"levelo_inurba_marseille","lat":43.299222,"lon":5.365554,"is_reserved":false,"is_disabled":false,"rental_uris":{"android":"levelo://app?vid=647d1139-545e-488b-9e0b-edfe2b82ef0a","ios":"levelo://app?vid=647d1139-545e-488b-9e0b-edfe2b82ef0a"},"vehicle_type_id":"4","last_reported":1707059151,"current_range_meters":27200,"station_id":"ce4bgm92rcd13ifvqbr0","pricing_plan_id":"free"},{"bike_id":"27797770-c2d8-40bd-93c3-224fe20f67f7","system_id":"levelo_inurba_marseille","lat":43.305364,"lon":5.384119,"is_reserved":false,"is_disabled":false,"rental_uris":{"android":"levelo://app?vid=27797770-c2d8-40bd-93c3-224fe20f67f7","ios":"levelo://app?vid=27797770-c2d8-40bd-93c3-224fe20f67f7"},"vehicle_type_id":"4","last_reported":1707059151,"current_range_meters":16800,"station_id":"ce4bgg92rcd13ifvqb30","pricing_plan_id":"free"},{"bike_id":"c5cbae1c-0ff0-4198-a5ef-182ec29f1519","system_id":"levelo_inurba_marseille","lat":43.311722,"lon":5.387247,"is_reserved":false,"is_disabled":false,"rental_uris":{"android":"levelo://app?vid=c5cbae1c-0ff0-4198-a5ef-182ec29f1519","ios":"levelo://app?vid=c5cbae1c-0ff0-4198-a5ef-182ec29f1519"},"vehicle_type_id":"4","last_reported":1707059151,"current_range_meters":3200,"station_id":"ce4bgv12rcd13ifvqcp0","pricing_plan_id":"free"},{"bike_id":"491b9b2f-7356-43fb-8e8e-0ef736a8d863","system_id":"levelo_inurba_marseille","lat":43.297794,"lon":5.370888,"is_reserved":false,"is_disabled":false,"rental_uris":{"android":"levelo://app?vid=491b9b2f-7356-43fb-8e8e-0ef736a8d863","ios":"levelo://app?vid=491b9b2f-7356-43fb-8e8e-0ef736a8d863"},"vehicle_type_id":"4","last_reported":1707059151,"current_range_meters":30000,"station_id":"ce4bgop2rcd13ifvqc1g","pricing_plan_id":"free"},{"bike_id":"8b023912-5267-4e1c-a403-4d70b425cebe","system_id":"levelo_inurba_marseille","lat":43.322879,"lon":5.382742,"is_reserved":false,"is_disabled":false,"rental_uris":{"android":"levelo://app?vid=8b023912-5267-4e1c-a403-4d70b425cebe","ios":"levelo://app?vid=8b023912-5267-4e1c-a403-4d70b425cebe"},"vehicle_type_id":"4","last_reported":1707059151,"current_range_meters":29200,"station_id":"ce4bhr12rcd13ifvqhqg","pricing_plan_id":"free"},{"bike_id":"1900e2ea-9239-49b1-933e-57903fa99707","system_id":"levelo_inurba_marseille","lat":43.32826,"lon":5.36695,"is_reserved":false,"is_disabled":false,"rental_uris":{"android":"levelo://app?vid=1900e2ea-9239-49b1-933e-57903fa99707","ios":"levelo://app?vid=1900e2ea-9239-49b1-933e-57903fa99707"},"vehicle_type_id":"4","last_reported":1707059151,"current_range_meters":10800,"station_id":"ce4bhs92rcd13ifvqi0g","pricing_plan_id":"free"},{"bike_id":"81d6c55c-5ab6-4964-9500-181a7b78889c","system_id":"levelo_inurba_marseille","lat":43.328294,"lon":5.366902,"is_reserved":false,"is_disabled":false,"rental_uris":{"android":"levelo://app?vid=81d6c55c-5ab6-4964-9500-181a7b78889c","ios":"levelo://app?vid=81d6c55c-5ab6-4964-9500-181a7b78889c"},"vehicle_type_id":"4","last_reported":1707059151,"current_range_meters":11200,"station_id":"ce4bhs92rcd13ifvqi0g","pricing_plan_id":"free"},{"bike_id":"d73908e2-2bfd-489b-804e-d4e95fac72d2","system_id":"levelo_inurba_marseille","lat":43.328334,"lon":5.366786,"is_reserved":false,"is_disabled":false,"rental_uris":{"android":"levelo://app?vid=d73908e2-2bfd-489b-804e-d4e95fac72d2","ios":"levelo://app?vid=d73908e2-2bfd-489b-804e-d4e95fac72d2"},"vehicle_type_id":"4","last_reported":1707059151,"current_range_meters":22000,"station_id":"ce4bhs92rcd13ifvqi0g","pricing_plan_id":"free"},{"bike_id":"1d0dfbb2-a895-4e0d-92ef-a414fc503961","system_id":"levelo_inurba_marseille","lat":43.328388,"lon":5.366875,"is_reserved":false,"is_disabled":false,"rental_uris":{"android":"levelo://app?vid=1d0dfbb2-a895-4e0d-92ef-a414fc503961","ios":"levelo://app?vid=1d0dfbb2-a895-4e0d-92ef-a414fc503961"},"vehicle_type_id":"4","last_reported":1707059151,"current_range_meters":12000,"station_id":"ce4bhs92rcd13ifvqi0g","pricing_plan_id":"free"},{"bike_id":"66de9301-d262-4da7-802c-eb6e19eb9ff3","system_id":"levelo_inurba_marseille","lat":43.296131,"lon":5.370791,"is_reserved":false,"is_disabled":false,"rental_uris":{"android":"levelo://app?vid=66de9301-d262-4da7-802c-eb6e19eb9ff3","ios":"levelo://app?vid=66de9301-d262-4da7-802c-eb6e19eb9ff3"},"vehicle_type_id":"4","last_reported":1707059151,"current_range_meters":24000,"station_id":"ce4bgnh2rcd13ifvqc0g","pricing_plan_id":"free"},{"bike_id":"4dfb519c-7124-478a-825b-070386d43f38","system_id":"levelo_inurba_marseille","lat":43.296131,"lon":5.370791,"is_reserved":false,"is_disabled":false,"rental_uris":{"android":"levelo://app?vid=4dfb519c-7124-478a-825b-070386d43f38","ios":"levelo://app?vid=4dfb519c-7124-478a-825b-070386d43f38"},"vehicle_type_id":"4","last_reported":1707059151,"current_range_meters":14000,"station_id":"ce4bgnh2rcd13ifvqc0g","pricing_plan_id":"free"},{"bike_id":"e71dbeb2-bdcd-41a9-9e92-b0477debf34d","system_id":"levelo_inurba_marseille","lat":43.296468,"lon":5.374491,"is_reserved":false,"is_disabled":false,"rental_uris":{"android":"levelo://app?vid=e71dbeb2-bdcd-41a9-9e92-b0477debf34d","ios":"levelo://app?vid=e71dbeb2-bdcd-41a9-9e92-b0477debf34d"},"vehicle_type_id":"4","last_reported":1707059151,"current_range_meters":12400,"station_id":"","pricing_plan_id":"free"},{"bike_id":"5a7b2891-dc58-4489-a543-3104d2d219e2","system_id":"levelo_inurba_marseille","lat":43.317557,"lon":5.390173,"is_reserved":false,"is_disabled":false,"rental_uris":{"android":"levelo://app?vid=5a7b2891-dc58-4489-a543-3104d2d219e2","ios":"levelo://app?vid=5a7b2891-dc58-4489-a543-3104d2d219e2"},"vehicle_type_id":"4","last_reported":1707059151,"current_range_meters":28800,"station_id":"ce4bhqp2rcd13ifvqhng","pricing_plan_id":"free"},{"bike_id":"19afb4c5-60fe-420b-aa1d-3c5a3def252e","system_id":"levelo_inurba_marseille","lat":43.317557,"lon":5.390173,"is_reserved":false,"is_disabled":false,"rental_uris":{"android":"levelo://app?vid=19afb4c5-60fe-420b-aa1d-3c5a3def252e","ios":"levelo://app?vid=19afb4c5-60fe-420b-aa1d-3c5a3def252e"},"vehicle_type_id":"4","last_reported":1707059151,"current_range_meters":27200,"station_id":"ce4bhqp2rcd13ifvqhng","pricing_plan_id":"free"},{"bike_id":"86eba5ee-3f3e-465e-879d-a26eca611b6f","system_id":"levelo_inurba_marseille","lat":43.31829,"lon":5.390294,"is_reserved":false,"is_disabled":false,"rental_uris":{"android":"levelo://app?vid=86eba5ee-3f3e-465e-879d-a26eca611b6f","ios":"levelo://app?vid=86eba5ee-3f3e-465e-879d-a26eca611b6f"},"vehicle_type_id":"4","last_reported":1707059151,"current_range_meters":16800,"station_id":"","pricing_plan_id":"free"},{"bike_id":"a2f04534-72f0-4cc3-ad7a-85528062cfa2","system_id":"levelo_inurba_marseille","lat":43.295748,"lon":5.37522,"is_reserved":false,"is_disabled":false,"rental_uris":{"android":"levelo://app?vid=a2f04534-72f0-4cc3-ad7a-85528062cfa2","ios":"levelo://app?vid=a2f04534-72f0-4cc3-ad7a-85528062cfa2"},"vehicle_type_id":"4","last_reported":1707059151,"current_range_meters":0,"station_id":"ce4bgh92rcd13ifvqb50","pricing_plan_id":"free"},{"bike_id":"6a82ca95-f801-4311-887a-55d376282c02","system_id":"levelo_inurba_marseille","lat":43.296277,"lon":5.377108,"is_reserved":false,"is_disabled":false,"rental_uris":{"android":"levelo://app?vid=6a82ca95-f801-4311-887a-55d376282c02","ios":"levelo://app?vid=6a82ca95-f801-4311-887a-55d376282c02"},"vehicle_type_id":"4","last_reported":1707059151,"current_range_meters":3200,"station_id":"ce4bgi92rcd13ifvqb90","pricing_plan_id":"free"},{"bike_id":"f459bcc8-96d9-431d-bb45-ce1f50e6d398","system_id":"levelo_inurba_marseille","lat":43.32359,"lon":5.38881,"is_reserved":false,"is_disabled":false,"rental_uris":{"android":"levelo://app?vid=f459bcc8-96d9-431d-bb45-ce1f50e6d398","ios":"levelo://app?vid=f459bcc8-96d9-431d-bb45-ce1f50e6d398"},"vehicle_type_id":"4","last_reported":1707059151,"current_range_meters":2000,"station_id":"ce4bhqp2rcd13ifvqhog","pricing_plan_id":"free"},{"bike_id":"cf43375b-8817-4ab6-ad42-e6780f9b774a","system_id":"levelo_inurba_marseille","lat":43.32367,"lon":5.388836,"is_reserved":false,"is_disabled":false,"rental_uris":{"android":"levelo://app?vid=cf43375b-8817-4ab6-ad42-e6780f9b774a","ios":"levelo://app?vid=cf43375b-8817-4ab6-ad42-e6780f9b774a"},"vehicle_type_id":"4","last_reported":1707059151,"current_range_meters":11600,"station_id":"ce4bhqp2rcd13ifvqhog","pricing_plan_id":"free"},{"bike_id":"75ed1df4-b7df-4e88-9e9a-696a19f1762a","system_id":"levelo_inurba_marseille","lat":43.32367,"lon":5.38881,"is_reserved":false,"is_disabled":false,"rental_uris":{"android":"levelo://app?vid=75ed1df4-b7df-4e88-9e9a-696a19f1762a","ios":"levelo://app?vid=75ed1df4-b7df-4e88-9e9a-696a19f1762a"},"vehicle_type_id":"4","last_reported":1707059151,"current_range_meters":6000,"station_id":"ce4bhqp2rcd13ifvqhog","pricing_plan_id":"free"},{"bike_id":"999af2fa-7743-40b1-ad5a-09d74cc1efed","system_id":"levelo_inurba_marseille","lat":43.32373,"lon":5.38879,"is_reserved":false,"is_disabled":false,"rental_uris":{"android":"levelo://app?vid=999af2fa-7743-40b1-ad5a-09d74cc1efed","ios":"levelo://app?vid=999af2fa-7743-40b1-ad5a-09d74cc1efed"},"vehicle_type_id":"4","last_reported":1707059151,"current_range_meters":22800,"station_id":"ce4bhqp2rcd13ifvqhog","pricing_plan_id":"free"},{"bike_id":"9b081c91-637e-47ff-a6d8-ba13bb5f1be4","system_id":"levelo_inurba_marseille","lat":43.32369,"lon":5.38887,"is_reserved":false,"is_disabled":false,"rental_uris":{"android":"levelo://app?vid=9b081c91-637e-47ff-a6d8-ba13bb5f1be4","ios":"levelo://app?vid=9b081c91-637e-47ff-a6d8-ba13bb5f1be4"},"vehicle_type_id":"4","last_reported":1707059151,"current_range_meters":27600,"station_id":"ce4bhqp2rcd13ifvqhog","pricing_plan_id":"free"},{"bike_id":"c5f1cf69-ca8d-4103-b0aa-117aedac2923","system_id":"levelo_inurba_marseille","lat":43.29602,"lon":5.381084,"is_reserved":false,"is_disabled":false,"rental_uris":{"android":"levelo://app?vid=c5f1cf69-ca8d-4103-b0aa-117aedac2923","ios":"levelo://app?vid=c5f1cf69-ca8d-4103-b0aa-117aedac2923"},"vehicle_type_id":"4","last_reported":1707059151,"current_range_meters":20400,"station_id":"ce4bgl12rcd13ifvqbo0","pricing_plan_id":"free"},{"bike_id":"f3bbfc46-c1ee-4014-8620-043774281773","system_id":"levelo_inurba_marseille","lat":43.292749,"lon":5.368402,"is_reserved":false,"is_disabled":false,"rental_uris":{"android":"levelo://app?vid=f3bbfc46-c1ee-4014-8620-043774281773","ios":"levelo://app?vid=f3bbfc46-c1ee-4014-8620-043774281773"},"vehicle_type_id":"4","last_reported":1707059151,"current_range_meters":11600,"station_id":"ce4bhbp2rcd13ifvqesg","pricing_plan_id":"free"},{"bike_id":"698bd90d-d8df-41e3-afab-aacfaaa36bb3","system_id":"levelo_inurba_marseille","lat":43.29273,"lon":5.36844,"is_reserved":false,"is_disabled":false,"rental_uris":{"android":"levelo://app?vid=698bd90d-d8df-41e3-afab-aacfaaa36bb3","ios":"levelo://app?vid=698bd90d-d8df-41e3-afab-aacfaaa36bb3"},"vehicle_type_id":"4","last_reported":1707059151,"current_range_meters":0,"station_id":"ce4bhbp2rcd13ifvqesg","pricing_plan_id":"free"},{"bike_id":"0f90d953-2b5d-4548-9aee-1fb6d84320c1","system_id":"levelo_inurba_marseille","lat":43.29272,"lon":5.3684,"is_reserved":false,"is_disabled":false,"rental_uris":{"android":"levelo://app?vid=0f90d953-2b5d-4548-9aee-1fb6d84320c1","ios":"levelo://app?vid=0f90d953-2b5d-4548-9aee-1fb6d84320c1"},"vehicle_type_id":"4","last_reported":1707059151,"current_range_meters":0,"station_id":"ce4bhbp2rcd13ifvqesg","pricing_plan_id":"free"},{"bike_id":"b7f5568c-404f-43aa-9225-8b5558a80f13","system_id":"levelo_inurba_marseille","lat":43.293067,"lon":5.374651,"is_reserved":false,"is_disabled":false,"rental_uris":{"android":"levelo://app?vid=b7f5568c-404f-43aa-9225-8b5558a80f13","ios":"levelo://app?vid=b7f5568c-404f-43aa-9225-8b5558a80f13"},"vehicle_type_id":"4","last_reported":1707059151,"current_range_meters":0,"station_id":"","pricing_plan_id":"free"},{"bike_id":"9ae61289-e0b5-4282-a0bb-f8d7f2c694cb","system_id":"levelo_inurba_marseille","lat":43.292977,"lon":5.37455,"is_reserved":false,"is_disabled":false,"rental_uris":{"android":"levelo://app?vid=9ae61289-e0b5-4282-a0bb-f8d7f2c694cb","ios":"levelo://app?vid=9ae61289-e0b5-4282-a0bb-f8d7f2c694cb"},"vehicle_type_id":"4","last_reported":1707059151,"current_range_meters":0,"station_id":"ce4bgi12rcd13ifvqb70","pricing_plan_id":"free"},{"bike_id":"26db3f03-db1f-4c2e-a52f-6b0c4e6fdfd3","system_id":"levelo_inurba_marseille","lat":43.303002,"lon":5.392142,"is_reserved":false,"is_disabled":false,"rental_uris":{"android":"levelo://app?vid=26db3f03-db1f-4c2e-a52f-6b0c4e6fdfd3","ios":"levelo://app?vid=26db3f03-db1f-4c2e-a52f-6b0c4e6fdfd3"},"vehicle_type_id":"4","last_reported":1707059151,"current_range_meters":15200,"station_id":"ce4bgkh2rcd13ifvqbk0","pricing_plan_id":"free"},{"bike_id":"bdae254e-8019-4d36-bf5b-7d16d5f5937f","system_id":"levelo_inurba_marseille","lat":43.293009,"lon":5.374584,"is_reserved":false,"is_disabled":false,"rental_uris":{"android":"levelo://app?vid=bdae254e-8019-4d36-bf5b-7d16d5f5937f","ios":"levelo://app?vid=bdae254e-8019-4d36-bf5b-7d16d5f5937f"},"vehicle_type_id":"4","last_reported":1707059151,"current_range_meters":27200,"station_id":"ce4bgi12rcd13ifvqb70","pricing_plan_id":"free"},{"bike_id":"10568b26-6f22-4b3a-9206-441946018fdb","system_id":"levelo_inurba_marseille","lat":43.298764,"lon":5.388973,"is_reserved":false,"is_disabled":false,"rental_uris":{"android":"levelo://app?vid=10568b26-6f22-4b3a-9206-441946018fdb","ios":"levelo://app?vid=10568b26-6f22-4b3a-9206-441946018fdb"},"vehicle_type_id":"4","last_reported":1707059151,"current_range_meters":6400,"station_id":"ce4bh392rcd13ifvqdl0","pricing_plan_id":"free"},{"bike_id":"4419a724-5255-4916-9ab6-08c2c5ae2fc3","system_id":"levelo_inurba_marseille","lat":43.31632,"lon":5.396747,"is_reserved":false,"is_disabled":false,"rental_uris":{"android":"levelo://app?vid=4419a724-5255-4916-9ab6-08c2c5ae2fc3","ios":"levelo://app?vid=4419a724-5255-4916-9ab6-08c2c5ae2fc3"},"vehicle_type_id":"4","last_reported":1707059151,"current_range_meters":28400,"station_id":"","pricing_plan_id":"free"},{"bike_id":"d3d76317-98cf-4dd7-a40c-67be82f002e4","system_id":"levelo_inurba_marseille","lat":43.29567,"lon":5.386765,"is_reserved":false,"is_disabled":false,"rental_uris":{"android":"levelo://app?vid=d3d76317-98cf-4dd7-a40c-67be82f002e4","ios":"levelo://app?vid=d3d76317-98cf-4dd7-a40c-67be82f002e4"},"vehicle_type_id":"4","last_reported":1707059151,"current_range_meters":20400,"station_id":"","pricing_plan_id":"free"},{"bike_id":"7c755874-04f4-49a7-881c-3dccfea2f0df","system_id":"levelo_inurba_marseille","lat":43.290441,"lon":5.359123,"is_reserved":false,"is_disabled":false,"rental_uris":{"android":"levelo://app?vid=7c755874-04f4-49a7-881c-3dccfea2f0df","ios":"levelo://app?vid=7c755874-04f4-49a7-881c-3dccfea2f0df"},"vehicle_type_id":"4","last_reported":1707059151,"current_range_meters":0,"station_id":"","pricing_plan_id":"free"},{"bike_id":"5ab12e84-d605-4370-a69d-a92ed7b52681","system_id":"levelo_inurba_marseille","lat":43.29422,"lon":5.38617,"is_reserved":false,"is_disabled":false,"rental_uris":{"android":"levelo://app?vid=5ab12e84-d605-4370-a69d-a92ed7b52681","ios":"levelo://app?vid=5ab12e84-d605-4370-a69d-a92ed7b52681"},"vehicle_type_id":"4","last_reported":1707059151,"current_range_meters":0,"station_id":"ce4bh2h2rcd13ifvqdh0","pricing_plan_id":"free"},{"bike_id":"56acd15d-38b1-496d-9512-d155b5a4195c","system_id":"levelo_inurba_marseille","lat":43.294153,"lon":5.386305,"is_reserved":false,"is_disabled":false,"rental_uris":{"android":"levelo://app?vid=56acd15d-38b1-496d-9512-d155b5a4195c","ios":"levelo://app?vid=56acd15d-38b1-496d-9512-d155b5a4195c"},"vehicle_type_id":"4","last_reported":1707059151,"current_range_meters":21200,"station_id":"ce4bh2h2rcd13ifvqdh0","pricing_plan_id":"free"},{"bike_id":"968470af-46c2-4477-a700-9a73eaaa1994","system_id":"levelo_inurba_marseille","lat":43.29418,"lon":5.38621,"is_reserved":false,"is_disabled":false,"rental_uris":{"android":"levelo://app?vid=968470af-46c2-4477-a700-9a73eaaa1994","ios":"levelo://app?vid=968470af-46c2-4477-a700-9a73eaaa1994"},"vehicle_type_id":"4","last_reported":1707059151,"current_range_meters":0,"station_id":"ce4bh2h2rcd13ifvqdh0","pricing_plan_id":"free"},{"bike_id":"3cc64d1d-7431-4200-9a61-0df7fdd8b62a","system_id":"levelo_inurba_marseille","lat":43.289184,"lon":5.366408,"is_reserved":false,"is_disabled":false,"rental_uris":{"android":"levelo://app?vid=3cc64d1d-7431-4200-9a61-0df7fdd8b62a","ios":"levelo://app?vid=3cc64d1d-7431-4200-9a61-0df7fdd8b62a"},"vehicle_type_id":"4","last_reported":1707059151,"current_range_meters":6800,"station_id":"ce4bhap2rcd13ifvqek0","pricing_plan_id":"free"},{"bike_id":"adc0201c-3a13-4d2e-a32d-e59a717e266e","system_id":"levelo_inurba_marseille","lat":43.292644,"lon":5.384257,"is_reserved":false,"is_disabled":false,"rental_uris":{"android":"levelo://app?vid=adc0201c-3a13-4d2e-a32d-e59a717e266e","ios":"levelo://app?vid=adc0201c-3a13-4d2e-a32d-e59a717e266e"},"vehicle_type_id":"4","last_reported":1707059151,"current_range_meters":5200,"station_id":"ce4bh692rcd13ifvqea0","pricing_plan_id":"free"},{"bike_id":"6e274896-fba2-4fcb-97a4-308b336caed3","system_id":"levelo_inurba_marseille","lat":43.292642,"lon":5.384254,"is_reserved":false,"is_disabled":false,"rental_uris":{"android":"levelo://app?vid=6e274896-fba2-4fcb-97a4-308b336caed3","ios":"levelo://app?vid=6e274896-fba2-4fcb-97a4-308b336caed3"},"vehicle_type_id":"4","last_reported":1707059151,"current_range_meters":2800,"station_id":"ce4bh692rcd13ifvqea0","pricing_plan_id":"free"},{"bike_id":"77808c9a-b998-4658-aedb-b25e3472d80a","system_id":"levelo_inurba_marseille","lat":43.305994,"lon":5.393687,"is_reserved":false,"is_disabled":false,"rental_uris":{"android":"levelo://app?vid=77808c9a-b998-4658-aedb-b25e3472d80a","ios":"levelo://app?vid=77808c9a-b998-4658-aedb-b25e3472d80a"},"vehicle_type_id":"4","last_reported":1707059151,"current_range_meters":2800,"station_id":"ce4bh0p2rcd13ifvqd80","pricing_plan_id":"free"},{"bike_id":"18969162-cf72-4b4c-ad13-1e5447ada576","system_id":"levelo_inurba_marseille","lat":43.290104,"lon":5.356111,"is_reserved":false,"is_disabled":false,"rental_uris":{"android":"levelo://app?vid=18969162-cf72-4b4c-ad13-1e5447ada576","ios":"levelo://app?vid=18969162-cf72-4b4c-ad13-1e5447ada576"},"vehicle_type_id":"4","last_reported":1707059151,"current_range_meters":14400,"station_id":"ce4bhb92rcd13ifvqen0","pricing_plan_id":"free"},{"bike_id":"a7af44a6-00b5-4b79-b918-78ee0b57245e","system_id":"levelo_inurba_marseille","lat":43.290995,"lon":5.381361,"is_reserved":false,"is_disabled":false,"rental_uris":{"android":"levelo://app?vid=a7af44a6-00b5-4b79-b918-78ee0b57245e","ios":"levelo://app?vid=a7af44a6-00b5-4b79-b918-78ee0b57245e"},"vehicle_type_id":"4","last_reported":1707059151,"current_range_meters":22000,"station_id":"ce4bh512rcd13ifvqe2g","pricing_plan_id":"free"},{"bike_id":"02fefdd2-c91a-46fc-9501-4543c3c10a56","system_id":"levelo_inurba_marseille","lat":43.330442,"lon":5.389148,"is_reserved":false,"is_disabled":false,"rental_uris":{"android":"levelo://app?vid=02fefdd2-c91a-46fc-9501-4543c3c10a56","ios":"levelo://app?vid=02fefdd2-c91a-46fc-9501-4543c3c10a56"},"vehicle_type_id":"4","last_reported":1707059151,"current_range_meters":9600,"station_id":"ce4bhr92rcd13ifvqhrg","pricing_plan_id":"free"},{"bike_id":"84ac4dc3-c2f9-4ae0-bf58-9c14e10a514e","system_id":"levelo_inurba_marseille","lat":43.330442,"lon":5.389148,"is_reserved":false,"is_disabled":false,"rental_uris":{"android":"levelo://app?vid=84ac4dc3-c2f9-4ae0-bf58-9c14e10a514e","ios":"levelo://app?vid=84ac4dc3-c2f9-4ae0-bf58-9c14e10a514e"},"vehicle_type_id":"4","last_reported":1707059151,"current_range_meters":0,"station_id":"ce4bhr92rcd13ifvqhrg","pricing_plan_id":"free"},{"bike_id":"b163826f-36e6-4f22-9a04-d7cad2608ba9","system_id":"levelo_inurba_marseille","lat":43.295169,"lon":5.390426,"is_reserved":false,"is_disabled":false,"rental_uris":{"android":"levelo://app?vid=b163826f-36e6-4f22-9a04-d7cad2608ba9","ios":"levelo://app?vid=b163826f-36e6-4f22-9a04-d7cad2608ba9"},"vehicle_type_id":"4","last_reported":1707059151,"current_range_meters":5600,"station_id":"ce4bh3p2rcd13ifvqdp0","pricing_plan_id":"free"},{"bike_id":"919b1361-7bd6-4652-8196-92352ada993b","system_id":"levelo_inurba_marseille","lat":43.2901,"lon":5.381269,"is_reserved":false,"is_disabled":false,"rental_uris":{"android":"levelo://app?vid=919b1361-7bd6-4652-8196-92352ada993b","ios":"levelo://app?vid=919b1361-7bd6-4652-8196-92352ada993b"},"vehicle_type_id":"4","last_reported":1707059151,"current_range_meters":19200,"station_id":"ce4bh4p2rcd13ifvqe1g","pricing_plan_id":"free"},{"bike_id":"e49de74f-ab3f-4561-8768-c9673d06cfbe","system_id":"levelo_inurba_marseille","lat":43.28856,"lon":5.358371,"is_reserved":false,"is_disabled":false,"rental_uris":{"android":"levelo://app?vid=e49de74f-ab3f-4561-8768-c9673d06cfbe","ios":"levelo://app?vid=e49de74f-ab3f-4561-8768-c9673d06cfbe"},"vehicle_type_id":"4","last_reported":1707059151,"current_range_meters":0,"station_id":"ce4bhb12rcd13ifvqem0","pricing_plan_id":"free"},{"bike_id":"00fcc0c2-d5cd-4aaa-831c-3f8107f3d5fd","system_id":"levelo_inurba_marseille","lat":43.28853,"lon":5.358388,"is_reserved":false,"is_disabled":false,"rental_uris":{"android":"levelo://app?vid=00fcc0c2-d5cd-4aaa-831c-3f8107f3d5fd","ios":"levelo://app?vid=00fcc0c2-d5cd-4aaa-831c-3f8107f3d5fd"},"vehicle_type_id":"4","last_reported":1707059151,"current_range_meters":0,"station_id":"ce4bhb12rcd13ifvqem0","pricing_plan_id":"free"},{"bike_id":"c88b544a-7d5f-44cd-9e90-26ffcf31651a","system_id":"levelo_inurba_marseille","lat":43.32686,"lon":5.39586,"is_reserved":false,"is_disabled":false,"rental_uris":{"android":"levelo://app?vid=c88b544a-7d5f-44cd-9e90-26ffcf31651a","ios":"levelo://app?vid=c88b544a-7d5f-44cd-9e90-26ffcf31651a"},"vehicle_type_id":"4","last_reported":1707059151,"current_range_meters":13200,"station_id":"","pricing_plan_id":"free"},{"bike_id":"ee989f3c-2a91-41ec-bd72-424d87bd6429","system_id":"levelo_inurba_marseille","lat":43.309371,"lon":5.401449,"is_reserved":false,"is_disabled":false,"rental_uris":{"android":"levelo://app?vid=ee989f3c-2a91-41ec-bd72-424d87bd6429","ios":"levelo://app?vid=ee989f3c-2a91-41ec-bd72-424d87bd6429"},"vehicle_type_id":"4","last_reported":1707059151,"current_range_meters":15200,"station_id":"ce4bgvp2rcd13ifvqct0","pricing_plan_id":"free"},{"bike_id":"16bb404d-bc88-488f-9721-013f160d1c46","system_id":"levelo_inurba_marseille","lat":43.312609,"lon":5.401662,"is_reserved":false,"is_disabled":false,"rental_uris":{"android":"levelo://app?vid=16bb404d-bc88-488f-9721-013f160d1c46","ios":"levelo://app?vid=16bb404d-bc88-488f-9721-013f160d1c46"},"vehicle_type_id":"4","last_reported":1707059151,"current_range_meters":24800,"station_id":"ce4bh092rcd13ifvqd30","pricing_plan_id":"free"},{"bike_id":"b5c8cd35-34dd-45ee-b3e7-3050ef3cbe6a","system_id":"levelo_inurba_marseille","lat":43.337673,"lon":5.374918,"is_reserved":false,"is_disabled":false,"rental_uris":{"android":"levelo://app?vid=b5c8cd35-34dd-45ee-b3e7-3050ef3cbe6a","ios":"levelo://app?vid=b5c8cd35-34dd-45ee-b3e7-3050ef3cbe6a"},"vehicle_type_id":"4","last_reported":1707059151,"current_range_meters":12000,"station_id":"","pricing_plan_id":"free"},{"bike_id":"bc765237-65bd-4ff2-bd0e-ae35f166ea39","system_id":"levelo_inurba_marseille","lat":43.286961,"lon":5.373785,"is_reserved":false,"is_disabled":false,"rental_uris":{"android":"levelo://app?vid=bc765237-65bd-4ff2-bd0e-ae35f166ea39","ios":"levelo://app?vid=bc765237-65bd-4ff2-bd0e-ae35f166ea39"},"vehicle_type_id":"4","last_reported":1707059151,"current_range_meters":0,"station_id":"ce4bh3p2rcd13ifvqdq0","pricing_plan_id":"free"},{"bike_id":"3fc8554f-dc4c-43a7-9720-9aa52e4e7a4c","system_id":"levelo_inurba_marseille","lat":43.28659,"lon":5.363446,"is_reserved":false,"is_disabled":false,"rental_uris":{"android":"levelo://app?vid=3fc8554f-dc4c-43a7-9720-9aa52e4e7a4c","ios":"levelo://app?vid=3fc8554f-dc4c-43a7-9720-9aa52e4e7a4c"},"vehicle_type_id":"4","last_reported":1707059151,"current_range_meters":0,"station_id":"ce4bhah2rcd13ifvqej0","pricing_plan_id":"free"},{"bike_id":"20874ff4-1b00-4a68-b869-71ed57fae4f1","system_id":"levelo_inurba_marseille","lat":43.289307,"lon":5.38406,"is_reserved":false,"is_disabled":false,"rental_uris":{"android":"levelo://app?vid=20874ff4-1b00-4a68-b869-71ed57fae4f1","ios":"levelo://app?vid=20874ff4-1b00-4a68-b869-71ed57fae4f1"},"vehicle_type_id":"4","last_reported":1707059151,"current_range_meters":0,"station_id":"ce4bh612rcd13ifvqe6g","pricing_plan_id":"free"},{"bike_id":"a1ebb5a7-a52e-402e-a29e-c7ad1983fc76","system_id":"levelo_inurba_marseille","lat":43.290345,"lon":5.38646,"is_reserved":false,"is_disabled":false,"rental_uris":{"android":"levelo://app?vid=a1ebb5a7-a52e-402e-a29e-c7ad1983fc76","ios":"levelo://app?vid=a1ebb5a7-a52e-402e-a29e-c7ad1983fc76"},"vehicle_type_id":"4","last_reported":1707059151,"current_range_meters":8000,"station_id":"ce4bh4p2rcd13ifvqe0g","pricing_plan_id":"free"},{"bike_id":"c11227b8-6224-4f85-96e9-c50cf8cf602c","system_id":"levelo_inurba_marseille","lat":43.286039,"lon":5.370679,"is_reserved":false,"is_disabled":false,"rental_uris":{"android":"levelo://app?vid=c11227b8-6224-4f85-96e9-c50cf8cf602c","ios":"levelo://app?vid=c11227b8-6224-4f85-96e9-c50cf8cf602c"},"vehicle_type_id":"4","last_reported":1707059151,"current_range_meters":30000,"station_id":"ce4bht12rcd13ifvqi60","pricing_plan_id":"free"},{"bike_id":"60e87ae2-6ca6-4fdd-b3d4-34370e5793f1","system_id":"levelo_inurba_marseille","lat":43.287184,"lon":5.37937,"is_reserved":false,"is_disabled":false,"rental_uris":{"android":"levelo://app?vid=60e87ae2-6ca6-4fdd-b3d4-34370e5793f1","ios":"levelo://app?vid=60e87ae2-6ca6-4fdd-b3d4-34370e5793f1"},"vehicle_type_id":"4","last_reported":1707059151,"current_range_meters":1200,"station_id":"ce4bh9p2rcd13ifvqec0","pricing_plan_id":"free"},{"bike_id":"e2502a09-e13a-4592-9e47-3179803aec03","system_id":"levelo_inurba_marseille","lat":43.291994,"lon":5.392907,"is_reserved":false,"is_disabled":false,"rental_uris":{"android":"levelo://app?vid=e2502a09-e13a-4592-9e47-3179803aec03","ios":"levelo://app?vid=e2502a09-e13a-4592-9e47-3179803aec03"},"vehicle_type_id":"4","last_reported":1707059151,"current_range_meters":4400,"station_id":"ce4bh192rcd13ifvqdd0","pricing_plan_id":"free"},{"bike_id":"73e6e8e3-3fef-4a37-9f23-ee34c52fa3d4","system_id":"levelo_inurba_marseille","lat":43.284538,"lon":5.358657,"is_reserved":false,"is_disabled":false,"rental_uris":{"android":"levelo://app?vid=73e6e8e3-3fef-4a37-9f23-ee34c52fa3d4","ios":"levelo://app?vid=73e6e8e3-3fef-4a37-9f23-ee34c52fa3d4"},"vehicle_type_id":"4","last_reported":1707059151,"current_range_meters":0,"station_id":"ce4bhah2rcd13ifvqei0","pricing_plan_id":"free"},{"bike_id":"959ddf3a-b927-4500-9bac-6857bd30b5d5","system_id":"levelo_inurba_marseille","lat":43.286594,"lon":5.383336,"is_reserved":false,"is_disabled":false,"rental_uris":{"android":"levelo://app?vid=959ddf3a-b927-4500-9bac-6857bd30b5d5","ios":"levelo://app?vid=959ddf3a-b927-4500-9bac-6857bd30b5d5"},"vehicle_type_id":"4","last_reported":1707059151,"current_range_meters":11600,"station_id":"","pricing_plan_id":"free"},{"bike_id":"9f26cd74-ec68-4d4a-a170-8fe6529613b3","system_id":"levelo_inurba_marseille","lat":43.28617,"lon":5.35102,"is_reserved":false,"is_disabled":false,"rental_uris":{"android":"levelo://app?vid=9f26cd74-ec68-4d4a-a170-8fe6529613b3","ios":"levelo://app?vid=9f26cd74-ec68-4d4a-a170-8fe6529613b3"},"vehicle_type_id":"4","last_reported":1707059151,"current_range_meters":0,"station_id":"ce4bhch2rcd13ifvqeug","pricing_plan_id":"free"},{"bike_id":"e03568af-d971-442a-848e-c35d636bd8c6","system_id":"levelo_inurba_marseille","lat":43.285856,"lon":5.350771,"is_reserved":false,"is_disabled":false,"rental_uris":{"android":"levelo://app?vid=e03568af-d971-442a-848e-c35d636bd8c6","ios":"levelo://app?vid=e03568af-d971-442a-848e-c35d636bd8c6"},"vehicle_type_id":"4","last_reported":1707059151,"current_range_meters":0,"station_id":"ce4bhch2rcd13ifvqeug","pricing_plan_id":"free"},{"bike_id":"1b18b81f-ab58-4066-b7ab-186f6b3b3b49","system_id":"levelo_inurba_marseille","lat":43.285856,"lon":5.350771,"is_reserved":false,"is_disabled":false,"rental_uris":{"android":"levelo://app?vid=1b18b81f-ab58-4066-b7ab-186f6b3b3b49","ios":"levelo://app?vid=1b18b81f-ab58-4066-b7ab-186f6b3b3b49"},"vehicle_type_id":"4","last_reported":1707059151,"current_range_meters":25600,"station_id":"ce4bhch2rcd13ifvqeug","pricing_plan_id":"free"},{"bike_id":"8b46f764-8762-4fb3-8d05-acf6bf7c0e97","system_id":"levelo_inurba_marseille","lat":43.295713,"lon":5.399639,"is_reserved":false,"is_disabled":false,"rental_uris":{"android":"levelo://app?vid=8b46f764-8762-4fb3-8d05-acf6bf7c0e97","ios":"levelo://app?vid=8b46f764-8762-4fb3-8d05-acf6bf7c0e97"},"vehicle_type_id":"4","last_reported":1707059151,"current_range_meters":25200,"station_id":"ce4bh312rcd13ifvqdj0","pricing_plan_id":"free"},{"bike_id":"653d83bf-b106-4315-8aaf-2b0e1461ea6b","system_id":"levelo_inurba_marseille","lat":43.28403,"lon":5.37514,"is_reserved":false,"is_disabled":false,"rental_uris":{"android":"levelo://app?vid=653d83bf-b106-4315-8aaf-2b0e1461ea6b","ios":"levelo://app?vid=653d83bf-b106-4315-8aaf-2b0e1461ea6b"},"vehicle_type_id":"4","last_reported":1707059151,"current_range_meters":14400,"station_id":"ce4bh412rcd13ifvqds0","pricing_plan_id":"free"},{"bike_id":"522d349c-ce02-4e22-962a-8ec5b33f98ae","system_id":"levelo_inurba_marseille","lat":43.284,"lon":5.37522,"is_reserved":false,"is_disabled":false,"rental_uris":{"android":"levelo://app?vid=522d349c-ce02-4e22-962a-8ec5b33f98ae","ios":"levelo://app?vid=522d349c-ce02-4e22-962a-8ec5b33f98ae"},"vehicle_type_id":"4","last_reported":1707059151,"current_range_meters":8000,"station_id":"ce4bh412rcd13ifvqds0","pricing_plan_id":"free"},{"bike_id":"ed55e961-e33d-4e96-863a-a02568b59b0a","system_id":"levelo_inurba_marseille","lat":43.337168,"lon":5.391825,"is_reserved":false,"is_disabled":false,"rental_uris":{"android":"levelo://app?vid=ed55e961-e33d-4e96-863a-a02568b59b0a","ios":"levelo://app?vid=ed55e961-e33d-4e96-863a-a02568b59b0a"},"vehicle_type_id":"4","last_reported":1707059151,"current_range_meters":31200,"station_id":"ce4bhr92rcd13ifvqhsg","pricing_plan_id":"free"},{"bike_id":"44e6577f-438a-4aad-bd1e-14888fd1d564","system_id":"levelo_inurba_marseille","lat":43.337168,"lon":5.391825,"is_reserved":false,"is_disabled":false,"rental_uris":{"android":"levelo://app?vid=44e6577f-438a-4aad-bd1e-14888fd1d564","ios":"levelo://app?vid=44e6577f-438a-4aad-bd1e-14888fd1d564"},"vehicle_type_id":"4","last_reported":1707059151,"current_range_meters":25200,"station_id":"ce4bhr92rcd13ifvqhsg","pricing_plan_id":"free"},{"bike_id":"8a1c2056-fcb2-41ec-ae7c-9e0f681280db","system_id":"levelo_inurba_marseille","lat":43.284793,"lon":5.384119,"is_reserved":false,"is_disabled":false,"rental_uris":{"android":"levelo://app?vid=8a1c2056-fcb2-41ec-ae7c-9e0f681280db","ios":"levelo://app?vid=8a1c2056-fcb2-41ec-ae7c-9e0f681280db"},"vehicle_type_id":"4","last_reported":1707059151,"current_range_meters":17200,"station_id":"ce4bh512rcd13ifvqe3g","pricing_plan_id":"free"},{"bike_id":"30617369-dee0-4d55-aa7d-a2f541b0b943","system_id":"levelo_inurba_marseille","lat":43.284327,"lon":5.349813,"is_reserved":false,"is_disabled":false,"rental_uris":{"android":"levelo://app?vid=30617369-dee0-4d55-aa7d-a2f541b0b943","ios":"levelo://app?vid=30617369-dee0-4d55-aa7d-a2f541b0b943"},"vehicle_type_id":"4","last_reported":1707059151,"current_range_meters":5600,"station_id":"ce4bhbh2rcd13ifvqepg","pricing_plan_id":"free"},{"bike_id":"492595be-18eb-4351-87ac-9b941e3b56af","system_id":"levelo_inurba_marseille","lat":43.2843,"lon":5.34987,"is_reserved":false,"is_disabled":false,"rental_uris":{"android":"levelo://app?vid=492595be-18eb-4351-87ac-9b941e3b56af","ios":"levelo://app?vid=492595be-18eb-4351-87ac-9b941e3b56af"},"vehicle_type_id":"4","last_reported":1707059151,"current_range_meters":22000,"station_id":"ce4bhbh2rcd13ifvqepg","pricing_plan_id":"free"},{"bike_id":"16a9f1b8-0677-4a8e-9617-06e698ce8847","system_id":"levelo_inurba_marseille","lat":43.284219,"lon":5.3497,"is_reserved":false,"is_disabled":false,"rental_uris":{"android":"levelo://app?vid=16a9f1b8-0677-4a8e-9617-06e698ce8847","ios":"levelo://app?vid=16a9f1b8-0677-4a8e-9617-06e698ce8847"},"vehicle_type_id":"4","last_reported":1707059151,"current_range_meters":30400,"station_id":"ce4bhbh2rcd13ifvqepg","pricing_plan_id":"free"},{"bike_id":"3e00cf43-5926-47bd-a14a-db256e42594d","system_id":"levelo_inurba_marseille","lat":43.28428,"lon":5.34982,"is_reserved":false,"is_disabled":false,"rental_uris":{"android":"levelo://app?vid=3e00cf43-5926-47bd-a14a-db256e42594d","ios":"levelo://app?vid=3e00cf43-5926-47bd-a14a-db256e42594d"},"vehicle_type_id":"4","last_reported":1707059151,"current_range_meters":5200,"station_id":"ce4bhbh2rcd13ifvqepg","pricing_plan_id":"free"},{"bike_id":"32114bc5-a671-4183-af72-809c38870188","system_id":"levelo_inurba_marseille","lat":43.284219,"lon":5.3497,"is_reserved":false,"is_disabled":false,"rental_uris":{"android":"levelo://app?vid=32114bc5-a671-4183-af72-809c38870188","ios":"levelo://app?vid=32114bc5-a671-4183-af72-809c38870188"},"vehicle_type_id":"4","last_reported":1707059151,"current_range_meters":28800,"station_id":"ce4bhbh2rcd13ifvqepg","pricing_plan_id":"free"},{"bike_id":"aaa8d174-bc7e-45fc-b84f-feaa0da699ff","system_id":"levelo_inurba_marseille","lat":43.28425,"lon":5.34988,"is_reserved":false,"is_disabled":false,"rental_uris":{"android":"levelo://app?vid=aaa8d174-bc7e-45fc-b84f-feaa0da699ff","ios":"levelo://app?vid=aaa8d174-bc7e-45fc-b84f-feaa0da699ff"},"vehicle_type_id":"4","last_reported":1707059151,"current_range_meters":6800,"station_id":"ce4bhbh2rcd13ifvqepg","pricing_plan_id":"free"},{"bike_id":"1c1160ec-ba53-4d80-81ca-a26a619fb0c5","system_id":"levelo_inurba_marseille","lat":43.28422,"lon":5.34993,"is_reserved":false,"is_disabled":false,"rental_uris":{"android":"levelo://app?vid=1c1160ec-ba53-4d80-81ca-a26a619fb0c5","ios":"levelo://app?vid=1c1160ec-ba53-4d80-81ca-a26a619fb0c5"},"vehicle_type_id":"4","last_reported":1707059151,"current_range_meters":16000,"station_id":"ce4bhbh2rcd13ifvqepg","pricing_plan_id":"free"},{"bike_id":"bebd52ad-59f6-44fe-9abe-79af44254e7c","system_id":"levelo_inurba_marseille","lat":43.284219,"lon":5.3497,"is_reserved":false,"is_disabled":false,"rental_uris":{"android":"levelo://app?vid=bebd52ad-59f6-44fe-9abe-79af44254e7c","ios":"levelo://app?vid=bebd52ad-59f6-44fe-9abe-79af44254e7c"},"vehicle_type_id":"4","last_reported":1707059151,"current_range_meters":25600,"station_id":"ce4bhbh2rcd13ifvqepg","pricing_plan_id":"free"},{"bike_id":"fe8148b4-383b-4166-ae6b-778d96be2545","system_id":"levelo_inurba_marseille","lat":43.28426,"lon":5.34977,"is_reserved":false,"is_disabled":false,"rental_uris":{"android":"levelo://app?vid=fe8148b4-383b-4166-ae6b-778d96be2545","ios":"levelo://app?vid=fe8148b4-383b-4166-ae6b-778d96be2545"},"vehicle_type_id":"4","last_reported":1707059151,"current_range_meters":14800,"station_id":"ce4bhbh2rcd13ifvqepg","pricing_plan_id":"free"},{"bike_id":"c64899a9-e222-46ba-a27f-4af3517d49fe","system_id":"levelo_inurba_marseille","lat":43.284214,"lon":5.349706,"is_reserved":false,"is_disabled":false,"rental_uris":{"android":"levelo://app?vid=c64899a9-e222-46ba-a27f-4af3517d49fe","ios":"levelo://app?vid=c64899a9-e222-46ba-a27f-4af3517d49fe"},"vehicle_type_id":"4","last_reported":1707059151,"current_range_meters":22400,"station_id":"ce4bhbh2rcd13ifvqepg","pricing_plan_id":"free"},{"bike_id":"636185c7-8b6d-4579-98c0-a5f0ca8be3b8","system_id":"levelo_inurba_marseille","lat":43.28426,"lon":5.349764,"is_reserved":false,"is_disabled":false,"rental_uris":{"android":"levelo://app?vid=636185c7-8b6d-4579-98c0-a5f0ca8be3b8","ios":"levelo://app?vid=636185c7-8b6d-4579-98c0-a5f0ca8be3b8"},"vehicle_type_id":"4","last_reported":1707059151,"current_range_meters":10800,"station_id":"ce4bhbh2rcd13ifvqepg","pricing_plan_id":"free"},{"bike_id":"e6cb6f19-be98-4726-8ddf-b89e2fec2f30","system_id":"levelo_inurba_marseille","lat":43.284219,"lon":5.3497,"is_reserved":false,"is_disabled":false,"rental_uris":{"android":"levelo://app?vid=e6cb6f19-be98-4726-8ddf-b89e2fec2f30","ios":"levelo://app?vid=e6cb6f19-be98-4726-8ddf-b89e2fec2f30"},"vehicle_type_id":"4","last_reported":1707059151,"current_range_meters":30800,"station_id":"ce4bhbh2rcd13ifvqepg","pricing_plan_id":"free"},{"bike_id":"8ef83839-5ca2-4a5e-81e0-1c7cc05275b6","system_id":"levelo_inurba_marseille","lat":43.284219,"lon":5.3497,"is_reserved":false,"is_disabled":false,"rental_uris":{"android":"levelo://app?vid=8ef83839-5ca2-4a5e-81e0-1c7cc05275b6","ios":"levelo://app?vid=8ef83839-5ca2-4a5e-81e0-1c7cc05275b6"},"vehicle_type_id":"4","last_reported":1707059151,"current_range_meters":800,"station_id":"ce4bhbh2rcd13ifvqepg","pricing_plan_id":"free"},{"bike_id":"6e4dc97b-faf8-4bbb-b059-68da265ce305","system_id":"levelo_inurba_marseille","lat":43.28423,"lon":5.34977,"is_reserved":false,"is_disabled":false,"rental_uris":{"android":"levelo://app?vid=6e4dc97b-faf8-4bbb-b059-68da265ce305","ios":"levelo://app?vid=6e4dc97b-faf8-4bbb-b059-68da265ce305"},"vehicle_type_id":"4","last_reported":1707059151,"current_range_meters":11200,"station_id":"ce4bhbh2rcd13ifvqepg","pricing_plan_id":"free"},{"bike_id":"ff2b5e00-17f0-424d-915e-08ce84a71789","system_id":"levelo_inurba_marseille","lat":43.28419,"lon":5.34984,"is_reserved":false,"is_disabled":false,"rental_uris":{"android":"levelo://app?vid=ff2b5e00-17f0-424d-915e-08ce84a71789","ios":"levelo://app?vid=ff2b5e00-17f0-424d-915e-08ce84a71789"},"vehicle_type_id":"4","last_reported":1707059151,"current_range_meters":20000,"station_id":"ce4bhbh2rcd13ifvqepg","pricing_plan_id":"free"},{"bike_id":"d7a9dd00-cd84-4817-aef0-d49e0610bf56","system_id":"levelo_inurba_marseille","lat":43.284215,"lon":5.349715,"is_reserved":false,"is_disabled":false,"rental_uris":{"android":"levelo://app?vid=d7a9dd00-cd84-4817-aef0-d49e0610bf56","ios":"levelo://app?vid=d7a9dd00-cd84-4817-aef0-d49e0610bf56"},"vehicle_type_id":"4","last_reported":1707059151,"current_range_meters":26000,"station_id":"ce4bhbh2rcd13ifvqepg","pricing_plan_id":"free"},{"bike_id":"8b10fb68-65e8-4488-8491-652e647f63ae","system_id":"levelo_inurba_marseille","lat":43.284119,"lon":5.349966,"is_reserved":false,"is_disabled":false,"rental_uris":{"android":"levelo://app?vid=8b10fb68-65e8-4488-8491-652e647f63ae","ios":"levelo://app?vid=8b10fb68-65e8-4488-8491-652e647f63ae"},"vehicle_type_id":"4","last_reported":1707059151,"current_range_meters":20800,"station_id":"ce4bhbh2rcd13ifvqepg","pricing_plan_id":"free"},{"bike_id":"626192c1-ccdd-4639-be32-8f3b8ba74627","system_id":"levelo_inurba_marseille","lat":43.284217,"lon":5.349697,"is_reserved":false,"is_disabled":false,"rental_uris":{"android":"levelo://app?vid=626192c1-ccdd-4639-be32-8f3b8ba74627","ios":"levelo://app?vid=626192c1-ccdd-4639-be32-8f3b8ba74627"},"vehicle_type_id":"4","last_reported":1707059151,"current_range_meters":24400,"station_id":"ce4bhbh2rcd13ifvqepg","pricing_plan_id":"free"},{"bike_id":"6eb136a8-e457-4c4a-9ce2-7a2c4085b53c","system_id":"levelo_inurba_marseille","lat":43.284142,"lon":5.3498,"is_reserved":false,"is_disabled":false,"rental_uris":{"android":"levelo://app?vid=6eb136a8-e457-4c4a-9ce2-7a2c4085b53c","ios":"levelo://app?vid=6eb136a8-e457-4c4a-9ce2-7a2c4085b53c"},"vehicle_type_id":"4","last_reported":1707059151,"current_range_meters":2000,"station_id":"ce4bhbh2rcd13ifvqepg","pricing_plan_id":"free"},{"bike_id":"2690ece4-b36b-4915-afa5-54b18a3394ca","system_id":"levelo_inurba_marseille","lat":43.284217,"lon":5.349697,"is_reserved":false,"is_disabled":false,"rental_uris":{"android":"levelo://app?vid=2690ece4-b36b-4915-afa5-54b18a3394ca","ios":"levelo://app?vid=2690ece4-b36b-4915-afa5-54b18a3394ca"},"vehicle_type_id":"4","last_reported":1707059151,"current_range_meters":1600,"station_id":"ce4bhbh2rcd13ifvqepg","pricing_plan_id":"free"},{"bike_id":"88e0a032-950e-437f-9b88-5f726f8919c3","system_id":"levelo_inurba_marseille","lat":43.284148,"lon":5.349756,"is_reserved":false,"is_disabled":false,"rental_uris":{"android":"levelo://app?vid=88e0a032-950e-437f-9b88-5f726f8919c3","ios":"levelo://app?vid=88e0a032-950e-437f-9b88-5f726f8919c3"},"vehicle_type_id":"4","last_reported":1707059151,"current_range_meters":10400,"station_id":"ce4bhbh2rcd13ifvqepg","pricing_plan_id":"free"},{"bike_id":"203ebfe2-5a6f-4332-a31a-7bfeae25c44b","system_id":"levelo_inurba_marseille","lat":43.284217,"lon":5.349697,"is_reserved":false,"is_disabled":false,"rental_uris":{"android":"levelo://app?vid=203ebfe2-5a6f-4332-a31a-7bfeae25c44b","ios":"levelo://app?vid=203ebfe2-5a6f-4332-a31a-7bfeae25c44b"},"vehicle_type_id":"4","last_reported":1707059151,"current_range_meters":31200,"station_id":"ce4bhbh2rcd13ifvqepg","pricing_plan_id":"free"},{"bike_id":"9b89050d-53d3-407b-b2f2-e8f87da695aa","system_id":"levelo_inurba_marseille","lat":43.282925,"lon":5.350835,"is_reserved":false,"is_disabled":false,"rental_uris":{"android":"levelo://app?vid=9b89050d-53d3-407b-b2f2-e8f87da695aa","ios":"levelo://app?vid=9b89050d-53d3-407b-b2f2-e8f87da695aa"},"vehicle_type_id":"4","last_reported":1707059151,"current_range_meters":20800,"station_id":"ce4bhbp2rcd13ifvqerg","pricing_plan_id":"free"},{"bike_id":"a643145f-c189-4ff0-917f-824b6e645ecb","system_id":"levelo_inurba_marseille","lat":43.282754,"lon":5.350519,"is_reserved":false,"is_disabled":false,"rental_uris":{"android":"levelo://app?vid=a643145f-c189-4ff0-917f-824b6e645ecb","ios":"levelo://app?vid=a643145f-c189-4ff0-917f-824b6e645ecb"},"vehicle_type_id":"4","last_reported":1707059151,"current_range_meters":6400,"station_id":"ce4bhbp2rcd13ifvqerg","pricing_plan_id":"free"},{"bike_id":"f0a959ba-3b27-4e11-b72c-8e381b1f975b","system_id":"levelo_inurba_marseille","lat":43.282754,"lon":5.350519,"is_reserved":false,"is_disabled":false,"rental_uris":{"android":"levelo://app?vid=f0a959ba-3b27-4e11-b72c-8e381b1f975b","ios":"levelo://app?vid=f0a959ba-3b27-4e11-b72c-8e381b1f975b"},"vehicle_type_id":"4","last_reported":1707059151,"current_range_meters":0,"station_id":"ce4bhbp2rcd13ifvqerg","pricing_plan_id":"free"},{"bike_id":"43b3539d-5bf6-4955-9c57-bf0730b8c981","system_id":"levelo_inurba_marseille","lat":43.282726,"lon":5.350721,"is_reserved":false,"is_disabled":false,"rental_uris":{"android":"levelo://app?vid=43b3539d-5bf6-4955-9c57-bf0730b8c981","ios":"levelo://app?vid=43b3539d-5bf6-4955-9c57-bf0730b8c981"},"vehicle_type_id":"4","last_reported":1707059151,"current_range_meters":27200,"station_id":"ce4bhbp2rcd13ifvqerg","pricing_plan_id":"free"},{"bike_id":"7ed32c65-1122-4585-bec2-28b4f0307fc6","system_id":"levelo_inurba_marseille","lat":43.282697,"lon":5.35076,"is_reserved":false,"is_disabled":false,"rental_uris":{"android":"levelo://app?vid=7ed32c65-1122-4585-bec2-28b4f0307fc6","ios":"levelo://app?vid=7ed32c65-1122-4585-bec2-28b4f0307fc6"},"vehicle_type_id":"4","last_reported":1707059151,"current_range_meters":0,"station_id":"ce4bhbp2rcd13ifvqerg","pricing_plan_id":"free"},{"bike_id":"4837c291-0127-4a5b-9ec4-68f9c4983fe8","system_id":"levelo_inurba_marseille","lat":43.282709,"lon":5.350717,"is_reserved":false,"is_disabled":false,"rental_uris":{"android":"levelo://app?vid=4837c291-0127-4a5b-9ec4-68f9c4983fe8","ios":"levelo://app?vid=4837c291-0127-4a5b-9ec4-68f9c4983fe8"},"vehicle_type_id":"4","last_reported":1707059151,"current_range_meters":11600,"station_id":"ce4bhbp2rcd13ifvqerg","pricing_plan_id":"free"},{"bike_id":"e6120240-2b3c-46e5-a9e5-8e3953bc8ac8","system_id":"levelo_inurba_marseille","lat":43.28266,"lon":5.3507,"is_reserved":false,"is_disabled":false,"rental_uris":{"android":"levelo://app?vid=e6120240-2b3c-46e5-a9e5-8e3953bc8ac8","ios":"levelo://app?vid=e6120240-2b3c-46e5-a9e5-8e3953bc8ac8"},"vehicle_type_id":"4","last_reported":1707059151,"current_range_meters":0,"station_id":"ce4bhbp2rcd13ifvqerg","pricing_plan_id":"free"},{"bike_id":"9deb46c0-fab2-4746-b989-b6c1b86883e8","system_id":"levelo_inurba_marseille","lat":43.282754,"lon":5.350519,"is_reserved":false,"is_disabled":false,"rental_uris":{"android":"levelo://app?vid=9deb46c0-fab2-4746-b989-b6c1b86883e8","ios":"levelo://app?vid=9deb46c0-fab2-4746-b989-b6c1b86883e8"},"vehicle_type_id":"4","last_reported":1707059151,"current_range_meters":17600,"station_id":"ce4bhbp2rcd13ifvqerg","pricing_plan_id":"free"},{"bike_id":"fe5baced-535f-4fc2-83b2-86cc3d5aa8b1","system_id":"levelo_inurba_marseille","lat":43.282754,"lon":5.350519,"is_reserved":false,"is_disabled":false,"rental_uris":{"android":"levelo://app?vid=fe5baced-535f-4fc2-83b2-86cc3d5aa8b1","ios":"levelo://app?vid=fe5baced-535f-4fc2-83b2-86cc3d5aa8b1"},"vehicle_type_id":"4","last_reported":1707059151,"current_range_meters":10800,"station_id":"ce4bhbp2rcd13ifvqerg","pricing_plan_id":"free"},{"bike_id":"dc26217e-ba03-456f-be6d-1933d142d275","system_id":"levelo_inurba_marseille","lat":43.282669,"lon":5.350614,"is_reserved":false,"is_disabled":false,"rental_uris":{"android":"levelo://app?vid=dc26217e-ba03-456f-be6d-1933d142d275","ios":"levelo://app?vid=dc26217e-ba03-456f-be6d-1933d142d275"},"vehicle_type_id":"4","last_reported":1707059151,"current_range_meters":4000,"station_id":"ce4bhbp2rcd13ifvqerg","pricing_plan_id":"free"},{"bike_id":"1d9878ca-76e9-4ba9-95ff-37f2054c5c1d","system_id":"levelo_inurba_marseille","lat":43.282629,"lon":5.350728,"is_reserved":false,"is_disabled":false,"rental_uris":{"android":"levelo://app?vid=1d9878ca-76e9-4ba9-95ff-37f2054c5c1d","ios":"levelo://app?vid=1d9878ca-76e9-4ba9-95ff-37f2054c5c1d"},"vehicle_type_id":"4","last_reported":1707059151,"current_range_meters":9600,"station_id":"ce4bhbp2rcd13ifvqerg","pricing_plan_id":"free"},{"bike_id":"f75fec5e-f27f-41af-8ef9-d0e582849e1d","system_id":"levelo_inurba_marseille","lat":43.28262,"lon":5.35073,"is_reserved":false,"is_disabled":false,"rental_uris":{"android":"levelo://app?vid=f75fec5e-f27f-41af-8ef9-d0e582849e1d","ios":"levelo://app?vid=f75fec5e-f27f-41af-8ef9-d0e582849e1d"},"vehicle_type_id":"4","last_reported":1707059151,"current_range_meters":14800,"station_id":"ce4bhbp2rcd13ifvqerg","pricing_plan_id":"free"},{"bike_id":"ea3868ac-9c8b-4f89-8e5b-f5d0ea832418","system_id":"levelo_inurba_marseille","lat":43.282605,"lon":5.350755,"is_reserved":false,"is_disabled":false,"rental_uris":{"android":"levelo://app?vid=ea3868ac-9c8b-4f89-8e5b-f5d0ea832418","ios":"levelo://app?vid=ea3868ac-9c8b-4f89-8e5b-f5d0ea832418"},"vehicle_type_id":"4","last_reported":1707059151,"current_range_meters":27600,"station_id":"ce4bhbp2rcd13ifvqerg","pricing_plan_id":"free"},{"bike_id":"0e48a345-930e-4cdd-add6-c3c834f908d3","system_id":"levelo_inurba_marseille","lat":43.28265,"lon":5.35057,"is_reserved":false,"is_disabled":false,"rental_uris":{"android":"levelo://app?vid=0e48a345-930e-4cdd-add6-c3c834f908d3","ios":"levelo://app?vid=0e48a345-930e-4cdd-add6-c3c834f908d3"},"vehicle_type_id":"4","last_reported":1707059151,"current_range_meters":0,"station_id":"ce4bhbp2rcd13ifvqerg","pricing_plan_id":"free"},{"bike_id":"f445c9b4-bbb9-43ba-a9b8-dca0b8771bf7","system_id":"levelo_inurba_marseille","lat":43.282754,"lon":5.350519,"is_reserved":false,"is_disabled":false,"rental_uris":{"android":"levelo://app?vid=f445c9b4-bbb9-43ba-a9b8-dca0b8771bf7","ios":"levelo://app?vid=f445c9b4-bbb9-43ba-a9b8-dca0b8771bf7"},"vehicle_type_id":"4","last_reported":1707059151,"current_range_meters":12800,"station_id":"ce4bhbp2rcd13ifvqerg","pricing_plan_id":"free"},{"bike_id":"ab907cdf-e79b-45b7-86f3-3846308a752b","system_id":"levelo_inurba_marseille","lat":43.282571,"lon":5.350661,"is_reserved":false,"is_disabled":false,"rental_uris":{"android":"levelo://app?vid=ab907cdf-e79b-45b7-86f3-3846308a752b","ios":"levelo://app?vid=ab907cdf-e79b-45b7-86f3-3846308a752b"},"vehicle_type_id":"4","last_reported":1707059151,"current_range_meters":29200,"station_id":"ce4bhbp2rcd13ifvqerg","pricing_plan_id":"free"},{"bike_id":"ee999d41-d401-4a32-ad96-d405b0eb8d25","system_id":"levelo_inurba_marseille","lat":43.282555,"lon":5.350587,"is_reserved":false,"is_disabled":false,"rental_uris":{"android":"levelo://app?vid=ee999d41-d401-4a32-ad96-d405b0eb8d25","ios":"levelo://app?vid=ee999d41-d401-4a32-ad96-d405b0eb8d25"},"vehicle_type_id":"4","last_reported":1707059151,"current_range_meters":18400,"station_id":"ce4bhbp2rcd13ifvqerg","pricing_plan_id":"free"},{"bike_id":"eb1e2316-5057-4bb6-b16e-60dd8c33890b","system_id":"levelo_inurba_marseille","lat":43.28039,"lon":5.369297,"is_reserved":false,"is_disabled":false,"rental_uris":{"android":"levelo://app?vid=eb1e2316-5057-4bb6-b16e-60dd8c33890b","ios":"levelo://app?vid=eb1e2316-5057-4bb6-b16e-60dd8c33890b"},"vehicle_type_id":"4","last_reported":1707059151,"current_range_meters":4800,"station_id":"ce4bha12rcd13ifvqef0","pricing_plan_id":"free"},{"bike_id":"71d58b92-edec-48ac-a338-0c7404e39a67","system_id":"levelo_inurba_marseille","lat":43.282533,"lon":5.350041,"is_reserved":false,"is_disabled":false,"rental_uris":{"android":"levelo://app?vid=71d58b92-edec-48ac-a338-0c7404e39a67","ios":"levelo://app?vid=71d58b92-edec-48ac-a338-0c7404e39a67"},"vehicle_type_id":"4","last_reported":1707059151,"current_range_meters":2000,"station_id":"ce4bhbp2rcd13ifvqerg","pricing_plan_id":"free"},{"bike_id":"6e9d51bf-9f05-44f4-bae7-e6e7a6fe4a92","system_id":"levelo_inurba_marseille","lat":43.281044,"lon":5.378308,"is_reserved":false,"is_disabled":false,"rental_uris":{"android":"levelo://app?vid=6e9d51bf-9f05-44f4-bae7-e6e7a6fe4a92","ios":"levelo://app?vid=6e9d51bf-9f05-44f4-bae7-e6e7a6fe4a92"},"vehicle_type_id":"4","last_reported":1707059151,"current_range_meters":22800,"station_id":"ce4bha12rcd13ifvqee0","pricing_plan_id":"free"},{"bike_id":"523c8b62-a394-427c-83ac-1e8f246890d3","system_id":"levelo_inurba_marseille","lat":43.281795,"lon":5.383013,"is_reserved":false,"is_disabled":false,"rental_uris":{"android":"levelo://app?vid=523c8b62-a394-427c-83ac-1e8f246890d3","ios":"levelo://app?vid=523c8b62-a394-427c-83ac-1e8f246890d3"},"vehicle_type_id":"4","last_reported":1707059151,"current_range_meters":2400,"station_id":"","pricing_plan_id":"free"},{"bike_id":"5035c792-005e-48d3-a327-6f17bdce5cd3","system_id":"levelo_inurba_marseille","lat":43.326605,"lon":5.409903,"is_reserved":false,"is_disabled":false,"rental_uris":{"android":"levelo://app?vid=5035c792-005e-48d3-a327-6f17bdce5cd3","ios":"levelo://app?vid=5035c792-005e-48d3-a327-6f17bdce5cd3"},"vehicle_type_id":"4","last_reported":1707059151,"current_range_meters":10800,"station_id":"ce4bhpp2rcd13ifvqhgg","pricing_plan_id":"free"},{"bike_id":"bde9b0fd-1386-4c55-b02a-bed604238378","system_id":"levelo_inurba_marseille","lat":43.326605,"lon":5.409903,"is_reserved":false,"is_disabled":false,"rental_uris":{"android":"levelo://app?vid=bde9b0fd-1386-4c55-b02a-bed604238378","ios":"levelo://app?vid=bde9b0fd-1386-4c55-b02a-bed604238378"},"vehicle_type_id":"4","last_reported":1707059151,"current_range_meters":4800,"station_id":"ce4bhpp2rcd13ifvqhgg","pricing_plan_id":"free"},{"bike_id":"465b1140-422b-4e3f-8759-aa860f7686a1","system_id":"levelo_inurba_marseille","lat":43.326605,"lon":5.409903,"is_reserved":false,"is_disabled":false,"rental_uris":{"android":"levelo://app?vid=465b1140-422b-4e3f-8759-aa860f7686a1","ios":"levelo://app?vid=465b1140-422b-4e3f-8759-aa860f7686a1"},"vehicle_type_id":"4","last_reported":1707059151,"current_range_meters":18400,"station_id":"ce4bhpp2rcd13ifvqhgg","pricing_plan_id":"free"},{"bike_id":"d472e7dc-83cd-468d-8bc1-58307ac30018","system_id":"levelo_inurba_marseille","lat":43.279087,"lon":5.380114,"is_reserved":false,"is_disabled":false,"rental_uris":{"android":"levelo://app?vid=d472e7dc-83cd-468d-8bc1-58307ac30018","ios":"levelo://app?vid=d472e7dc-83cd-468d-8bc1-58307ac30018"},"vehicle_type_id":"4","last_reported":1707059151,"current_range_meters":26800,"station_id":"ce4bhf92rcd13ifvqf50","pricing_plan_id":"free"},{"bike_id":"52c7808f-d582-4086-9569-72a2aace4697","system_id":"levelo_inurba_marseille","lat":43.279087,"lon":5.380114,"is_reserved":false,"is_disabled":false,"rental_uris":{"android":"levelo://app?vid=52c7808f-d582-4086-9569-72a2aace4697","ios":"levelo://app?vid=52c7808f-d582-4086-9569-72a2aace4697"},"vehicle_type_id":"4","last_reported":1707059151,"current_range_meters":400,"station_id":"ce4bhf92rcd13ifvqf50","pricing_plan_id":"free"},{"bike_id":"8054ed49-d5c2-41ab-b125-c4cccc79c11e","system_id":"levelo_inurba_marseille","lat":43.28703,"lon":5.39976,"is_reserved":false,"is_disabled":false,"rental_uris":{"android":"levelo://app?vid=8054ed49-d5c2-41ab-b125-c4cccc79c11e","ios":"levelo://app?vid=8054ed49-d5c2-41ab-b125-c4cccc79c11e"},"vehicle_type_id":"4","last_reported":1707059151,"current_range_meters":0,"station_id":"ce4bho92rcd13ifvqh3g","pricing_plan_id":"free"},{"bike_id":"5bf024dc-9a46-4532-bef6-7586912fa53f","system_id":"levelo_inurba_marseille","lat":43.279742,"lon":5.38744,"is_reserved":false,"is_disabled":false,"rental_uris":{"android":"levelo://app?vid=5bf024dc-9a46-4532-bef6-7586912fa53f","ios":"levelo://app?vid=5bf024dc-9a46-4532-bef6-7586912fa53f"},"vehicle_type_id":"4","last_reported":1707059151,"current_range_meters":16000,"station_id":"ce4bhg12rcd13ifvqf80","pricing_plan_id":"free"},{"bike_id":"8be3ab6c-c5de-4a69-8226-182c61c6d0ca","system_id":"levelo_inurba_marseille","lat":43.279742,"lon":5.38744,"is_reserved":false,"is_disabled":false,"rental_uris":{"android":"levelo://app?vid=8be3ab6c-c5de-4a69-8226-182c61c6d0ca","ios":"levelo://app?vid=8be3ab6c-c5de-4a69-8226-182c61c6d0ca"},"vehicle_type_id":"4","last_reported":1707059151,"current_range_meters":14000,"station_id":"ce4bhg12rcd13ifvqf80","pricing_plan_id":"free"},{"bike_id":"0b836f77-dfd9-4815-9397-c05085812946","system_id":"levelo_inurba_marseille","lat":43.325233,"lon":5.414318,"is_reserved":false,"is_disabled":false,"rental_uris":{"android":"levelo://app?vid=0b836f77-dfd9-4815-9397-c05085812946","ios":"levelo://app?vid=0b836f77-dfd9-4815-9397-c05085812946"},"vehicle_type_id":"4","last_reported":1707059151,"current_range_meters":21200,"station_id":"ce4bhq12rcd13ifvqhhg","pricing_plan_id":"free"},{"bike_id":"41782107-55f5-43f9-822d-6590cad417e5","system_id":"levelo_inurba_marseille","lat":43.276179,"lon":5.361009,"is_reserved":false,"is_disabled":false,"rental_uris":{"android":"levelo://app?vid=41782107-55f5-43f9-822d-6590cad417e5","ios":"levelo://app?vid=41782107-55f5-43f9-822d-6590cad417e5"},"vehicle_type_id":"4","last_reported":1707059151,"current_range_meters":29600,"station_id":"ce4bgj92rcd13ifvqbe0","pricing_plan_id":"free"},{"bike_id":"f5de6bc5-cb6c-4e94-91af-0ccfd0dbd3c6","system_id":"levelo_inurba_marseille","lat":43.325233,"lon":5.414318,"is_reserved":false,"is_disabled":false,"rental_uris":{"android":"levelo://app?vid=f5de6bc5-cb6c-4e94-91af-0ccfd0dbd3c6","ios":"levelo://app?vid=f5de6bc5-cb6c-4e94-91af-0ccfd0dbd3c6"},"vehicle_type_id":"4","last_reported":1707059151,"current_range_meters":31600,"station_id":"ce4bhq12rcd13ifvqhhg","pricing_plan_id":"free"},{"bike_id":"bc5c4b6d-dec2-477e-acce-893da0b8915f","system_id":"levelo_inurba_marseille","lat":43.27616,"lon":5.36112,"is_reserved":false,"is_disabled":false,"rental_uris":{"android":"levelo://app?vid=bc5c4b6d-dec2-477e-acce-893da0b8915f","ios":"levelo://app?vid=bc5c4b6d-dec2-477e-acce-893da0b8915f"},"vehicle_type_id":"4","last_reported":1707059151,"current_range_meters":24400,"station_id":"ce4bgj92rcd13ifvqbe0","pricing_plan_id":"free"},{"bike_id":"84127526-97fa-4bf6-b250-fff7609bc8d7","system_id":"levelo_inurba_marseille","lat":43.325233,"lon":5.414318,"is_reserved":false,"is_disabled":false,"rental_uris":{"android":"levelo://app?vid=84127526-97fa-4bf6-b250-fff7609bc8d7","ios":"levelo://app?vid=84127526-97fa-4bf6-b250-fff7609bc8d7"},"vehicle_type_id":"4","last_reported":1707059151,"current_range_meters":10400,"station_id":"ce4bhq12rcd13ifvqhhg","pricing_plan_id":"free"},{"bike_id":"a64ae969-6446-4caa-a5c1-afe66f9e76fe","system_id":"levelo_inurba_marseille","lat":43.280784,"lon":5.396622,"is_reserved":false,"is_disabled":false,"rental_uris":{"android":"levelo://app?vid=a64ae969-6446-4caa-a5c1-afe66f9e76fe","ios":"levelo://app?vid=a64ae969-6446-4caa-a5c1-afe66f9e76fe"},"vehicle_type_id":"4","last_reported":1707059151,"current_range_meters":2400,"station_id":"ce4bho12rcd13ifvqh2g","pricing_plan_id":"free"},{"bike_id":"d428bc57-661e-4410-b6e0-fd74c417a9aa","system_id":"levelo_inurba_marseille","lat":43.3035,"lon":5.41844,"is_reserved":false,"is_disabled":false,"rental_uris":{"android":"levelo://app?vid=d428bc57-661e-4410-b6e0-fd74c417a9aa","ios":"levelo://app?vid=d428bc57-661e-4410-b6e0-fd74c417a9aa"},"vehicle_type_id":"4","last_reported":1707059151,"current_range_meters":19600,"station_id":"ce4bhop2rcd13ifvqh7g","pricing_plan_id":"free"},{"bike_id":"3ece7263-a09b-4942-bd6d-99e53cd561f3","system_id":"levelo_inurba_marseille","lat":43.27384,"lon":5.36251,"is_reserved":false,"is_disabled":false,"rental_uris":{"android":"levelo://app?vid=3ece7263-a09b-4942-bd6d-99e53cd561f3","ios":"levelo://app?vid=3ece7263-a09b-4942-bd6d-99e53cd561f3"},"vehicle_type_id":"4","last_reported":1707059151,"current_range_meters":12000,"station_id":"ce4bhbh2rcd13ifvqeo0","pricing_plan_id":"free"},{"bike_id":"dca07654-ef30-4793-b615-b1d5a701cb1a","system_id":"levelo_inurba_marseille","lat":43.27384,"lon":5.36247,"is_reserved":false,"is_disabled":false,"rental_uris":{"android":"levelo://app?vid=dca07654-ef30-4793-b615-b1d5a701cb1a","ios":"levelo://app?vid=dca07654-ef30-4793-b615-b1d5a701cb1a"},"vehicle_type_id":"4","last_reported":1707059151,"current_range_meters":15600,"station_id":"ce4bhbh2rcd13ifvqeo0","pricing_plan_id":"free"},{"bike_id":"7cf72504-4c80-430c-9b27-5f10231da0b5","system_id":"levelo_inurba_marseille","lat":43.27383,"lon":5.36246,"is_reserved":false,"is_disabled":false,"rental_uris":{"android":"levelo://app?vid=7cf72504-4c80-430c-9b27-5f10231da0b5","ios":"levelo://app?vid=7cf72504-4c80-430c-9b27-5f10231da0b5"},"vehicle_type_id":"4","last_reported":1707059151,"current_range_meters":28400,"station_id":"ce4bhbh2rcd13ifvqeo0","pricing_plan_id":"free"},{"bike_id":"ad6fdb8e-ba9f-4c41-bbdb-d8a913f8f1c8","system_id":"levelo_inurba_marseille","lat":43.27381,"lon":5.362473,"is_reserved":false,"is_disabled":false,"rental_uris":{"android":"levelo://app?vid=ad6fdb8e-ba9f-4c41-bbdb-d8a913f8f1c8","ios":"levelo://app?vid=ad6fdb8e-ba9f-4c41-bbdb-d8a913f8f1c8"},"vehicle_type_id":"4","last_reported":1707059151,"current_range_meters":15600,"station_id":"ce4bhbh2rcd13ifvqeo0","pricing_plan_id":"free"},{"bike_id":"4e9ddfcf-0294-4f9a-a140-64760d94ccfe","system_id":"levelo_inurba_marseille","lat":43.27379,"lon":5.36252,"is_reserved":false,"is_disabled":false,"rental_uris":{"android":"levelo://app?vid=4e9ddfcf-0294-4f9a-a140-64760d94ccfe","ios":"levelo://app?vid=4e9ddfcf-0294-4f9a-a140-64760d94ccfe"},"vehicle_type_id":"4","last_reported":1707059151,"current_range_meters":4000,"station_id":"ce4bhbh2rcd13ifvqeo0","pricing_plan_id":"free"},{"bike_id":"4041ba7a-3671-48cc-8765-41575cdc6cf3","system_id":"levelo_inurba_marseille","lat":43.27378,"lon":5.36252,"is_reserved":false,"is_disabled":false,"rental_uris":{"android":"levelo://app?vid=4041ba7a-3671-48cc-8765-41575cdc6cf3","ios":"levelo://app?vid=4041ba7a-3671-48cc-8765-41575cdc6cf3"},"vehicle_type_id":"4","last_reported":1707059151,"current_range_meters":0,"station_id":"ce4bhbh2rcd13ifvqeo0","pricing_plan_id":"free"},{"bike_id":"703bf1a7-4097-475f-b875-2e1bca891352","system_id":"levelo_inurba_marseille","lat":43.27377,"lon":5.36251,"is_reserved":false,"is_disabled":false,"rental_uris":{"android":"levelo://app?vid=703bf1a7-4097-475f-b875-2e1bca891352","ios":"levelo://app?vid=703bf1a7-4097-475f-b875-2e1bca891352"},"vehicle_type_id":"4","last_reported":1707059151,"current_range_meters":8400,"station_id":"ce4bhbh2rcd13ifvqeo0","pricing_plan_id":"free"},{"bike_id":"171204c5-c606-47a1-b25c-7288043812fd","system_id":"levelo_inurba_marseille","lat":43.275625,"lon":5.384392,"is_reserved":false,"is_disabled":false,"rental_uris":{"android":"levelo://app?vid=171204c5-c606-47a1-b25c-7288043812fd","ios":"levelo://app?vid=171204c5-c606-47a1-b25c-7288043812fd"},"vehicle_type_id":"4","last_reported":1707059151,"current_range_meters":0,"station_id":"ce4bhh92rcd13ifvqfi0","pricing_plan_id":"free"},{"bike_id":"6015f433-c251-49a5-b342-515d6e138d96","system_id":"levelo_inurba_marseille","lat":43.27371,"lon":5.36247,"is_reserved":false,"is_disabled":false,"rental_uris":{"android":"levelo://app?vid=6015f433-c251-49a5-b342-515d6e138d96","ios":"levelo://app?vid=6015f433-c251-49a5-b342-515d6e138d96"},"vehicle_type_id":"4","last_reported":1707059151,"current_range_meters":0,"station_id":"ce4bhbh2rcd13ifvqeo0","pricing_plan_id":"free"},{"bike_id":"f28c2e13-93df-4d1a-8194-ae82ac4fc28b","system_id":"levelo_inurba_marseille","lat":43.27369,"lon":5.36254,"is_reserved":false,"is_disabled":false,"rental_uris":{"android":"levelo://app?vid=f28c2e13-93df-4d1a-8194-ae82ac4fc28b","ios":"levelo://app?vid=f28c2e13-93df-4d1a-8194-ae82ac4fc28b"},"vehicle_type_id":"4","last_reported":1707059151,"current_range_meters":0,"station_id":"ce4bhbh2rcd13ifvqeo0","pricing_plan_id":"free"},{"bike_id":"83cfee18-fdb6-48c9-910a-cf2c3b18a96a","system_id":"levelo_inurba_marseille","lat":43.317209,"lon":5.423983,"is_reserved":false,"is_disabled":false,"rental_uris":{"android":"levelo://app?vid=83cfee18-fdb6-48c9-910a-cf2c3b18a96a","ios":"levelo://app?vid=83cfee18-fdb6-48c9-910a-cf2c3b18a96a"},"vehicle_type_id":"4","last_reported":1707059151,"current_range_meters":30800,"station_id":"ce4bhp92rcd13ifvqhbg","pricing_plan_id":"free"},{"bike_id":"1b9d636f-659e-44de-91e3-3594bcfb72c1","system_id":"levelo_inurba_marseille","lat":43.310785,"lon":5.424305,"is_reserved":false,"is_disabled":false,"rental_uris":{"android":"levelo://app?vid=1b9d636f-659e-44de-91e3-3594bcfb72c1","ios":"levelo://app?vid=1b9d636f-659e-44de-91e3-3594bcfb72c1"},"vehicle_type_id":"4","last_reported":1707059151,"current_range_meters":1600,"station_id":"ce4bhp92rcd13ifvqhag","pricing_plan_id":"free"},{"bike_id":"d6631a1e-95e1-4d14-9455-b37f6a32279d","system_id":"levelo_inurba_marseille","lat":43.31721,"lon":5.42402,"is_reserved":false,"is_disabled":false,"rental_uris":{"android":"levelo://app?vid=d6631a1e-95e1-4d14-9455-b37f6a32279d","ios":"levelo://app?vid=d6631a1e-95e1-4d14-9455-b37f6a32279d"},"vehicle_type_id":"4","last_reported":1707059151,"current_range_meters":2400,"station_id":"ce4bhp92rcd13ifvqhbg","pricing_plan_id":"free"},{"bike_id":"12e2b105-dcb5-40b2-9315-97c4f28fa71b","system_id":"levelo_inurba_marseille","lat":43.31081,"lon":5.42432,"is_reserved":false,"is_disabled":false,"rental_uris":{"android":"levelo://app?vid=12e2b105-dcb5-40b2-9315-97c4f28fa71b","ios":"levelo://app?vid=12e2b105-dcb5-40b2-9315-97c4f28fa71b"},"vehicle_type_id":"4","last_reported":1707059151,"current_range_meters":0,"station_id":"ce4bhp92rcd13ifvqhag","pricing_plan_id":"free"},{"bike_id":"1ae01579-7e5f-4bb0-ab29-68fe6cde5349","system_id":"levelo_inurba_marseille","lat":43.273788,"lon":5.390756,"is_reserved":false,"is_disabled":false,"rental_uris":{"android":"levelo://app?vid=1ae01579-7e5f-4bb0-ab29-68fe6cde5349","ios":"levelo://app?vid=1ae01579-7e5f-4bb0-ab29-68fe6cde5349"},"vehicle_type_id":"4","last_reported":1707059151,"current_range_meters":26400,"station_id":"","pricing_plan_id":"free"},{"bike_id":"4174ef81-346a-4e40-a932-2e8e0bbd15e6","system_id":"levelo_inurba_marseille","lat":43.273125,"lon":5.390731,"is_reserved":false,"is_disabled":false,"rental_uris":{"android":"levelo://app?vid=4174ef81-346a-4e40-a932-2e8e0bbd15e6","ios":"levelo://app?vid=4174ef81-346a-4e40-a932-2e8e0bbd15e6"},"vehicle_type_id":"4","last_reported":1707059151,"current_range_meters":0,"station_id":"ce4bhgp2rcd13ifvqfe0","pricing_plan_id":"free"},{"bike_id":"19db4689-aad0-47c2-a7e3-a6d209987b5e","system_id":"levelo_inurba_marseille","lat":43.295511,"lon":5.422926,"is_reserved":false,"is_disabled":false,"rental_uris":{"android":"levelo://app?vid=19db4689-aad0-47c2-a7e3-a6d209987b5e","ios":"levelo://app?vid=19db4689-aad0-47c2-a7e3-a6d209987b5e"},"vehicle_type_id":"4","last_reported":1707059151,"current_range_meters":25600,"station_id":"ce4bhph2rcd13ifvqhdg","pricing_plan_id":"free"},{"bike_id":"16e4d47b-ebfc-4350-8c3b-6396e2554d0f","system_id":"levelo_inurba_marseille","lat":43.295511,"lon":5.422926,"is_reserved":false,"is_disabled":false,"rental_uris":{"android":"levelo://app?vid=16e4d47b-ebfc-4350-8c3b-6396e2554d0f","ios":"levelo://app?vid=16e4d47b-ebfc-4350-8c3b-6396e2554d0f"},"vehicle_type_id":"4","last_reported":1707059151,"current_range_meters":19600,"station_id":"ce4bhph2rcd13ifvqhdg","pricing_plan_id":"free"},{"bike_id":"7f766f45-7c73-4713-a492-97e85b5212c8","system_id":"levelo_inurba_marseille","lat":43.295511,"lon":5.422926,"is_reserved":false,"is_disabled":false,"rental_uris":{"android":"levelo://app?vid=7f766f45-7c73-4713-a492-97e85b5212c8","ios":"levelo://app?vid=7f766f45-7c73-4713-a492-97e85b5212c8"},"vehicle_type_id":"4","last_reported":1707059151,"current_range_meters":26400,"station_id":"ce4bhph2rcd13ifvqhdg","pricing_plan_id":"free"},{"bike_id":"6fc77d81-ee78-4855-b62b-145a114cde32","system_id":"levelo_inurba_marseille","lat":43.295511,"lon":5.422926,"is_reserved":false,"is_disabled":false,"rental_uris":{"android":"levelo://app?vid=6fc77d81-ee78-4855-b62b-145a114cde32","ios":"levelo://app?vid=6fc77d81-ee78-4855-b62b-145a114cde32"},"vehicle_type_id":"4","last_reported":1707059151,"current_range_meters":30800,"station_id":"ce4bhph2rcd13ifvqhdg","pricing_plan_id":"free"},{"bike_id":"7419464e-49a0-46af-804b-ffd3169d47c5","system_id":"levelo_inurba_marseille","lat":43.269467,"lon":5.386439,"is_reserved":false,"is_disabled":false,"rental_uris":{"android":"levelo://app?vid=7419464e-49a0-46af-804b-ffd3169d47c5","ios":"levelo://app?vid=7419464e-49a0-46af-804b-ffd3169d47c5"},"vehicle_type_id":"4","last_reported":1707059151,"current_range_meters":0,"station_id":"ce4bhh92rcd13ifvqfh0","pricing_plan_id":"free"},{"bike_id":"28a36e5e-1470-4fac-b8eb-dcfda539a1cb","system_id":"levelo_inurba_marseille","lat":43.278128,"lon":5.407195,"is_reserved":false,"is_disabled":false,"rental_uris":{"android":"levelo://app?vid=28a36e5e-1470-4fac-b8eb-dcfda539a1cb","ios":"levelo://app?vid=28a36e5e-1470-4fac-b8eb-dcfda539a1cb"},"vehicle_type_id":"4","last_reported":1707059151,"current_range_meters":6400,"station_id":"ce4bhnh2rcd13ifvqgtg","pricing_plan_id":"free"},{"bike_id":"a444f06a-51a4-428d-839d-7e9301bb6c91","system_id":"levelo_inurba_marseille","lat":43.295044,"lon":5.426223,"is_reserved":false,"is_disabled":false,"rental_uris":{"android":"levelo://app?vid=a444f06a-51a4-428d-839d-7e9301bb6c91","ios":"levelo://app?vid=a444f06a-51a4-428d-839d-7e9301bb6c91"},"vehicle_type_id":"4","last_reported":1707059151,"current_range_meters":30800,"station_id":"","pricing_plan_id":"free"},{"bike_id":"2de34fcc-423f-483f-afc5-2e21f579036e","system_id":"levelo_inurba_marseille","lat":43.26681,"lon":5.382694,"is_reserved":false,"is_disabled":false,"rental_uris":{"android":"levelo://app?vid=2de34fcc-423f-483f-afc5-2e21f579036e","ios":"levelo://app?vid=2de34fcc-423f-483f-afc5-2e21f579036e"},"vehicle_type_id":"4","last_reported":1707059151,"current_range_meters":7200,"station_id":"ce4bhg92rcd13ifvqf90","pricing_plan_id":"free"},{"bike_id":"4a478d9e-5107-4091-a330-870b61db9a65","system_id":"levelo_inurba_marseille","lat":43.26681,"lon":5.382694,"is_reserved":false,"is_disabled":false,"rental_uris":{"android":"levelo://app?vid=4a478d9e-5107-4091-a330-870b61db9a65","ios":"levelo://app?vid=4a478d9e-5107-4091-a330-870b61db9a65"},"vehicle_type_id":"4","last_reported":1707059151,"current_range_meters":2800,"station_id":"ce4bhg92rcd13ifvqf90","pricing_plan_id":"free"},{"bike_id":"56728d92-4334-4d2f-8d60-c3fc431c901e","system_id":"levelo_inurba_marseille","lat":43.26691,"lon":5.38276,"is_reserved":false,"is_disabled":false,"rental_uris":{"android":"levelo://app?vid=56728d92-4334-4d2f-8d60-c3fc431c901e","ios":"levelo://app?vid=56728d92-4334-4d2f-8d60-c3fc431c901e"},"vehicle_type_id":"4","last_reported":1707059151,"current_range_meters":0,"station_id":"ce4bhg92rcd13ifvqf90","pricing_plan_id":"free"},{"bike_id":"e2607840-4b1e-4b27-ab94-6d1392ceab0c","system_id":"levelo_inurba_marseille","lat":43.26681,"lon":5.382694,"is_reserved":false,"is_disabled":false,"rental_uris":{"android":"levelo://app?vid=e2607840-4b1e-4b27-ab94-6d1392ceab0c","ios":"levelo://app?vid=e2607840-4b1e-4b27-ab94-6d1392ceab0c"},"vehicle_type_id":"4","last_reported":1707059151,"current_range_meters":2000,"station_id":"ce4bhg92rcd13ifvqf90","pricing_plan_id":"free"},{"bike_id":"8dafd87d-084a-4da0-9398-22a6307d033a","system_id":"levelo_inurba_marseille","lat":43.26681,"lon":5.382694,"is_reserved":false,"is_disabled":false,"rental_uris":{"android":"levelo://app?vid=8dafd87d-084a-4da0-9398-22a6307d033a","ios":"levelo://app?vid=8dafd87d-084a-4da0-9398-22a6307d033a"},"vehicle_type_id":"4","last_reported":1707059151,"current_range_meters":17600,"station_id":"ce4bhg92rcd13ifvqf90","pricing_plan_id":"free"},{"bike_id":"0bc49a8b-56aa-4949-9ed0-ed805ff88c63","system_id":"levelo_inurba_marseille","lat":43.27996,"lon":5.416624,"is_reserved":false,"is_disabled":false,"rental_uris":{"android":"levelo://app?vid=0bc49a8b-56aa-4949-9ed0-ed805ff88c63","ios":"levelo://app?vid=0bc49a8b-56aa-4949-9ed0-ed805ff88c63"},"vehicle_type_id":"4","last_reported":1707059151,"current_range_meters":8400,"station_id":"ce4bho12rcd13ifvqh1g","pricing_plan_id":"free"},{"bike_id":"55f6ba18-8b47-4ba0-bb47-0a5234bf0bf1","system_id":"levelo_inurba_marseille","lat":43.267817,"lon":5.394233,"is_reserved":false,"is_disabled":false,"rental_uris":{"android":"levelo://app?vid=55f6ba18-8b47-4ba0-bb47-0a5234bf0bf1","ios":"levelo://app?vid=55f6ba18-8b47-4ba0-bb47-0a5234bf0bf1"},"vehicle_type_id":"4","last_reported":1707059151,"current_range_meters":0,"station_id":"ce4bhh12rcd13ifvqfg0","pricing_plan_id":"free"},{"bike_id":"c9fdcb4a-16c7-439f-99ae-df458f1978c4","system_id":"levelo_inurba_marseille","lat":43.308051,"lon":5.43527,"is_reserved":false,"is_disabled":false,"rental_uris":{"android":"levelo://app?vid=c9fdcb4a-16c7-439f-99ae-df458f1978c4","ios":"levelo://app?vid=c9fdcb4a-16c7-439f-99ae-df458f1978c4"},"vehicle_type_id":"4","last_reported":1707059151,"current_range_meters":14000,"station_id":"ce4bhph2rcd13ifvqheg","pricing_plan_id":"free"},{"bike_id":"4c2c4506-9ec8-4d8d-ba4d-028dfe37e002","system_id":"levelo_inurba_marseille","lat":43.2695,"lon":5.40247,"is_reserved":false,"is_disabled":false,"rental_uris":{"android":"levelo://app?vid=4c2c4506-9ec8-4d8d-ba4d-028dfe37e002","ios":"levelo://app?vid=4c2c4506-9ec8-4d8d-ba4d-028dfe37e002"},"vehicle_type_id":"4","last_reported":1707059151,"current_range_meters":30000,"station_id":"cjm6bp8fraef2m0cb0m0","pricing_plan_id":"free"},{"bike_id":"fca920a5-1d73-4db8-b7b6-75ceb7496db3","system_id":"levelo_inurba_marseille","lat":43.26949,"lon":5.40262,"is_reserved":false,"is_disabled":false,"rental_uris":{"android":"levelo://app?vid=fca920a5-1d73-4db8-b7b6-75ceb7496db3","ios":"levelo://app?vid=fca920a5-1d73-4db8-b7b6-75ceb7496db3"},"vehicle_type_id":"4","last_reported":1707059151,"current_range_meters":4400,"station_id":"cjm6bp8fraef2m0cb0m0","pricing_plan_id":"free"},{"bike_id":"d95bbae0-a80d-4496-88dd-0c4d4c263309","system_id":"levelo_inurba_marseille","lat":43.26949,"lon":5.40262,"is_reserved":false,"is_disabled":false,"rental_uris":{"android":"levelo://app?vid=d95bbae0-a80d-4496-88dd-0c4d4c263309","ios":"levelo://app?vid=d95bbae0-a80d-4496-88dd-0c4d4c263309"},"vehicle_type_id":"4","last_reported":1707059151,"current_range_meters":15600,"station_id":"cjm6bp8fraef2m0cb0m0","pricing_plan_id":"free"},{"bike_id":"64e391e5-5118-4ad9-9666-3b38d78f940c","system_id":"levelo_inurba_marseille","lat":43.26945,"lon":5.40257,"is_reserved":false,"is_disabled":false,"rental_uris":{"android":"levelo://app?vid=64e391e5-5118-4ad9-9666-3b38d78f940c","ios":"levelo://app?vid=64e391e5-5118-4ad9-9666-3b38d78f940c"},"vehicle_type_id":"4","last_reported":1707059151,"current_range_meters":21200,"station_id":"cjm6bp8fraef2m0cb0m0","pricing_plan_id":"free"},{"bike_id":"d6e8b5e2-8cfc-4c20-9c69-ce9800e35925","system_id":"levelo_inurba_marseille","lat":43.261782,"lon":5.374515,"is_reserved":false,"is_disabled":false,"rental_uris":{"android":"levelo://app?vid=d6e8b5e2-8cfc-4c20-9c69-ce9800e35925","ios":"levelo://app?vid=d6e8b5e2-8cfc-4c20-9c69-ce9800e35925"},"vehicle_type_id":"4","last_reported":1707059151,"current_range_meters":14400,"station_id":"ce4bhgp2rcd13ifvqfc0","pricing_plan_id":"free"},{"bike_id":"952cbb2e-c631-441e-9055-c50bb397e67f","system_id":"levelo_inurba_marseille","lat":43.26949,"lon":5.40262,"is_reserved":false,"is_disabled":false,"rental_uris":{"android":"levelo://app?vid=952cbb2e-c631-441e-9055-c50bb397e67f","ios":"levelo://app?vid=952cbb2e-c631-441e-9055-c50bb397e67f"},"vehicle_type_id":"4","last_reported":1707059151,"current_range_meters":30000,"station_id":"cjm6bp8fraef2m0cb0m0","pricing_plan_id":"free"},{"bike_id":"3b97f61f-c01c-4096-9f1a-108c714e06bf","system_id":"levelo_inurba_marseille","lat":43.269403,"lon":5.402643,"is_reserved":false,"is_disabled":false,"rental_uris":{"android":"levelo://app?vid=3b97f61f-c01c-4096-9f1a-108c714e06bf","ios":"levelo://app?vid=3b97f61f-c01c-4096-9f1a-108c714e06bf"},"vehicle_type_id":"4","last_reported":1707059151,"current_range_meters":5600,"station_id":"cjm6bp8fraef2m0cb0m0","pricing_plan_id":"free"},{"bike_id":"43e71970-a6db-40d4-b51a-605e7262b4d4","system_id":"levelo_inurba_marseille","lat":43.26922,"lon":5.4025,"is_reserved":false,"is_disabled":false,"rental_uris":{"android":"levelo://app?vid=43e71970-a6db-40d4-b51a-605e7262b4d4","ios":"levelo://app?vid=43e71970-a6db-40d4-b51a-605e7262b4d4"},"vehicle_type_id":"4","last_reported":1707059151,"current_range_meters":26400,"station_id":"cjm6bp8fraef2m0cb0m0","pricing_plan_id":"free"},{"bike_id":"a9786a34-e777-4d81-9ae7-1a315bad5828","system_id":"levelo_inurba_marseille","lat":43.261782,"lon":5.374515,"is_reserved":false,"is_disabled":false,"rental_uris":{"android":"levelo://app?vid=a9786a34-e777-4d81-9ae7-1a315bad5828","ios":"levelo://app?vid=a9786a34-e777-4d81-9ae7-1a315bad5828"},"vehicle_type_id":"4","last_reported":1707059151,"current_range_meters":22800,"station_id":"ce4bhgp2rcd13ifvqfc0","pricing_plan_id":"free"},{"bike_id":"487a6431-c190-4452-917a-1cceebc80f4e","system_id":"levelo_inurba_marseille","lat":43.26195,"lon":5.37441,"is_reserved":false,"is_disabled":false,"rental_uris":{"android":"levelo://app?vid=487a6431-c190-4452-917a-1cceebc80f4e","ios":"levelo://app?vid=487a6431-c190-4452-917a-1cceebc80f4e"},"vehicle_type_id":"4","last_reported":1707059151,"current_range_meters":16800,"station_id":"ce4bhgp2rcd13ifvqfc0","pricing_plan_id":"free"},{"bike_id":"8f736a5a-e896-49c5-8659-fa3dd4cf4145","system_id":"levelo_inurba_marseille","lat":43.26195,"lon":5.37442,"is_reserved":false,"is_disabled":false,"rental_uris":{"android":"levelo://app?vid=8f736a5a-e896-49c5-8659-fa3dd4cf4145","ios":"levelo://app?vid=8f736a5a-e896-49c5-8659-fa3dd4cf4145"},"vehicle_type_id":"4","last_reported":1707059151,"current_range_meters":16400,"station_id":"ce4bhgp2rcd13ifvqfc0","pricing_plan_id":"free"},{"bike_id":"1de6e920-1b48-4c2d-a49f-708571c53507","system_id":"levelo_inurba_marseille","lat":43.26194,"lon":5.37443,"is_reserved":false,"is_disabled":false,"rental_uris":{"android":"levelo://app?vid=1de6e920-1b48-4c2d-a49f-708571c53507","ios":"levelo://app?vid=1de6e920-1b48-4c2d-a49f-708571c53507"},"vehicle_type_id":"4","last_reported":1707059151,"current_range_meters":0,"station_id":"ce4bhgp2rcd13ifvqfc0","pricing_plan_id":"free"},{"bike_id":"be45ea25-47b9-47a7-adf5-ebfb7c1acb8c","system_id":"levelo_inurba_marseille","lat":43.26193,"lon":5.37443,"is_reserved":false,"is_disabled":false,"rental_uris":{"android":"levelo://app?vid=be45ea25-47b9-47a7-adf5-ebfb7c1acb8c","ios":"levelo://app?vid=be45ea25-47b9-47a7-adf5-ebfb7c1acb8c"},"vehicle_type_id":"4","last_reported":1707059151,"current_range_meters":8000,"station_id":"ce4bhgp2rcd13ifvqfc0","pricing_plan_id":"free"},{"bike_id":"1faab310-f870-4ecd-a93e-fe326884efce","system_id":"levelo_inurba_marseille","lat":43.26193,"lon":5.37446,"is_reserved":false,"is_disabled":false,"rental_uris":{"android":"levelo://app?vid=1faab310-f870-4ecd-a93e-fe326884efce","ios":"levelo://app?vid=1faab310-f870-4ecd-a93e-fe326884efce"},"vehicle_type_id":"4","last_reported":1707059151,"current_range_meters":1200,"station_id":"ce4bhgp2rcd13ifvqfc0","pricing_plan_id":"free"},{"bike_id":"d3f8a469-5444-4385-ac9d-3a9d01e8960b","system_id":"levelo_inurba_marseille","lat":43.261782,"lon":5.374515,"is_reserved":false,"is_disabled":false,"rental_uris":{"android":"levelo://app?vid=d3f8a469-5444-4385-ac9d-3a9d01e8960b","ios":"levelo://app?vid=d3f8a469-5444-4385-ac9d-3a9d01e8960b"},"vehicle_type_id":"4","last_reported":1707059151,"current_range_meters":20000,"station_id":"ce4bhgp2rcd13ifvqfc0","pricing_plan_id":"free"},{"bike_id":"bf4d5582-27f0-49d8-9f9d-293ad3f8c5b1","system_id":"levelo_inurba_marseille","lat":43.26191,"lon":5.37442,"is_reserved":false,"is_disabled":false,"rental_uris":{"android":"levelo://app?vid=bf4d5582-27f0-49d8-9f9d-293ad3f8c5b1","ios":"levelo://app?vid=bf4d5582-27f0-49d8-9f9d-293ad3f8c5b1"},"vehicle_type_id":"4","last_reported":1707059151,"current_range_meters":21600,"station_id":"ce4bhgp2rcd13ifvqfc0","pricing_plan_id":"free"},{"bike_id":"86f03400-c267-4753-a282-c09582aa5b13","system_id":"levelo_inurba_marseille","lat":43.26191,"lon":5.37448,"is_reserved":false,"is_disabled":false,"rental_uris":{"android":"levelo://app?vid=86f03400-c267-4753-a282-c09582aa5b13","ios":"levelo://app?vid=86f03400-c267-4753-a282-c09582aa5b13"},"vehicle_type_id":"4","last_reported":1707059151,"current_range_meters":10000,"station_id":"ce4bhgp2rcd13ifvqfc0","pricing_plan_id":"free"},{"bike_id":"2e56ab08-6cc6-42b5-9814-6dbed704a2ed","system_id":"levelo_inurba_marseille","lat":43.261782,"lon":5.374515,"is_reserved":false,"is_disabled":false,"rental_uris":{"android":"levelo://app?vid=2e56ab08-6cc6-42b5-9814-6dbed704a2ed","ios":"levelo://app?vid=2e56ab08-6cc6-42b5-9814-6dbed704a2ed"},"vehicle_type_id":"4","last_reported":1707059151,"current_range_meters":2000,"station_id":"ce4bhgp2rcd13ifvqfc0","pricing_plan_id":"free"},{"bike_id":"bc3151be-430c-4d94-8ad4-89aa4a93c5a4","system_id":"levelo_inurba_marseille","lat":43.2619,"lon":5.37443,"is_reserved":false,"is_disabled":false,"rental_uris":{"android":"levelo://app?vid=bc3151be-430c-4d94-8ad4-89aa4a93c5a4","ios":"levelo://app?vid=bc3151be-430c-4d94-8ad4-89aa4a93c5a4"},"vehicle_type_id":"4","last_reported":1707059151,"current_range_meters":6000,"station_id":"ce4bhgp2rcd13ifvqfc0","pricing_plan_id":"free"},{"bike_id":"f0ac32e6-0b1d-4468-861b-d61d15a76105","system_id":"levelo_inurba_marseille","lat":43.261782,"lon":5.374515,"is_reserved":false,"is_disabled":false,"rental_uris":{"android":"levelo://app?vid=f0ac32e6-0b1d-4468-861b-d61d15a76105","ios":"levelo://app?vid=f0ac32e6-0b1d-4468-861b-d61d15a76105"},"vehicle_type_id":"4","last_reported":1707059151,"current_range_meters":11200,"station_id":"ce4bhgp2rcd13ifvqfc0","pricing_plan_id":"free"},{"bike_id":"87ebfae6-223f-4bb7-8107-22ced7b16c65","system_id":"levelo_inurba_marseille","lat":43.261782,"lon":5.374515,"is_reserved":false,"is_disabled":false,"rental_uris":{"android":"levelo://app?vid=87ebfae6-223f-4bb7-8107-22ced7b16c65","ios":"levelo://app?vid=87ebfae6-223f-4bb7-8107-22ced7b16c65"},"vehicle_type_id":"4","last_reported":1707059151,"current_range_meters":0,"station_id":"ce4bhgp2rcd13ifvqfc0","pricing_plan_id":"free"},{"bike_id":"4d43b406-9ba2-49cc-b445-607477d64e35","system_id":"levelo_inurba_marseille","lat":43.26188,"lon":5.37447,"is_reserved":false,"is_disabled":false,"rental_uris":{"android":"levelo://app?vid=4d43b406-9ba2-49cc-b445-607477d64e35","ios":"levelo://app?vid=4d43b406-9ba2-49cc-b445-607477d64e35"},"vehicle_type_id":"4","last_reported":1707059151,"current_range_meters":22800,"station_id":"ce4bhgp2rcd13ifvqfc0","pricing_plan_id":"free"},{"bike_id":"413a8a7a-5fcc-4b5d-8225-a2b658c3e057","system_id":"levelo_inurba_marseille","lat":43.261782,"lon":5.374515,"is_reserved":false,"is_disabled":false,"rental_uris":{"android":"levelo://app?vid=413a8a7a-5fcc-4b5d-8225-a2b658c3e057","ios":"levelo://app?vid=413a8a7a-5fcc-4b5d-8225-a2b658c3e057"},"vehicle_type_id":"4","last_reported":1707059151,"current_range_meters":20800,"station_id":"ce4bhgp2rcd13ifvqfc0","pricing_plan_id":"free"},{"bike_id":"90c02fd9-1983-4474-9c19-57a295a85ac3","system_id":"levelo_inurba_marseille","lat":43.26179,"lon":5.37446,"is_reserved":false,"is_disabled":false,"rental_uris":{"android":"levelo://app?vid=90c02fd9-1983-4474-9c19-57a295a85ac3","ios":"levelo://app?vid=90c02fd9-1983-4474-9c19-57a295a85ac3"},"vehicle_type_id":"4","last_reported":1707059151,"current_range_meters":30000,"station_id":"ce4bhgp2rcd13ifvqfc0","pricing_plan_id":"free"},{"bike_id":"b8674d40-e0c3-4ba4-9b03-368745af9b70","system_id":"levelo_inurba_marseille","lat":43.26212,"lon":5.37925,"is_reserved":false,"is_disabled":false,"rental_uris":{"android":"levelo://app?vid=b8674d40-e0c3-4ba4-9b03-368745af9b70","ios":"levelo://app?vid=b8674d40-e0c3-4ba4-9b03-368745af9b70"},"vehicle_type_id":"4","last_reported":1707059151,"current_range_meters":8000,"station_id":"ce4bhjp2rcd13ifvqg90","pricing_plan_id":"free"},{"bike_id":"f7dea84d-293a-4447-b822-b6e5ed678e1a","system_id":"levelo_inurba_marseille","lat":43.262012,"lon":5.379307,"is_reserved":false,"is_disabled":false,"rental_uris":{"android":"levelo://app?vid=f7dea84d-293a-4447-b822-b6e5ed678e1a","ios":"levelo://app?vid=f7dea84d-293a-4447-b822-b6e5ed678e1a"},"vehicle_type_id":"4","last_reported":1707059151,"current_range_meters":28000,"station_id":"ce4bhjp2rcd13ifvqg90","pricing_plan_id":"free"},{"bike_id":"7e4a4b62-9401-4ccb-a9c0-fb48fdec02b7","system_id":"levelo_inurba_marseille","lat":43.262012,"lon":5.379307,"is_reserved":false,"is_disabled":false,"rental_uris":{"android":"levelo://app?vid=7e4a4b62-9401-4ccb-a9c0-fb48fdec02b7","ios":"levelo://app?vid=7e4a4b62-9401-4ccb-a9c0-fb48fdec02b7"},"vehicle_type_id":"4","last_reported":1707059151,"current_range_meters":22400,"station_id":"ce4bhjp2rcd13ifvqg90","pricing_plan_id":"free"},{"bike_id":"b7d90119-dfb8-46c7-9c4f-63bda6140060","system_id":"levelo_inurba_marseille","lat":43.262012,"lon":5.379307,"is_reserved":false,"is_disabled":false,"rental_uris":{"android":"levelo://app?vid=b7d90119-dfb8-46c7-9c4f-63bda6140060","ios":"levelo://app?vid=b7d90119-dfb8-46c7-9c4f-63bda6140060"},"vehicle_type_id":"4","last_reported":1707059151,"current_range_meters":3200,"station_id":"ce4bhjp2rcd13ifvqg90","pricing_plan_id":"free"},{"bike_id":"f4cb121b-e015-4a88-b4a1-52fe904b4379","system_id":"levelo_inurba_marseille","lat":43.262012,"lon":5.379307,"is_reserved":false,"is_disabled":false,"rental_uris":{"android":"levelo://app?vid=f4cb121b-e015-4a88-b4a1-52fe904b4379","ios":"levelo://app?vid=f4cb121b-e015-4a88-b4a1-52fe904b4379"},"vehicle_type_id":"4","last_reported":1707059151,"current_range_meters":0,"station_id":"ce4bhjp2rcd13ifvqg90","pricing_plan_id":"free"},{"bike_id":"b2b958a0-cfe8-40fa-8917-2872c76847dc","system_id":"levelo_inurba_marseille","lat":43.262012,"lon":5.379307,"is_reserved":false,"is_disabled":false,"rental_uris":{"android":"levelo://app?vid=b2b958a0-cfe8-40fa-8917-2872c76847dc","ios":"levelo://app?vid=b2b958a0-cfe8-40fa-8917-2872c76847dc"},"vehicle_type_id":"4","last_reported":1707059151,"current_range_meters":4400,"station_id":"ce4bhjp2rcd13ifvqg90","pricing_plan_id":"free"},{"bike_id":"a1f13d4f-40c1-4973-8af9-ab4ec597183e","system_id":"levelo_inurba_marseille","lat":43.298768,"lon":5.43643,"is_reserved":false,"is_disabled":false,"rental_uris":{"android":"levelo://app?vid=a1f13d4f-40c1-4973-8af9-ab4ec597183e","ios":"levelo://app?vid=a1f13d4f-40c1-4973-8af9-ab4ec597183e"},"vehicle_type_id":"4","last_reported":1707059151,"current_range_meters":29200,"station_id":"ce4bhpp2rcd13ifvqhfg","pricing_plan_id":"free"},{"bike_id":"b436f80c-f0d6-426e-83d9-b4e36922277a","system_id":"levelo_inurba_marseille","lat":43.298768,"lon":5.43643,"is_reserved":false,"is_disabled":false,"rental_uris":{"android":"levelo://app?vid=b436f80c-f0d6-426e-83d9-b4e36922277a","ios":"levelo://app?vid=b436f80c-f0d6-426e-83d9-b4e36922277a"},"vehicle_type_id":"4","last_reported":1707059151,"current_range_meters":6800,"station_id":"ce4bhpp2rcd13ifvqhfg","pricing_plan_id":"free"},{"bike_id":"7bc52a41-8819-464c-ad33-7cc011795736","system_id":"levelo_inurba_marseille","lat":43.298768,"lon":5.43643,"is_reserved":false,"is_disabled":false,"rental_uris":{"android":"levelo://app?vid=7bc52a41-8819-464c-ad33-7cc011795736","ios":"levelo://app?vid=7bc52a41-8819-464c-ad33-7cc011795736"},"vehicle_type_id":"4","last_reported":1707059151,"current_range_meters":10400,"station_id":"ce4bhpp2rcd13ifvqhfg","pricing_plan_id":"free"},{"bike_id":"4fa9b6ef-3be2-4fed-85a0-f6e00cfeb1f3","system_id":"levelo_inurba_marseille","lat":43.298768,"lon":5.43643,"is_reserved":false,"is_disabled":false,"rental_uris":{"android":"levelo://app?vid=4fa9b6ef-3be2-4fed-85a0-f6e00cfeb1f3","ios":"levelo://app?vid=4fa9b6ef-3be2-4fed-85a0-f6e00cfeb1f3"},"vehicle_type_id":"4","last_reported":1707059151,"current_range_meters":4000,"station_id":"ce4bhpp2rcd13ifvqhfg","pricing_plan_id":"free"},{"bike_id":"0354ad77-35a7-46f0-80df-d54f991a5611","system_id":"levelo_inurba_marseille","lat":43.298768,"lon":5.43643,"is_reserved":false,"is_disabled":false,"rental_uris":{"android":"levelo://app?vid=0354ad77-35a7-46f0-80df-d54f991a5611","ios":"levelo://app?vid=0354ad77-35a7-46f0-80df-d54f991a5611"},"vehicle_type_id":"4","last_reported":1707059151,"current_range_meters":7200,"station_id":"ce4bhpp2rcd13ifvqhfg","pricing_plan_id":"free"},{"bike_id":"bd7933ee-87ca-43c3-b10c-902bc27ff5f5","system_id":"levelo_inurba_marseille","lat":43.298768,"lon":5.43643,"is_reserved":false,"is_disabled":false,"rental_uris":{"android":"levelo://app?vid=bd7933ee-87ca-43c3-b10c-902bc27ff5f5","ios":"levelo://app?vid=bd7933ee-87ca-43c3-b10c-902bc27ff5f5"},"vehicle_type_id":"4","last_reported":1707059151,"current_range_meters":24000,"station_id":"ce4bhpp2rcd13ifvqhfg","pricing_plan_id":"free"},{"bike_id":"cc8bcdd7-5df2-437f-80d8-28038888cff9","system_id":"levelo_inurba_marseille","lat":43.298768,"lon":5.43643,"is_reserved":false,"is_disabled":false,"rental_uris":{"android":"levelo://app?vid=cc8bcdd7-5df2-437f-80d8-28038888cff9","ios":"levelo://app?vid=cc8bcdd7-5df2-437f-80d8-28038888cff9"},"vehicle_type_id":"4","last_reported":1707059151,"current_range_meters":17200,"station_id":"ce4bhpp2rcd13ifvqhfg","pricing_plan_id":"free"},{"bike_id":"b8c4896f-6740-4a2c-9c8b-74613eea0568","system_id":"levelo_inurba_marseille","lat":43.298768,"lon":5.43643,"is_reserved":false,"is_disabled":false,"rental_uris":{"android":"levelo://app?vid=b8c4896f-6740-4a2c-9c8b-74613eea0568","ios":"levelo://app?vid=b8c4896f-6740-4a2c-9c8b-74613eea0568"},"vehicle_type_id":"4","last_reported":1707059151,"current_range_meters":22400,"station_id":"ce4bhpp2rcd13ifvqhfg","pricing_plan_id":"free"},{"bike_id":"ddbc3e1e-a157-4d29-896a-bacac689e9ff","system_id":"levelo_inurba_marseille","lat":43.298768,"lon":5.43643,"is_reserved":false,"is_disabled":false,"rental_uris":{"android":"levelo://app?vid=ddbc3e1e-a157-4d29-896a-bacac689e9ff","ios":"levelo://app?vid=ddbc3e1e-a157-4d29-896a-bacac689e9ff"},"vehicle_type_id":"4","last_reported":1707059151,"current_range_meters":18800,"station_id":"ce4bhpp2rcd13ifvqhfg","pricing_plan_id":"free"},{"bike_id":"955ed60e-de9c-4e7f-bc7d-a0a419f6dae2","system_id":"levelo_inurba_marseille","lat":43.260225,"lon":5.375455,"is_reserved":false,"is_disabled":false,"rental_uris":{"android":"levelo://app?vid=955ed60e-de9c-4e7f-bc7d-a0a419f6dae2","ios":"levelo://app?vid=955ed60e-de9c-4e7f-bc7d-a0a419f6dae2"},"vehicle_type_id":"4","last_reported":1707059151,"current_range_meters":23600,"station_id":"ce4bhgh2rcd13ifvqfa0","pricing_plan_id":"free"},{"bike_id":"78c8b673-6d67-49d9-99e1-48ef583595f1","system_id":"levelo_inurba_marseille","lat":43.260219,"lon":5.37546,"is_reserved":false,"is_disabled":false,"rental_uris":{"android":"levelo://app?vid=78c8b673-6d67-49d9-99e1-48ef583595f1","ios":"levelo://app?vid=78c8b673-6d67-49d9-99e1-48ef583595f1"},"vehicle_type_id":"4","last_reported":1707059151,"current_range_meters":24400,"station_id":"ce4bhgh2rcd13ifvqfa0","pricing_plan_id":"free"},{"bike_id":"10efb15d-c622-4a19-984f-9939e162470b","system_id":"levelo_inurba_marseille","lat":43.260219,"lon":5.37546,"is_reserved":false,"is_disabled":false,"rental_uris":{"android":"levelo://app?vid=10efb15d-c622-4a19-984f-9939e162470b","ios":"levelo://app?vid=10efb15d-c622-4a19-984f-9939e162470b"},"vehicle_type_id":"4","last_reported":1707059151,"current_range_meters":18000,"station_id":"ce4bhgh2rcd13ifvqfa0","pricing_plan_id":"free"},{"bike_id":"3f8e87e9-031e-41a2-8717-0742b36e14dc","system_id":"levelo_inurba_marseille","lat":43.260219,"lon":5.37546,"is_reserved":false,"is_disabled":false,"rental_uris":{"android":"levelo://app?vid=3f8e87e9-031e-41a2-8717-0742b36e14dc","ios":"levelo://app?vid=3f8e87e9-031e-41a2-8717-0742b36e14dc"},"vehicle_type_id":"4","last_reported":1707059151,"current_range_meters":0,"station_id":"ce4bhgh2rcd13ifvqfa0","pricing_plan_id":"free"},{"bike_id":"7f0361e9-f12e-4328-8c37-5cd186d08690","system_id":"levelo_inurba_marseille","lat":43.29908,"lon":5.43731,"is_reserved":false,"is_disabled":false,"rental_uris":{"android":"levelo://app?vid=7f0361e9-f12e-4328-8c37-5cd186d08690","ios":"levelo://app?vid=7f0361e9-f12e-4328-8c37-5cd186d08690"},"vehicle_type_id":"4","last_reported":1707059151,"current_range_meters":10400,"station_id":"","pricing_plan_id":"free"},{"bike_id":"95409872-41f2-43e7-84c0-e292ef77fcbc","system_id":"levelo_inurba_marseille","lat":43.281548,"lon":5.42643,"is_reserved":false,"is_disabled":false,"rental_uris":{"android":"levelo://app?vid=95409872-41f2-43e7-84c0-e292ef77fcbc","ios":"levelo://app?vid=95409872-41f2-43e7-84c0-e292ef77fcbc"},"vehicle_type_id":"4","last_reported":1707059151,"current_range_meters":27200,"station_id":"ce4bhnh2rcd13ifvqgug","pricing_plan_id":"free"},{"bike_id":"b8a7a3c4-e948-4b1d-9ef9-0fdc47f69b57","system_id":"levelo_inurba_marseille","lat":43.281548,"lon":5.42643,"is_reserved":false,"is_disabled":false,"rental_uris":{"android":"levelo://app?vid=b8a7a3c4-e948-4b1d-9ef9-0fdc47f69b57","ios":"levelo://app?vid=b8a7a3c4-e948-4b1d-9ef9-0fdc47f69b57"},"vehicle_type_id":"4","last_reported":1707059151,"current_range_meters":30800,"station_id":"ce4bhnh2rcd13ifvqgug","pricing_plan_id":"free"},{"bike_id":"fcfd65cf-e89a-41b0-bd70-6c48eae7fd18","system_id":"levelo_inurba_marseille","lat":43.281548,"lon":5.42643,"is_reserved":false,"is_disabled":false,"rental_uris":{"android":"levelo://app?vid=fcfd65cf-e89a-41b0-bd70-6c48eae7fd18","ios":"levelo://app?vid=fcfd65cf-e89a-41b0-bd70-6c48eae7fd18"},"vehicle_type_id":"4","last_reported":1707059151,"current_range_meters":3200,"station_id":"ce4bhnh2rcd13ifvqgug","pricing_plan_id":"free"},