{"last_updated":1753398688,"ttl":60,"version":"2.2","data":{"bikes":[{"bike_id":"12aa18e6-54b4-4f17-8d75-27573f932a0c","system_id":"levelo_inurba_marseille","lat":43.296823,"lon":5.372723,"is_reserved":false,"is_disabled":true,"rental_uris":{"android":"levelo://app?vid=12aa18e6-54b4-4f17-8d75-27573f932a0c","ios":"levelo://app?vid=12aa18e6-54b4-4f17-8d75-27573f932a0c"},"vehicle_type_id":"4","last_reported":1753398688,"current_range_meters":2800,"station_id":"ce4bgk12rcd13ifvqbj0","pricing_plan_id":"cebpf4jnsgd1na2vs0mg"},{"bike_id":"09a8bc6a-ab3a-4c9e-b873-b672b12f169e","system_id":"levelo_inurba_marseille","lat":43.297792,"lon":5.37104,"is_reserved":false,"is_disabled":true,"rental_uris":{"android":"levelo://app?vid=09a8bc6a-ab3a-4c9e-b873-b672b12f169e","ios":"levelo://app?vid=09a8bc6a-ab3a-4c9e-b873-b672b12f169e"},"vehicle_type_id":"4","last_reported":1753398688,"current_range_meters":3200,"station_id":"","pricing_plan_id":"cebpf4jnsgd1na2vs0mg"},{"bike_id":"c8cbe188-8c80-4aac-881d-65feb870e521","system_id":"levelo_inurba_marseille","lat":43.33114,"lon":5.37389,"is_reserved":false,"is_disabled":true,"rental_uris":{"android":"levelo://app?vid=c8cbe188-8c80-4aac-881d-65feb870e521","ios":"levelo://app?vid=c8cbe188-8c80-4aac-881d-65feb870e521"},"vehicle_type_id":"4","last_reported":1753398688,"current_range_meters":3200,"station_id":"","pricing_plan_id":"cebpf4jnsgd1na2vs0mg"},{"bike_id":"74385b60-723f-46a4-85d7-a8c2a4613294","system_id":"levelo_inurba_marseille","lat":43.29277,"lon":5.40113,"is_reserved":false,"is_disabled":false,"rental_uris":{"android":"levelo://app?vid=74385b60-723f-46a4-85d7-a8c2a4613294","ios":"levelo://app?vid=74385b60-723f-46a4-85d7-a8c2a4613294"},"vehicle_type_id":"4","last_reported":1753398688,"current_range_meters":3600,"station_id":"ce4bh312rcd13ifvqdk0","pricing_plan_id":"cebpf4jnsgd1na2vs0mg"},{"bike_id":"c9dbd36b-479c-4a5c-b200-3aa7673340d9","system_id":"levelo_inurba_marseille","lat":43.241448,"lon":5.363743,"is_reserved":false,"is_disabled":false,"rental_uris":{"android":"levelo://app?vid=c9dbd36b-479c-4a5c-b200-3aa7673340d9","ios":"levelo://app?vid=c9dbd36b-479c-4a5c-b200-3aa7673340d9"},"vehicle_type_id":"4","last_reported":1753398688,"current_range_meters":4000,"station_id":"","pricing_plan_id":"cebpf4jnsgd1na2vs0mg"},{"bike_id":"aafe922b-1965-4ae3-9069-6b1b4d042556","system_id":"levelo_inurba_marseille","lat":43.30583,"lon":5.39352,"is_reserved":false,"is_disabled":false,"rental_uris":{"android":"levelo://app?vid=aafe922b-1965-4ae3-9069-6b1b4d042556","ios":"levelo://app?vid=aafe922b-1965-4ae3-9069-6b1b4d042556"},"vehicle_type_id":"4","last_reported":1753398688,"current_range_meters":4400,"station_id":"ce4bh0p2rcd13ifvqd80","pricing_plan_id":"cebpf4jnsgd1na2vs0mg"},{"bike_id":"bd6309fd-e0dd-4fcb-a51b-2941dadca96b","system_id":"levelo_inurba_marseille","lat":43.29904,"lon":5.37477,"is_reserved":false,"is_disabled":false,"rental_uris":{"android":"levelo://app?vid=bd6309fd-e0dd-4fcb-a51b-2941dadca96b","ios":"levelo://app?vid=bd6309fd-e0dd-4fcb-a51b-2941dadca96b"},"vehicle_type_id":"4","last_reported":1753398688,"current_range_meters":4800,"station_id":"ce4bgjh2rcd13ifvqbg0","pricing_plan_id":"cebpf4jnsgd1na2vs0mg"},{"bike_id":"b6ed30f0-2862-48b4-a322-6261035268fa","system_id":"levelo_inurba_marseille","lat":43.27845,"lon":5.40724,"is_reserved":false,"is_disabled":false,"rental_uris":{"android":"levelo://app?vid=b6ed30f0-2862-48b4-a322-6261035268fa","ios":"levelo://app?vid=b6ed30f0-2862-48b4-a322-6261035268fa"},"vehicle_type_id":"4","last_reported":1753398688,"current_range_meters":5600,"station_id":"ce4bhnh2rcd13ifvqgtg","pricing_plan_id":"cebpf4jnsgd1na2vs0mg"},{"bike_id":"c50b8e83-5a37-4d1c-b068-da6cd9cb1046","system_id":"levelo_inurba_marseille","lat":43.306549,"lon":5.400809,"is_reserved":false,"is_disabled":false,"rental_uris":{"android":"levelo://app?vid=c50b8e83-5a37-4d1c-b068-da6cd9cb1046","ios":"levelo://app?vid=c50b8e83-5a37-4d1c-b068-da6cd9cb1046"},"vehicle_type_id":"4","last_reported":1753398688,"current_range_meters":5600,"station_id":"ce4bh112rcd13ifvqda0","pricing_plan_id":"cebpf4jnsgd1na2vs0mg"},{"bike_id":"8ac6ac23-2e29-4c74-a612-7e7b672b1362","system_id":"levelo_inurba_marseille","lat":43.28945,"lon":5.39629,"is_reserved":false,"is_disabled":false,"rental_uris":{"android":"levelo://app?vid=8ac6ac23-2e29-4c74-a612-7e7b672b1362","ios":"levelo://app?vid=8ac6ac23-2e29-4c74-a612-7e7b672b1362"},"vehicle_type_id":"4","last_reported":1753398688,"current_range_meters":6000,"station_id":"ce4bh3h2rcd13ifvqdn0","pricing_plan_id":"cebpf4jnsgd1na2vs0mg"},{"bike_id":"59a15ad2-15d7-4154-b27a-a8773758dd23","system_id":"levelo_inurba_marseille","lat":43.298182,"lon":5.370916,"is_reserved":false,"is_disabled":true,"rental_uris":{"android":"levelo://app?vid=59a15ad2-15d7-4154-b27a-a8773758dd23","ios":"levelo://app?vid=59a15ad2-15d7-4154-b27a-a8773758dd23"},"vehicle_type_id":"4","last_reported":1753398688,"current_range_meters":6000,"station_id":"","pricing_plan_id":"cebpf4jnsgd1na2vs0mg"},{"bike_id":"4b4e3f62-cfbf-4664-b6f0-d65f157b3d3f","system_id":"levelo_inurba_marseille","lat":43.31697,"lon":5.40472,"is_reserved":false,"is_disabled":false,"rental_uris":{"android":"levelo://app?vid=4b4e3f62-cfbf-4664-b6f0-d65f157b3d3f","ios":"levelo://app?vid=4b4e3f62-cfbf-4664-b6f0-d65f157b3d3f"},"vehicle_type_id":"4","last_reported":1753398688,"current_range_meters":6000,"station_id":"ce4bh012rcd13ifvqd00","pricing_plan_id":"cebpf4jnsgd1na2vs0mg"},{"bike_id":"99519f7b-60b9-46e8-a382-41d931dd8af2","system_id":"levelo_inurba_marseille","lat":43.29247,"lon":5.40929,"is_reserved":false,"is_disabled":false,"rental_uris":{"android":"levelo://app?vid=99519f7b-60b9-46e8-a382-41d931dd8af2","ios":"levelo://app?vid=99519f7b-60b9-46e8-a382-41d931dd8af2"},"vehicle_type_id":"4","last_reported":1753398688,"current_range_meters":6400,"station_id":"ce4bh192rcd13ifvqdc0","pricing_plan_id":"cebpf4jnsgd1na2vs0mg"},{"bike_id":"4e6dd435-dcdc-4c6d-be23-774e5b68e116","system_id":"levelo_inurba_marseille","lat":43.28616,"lon":5.35106,"is_reserved":false,"is_disabled":false,"rental_uris":{"android":"levelo://app?vid=4e6dd435-dcdc-4c6d-be23-774e5b68e116","ios":"levelo://app?vid=4e6dd435-dcdc-4c6d-be23-774e5b68e116"},"vehicle_type_id":"4","last_reported":1753398688,"current_range_meters":6400,"station_id":"ce4bhch2rcd13ifvqeug","pricing_plan_id":"cebpf4jnsgd1na2vs0mg"},{"bike_id":"54c430a9-55ae-40b5-9837-6c7442d42fd2","system_id":"levelo_inurba_marseille","lat":43.268473,"lon":5.40462,"is_reserved":false,"is_disabled":false,"rental_uris":{"android":"levelo://app?vid=54c430a9-55ae-40b5-9837-6c7442d42fd2","ios":"levelo://app?vid=54c430a9-55ae-40b5-9837-6c7442d42fd2"},"vehicle_type_id":"4","last_reported":1753398688,"current_range_meters":6400,"station_id":"","pricing_plan_id":"cebpf4jnsgd1na2vs0mg"},{"bike_id":"9da08fcf-3ff5-4f05-900d-a4dcee225e1f","system_id":"levelo_inurba_marseille","lat":43.30099,"lon":5.39071,"is_reserved":false,"is_disabled":false,"rental_uris":{"android":"levelo://app?vid=9da08fcf-3ff5-4f05-900d-a4dcee225e1f","ios":"levelo://app?vid=9da08fcf-3ff5-4f05-900d-a4dcee225e1f"},"vehicle_type_id":"4","last_reported":1753398688,"current_range_meters":6800,"station_id":"ce4bh192rcd13ifvqdb0","pricing_plan_id":"cebpf4jnsgd1na2vs0mg"},{"bike_id":"da053e6a-15f2-492e-8bc1-42b1d66cc329","system_id":"levelo_inurba_marseille","lat":43.28343,"lon":5.43262,"is_reserved":false,"is_disabled":false,"rental_uris":{"android":"levelo://app?vid=da053e6a-15f2-492e-8bc1-42b1d66cc329","ios":"levelo://app?vid=da053e6a-15f2-492e-8bc1-42b1d66cc329"},"vehicle_type_id":"4","last_reported":1753398688,"current_range_meters":6800,"station_id":"","pricing_plan_id":"cebpf4jnsgd1na2vs0mg"},{"bike_id":"8d4c0420-d0a3-4380-bcc1-62c045f8d4b9","system_id":"levelo_inurba_marseille","lat":43.26571,"lon":5.3903,"is_reserved":false,"is_disabled":true,"rental_uris":{"android":"levelo://app?vid=8d4c0420-d0a3-4380-bcc1-62c045f8d4b9","ios":"levelo://app?vid=8d4c0420-d0a3-4380-bcc1-62c045f8d4b9"},"vehicle_type_id":"4","last_reported":1753398688,"current_range_meters":6800,"station_id":"ce4bhe12rcd13ifvqf30","pricing_plan_id":"cebpf4jnsgd1na2vs0mg"},{"bike_id":"e0f4556b-1525-4eff-ac19-a1270436371d","system_id":"levelo_inurba_marseille","lat":43.27819,"lon":5.39781,"is_reserved":false,"is_disabled":false,"rental_uris":{"android":"levelo://app?vid=e0f4556b-1525-4eff-ac19-a1270436371d","ios":"levelo://app?vid=e0f4556b-1525-4eff-ac19-a1270436371d"},"vehicle_type_id":"4","last_reported":1753398688,"current_range_meters":8000,"station_id":"","pricing_plan_id":"cebpf4jnsgd1na2vs0mg"},{"bike_id":"87d9cc9e-fb09-41d9-ab2e-0f924589aaeb","system_id":"levelo_inurba_marseille","lat":43.31193,"lon":5.36797,"is_reserved":false,"is_disabled":true,"rental_uris":{"android":"levelo://app?vid=87d9cc9e-fb09-41d9-ab2e-0f924589aaeb","ios":"levelo://app?vid=87d9cc9e-fb09-41d9-ab2e-0f924589aaeb"},"vehicle_type_id":"4","last_reported":1753398688,"current_range_meters":8000,"station_id":"","pricing_plan_id":"cebpf4jnsgd1na2vs0mg"},{"bike_id":"73be3c77-0070-483c-9c65-3e3c88eda8f2","system_id":"levelo_inurba_marseille","lat":43.28106,"lon":5.37844,"is_reserved":false,"is_disabled":false,"rental_uris":{"android":"levelo://app?vid=73be3c77-0070-483c-9c65-3e3c88eda8f2","ios":"levelo://app?vid=73be3c77-0070-483c-9c65-3e3c88eda8f2"},"vehicle_type_id":"4","last_reported":1753398688,"current_range_meters":8000,"station_id":"ce4bha12rcd13ifvqee0","pricing_plan_id":"cebpf4jnsgd1na2vs0mg"},{"bike_id":"f8bd81f0-5f9e-4757-8731-0625b68d89e5","system_id":"levelo_inurba_marseille","lat":43.30596,"lon":5.37226,"is_reserved":false,"is_disabled":false,"rental_uris":{"android":"levelo://app?vid=f8bd81f0-5f9e-4757-8731-0625b68d89e5","ios":"levelo://app?vid=f8bd81f0-5f9e-4757-8731-0625b68d89e5"},"vehicle_type_id":"4","last_reported":1753398688,"current_range_meters":8000,"station_id":"ce4bgqh2rcd13ifvqc4g","pricing_plan_id":"cebpf4jnsgd1na2vs0mg"},{"bike_id":"ce0ffc32-a366-4e8b-b135-ca54d0fd6cbb","system_id":"levelo_inurba_marseille","lat":43.261893,"lon":5.374465,"is_reserved":false,"is_disabled":true,"rental_uris":{"android":"levelo://app?vid=ce0ffc32-a366-4e8b-b135-ca54d0fd6cbb","ios":"levelo://app?vid=ce0ffc32-a366-4e8b-b135-ca54d0fd6cbb"},"vehicle_type_id":"4","last_reported":1753398688,"current_range_meters":8400,"station_id":"ce4bhgp2rcd13ifvqfc0","pricing_plan_id":"cebpf4jnsgd1na2vs0mg"},{"bike_id":"f3217e35-0bb5-43ab-beb0-dd5e233a7114","system_id":"levelo_inurba_marseille","lat":43.25578,"lon":5.382244,"is_reserved":false,"is_disabled":true,"rental_uris":{"android":"levelo://app?vid=f3217e35-0bb5-43ab-beb0-dd5e233a7114","ios":"levelo://app?vid=f3217e35-0bb5-43ab-beb0-dd5e233a7114"},"vehicle_type_id":"4","last_reported":1753398688,"current_range_meters":8400,"station_id":"ce4bhih2rcd13ifvqfs0","pricing_plan_id":"cebpf4jnsgd1na2vs0mg"},{"bike_id":"a4c4bad3-a0b1-45ab-8f46-1d962fecee79","system_id":"levelo_inurba_marseille","lat":43.28436,"lon":5.39198,"is_reserved":false,"is_disabled":false,"rental_uris":{"android":"levelo://app?vid=a4c4bad3-a0b1-45ab-8f46-1d962fecee79","ios":"levelo://app?vid=a4c4bad3-a0b1-45ab-8f46-1d962fecee79"},"vehicle_type_id":"4","last_reported":1753398688,"current_range_meters":8400,"station_id":"ce4bhoh2rcd13ifvqh5g","pricing_plan_id":"cebpf4jnsgd1na2vs0mg"},{"bike_id":"2936456c-77f6-4f82-a181-4bc2dd541746","system_id":"levelo_inurba_marseille","lat":43.291922,"lon":5.357973,"is_reserved":false,"is_disabled":true,"rental_uris":{"android":"levelo://app?vid=2936456c-77f6-4f82-a181-4bc2dd541746","ios":"levelo://app?vid=2936456c-77f6-4f82-a181-4bc2dd541746"},"vehicle_type_id":"4","last_reported":1753398688,"current_range_meters":8800,"station_id":"ce4bhb12rcd13ifvqel0","pricing_plan_id":"cebpf4jnsgd1na2vs0mg"},{"bike_id":"d4043fff-8474-4a89-965a-b8794944d0a3","system_id":"levelo_inurba_marseille","lat":43.23183,"lon":5.39996,"is_reserved":false,"is_disabled":true,"rental_uris":{"android":"levelo://app?vid=d4043fff-8474-4a89-965a-b8794944d0a3","ios":"levelo://app?vid=d4043fff-8474-4a89-965a-b8794944d0a3"},"vehicle_type_id":"4","last_reported":1753398688,"current_range_meters":8800,"station_id":"ce4bhn12rcd13ifvqgqg","pricing_plan_id":"cebpf4jnsgd1na2vs0mg"},{"bike_id":"1f1d65ae-259f-4d40-a11d-dbcd9a698006","system_id":"levelo_inurba_marseille","lat":43.30806,"lon":5.38164,"is_reserved":false,"is_disabled":false,"rental_uris":{"android":"levelo://app?vid=1f1d65ae-259f-4d40-a11d-dbcd9a698006","ios":"levelo://app?vid=1f1d65ae-259f-4d40-a11d-dbcd9a698006"},"vehicle_type_id":"4","last_reported":1753398688,"current_range_meters":8800,"station_id":"ce4bgt12rcd13ifvqce0","pricing_plan_id":"cebpf4jnsgd1na2vs0mg"},{"bike_id":"7250624a-63df-4e44-9e5a-1056e5f8a90f","system_id":"levelo_inurba_marseille","lat":43.29252,"lon":5.4058,"is_reserved":false,"is_disabled":false,"rental_uris":{"android":"levelo://app?vid=7250624a-63df-4e44-9e5a-1056e5f8a90f","ios":"levelo://app?vid=7250624a-63df-4e44-9e5a-1056e5f8a90f"},"vehicle_type_id":"4","last_reported":1753398688,"current_range_meters":8800,"station_id":"","pricing_plan_id":"cebpf4jnsgd1na2vs0mg"},{"bike_id":"3363dedc-8d9a-4d07-86c7-a592a157e616","system_id":"levelo_inurba_marseille","lat":43.30266,"lon":5.40076,"is_reserved":false,"is_disabled":false,"rental_uris":{"android":"levelo://app?vid=3363dedc-8d9a-4d07-86c7-a592a157e616","ios":"levelo://app?vid=3363dedc-8d9a-4d07-86c7-a592a157e616"},"vehicle_type_id":"4","last_reported":1753398688,"current_range_meters":8800,"station_id":"ce4bgvh2rcd13ifvqcs0","pricing_plan_id":"cebpf4jnsgd1na2vs0mg"},{"bike_id":"90a7ffa4-4fe4-46f0-95e2-0fb1e361c2bc","system_id":"levelo_inurba_marseille","lat":43.29171,"lon":5.37166,"is_reserved":false,"is_disabled":false,"rental_uris":{"android":"levelo://app?vid=90a7ffa4-4fe4-46f0-95e2-0fb1e361c2bc","ios":"levelo://app?vid=90a7ffa4-4fe4-46f0-95e2-0fb1e361c2bc"},"vehicle_type_id":"4","last_reported":1753398688,"current_range_meters":8800,"station_id":"ce4bha92rcd13ifvqeh0","pricing_plan_id":"cebpf4jnsgd1na2vs0mg"},{"bike_id":"a7f7e9c2-a8ff-4c0a-b143-ee6ee3d529f4","system_id":"levelo_inurba_marseille","lat":43.27969,"lon":5.39053,"is_reserved":false,"is_disabled":false,"rental_uris":{"android":"levelo://app?vid=a7f7e9c2-a8ff-4c0a-b143-ee6ee3d529f4","ios":"levelo://app?vid=a7f7e9c2-a8ff-4c0a-b143-ee6ee3d529f4"},"vehicle_type_id":"4","last_reported":1753398688,"current_range_meters":9200,"station_id":"","pricing_plan_id":"cebpf4jnsgd1na2vs0mg"},{"bike_id":"bbc2b271-396f-4875-9f1d-0fcc163d87b6","system_id":"levelo_inurba_marseille","lat":43.29067,"lon":5.39883,"is_reserved":false,"is_disabled":false,"rental_uris":{"android":"levelo://app?vid=bbc2b271-396f-4875-9f1d-0fcc163d87b6","ios":"levelo://app?vid=bbc2b271-396f-4875-9f1d-0fcc163d87b6"},"vehicle_type_id":"4","last_reported":1753398688,"current_range_meters":9200,"station_id":"","pricing_plan_id":"cebpf4jnsgd1na2vs0mg"},{"bike_id":"b5ce8d93-17c0-45a5-b2b1-eefce45c2d79","system_id":"levelo_inurba_marseille","lat":43.29259,"lon":5.44586,"is_reserved":false,"is_disabled":false,"rental_uris":{"android":"levelo://app?vid=b5ce8d93-17c0-45a5-b2b1-eefce45c2d79","ios":"levelo://app?vid=b5ce8d93-17c0-45a5-b2b1-eefce45c2d79"},"vehicle_type_id":"4","last_reported":1753398688,"current_range_meters":9200,"station_id":"","pricing_plan_id":"cebpf4jnsgd1na2vs0mg"},{"bike_id":"103f1055-8f09-4334-abab-9f44037f0884","system_id":"levelo_inurba_marseille","lat":43.2321,"lon":5.35557,"is_reserved":false,"is_disabled":true,"rental_uris":{"android":"levelo://app?vid=103f1055-8f09-4334-abab-9f44037f0884","ios":"levelo://app?vid=103f1055-8f09-4334-abab-9f44037f0884"},"vehicle_type_id":"4","last_reported":1753398688,"current_range_meters":9200,"station_id":"ce4bhu92rcd13ifvqi70","pricing_plan_id":"cebpf4jnsgd1na2vs0mg"},{"bike_id":"65183824-4b76-48ad-bf8a-b0414bc805f2","system_id":"levelo_inurba_marseille","lat":43.307916,"lon":5.381676,"is_reserved":false,"is_disabled":false,"rental_uris":{"android":"levelo://app?vid=65183824-4b76-48ad-bf8a-b0414bc805f2","ios":"levelo://app?vid=65183824-4b76-48ad-bf8a-b0414bc805f2"},"vehicle_type_id":"4","last_reported":1753398688,"current_range_meters":9200,"station_id":"ce4bgt12rcd13ifvqce0","pricing_plan_id":"cebpf4jnsgd1na2vs0mg"},{"bike_id":"0a7cf1b0-976e-43f6-be59-2b74afda25b1","system_id":"levelo_inurba_marseille","lat":43.286787,"lon":5.41341,"is_reserved":false,"is_disabled":false,"rental_uris":{"android":"levelo://app?vid=0a7cf1b0-976e-43f6-be59-2b74afda25b1","ios":"levelo://app?vid=0a7cf1b0-976e-43f6-be59-2b74afda25b1"},"vehicle_type_id":"4","last_reported":1753398688,"current_range_meters":9200,"station_id":"","pricing_plan_id":"cebpf4jnsgd1na2vs0mg"},{"bike_id":"1242185d-2b3c-44b4-8f56-bd2cf4041b46","system_id":"levelo_inurba_marseille","lat":43.288545,"lon":5.358527,"is_reserved":false,"is_disabled":false,"rental_uris":{"android":"levelo://app?vid=1242185d-2b3c-44b4-8f56-bd2cf4041b46","ios":"levelo://app?vid=1242185d-2b3c-44b4-8f56-bd2cf4041b46"},"vehicle_type_id":"4","last_reported":1753398688,"current_range_meters":9200,"station_id":"","pricing_plan_id":"cebpf4jnsgd1na2vs0mg"},{"bike_id":"8fc40684-9b2f-4471-90f0-d80318962260","system_id":"levelo_inurba_marseille","lat":43.28553,"lon":5.37758,"is_reserved":false,"is_disabled":false,"rental_uris":{"android":"levelo://app?vid=8fc40684-9b2f-4471-90f0-d80318962260","ios":"levelo://app?vid=8fc40684-9b2f-4471-90f0-d80318962260"},"vehicle_type_id":"4","last_reported":1753398688,"current_range_meters":9200,"station_id":"","pricing_plan_id":"cebpf4jnsgd1na2vs0mg"},{"bike_id":"860aa23e-a816-40f6-b571-34ba11bce5cf","system_id":"levelo_inurba_marseille","lat":43.24126,"lon":5.37,"is_reserved":false,"is_disabled":false,"rental_uris":{"android":"levelo://app?vid=860aa23e-a816-40f6-b571-34ba11bce5cf","ios":"levelo://app?vid=860aa23e-a816-40f6-b571-34ba11bce5cf"},"vehicle_type_id":"4","last_reported":1753398688,"current_range_meters":9200,"station_id":"","pricing_plan_id":"cebpf4jnsgd1na2vs0mg"},{"bike_id":"93fcc566-52ff-42e4-8883-d8266fa835b0","system_id":"levelo_inurba_marseille","lat":43.27813,"lon":5.40708,"is_reserved":false,"is_disabled":false,"rental_uris":{"android":"levelo://app?vid=93fcc566-52ff-42e4-8883-d8266fa835b0","ios":"levelo://app?vid=93fcc566-52ff-42e4-8883-d8266fa835b0"},"vehicle_type_id":"4","last_reported":1753398688,"current_range_meters":9200,"station_id":"ce4bhnh2rcd13ifvqgtg","pricing_plan_id":"cebpf4jnsgd1na2vs0mg"},{"bike_id":"d6f40dc1-27da-4a67-8ed3-8cd86d65885d","system_id":"levelo_inurba_marseille","lat":43.292759,"lon":5.40122,"is_reserved":false,"is_disabled":false,"rental_uris":{"android":"levelo://app?vid=d6f40dc1-27da-4a67-8ed3-8cd86d65885d","ios":"levelo://app?vid=d6f40dc1-27da-4a67-8ed3-8cd86d65885d"},"vehicle_type_id":"4","last_reported":1753398688,"current_range_meters":9600,"station_id":"ce4bh312rcd13ifvqdk0","pricing_plan_id":"cebpf4jnsgd1na2vs0mg"},{"bike_id":"bb451479-099b-4d9b-a0b6-25a29d6f49dc","system_id":"levelo_inurba_marseille","lat":43.27914,"lon":5.39577,"is_reserved":false,"is_disabled":false,"rental_uris":{"android":"levelo://app?vid=bb451479-099b-4d9b-a0b6-25a29d6f49dc","ios":"levelo://app?vid=bb451479-099b-4d9b-a0b6-25a29d6f49dc"},"vehicle_type_id":"4","last_reported":1753398688,"current_range_meters":9600,"station_id":"ce4bhf92rcd13ifvqf40","pricing_plan_id":"cebpf4jnsgd1na2vs0mg"},{"bike_id":"20b3ac39-d220-4d0b-8848-1b7f328b0525","system_id":"levelo_inurba_marseille","lat":43.262247,"lon":5.404552,"is_reserved":false,"is_disabled":true,"rental_uris":{"android":"levelo://app?vid=20b3ac39-d220-4d0b-8848-1b7f328b0525","ios":"levelo://app?vid=20b3ac39-d220-4d0b-8848-1b7f328b0525"},"vehicle_type_id":"4","last_reported":1753398688,"current_range_meters":9600,"station_id":"ce4bhmh2rcd13ifvqgmg","pricing_plan_id":"cebpf4jnsgd1na2vs0mg"},{"bike_id":"300a4756-01bd-4e0c-90d5-87daadcf6e14","system_id":"levelo_inurba_marseille","lat":43.290972,"lon":5.359105,"is_reserved":false,"is_disabled":true,"rental_uris":{"android":"levelo://app?vid=300a4756-01bd-4e0c-90d5-87daadcf6e14","ios":"levelo://app?vid=300a4756-01bd-4e0c-90d5-87daadcf6e14"},"vehicle_type_id":"4","last_reported":1753398688,"current_range_meters":9600,"station_id":"","pricing_plan_id":"cebpf4jnsgd1na2vs0mg"},{"bike_id":"ae131367-d818-44a0-9e1d-4aa65dcdb16a","system_id":"levelo_inurba_marseille","lat":43.27494,"lon":5.3965,"is_reserved":false,"is_disabled":false,"rental_uris":{"android":"levelo://app?vid=ae131367-d818-44a0-9e1d-4aa65dcdb16a","ios":"levelo://app?vid=ae131367-d818-44a0-9e1d-4aa65dcdb16a"},"vehicle_type_id":"4","last_reported":1753398688,"current_range_meters":9600,"station_id":"","pricing_plan_id":"cebpf4jnsgd1na2vs0mg"},{"bike_id":"3cd09fc8-9554-4236-8496-0931a7be09d1","system_id":"levelo_inurba_marseille","lat":43.21187,"lon":5.35081,"is_reserved":false,"is_disabled":false,"rental_uris":{"android":"levelo://app?vid=3cd09fc8-9554-4236-8496-0931a7be09d1","ios":"levelo://app?vid=3cd09fc8-9554-4236-8496-0931a7be09d1"},"vehicle_type_id":"4","last_reported":1753398688,"current_range_meters":9600,"station_id":"st_cvj6sg6p6f1abm77japg","pricing_plan_id":"cebpf4jnsgd1na2vs0mg"},{"bike_id":"2ae83899-90fd-4b59-b691-4169c75aef1a","system_id":"levelo_inurba_marseille","lat":43.33761,"lon":5.37428,"is_reserved":false,"is_disabled":false,"rental_uris":{"android":"levelo://app?vid=2ae83899-90fd-4b59-b691-4169c75aef1a","ios":"levelo://app?vid=2ae83899-90fd-4b59-b691-4169c75aef1a"},"vehicle_type_id":"4","last_reported":1753398688,"current_range_meters":9600,"station_id":"","pricing_plan_id":"cebpf4jnsgd1na2vs0mg"},{"bike_id":"3cbb97c5-1f06-4add-ac6d-a120022e686c","system_id":"levelo_inurba_marseille","lat":43.2989,"lon":5.37564,"is_reserved":false,"is_disabled":false,"rental_uris":{"android":"levelo://app?vid=3cbb97c5-1f06-4add-ac6d-a120022e686c","ios":"levelo://app?vid=3cbb97c5-1f06-4add-ac6d-a120022e686c"},"vehicle_type_id":"4","last_reported":1753398688,"current_range_meters":10000,"station_id":"","pricing_plan_id":"cebpf4jnsgd1na2vs0mg"},{"bike_id":"a4b946b9-d774-4aa8-a674-ad0eb8d743ec","system_id":"levelo_inurba_marseille","lat":43.290674,"lon":5.371781,"is_reserved":false,"is_disabled":false,"rental_uris":{"android":"levelo://app?vid=a4b946b9-d774-4aa8-a674-ad0eb8d743ec","ios":"levelo://app?vid=a4b946b9-d774-4aa8-a674-ad0eb8d743ec"},"vehicle_type_id":"4","last_reported":1753398688,"current_range_meters":10000,"station_id":"ce4bh5p2rcd13ifvqe4g","pricing_plan_id":"cebpf4jnsgd1na2vs0mg"},{"bike_id":"9ddf78c0-367a-4c6d-a996-ea5f9eb0da4c","system_id":"levelo_inurba_marseille","lat":43.283718,"lon":5.386393,"is_reserved":false,"is_disabled":false,"rental_uris":{"android":"levelo://app?vid=9ddf78c0-367a-4c6d-a996-ea5f9eb0da4c","ios":"levelo://app?vid=9ddf78c0-367a-4c6d-a996-ea5f9eb0da4c"},"vehicle_type_id":"4","last_reported":1753398688,"current_range_meters":10800,"station_id":"ce4bh492rcd13ifvqdvg","pricing_plan_id":"cebpf4jnsgd1na2vs0mg"},{"bike_id":"a927f348-f866-40cf-8ad4-9daab71eecd4","system_id":"levelo_inurba_marseille","lat":43.28429,"lon":5.37517,"is_reserved":false,"is_disabled":false,"rental_uris":{"android":"levelo://app?vid=a927f348-f866-40cf-8ad4-9daab71eecd4","ios":"levelo://app?vid=a927f348-f866-40cf-8ad4-9daab71eecd4"},"vehicle_type_id":"4","last_reported":1753398688,"current_range_meters":10800,"station_id":"ce4bh412rcd13ifvqds0","pricing_plan_id":"cebpf4jnsgd1na2vs0mg"},{"bike_id":"5ac85406-65d0-4336-aa89-4b04b2e6689e","system_id":"levelo_inurba_marseille","lat":43.33255,"lon":5.41987,"is_reserved":false,"is_disabled":false,"rental_uris":{"android":"levelo://app?vid=5ac85406-65d0-4336-aa89-4b04b2e6689e","ios":"levelo://app?vid=5ac85406-65d0-4336-aa89-4b04b2e6689e"},"vehicle_type_id":"4","last_reported":1753398688,"current_range_meters":10800,"station_id":"","pricing_plan_id":"cebpf4jnsgd1na2vs0mg"},{"bike_id":"2006d6ab-c619-4a15-b9f3-97c1160843f0","system_id":"levelo_inurba_marseille","lat":43.28151,"lon":5.36115,"is_reserved":false,"is_disabled":false,"rental_uris":{"android":"levelo://app?vid=2006d6ab-c619-4a15-b9f3-97c1160843f0","ios":"levelo://app?vid=2006d6ab-c619-4a15-b9f3-97c1160843f0"},"vehicle_type_id":"4","last_reported":1753398688,"current_range_meters":10800,"station_id":"","pricing_plan_id":"cebpf4jnsgd1na2vs0mg"},{"bike_id":"4672c998-1997-43e5-921f-5a7f3913e2f6","system_id":"levelo_inurba_marseille","lat":43.3266,"lon":5.40992,"is_reserved":false,"is_disabled":false,"rental_uris":{"android":"levelo://app?vid=4672c998-1997-43e5-921f-5a7f3913e2f6","ios":"levelo://app?vid=4672c998-1997-43e5-921f-5a7f3913e2f6"},"vehicle_type_id":"4","last_reported":1753398688,"current_range_meters":10800,"station_id":"ce4bhpp2rcd13ifvqhgg","pricing_plan_id":"cebpf4jnsgd1na2vs0mg"},{"bike_id":"95142580-76f7-40f2-97f7-b187124c6efa","system_id":"levelo_inurba_marseille","lat":43.28425,"lon":5.37523,"is_reserved":false,"is_disabled":false,"rental_uris":{"android":"levelo://app?vid=95142580-76f7-40f2-97f7-b187124c6efa","ios":"levelo://app?vid=95142580-76f7-40f2-97f7-b187124c6efa"},"vehicle_type_id":"4","last_reported":1753398688,"current_range_meters":10800,"station_id":"ce4bh412rcd13ifvqds0","pricing_plan_id":"cebpf4jnsgd1na2vs0mg"},{"bike_id":"374af0d6-98b2-4ce6-ba63-386f17021a56","system_id":"levelo_inurba_marseille","lat":43.2718,"lon":5.40996,"is_reserved":false,"is_disabled":false,"rental_uris":{"android":"levelo://app?vid=374af0d6-98b2-4ce6-ba63-386f17021a56","ios":"levelo://app?vid=374af0d6-98b2-4ce6-ba63-386f17021a56"},"vehicle_type_id":"4","last_reported":1753398688,"current_range_meters":11200,"station_id":"ce4bhl12rcd13ifvqgf0","pricing_plan_id":"cebpf4jnsgd1na2vs0mg"},{"bike_id":"b57f5444-81ff-4a62-9ea3-1b3feaeafb55","system_id":"levelo_inurba_marseille","lat":43.28341,"lon":5.38113,"is_reserved":false,"is_disabled":true,"rental_uris":{"android":"levelo://app?vid=b57f5444-81ff-4a62-9ea3-1b3feaeafb55","ios":"levelo://app?vid=b57f5444-81ff-4a62-9ea3-1b3feaeafb55"},"vehicle_type_id":"4","last_reported":1753398688,"current_range_meters":11200,"station_id":"ce4bh412rcd13ifvqdr0","pricing_plan_id":"cebpf4jnsgd1na2vs0mg"},{"bike_id":"6bb1f31c-9335-4f39-9585-31374a4775f9","system_id":"levelo_inurba_marseille","lat":43.325583,"lon":5.379059,"is_reserved":false,"is_disabled":false,"rental_uris":{"android":"levelo://app?vid=6bb1f31c-9335-4f39-9585-31374a4775f9","ios":"levelo://app?vid=6bb1f31c-9335-4f39-9585-31374a4775f9"},"vehicle_type_id":"4","last_reported":1753398688,"current_range_meters":11200,"station_id":"","pricing_plan_id":"cebpf4jnsgd1na2vs0mg"},{"bike_id":"ea353f4c-8505-435c-b21b-af63e2d32879","system_id":"levelo_inurba_marseille","lat":43.30787,"lon":5.3815,"is_reserved":false,"is_disabled":false,"rental_uris":{"android":"levelo://app?vid=ea353f4c-8505-435c-b21b-af63e2d32879","ios":"levelo://app?vid=ea353f4c-8505-435c-b21b-af63e2d32879"},"vehicle_type_id":"4","last_reported":1753398688,"current_range_meters":11200,"station_id":"ce4bgt12rcd13ifvqce0","pricing_plan_id":"cebpf4jnsgd1na2vs0mg"},{"bike_id":"ad1a5ad7-fe9a-46ff-bcf5-714da6b4a928","system_id":"levelo_inurba_marseille","lat":43.2835,"lon":5.38111,"is_reserved":false,"is_disabled":false,"rental_uris":{"android":"levelo://app?vid=ad1a5ad7-fe9a-46ff-bcf5-714da6b4a928","ios":"levelo://app?vid=ad1a5ad7-fe9a-46ff-bcf5-714da6b4a928"},"vehicle_type_id":"4","last_reported":1753398688,"current_range_meters":11200,"station_id":"ce4bh412rcd13ifvqdr0","pricing_plan_id":"cebpf4jnsgd1na2vs0mg"},{"bike_id":"61669521-2c65-4931-bc2c-4bdfe86f873c","system_id":"levelo_inurba_marseille","lat":43.21763,"lon":5.34633,"is_reserved":false,"is_disabled":false,"rental_uris":{"android":"levelo://app?vid=61669521-2c65-4931-bc2c-4bdfe86f873c","ios":"levelo://app?vid=61669521-2c65-4931-bc2c-4bdfe86f873c"},"vehicle_type_id":"4","last_reported":1753398688,"current_range_meters":11200,"station_id":"","pricing_plan_id":"cebpf4jnsgd1na2vs0mg"},{"bike_id":"1ad257b5-7f83-42c1-867f-92635ff1abbf","system_id":"levelo_inurba_marseille","lat":43.22931,"lon":5.35376,"is_reserved":false,"is_disabled":false,"rental_uris":{"android":"levelo://app?vid=1ad257b5-7f83-42c1-867f-92635ff1abbf","ios":"levelo://app?vid=1ad257b5-7f83-42c1-867f-92635ff1abbf"},"vehicle_type_id":"4","last_reported":1753398688,"current_range_meters":11200,"station_id":"cpo3532slgdg3j2ikp40","pricing_plan_id":"cebpf4jnsgd1na2vs0mg"},{"bike_id":"448a9a51-b991-47bc-ac25-94a4cd3ad5a1","system_id":"levelo_inurba_marseille","lat":43.30304,"lon":5.39231,"is_reserved":false,"is_disabled":false,"rental_uris":{"android":"levelo://app?vid=448a9a51-b991-47bc-ac25-94a4cd3ad5a1","ios":"levelo://app?vid=448a9a51-b991-47bc-ac25-94a4cd3ad5a1"},"vehicle_type_id":"4","last_reported":1753398688,"current_range_meters":11600,"station_id":"ce4bgkh2rcd13ifvqbk0","pricing_plan_id":"cebpf4jnsgd1na2vs0mg"},{"bike_id":"5a1127f3-138f-405b-bc52-110bde489f20","system_id":"levelo_inurba_marseille","lat":43.24813,"lon":5.37444,"is_reserved":false,"is_disabled":false,"rental_uris":{"android":"levelo://app?vid=5a1127f3-138f-405b-bc52-110bde489f20","ios":"levelo://app?vid=5a1127f3-138f-405b-bc52-110bde489f20"},"vehicle_type_id":"4","last_reported":1753398688,"current_range_meters":11600,"station_id":"ce4bhgh2rcd13ifvqfb0","pricing_plan_id":"cebpf4jnsgd1na2vs0mg"},{"bike_id":"bfdf2873-f63d-44af-8b17-584cd3e8c566","system_id":"levelo_inurba_marseille","lat":43.3059,"lon":5.39357,"is_reserved":false,"is_disabled":false,"rental_uris":{"android":"levelo://app?vid=bfdf2873-f63d-44af-8b17-584cd3e8c566","ios":"levelo://app?vid=bfdf2873-f63d-44af-8b17-584cd3e8c566"},"vehicle_type_id":"4","last_reported":1753398688,"current_range_meters":11600,"station_id":"ce4bh0p2rcd13ifvqd80","pricing_plan_id":"cebpf4jnsgd1na2vs0mg"},{"bike_id":"dd71c597-cc14-4dd7-8d23-23b6fa189262","system_id":"levelo_inurba_marseille","lat":43.28153,"lon":5.42655,"is_reserved":false,"is_disabled":false,"rental_uris":{"android":"levelo://app?vid=dd71c597-cc14-4dd7-8d23-23b6fa189262","ios":"levelo://app?vid=dd71c597-cc14-4dd7-8d23-23b6fa189262"},"vehicle_type_id":"4","last_reported":1753398688,"current_range_meters":11600,"station_id":"ce4bhnh2rcd13ifvqgug","pricing_plan_id":"cebpf4jnsgd1na2vs0mg"},{"bike_id":"f9b47017-9144-45da-b92e-ad8aeeb5ef04","system_id":"levelo_inurba_marseille","lat":43.30899,"lon":5.37197,"is_reserved":false,"is_disabled":false,"rental_uris":{"android":"levelo://app?vid=f9b47017-9144-45da-b92e-ad8aeeb5ef04","ios":"levelo://app?vid=f9b47017-9144-45da-b92e-ad8aeeb5ef04"},"vehicle_type_id":"4","last_reported":1753398688,"current_range_meters":11600,"station_id":"ce4bguh2rcd13ifvqckg","pricing_plan_id":"cebpf4jnsgd1na2vs0mg"},{"bike_id":"15764e5c-9dbf-4127-b7d5-4ec1473657e5","system_id":"levelo_inurba_marseille","lat":43.2895,"lon":5.36416,"is_reserved":false,"is_disabled":false,"rental_uris":{"android":"levelo://app?vid=15764e5c-9dbf-4127-b7d5-4ec1473657e5","ios":"levelo://app?vid=15764e5c-9dbf-4127-b7d5-4ec1473657e5"},"vehicle_type_id":"4","last_reported":1753398688,"current_range_meters":11600,"station_id":"ce4bhc92rcd13ifvqetg","pricing_plan_id":"cebpf4jnsgd1na2vs0mg"},{"bike_id":"3e70609d-f90c-42ca-bfc8-bb7b81a1664f","system_id":"levelo_inurba_marseille","lat":43.30296,"lon":5.39199,"is_reserved":false,"is_disabled":false,"rental_uris":{"android":"levelo://app?vid=3e70609d-f90c-42ca-bfc8-bb7b81a1664f","ios":"levelo://app?vid=3e70609d-f90c-42ca-bfc8-bb7b81a1664f"},"vehicle_type_id":"4","last_reported":1753398688,"current_range_meters":11600,"station_id":"ce4bgkh2rcd13ifvqbk0","pricing_plan_id":"cebpf4jnsgd1na2vs0mg"},{"bike_id":"9437277c-d886-4a0b-9535-11724bd91051","system_id":"levelo_inurba_marseille","lat":43.27094,"lon":5.42282,"is_reserved":false,"is_disabled":false,"rental_uris":{"android":"levelo://app?vid=9437277c-d886-4a0b-9535-11724bd91051","ios":"levelo://app?vid=9437277c-d886-4a0b-9535-11724bd91051"},"vehicle_type_id":"4","last_reported":1753398688,"current_range_meters":11600,"station_id":"ce4bhk92rcd13ifvqgb0","pricing_plan_id":"cebpf4jnsgd1na2vs0mg"},{"bike_id":"89a8529e-8879-4124-8039-b907686611bc","system_id":"levelo_inurba_marseille","lat":43.29538,"lon":5.38535,"is_reserved":false,"is_disabled":false,"rental_uris":{"android":"levelo://app?vid=89a8529e-8879-4124-8039-b907686611bc","ios":"levelo://app?vid=89a8529e-8879-4124-8039-b907686611bc"},"vehicle_type_id":"4","last_reported":1753398688,"current_range_meters":12000,"station_id":"ce4bgih2rcd13ifvqba0","pricing_plan_id":"cebpf4jnsgd1na2vs0mg"},{"bike_id":"e93e4ee1-01b0-47d1-bb7f-aa21b1772a4c","system_id":"levelo_inurba_marseille","lat":43.31366,"lon":5.38492,"is_reserved":false,"is_disabled":false,"rental_uris":{"android":"levelo://app?vid=e93e4ee1-01b0-47d1-bb7f-aa21b1772a4c","ios":"levelo://app?vid=e93e4ee1-01b0-47d1-bb7f-aa21b1772a4c"},"vehicle_type_id":"4","last_reported":1753398688,"current_range_meters":12000,"station_id":"ce4bgt92rcd13ifvqcf0","pricing_plan_id":"cebpf4jnsgd1na2vs0mg"},{"bike_id":"b913c24d-ffa7-4a46-9ee5-97549d6a74ee","system_id":"levelo_inurba_marseille","lat":43.267817,"lon":5.39419,"is_reserved":false,"is_disabled":true,"rental_uris":{"android":"levelo://app?vid=b913c24d-ffa7-4a46-9ee5-97549d6a74ee","ios":"levelo://app?vid=b913c24d-ffa7-4a46-9ee5-97549d6a74ee"},"vehicle_type_id":"4","last_reported":1753398688,"current_range_meters":12000,"station_id":"ce4bhh12rcd13ifvqfg0","pricing_plan_id":"cebpf4jnsgd1na2vs0mg"},{"bike_id":"cc5dbab6-22b7-4bf7-83b4-2f2dc7b1ca62","system_id":"levelo_inurba_marseille","lat":43.25117,"lon":5.40325,"is_reserved":false,"is_disabled":false,"rental_uris":{"android":"levelo://app?vid=cc5dbab6-22b7-4bf7-83b4-2f2dc7b1ca62","ios":"levelo://app?vid=cc5dbab6-22b7-4bf7-83b4-2f2dc7b1ca62"},"vehicle_type_id":"4","last_reported":1753398688,"current_range_meters":12000,"station_id":"ce4bhlh2rcd13ifvqgig","pricing_plan_id":"cebpf4jnsgd1na2vs0mg"},{"bike_id":"2c65f9d0-ea90-4543-addb-9ea454c3274b","system_id":"levelo_inurba_marseille","lat":43.2465,"lon":5.38891,"is_reserved":false,"is_disabled":false,"rental_uris":{"android":"levelo://app?vid=2c65f9d0-ea90-4543-addb-9ea454c3274b","ios":"levelo://app?vid=2c65f9d0-ea90-4543-addb-9ea454c3274b"},"vehicle_type_id":"4","last_reported":1753398688,"current_range_meters":12000,"station_id":"ce4bhg12rcd13ifvqf60","pricing_plan_id":"cebpf4jnsgd1na2vs0mg"},{"bike_id":"a5ec0df8-a141-453d-bf18-19268a53af5b","system_id":"levelo_inurba_marseille","lat":43.281426,"lon":5.426554,"is_reserved":false,"is_disabled":false,"rental_uris":{"android":"levelo://app?vid=a5ec0df8-a141-453d-bf18-19268a53af5b","ios":"levelo://app?vid=a5ec0df8-a141-453d-bf18-19268a53af5b"},"vehicle_type_id":"4","last_reported":1753398688,"current_range_meters":12000,"station_id":"ce4bhnh2rcd13ifvqgug","pricing_plan_id":"cebpf4jnsgd1na2vs0mg"},{"bike_id":"46e5b704-0f49-498f-92f3-b52af67ca47c","system_id":"levelo_inurba_marseille","lat":43.2959,"lon":5.38104,"is_reserved":false,"is_disabled":false,"rental_uris":{"android":"levelo://app?vid=46e5b704-0f49-498f-92f3-b52af67ca47c","ios":"levelo://app?vid=46e5b704-0f49-498f-92f3-b52af67ca47c"},"vehicle_type_id":"4","last_reported":1753398688,"current_range_meters":12000,"station_id":"ce4bgl12rcd13ifvqbo0","pricing_plan_id":"cebpf4jnsgd1na2vs0mg"},{"bike_id":"5b60f57d-b8df-45b1-a77e-1a26de4cd1e1","system_id":"levelo_inurba_marseille","lat":43.30944,"lon":5.3772,"is_reserved":false,"is_disabled":false,"rental_uris":{"android":"levelo://app?vid=5b60f57d-b8df-45b1-a77e-1a26de4cd1e1","ios":"levelo://app?vid=5b60f57d-b8df-45b1-a77e-1a26de4cd1e1"},"vehicle_type_id":"4","last_reported":1753398688,"current_range_meters":12000,"station_id":"","pricing_plan_id":"cebpf4jnsgd1na2vs0mg"},{"bike_id":"57941dba-0e76-4cd1-9074-4a97e1ffa0b1","system_id":"levelo_inurba_marseille","lat":43.2808,"lon":5.39673,"is_reserved":false,"is_disabled":false,"rental_uris":{"android":"levelo://app?vid=57941dba-0e76-4cd1-9074-4a97e1ffa0b1","ios":"levelo://app?vid=57941dba-0e76-4cd1-9074-4a97e1ffa0b1"},"vehicle_type_id":"4","last_reported":1753398688,"current_range_meters":12000,"station_id":"ce4bho12rcd13ifvqh2g","pricing_plan_id":"cebpf4jnsgd1na2vs0mg"},{"bike_id":"2eee3cc3-8307-4686-ab2d-5018248f4684","system_id":"levelo_inurba_marseille","lat":43.29304,"lon":5.40213,"is_reserved":false,"is_disabled":false,"rental_uris":{"android":"levelo://app?vid=2eee3cc3-8307-4686-ab2d-5018248f4684","ios":"levelo://app?vid=2eee3cc3-8307-4686-ab2d-5018248f4684"},"vehicle_type_id":"4","last_reported":1753398688,"current_range_meters":12400,"station_id":"ce4bh312rcd13ifvqdk0","pricing_plan_id":"cebpf4jnsgd1na2vs0mg"},{"bike_id":"5f824980-27aa-4ef2-856d-b766bebead8a","system_id":"levelo_inurba_marseille","lat":43.22514,"lon":5.34778,"is_reserved":false,"is_disabled":false,"rental_uris":{"android":"levelo://app?vid=5f824980-27aa-4ef2-856d-b766bebead8a","ios":"levelo://app?vid=5f824980-27aa-4ef2-856d-b766bebead8a"},"vehicle_type_id":"4","last_reported":1753398688,"current_range_meters":12400,"station_id":"st_cvj5dfep6f1abm77gieg","pricing_plan_id":"cebpf4jnsgd1na2vs0mg"},{"bike_id":"53787252-a49a-4af0-816f-f50ba7f41c2c","system_id":"levelo_inurba_marseille","lat":43.27571,"lon":5.38426,"is_reserved":false,"is_disabled":false,"rental_uris":{"android":"levelo://app?vid=53787252-a49a-4af0-816f-f50ba7f41c2c","ios":"levelo://app?vid=53787252-a49a-4af0-816f-f50ba7f41c2c"},"vehicle_type_id":"4","last_reported":1753398688,"current_range_meters":12400,"station_id":"ce4bhh92rcd13ifvqfi0","pricing_plan_id":"cebpf4jnsgd1na2vs0mg"},{"bike_id":"4bf6234e-2a51-4a6b-a9e6-c9237591b7c4","system_id":"levelo_inurba_marseille","lat":43.28939,"lon":5.39628,"is_reserved":false,"is_disabled":false,"rental_uris":{"android":"levelo://app?vid=4bf6234e-2a51-4a6b-a9e6-c9237591b7c4","ios":"levelo://app?vid=4bf6234e-2a51-4a6b-a9e6-c9237591b7c4"},"vehicle_type_id":"4","last_reported":1753398688,"current_range_meters":12400,"station_id":"ce4bh3h2rcd13ifvqdn0","pricing_plan_id":"cebpf4jnsgd1na2vs0mg"},{"bike_id":"ad25e224-b15c-4949-92a3-53289b1bd1fb","system_id":"levelo_inurba_marseille","lat":43.28777,"lon":5.38503,"is_reserved":false,"is_disabled":false,"rental_uris":{"android":"levelo://app?vid=ad25e224-b15c-4949-92a3-53289b1bd1fb","ios":"levelo://app?vid=ad25e224-b15c-4949-92a3-53289b1bd1fb"},"vehicle_type_id":"4","last_reported":1753398688,"current_range_meters":12400,"station_id":"","pricing_plan_id":"cebpf4jnsgd1na2vs0mg"},{"bike_id":"7043615b-ade2-4e50-a083-e59f8b28b13a","system_id":"levelo_inurba_marseille","lat":43.287019,"lon":5.399899,"is_reserved":false,"is_disabled":false,"rental_uris":{"android":"levelo://app?vid=7043615b-ade2-4e50-a083-e59f8b28b13a","ios":"levelo://app?vid=7043615b-ade2-4e50-a083-e59f8b28b13a"},"vehicle_type_id":"4","last_reported":1753398688,"current_range_meters":12800,"station_id":"ce4bho92rcd13ifvqh3g","pricing_plan_id":"cebpf4jnsgd1na2vs0mg"},{"bike_id":"a06cac27-b5f8-4f16-bb55-d61b75816638","system_id":"levelo_inurba_marseille","lat":43.24654,"lon":5.38933,"is_reserved":false,"is_disabled":false,"rental_uris":{"android":"levelo://app?vid=a06cac27-b5f8-4f16-bb55-d61b75816638","ios":"levelo://app?vid=a06cac27-b5f8-4f16-bb55-d61b75816638"},"vehicle_type_id":"4","last_reported":1753398688,"current_range_meters":12800,"station_id":"ce4bhg12rcd13ifvqf60","pricing_plan_id":"cebpf4jnsgd1na2vs0mg"},{"bike_id":"702e96cb-8a61-4726-b91e-0ec8b89ce6c5","system_id":"levelo_inurba_marseille","lat":43.30259,"lon":5.40072,"is_reserved":false,"is_disabled":false,"rental_uris":{"android":"levelo://app?vid=702e96cb-8a61-4726-b91e-0ec8b89ce6c5","ios":"levelo://app?vid=702e96cb-8a61-4726-b91e-0ec8b89ce6c5"},"vehicle_type_id":"4","last_reported":1753398688,"current_range_meters":12800,"station_id":"ce4bgvh2rcd13ifvqcs0","pricing_plan_id":"cebpf4jnsgd1na2vs0mg"},{"bike_id":"3f94cca8-8ca9-4713-8017-eed8acb78034","system_id":"levelo_inurba_marseille","lat":43.24162,"lon":5.36405,"is_reserved":false,"is_disabled":false,"rental_uris":{"android":"levelo://app?vid=3f94cca8-8ca9-4713-8017-eed8acb78034","ios":"levelo://app?vid=3f94cca8-8ca9-4713-8017-eed8acb78034"},"vehicle_type_id":"4","last_reported":1753398688,"current_range_meters":12800,"station_id":"cpo36qri1sfpv3e86is0","pricing_plan_id":"cebpf4jnsgd1na2vs0mg"},{"bike_id":"f9608992-cc18-4704-ab83-e801fbe75ea7","system_id":"levelo_inurba_marseille","lat":43.31267,"lon":5.40174,"is_reserved":false,"is_disabled":false,"rental_uris":{"android":"levelo://app?vid=f9608992-cc18-4704-ab83-e801fbe75ea7","ios":"levelo://app?vid=f9608992-cc18-4704-ab83-e801fbe75ea7"},"vehicle_type_id":"4","last_reported":1753398688,"current_range_meters":12800,"station_id":"ce4bh092rcd13ifvqd30","pricing_plan_id":"cebpf4jnsgd1na2vs0mg"},{"bike_id":"c38a13d3-7b60-47e5-b732-764b0220d2b9","system_id":"levelo_inurba_marseille","lat":43.30357,"lon":5.41876,"is_reserved":false,"is_disabled":false,"rental_uris":{"android":"levelo://app?vid=c38a13d3-7b60-47e5-b732-764b0220d2b9","ios":"levelo://app?vid=c38a13d3-7b60-47e5-b732-764b0220d2b9"},"vehicle_type_id":"4","last_reported":1753398688,"current_range_meters":12800,"station_id":"ce4bhop2rcd13ifvqh7g","pricing_plan_id":"cebpf4jnsgd1na2vs0mg"},{"bike_id":"94f32c38-82eb-4489-9734-8082cf499adb","system_id":"levelo_inurba_marseille","lat":43.28822,"lon":5.39143,"is_reserved":false,"is_disabled":false,"rental_uris":{"android":"levelo://app?vid=94f32c38-82eb-4489-9734-8082cf499adb","ios":"levelo://app?vid=94f32c38-82eb-4489-9734-8082cf499adb"},"vehicle_type_id":"4","last_reported":1753398688,"current_range_meters":12800,"station_id":"","pricing_plan_id":"cebpf4jnsgd1na2vs0mg"},{"bike_id":"35a86048-76dd-4de0-afb2-7da8772fad44","system_id":"levelo_inurba_marseille","lat":43.21535,"lon":5.34735,"is_reserved":false,"is_disabled":false,"rental_uris":{"android":"levelo://app?vid=35a86048-76dd-4de0-afb2-7da8772fad44","ios":"levelo://app?vid=35a86048-76dd-4de0-afb2-7da8772fad44"},"vehicle_type_id":"4","last_reported":1753398688,"current_range_meters":12800,"station_id":"","pricing_plan_id":"cebpf4jnsgd1na2vs0mg"},{"bike_id":"f83efb54-1802-467c-a5fe-df84fba2e1d2","system_id":"levelo_inurba_marseille","lat":43.292888,"lon":5.401066,"is_reserved":false,"is_disabled":false,"rental_uris":{"android":"levelo://app?vid=f83efb54-1802-467c-a5fe-df84fba2e1d2","ios":"levelo://app?vid=f83efb54-1802-467c-a5fe-df84fba2e1d2"},"vehicle_type_id":"4","last_reported":1753398688,"current_range_meters":12800,"station_id":"ce4bh312rcd13ifvqdk0","pricing_plan_id":"cebpf4jnsgd1na2vs0mg"},{"bike_id":"5fb5dc0b-c5c2-47ba-9bf5-b3381a8d470d","system_id":"levelo_inurba_marseille","lat":43.3089,"lon":5.39686,"is_reserved":false,"is_disabled":true,"rental_uris":{"android":"levelo://app?vid=5fb5dc0b-c5c2-47ba-9bf5-b3381a8d470d","ios":"levelo://app?vid=5fb5dc0b-c5c2-47ba-9bf5-b3381a8d470d"},"vehicle_type_id":"4","last_reported":1753398688,"current_range_meters":12800,"station_id":"ce4bh012rcd13ifvqcv0","pricing_plan_id":"cebpf4jnsgd1na2vs0mg"},{"bike_id":"bee85b99-8dbc-44aa-997f-ebcfd221c874","system_id":"levelo_inurba_marseille","lat":43.30926,"lon":5.40149,"is_reserved":false,"is_disabled":false,"rental_uris":{"android":"levelo://app?vid=bee85b99-8dbc-44aa-997f-ebcfd221c874","ios":"levelo://app?vid=bee85b99-8dbc-44aa-997f-ebcfd221c874"},"vehicle_type_id":"4","last_reported":1753398688,"current_range_meters":13600,"station_id":"ce4bgvp2rcd13ifvqct0","pricing_plan_id":"cebpf4jnsgd1na2vs0mg"},{"bike_id":"9353d228-8680-4d7c-b6dd-c80a6ca3c031","system_id":"levelo_inurba_marseille","lat":43.30378,"lon":5.42493,"is_reserved":false,"is_disabled":false,"rental_uris":{"android":"levelo://app?vid=9353d228-8680-4d7c-b6dd-c80a6ca3c031","ios":"levelo://app?vid=9353d228-8680-4d7c-b6dd-c80a6ca3c031"},"vehicle_type_id":"4","last_reported":1753398688,"current_range_meters":13600,"station_id":"ce4bhoh2rcd13ifvqh6g","pricing_plan_id":"cebpf4jnsgd1na2vs0mg"},{"bike_id":"eaea15aa-98ae-4f78-b37a-80e2e4524837","system_id":"levelo_inurba_marseille","lat":43.297916,"lon":5.381026,"is_reserved":false,"is_disabled":false,"rental_uris":{"android":"levelo://app?vid=eaea15aa-98ae-4f78-b37a-80e2e4524837","ios":"levelo://app?vid=eaea15aa-98ae-4f78-b37a-80e2e4524837"},"vehicle_type_id":"4","last_reported":1753398688,"current_range_meters":14000,"station_id":"","pricing_plan_id":"cebpf4jnsgd1na2vs0mg"},{"bike_id":"f7f07796-c7c9-4a74-80e9-fb85744448b8","system_id":"levelo_inurba_marseille","lat":43.229275,"lon":5.353789,"is_reserved":false,"is_disabled":false,"rental_uris":{"android":"levelo://app?vid=f7f07796-c7c9-4a74-80e9-fb85744448b8","ios":"levelo://app?vid=f7f07796-c7c9-4a74-80e9-fb85744448b8"},"vehicle_type_id":"4","last_reported":1753398688,"current_range_meters":13600,"station_id":"cpo3532slgdg3j2ikp40","pricing_plan_id":"cebpf4jnsgd1na2vs0mg"},{"bike_id":"da93b008-ce26-4a20-82f4-fc970dc56012","system_id":"levelo_inurba_marseille","lat":43.30321,"lon":5.40444,"is_reserved":false,"is_disabled":false,"rental_uris":{"android":"levelo://app?vid=da93b008-ce26-4a20-82f4-fc970dc56012","ios":"levelo://app?vid=da93b008-ce26-4a20-82f4-fc970dc56012"},"vehicle_type_id":"4","last_reported":1753398688,"current_range_meters":13600,"station_id":"ce4bh012rcd13ifvqd10","pricing_plan_id":"cebpf4jnsgd1na2vs0mg"},{"bike_id":"27b5acbc-b1fd-4385-9be5-bae49e9e4f6a","system_id":"levelo_inurba_marseille","lat":43.24832,"lon":5.37448,"is_reserved":false,"is_disabled":false,"rental_uris":{"android":"levelo://app?vid=27b5acbc-b1fd-4385-9be5-bae49e9e4f6a","ios":"levelo://app?vid=27b5acbc-b1fd-4385-9be5-bae49e9e4f6a"},"vehicle_type_id":"4","last_reported":1753398688,"current_range_meters":13600,"station_id":"ce4bhgh2rcd13ifvqfb0","pricing_plan_id":"cebpf4jnsgd1na2vs0mg"},{"bike_id":"fbda76a5-068e-4d90-b9ba-25721acd9298","system_id":"levelo_inurba_marseille","lat":43.29028,"lon":5.43961,"is_reserved":false,"is_disabled":false,"rental_uris":{"android":"levelo://app?vid=fbda76a5-068e-4d90-b9ba-25721acd9298","ios":"levelo://app?vid=fbda76a5-068e-4d90-b9ba-25721acd9298"},"vehicle_type_id":"4","last_reported":1753398688,"current_range_meters":14000,"station_id":"","pricing_plan_id":"cebpf4jnsgd1na2vs0mg"},{"bike_id":"46a705ee-9bbe-4cc0-8c8c-ad064e9051a7","system_id":"levelo_inurba_marseille","lat":43.30275,"lon":5.4007,"is_reserved":false,"is_disabled":false,"rental_uris":{"android":"levelo://app?vid=46a705ee-9bbe-4cc0-8c8c-ad064e9051a7","ios":"levelo://app?vid=46a705ee-9bbe-4cc0-8c8c-ad064e9051a7"},"vehicle_type_id":"4","last_reported":1753398688,"current_range_meters":14000,"station_id":"ce4bgvh2rcd13ifvqcs0","pricing_plan_id":"cebpf4jnsgd1na2vs0mg"},{"bike_id":"1f39eb17-34c7-4235-9069-0f68f613789c","system_id":"levelo_inurba_marseille","lat":43.26886,"lon":5.36871,"is_reserved":false,"is_disabled":false,"rental_uris":{"android":"levelo://app?vid=1f39eb17-34c7-4235-9069-0f68f613789c","ios":"levelo://app?vid=1f39eb17-34c7-4235-9069-0f68f613789c"},"vehicle_type_id":"4","last_reported":1753398688,"current_range_meters":14400,"station_id":"","pricing_plan_id":"cebpf4jnsgd1na2vs0mg"},{"bike_id":"cf776233-7766-4109-aadc-a0d3c334d400","system_id":"levelo_inurba_marseille","lat":43.24071,"lon":5.37764,"is_reserved":false,"is_disabled":false,"rental_uris":{"android":"levelo://app?vid=cf776233-7766-4109-aadc-a0d3c334d400","ios":"levelo://app?vid=cf776233-7766-4109-aadc-a0d3c334d400"},"vehicle_type_id":"4","last_reported":1753398688,"current_range_meters":14400,"station_id":"ce4bhnp2rcd13ifvqgvg","pricing_plan_id":"cebpf4jnsgd1na2vs0mg"},{"bike_id":"0328ec12-5a05-4c30-bd25-27f5ce8bb3b4","system_id":"levelo_inurba_marseille","lat":43.3109,"lon":5.40101,"is_reserved":false,"is_disabled":false,"rental_uris":{"android":"levelo://app?vid=0328ec12-5a05-4c30-bd25-27f5ce8bb3b4","ios":"levelo://app?vid=0328ec12-5a05-4c30-bd25-27f5ce8bb3b4"},"vehicle_type_id":"4","last_reported":1753398688,"current_range_meters":14400,"station_id":"","pricing_plan_id":"cebpf4jnsgd1na2vs0mg"},{"bike_id":"efe430a2-b548-451c-a0da-531bae37a4ee","system_id":"levelo_inurba_marseille","lat":43.30922,"lon":5.40148,"is_reserved":false,"is_disabled":false,"rental_uris":{"android":"levelo://app?vid=efe430a2-b548-451c-a0da-531bae37a4ee","ios":"levelo://app?vid=efe430a2-b548-451c-a0da-531bae37a4ee"},"vehicle_type_id":"4","last_reported":1753398688,"current_range_meters":14400,"station_id":"ce4bgvp2rcd13ifvqct0","pricing_plan_id":"cebpf4jnsgd1na2vs0mg"},{"bike_id":"032f66d0-c387-41c5-9af4-1ad9711f505c","system_id":"levelo_inurba_marseille","lat":43.316889,"lon":5.404704,"is_reserved":false,"is_disabled":false,"rental_uris":{"android":"levelo://app?vid=032f66d0-c387-41c5-9af4-1ad9711f505c","ios":"levelo://app?vid=032f66d0-c387-41c5-9af4-1ad9711f505c"},"vehicle_type_id":"4","last_reported":1753398688,"current_range_meters":14400,"station_id":"ce4bh012rcd13ifvqd00","pricing_plan_id":"cebpf4jnsgd1na2vs0mg"},{"bike_id":"0b7b393e-ffc0-466b-b83b-03bd84dc0d55","system_id":"levelo_inurba_marseille","lat":43.29535,"lon":5.4227,"is_reserved":false,"is_disabled":false,"rental_uris":{"android":"levelo://app?vid=0b7b393e-ffc0-466b-b83b-03bd84dc0d55","ios":"levelo://app?vid=0b7b393e-ffc0-466b-b83b-03bd84dc0d55"},"vehicle_type_id":"4","last_reported":1753398688,"current_range_meters":14400,"station_id":"ce4bhph2rcd13ifvqhdg","pricing_plan_id":"cebpf4jnsgd1na2vs0mg"},{"bike_id":"f7f2157f-effd-43ab-80cb-e8fe0ec86a59","system_id":"levelo_inurba_marseille","lat":43.29519,"lon":5.38545,"is_reserved":false,"is_disabled":false,"rental_uris":{"android":"levelo://app?vid=f7f2157f-effd-43ab-80cb-e8fe0ec86a59","ios":"levelo://app?vid=f7f2157f-effd-43ab-80cb-e8fe0ec86a59"},"vehicle_type_id":"4","last_reported":1753398688,"current_range_meters":14400,"station_id":"ce4bgih2rcd13ifvqba0","pricing_plan_id":"cebpf4jnsgd1na2vs0mg"},{"bike_id":"7136e517-5ffc-4744-82ab-5e8aff975eec","system_id":"levelo_inurba_marseille","lat":43.29705,"lon":5.36612,"is_reserved":false,"is_disabled":true,"rental_uris":{"android":"levelo://app?vid=7136e517-5ffc-4744-82ab-5e8aff975eec","ios":"levelo://app?vid=7136e517-5ffc-4744-82ab-5e8aff975eec"},"vehicle_type_id":"4","last_reported":1753398688,"current_range_meters":14400,"station_id":"ce4bgn12rcd13ifvqbt0","pricing_plan_id":"cebpf4jnsgd1na2vs0mg"},{"bike_id":"cde09118-4e23-4bb2-b849-33e3f64e39e6","system_id":"levelo_inurba_marseille","lat":43.28441,"lon":5.39207,"is_reserved":false,"is_disabled":false,"rental_uris":{"android":"levelo://app?vid=cde09118-4e23-4bb2-b849-33e3f64e39e6","ios":"levelo://app?vid=cde09118-4e23-4bb2-b849-33e3f64e39e6"},"vehicle_type_id":"4","last_reported":1753398688,"current_range_meters":14400,"station_id":"ce4bhoh2rcd13ifvqh5g","pricing_plan_id":"cebpf4jnsgd1na2vs0mg"},{"bike_id":"0cc749e8-04f4-4694-b71e-83a098c6e8e0","system_id":"levelo_inurba_marseille","lat":43.27918,"lon":5.38011,"is_reserved":false,"is_disabled":false,"rental_uris":{"android":"levelo://app?vid=0cc749e8-04f4-4694-b71e-83a098c6e8e0","ios":"levelo://app?vid=0cc749e8-04f4-4694-b71e-83a098c6e8e0"},"vehicle_type_id":"4","last_reported":1753398688,"current_range_meters":14800,"station_id":"ce4bhf92rcd13ifvqf50","pricing_plan_id":"cebpf4jnsgd1na2vs0mg"},{"bike_id":"0aa2d153-96d1-4d69-83b8-d39119aa9dd5","system_id":"levelo_inurba_marseille","lat":43.33523,"lon":5.36229,"is_reserved":false,"is_disabled":false,"rental_uris":{"android":"levelo://app?vid=0aa2d153-96d1-4d69-83b8-d39119aa9dd5","ios":"levelo://app?vid=0aa2d153-96d1-4d69-83b8-d39119aa9dd5"},"vehicle_type_id":"4","last_reported":1753398688,"current_range_meters":14800,"station_id":"","pricing_plan_id":"cebpf4jnsgd1na2vs0mg"},{"bike_id":"f0ec3f2b-99d6-4143-b9d2-f44852809e36","system_id":"levelo_inurba_marseille","lat":43.25158,"lon":5.40353,"is_reserved":false,"is_disabled":false,"rental_uris":{"android":"levelo://app?vid=f0ec3f2b-99d6-4143-b9d2-f44852809e36","ios":"levelo://app?vid=f0ec3f2b-99d6-4143-b9d2-f44852809e36"},"vehicle_type_id":"4","last_reported":1753398688,"current_range_meters":14800,"station_id":"","pricing_plan_id":"cebpf4jnsgd1na2vs0mg"},{"bike_id":"78653305-64b5-42bf-9e08-47df67bd4ff7","system_id":"levelo_inurba_marseille","lat":43.28363,"lon":5.3811,"is_reserved":false,"is_disabled":false,"rental_uris":{"android":"levelo://app?vid=78653305-64b5-42bf-9e08-47df67bd4ff7","ios":"levelo://app?vid=78653305-64b5-42bf-9e08-47df67bd4ff7"},"vehicle_type_id":"4","last_reported":1753398688,"current_range_meters":14800,"station_id":"ce4bh412rcd13ifvqdr0","pricing_plan_id":"cebpf4jnsgd1na2vs0mg"},{"bike_id":"e8ceab27-aa51-45d2-8fcc-ce7e4149a8cd","system_id":"levelo_inurba_marseille","lat":43.31689,"lon":5.40478,"is_reserved":false,"is_disabled":false,"rental_uris":{"android":"levelo://app?vid=e8ceab27-aa51-45d2-8fcc-ce7e4149a8cd","ios":"levelo://app?vid=e8ceab27-aa51-45d2-8fcc-ce7e4149a8cd"},"vehicle_type_id":"4","last_reported":1753398688,"current_range_meters":14800,"station_id":"ce4bh012rcd13ifvqd00","pricing_plan_id":"cebpf4jnsgd1na2vs0mg"},{"bike_id":"2bee8a00-4220-48c4-b5ef-0cc3dd8900d1","system_id":"levelo_inurba_marseille","lat":43.32727,"lon":5.41011,"is_reserved":false,"is_disabled":false,"rental_uris":{"android":"levelo://app?vid=2bee8a00-4220-48c4-b5ef-0cc3dd8900d1","ios":"levelo://app?vid=2bee8a00-4220-48c4-b5ef-0cc3dd8900d1"},"vehicle_type_id":"4","last_reported":1753398688,"current_range_meters":14800,"station_id":"ce4bhpp2rcd13ifvqhgg","pricing_plan_id":"cebpf4jnsgd1na2vs0mg"},{"bike_id":"b3c98151-32c9-4162-a221-f12ba796feaf","system_id":"levelo_inurba_marseille","lat":43.28096,"lon":5.37861,"is_reserved":false,"is_disabled":false,"rental_uris":{"android":"levelo://app?vid=b3c98151-32c9-4162-a221-f12ba796feaf","ios":"levelo://app?vid=b3c98151-32c9-4162-a221-f12ba796feaf"},"vehicle_type_id":"4","last_reported":1753398688,"current_range_meters":14800,"station_id":"ce4bha12rcd13ifvqee0","pricing_plan_id":"cebpf4jnsgd1na2vs0mg"},{"bike_id":"d40c33a9-f40e-45aa-b3fa-af49177afd3d","system_id":"levelo_inurba_marseille","lat":43.26222,"lon":5.37451,"is_reserved":false,"is_disabled":false,"rental_uris":{"android":"levelo://app?vid=d40c33a9-f40e-45aa-b3fa-af49177afd3d","ios":"levelo://app?vid=d40c33a9-f40e-45aa-b3fa-af49177afd3d"},"vehicle_type_id":"4","last_reported":1753398688,"current_range_meters":15200,"station_id":"ce4bhgp2rcd13ifvqfc0","pricing_plan_id":"cebpf4jnsgd1na2vs0mg"},{"bike_id":"d8ab8225-ebfc-48f1-9981-f15e3b9960ea","system_id":"levelo_inurba_marseille","lat":43.22927,"lon":5.35375,"is_reserved":false,"is_disabled":false,"rental_uris":{"android":"levelo://app?vid=d8ab8225-ebfc-48f1-9981-f15e3b9960ea","ios":"levelo://app?vid=d8ab8225-ebfc-48f1-9981-f15e3b9960ea"},"vehicle_type_id":"4","last_reported":1753398688,"current_range_meters":15200,"station_id":"cpo3532slgdg3j2ikp40","pricing_plan_id":"cebpf4jnsgd1na2vs0mg"},{"bike_id":"0a7e2862-d8ec-4c77-89d9-cfcdd51f8d75","system_id":"levelo_inurba_marseille","lat":43.31872,"lon":5.37373,"is_reserved":false,"is_disabled":false,"rental_uris":{"android":"levelo://app?vid=0a7e2862-d8ec-4c77-89d9-cfcdd51f8d75","ios":"levelo://app?vid=0a7e2862-d8ec-4c77-89d9-cfcdd51f8d75"},"vehicle_type_id":"4","last_reported":1753398688,"current_range_meters":15200,"station_id":"","pricing_plan_id":"cebpf4jnsgd1na2vs0mg"},{"bike_id":"ce193c8e-90e0-4599-95e2-d02b7d163b03","system_id":"levelo_inurba_marseille","lat":43.24063,"lon":5.37757,"is_reserved":false,"is_disabled":false,"rental_uris":{"android":"levelo://app?vid=ce193c8e-90e0-4599-95e2-d02b7d163b03","ios":"levelo://app?vid=ce193c8e-90e0-4599-95e2-d02b7d163b03"},"vehicle_type_id":"4","last_reported":1753398688,"current_range_meters":16000,"station_id":"ce4bhnp2rcd13ifvqgvg","pricing_plan_id":"cebpf4jnsgd1na2vs0mg"},{"bike_id":"16808e46-3f56-423a-8ef2-518249da5ad0","system_id":"levelo_inurba_marseille","lat":43.29574,"lon":5.39952,"is_reserved":false,"is_disabled":false,"rental_uris":{"android":"levelo://app?vid=16808e46-3f56-423a-8ef2-518249da5ad0","ios":"levelo://app?vid=16808e46-3f56-423a-8ef2-518249da5ad0"},"vehicle_type_id":"4","last_reported":1753398688,"current_range_meters":16000,"station_id":"ce4bh312rcd13ifvqdj0","pricing_plan_id":"cebpf4jnsgd1na2vs0mg"},{"bike_id":"53e61ac0-0184-4f05-bbb5-4880020e7dc9","system_id":"levelo_inurba_marseille","lat":43.28417,"lon":5.37523,"is_reserved":false,"is_disabled":false,"rental_uris":{"android":"levelo://app?vid=53e61ac0-0184-4f05-bbb5-4880020e7dc9","ios":"levelo://app?vid=53e61ac0-0184-4f05-bbb5-4880020e7dc9"},"vehicle_type_id":"4","last_reported":1753398688,"current_range_meters":16000,"station_id":"ce4bh412rcd13ifvqds0","pricing_plan_id":"cebpf4jnsgd1na2vs0mg"},{"bike_id":"481351de-e3d5-4a6f-aa67-c1762e7ed223","system_id":"levelo_inurba_marseille","lat":43.27085,"lon":5.42297,"is_reserved":false,"is_disabled":false,"rental_uris":{"android":"levelo://app?vid=481351de-e3d5-4a6f-aa67-c1762e7ed223","ios":"levelo://app?vid=481351de-e3d5-4a6f-aa67-c1762e7ed223"},"vehicle_type_id":"4","last_reported":1753398688,"current_range_meters":16000,"station_id":"ce4bhk92rcd13ifvqgb0","pricing_plan_id":"cebpf4jnsgd1na2vs0mg"},{"bike_id":"f2bb9022-194f-48c2-8458-a0c976dec6c6","system_id":"levelo_inurba_marseille","lat":43.30292,"lon":5.39234,"is_reserved":false,"is_disabled":false,"rental_uris":{"android":"levelo://app?vid=f2bb9022-194f-48c2-8458-a0c976dec6c6","ios":"levelo://app?vid=f2bb9022-194f-48c2-8458-a0c976dec6c6"},"vehicle_type_id":"4","last_reported":1753398688,"current_range_meters":16000,"station_id":"ce4bgkh2rcd13ifvqbk0","pricing_plan_id":"cebpf4jnsgd1na2vs0mg"},{"bike_id":"1bad41f4-2220-48a2-9d56-f732121985af","system_id":"levelo_inurba_marseille","lat":43.31304,"lon":5.43118,"is_reserved":false,"is_disabled":false,"rental_uris":{"android":"levelo://app?vid=1bad41f4-2220-48a2-9d56-f732121985af","ios":"levelo://app?vid=1bad41f4-2220-48a2-9d56-f732121985af"},"vehicle_type_id":"4","last_reported":1753398688,"current_range_meters":16000,"station_id":"","pricing_plan_id":"cebpf4jnsgd1na2vs0mg"},{"bike_id":"26f3cddf-16b3-457c-8d97-8805f37dca70","system_id":"levelo_inurba_marseille","lat":43.29079,"lon":5.38146,"is_reserved":false,"is_disabled":false,"rental_uris":{"android":"levelo://app?vid=26f3cddf-16b3-457c-8d97-8805f37dca70","ios":"levelo://app?vid=26f3cddf-16b3-457c-8d97-8805f37dca70"},"vehicle_type_id":"4","last_reported":1753398688,"current_range_meters":16000,"station_id":"ce4bh512rcd13ifvqe2g","pricing_plan_id":"cebpf4jnsgd1na2vs0mg"},{"bike_id":"ffab4a34-82e9-461f-8967-2ccafce68b3b","system_id":"levelo_inurba_marseille","lat":43.26538,"lon":5.37304,"is_reserved":false,"is_disabled":false,"rental_uris":{"android":"levelo://app?vid=ffab4a34-82e9-461f-8967-2ccafce68b3b","ios":"levelo://app?vid=ffab4a34-82e9-461f-8967-2ccafce68b3b"},"vehicle_type_id":"4","last_reported":1753398688,"current_range_meters":16000,"station_id":"ce4bhg12rcd13ifvqf70","pricing_plan_id":"cebpf4jnsgd1na2vs0mg"},{"bike_id":"668d3622-317d-4af1-bbd6-1f8c2bb0f9b0","system_id":"levelo_inurba_marseille","lat":43.28951,"lon":5.36623,"is_reserved":false,"is_disabled":false,"rental_uris":{"android":"levelo://app?vid=668d3622-317d-4af1-bbd6-1f8c2bb0f9b0","ios":"levelo://app?vid=668d3622-317d-4af1-bbd6-1f8c2bb0f9b0"},"vehicle_type_id":"4","last_reported":1753398688,"current_range_meters":16000,"station_id":"ce4bhap2rcd13ifvqek0","pricing_plan_id":"cebpf4jnsgd1na2vs0mg"},{"bike_id":"d732a5e3-7a84-4ad4-9791-9078970609c5","system_id":"levelo_inurba_marseille","lat":43.31115,"lon":5.37764,"is_reserved":false,"is_disabled":false,"rental_uris":{"android":"levelo://app?vid=d732a5e3-7a84-4ad4-9791-9078970609c5","ios":"levelo://app?vid=d732a5e3-7a84-4ad4-9791-9078970609c5"},"vehicle_type_id":"4","last_reported":1753398688,"current_range_meters":16400,"station_id":"ce4bgt92rcd13ifvqcg0","pricing_plan_id":"cebpf4jnsgd1na2vs0mg"},{"bike_id":"cf16c6c0-86f5-442e-bbba-3b2c4b02695a","system_id":"levelo_inurba_marseille","lat":43.31037,"lon":5.37764,"is_reserved":false,"is_disabled":false,"rental_uris":{"android":"levelo://app?vid=cf16c6c0-86f5-442e-bbba-3b2c4b02695a","ios":"levelo://app?vid=cf16c6c0-86f5-442e-bbba-3b2c4b02695a"},"vehicle_type_id":"4","last_reported":1753398688,"current_range_meters":16400,"station_id":"ce4bgt92rcd13ifvqcg0","pricing_plan_id":"cebpf4jnsgd1na2vs0mg"},{"bike_id":"261d4bb0-7bb9-4c80-93f3-cd6f68b7285e","system_id":"levelo_inurba_marseille","lat":43.31493,"lon":5.36919,"is_reserved":false,"is_disabled":false,"rental_uris":{"android":"levelo://app?vid=261d4bb0-7bb9-4c80-93f3-cd6f68b7285e","ios":"levelo://app?vid=261d4bb0-7bb9-4c80-93f3-cd6f68b7285e"},"vehicle_type_id":"4","last_reported":1753398688,"current_range_meters":16400,"station_id":"","pricing_plan_id":"cebpf4jnsgd1na2vs0mg"},{"bike_id":"f7d6669f-59ef-4860-b403-1e0f61f70de2","system_id":"levelo_inurba_marseille","lat":43.30801,"lon":5.38156,"is_reserved":false,"is_disabled":false,"rental_uris":{"android":"levelo://app?vid=f7d6669f-59ef-4860-b403-1e0f61f70de2","ios":"levelo://app?vid=f7d6669f-59ef-4860-b403-1e0f61f70de2"},"vehicle_type_id":"4","last_reported":1753398688,"current_range_meters":16400,"station_id":"ce4bgt12rcd13ifvqce0","pricing_plan_id":"cebpf4jnsgd1na2vs0mg"},{"bike_id":"76c2176d-20df-4c0c-846f-d109f0e6f041","system_id":"levelo_inurba_marseille","lat":43.28393,"lon":5.37531,"is_reserved":false,"is_disabled":false,"rental_uris":{"android":"levelo://app?vid=76c2176d-20df-4c0c-846f-d109f0e6f041","ios":"levelo://app?vid=76c2176d-20df-4c0c-846f-d109f0e6f041"},"vehicle_type_id":"4","last_reported":1753398688,"current_range_meters":16400,"station_id":"ce4bh412rcd13ifvqds0","pricing_plan_id":"cebpf4jnsgd1na2vs0mg"},{"bike_id":"3f947606-5aaa-4500-8084-bd1f98e6a611","system_id":"levelo_inurba_marseille","lat":43.31711,"lon":5.40458,"is_reserved":false,"is_disabled":false,"rental_uris":{"android":"levelo://app?vid=3f947606-5aaa-4500-8084-bd1f98e6a611","ios":"levelo://app?vid=3f947606-5aaa-4500-8084-bd1f98e6a611"},"vehicle_type_id":"4","last_reported":1753398688,"current_range_meters":16400,"station_id":"ce4bh012rcd13ifvqd00","pricing_plan_id":"cebpf4jnsgd1na2vs0mg"},{"bike_id":"ad7f924d-5443-4b14-80c3-fdbe71f8752e","system_id":"levelo_inurba_marseille","lat":43.26093,"lon":5.37291,"is_reserved":false,"is_disabled":false,"rental_uris":{"android":"levelo://app?vid=ad7f924d-5443-4b14-80c3-fdbe71f8752e","ios":"levelo://app?vid=ad7f924d-5443-4b14-80c3-fdbe71f8752e"},"vehicle_type_id":"4","last_reported":1753398688,"current_range_meters":16400,"station_id":"","pricing_plan_id":"cebpf4jnsgd1na2vs0mg"},{"bike_id":"e5283a02-c5bd-4b25-8c93-1db8bc740982","system_id":"levelo_inurba_marseille","lat":43.30255,"lon":5.40077,"is_reserved":false,"is_disabled":false,"rental_uris":{"android":"levelo://app?vid=e5283a02-c5bd-4b25-8c93-1db8bc740982","ios":"levelo://app?vid=e5283a02-c5bd-4b25-8c93-1db8bc740982"},"vehicle_type_id":"4","last_reported":1753398688,"current_range_meters":16400,"station_id":"ce4bgvh2rcd13ifvqcs0","pricing_plan_id":"cebpf4jnsgd1na2vs0mg"},{"bike_id":"c112c8f4-dcff-477c-929a-74ccbb519e30","system_id":"levelo_inurba_marseille","lat":43.31084,"lon":5.38355,"is_reserved":false,"is_disabled":false,"rental_uris":{"android":"levelo://app?vid=c112c8f4-dcff-477c-929a-74ccbb519e30","ios":"levelo://app?vid=c112c8f4-dcff-477c-929a-74ccbb519e30"},"vehicle_type_id":"4","last_reported":1753398688,"current_range_meters":16400,"station_id":"ce4bgv92rcd13ifvqcr0","pricing_plan_id":"cebpf4jnsgd1na2vs0mg"},{"bike_id":"51c9edb9-8fca-4a37-94cb-0b29aa01fff6","system_id":"levelo_inurba_marseille","lat":43.31218,"lon":5.36856,"is_reserved":false,"is_disabled":false,"rental_uris":{"android":"levelo://app?vid=51c9edb9-8fca-4a37-94cb-0b29aa01fff6","ios":"levelo://app?vid=51c9edb9-8fca-4a37-94cb-0b29aa01fff6"},"vehicle_type_id":"4","last_reported":1753398688,"current_range_meters":16800,"station_id":"ce4bgl92rcd13ifvqbq0","pricing_plan_id":"cebpf4jnsgd1na2vs0mg"},{"bike_id":"21bb3fef-81ef-46bb-a48d-d85402757c94","system_id":"levelo_inurba_marseille","lat":43.25452,"lon":5.37984,"is_reserved":false,"is_disabled":false,"rental_uris":{"android":"levelo://app?vid=21bb3fef-81ef-46bb-a48d-d85402757c94","ios":"levelo://app?vid=21bb3fef-81ef-46bb-a48d-d85402757c94"},"vehicle_type_id":"4","last_reported":1753398688,"current_range_meters":16800,"station_id":"","pricing_plan_id":"cebpf4jnsgd1na2vs0mg"},{"bike_id":"4de681d7-8945-4d95-b530-283c91e02ff0","system_id":"levelo_inurba_marseille","lat":43.28463,"lon":5.35891,"is_reserved":false,"is_disabled":false,"rental_uris":{"android":"levelo://app?vid=4de681d7-8945-4d95-b530-283c91e02ff0","ios":"levelo://app?vid=4de681d7-8945-4d95-b530-283c91e02ff0"},"vehicle_type_id":"4","last_reported":1753398688,"current_range_meters":16800,"station_id":"ce4bhah2rcd13ifvqei0","pricing_plan_id":"cebpf4jnsgd1na2vs0mg"},{"bike_id":"1e9cf983-3afc-4620-a4d4-2dd094704fd1","system_id":"levelo_inurba_marseille","lat":43.22501,"lon":5.34774,"is_reserved":false,"is_disabled":false,"rental_uris":{"android":"levelo://app?vid=1e9cf983-3afc-4620-a4d4-2dd094704fd1","ios":"levelo://app?vid=1e9cf983-3afc-4620-a4d4-2dd094704fd1"},"vehicle_type_id":"4","last_reported":1753398688,"current_range_meters":16800,"station_id":"st_cvj5dfep6f1abm77gieg","pricing_plan_id":"cebpf4jnsgd1na2vs0mg"},{"bike_id":"9ea56ab2-ac76-40e9-a300-419720468605","system_id":"levelo_inurba_marseille","lat":43.24634,"lon":5.38846,"is_reserved":false,"is_disabled":false,"rental_uris":{"android":"levelo://app?vid=9ea56ab2-ac76-40e9-a300-419720468605","ios":"levelo://app?vid=9ea56ab2-ac76-40e9-a300-419720468605"},"vehicle_type_id":"4","last_reported":1753398688,"current_range_meters":16800,"station_id":"ce4bhg12rcd13ifvqf60","pricing_plan_id":"cebpf4jnsgd1na2vs0mg"},{"bike_id":"dddbef83-b47e-460f-a4ac-beade05833f1","system_id":"levelo_inurba_marseille","lat":43.22943,"lon":5.35388,"is_reserved":false,"is_disabled":false,"rental_uris":{"android":"levelo://app?vid=dddbef83-b47e-460f-a4ac-beade05833f1","ios":"levelo://app?vid=dddbef83-b47e-460f-a4ac-beade05833f1"},"vehicle_type_id":"4","last_reported":1753398688,"current_range_meters":16800,"station_id":"cpo3532slgdg3j2ikp40","pricing_plan_id":"cebpf4jnsgd1na2vs0mg"},{"bike_id":"81214a4c-aec9-4439-9ab4-8d3754022513","system_id":"levelo_inurba_marseille","lat":43.2321,"lon":5.35552,"is_reserved":false,"is_disabled":true,"rental_uris":{"android":"levelo://app?vid=81214a4c-aec9-4439-9ab4-8d3754022513","ios":"levelo://app?vid=81214a4c-aec9-4439-9ab4-8d3754022513"},"vehicle_type_id":"4","last_reported":1753398688,"current_range_meters":16800,"station_id":"ce4bhu92rcd13ifvqi70","pricing_plan_id":"cebpf4jnsgd1na2vs0mg"},{"bike_id":"d2c1d56d-6a3a-4ae3-b7ab-84022ad7ad84","system_id":"levelo_inurba_marseille","lat":43.29741,"lon":5.37632,"is_reserved":false,"is_disabled":false,"rental_uris":{"android":"levelo://app?vid=d2c1d56d-6a3a-4ae3-b7ab-84022ad7ad84","ios":"levelo://app?vid=d2c1d56d-6a3a-4ae3-b7ab-84022ad7ad84"},"vehicle_type_id":"4","last_reported":1753398688,"current_range_meters":16800,"station_id":"","pricing_plan_id":"cebpf4jnsgd1na2vs0mg"},{"bike_id":"443c1dba-250b-4ece-9803-cccd4028be2e","system_id":"levelo_inurba_marseille","lat":43.28339,"lon":5.38099,"is_reserved":false,"is_disabled":false,"rental_uris":{"android":"levelo://app?vid=443c1dba-250b-4ece-9803-cccd4028be2e","ios":"levelo://app?vid=443c1dba-250b-4ece-9803-cccd4028be2e"},"vehicle_type_id":"4","last_reported":1753398688,"current_range_meters":17200,"station_id":"ce4bh412rcd13ifvqdr0","pricing_plan_id":"cebpf4jnsgd1na2vs0mg"},{"bike_id":"f2ca3887-7e82-498b-8c49-e80cd18a3051","system_id":"levelo_inurba_marseille","lat":43.23969,"lon":5.36634,"is_reserved":false,"is_disabled":false,"rental_uris":{"android":"levelo://app?vid=f2ca3887-7e82-498b-8c49-e80cd18a3051","ios":"levelo://app?vid=f2ca3887-7e82-498b-8c49-e80cd18a3051"},"vehicle_type_id":"4","last_reported":1753398688,"current_range_meters":17200,"station_id":"ce4bhi12rcd13ifvqfp0","pricing_plan_id":"cebpf4jnsgd1na2vs0mg"},{"bike_id":"e4581758-641a-4a4c-8e3c-1e4b2fe02835","system_id":"levelo_inurba_marseille","lat":43.29633,"lon":5.40599,"is_reserved":false,"is_disabled":false,"rental_uris":{"android":"levelo://app?vid=e4581758-641a-4a4c-8e3c-1e4b2fe02835","ios":"levelo://app?vid=e4581758-641a-4a4c-8e3c-1e4b2fe02835"},"vehicle_type_id":"4","last_reported":1753398688,"current_range_meters":17200,"station_id":"ce4bh0h2rcd13ifvqd60","pricing_plan_id":"cebpf4jnsgd1na2vs0mg"},{"bike_id":"3a9dba01-077d-441a-8b08-efef8454aebe","system_id":"levelo_inurba_marseille","lat":43.28856,"lon":5.39336,"is_reserved":false,"is_disabled":false,"rental_uris":{"android":"levelo://app?vid=3a9dba01-077d-441a-8b08-efef8454aebe","ios":"levelo://app?vid=3a9dba01-077d-441a-8b08-efef8454aebe"},"vehicle_type_id":"4","last_reported":1753398688,"current_range_meters":17200,"station_id":"ce4bh2p2rcd13ifvqdi0","pricing_plan_id":"cebpf4jnsgd1na2vs0mg"},{"bike_id":"2b64785a-0d05-4712-863c-7b48d9a895b4","system_id":"levelo_inurba_marseille","lat":43.292,"lon":5.39311,"is_reserved":false,"is_disabled":false,"rental_uris":{"android":"levelo://app?vid=2b64785a-0d05-4712-863c-7b48d9a895b4","ios":"levelo://app?vid=2b64785a-0d05-4712-863c-7b48d9a895b4"},"vehicle_type_id":"4","last_reported":1753398688,"current_range_meters":17200,"station_id":"ce4bh192rcd13ifvqdd0","pricing_plan_id":"cebpf4jnsgd1na2vs0mg"},{"bike_id":"655cc3c9-24b4-495b-a8d1-14629cda4870","system_id":"levelo_inurba_marseille","lat":43.30255,"lon":5.40079,"is_reserved":false,"is_disabled":false,"rental_uris":{"android":"levelo://app?vid=655cc3c9-24b4-495b-a8d1-14629cda4870","ios":"levelo://app?vid=655cc3c9-24b4-495b-a8d1-14629cda4870"},"vehicle_type_id":"4","last_reported":1753398688,"current_range_meters":17200,"station_id":"ce4bgvh2rcd13ifvqcs0","pricing_plan_id":"cebpf4jnsgd1na2vs0mg"},{"bike_id":"06f04326-e47c-43bd-93a9-fd0f762b4c6e","system_id":"levelo_inurba_marseille","lat":43.28703,"lon":5.37375,"is_reserved":false,"is_disabled":false,"rental_uris":{"android":"levelo://app?vid=06f04326-e47c-43bd-93a9-fd0f762b4c6e","ios":"levelo://app?vid=06f04326-e47c-43bd-93a9-fd0f762b4c6e"},"vehicle_type_id":"4","last_reported":1753398688,"current_range_meters":17200,"station_id":"ce4bh3p2rcd13ifvqdq0","pricing_plan_id":"cebpf4jnsgd1na2vs0mg"},{"bike_id":"b22e1417-6137-4e6d-94ac-12e50f6df72b","system_id":"levelo_inurba_marseille","lat":43.29518,"lon":5.38548,"is_reserved":false,"is_disabled":false,"rental_uris":{"android":"levelo://app?vid=b22e1417-6137-4e6d-94ac-12e50f6df72b","ios":"levelo://app?vid=b22e1417-6137-4e6d-94ac-12e50f6df72b"},"vehicle_type_id":"4","last_reported":1753398688,"current_range_meters":17200,"station_id":"ce4bgih2rcd13ifvqba0","pricing_plan_id":"cebpf4jnsgd1na2vs0mg"},{"bike_id":"8cc83817-d0ee-4c99-9a28-d4600aaa35cd","system_id":"levelo_inurba_marseille","lat":43.24077,"lon":5.37759,"is_reserved":false,"is_disabled":false,"rental_uris":{"android":"levelo://app?vid=8cc83817-d0ee-4c99-9a28-d4600aaa35cd","ios":"levelo://app?vid=8cc83817-d0ee-4c99-9a28-d4600aaa35cd"},"vehicle_type_id":"4","last_reported":1753398688,"current_range_meters":17200,"station_id":"ce4bhnp2rcd13ifvqgvg","pricing_plan_id":"cebpf4jnsgd1na2vs0mg"},{"bike_id":"87cac935-7fe9-4031-b13a-86b3c06380e1","system_id":"levelo_inurba_marseille","lat":43.30906,"lon":5.40151,"is_reserved":false,"is_disabled":false,"rental_uris":{"android":"levelo://app?vid=87cac935-7fe9-4031-b13a-86b3c06380e1","ios":"levelo://app?vid=87cac935-7fe9-4031-b13a-86b3c06380e1"},"vehicle_type_id":"4","last_reported":1753398688,"current_range_meters":17600,"station_id":"ce4bgvp2rcd13ifvqct0","pricing_plan_id":"cebpf4jnsgd1na2vs0mg"},{"bike_id":"a8943243-4e04-42c3-bd1a-14873656122b","system_id":"levelo_inurba_marseille","lat":43.31077,"lon":5.42446,"is_reserved":false,"is_disabled":false,"rental_uris":{"android":"levelo://app?vid=a8943243-4e04-42c3-bd1a-14873656122b","ios":"levelo://app?vid=a8943243-4e04-42c3-bd1a-14873656122b"},"vehicle_type_id":"4","last_reported":1753398688,"current_range_meters":17600,"station_id":"ce4bhp92rcd13ifvqhag","pricing_plan_id":"cebpf4jnsgd1na2vs0mg"},{"bike_id":"9dd88cc0-ad2c-451a-9d9b-271ddd803b84","system_id":"levelo_inurba_marseille","lat":43.31199,"lon":5.38704,"is_reserved":false,"is_disabled":false,"rental_uris":{"android":"levelo://app?vid=9dd88cc0-ad2c-451a-9d9b-271ddd803b84","ios":"levelo://app?vid=9dd88cc0-ad2c-451a-9d9b-271ddd803b84"},"vehicle_type_id":"4","last_reported":1753398688,"current_range_meters":17600,"station_id":"ce4bgv12rcd13ifvqcp0","pricing_plan_id":"cebpf4jnsgd1na2vs0mg"},{"bike_id":"20859a24-fd13-44e9-b9b3-6028ee9c71d4","system_id":"levelo_inurba_marseille","lat":43.283725,"lon":5.386328,"is_reserved":false,"is_disabled":false,"rental_uris":{"android":"levelo://app?vid=20859a24-fd13-44e9-b9b3-6028ee9c71d4","ios":"levelo://app?vid=20859a24-fd13-44e9-b9b3-6028ee9c71d4"},"vehicle_type_id":"4","last_reported":1753398688,"current_range_meters":17600,"station_id":"ce4bh492rcd13ifvqdvg","pricing_plan_id":"cebpf4jnsgd1na2vs0mg"},{"bike_id":"6017f8ed-cd95-4d92-8507-66c8be2e8ee3","system_id":"levelo_inurba_marseille","lat":43.27948,"lon":5.41054,"is_reserved":false,"is_disabled":false,"rental_uris":{"android":"levelo://app?vid=6017f8ed-cd95-4d92-8507-66c8be2e8ee3","ios":"levelo://app?vid=6017f8ed-cd95-4d92-8507-66c8be2e8ee3"},"vehicle_type_id":"4","last_reported":1753398688,"current_range_meters":17600,"station_id":"ce4bhnp2rcd13ifvqh0g","pricing_plan_id":"cebpf4jnsgd1na2vs0mg"},{"bike_id":"71b44c32-1ec1-479f-8f9e-a464e1647579","system_id":"levelo_inurba_marseille","lat":43.23311,"lon":5.3608,"is_reserved":false,"is_disabled":false,"rental_uris":{"android":"levelo://app?vid=71b44c32-1ec1-479f-8f9e-a464e1647579","ios":"levelo://app?vid=71b44c32-1ec1-479f-8f9e-a464e1647579"},"vehicle_type_id":"4","last_reported":1753398688,"current_range_meters":17600,"station_id":"","pricing_plan_id":"cebpf4jnsgd1na2vs0mg"},{"bike_id":"557011e9-d7bf-414b-870b-c050c63145f5","system_id":"levelo_inurba_marseille","lat":43.31078,"lon":5.38356,"is_reserved":false,"is_disabled":false,"rental_uris":{"android":"levelo://app?vid=557011e9-d7bf-414b-870b-c050c63145f5","ios":"levelo://app?vid=557011e9-d7bf-414b-870b-c050c63145f5"},"vehicle_type_id":"4","last_reported":1753398688,"current_range_meters":17600,"station_id":"ce4bgv92rcd13ifvqcr0","pricing_plan_id":"cebpf4jnsgd1na2vs0mg"},{"bike_id":"f7bbeb2c-dcc4-4a7e-a9cb-bbabe1eaf611","system_id":"levelo_inurba_marseille","lat":43.28483,"lon":5.38557,"is_reserved":false,"is_disabled":false,"rental_uris":{"android":"levelo://app?vid=f7bbeb2c-dcc4-4a7e-a9cb-bbabe1eaf611","ios":"levelo://app?vid=f7bbeb2c-dcc4-4a7e-a9cb-bbabe1eaf611"},"vehicle_type_id":"4","last_reported":1753398688,"current_range_meters":17600,"station_id":"ce4bh8p2rcd13ifvqeb0","pricing_plan_id":"cebpf4jnsgd1na2vs0mg"},{"bike_id":"724ab573-bfd2-4964-8fd0-7cf1ca3128dd","system_id":"levelo_inurba_marseille","lat":43.33608,"lon":5.41034,"is_reserved":false,"is_disabled":false,"rental_uris":{"android":"levelo://app?vid=724ab573-bfd2-4964-8fd0-7cf1ca3128dd","ios":"levelo://app?vid=724ab573-bfd2-4964-8fd0-7cf1ca3128dd"},"vehicle_type_id":"4","last_reported":1753398688,"current_range_meters":18000,"station_id":"ce4bhqh2rcd13ifvqhmg","pricing_plan_id":"cebpf4jnsgd1na2vs0mg"},{"bike_id":"51c449d9-7f57-4808-a857-72a97aadcc7c","system_id":"levelo_inurba_marseille","lat":43.25818,"lon":5.39436,"is_reserved":false,"is_disabled":false,"rental_uris":{"android":"levelo://app?vid=51c449d9-7f57-4808-a857-72a97aadcc7c","ios":"levelo://app?vid=51c449d9-7f57-4808-a857-72a97aadcc7c"},"vehicle_type_id":"4","last_reported":1753398688,"current_range_meters":18000,"station_id":"ce4bhip2rcd13ifvqft0","pricing_plan_id":"cebpf4jnsgd1na2vs0mg"},{"bike_id":"37771c5e-d270-46f0-b39b-509fb9c3f73b","system_id":"levelo_inurba_marseille","lat":43.3026,"lon":5.40081,"is_reserved":false,"is_disabled":false,"rental_uris":{"android":"levelo://app?vid=37771c5e-d270-46f0-b39b-509fb9c3f73b","ios":"levelo://app?vid=37771c5e-d270-46f0-b39b-509fb9c3f73b"},"vehicle_type_id":"4","last_reported":1753398688,"current_range_meters":18000,"station_id":"ce4bgvh2rcd13ifvqcs0","pricing_plan_id":"cebpf4jnsgd1na2vs0mg"},{"bike_id":"8a60f7b9-e16f-4543-bebb-ee741b4614fd","system_id":"levelo_inurba_marseille","lat":43.28671,"lon":5.386743,"is_reserved":false,"is_disabled":false,"rental_uris":{"android":"levelo://app?vid=8a60f7b9-e16f-4543-bebb-ee741b4614fd","ios":"levelo://app?vid=8a60f7b9-e16f-4543-bebb-ee741b4614fd"},"vehicle_type_id":"4","last_reported":1753398688,"current_range_meters":18000,"station_id":"ce4bh492rcd13ifvqdug","pricing_plan_id":"cebpf4jnsgd1na2vs0mg"},{"bike_id":"fd13a871-6a7c-45ab-8193-0aedb29a36fc","system_id":"levelo_inurba_marseille","lat":43.26552,"lon":5.37287,"is_reserved":false,"is_disabled":false,"rental_uris":{"android":"levelo://app?vid=fd13a871-6a7c-45ab-8193-0aedb29a36fc","ios":"levelo://app?vid=fd13a871-6a7c-45ab-8193-0aedb29a36fc"},"vehicle_type_id":"4","last_reported":1753398688,"current_range_meters":18000,"station_id":"ce4bhg12rcd13ifvqf70","pricing_plan_id":"cebpf4jnsgd1na2vs0mg"},{"bike_id":"f2c1cc68-66ae-448d-8763-030629ea502f","system_id":"levelo_inurba_marseille","lat":43.26666,"lon":5.4029,"is_reserved":false,"is_disabled":true,"rental_uris":{"android":"levelo://app?vid=f2c1cc68-66ae-448d-8763-030629ea502f","ios":"levelo://app?vid=f2c1cc68-66ae-448d-8763-030629ea502f"},"vehicle_type_id":"4","last_reported":1753398688,"current_range_meters":18000,"station_id":"","pricing_plan_id":"cebpf4jnsgd1na2vs0mg"},{"bike_id":"ec7c929a-26fb-4d06-aed1-ced5cc3b3a86","system_id":"levelo_inurba_marseille","lat":43.30066,"lon":5.38745,"is_reserved":false,"is_disabled":false,"rental_uris":{"android":"levelo://app?vid=ec7c929a-26fb-4d06-aed1-ced5cc3b3a86","ios":"levelo://app?vid=ec7c929a-26fb-4d06-aed1-ced5cc3b3a86"},"vehicle_type_id":"4","last_reported":1753398688,"current_range_meters":18000,"station_id":"","pricing_plan_id":"cebpf4jnsgd1na2vs0mg"},{"bike_id":"c59386ad-d49e-4400-92f2-a2c0fcc21264","system_id":"levelo_inurba_marseille","lat":43.29171,"lon":5.37551,"is_reserved":false,"is_disabled":true,"rental_uris":{"android":"levelo://app?vid=c59386ad-d49e-4400-92f2-a2c0fcc21264","ios":"levelo://app?vid=c59386ad-d49e-4400-92f2-a2c0fcc21264"},"vehicle_type_id":"4","last_reported":1753398688,"current_range_meters":18000,"station_id":"","pricing_plan_id":"cebpf4jnsgd1na2vs0mg"},{"bike_id":"4aa97969-2f6e-4edb-a09f-12d31a04a044","system_id":"levelo_inurba_marseille","lat":43.307844,"lon":5.376663,"is_reserved":false,"is_disabled":false,"rental_uris":{"android":"levelo://app?vid=4aa97969-2f6e-4edb-a09f-12d31a04a044","ios":"levelo://app?vid=4aa97969-2f6e-4edb-a09f-12d31a04a044"},"vehicle_type_id":"4","last_reported":1753398688,"current_range_meters":18000,"station_id":"ce4bgv92rcd13ifvqcq0","pricing_plan_id":"cebpf4jnsgd1na2vs0mg"},{"bike_id":"dc26f27d-d2d1-4b91-b970-5f86acc2d123","system_id":"levelo_inurba_marseille","lat":43.30423,"lon":5.3975,"is_reserved":false,"is_disabled":false,"rental_uris":{"android":"levelo://app?vid=dc26f27d-d2d1-4b91-b970-5f86acc2d123","ios":"levelo://app?vid=dc26f27d-d2d1-4b91-b970-5f86acc2d123"},"vehicle_type_id":"4","last_reported":1753398688,"current_range_meters":18000,"station_id":"ce4bh092rcd13ifvqd20","pricing_plan_id":"cebpf4jnsgd1na2vs0mg"},{"bike_id":"5cfe74ee-67cc-4223-97ee-3d16374f01fc","system_id":"levelo_inurba_marseille","lat":43.27372,"lon":5.36256,"is_reserved":false,"is_disabled":true,"rental_uris":{"android":"levelo://app?vid=5cfe74ee-67cc-4223-97ee-3d16374f01fc","ios":"levelo://app?vid=5cfe74ee-67cc-4223-97ee-3d16374f01fc"},"vehicle_type_id":"4","last_reported":1753398688,"current_range_meters":18000,"station_id":"ce4bhbh2rcd13ifvqeo0","pricing_plan_id":"cebpf4jnsgd1na2vs0mg"},{"bike_id":"75ce79c1-e23f-47ca-b12f-ecbb1fdfab43","system_id":"levelo_inurba_marseille","lat":43.28703,"lon":5.39972,"is_reserved":false,"is_disabled":false,"rental_uris":{"android":"levelo://app?vid=75ce79c1-e23f-47ca-b12f-ecbb1fdfab43","ios":"levelo://app?vid=75ce79c1-e23f-47ca-b12f-ecbb1fdfab43"},"vehicle_type_id":"4","last_reported":1753398688,"current_range_meters":18000,"station_id":"ce4bho92rcd13ifvqh3g","pricing_plan_id":"cebpf4jnsgd1na2vs0mg"},{"bike_id":"8e0fc6ca-95fd-484d-81be-068c9b37e71d","system_id":"levelo_inurba_marseille","lat":43.292685,"lon":5.407861,"is_reserved":false,"is_disabled":false,"rental_uris":{"android":"levelo://app?vid=8e0fc6ca-95fd-484d-81be-068c9b37e71d","ios":"levelo://app?vid=8e0fc6ca-95fd-484d-81be-068c9b37e71d"},"vehicle_type_id":"4","last_reported":1753398688,"current_range_meters":18000,"station_id":"ce4bh192rcd13ifvqdc0","pricing_plan_id":"cebpf4jnsgd1na2vs0mg"},{"bike_id":"69eb1cb9-71eb-4253-aac5-92298985e08a","system_id":"levelo_inurba_marseille","lat":43.31701,"lon":5.37782,"is_reserved":false,"is_disabled":false,"rental_uris":{"android":"levelo://app?vid=69eb1cb9-71eb-4253-aac5-92298985e08a","ios":"levelo://app?vid=69eb1cb9-71eb-4253-aac5-92298985e08a"},"vehicle_type_id":"4","last_reported":1753398688,"current_range_meters":18000,"station_id":"ce4bgth2rcd13ifvqch0","pricing_plan_id":"cebpf4jnsgd1na2vs0mg"},{"bike_id":"7a2e9e7e-4e9d-4e71-a22e-ef2896aef70a","system_id":"levelo_inurba_marseille","lat":43.289282,"lon":5.383986,"is_reserved":false,"is_disabled":false,"rental_uris":{"android":"levelo://app?vid=7a2e9e7e-4e9d-4e71-a22e-ef2896aef70a","ios":"levelo://app?vid=7a2e9e7e-4e9d-4e71-a22e-ef2896aef70a"},"vehicle_type_id":"4","last_reported":1753398688,"current_range_meters":18000,"station_id":"ce4bh612rcd13ifvqe6g","pricing_plan_id":"cebpf4jnsgd1na2vs0mg"},{"bike_id":"37f532f4-c095-4072-988d-7e2ac39552a1","system_id":"levelo_inurba_marseille","lat":43.30658,"lon":5.40082,"is_reserved":false,"is_disabled":false,"rental_uris":{"android":"levelo://app?vid=37f532f4-c095-4072-988d-7e2ac39552a1","ios":"levelo://app?vid=37f532f4-c095-4072-988d-7e2ac39552a1"},"vehicle_type_id":"4","last_reported":1753398688,"current_range_meters":18000,"station_id":"ce4bh112rcd13ifvqda0","pricing_plan_id":"cebpf4jnsgd1na2vs0mg"},{"bike_id":"6ce43b54-e70b-49ff-be6c-8d5d46713b54","system_id":"levelo_inurba_marseille","lat":43.28661,"lon":5.36352,"is_reserved":false,"is_disabled":false,"rental_uris":{"android":"levelo://app?vid=6ce43b54-e70b-49ff-be6c-8d5d46713b54","ios":"levelo://app?vid=6ce43b54-e70b-49ff-be6c-8d5d46713b54"},"vehicle_type_id":"4","last_reported":1753398688,"current_range_meters":18000,"station_id":"ce4bhah2rcd13ifvqej0","pricing_plan_id":"cebpf4jnsgd1na2vs0mg"},{"bike_id":"1834683d-9ec6-4905-9893-3afb186e89c1","system_id":"levelo_inurba_marseille","lat":43.261853,"lon":5.37447,"is_reserved":false,"is_disabled":false,"rental_uris":{"android":"levelo://app?vid=1834683d-9ec6-4905-9893-3afb186e89c1","ios":"levelo://app?vid=1834683d-9ec6-4905-9893-3afb186e89c1"},"vehicle_type_id":"4","last_reported":1753398688,"current_range_meters":18000,"station_id":"ce4bhgp2rcd13ifvqfc0","pricing_plan_id":"cebpf4jnsgd1na2vs0mg"},{"bike_id":"4c3bb3c4-56ba-4eea-ba17-2244db48de5e","system_id":"levelo_inurba_marseille","lat":43.30792,"lon":5.376465,"is_reserved":false,"is_disabled":false,"rental_uris":{"android":"levelo://app?vid=4c3bb3c4-56ba-4eea-ba17-2244db48de5e","ios":"levelo://app?vid=4c3bb3c4-56ba-4eea-ba17-2244db48de5e"},"vehicle_type_id":"4","last_reported":1753398688,"current_range_meters":18000,"station_id":"ce4bgv92rcd13ifvqcq0","pricing_plan_id":"cebpf4jnsgd1na2vs0mg"},{"bike_id":"f49a6599-9b7f-4fb5-91c5-12386bdb31af","system_id":"levelo_inurba_marseille","lat":43.295303,"lon":5.38543,"is_reserved":false,"is_disabled":false,"rental_uris":{"android":"levelo://app?vid=f49a6599-9b7f-4fb5-91c5-12386bdb31af","ios":"levelo://app?vid=f49a6599-9b7f-4fb5-91c5-12386bdb31af"},"vehicle_type_id":"4","last_reported":1753398688,"current_range_meters":18000,"station_id":"ce4bgih2rcd13ifvqba0","pricing_plan_id":"cebpf4jnsgd1na2vs0mg"},{"bike_id":"510956f4-4053-4240-99f3-35d5b3186629","system_id":"levelo_inurba_marseille","lat":43.295188,"lon":5.394044,"is_reserved":false,"is_disabled":false,"rental_uris":{"android":"levelo://app?vid=510956f4-4053-4240-99f3-35d5b3186629","ios":"levelo://app?vid=510956f4-4053-4240-99f3-35d5b3186629"},"vehicle_type_id":"4","last_reported":1753398688,"current_range_meters":18800,"station_id":"ce4bh292rcd13ifvqdf0","pricing_plan_id":"cebpf4jnsgd1na2vs0mg"},{"bike_id":"92a30b08-4a9d-4d9c-a550-cc53d1be9955","system_id":"levelo_inurba_marseille","lat":43.262065,"lon":5.37434,"is_reserved":false,"is_disabled":false,"rental_uris":{"android":"levelo://app?vid=92a30b08-4a9d-4d9c-a550-cc53d1be9955","ios":"levelo://app?vid=92a30b08-4a9d-4d9c-a550-cc53d1be9955"},"vehicle_type_id":"4","last_reported":1753398688,"current_range_meters":18800,"station_id":"ce4bhgp2rcd13ifvqfc0","pricing_plan_id":"cebpf4jnsgd1na2vs0mg"},{"bike_id":"bdf8bcb9-51f6-4a65-8181-f600f5b30780","system_id":"levelo_inurba_marseille","lat":43.274597,"lon":5.395908,"is_reserved":false,"is_disabled":false,"rental_uris":{"android":"levelo://app?vid=bdf8bcb9-51f6-4a65-8181-f600f5b30780","ios":"levelo://app?vid=bdf8bcb9-51f6-4a65-8181-f600f5b30780"},"vehicle_type_id":"4","last_reported":1753398688,"current_range_meters":18800,"station_id":"","pricing_plan_id":"cebpf4jnsgd1na2vs0mg"},{"bike_id":"74f7f4be-5904-4965-8378-8c4a71e3a37b","system_id":"levelo_inurba_marseille","lat":43.31083,"lon":5.42432,"is_reserved":false,"is_disabled":false,"rental_uris":{"android":"levelo://app?vid=74f7f4be-5904-4965-8378-8c4a71e3a37b","ios":"levelo://app?vid=74f7f4be-5904-4965-8378-8c4a71e3a37b"},"vehicle_type_id":"4","last_reported":1753398688,"current_range_meters":18800,"station_id":"ce4bhp92rcd13ifvqhag","pricing_plan_id":"cebpf4jnsgd1na2vs0mg"},{"bike_id":"8ba9968b-94e2-4ff4-915d-5054e965f84a","system_id":"levelo_inurba_marseille","lat":43.27999,"lon":5.41657,"is_reserved":false,"is_disabled":false,"rental_uris":{"android":"levelo://app?vid=8ba9968b-94e2-4ff4-915d-5054e965f84a","ios":"levelo://app?vid=8ba9968b-94e2-4ff4-915d-5054e965f84a"},"vehicle_type_id":"4","last_reported":1753398688,"current_range_meters":18800,"station_id":"ce4bho12rcd13ifvqh1g","pricing_plan_id":"cebpf4jnsgd1na2vs0mg"},{"bike_id":"cf5577ea-8085-442d-b092-8cf7a9d9102b","system_id":"levelo_inurba_marseille","lat":43.32378,"lon":5.36766,"is_reserved":false,"is_disabled":false,"rental_uris":{"android":"levelo://app?vid=cf5577ea-8085-442d-b092-8cf7a9d9102b","ios":"levelo://app?vid=cf5577ea-8085-442d-b092-8cf7a9d9102b"},"vehicle_type_id":"4","last_reported":1753398688,"current_range_meters":18800,"station_id":"ce4bhsh2rcd13ifvqi2g","pricing_plan_id":"cebpf4jnsgd1na2vs0mg"},{"bike_id":"50b905ef-953a-4765-9f9b-7165906869d7","system_id":"levelo_inurba_marseille","lat":43.23056,"lon":5.35497,"is_reserved":false,"is_disabled":false,"rental_uris":{"android":"levelo://app?vid=50b905ef-953a-4765-9f9b-7165906869d7","ios":"levelo://app?vid=50b905ef-953a-4765-9f9b-7165906869d7"},"vehicle_type_id":"4","last_reported":1753398688,"current_range_meters":18800,"station_id":"cpo3342slgdg3j2ifvpg","pricing_plan_id":"cebpf4jnsgd1na2vs0mg"},{"bike_id":"c4ba540f-c839-42f1-978d-251697d4322a","system_id":"levelo_inurba_marseille","lat":43.30939,"lon":5.40139,"is_reserved":false,"is_disabled":false,"rental_uris":{"android":"levelo://app?vid=c4ba540f-c839-42f1-978d-251697d4322a","ios":"levelo://app?vid=c4ba540f-c839-42f1-978d-251697d4322a"},"vehicle_type_id":"4","last_reported":1753398688,"current_range_meters":18800,"station_id":"ce4bgvp2rcd13ifvqct0","pricing_plan_id":"cebpf4jnsgd1na2vs0mg"},{"bike_id":"cc9d64e8-fcbe-4a3d-9d87-6e0999603b75","system_id":"levelo_inurba_marseille","lat":43.30934,"lon":5.40176,"is_reserved":false,"is_disabled":false,"rental_uris":{"android":"levelo://app?vid=cc9d64e8-fcbe-4a3d-9d87-6e0999603b75","ios":"levelo://app?vid=cc9d64e8-fcbe-4a3d-9d87-6e0999603b75"},"vehicle_type_id":"4","last_reported":1753398688,"current_range_meters":18800,"station_id":"ce4bgvp2rcd13ifvqct0","pricing_plan_id":"cebpf4jnsgd1na2vs0mg"},{"bike_id":"8247f899-7e4b-4ca5-a855-8642846f7577","system_id":"levelo_inurba_marseille","lat":43.301238,"lon":5.387855,"is_reserved":false,"is_disabled":false,"rental_uris":{"android":"levelo://app?vid=8247f899-7e4b-4ca5-a855-8642846f7577","ios":"levelo://app?vid=8247f899-7e4b-4ca5-a855-8642846f7577"},"vehicle_type_id":"4","last_reported":1753398688,"current_range_meters":18800,"station_id":"","pricing_plan_id":"cebpf4jnsgd1na2vs0mg"},{"bike_id":"4235c584-f9ca-4ae8-961d-69448a002c8d","system_id":"levelo_inurba_marseille","lat":43.24059,"lon":5.37756,"is_reserved":false,"is_disabled":false,"rental_uris":{"android":"levelo://app?vid=4235c584-f9ca-4ae8-961d-69448a002c8d","ios":"levelo://app?vid=4235c584-f9ca-4ae8-961d-69448a002c8d"},"vehicle_type_id":"4","last_reported":1753398688,"current_range_meters":18800,"station_id":"ce4bhnp2rcd13ifvqgvg","pricing_plan_id":"cebpf4jnsgd1na2vs0mg"},{"bike_id":"635d529b-81db-4d95-967c-681543329cb0","system_id":"levelo_inurba_marseille","lat":43.299,"lon":5.43669,"is_reserved":false,"is_disabled":false,"rental_uris":{"android":"levelo://app?vid=635d529b-81db-4d95-967c-681543329cb0","ios":"levelo://app?vid=635d529b-81db-4d95-967c-681543329cb0"},"vehicle_type_id":"4","last_reported":1753398688,"current_range_meters":18800,"station_id":"ce4bhpp2rcd13ifvqhfg","pricing_plan_id":"cebpf4jnsgd1na2vs0mg"},{"bike_id":"11cb78bb-b3f2-49b5-b6fc-479148e0e357","system_id":"levelo_inurba_marseille","lat":43.26213,"lon":5.37454,"is_reserved":false,"is_disabled":false,"rental_uris":{"android":"levelo://app?vid=11cb78bb-b3f2-49b5-b6fc-479148e0e357","ios":"levelo://app?vid=11cb78bb-b3f2-49b5-b6fc-479148e0e357"},"vehicle_type_id":"4","last_reported":1753398688,"current_range_meters":18800,"station_id":"ce4bhgp2rcd13ifvqfc0","pricing_plan_id":"cebpf4jnsgd1na2vs0mg"},{"bike_id":"d3eea4a0-76ba-4059-ba6b-c1ecd6270925","system_id":"levelo_inurba_marseille","lat":43.21187,"lon":5.35072,"is_reserved":false,"is_disabled":false,"rental_uris":{"android":"levelo://app?vid=d3eea4a0-76ba-4059-ba6b-c1ecd6270925","ios":"levelo://app?vid=d3eea4a0-76ba-4059-ba6b-c1ecd6270925"},"vehicle_type_id":"4","last_reported":1753398688,"current_range_meters":19200,"station_id":"st_cvj6sg6p6f1abm77japg","pricing_plan_id":"cebpf4jnsgd1na2vs0mg"},{"bike_id":"25d1e659-75f0-413f-9dd4-93bad69c331b","system_id":"levelo_inurba_marseille","lat":43.2936,"lon":5.38208,"is_reserved":false,"is_disabled":false,"rental_uris":{"android":"levelo://app?vid=25d1e659-75f0-413f-9dd4-93bad69c331b","ios":"levelo://app?vid=25d1e659-75f0-413f-9dd4-93bad69c331b"},"vehicle_type_id":"4","last_reported":1753398688,"current_range_meters":19200,"station_id":"","pricing_plan_id":"cebpf4jnsgd1na2vs0mg"},{"bike_id":"8d92968d-91e7-4161-88c8-7b0504e2b8e2","system_id":"levelo_inurba_marseille","lat":43.31172,"lon":5.38722,"is_reserved":false,"is_disabled":false,"rental_uris":{"android":"levelo://app?vid=8d92968d-91e7-4161-88c8-7b0504e2b8e2","ios":"levelo://app?vid=8d92968d-91e7-4161-88c8-7b0504e2b8e2"},"vehicle_type_id":"4","last_reported":1753398688,"current_range_meters":19200,"station_id":"ce4bgv12rcd13ifvqcp0","pricing_plan_id":"cebpf4jnsgd1na2vs0mg"},{"bike_id":"d861442c-09c2-4130-9f6c-d36472e7baf5","system_id":"levelo_inurba_marseille","lat":43.211954,"lon":5.350682,"is_reserved":false,"is_disabled":true,"rental_uris":{"android":"levelo://app?vid=d861442c-09c2-4130-9f6c-d36472e7baf5","ios":"levelo://app?vid=d861442c-09c2-4130-9f6c-d36472e7baf5"},"vehicle_type_id":"4","last_reported":1753398688,"current_range_meters":19200,"station_id":"","pricing_plan_id":"cebpf4jnsgd1na2vs0mg"},{"bike_id":"d450e9a6-3ed7-4b03-8adf-98b5d6168bfb","system_id":"levelo_inurba_marseille","lat":43.27375,"lon":5.36275,"is_reserved":false,"is_disabled":false,"rental_uris":{"android":"levelo://app?vid=d450e9a6-3ed7-4b03-8adf-98b5d6168bfb","ios":"levelo://app?vid=d450e9a6-3ed7-4b03-8adf-98b5d6168bfb"},"vehicle_type_id":"4","last_reported":1753398688,"current_range_meters":19200,"station_id":"ce4bhbh2rcd13ifvqeo0","pricing_plan_id":"cebpf4jnsgd1na2vs0mg"},{"bike_id":"266198a5-1fdd-4903-a22e-685ee660fe16","system_id":"levelo_inurba_marseille","lat":43.22458,"lon":5.34776,"is_reserved":false,"is_disabled":false,"rental_uris":{"android":"levelo://app?vid=266198a5-1fdd-4903-a22e-685ee660fe16","ios":"levelo://app?vid=266198a5-1fdd-4903-a22e-685ee660fe16"},"vehicle_type_id":"4","last_reported":1753398688,"current_range_meters":19200,"station_id":"st_cvj5dfep6f1abm77gieg","pricing_plan_id":"cebpf4jnsgd1na2vs0mg"},{"bike_id":"04d1bd0e-5da4-459b-b302-34aadd691c4e","system_id":"levelo_inurba_marseille","lat":43.29431,"lon":5.39759,"is_reserved":false,"is_disabled":false,"rental_uris":{"android":"levelo://app?vid=04d1bd0e-5da4-459b-b302-34aadd691c4e","ios":"levelo://app?vid=04d1bd0e-5da4-459b-b302-34aadd691c4e"},"vehicle_type_id":"4","last_reported":1753398688,"current_range_meters":19200,"station_id":"ce4bh3h2rcd13ifvqdo0","pricing_plan_id":"cebpf4jnsgd1na2vs0mg"},{"bike_id":"3bd05bbf-7c84-4862-9872-a45fb672ab94","system_id":"levelo_inurba_marseille","lat":43.28461,"lon":5.35889,"is_reserved":false,"is_disabled":false,"rental_uris":{"android":"levelo://app?vid=3bd05bbf-7c84-4862-9872-a45fb672ab94","ios":"levelo://app?vid=3bd05bbf-7c84-4862-9872-a45fb672ab94"},"vehicle_type_id":"4","last_reported":1753398688,"current_range_meters":19200,"station_id":"ce4bhah2rcd13ifvqei0","pricing_plan_id":"cebpf4jnsgd1na2vs0mg"},{"bike_id":"aa3a6420-eb4d-4632-8b68-f541c086db55","system_id":"levelo_inurba_marseille","lat":43.22508,"lon":5.34779,"is_reserved":false,"is_disabled":false,"rental_uris":{"android":"levelo://app?vid=aa3a6420-eb4d-4632-8b68-f541c086db55","ios":"levelo://app?vid=aa3a6420-eb4d-4632-8b68-f541c086db55"},"vehicle_type_id":"4","last_reported":1753398688,"current_range_meters":19200,"station_id":"","pricing_plan_id":"cebpf4jnsgd1na2vs0mg"},{"bike_id":"8d52dd68-d9f6-410d-91a8-aaae93ee1c85","system_id":"levelo_inurba_marseille","lat":43.29525,"lon":5.39418,"is_reserved":false,"is_disabled":true,"rental_uris":{"android":"levelo://app?vid=8d52dd68-d9f6-410d-91a8-aaae93ee1c85","ios":"levelo://app?vid=8d52dd68-d9f6-410d-91a8-aaae93ee1c85"},"vehicle_type_id":"4","last_reported":1753398688,"current_range_meters":19200,"station_id":"ce4bh292rcd13ifvqdf0","pricing_plan_id":"cebpf4jnsgd1na2vs0mg"},{"bike_id":"81b12f53-d207-4802-906d-c9f9d2d00e8d","system_id":"levelo_inurba_marseille","lat":43.3031,"lon":5.392183,"is_reserved":false,"is_disabled":false,"rental_uris":{"android":"levelo://app?vid=81b12f53-d207-4802-906d-c9f9d2d00e8d","ios":"levelo://app?vid=81b12f53-d207-4802-906d-c9f9d2d00e8d"},"vehicle_type_id":"4","last_reported":1753398688,"current_range_meters":19200,"station_id":"ce4bgkh2rcd13ifvqbk0","pricing_plan_id":"cebpf4jnsgd1na2vs0mg"},{"bike_id":"cfa036ba-6387-41c8-9316-d11c79876b74","system_id":"levelo_inurba_marseille","lat":43.291687,"lon":5.371477,"is_reserved":false,"is_disabled":false,"rental_uris":{"android":"levelo://app?vid=cfa036ba-6387-41c8-9316-d11c79876b74","ios":"levelo://app?vid=cfa036ba-6387-41c8-9316-d11c79876b74"},"vehicle_type_id":"4","last_reported":1753398688,"current_range_meters":19200,"station_id":"ce4bha92rcd13ifvqeh0","pricing_plan_id":"cebpf4jnsgd1na2vs0mg"},{"bike_id":"c81cd672-1992-4f1b-9e41-1f7877c9e793","system_id":"levelo_inurba_marseille","lat":43.26203,"lon":5.37463,"is_reserved":false,"is_disabled":false,"rental_uris":{"android":"levelo://app?vid=c81cd672-1992-4f1b-9e41-1f7877c9e793","ios":"levelo://app?vid=c81cd672-1992-4f1b-9e41-1f7877c9e793"},"vehicle_type_id":"4","last_reported":1753398688,"current_range_meters":19200,"station_id":"ce4bhgp2rcd13ifvqfc0","pricing_plan_id":"cebpf4jnsgd1na2vs0mg"},{"bike_id":"9bb03dc8-1285-4dc3-82e4-cbcb16687686","system_id":"levelo_inurba_marseille","lat":43.229347,"lon":5.353769,"is_reserved":false,"is_disabled":false,"rental_uris":{"android":"levelo://app?vid=9bb03dc8-1285-4dc3-82e4-cbcb16687686","ios":"levelo://app?vid=9bb03dc8-1285-4dc3-82e4-cbcb16687686"},"vehicle_type_id":"4","last_reported":1753398688,"current_range_meters":19200,"station_id":"cpo3532slgdg3j2ikp40","pricing_plan_id":"cebpf4jnsgd1na2vs0mg"},{"bike_id":"f9923509-d1f5-4a78-8677-ee3e9a0ad4e2","system_id":"levelo_inurba_marseille","lat":43.27984,"lon":5.4001,"is_reserved":false,"is_disabled":true,"rental_uris":{"android":"levelo://app?vid=f9923509-d1f5-4a78-8677-ee3e9a0ad4e2","ios":"levelo://app?vid=f9923509-d1f5-4a78-8677-ee3e9a0ad4e2"},"vehicle_type_id":"4","last_reported":1753398688,"current_range_meters":19200,"station_id":"ce4bho92rcd13ifvqh4g","pricing_plan_id":"cebpf4jnsgd1na2vs0mg"},{"bike_id":"dacd637b-f83f-4958-9e75-1adc15986321","system_id":"levelo_inurba_marseille","lat":43.31083,"lon":5.42437,"is_reserved":false,"is_disabled":false,"rental_uris":{"android":"levelo://app?vid=dacd637b-f83f-4958-9e75-1adc15986321","ios":"levelo://app?vid=dacd637b-f83f-4958-9e75-1adc15986321"},"vehicle_type_id":"4","last_reported":1753398688,"current_range_meters":19200,"station_id":"ce4bhp92rcd13ifvqhag","pricing_plan_id":"cebpf4jnsgd1na2vs0mg"},{"bike_id":"fec06be4-aca3-4e65-a7e1-e007f8b8ee45","system_id":"levelo_inurba_marseille","lat":43.31077,"lon":5.42441,"is_reserved":false,"is_disabled":false,"rental_uris":{"android":"levelo://app?vid=fec06be4-aca3-4e65-a7e1-e007f8b8ee45","ios":"levelo://app?vid=fec06be4-aca3-4e65-a7e1-e007f8b8ee45"},"vehicle_type_id":"4","last_reported":1753398688,"current_range_meters":19200,"station_id":"ce4bhp92rcd13ifvqhag","pricing_plan_id":"cebpf4jnsgd1na2vs0mg"},{"bike_id":"7a728a3e-ae5a-416b-ab98-c609bdc15d67","system_id":"levelo_inurba_marseille","lat":43.262054,"lon":5.374491,"is_reserved":false,"is_disabled":false,"rental_uris":{"android":"levelo://app?vid=7a728a3e-ae5a-416b-ab98-c609bdc15d67","ios":"levelo://app?vid=7a728a3e-ae5a-416b-ab98-c609bdc15d67"},"vehicle_type_id":"4","last_reported":1753398688,"current_range_meters":19200,"station_id":"","pricing_plan_id":"cebpf4jnsgd1na2vs0mg"},{"bike_id":"56b9df32-11b6-4b1d-975b-d4e855d082cc","system_id":"levelo_inurba_marseille","lat":43.310793,"lon":5.424317,"is_reserved":false,"is_disabled":false,"rental_uris":{"android":"levelo://app?vid=56b9df32-11b6-4b1d-975b-d4e855d082cc","ios":"levelo://app?vid=56b9df32-11b6-4b1d-975b-d4e855d082cc"},"vehicle_type_id":"4","last_reported":1753398688,"current_range_meters":19200,"station_id":"ce4bhp92rcd13ifvqhag","pricing_plan_id":"cebpf4jnsgd1na2vs0mg"},{"bike_id":"11ccf354-5aeb-45bb-be14-0d664db1f25a","system_id":"levelo_inurba_marseille","lat":43.29631,"lon":5.40614,"is_reserved":false,"is_disabled":false,"rental_uris":{"android":"levelo://app?vid=11ccf354-5aeb-45bb-be14-0d664db1f25a","ios":"levelo://app?vid=11ccf354-5aeb-45bb-be14-0d664db1f25a"},"vehicle_type_id":"4","last_reported":1753398688,"current_range_meters":19200,"station_id":"ce4bh0h2rcd13ifvqd60","pricing_plan_id":"cebpf4jnsgd1na2vs0mg"},{"bike_id":"83c80cb3-658b-40cc-83d3-d8398877868e","system_id":"levelo_inurba_marseille","lat":43.28864,"lon":5.39325,"is_reserved":false,"is_disabled":false,"rental_uris":{"android":"levelo://app?vid=83c80cb3-658b-40cc-83d3-d8398877868e","ios":"levelo://app?vid=83c80cb3-658b-40cc-83d3-d8398877868e"},"vehicle_type_id":"4","last_reported":1753398688,"current_range_meters":19600,"station_id":"ce4bh2p2rcd13ifvqdi0","pricing_plan_id":"cebpf4jnsgd1na2vs0mg"},{"bike_id":"a1ec26cb-9d4a-4dd4-ad23-fecbc49f2a3d","system_id":"levelo_inurba_marseille","lat":43.25467,"lon":5.37687,"is_reserved":false,"is_disabled":false,"rental_uris":{"android":"levelo://app?vid=a1ec26cb-9d4a-4dd4-ad23-fecbc49f2a3d","ios":"levelo://app?vid=a1ec26cb-9d4a-4dd4-ad23-fecbc49f2a3d"},"vehicle_type_id":"4","last_reported":1753398688,"current_range_meters":19600,"station_id":"","pricing_plan_id":"cebpf4jnsgd1na2vs0mg"},{"bike_id":"db4065a9-8ae8-4da2-9ed6-25a24760a414","system_id":"levelo_inurba_marseille","lat":43.23067,"lon":5.35556,"is_reserved":false,"is_disabled":true,"rental_uris":{"android":"levelo://app?vid=db4065a9-8ae8-4da2-9ed6-25a24760a414","ios":"levelo://app?vid=db4065a9-8ae8-4da2-9ed6-25a24760a414"},