{"last_updated":1752779426,"ttl":60,"version":"2.2","data":{"bikes":[{"bike_id":"53b742a7-31ae-4272-9bba-7740339e2a2f","system_id":"levelo_inurba_marseille","lat":43.33747,"lon":5.37463,"is_reserved":false,"is_disabled":false,"rental_uris":{"android":"levelo://app?vid=53b742a7-31ae-4272-9bba-7740339e2a2f","ios":"levelo://app?vid=53b742a7-31ae-4272-9bba-7740339e2a2f"},"vehicle_type_id":"1","last_reported":1752779426,"current_range_meters":23200,"station_id":"","pricing_plan_id":"cebpf4jnsgd1na2vs0mg"},{"bike_id":"d98ef30e-38a0-41ef-a00a-304afa979a1e","system_id":"levelo_inurba_marseille","lat":43.29891,"lon":5.43683,"is_reserved":false,"is_disabled":false,"rental_uris":{"android":"levelo://app?vid=d98ef30e-38a0-41ef-a00a-304afa979a1e","ios":"levelo://app?vid=d98ef30e-38a0-41ef-a00a-304afa979a1e"},"vehicle_type_id":"4","last_reported":1752779426,"current_range_meters":2800,"station_id":"ce4bhpp2rcd13ifvqhfg","pricing_plan_id":"cebpf4jnsgd1na2vs0mg"},{"bike_id":"12651d31-3098-4390-a3f4-707086a85212","system_id":"levelo_inurba_marseille","lat":43.243472,"lon":5.396613,"is_reserved":false,"is_disabled":false,"rental_uris":{"android":"levelo://app?vid=12651d31-3098-4390-a3f4-707086a85212","ios":"levelo://app?vid=12651d31-3098-4390-a3f4-707086a85212"},"vehicle_type_id":"4","last_reported":1752779426,"current_range_meters":2800,"station_id":"ce4bhn12rcd13ifvqgpg","pricing_plan_id":"cebpf4jnsgd1na2vs0mg"},{"bike_id":"77f06ac7-17f8-480b-b52b-d4ee696efe16","system_id":"levelo_inurba_marseille","lat":43.2649,"lon":5.3954,"is_reserved":false,"is_disabled":false,"rental_uris":{"android":"levelo://app?vid=77f06ac7-17f8-480b-b52b-d4ee696efe16","ios":"levelo://app?vid=77f06ac7-17f8-480b-b52b-d4ee696efe16"},"vehicle_type_id":"4","last_reported":1752779426,"current_range_meters":3200,"station_id":"ce4bhi12rcd13ifvqfq0","pricing_plan_id":"cebpf4jnsgd1na2vs0mg"},{"bike_id":"b00edad5-f044-40c0-a46b-0ffec351f9f9","system_id":"levelo_inurba_marseille","lat":43.28966,"lon":5.37836,"is_reserved":false,"is_disabled":false,"rental_uris":{"android":"levelo://app?vid=b00edad5-f044-40c0-a46b-0ffec351f9f9","ios":"levelo://app?vid=b00edad5-f044-40c0-a46b-0ffec351f9f9"},"vehicle_type_id":"4","last_reported":1752779426,"current_range_meters":3200,"station_id":"ce4bh9p2rcd13ifvqed0","pricing_plan_id":"cebpf4jnsgd1na2vs0mg"},{"bike_id":"8d72c226-dad7-423b-8cea-41a5e58d408b","system_id":"levelo_inurba_marseille","lat":43.29262,"lon":5.38437,"is_reserved":false,"is_disabled":false,"rental_uris":{"android":"levelo://app?vid=8d72c226-dad7-423b-8cea-41a5e58d408b","ios":"levelo://app?vid=8d72c226-dad7-423b-8cea-41a5e58d408b"},"vehicle_type_id":"4","last_reported":1752779426,"current_range_meters":3200,"station_id":"ce4bh692rcd13ifvqea0","pricing_plan_id":"cebpf4jnsgd1na2vs0mg"},{"bike_id":"d555cc46-bc21-42fb-90d1-4983139444cc","system_id":"levelo_inurba_marseille","lat":43.292285,"lon":5.360515,"is_reserved":false,"is_disabled":true,"rental_uris":{"android":"levelo://app?vid=d555cc46-bc21-42fb-90d1-4983139444cc","ios":"levelo://app?vid=d555cc46-bc21-42fb-90d1-4983139444cc"},"vehicle_type_id":"4","last_reported":1752779426,"current_range_meters":3200,"station_id":"","pricing_plan_id":"cebpf4jnsgd1na2vs0mg"},{"bike_id":"080b0f22-14dd-4044-a18f-ee7f74366cea","system_id":"levelo_inurba_marseille","lat":43.31988,"lon":5.38137,"is_reserved":false,"is_disabled":true,"rental_uris":{"android":"levelo://app?vid=080b0f22-14dd-4044-a18f-ee7f74366cea","ios":"levelo://app?vid=080b0f22-14dd-4044-a18f-ee7f74366cea"},"vehicle_type_id":"4","last_reported":1752779426,"current_range_meters":3200,"station_id":"ce4bhr12rcd13ifvqhpg","pricing_plan_id":"cebpf4jnsgd1na2vs0mg"},{"bike_id":"635718f4-8ec0-461f-ab6e-e2112451ab00","system_id":"levelo_inurba_marseille","lat":43.24166,"lon":5.36395,"is_reserved":false,"is_disabled":false,"rental_uris":{"android":"levelo://app?vid=635718f4-8ec0-461f-ab6e-e2112451ab00","ios":"levelo://app?vid=635718f4-8ec0-461f-ab6e-e2112451ab00"},"vehicle_type_id":"4","last_reported":1752779426,"current_range_meters":4000,"station_id":"cpo36qri1sfpv3e86is0","pricing_plan_id":"cebpf4jnsgd1na2vs0mg"},{"bike_id":"aec4428b-a933-463a-a1e1-0ef0840ee5d0","system_id":"levelo_inurba_marseille","lat":43.308622,"lon":5.372062,"is_reserved":false,"is_disabled":false,"rental_uris":{"android":"levelo://app?vid=aec4428b-a933-463a-a1e1-0ef0840ee5d0","ios":"levelo://app?vid=aec4428b-a933-463a-a1e1-0ef0840ee5d0"},"vehicle_type_id":"4","last_reported":1752779426,"current_range_meters":3600,"station_id":"ce4bguh2rcd13ifvqckg","pricing_plan_id":"cebpf4jnsgd1na2vs0mg"},{"bike_id":"376eba44-8f4b-4261-93af-fccfd4fb83da","system_id":"levelo_inurba_marseille","lat":43.32365,"lon":5.38887,"is_reserved":false,"is_disabled":false,"rental_uris":{"android":"levelo://app?vid=376eba44-8f4b-4261-93af-fccfd4fb83da","ios":"levelo://app?vid=376eba44-8f4b-4261-93af-fccfd4fb83da"},"vehicle_type_id":"4","last_reported":1752779426,"current_range_meters":3600,"station_id":"ce4bhqp2rcd13ifvqhog","pricing_plan_id":"cebpf4jnsgd1na2vs0mg"},{"bike_id":"e4f9d35a-6910-4680-9680-4ff81c8c67d0","system_id":"levelo_inurba_marseille","lat":43.24809,"lon":5.37459,"is_reserved":false,"is_disabled":false,"rental_uris":{"android":"levelo://app?vid=e4f9d35a-6910-4680-9680-4ff81c8c67d0","ios":"levelo://app?vid=e4f9d35a-6910-4680-9680-4ff81c8c67d0"},"vehicle_type_id":"4","last_reported":1752779426,"current_range_meters":3600,"station_id":"ce4bhgh2rcd13ifvqfb0","pricing_plan_id":"cebpf4jnsgd1na2vs0mg"},{"bike_id":"6ee9831d-d734-4dff-8562-785448dce2be","system_id":"levelo_inurba_marseille","lat":43.28488,"lon":5.38411,"is_reserved":false,"is_disabled":false,"rental_uris":{"android":"levelo://app?vid=6ee9831d-d734-4dff-8562-785448dce2be","ios":"levelo://app?vid=6ee9831d-d734-4dff-8562-785448dce2be"},"vehicle_type_id":"4","last_reported":1752779426,"current_range_meters":4000,"station_id":"ce4bh512rcd13ifvqe3g","pricing_plan_id":"cebpf4jnsgd1na2vs0mg"},{"bike_id":"1622b602-da29-4cce-b1cb-d4ef079fa451","system_id":"levelo_inurba_marseille","lat":43.29032,"lon":5.37561,"is_reserved":false,"is_disabled":false,"rental_uris":{"android":"levelo://app?vid=1622b602-da29-4cce-b1cb-d4ef079fa451","ios":"levelo://app?vid=1622b602-da29-4cce-b1cb-d4ef079fa451"},"vehicle_type_id":"4","last_reported":1752779426,"current_range_meters":3600,"station_id":"ce4bh692rcd13ifvqe90","pricing_plan_id":"cebpf4jnsgd1na2vs0mg"},{"bike_id":"4ad0d875-1202-4a3f-9a82-cdae422cf986","system_id":"levelo_inurba_marseille","lat":43.29935,"lon":5.36532,"is_reserved":false,"is_disabled":false,"rental_uris":{"android":"levelo://app?vid=4ad0d875-1202-4a3f-9a82-cdae422cf986","ios":"levelo://app?vid=4ad0d875-1202-4a3f-9a82-cdae422cf986"},"vehicle_type_id":"4","last_reported":1752779426,"current_range_meters":4000,"station_id":"ce4bgm92rcd13ifvqbr0","pricing_plan_id":"cebpf4jnsgd1na2vs0mg"},{"bike_id":"e7be23bf-1a7c-45a4-857f-aa35bae90e3d","system_id":"levelo_inurba_marseille","lat":43.26196,"lon":5.37448,"is_reserved":false,"is_disabled":false,"rental_uris":{"android":"levelo://app?vid=e7be23bf-1a7c-45a4-857f-aa35bae90e3d","ios":"levelo://app?vid=e7be23bf-1a7c-45a4-857f-aa35bae90e3d"},"vehicle_type_id":"4","last_reported":1752779426,"current_range_meters":4400,"station_id":"ce4bhgp2rcd13ifvqfc0","pricing_plan_id":"cebpf4jnsgd1na2vs0mg"},{"bike_id":"e1153bb1-ce6a-4b90-90b9-6a9ae878b864","system_id":"levelo_inurba_marseille","lat":43.27054,"lon":5.40266,"is_reserved":false,"is_disabled":false,"rental_uris":{"android":"levelo://app?vid=e1153bb1-ce6a-4b90-90b9-6a9ae878b864","ios":"levelo://app?vid=e1153bb1-ce6a-4b90-90b9-6a9ae878b864"},"vehicle_type_id":"4","last_reported":1752779426,"current_range_meters":4400,"station_id":"ce4bhk92rcd13ifvqgc0","pricing_plan_id":"cebpf4jnsgd1na2vs0mg"},{"bike_id":"1fc7dfd7-ce24-4603-9d72-19f5aa5d2972","system_id":"levelo_inurba_marseille","lat":43.291716,"lon":5.371427,"is_reserved":false,"is_disabled":false,"rental_uris":{"android":"levelo://app?vid=1fc7dfd7-ce24-4603-9d72-19f5aa5d2972","ios":"levelo://app?vid=1fc7dfd7-ce24-4603-9d72-19f5aa5d2972"},"vehicle_type_id":"4","last_reported":1752779426,"current_range_meters":4400,"station_id":"ce4bha92rcd13ifvqeh0","pricing_plan_id":"cebpf4jnsgd1na2vs0mg"},{"bike_id":"c4d80a53-1fda-4bda-9d1c-8d72f5a8fa69","system_id":"levelo_inurba_marseille","lat":43.30302,"lon":5.39208,"is_reserved":false,"is_disabled":false,"rental_uris":{"android":"levelo://app?vid=c4d80a53-1fda-4bda-9d1c-8d72f5a8fa69","ios":"levelo://app?vid=c4d80a53-1fda-4bda-9d1c-8d72f5a8fa69"},"vehicle_type_id":"4","last_reported":1752779426,"current_range_meters":4400,"station_id":"ce4bgkh2rcd13ifvqbk0","pricing_plan_id":"cebpf4jnsgd1na2vs0mg"},{"bike_id":"410b04d2-b538-41ca-9587-eb3e855a74b9","system_id":"levelo_inurba_marseille","lat":43.28932,"lon":5.36637,"is_reserved":false,"is_disabled":false,"rental_uris":{"android":"levelo://app?vid=410b04d2-b538-41ca-9587-eb3e855a74b9","ios":"levelo://app?vid=410b04d2-b538-41ca-9587-eb3e855a74b9"},"vehicle_type_id":"4","last_reported":1752779426,"current_range_meters":4800,"station_id":"ce4bhap2rcd13ifvqek0","pricing_plan_id":"cebpf4jnsgd1na2vs0mg"},{"bike_id":"2ad38b90-fbe2-43eb-a2a0-c9a6726e2742","system_id":"levelo_inurba_marseille","lat":43.29034,"lon":5.39962,"is_reserved":false,"is_disabled":false,"rental_uris":{"android":"levelo://app?vid=2ad38b90-fbe2-43eb-a2a0-c9a6726e2742","ios":"levelo://app?vid=2ad38b90-fbe2-43eb-a2a0-c9a6726e2742"},"vehicle_type_id":"4","last_reported":1752779426,"current_range_meters":5600,"station_id":"ce4bh392rcd13ifvqdm0","pricing_plan_id":"cebpf4jnsgd1na2vs0mg"},{"bike_id":"91694960-54f1-43eb-a89e-c7c3a4c6cbde","system_id":"levelo_inurba_marseille","lat":43.26206,"lon":5.3745,"is_reserved":false,"is_disabled":false,"rental_uris":{"android":"levelo://app?vid=91694960-54f1-43eb-a89e-c7c3a4c6cbde","ios":"levelo://app?vid=91694960-54f1-43eb-a89e-c7c3a4c6cbde"},"vehicle_type_id":"4","last_reported":1752779426,"current_range_meters":5600,"station_id":"ce4bhgp2rcd13ifvqfc0","pricing_plan_id":"cebpf4jnsgd1na2vs0mg"},{"bike_id":"fb811636-ef8c-4eea-abc3-45ebddf1aadd","system_id":"levelo_inurba_marseille","lat":43.29965,"lon":5.37181,"is_reserved":false,"is_disabled":false,"rental_uris":{"android":"levelo://app?vid=fb811636-ef8c-4eea-abc3-45ebddf1aadd","ios":"levelo://app?vid=fb811636-ef8c-4eea-abc3-45ebddf1aadd"},"vehicle_type_id":"4","last_reported":1752779426,"current_range_meters":4800,"station_id":"ce4bgr92rcd13ifvqc7g","pricing_plan_id":"cebpf4jnsgd1na2vs0mg"},{"bike_id":"61e3597e-c6f4-4da7-8dda-1405580e88b2","system_id":"levelo_inurba_marseille","lat":43.298811,"lon":5.389122,"is_reserved":false,"is_disabled":false,"rental_uris":{"android":"levelo://app?vid=61e3597e-c6f4-4da7-8dda-1405580e88b2","ios":"levelo://app?vid=61e3597e-c6f4-4da7-8dda-1405580e88b2"},"vehicle_type_id":"4","last_reported":1752779426,"current_range_meters":5600,"station_id":"ce4bh392rcd13ifvqdl0","pricing_plan_id":"cebpf4jnsgd1na2vs0mg"},{"bike_id":"5a496980-0829-4e00-a55a-2f6b7fde7eed","system_id":"levelo_inurba_marseille","lat":43.27625,"lon":5.36102,"is_reserved":false,"is_disabled":false,"rental_uris":{"android":"levelo://app?vid=5a496980-0829-4e00-a55a-2f6b7fde7eed","ios":"levelo://app?vid=5a496980-0829-4e00-a55a-2f6b7fde7eed"},"vehicle_type_id":"4","last_reported":1752779426,"current_range_meters":6000,"station_id":"ce4bgj92rcd13ifvqbe0","pricing_plan_id":"cebpf4jnsgd1na2vs0mg"},{"bike_id":"9eb11d44-370d-464b-b78f-5461a3b04cc3","system_id":"levelo_inurba_marseille","lat":43.31057,"lon":5.38308,"is_reserved":false,"is_disabled":true,"rental_uris":{"android":"levelo://app?vid=9eb11d44-370d-464b-b78f-5461a3b04cc3","ios":"levelo://app?vid=9eb11d44-370d-464b-b78f-5461a3b04cc3"},"vehicle_type_id":"4","last_reported":1752779426,"current_range_meters":6000,"station_id":"ce4bgv92rcd13ifvqcr0","pricing_plan_id":"cebpf4jnsgd1na2vs0mg"},{"bike_id":"ab1e5cde-77b3-4046-90fe-cd2d62e70198","system_id":"levelo_inurba_marseille","lat":43.28975,"lon":5.37839,"is_reserved":false,"is_disabled":false,"rental_uris":{"android":"levelo://app?vid=ab1e5cde-77b3-4046-90fe-cd2d62e70198","ios":"levelo://app?vid=ab1e5cde-77b3-4046-90fe-cd2d62e70198"},"vehicle_type_id":"4","last_reported":1752779426,"current_range_meters":6000,"station_id":"ce4bh9p2rcd13ifvqed0","pricing_plan_id":"cebpf4jnsgd1na2vs0mg"},{"bike_id":"e8dd8615-fa8b-4d59-be18-e9c999ae1dca","system_id":"levelo_inurba_marseille","lat":43.30588,"lon":5.39353,"is_reserved":false,"is_disabled":false,"rental_uris":{"android":"levelo://app?vid=e8dd8615-fa8b-4d59-be18-e9c999ae1dca","ios":"levelo://app?vid=e8dd8615-fa8b-4d59-be18-e9c999ae1dca"},"vehicle_type_id":"4","last_reported":1752779426,"current_range_meters":5600,"station_id":"ce4bh0p2rcd13ifvqd80","pricing_plan_id":"cebpf4jnsgd1na2vs0mg"},{"bike_id":"0f2b38d7-092e-4ce6-ab6c-5e5b46007c2d","system_id":"levelo_inurba_marseille","lat":43.2788,"lon":5.3814,"is_reserved":false,"is_disabled":false,"rental_uris":{"android":"levelo://app?vid=0f2b38d7-092e-4ce6-ab6c-5e5b46007c2d","ios":"levelo://app?vid=0f2b38d7-092e-4ce6-ab6c-5e5b46007c2d"},"vehicle_type_id":"4","last_reported":1752779426,"current_range_meters":6000,"station_id":"ce4bhf92rcd13ifvqf50","pricing_plan_id":"cebpf4jnsgd1na2vs0mg"},{"bike_id":"c2ee7bfc-d258-412e-985b-95ec73823b65","system_id":"levelo_inurba_marseille","lat":43.32657,"lon":5.40994,"is_reserved":false,"is_disabled":false,"rental_uris":{"android":"levelo://app?vid=c2ee7bfc-d258-412e-985b-95ec73823b65","ios":"levelo://app?vid=c2ee7bfc-d258-412e-985b-95ec73823b65"},"vehicle_type_id":"4","last_reported":1752779426,"current_range_meters":5600,"station_id":"ce4bhpp2rcd13ifvqhgg","pricing_plan_id":"cebpf4jnsgd1na2vs0mg"},{"bike_id":"38374528-87db-4034-825d-88f3ea2e76fc","system_id":"levelo_inurba_marseille","lat":43.29782,"lon":5.39341,"is_reserved":false,"is_disabled":false,"rental_uris":{"android":"levelo://app?vid=38374528-87db-4034-825d-88f3ea2e76fc","ios":"levelo://app?vid=38374528-87db-4034-825d-88f3ea2e76fc"},"vehicle_type_id":"4","last_reported":1752779426,"current_range_meters":6400,"station_id":"chh1huq6cuj3fo74tm60","pricing_plan_id":"cebpf4jnsgd1na2vs0mg"},{"bike_id":"485b8058-197c-4481-9057-66c45762d52e","system_id":"levelo_inurba_marseille","lat":43.30934,"lon":5.40136,"is_reserved":false,"is_disabled":false,"rental_uris":{"android":"levelo://app?vid=485b8058-197c-4481-9057-66c45762d52e","ios":"levelo://app?vid=485b8058-197c-4481-9057-66c45762d52e"},"vehicle_type_id":"4","last_reported":1752779426,"current_range_meters":6400,"station_id":"ce4bgvp2rcd13ifvqct0","pricing_plan_id":"cebpf4jnsgd1na2vs0mg"},{"bike_id":"6c63c49b-4d8d-4ec3-af5a-de0cbecdee2c","system_id":"levelo_inurba_marseille","lat":43.290215,"lon":5.381285,"is_reserved":false,"is_disabled":false,"rental_uris":{"android":"levelo://app?vid=6c63c49b-4d8d-4ec3-af5a-de0cbecdee2c","ios":"levelo://app?vid=6c63c49b-4d8d-4ec3-af5a-de0cbecdee2c"},"vehicle_type_id":"4","last_reported":1752779426,"current_range_meters":6000,"station_id":"ce4bh4p2rcd13ifvqe1g","pricing_plan_id":"cebpf4jnsgd1na2vs0mg"},{"bike_id":"6b1bfc61-37b4-4c40-b62b-66c850955ba5","system_id":"levelo_inurba_marseille","lat":43.30314,"lon":5.36908,"is_reserved":false,"is_disabled":false,"rental_uris":{"android":"levelo://app?vid=6b1bfc61-37b4-4c40-b62b-66c850955ba5","ios":"levelo://app?vid=6b1bfc61-37b4-4c40-b62b-66c850955ba5"},"vehicle_type_id":"4","last_reported":1752779426,"current_range_meters":6000,"station_id":"ce4bgqh2rcd13ifvqc5g","pricing_plan_id":"cebpf4jnsgd1na2vs0mg"},{"bike_id":"06762875-71bb-497e-860d-65938eddf976","system_id":"levelo_inurba_marseille","lat":43.28989,"lon":5.37837,"is_reserved":false,"is_disabled":false,"rental_uris":{"android":"levelo://app?vid=06762875-71bb-497e-860d-65938eddf976","ios":"levelo://app?vid=06762875-71bb-497e-860d-65938eddf976"},"vehicle_type_id":"4","last_reported":1752779426,"current_range_meters":6400,"station_id":"ce4bh9p2rcd13ifvqed0","pricing_plan_id":"cebpf4jnsgd1na2vs0mg"},{"bike_id":"8f14405a-fea8-4b11-887d-54f354875c28","system_id":"levelo_inurba_marseille","lat":43.2966,"lon":5.38542,"is_reserved":false,"is_disabled":false,"rental_uris":{"android":"levelo://app?vid=8f14405a-fea8-4b11-887d-54f354875c28","ios":"levelo://app?vid=8f14405a-fea8-4b11-887d-54f354875c28"},"vehicle_type_id":"4","last_reported":1752779426,"current_range_meters":6800,"station_id":"","pricing_plan_id":"cebpf4jnsgd1na2vs0mg"},{"bike_id":"03983353-5e30-454e-aa56-c6716be18577","system_id":"levelo_inurba_marseille","lat":43.29524,"lon":5.39036,"is_reserved":false,"is_disabled":false,"rental_uris":{"android":"levelo://app?vid=03983353-5e30-454e-aa56-c6716be18577","ios":"levelo://app?vid=03983353-5e30-454e-aa56-c6716be18577"},"vehicle_type_id":"4","last_reported":1752779426,"current_range_meters":6800,"station_id":"ce4bh3p2rcd13ifvqdp0","pricing_plan_id":"cebpf4jnsgd1na2vs0mg"},{"bike_id":"1987db29-d495-4441-ab6f-b7703efeee90","system_id":"levelo_inurba_marseille","lat":43.2862,"lon":5.351,"is_reserved":false,"is_disabled":false,"rental_uris":{"android":"levelo://app?vid=1987db29-d495-4441-ab6f-b7703efeee90","ios":"levelo://app?vid=1987db29-d495-4441-ab6f-b7703efeee90"},"vehicle_type_id":"4","last_reported":1752779426,"current_range_meters":6800,"station_id":"ce4bhch2rcd13ifvqeug","pricing_plan_id":"cebpf4jnsgd1na2vs0mg"},{"bike_id":"0fab0fd6-1503-4246-9391-7092f43eb724","system_id":"levelo_inurba_marseille","lat":43.311677,"lon":5.387167,"is_reserved":false,"is_disabled":false,"rental_uris":{"android":"levelo://app?vid=0fab0fd6-1503-4246-9391-7092f43eb724","ios":"levelo://app?vid=0fab0fd6-1503-4246-9391-7092f43eb724"},"vehicle_type_id":"4","last_reported":1752779426,"current_range_meters":7200,"station_id":"ce4bgv12rcd13ifvqcp0","pricing_plan_id":"cebpf4jnsgd1na2vs0mg"},{"bike_id":"c63c8c92-a462-48f0-9941-3e333f462ebc","system_id":"levelo_inurba_marseille","lat":43.26572,"lon":5.39018,"is_reserved":false,"is_disabled":false,"rental_uris":{"android":"levelo://app?vid=c63c8c92-a462-48f0-9941-3e333f462ebc","ios":"levelo://app?vid=c63c8c92-a462-48f0-9941-3e333f462ebc"},"vehicle_type_id":"4","last_reported":1752779426,"current_range_meters":7200,"station_id":"ce4bhe12rcd13ifvqf30","pricing_plan_id":"cebpf4jnsgd1na2vs0mg"},{"bike_id":"73a454c6-daf0-4353-880d-eb94adf0d3fe","system_id":"levelo_inurba_marseille","lat":43.29707,"lon":5.36613,"is_reserved":false,"is_disabled":false,"rental_uris":{"android":"levelo://app?vid=73a454c6-daf0-4353-880d-eb94adf0d3fe","ios":"levelo://app?vid=73a454c6-daf0-4353-880d-eb94adf0d3fe"},"vehicle_type_id":"4","last_reported":1752779426,"current_range_meters":6800,"station_id":"ce4bgn12rcd13ifvqbt0","pricing_plan_id":"cebpf4jnsgd1na2vs0mg"},{"bike_id":"3f0e74c9-9787-419a-bab2-6063492cb597","system_id":"levelo_inurba_marseille","lat":43.248,"lon":5.37467,"is_reserved":false,"is_disabled":false,"rental_uris":{"android":"levelo://app?vid=3f0e74c9-9787-419a-bab2-6063492cb597","ios":"levelo://app?vid=3f0e74c9-9787-419a-bab2-6063492cb597"},"vehicle_type_id":"4","last_reported":1752779426,"current_range_meters":7200,"station_id":"ce4bhgh2rcd13ifvqfb0","pricing_plan_id":"cebpf4jnsgd1na2vs0mg"},{"bike_id":"9de875fc-b0dc-4f70-bbe1-52dcae6d035c","system_id":"levelo_inurba_marseille","lat":43.29573,"lon":5.375,"is_reserved":false,"is_disabled":false,"rental_uris":{"android":"levelo://app?vid=9de875fc-b0dc-4f70-bbe1-52dcae6d035c","ios":"levelo://app?vid=9de875fc-b0dc-4f70-bbe1-52dcae6d035c"},"vehicle_type_id":"4","last_reported":1752779426,"current_range_meters":7200,"station_id":"ce4bgh92rcd13ifvqb50","pricing_plan_id":"cebpf4jnsgd1na2vs0mg"},{"bike_id":"334afd1e-1581-4689-85ab-8c2ac070cd1c","system_id":"levelo_inurba_marseille","lat":43.26767,"lon":5.39423,"is_reserved":false,"is_disabled":true,"rental_uris":{"android":"levelo://app?vid=334afd1e-1581-4689-85ab-8c2ac070cd1c","ios":"levelo://app?vid=334afd1e-1581-4689-85ab-8c2ac070cd1c"},"vehicle_type_id":"4","last_reported":1752779426,"current_range_meters":7200,"station_id":"ce4bhh12rcd13ifvqfg0","pricing_plan_id":"cebpf4jnsgd1na2vs0mg"},{"bike_id":"0dd69fd9-7bc7-4326-8bb2-9256ea441983","system_id":"levelo_inurba_marseille","lat":43.26549,"lon":5.37291,"is_reserved":false,"is_disabled":false,"rental_uris":{"android":"levelo://app?vid=0dd69fd9-7bc7-4326-8bb2-9256ea441983","ios":"levelo://app?vid=0dd69fd9-7bc7-4326-8bb2-9256ea441983"},"vehicle_type_id":"4","last_reported":1752779426,"current_range_meters":7200,"station_id":"ce4bhg12rcd13ifvqf70","pricing_plan_id":"cebpf4jnsgd1na2vs0mg"},{"bike_id":"e3f0fd49-b7f2-4eb0-942e-a40247bb94a6","system_id":"levelo_inurba_marseille","lat":43.28937,"lon":5.36639,"is_reserved":false,"is_disabled":false,"rental_uris":{"android":"levelo://app?vid=e3f0fd49-b7f2-4eb0-942e-a40247bb94a6","ios":"levelo://app?vid=e3f0fd49-b7f2-4eb0-942e-a40247bb94a6"},"vehicle_type_id":"4","last_reported":1752779426,"current_range_meters":7200,"station_id":"ce4bhap2rcd13ifvqek0","pricing_plan_id":"cebpf4jnsgd1na2vs0mg"},{"bike_id":"675a4573-a1f2-4f9d-b1bd-48fb0f00616c","system_id":"levelo_inurba_marseille","lat":43.28645,"lon":5.35078,"is_reserved":false,"is_disabled":false,"rental_uris":{"android":"levelo://app?vid=675a4573-a1f2-4f9d-b1bd-48fb0f00616c","ios":"levelo://app?vid=675a4573-a1f2-4f9d-b1bd-48fb0f00616c"},"vehicle_type_id":"4","last_reported":1752779426,"current_range_meters":7200,"station_id":"ce4bhch2rcd13ifvqeug","pricing_plan_id":"cebpf4jnsgd1na2vs0mg"},{"bike_id":"ec7e964d-b991-45a7-9774-0a498fae75cd","system_id":"levelo_inurba_marseille","lat":43.29169,"lon":5.3715,"is_reserved":false,"is_disabled":false,"rental_uris":{"android":"levelo://app?vid=ec7e964d-b991-45a7-9774-0a498fae75cd","ios":"levelo://app?vid=ec7e964d-b991-45a7-9774-0a498fae75cd"},"vehicle_type_id":"4","last_reported":1752779426,"current_range_meters":7200,"station_id":"ce4bha92rcd13ifvqeh0","pricing_plan_id":"cebpf4jnsgd1na2vs0mg"},{"bike_id":"0137b4e2-7c6f-4044-91ba-1d2665a2b749","system_id":"levelo_inurba_marseille","lat":43.30797,"lon":5.38146,"is_reserved":false,"is_disabled":false,"rental_uris":{"android":"levelo://app?vid=0137b4e2-7c6f-4044-91ba-1d2665a2b749","ios":"levelo://app?vid=0137b4e2-7c6f-4044-91ba-1d2665a2b749"},"vehicle_type_id":"4","last_reported":1752779426,"current_range_meters":8000,"station_id":"ce4bgt12rcd13ifvqce0","pricing_plan_id":"cebpf4jnsgd1na2vs0mg"},{"bike_id":"0ed6f596-bf5b-4286-9dfa-867e74d3b533","system_id":"levelo_inurba_marseille","lat":43.28671,"lon":5.38673,"is_reserved":false,"is_disabled":false,"rental_uris":{"android":"levelo://app?vid=0ed6f596-bf5b-4286-9dfa-867e74d3b533","ios":"levelo://app?vid=0ed6f596-bf5b-4286-9dfa-867e74d3b533"},"vehicle_type_id":"4","last_reported":1752779426,"current_range_meters":8000,"station_id":"ce4bh492rcd13ifvqdug","pricing_plan_id":"cebpf4jnsgd1na2vs0mg"},{"bike_id":"faf364d3-7bcc-4e53-8cef-7cf920b57f77","system_id":"levelo_inurba_marseille","lat":43.30189,"lon":5.36633,"is_reserved":false,"is_disabled":false,"rental_uris":{"android":"levelo://app?vid=faf364d3-7bcc-4e53-8cef-7cf920b57f77","ios":"levelo://app?vid=faf364d3-7bcc-4e53-8cef-7cf920b57f77"},"vehicle_type_id":"4","last_reported":1752779426,"current_range_meters":7200,"station_id":"ce4bgrh2rcd13ifvqc8g","pricing_plan_id":"cebpf4jnsgd1na2vs0mg"},{"bike_id":"dc7e515f-2919-4942-b916-37f7a1ae377a","system_id":"levelo_inurba_marseille","lat":43.30135,"lon":5.39871,"is_reserved":false,"is_disabled":false,"rental_uris":{"android":"levelo://app?vid=dc7e515f-2919-4942-b916-37f7a1ae377a","ios":"levelo://app?vid=dc7e515f-2919-4942-b916-37f7a1ae377a"},"vehicle_type_id":"4","last_reported":1752779426,"current_range_meters":8000,"station_id":"ce4bh0h2rcd13ifvqd40","pricing_plan_id":"cebpf4jnsgd1na2vs0mg"},{"bike_id":"80763c57-5b11-4ed0-aec6-12853e83a0cc","system_id":"levelo_inurba_marseille","lat":43.309461,"lon":5.390312,"is_reserved":false,"is_disabled":false,"rental_uris":{"android":"levelo://app?vid=80763c57-5b11-4ed0-aec6-12853e83a0cc","ios":"levelo://app?vid=80763c57-5b11-4ed0-aec6-12853e83a0cc"},"vehicle_type_id":"4","last_reported":1752779426,"current_range_meters":8000,"station_id":"ce4bgup2rcd13ifvqco0","pricing_plan_id":"cebpf4jnsgd1na2vs0mg"},{"bike_id":"f5f71b56-fe09-4e71-bf38-ac44d2b8cb0b","system_id":"levelo_inurba_marseille","lat":43.24813,"lon":5.37452,"is_reserved":false,"is_disabled":false,"rental_uris":{"android":"levelo://app?vid=f5f71b56-fe09-4e71-bf38-ac44d2b8cb0b","ios":"levelo://app?vid=f5f71b56-fe09-4e71-bf38-ac44d2b8cb0b"},"vehicle_type_id":"4","last_reported":1752779426,"current_range_meters":8000,"station_id":"ce4bhgh2rcd13ifvqfb0","pricing_plan_id":"cebpf4jnsgd1na2vs0mg"},{"bike_id":"4a230ea3-7f57-4793-9d71-77f3f42ad016","system_id":"levelo_inurba_marseille","lat":43.27373,"lon":5.36261,"is_reserved":false,"is_disabled":false,"rental_uris":{"android":"levelo://app?vid=4a230ea3-7f57-4793-9d71-77f3f42ad016","ios":"levelo://app?vid=4a230ea3-7f57-4793-9d71-77f3f42ad016"},"vehicle_type_id":"4","last_reported":1752779426,"current_range_meters":8400,"station_id":"ce4bhbh2rcd13ifvqeo0","pricing_plan_id":"cebpf4jnsgd1na2vs0mg"},{"bike_id":"0d1fbd6e-696e-4fe5-93cd-08ef5e0e6aff","system_id":"levelo_inurba_marseille","lat":43.29024,"lon":5.38629,"is_reserved":false,"is_disabled":false,"rental_uris":{"android":"levelo://app?vid=0d1fbd6e-696e-4fe5-93cd-08ef5e0e6aff","ios":"levelo://app?vid=0d1fbd6e-696e-4fe5-93cd-08ef5e0e6aff"},"vehicle_type_id":"4","last_reported":1752779426,"current_range_meters":8400,"station_id":"ce4bh4p2rcd13ifvqe0g","pricing_plan_id":"cebpf4jnsgd1na2vs0mg"},{"bike_id":"3f21ecc2-1be8-4427-b89f-9e3095d919de","system_id":"levelo_inurba_marseille","lat":43.28415,"lon":5.34986,"is_reserved":false,"is_disabled":false,"rental_uris":{"android":"levelo://app?vid=3f21ecc2-1be8-4427-b89f-9e3095d919de","ios":"levelo://app?vid=3f21ecc2-1be8-4427-b89f-9e3095d919de"},"vehicle_type_id":"4","last_reported":1752779426,"current_range_meters":8800,"station_id":"ce4bhbh2rcd13ifvqepg","pricing_plan_id":"cebpf4jnsgd1na2vs0mg"},{"bike_id":"a8828ca8-fdac-48cd-8e10-9e410175fdf5","system_id":"levelo_inurba_marseille","lat":43.28399,"lon":5.37501,"is_reserved":false,"is_disabled":false,"rental_uris":{"android":"levelo://app?vid=a8828ca8-fdac-48cd-8e10-9e410175fdf5","ios":"levelo://app?vid=a8828ca8-fdac-48cd-8e10-9e410175fdf5"},"vehicle_type_id":"4","last_reported":1752779426,"current_range_meters":8800,"station_id":"ce4bh412rcd13ifvqds0","pricing_plan_id":"cebpf4jnsgd1na2vs0mg"},{"bike_id":"a4fd652b-34f8-4c68-a6e6-032a5cc5e418","system_id":"levelo_inurba_marseille","lat":43.31227,"lon":5.36855,"is_reserved":false,"is_disabled":true,"rental_uris":{"android":"levelo://app?vid=a4fd652b-34f8-4c68-a6e6-032a5cc5e418","ios":"levelo://app?vid=a4fd652b-34f8-4c68-a6e6-032a5cc5e418"},"vehicle_type_id":"4","last_reported":1752779426,"current_range_meters":8800,"station_id":"ce4bgl92rcd13ifvqbq0","pricing_plan_id":"cebpf4jnsgd1na2vs0mg"},{"bike_id":"4e9b8e90-ea4f-4e71-bc64-58aaf3b60757","system_id":"levelo_inurba_marseille","lat":43.29511,"lon":5.39405,"is_reserved":false,"is_disabled":false,"rental_uris":{"android":"levelo://app?vid=4e9b8e90-ea4f-4e71-bc64-58aaf3b60757","ios":"levelo://app?vid=4e9b8e90-ea4f-4e71-bc64-58aaf3b60757"},"vehicle_type_id":"4","last_reported":1752779426,"current_range_meters":9200,"station_id":"ce4bh292rcd13ifvqdf0","pricing_plan_id":"cebpf4jnsgd1na2vs0mg"},{"bike_id":"54479c77-c6d1-49cb-bc80-dea325fa1a67","system_id":"levelo_inurba_marseille","lat":43.265667,"lon":5.390056,"is_reserved":false,"is_disabled":false,"rental_uris":{"android":"levelo://app?vid=54479c77-c6d1-49cb-bc80-dea325fa1a67","ios":"levelo://app?vid=54479c77-c6d1-49cb-bc80-dea325fa1a67"},"vehicle_type_id":"4","last_reported":1752779426,"current_range_meters":9200,"station_id":"ce4bhe12rcd13ifvqf30","pricing_plan_id":"cebpf4jnsgd1na2vs0mg"},{"bike_id":"09d05884-420c-4cde-a6e4-38b818065f68","system_id":"levelo_inurba_marseille","lat":43.29034,"lon":5.37566,"is_reserved":false,"is_disabled":false,"rental_uris":{"android":"levelo://app?vid=09d05884-420c-4cde-a6e4-38b818065f68","ios":"levelo://app?vid=09d05884-420c-4cde-a6e4-38b818065f68"},"vehicle_type_id":"4","last_reported":1752779426,"current_range_meters":9200,"station_id":"ce4bh692rcd13ifvqe90","pricing_plan_id":"cebpf4jnsgd1na2vs0mg"},{"bike_id":"257e179d-ac91-4baa-b088-1824fa37ed3b","system_id":"levelo_inurba_marseille","lat":43.29216,"lon":5.35784,"is_reserved":false,"is_disabled":false,"rental_uris":{"android":"levelo://app?vid=257e179d-ac91-4baa-b088-1824fa37ed3b","ios":"levelo://app?vid=257e179d-ac91-4baa-b088-1824fa37ed3b"},"vehicle_type_id":"4","last_reported":1752779426,"current_range_meters":9200,"station_id":"ce4bhb12rcd13ifvqel0","pricing_plan_id":"cebpf4jnsgd1na2vs0mg"},{"bike_id":"122d7ec7-5ac4-4e37-8a0b-28b2d51e01c5","system_id":"levelo_inurba_marseille","lat":43.30535,"lon":5.36717,"is_reserved":false,"is_disabled":false,"rental_uris":{"android":"levelo://app?vid=122d7ec7-5ac4-4e37-8a0b-28b2d51e01c5","ios":"levelo://app?vid=122d7ec7-5ac4-4e37-8a0b-28b2d51e01c5"},"vehicle_type_id":"4","last_reported":1752779426,"current_range_meters":8800,"station_id":"ce4bgrp2rcd13ifvqc9g","pricing_plan_id":"cebpf4jnsgd1na2vs0mg"},{"bike_id":"aa2831de-fde3-4715-898e-98754084df56","system_id":"levelo_inurba_marseille","lat":43.29567,"lon":5.37515,"is_reserved":false,"is_disabled":false,"rental_uris":{"android":"levelo://app?vid=aa2831de-fde3-4715-898e-98754084df56","ios":"levelo://app?vid=aa2831de-fde3-4715-898e-98754084df56"},"vehicle_type_id":"4","last_reported":1752779426,"current_range_meters":9200,"station_id":"ce4bgh92rcd13ifvqb50","pricing_plan_id":"cebpf4jnsgd1na2vs0mg"},{"bike_id":"cc134d80-e033-4284-9e66-f005179cd5a2","system_id":"levelo_inurba_marseille","lat":43.29001,"lon":5.35615,"is_reserved":false,"is_disabled":false,"rental_uris":{"android":"levelo://app?vid=cc134d80-e033-4284-9e66-f005179cd5a2","ios":"levelo://app?vid=cc134d80-e033-4284-9e66-f005179cd5a2"},"vehicle_type_id":"4","last_reported":1752779426,"current_range_meters":7200,"station_id":"ce4bhb92rcd13ifvqen0","pricing_plan_id":"cebpf4jnsgd1na2vs0mg"},{"bike_id":"d92f029d-bc02-40d2-8ff2-499eb46bbfce","system_id":"levelo_inurba_marseille","lat":43.24798,"lon":5.37443,"is_reserved":false,"is_disabled":false,"rental_uris":{"android":"levelo://app?vid=d92f029d-bc02-40d2-8ff2-499eb46bbfce","ios":"levelo://app?vid=d92f029d-bc02-40d2-8ff2-499eb46bbfce"},"vehicle_type_id":"4","last_reported":1752779426,"current_range_meters":10000,"station_id":"ce4bhgh2rcd13ifvqfb0","pricing_plan_id":"cebpf4jnsgd1na2vs0mg"},{"bike_id":"1ecbff80-ea8a-4453-a900-d2c118ce6324","system_id":"levelo_inurba_marseille","lat":43.25082,"lon":5.3952,"is_reserved":false,"is_disabled":false,"rental_uris":{"android":"levelo://app?vid=1ecbff80-ea8a-4453-a900-d2c118ce6324","ios":"levelo://app?vid=1ecbff80-ea8a-4453-a900-d2c118ce6324"},"vehicle_type_id":"4","last_reported":1752779426,"current_range_meters":9600,"station_id":"ce4bhm12rcd13ifvqgkg","pricing_plan_id":"cebpf4jnsgd1na2vs0mg"},{"bike_id":"65c4786d-dc12-49bd-a247-621e9dac67da","system_id":"levelo_inurba_marseille","lat":43.29265,"lon":5.38436,"is_reserved":false,"is_disabled":false,"rental_uris":{"android":"levelo://app?vid=65c4786d-dc12-49bd-a247-621e9dac67da","ios":"levelo://app?vid=65c4786d-dc12-49bd-a247-621e9dac67da"},"vehicle_type_id":"4","last_reported":1752779426,"current_range_meters":9600,"station_id":"ce4bh692rcd13ifvqea0","pricing_plan_id":"cebpf4jnsgd1na2vs0mg"},{"bike_id":"79f016fd-1461-4f8d-bac8-14188cc7e5fb","system_id":"levelo_inurba_marseille","lat":43.23962,"lon":5.36629,"is_reserved":false,"is_disabled":false,"rental_uris":{"android":"levelo://app?vid=79f016fd-1461-4f8d-bac8-14188cc7e5fb","ios":"levelo://app?vid=79f016fd-1461-4f8d-bac8-14188cc7e5fb"},"vehicle_type_id":"4","last_reported":1752779426,"current_range_meters":9600,"station_id":"ce4bhi12rcd13ifvqfp0","pricing_plan_id":"cebpf4jnsgd1na2vs0mg"},{"bike_id":"83c4c184-1a6c-4993-9b96-cba49da9c49a","system_id":"levelo_inurba_marseille","lat":43.297049,"lon":5.376877,"is_reserved":false,"is_disabled":false,"rental_uris":{"android":"levelo://app?vid=83c4c184-1a6c-4993-9b96-cba49da9c49a","ios":"levelo://app?vid=83c4c184-1a6c-4993-9b96-cba49da9c49a"},"vehicle_type_id":"4","last_reported":1752779426,"current_range_meters":9600,"station_id":"","pricing_plan_id":"cebpf4jnsgd1na2vs0mg"},{"bike_id":"57239988-9161-49ce-a0a2-4581baf1b159","system_id":"levelo_inurba_marseille","lat":43.33763,"lon":5.37412,"is_reserved":false,"is_disabled":false,"rental_uris":{"android":"levelo://app?vid=57239988-9161-49ce-a0a2-4581baf1b159","ios":"levelo://app?vid=57239988-9161-49ce-a0a2-4581baf1b159"},"vehicle_type_id":"4","last_reported":1752779426,"current_range_meters":9600,"station_id":"","pricing_plan_id":"cebpf4jnsgd1na2vs0mg"},{"bike_id":"9204b261-833d-4743-93f9-c00cf7302ec6","system_id":"levelo_inurba_marseille","lat":43.30298,"lon":5.39209,"is_reserved":false,"is_disabled":false,"rental_uris":{"android":"levelo://app?vid=9204b261-833d-4743-93f9-c00cf7302ec6","ios":"levelo://app?vid=9204b261-833d-4743-93f9-c00cf7302ec6"},"vehicle_type_id":"4","last_reported":1752779426,"current_range_meters":9600,"station_id":"ce4bgkh2rcd13ifvqbk0","pricing_plan_id":"cebpf4jnsgd1na2vs0mg"},{"bike_id":"66a1f4b5-1b4a-4ea5-af14-696170951f31","system_id":"levelo_inurba_marseille","lat":43.26034,"lon":5.37542,"is_reserved":false,"is_disabled":false,"rental_uris":{"android":"levelo://app?vid=66a1f4b5-1b4a-4ea5-af14-696170951f31","ios":"levelo://app?vid=66a1f4b5-1b4a-4ea5-af14-696170951f31"},"vehicle_type_id":"4","last_reported":1752779426,"current_range_meters":9600,"station_id":"ce4bhgh2rcd13ifvqfa0","pricing_plan_id":"cebpf4jnsgd1na2vs0mg"},{"bike_id":"8f3abb41-b8da-4cd3-87bd-4679e254f2ff","system_id":"levelo_inurba_marseille","lat":43.29522,"lon":5.39033,"is_reserved":false,"is_disabled":false,"rental_uris":{"android":"levelo://app?vid=8f3abb41-b8da-4cd3-87bd-4679e254f2ff","ios":"levelo://app?vid=8f3abb41-b8da-4cd3-87bd-4679e254f2ff"},"vehicle_type_id":"4","last_reported":1752779426,"current_range_meters":9600,"station_id":"ce4bh3p2rcd13ifvqdp0","pricing_plan_id":"cebpf4jnsgd1na2vs0mg"},{"bike_id":"4aff3131-c2f0-49aa-9f71-6988eb132719","system_id":"levelo_inurba_marseille","lat":43.29417,"lon":5.3861,"is_reserved":false,"is_disabled":true,"rental_uris":{"android":"levelo://app?vid=4aff3131-c2f0-49aa-9f71-6988eb132719","ios":"levelo://app?vid=4aff3131-c2f0-49aa-9f71-6988eb132719"},"vehicle_type_id":"4","last_reported":1752779426,"current_range_meters":10000,"station_id":"ce4bh2h2rcd13ifvqdh0","pricing_plan_id":"cebpf4jnsgd1na2vs0mg"},{"bike_id":"9b470643-f326-4384-8d2c-c8246c3a8c7c","system_id":"levelo_inurba_marseille","lat":43.28262,"lon":5.35066,"is_reserved":false,"is_disabled":false,"rental_uris":{"android":"levelo://app?vid=9b470643-f326-4384-8d2c-c8246c3a8c7c","ios":"levelo://app?vid=9b470643-f326-4384-8d2c-c8246c3a8c7c"},"vehicle_type_id":"4","last_reported":1752779426,"current_range_meters":10000,"station_id":"ce4bhbp2rcd13ifvqerg","pricing_plan_id":"cebpf4jnsgd1na2vs0mg"},{"bike_id":"6c7dee28-0d94-4295-8cfb-2680987524ce","system_id":"levelo_inurba_marseille","lat":43.29426,"lon":5.38598,"is_reserved":false,"is_disabled":false,"rental_uris":{"android":"levelo://app?vid=6c7dee28-0d94-4295-8cfb-2680987524ce","ios":"levelo://app?vid=6c7dee28-0d94-4295-8cfb-2680987524ce"},"vehicle_type_id":"4","last_reported":1752779426,"current_range_meters":10000,"station_id":"ce4bh2h2rcd13ifvqdh0","pricing_plan_id":"cebpf4jnsgd1na2vs0mg"},{"bike_id":"5142f61b-36f8-428b-80e5-d58faf132870","system_id":"levelo_inurba_marseille","lat":43.290283,"lon":5.386383,"is_reserved":false,"is_disabled":false,"rental_uris":{"android":"levelo://app?vid=5142f61b-36f8-428b-80e5-d58faf132870","ios":"levelo://app?vid=5142f61b-36f8-428b-80e5-d58faf132870"},"vehicle_type_id":"4","last_reported":1752779426,"current_range_meters":10000,"station_id":"ce4bh4p2rcd13ifvqe0g","pricing_plan_id":"cebpf4jnsgd1na2vs0mg"},{"bike_id":"4bc84343-d0df-44e9-b2a6-9bce2dc2257f","system_id":"levelo_inurba_marseille","lat":43.28623,"lon":5.35107,"is_reserved":false,"is_disabled":false,"rental_uris":{"android":"levelo://app?vid=4bc84343-d0df-44e9-b2a6-9bce2dc2257f","ios":"levelo://app?vid=4bc84343-d0df-44e9-b2a6-9bce2dc2257f"},"vehicle_type_id":"4","last_reported":1752779426,"current_range_meters":10000,"station_id":"ce4bhch2rcd13ifvqeug","pricing_plan_id":"cebpf4jnsgd1na2vs0mg"},{"bike_id":"492a419e-7fc3-43b7-b688-aee4d064f5a3","system_id":"levelo_inurba_marseille","lat":43.29276,"lon":5.37176,"is_reserved":false,"is_disabled":true,"rental_uris":{"android":"levelo://app?vid=492a419e-7fc3-43b7-b688-aee4d064f5a3","ios":"levelo://app?vid=492a419e-7fc3-43b7-b688-aee4d064f5a3"},"vehicle_type_id":"4","last_reported":1752779426,"current_range_meters":10000,"station_id":"ce4bgh92rcd13ifvqb40","pricing_plan_id":"cebpf4jnsgd1na2vs0mg"},{"bike_id":"cd692588-b794-44b9-9e13-aed9ab5fed95","system_id":"levelo_inurba_marseille","lat":43.265501,"lon":5.372845,"is_reserved":false,"is_disabled":false,"rental_uris":{"android":"levelo://app?vid=cd692588-b794-44b9-9e13-aed9ab5fed95","ios":"levelo://app?vid=cd692588-b794-44b9-9e13-aed9ab5fed95"},"vehicle_type_id":"4","last_reported":1752779426,"current_range_meters":10000,"station_id":"ce4bhg12rcd13ifvqf70","pricing_plan_id":"cebpf4jnsgd1na2vs0mg"},{"bike_id":"deb62743-abb7-4757-97cc-88cf79abe852","system_id":"levelo_inurba_marseille","lat":43.28475,"lon":5.38417,"is_reserved":false,"is_disabled":false,"rental_uris":{"android":"levelo://app?vid=deb62743-abb7-4757-97cc-88cf79abe852","ios":"levelo://app?vid=deb62743-abb7-4757-97cc-88cf79abe852"},"vehicle_type_id":"4","last_reported":1752779426,"current_range_meters":10000,"station_id":"ce4bh512rcd13ifvqe3g","pricing_plan_id":"cebpf4jnsgd1na2vs0mg"},{"bike_id":"596ee07d-3733-4244-81e2-4973673809ed","system_id":"levelo_inurba_marseille","lat":43.30361,"lon":5.42488,"is_reserved":false,"is_disabled":false,"rental_uris":{"android":"levelo://app?vid=596ee07d-3733-4244-81e2-4973673809ed","ios":"levelo://app?vid=596ee07d-3733-4244-81e2-4973673809ed"},"vehicle_type_id":"4","last_reported":1752779426,"current_range_meters":10000,"station_id":"ce4bhoh2rcd13ifvqh6g","pricing_plan_id":"cebpf4jnsgd1na2vs0mg"},{"bike_id":"5804f83e-ac8b-4d4a-a2f3-91ed6a95174d","system_id":"levelo_inurba_marseille","lat":43.24671,"lon":5.38142,"is_reserved":false,"is_disabled":false,"rental_uris":{"android":"levelo://app?vid=5804f83e-ac8b-4d4a-a2f3-91ed6a95174d","ios":"levelo://app?vid=5804f83e-ac8b-4d4a-a2f3-91ed6a95174d"},"vehicle_type_id":"4","last_reported":1752779426,"current_range_meters":10000,"station_id":"ce4bhih2rcd13ifvqfr0","pricing_plan_id":"cebpf4jnsgd1na2vs0mg"},{"bike_id":"eb55c983-a9f2-4d0b-8c05-236665648ca0","system_id":"levelo_inurba_marseille","lat":43.28573,"lon":5.39498,"is_reserved":false,"is_disabled":false,"rental_uris":{"android":"levelo://app?vid=eb55c983-a9f2-4d0b-8c05-236665648ca0","ios":"levelo://app?vid=eb55c983-a9f2-4d0b-8c05-236665648ca0"},"vehicle_type_id":"4","last_reported":1752779426,"current_range_meters":9600,"station_id":"ce4bh292rcd13ifvqdg0","pricing_plan_id":"cebpf4jnsgd1na2vs0mg"},{"bike_id":"90f54ea4-e306-4792-9966-1cc1bc24176c","system_id":"levelo_inurba_marseille","lat":43.26489,"lon":5.39551,"is_reserved":false,"is_disabled":true,"rental_uris":{"android":"levelo://app?vid=90f54ea4-e306-4792-9966-1cc1bc24176c","ios":"levelo://app?vid=90f54ea4-e306-4792-9966-1cc1bc24176c"},"vehicle_type_id":"4","last_reported":1752779426,"current_range_meters":10000,"station_id":"ce4bhi12rcd13ifvqfq0","pricing_plan_id":"cebpf4jnsgd1na2vs0mg"},{"bike_id":"81f88721-00d0-431c-83bf-446e11578408","system_id":"levelo_inurba_marseille","lat":43.225044,"lon":5.347758,"is_reserved":false,"is_disabled":false,"rental_uris":{"android":"levelo://app?vid=81f88721-00d0-431c-83bf-446e11578408","ios":"levelo://app?vid=81f88721-00d0-431c-83bf-446e11578408"},"vehicle_type_id":"4","last_reported":1752779426,"current_range_meters":10000,"station_id":"st_cvj5dfep6f1abm77gieg","pricing_plan_id":"cebpf4jnsgd1na2vs0mg"},{"bike_id":"aca71f99-d25f-4cb4-b234-ea43a59bbdc4","system_id":"levelo_inurba_marseille","lat":43.25492,"lon":5.37648,"is_reserved":false,"is_disabled":false,"rental_uris":{"android":"levelo://app?vid=aca71f99-d25f-4cb4-b234-ea43a59bbdc4","ios":"levelo://app?vid=aca71f99-d25f-4cb4-b234-ea43a59bbdc4"},"vehicle_type_id":"4","last_reported":1752779426,"current_range_meters":10000,"station_id":"ce4bhh12rcd13ifvqff0","pricing_plan_id":"cebpf4jnsgd1na2vs0mg"},{"bike_id":"23d0beca-4cc6-41a4-912a-49ca5658d1ee","system_id":"levelo_inurba_marseille","lat":43.28414,"lon":5.34981,"is_reserved":false,"is_disabled":false,"rental_uris":{"android":"levelo://app?vid=23d0beca-4cc6-41a4-912a-49ca5658d1ee","ios":"levelo://app?vid=23d0beca-4cc6-41a4-912a-49ca5658d1ee"},"vehicle_type_id":"4","last_reported":1752779426,"current_range_meters":10800,"station_id":"ce4bhbh2rcd13ifvqepg","pricing_plan_id":"cebpf4jnsgd1na2vs0mg"},{"bike_id":"9e2b9821-ac2f-4bd4-8d9c-f0ce09fd85f2","system_id":"levelo_inurba_marseille","lat":43.27621,"lon":5.36106,"is_reserved":false,"is_disabled":false,"rental_uris":{"android":"levelo://app?vid=9e2b9821-ac2f-4bd4-8d9c-f0ce09fd85f2","ios":"levelo://app?vid=9e2b9821-ac2f-4bd4-8d9c-f0ce09fd85f2"},"vehicle_type_id":"4","last_reported":1752779426,"current_range_meters":10800,"station_id":"ce4bgj92rcd13ifvqbe0","pricing_plan_id":"cebpf4jnsgd1na2vs0mg"},{"bike_id":"f1a9dedb-774f-4a5e-bb42-f6dd5b67bfa3","system_id":"levelo_inurba_marseille","lat":43.2927,"lon":5.38444,"is_reserved":false,"is_disabled":false,"rental_uris":{"android":"levelo://app?vid=f1a9dedb-774f-4a5e-bb42-f6dd5b67bfa3","ios":"levelo://app?vid=f1a9dedb-774f-4a5e-bb42-f6dd5b67bfa3"},"vehicle_type_id":"4","last_reported":1752779426,"current_range_meters":10800,"station_id":"ce4bh692rcd13ifvqea0","pricing_plan_id":"cebpf4jnsgd1na2vs0mg"},{"bike_id":"555bc53e-5286-4fb6-9154-af42b3fd9792","system_id":"levelo_inurba_marseille","lat":43.300761,"lon":5.37279,"is_reserved":false,"is_disabled":false,"rental_uris":{"android":"levelo://app?vid=555bc53e-5286-4fb6-9154-af42b3fd9792","ios":"levelo://app?vid=555bc53e-5286-4fb6-9154-af42b3fd9792"},"vehicle_type_id":"4","last_reported":1752779426,"current_range_meters":10800,"station_id":"","pricing_plan_id":"cebpf4jnsgd1na2vs0mg"},{"bike_id":"7892087e-a3ea-43a7-8810-0673ac9d8f06","system_id":"levelo_inurba_marseille","lat":43.29044,"lon":5.37169,"is_reserved":false,"is_disabled":false,"rental_uris":{"android":"levelo://app?vid=7892087e-a3ea-43a7-8810-0673ac9d8f06","ios":"levelo://app?vid=7892087e-a3ea-43a7-8810-0673ac9d8f06"},"vehicle_type_id":"4","last_reported":1752779426,"current_range_meters":10000,"station_id":"ce4bh5p2rcd13ifvqe4g","pricing_plan_id":"cebpf4jnsgd1na2vs0mg"},{"bike_id":"cd53af4a-60b9-40c9-8ca6-ae3c51af7ace","system_id":"levelo_inurba_marseille","lat":43.28615,"lon":5.35106,"is_reserved":false,"is_disabled":false,"rental_uris":{"android":"levelo://app?vid=cd53af4a-60b9-40c9-8ca6-ae3c51af7ace","ios":"levelo://app?vid=cd53af4a-60b9-40c9-8ca6-ae3c51af7ace"},"vehicle_type_id":"4","last_reported":1752779426,"current_range_meters":10800,"station_id":"ce4bhch2rcd13ifvqeug","pricing_plan_id":"cebpf4jnsgd1na2vs0mg"},{"bike_id":"01986429-5348-4f5f-a159-ca62ddd16273","system_id":"levelo_inurba_marseille","lat":43.30139,"lon":5.38781,"is_reserved":false,"is_disabled":false,"rental_uris":{"android":"levelo://app?vid=01986429-5348-4f5f-a159-ca62ddd16273","ios":"levelo://app?vid=01986429-5348-4f5f-a159-ca62ddd16273"},"vehicle_type_id":"4","last_reported":1752779426,"current_range_meters":11200,"station_id":"ce4bghh2rcd13ifvqb60","pricing_plan_id":"cebpf4jnsgd1na2vs0mg"},{"bike_id":"41ee9dcd-b187-4958-a82b-103d3d60828f","system_id":"levelo_inurba_marseille","lat":43.28616,"lon":5.35099,"is_reserved":false,"is_disabled":false,"rental_uris":{"android":"levelo://app?vid=41ee9dcd-b187-4958-a82b-103d3d60828f","ios":"levelo://app?vid=41ee9dcd-b187-4958-a82b-103d3d60828f"},"vehicle_type_id":"4","last_reported":1752779426,"current_range_meters":11200,"station_id":"ce4bhch2rcd13ifvqeug","pricing_plan_id":"cebpf4jnsgd1na2vs0mg"},{"bike_id":"3cd6087b-0ba6-414f-af92-9cb01fc54682","system_id":"levelo_inurba_marseille","lat":43.29196,"lon":5.35805,"is_reserved":false,"is_disabled":false,"rental_uris":{"android":"levelo://app?vid=3cd6087b-0ba6-414f-af92-9cb01fc54682","ios":"levelo://app?vid=3cd6087b-0ba6-414f-af92-9cb01fc54682"},"vehicle_type_id":"4","last_reported":1752779426,"current_range_meters":11200,"station_id":"ce4bhb12rcd13ifvqel0","pricing_plan_id":"cebpf4jnsgd1na2vs0mg"},{"bike_id":"04d15a50-cb94-495c-969c-c09473f1fcda","system_id":"levelo_inurba_marseille","lat":43.296223,"lon":5.377025,"is_reserved":false,"is_disabled":false,"rental_uris":{"android":"levelo://app?vid=04d15a50-cb94-495c-969c-c09473f1fcda","ios":"levelo://app?vid=04d15a50-cb94-495c-969c-c09473f1fcda"},"vehicle_type_id":"4","last_reported":1752779426,"current_range_meters":11600,"station_id":"","pricing_plan_id":"cebpf4jnsgd1na2vs0mg"},{"bike_id":"572a5c02-f2ff-4155-8a06-8bd5bc57ffd7","system_id":"levelo_inurba_marseille","lat":43.311679,"lon":5.387236,"is_reserved":false,"is_disabled":false,"rental_uris":{"android":"levelo://app?vid=572a5c02-f2ff-4155-8a06-8bd5bc57ffd7","ios":"levelo://app?vid=572a5c02-f2ff-4155-8a06-8bd5bc57ffd7"},"vehicle_type_id":"4","last_reported":1752779426,"current_range_meters":11600,"station_id":"ce4bgv12rcd13ifvqcp0","pricing_plan_id":"cebpf4jnsgd1na2vs0mg"},{"bike_id":"28d27c17-e6ca-4cec-aec9-f1f6696b8a12","system_id":"levelo_inurba_marseille","lat":43.29902,"lon":5.43668,"is_reserved":false,"is_disabled":true,"rental_uris":{"android":"levelo://app?vid=28d27c17-e6ca-4cec-aec9-f1f6696b8a12","ios":"levelo://app?vid=28d27c17-e6ca-4cec-aec9-f1f6696b8a12"},"vehicle_type_id":"4","last_reported":1752779426,"current_range_meters":11600,"station_id":"ce4bhpp2rcd13ifvqhfg","pricing_plan_id":"cebpf4jnsgd1na2vs0mg"},{"bike_id":"4853dc4e-379f-452b-bc04-d34699ff270b","system_id":"levelo_inurba_marseille","lat":43.27369,"lon":5.36255,"is_reserved":false,"is_disabled":false,"rental_uris":{"android":"levelo://app?vid=4853dc4e-379f-452b-bc04-d34699ff270b","ios":"levelo://app?vid=4853dc4e-379f-452b-bc04-d34699ff270b"},"vehicle_type_id":"4","last_reported":1752779426,"current_range_meters":11600,"station_id":"ce4bhbh2rcd13ifvqeo0","pricing_plan_id":"cebpf4jnsgd1na2vs0mg"},{"bike_id":"b2a298e9-19e9-4d30-9a09-a4722cdf6a7b","system_id":"levelo_inurba_marseille","lat":43.21179,"lon":5.35096,"is_reserved":false,"is_disabled":false,"rental_uris":{"android":"levelo://app?vid=b2a298e9-19e9-4d30-9a09-a4722cdf6a7b","ios":"levelo://app?vid=b2a298e9-19e9-4d30-9a09-a4722cdf6a7b"},"vehicle_type_id":"4","last_reported":1752779426,"current_range_meters":12000,"station_id":"st_cvj6sg6p6f1abm77japg","pricing_plan_id":"cebpf4jnsgd1na2vs0mg"},{"bike_id":"3444bdc6-514a-4ba6-9650-f9073305e33d","system_id":"levelo_inurba_marseille","lat":43.29682,"lon":5.3698,"is_reserved":false,"is_disabled":false,"rental_uris":{"android":"levelo://app?vid=3444bdc6-514a-4ba6-9650-f9073305e33d","ios":"levelo://app?vid=3444bdc6-514a-4ba6-9650-f9073305e33d"},"vehicle_type_id":"4","last_reported":1752779426,"current_range_meters":12000,"station_id":"","pricing_plan_id":"cebpf4jnsgd1na2vs0mg"},{"bike_id":"68d5d5ad-c593-4152-beb8-9ccb9b54dc47","system_id":"levelo_inurba_marseille","lat":43.2549,"lon":5.37648,"is_reserved":false,"is_disabled":false,"rental_uris":{"android":"levelo://app?vid=68d5d5ad-c593-4152-beb8-9ccb9b54dc47","ios":"levelo://app?vid=68d5d5ad-c593-4152-beb8-9ccb9b54dc47"},"vehicle_type_id":"4","last_reported":1752779426,"current_range_meters":12000,"station_id":"ce4bhh12rcd13ifvqff0","pricing_plan_id":"cebpf4jnsgd1na2vs0mg"},{"bike_id":"457b0c00-3f1f-4919-9d50-e7f021e30cfa","system_id":"levelo_inurba_marseille","lat":43.21196,"lon":5.35058,"is_reserved":false,"is_disabled":false,"rental_uris":{"android":"levelo://app?vid=457b0c00-3f1f-4919-9d50-e7f021e30cfa","ios":"levelo://app?vid=457b0c00-3f1f-4919-9d50-e7f021e30cfa"},"vehicle_type_id":"4","last_reported":1752779426,"current_range_meters":12000,"station_id":"st_cvj6sg6p6f1abm77japg","pricing_plan_id":"cebpf4jnsgd1na2vs0mg"},{"bike_id":"07f5ae19-0925-43ef-aab4-48ec58bc62b9","system_id":"levelo_inurba_marseille","lat":43.314461,"lon":5.374401,"is_reserved":false,"is_disabled":false,"rental_uris":{"android":"levelo://app?vid=07f5ae19-0925-43ef-aab4-48ec58bc62b9","ios":"levelo://app?vid=07f5ae19-0925-43ef-aab4-48ec58bc62b9"},"vehicle_type_id":"4","last_reported":1752779426,"current_range_meters":12000,"station_id":"","pricing_plan_id":"cebpf4jnsgd1na2vs0mg"},{"bike_id":"64aaee03-d859-4429-a510-5d211cd2b600","system_id":"levelo_inurba_marseille","lat":43.24398,"lon":5.37046,"is_reserved":false,"is_disabled":false,"rental_uris":{"android":"levelo://app?vid=64aaee03-d859-4429-a510-5d211cd2b600","ios":"levelo://app?vid=64aaee03-d859-4429-a510-5d211cd2b600"},"vehicle_type_id":"4","last_reported":1752779426,"current_range_meters":12000,"station_id":"ce4bhhh2rcd13ifvqfk0","pricing_plan_id":"cebpf4jnsgd1na2vs0mg"},{"bike_id":"a7822f67-8634-43cf-949c-ed246d5c851a","system_id":"levelo_inurba_marseille","lat":43.25479,"lon":5.37663,"is_reserved":false,"is_disabled":false,"rental_uris":{"android":"levelo://app?vid=a7822f67-8634-43cf-949c-ed246d5c851a","ios":"levelo://app?vid=a7822f67-8634-43cf-949c-ed246d5c851a"},"vehicle_type_id":"4","last_reported":1752779426,"current_range_meters":12400,"station_id":"ce4bhh12rcd13ifvqff0","pricing_plan_id":"cebpf4jnsgd1na2vs0mg"},{"bike_id":"0714a563-de17-4c6e-b8c8-88cb39d88da1","system_id":"levelo_inurba_marseille","lat":43.24418,"lon":5.3705,"is_reserved":false,"is_disabled":false,"rental_uris":{"android":"levelo://app?vid=0714a563-de17-4c6e-b8c8-88cb39d88da1","ios":"levelo://app?vid=0714a563-de17-4c6e-b8c8-88cb39d88da1"},"vehicle_type_id":"4","last_reported":1752779426,"current_range_meters":12400,"station_id":"ce4bhhh2rcd13ifvqfk0","pricing_plan_id":"cebpf4jnsgd1na2vs0mg"},{"bike_id":"c2ba07b6-2037-462d-aca4-fc23bc490a58","system_id":"levelo_inurba_marseille","lat":43.28422,"lon":5.34978,"is_reserved":false,"is_disabled":false,"rental_uris":{"android":"levelo://app?vid=c2ba07b6-2037-462d-aca4-fc23bc490a58","ios":"levelo://app?vid=c2ba07b6-2037-462d-aca4-fc23bc490a58"},"vehicle_type_id":"4","last_reported":1752779426,"current_range_meters":12400,"station_id":"ce4bhbh2rcd13ifvqepg","pricing_plan_id":"cebpf4jnsgd1na2vs0mg"},{"bike_id":"e9e483c2-a74e-4c1e-b0c3-3bafc0231c73","system_id":"levelo_inurba_marseille","lat":43.24071,"lon":5.37756,"is_reserved":false,"is_disabled":false,"rental_uris":{"android":"levelo://app?vid=e9e483c2-a74e-4c1e-b0c3-3bafc0231c73","ios":"levelo://app?vid=e9e483c2-a74e-4c1e-b0c3-3bafc0231c73"},"vehicle_type_id":"4","last_reported":1752779426,"current_range_meters":12400,"station_id":"ce4bhnp2rcd13ifvqgvg","pricing_plan_id":"cebpf4jnsgd1na2vs0mg"},{"bike_id":"af06fa2c-e9f9-429d-9d91-3d19807945dd","system_id":"levelo_inurba_marseille","lat":43.26026,"lon":5.37548,"is_reserved":false,"is_disabled":false,"rental_uris":{"android":"levelo://app?vid=af06fa2c-e9f9-429d-9d91-3d19807945dd","ios":"levelo://app?vid=af06fa2c-e9f9-429d-9d91-3d19807945dd"},"vehicle_type_id":"4","last_reported":1752779426,"current_range_meters":12000,"station_id":"ce4bhgh2rcd13ifvqfa0","pricing_plan_id":"cebpf4jnsgd1na2vs0mg"},{"bike_id":"a77f1322-4ae7-4366-83f6-cd41cf91bd02","system_id":"levelo_inurba_marseille","lat":43.25129,"lon":5.40296,"is_reserved":false,"is_disabled":false,"rental_uris":{"android":"levelo://app?vid=a77f1322-4ae7-4366-83f6-cd41cf91bd02","ios":"levelo://app?vid=a77f1322-4ae7-4366-83f6-cd41cf91bd02"},"vehicle_type_id":"4","last_reported":1752779426,"current_range_meters":12400,"station_id":"ce4bhlh2rcd13ifvqgig","pricing_plan_id":"cebpf4jnsgd1na2vs0mg"},{"bike_id":"fbbdb3d7-d513-460f-8c5b-b72dcea799ec","system_id":"levelo_inurba_marseille","lat":43.25496,"lon":5.37653,"is_reserved":false,"is_disabled":false,"rental_uris":{"android":"levelo://app?vid=fbbdb3d7-d513-460f-8c5b-b72dcea799ec","ios":"levelo://app?vid=fbbdb3d7-d513-460f-8c5b-b72dcea799ec"},"vehicle_type_id":"4","last_reported":1752779426,"current_range_meters":12800,"station_id":"ce4bhh12rcd13ifvqff0","pricing_plan_id":"cebpf4jnsgd1na2vs0mg"},{"bike_id":"817c212b-a81b-414b-9cf2-430b7ad1f65d","system_id":"levelo_inurba_marseille","lat":43.284144,"lon":5.349893,"is_reserved":false,"is_disabled":false,"rental_uris":{"android":"levelo://app?vid=817c212b-a81b-414b-9cf2-430b7ad1f65d","ios":"levelo://app?vid=817c212b-a81b-414b-9cf2-430b7ad1f65d"},"vehicle_type_id":"4","last_reported":1752779426,"current_range_meters":12800,"station_id":"ce4bh3p2rcd13ifvqdp0","pricing_plan_id":"cebpf4jnsgd1na2vs0mg"},{"bike_id":"fd07f785-948d-48e7-9c57-46cccfaa2b14","system_id":"levelo_inurba_marseille","lat":43.28419,"lon":5.34966,"is_reserved":false,"is_disabled":false,"rental_uris":{"android":"levelo://app?vid=fd07f785-948d-48e7-9c57-46cccfaa2b14","ios":"levelo://app?vid=fd07f785-948d-48e7-9c57-46cccfaa2b14"},"vehicle_type_id":"4","last_reported":1752779426,"current_range_meters":12800,"station_id":"ce4bhbh2rcd13ifvqepg","pricing_plan_id":"cebpf4jnsgd1na2vs0mg"},{"bike_id":"d1e94785-07c9-4567-977b-a1d086ccac8d","system_id":"levelo_inurba_marseille","lat":43.29909,"lon":5.43654,"is_reserved":false,"is_disabled":false,"rental_uris":{"android":"levelo://app?vid=d1e94785-07c9-4567-977b-a1d086ccac8d","ios":"levelo://app?vid=d1e94785-07c9-4567-977b-a1d086ccac8d"},"vehicle_type_id":"4","last_reported":1752779426,"current_range_meters":13600,"station_id":"ce4bhpp2rcd13ifvqhfg","pricing_plan_id":"cebpf4jnsgd1na2vs0mg"},{"bike_id":"c303be8a-04b5-403f-a92a-eac34b716859","system_id":"levelo_inurba_marseille","lat":43.22934,"lon":5.35351,"is_reserved":false,"is_disabled":false,"rental_uris":{"android":"levelo://app?vid=c303be8a-04b5-403f-a92a-eac34b716859","ios":"levelo://app?vid=c303be8a-04b5-403f-a92a-eac34b716859"},"vehicle_type_id":"4","last_reported":1752779426,"current_range_meters":13600,"station_id":"cpo3532slgdg3j2ikp40","pricing_plan_id":"cebpf4jnsgd1na2vs0mg"},{"bike_id":"78274e74-ab73-4fa7-b1a3-d1a684863996","system_id":"levelo_inurba_marseille","lat":43.22493,"lon":5.34771,"is_reserved":false,"is_disabled":false,"rental_uris":{"android":"levelo://app?vid=78274e74-ab73-4fa7-b1a3-d1a684863996","ios":"levelo://app?vid=78274e74-ab73-4fa7-b1a3-d1a684863996"},"vehicle_type_id":"4","last_reported":1752779426,"current_range_meters":13600,"station_id":"st_cvj5dfep6f1abm77gieg","pricing_plan_id":"cebpf4jnsgd1na2vs0mg"},{"bike_id":"b861e845-045e-4bb7-9260-06d3fafca4ef","system_id":"levelo_inurba_marseille","lat":43.29898,"lon":5.43672,"is_reserved":false,"is_disabled":false,"rental_uris":{"android":"levelo://app?vid=b861e845-045e-4bb7-9260-06d3fafca4ef","ios":"levelo://app?vid=b861e845-045e-4bb7-9260-06d3fafca4ef"},"vehicle_type_id":"4","last_reported":1752779426,"current_range_meters":14000,"station_id":"ce4bhpp2rcd13ifvqhfg","pricing_plan_id":"cebpf4jnsgd1na2vs0mg"},{"bike_id":"fbdbbc69-f5d2-4310-8cce-08a69cc26ff4","system_id":"levelo_inurba_marseille","lat":43.29308,"lon":5.37181,"is_reserved":false,"is_disabled":false,"rental_uris":{"android":"levelo://app?vid=fbdbbc69-f5d2-4310-8cce-08a69cc26ff4","ios":"levelo://app?vid=fbdbbc69-f5d2-4310-8cce-08a69cc26ff4"},"vehicle_type_id":"4","last_reported":1752779426,"current_range_meters":14000,"station_id":"ce4bgh92rcd13ifvqb40","pricing_plan_id":"cebpf4jnsgd1na2vs0mg"},{"bike_id":"2c6e34ec-e4ad-4b55-908f-732bdcecdb2f","system_id":"levelo_inurba_marseille","lat":43.21196,"lon":5.350603,"is_reserved":false,"is_disabled":false,"rental_uris":{"android":"levelo://app?vid=2c6e34ec-e4ad-4b55-908f-732bdcecdb2f","ios":"levelo://app?vid=2c6e34ec-e4ad-4b55-908f-732bdcecdb2f"},"vehicle_type_id":"4","last_reported":1752779426,"current_range_meters":14000,"station_id":"st_cvj6sg6p6f1abm77japg","pricing_plan_id":"cebpf4jnsgd1na2vs0mg"},{"bike_id":"6d70d6d4-7776-4d1e-a307-46e9e54de733","system_id":"levelo_inurba_marseille","lat":43.29583,"lon":5.39959,"is_reserved":false,"is_disabled":true,"rental_uris":{"android":"levelo://app?vid=6d70d6d4-7776-4d1e-a307-46e9e54de733","ios":"levelo://app?vid=6d70d6d4-7776-4d1e-a307-46e9e54de733"},"vehicle_type_id":"4","last_reported":1752779426,"current_range_meters":14000,"station_id":"ce4bh312rcd13ifvqdj0","pricing_plan_id":"cebpf4jnsgd1na2vs0mg"},{"bike_id":"3e2535f8-7d7e-418e-8d9a-1404dd8a8196","system_id":"levelo_inurba_marseille","lat":43.33769,"lon":5.37435,"is_reserved":false,"is_disabled":true,"rental_uris":{"android":"levelo://app?vid=3e2535f8-7d7e-418e-8d9a-1404dd8a8196","ios":"levelo://app?vid=3e2535f8-7d7e-418e-8d9a-1404dd8a8196"},"vehicle_type_id":"4","last_reported":1752779426,"current_range_meters":14000,"station_id":"ce4bgh92rcd13ifvqb40","pricing_plan_id":"cebpf4jnsgd1na2vs0mg"},{"bike_id":"c9d5ce96-7bdf-4bac-a21b-39d832c652cd","system_id":"levelo_inurba_marseille","lat":43.30725,"lon":5.42431,"is_reserved":false,"is_disabled":false,"rental_uris":{"android":"levelo://app?vid=c9d5ce96-7bdf-4bac-a21b-39d832c652cd","ios":"levelo://app?vid=c9d5ce96-7bdf-4bac-a21b-39d832c652cd"},"vehicle_type_id":"4","last_reported":1752779426,"current_range_meters":14000,"station_id":"st_cvj6ca6bvosntc0bfgr0","pricing_plan_id":"cebpf4jnsgd1na2vs0mg"},{"bike_id":"27c36bcc-8555-4bc5-b475-cb76f8e230e5","system_id":"levelo_inurba_marseille","lat":43.243895,"lon":5.370605,"is_reserved":false,"is_disabled":false,"rental_uris":{"android":"levelo://app?vid=27c36bcc-8555-4bc5-b475-cb76f8e230e5","ios":"levelo://app?vid=27c36bcc-8555-4bc5-b475-cb76f8e230e5"},"vehicle_type_id":"4","last_reported":1752779426,"current_range_meters":14000,"station_id":"ce4bhhh2rcd13ifvqfk0","pricing_plan_id":"cebpf4jnsgd1na2vs0mg"},{"bike_id":"2ac93549-5c94-4228-8eea-782a21384d10","system_id":"levelo_inurba_marseille","lat":43.29634,"lon":5.37793,"is_reserved":false,"is_disabled":false,"rental_uris":{"android":"levelo://app?vid=2ac93549-5c94-4228-8eea-782a21384d10","ios":"levelo://app?vid=2ac93549-5c94-4228-8eea-782a21384d10"},"vehicle_type_id":"4","last_reported":1752779426,"current_range_meters":14000,"station_id":"","pricing_plan_id":"cebpf4jnsgd1na2vs0mg"},{"bike_id":"8190b158-4f1a-4f58-a07b-5b1c4e7d71cb","system_id":"levelo_inurba_marseille","lat":43.29223,"lon":5.36051,"is_reserved":false,"is_disabled":false,"rental_uris":{"android":"levelo://app?vid=8190b158-4f1a-4f58-a07b-5b1c4e7d71cb","ios":"levelo://app?vid=8190b158-4f1a-4f58-a07b-5b1c4e7d71cb"},"vehicle_type_id":"4","last_reported":1752779426,"current_range_meters":14000,"station_id":"ce4bhbh2rcd13ifvqeqg","pricing_plan_id":"cebpf4jnsgd1na2vs0mg"},{"bike_id":"fd75f631-a93f-469d-bea7-4e480ab41eae","system_id":"levelo_inurba_marseille","lat":43.28273,"lon":5.35062,"is_reserved":false,"is_disabled":false,"rental_uris":{"android":"levelo://app?vid=fd75f631-a93f-469d-bea7-4e480ab41eae","ios":"levelo://app?vid=fd75f631-a93f-469d-bea7-4e480ab41eae"},"vehicle_type_id":"4","last_reported":1752779426,"current_range_meters":14000,"station_id":"ce4bhbp2rcd13ifvqerg","pricing_plan_id":"cebpf4jnsgd1na2vs0mg"},{"bike_id":"491814c1-6552-4c4f-8067-d73974e2686f","system_id":"levelo_inurba_marseille","lat":43.29196,"lon":5.39336,"is_reserved":false,"is_disabled":false,"rental_uris":{"android":"levelo://app?vid=491814c1-6552-4c4f-8067-d73974e2686f","ios":"levelo://app?vid=491814c1-6552-4c4f-8067-d73974e2686f"},"vehicle_type_id":"4","last_reported":1752779426,"current_range_meters":14000,"station_id":"ce4bh192rcd13ifvqdd0","pricing_plan_id":"cebpf4jnsgd1na2vs0mg"},{"bike_id":"6eb7d89b-8391-4063-9549-49cb4e5f232d","system_id":"levelo_inurba_marseille","lat":43.28414,"lon":5.3499,"is_reserved":false,"is_disabled":false,"rental_uris":{"android":"levelo://app?vid=6eb7d89b-8391-4063-9549-49cb4e5f232d","ios":"levelo://app?vid=6eb7d89b-8391-4063-9549-49cb4e5f232d"},"vehicle_type_id":"4","last_reported":1752779426,"current_range_meters":14400,"station_id":"ce4bhbh2rcd13ifvqepg","pricing_plan_id":"cebpf4jnsgd1na2vs0mg"},{"bike_id":"98800171-f5f8-470c-b480-52757c1bc2b6","system_id":"levelo_inurba_marseille","lat":43.2989,"lon":5.3889,"is_reserved":false,"is_disabled":false,"rental_uris":{"android":"levelo://app?vid=98800171-f5f8-470c-b480-52757c1bc2b6","ios":"levelo://app?vid=98800171-f5f8-470c-b480-52757c1bc2b6"},"vehicle_type_id":"4","last_reported":1752779426,"current_range_meters":14400,"station_id":"ce4bh392rcd13ifvqdl0","pricing_plan_id":"cebpf4jnsgd1na2vs0mg"},{"bike_id":"59961a5c-6008-4288-809d-6658027f5769","system_id":"levelo_inurba_marseille","lat":43.26191,"lon":5.37447,"is_reserved":false,"is_disabled":false,"rental_uris":{"android":"levelo://app?vid=59961a5c-6008-4288-809d-6658027f5769","ios":"levelo://app?vid=59961a5c-6008-4288-809d-6658027f5769"},"vehicle_type_id":"4","last_reported":1752779426,"current_range_meters":14400,"station_id":"ce4bhgp2rcd13ifvqfc0","pricing_plan_id":"cebpf4jnsgd1na2vs0mg"},{"bike_id":"973cfc5f-379a-4132-ab27-0dedf9479941","system_id":"levelo_inurba_marseille","lat":43.25494,"lon":5.37647,"is_reserved":false,"is_disabled":false,"rental_uris":{"android":"levelo://app?vid=973cfc5f-379a-4132-ab27-0dedf9479941","ios":"levelo://app?vid=973cfc5f-379a-4132-ab27-0dedf9479941"},"vehicle_type_id":"4","last_reported":1752779426,"current_range_meters":14400,"station_id":"ce4bhh12rcd13ifvqff0","pricing_plan_id":"cebpf4jnsgd1na2vs0mg"},{"bike_id":"da891840-0cec-4ccc-961c-48903736c6fa","system_id":"levelo_inurba_marseille","lat":43.31139,"lon":5.37692,"is_reserved":false,"is_disabled":false,"rental_uris":{"android":"levelo://app?vid=da891840-0cec-4ccc-961c-48903736c6fa","ios":"levelo://app?vid=da891840-0cec-4ccc-961c-48903736c6fa"},"vehicle_type_id":"4","last_reported":1752779426,"current_range_meters":14400,"station_id":"","pricing_plan_id":"cebpf4jnsgd1na2vs0mg"},{"bike_id":"e555b545-304c-4dce-8496-1643c0f2600e","system_id":"levelo_inurba_marseille","lat":43.337444,"lon":5.374475,"is_reserved":false,"is_disabled":false,"rental_uris":{"android":"levelo://app?vid=e555b545-304c-4dce-8496-1643c0f2600e","ios":"levelo://app?vid=e555b545-304c-4dce-8496-1643c0f2600e"},"vehicle_type_id":"4","last_reported":1752779426,"current_range_meters":14400,"station_id":"","pricing_plan_id":"cebpf4jnsgd1na2vs0mg"},{"bike_id":"93f2d037-f84f-4817-a18f-77ea92597358","system_id":"levelo_inurba_marseille","lat":43.24387,"lon":5.37058,"is_reserved":false,"is_disabled":false,"rental_uris":{"android":"levelo://app?vid=93f2d037-f84f-4817-a18f-77ea92597358","ios":"levelo://app?vid=93f2d037-f84f-4817-a18f-77ea92597358"},"vehicle_type_id":"4","last_reported":1752779426,"current_range_meters":14400,"station_id":"ce4bhhh2rcd13ifvqfk0","pricing_plan_id":"cebpf4jnsgd1na2vs0mg"},{"bike_id":"e7b1577d-e79a-4a08-a9a8-775995587041","system_id":"levelo_inurba_marseille","lat":43.26029,"lon":5.37542,"is_reserved":false,"is_disabled":false,"rental_uris":{"android":"levelo://app?vid=e7b1577d-e79a-4a08-a9a8-775995587041","ios":"levelo://app?vid=e7b1577d-e79a-4a08-a9a8-775995587041"},"vehicle_type_id":"4","last_reported":1752779426,"current_range_meters":14400,"station_id":"ce4bhgh2rcd13ifvqfa0","pricing_plan_id":"cebpf4jnsgd1na2vs0mg"},{"bike_id":"a2a33e33-6e01-4300-b944-4634c29a2189","system_id":"levelo_inurba_marseille","lat":43.29271,"lon":5.38429,"is_reserved":false,"is_disabled":false,"rental_uris":{"android":"levelo://app?vid=a2a33e33-6e01-4300-b944-4634c29a2189","ios":"levelo://app?vid=a2a33e33-6e01-4300-b944-4634c29a2189"},"vehicle_type_id":"4","last_reported":1752779426,"current_range_meters":14400,"station_id":"ce4bh692rcd13ifvqea0","pricing_plan_id":"cebpf4jnsgd1na2vs0mg"},{"bike_id":"f1a7f3b0-3bad-4ded-bc92-3fb1685f68ed","system_id":"levelo_inurba_marseille","lat":43.293638,"lon":5.378632,"is_reserved":false,"is_disabled":true,"rental_uris":{"android":"levelo://app?vid=f1a7f3b0-3bad-4ded-bc92-3fb1685f68ed","ios":"levelo://app?vid=f1a7f3b0-3bad-4ded-bc92-3fb1685f68ed"},"vehicle_type_id":"4","last_reported":1752779426,"current_range_meters":14800,"station_id":"ce4bgjh2rcd13ifvqbf0","pricing_plan_id":"cebpf4jnsgd1na2vs0mg"},{"bike_id":"72363da8-e89e-41f4-b909-1cd750ba8cd6","system_id":"levelo_inurba_marseille","lat":43.250883,"lon":5.395275,"is_reserved":false,"is_disabled":false,"rental_uris":{"android":"levelo://app?vid=72363da8-e89e-41f4-b909-1cd750ba8cd6","ios":"levelo://app?vid=72363da8-e89e-41f4-b909-1cd750ba8cd6"},"vehicle_type_id":"4","last_reported":1752779426,"current_range_meters":14800,"station_id":"ce4bhm12rcd13ifvqgkg","pricing_plan_id":"cebpf4jnsgd1na2vs0mg"},{"bike_id":"a64f344d-50e6-4de9-9eee-cf18c22c0c3e","system_id":"levelo_inurba_marseille","lat":43.21749,"lon":5.34604,"is_reserved":false,"is_disabled":false,"rental_uris":{"android":"levelo://app?vid=a64f344d-50e6-4de9-9eee-cf18c22c0c3e","ios":"levelo://app?vid=a64f344d-50e6-4de9-9eee-cf18c22c0c3e"},"vehicle_type_id":"4","last_reported":1752779426,"current_range_meters":14800,"station_id":"st_cvj6r9ubvosntc0bgbag","pricing_plan_id":"cebpf4jnsgd1na2vs0mg"},{"bike_id":"b3d93b47-e588-45e1-bce7-00ad374ebca5","system_id":"levelo_inurba_marseille","lat":43.284637,"lon":5.358773,"is_reserved":false,"is_disabled":false,"rental_uris":{"android":"levelo://app?vid=b3d93b47-e588-45e1-bce7-00ad374ebca5","ios":"levelo://app?vid=b3d93b47-e588-45e1-bce7-00ad374ebca5"},"vehicle_type_id":"4","last_reported":1752779426,"current_range_meters":14800,"station_id":"ce4bhah2rcd13ifvqei0","pricing_plan_id":"cebpf4jnsgd1na2vs0mg"},{"bike_id":"9c4fcc8e-e909-40b4-bb2c-eef8f551b3da","system_id":"levelo_inurba_marseille","lat":43.30378,"lon":5.42477,"is_reserved":false,"is_disabled":false,"rental_uris":{"android":"levelo://app?vid=9c4fcc8e-e909-40b4-bb2c-eef8f551b3da","ios":"levelo://app?vid=9c4fcc8e-e909-40b4-bb2c-eef8f551b3da"},"vehicle_type_id":"4","last_reported":1752779426,"current_range_meters":14800,"station_id":"ce4bhoh2rcd13ifvqh6g","pricing_plan_id":"cebpf4jnsgd1na2vs0mg"},{"bike_id":"61a06481-ef38-4a2b-b0f3-4ae1791d087f","system_id":"levelo_inurba_marseille","lat":43.28845,"lon":5.35845,"is_reserved":false,"is_disabled":false,"rental_uris":{"android":"levelo://app?vid=61a06481-ef38-4a2b-b0f3-4ae1791d087f","ios":"levelo://app?vid=61a06481-ef38-4a2b-b0f3-4ae1791d087f"},"vehicle_type_id":"4","last_reported":1752779426,"current_range_meters":14800,"station_id":"ce4bhb12rcd13ifvqem0","pricing_plan_id":"cebpf4jnsgd1na2vs0mg"},{"bike_id":"ba3823fb-c6a3-4066-b41a-411ec979f129","system_id":"levelo_inurba_marseille","lat":43.32339,"lon":5.40622,"is_reserved":false,"is_disabled":false,"rental_uris":{"android":"levelo://app?vid=ba3823fb-c6a3-4066-b41a-411ec979f129","ios":"levelo://app?vid=ba3823fb-c6a3-4066-b41a-411ec979f129"},"vehicle_type_id":"4","last_reported":1752779426,"current_range_meters":14800,"station_id":"ce4bhq92rcd13ifvqhjg","pricing_plan_id":"cebpf4jnsgd1na2vs0mg"},{"bike_id":"fa952d17-ab1a-4475-9dcd-13ca92954e4b","system_id":"levelo_inurba_marseille","lat":43.29254,"lon":5.38441,"is_reserved":false,"is_disabled":false,"rental_uris":{"android":"levelo://app?vid=fa952d17-ab1a-4475-9dcd-13ca92954e4b","ios":"levelo://app?vid=fa952d17-ab1a-4475-9dcd-13ca92954e4b"},"vehicle_type_id":"4","last_reported":1752779426,"current_range_meters":14800,"station_id":"ce4bh692rcd13ifvqea0","pricing_plan_id":"cebpf4jnsgd1na2vs0mg"},{"bike_id":"69cb19e4-0798-4f3e-86cc-f90d6ea5972a","system_id":"levelo_inurba_marseille","lat":43.304286,"lon":5.397411,"is_reserved":false,"is_disabled":false,"rental_uris":{"android":"levelo://app?vid=69cb19e4-0798-4f3e-86cc-f90d6ea5972a","ios":"levelo://app?vid=69cb19e4-0798-4f3e-86cc-f90d6ea5972a"},"vehicle_type_id":"4","last_reported":1752779426,"current_range_meters":14800,"station_id":"ce4bh092rcd13ifvqd20","pricing_plan_id":"cebpf4jnsgd1na2vs0mg"},{"bike_id":"ae28ea44-06e0-468d-b104-f45ecdf62a40","system_id":"levelo_inurba_marseille","lat":43.23186,"lon":5.35567,"is_reserved":false,"is_disabled":false,"rental_uris":{"android":"levelo://app?vid=ae28ea44-06e0-468d-b104-f45ecdf62a40","ios":"levelo://app?vid=ae28ea44-06e0-468d-b104-f45ecdf62a40"},"vehicle_type_id":"4","last_reported":1752779426,"current_range_meters":15200,"station_id":"ce4bhu92rcd13ifvqi70","pricing_plan_id":"cebpf4jnsgd1na2vs0mg"},{"bike_id":"9c837b99-081f-4caa-a8a3-7d6dc61e9d18","system_id":"levelo_inurba_marseille","lat":43.2306,"lon":5.35489,"is_reserved":false,"is_disabled":false,"rental_uris":{"android":"levelo://app?vid=9c837b99-081f-4caa-a8a3-7d6dc61e9d18","ios":"levelo://app?vid=9c837b99-081f-4caa-a8a3-7d6dc61e9d18"},"vehicle_type_id":"4","last_reported":1752779426,"current_range_meters":15200,"station_id":"cpo3342slgdg3j2ifvpg","pricing_plan_id":"cebpf4jnsgd1na2vs0mg"},{"bike_id":"398d6518-63ea-41c2-90f5-21fa7f9671fe","system_id":"levelo_inurba_marseille","lat":43.28875,"lon":5.37872,"is_reserved":false,"is_disabled":false,"rental_uris":{"android":"levelo://app?vid=398d6518-63ea-41c2-90f5-21fa7f9671fe","ios":"levelo://app?vid=398d6518-63ea-41c2-90f5-21fa7f9671fe"},"vehicle_type_id":"4","last_reported":1752779426,"current_range_meters":15200,"station_id":"","pricing_plan_id":"cebpf4jnsgd1na2vs0mg"},{"bike_id":"207499a3-a795-46d4-b682-d46f82e7d334","system_id":"levelo_inurba_marseille","lat":43.29314,"lon":5.37165,"is_reserved":false,"is_disabled":false,"rental_uris":{"android":"levelo://app?vid=207499a3-a795-46d4-b682-d46f82e7d334","ios":"levelo://app?vid=207499a3-a795-46d4-b682-d46f82e7d334"},"vehicle_type_id":"4","last_reported":1752779426,"current_range_meters":15200,"station_id":"ce4bgh92rcd13ifvqb40","pricing_plan_id":"cebpf4jnsgd1na2vs0mg"},{"bike_id":"b8da2cc0-365e-4444-8a9a-ac56930732af","system_id":"levelo_inurba_marseille","lat":43.27941,"lon":5.41008,"is_reserved":false,"is_disabled":false,"rental_uris":{"android":"levelo://app?vid=b8da2cc0-365e-4444-8a9a-ac56930732af","ios":"levelo://app?vid=b8da2cc0-365e-4444-8a9a-ac56930732af"},"vehicle_type_id":"4","last_reported":1752779426,"current_range_meters":15200,"station_id":"ce4bhnp2rcd13ifvqh0g","pricing_plan_id":"cebpf4jnsgd1na2vs0mg"},{"bike_id":"dfc42a2e-0f95-4db0-9ba3-0397d8138378","system_id":"levelo_inurba_marseille","lat":43.2862,"lon":5.35079,"is_reserved":false,"is_disabled":false,"rental_uris":{"android":"levelo://app?vid=dfc42a2e-0f95-4db0-9ba3-0397d8138378","ios":"levelo://app?vid=dfc42a2e-0f95-4db0-9ba3-0397d8138378"},"vehicle_type_id":"4","last_reported":1752779426,"current_range_meters":15200,"station_id":"ce4bhch2rcd13ifvqeug","pricing_plan_id":"cebpf4jnsgd1na2vs0mg"},{"bike_id":"d418fe0e-eb2e-4d0f-a1ff-ba5be7ee4a5c","system_id":"levelo_inurba_marseille","lat":43.28611,"lon":5.35102,"is_reserved":false,"is_disabled":false,"rental_uris":{"android":"levelo://app?vid=d418fe0e-eb2e-4d0f-a1ff-ba5be7ee4a5c","ios":"levelo://app?vid=d418fe0e-eb2e-4d0f-a1ff-ba5be7ee4a5c"},"vehicle_type_id":"4","last_reported":1752779426,"current_range_meters":15200,"station_id":"ce4bhch2rcd13ifvqeug","pricing_plan_id":"cebpf4jnsgd1na2vs0mg"},{"bike_id":"2272a1cb-30d4-47dd-bed5-39b01483f853","system_id":"levelo_inurba_marseille","lat":43.22927,"lon":5.3535,"is_reserved":false,"is_disabled":false,"rental_uris":{"android":"levelo://app?vid=2272a1cb-30d4-47dd-bed5-39b01483f853","ios":"levelo://app?vid=2272a1cb-30d4-47dd-bed5-39b01483f853"},"vehicle_type_id":"4","last_reported":1752779426,"current_range_meters":15200,"station_id":"cpo3532slgdg3j2ikp40","pricing_plan_id":"cebpf4jnsgd1na2vs0mg"},{"bike_id":"0698bc0a-1356-460f-8b6d-fca0137a6217","system_id":"levelo_inurba_marseille","lat":43.2119,"lon":5.35074,"is_reserved":false,"is_disabled":false,"rental_uris":{"android":"levelo://app?vid=0698bc0a-1356-460f-8b6d-fca0137a6217","ios":"levelo://app?vid=0698bc0a-1356-460f-8b6d-fca0137a6217"},"vehicle_type_id":"4","last_reported":1752779426,"current_range_meters":15200,"station_id":"st_cvj6sg6p6f1abm77japg","pricing_plan_id":"cebpf4jnsgd1na2vs0mg"},{"bike_id":"531dca68-8617-41b0-a6cd-abffc94e1d45","system_id":"levelo_inurba_marseille","lat":43.31204,"lon":5.37312,"is_reserved":false,"is_disabled":false,"rental_uris":{"android":"levelo://app?vid=531dca68-8617-41b0-a6cd-abffc94e1d45","ios":"levelo://app?vid=531dca68-8617-41b0-a6cd-abffc94e1d45"},"vehicle_type_id":"4","last_reported":1752779426,"current_range_meters":15200,"station_id":"","pricing_plan_id":"cebpf4jnsgd1na2vs0mg"},{"bike_id":"9b080875-4ba1-4e62-b7ce-48ae80ef4177","system_id":"levelo_inurba_marseille","lat":43.296,"lon":5.38099,"is_reserved":false,"is_disabled":false,"rental_uris":{"android":"levelo://app?vid=9b080875-4ba1-4e62-b7ce-48ae80ef4177","ios":"levelo://app?vid=9b080875-4ba1-4e62-b7ce-48ae80ef4177"},"vehicle_type_id":"4","last_reported":1752779426,"current_range_meters":15200,"station_id":"ce4bgl12rcd13ifvqbo0","pricing_plan_id":"cebpf4jnsgd1na2vs0mg"},{"bike_id":"3a1d38ae-7a3e-4ec4-a60a-a2bd3b500999","system_id":"levelo_inurba_marseille","lat":43.28819,"lon":5.35857,"is_reserved":false,"is_disabled":false,"rental_uris":{"android":"levelo://app?vid=3a1d38ae-7a3e-4ec4-a60a-a2bd3b500999","ios":"levelo://app?vid=3a1d38ae-7a3e-4ec4-a60a-a2bd3b500999"},"vehicle_type_id":"4","last_reported":1752779426,"current_range_meters":16000,"station_id":"ce4bhb12rcd13ifvqem0","pricing_plan_id":"cebpf4jnsgd1na2vs0mg"},{"bike_id":"08d111e6-72b1-46ed-bb47-3abb4150e0e2","system_id":"levelo_inurba_marseille","lat":43.28427,"lon":5.35,"is_reserved":false,"is_disabled":false,"rental_uris":{"android":"levelo://app?vid=08d111e6-72b1-46ed-bb47-3abb4150e0e2","ios":"levelo://app?vid=08d111e6-72b1-46ed-bb47-3abb4150e0e2"},"vehicle_type_id":"4","last_reported":1752779426,"current_range_meters":16000,"station_id":"ce4bhbh2rcd13ifvqepg","pricing_plan_id":"cebpf4jnsgd1na2vs0mg"},{"bike_id":"29ea3cb3-cbcf-4c2a-b20d-6f0da89e8aa2","system_id":"levelo_inurba_marseille","lat":43.217517,"lon":5.345823,"is_reserved":false,"is_disabled":false,"rental_uris":{"android":"levelo://app?vid=29ea3cb3-cbcf-4c2a-b20d-6f0da89e8aa2","ios":"levelo://app?vid=29ea3cb3-cbcf-4c2a-b20d-6f0da89e8aa2"},"vehicle_type_id":"4","last_reported":1752779426,"current_range_meters":16000,"station_id":"st_cvj6r9ubvosntc0bgbag","pricing_plan_id":"cebpf4jnsgd1na2vs0mg"},{"bike_id":"70cc05b6-3ccb-4065-87f0-5c3d1a21174b","system_id":"levelo_inurba_marseille","lat":43.30203,"lon":5.395,"is_reserved":false,"is_disabled":false,"rental_uris":{"android":"levelo://app?vid=70cc05b6-3ccb-4065-87f0-5c3d1a21174b","ios":"levelo://app?vid=70cc05b6-3ccb-4065-87f0-5c3d1a21174b"},"vehicle_type_id":"4","last_reported":1752779426,"current_range_meters":16000,"station_id":"ce4bh0p2rcd13ifvqd70","pricing_plan_id":"cebpf4jnsgd1na2vs0mg"},{"bike_id":"a092d05c-8017-44f5-ba8a-35792463d6a3","system_id":"levelo_inurba_marseille","lat":43.225044,"lon":5.347869,"is_reserved":false,"is_disabled":false,"rental_uris":{"android":"levelo://app?vid=a092d05c-8017-44f5-ba8a-35792463d6a3","ios":"levelo://app?vid=a092d05c-8017-44f5-ba8a-35792463d6a3"},"vehicle_type_id":"4","last_reported":1752779426,"current_range_meters":16000,"station_id":"st_cvj5dfep6f1abm77gieg","pricing_plan_id":"cebpf4jnsgd1na2vs0mg"},{"bike_id":"553fa98c-cad1-4f43-89c4-f99be239a9a1","system_id":"levelo_inurba_marseille","lat":43.29257,"lon":5.38444,"is_reserved":false,"is_disabled":false,"rental_uris":{"android":"levelo://app?vid=553fa98c-cad1-4f43-89c4-f99be239a9a1","ios":"levelo://app?vid=553fa98c-cad1-4f43-89c4-f99be239a9a1"},"vehicle_type_id":"4","last_reported":1752779426,"current_range_meters":16000,"station_id":"ce4bh692rcd13ifvqea0","pricing_plan_id":"cebpf4jnsgd1na2vs0mg"},{"bike_id":"86af4f2a-1bcc-4f1f-a51a-d4661d531829","system_id":"levelo_inurba_marseille","lat":43.29031,"lon":5.38641,"is_reserved":false,"is_disabled":false,"rental_uris":{"android":"levelo://app?vid=86af4f2a-1bcc-4f1f-a51a-d4661d531829","ios":"levelo://app?vid=86af4f2a-1bcc-4f1f-a51a-d4661d531829"},"vehicle_type_id":"4","last_reported":1752779426,"current_range_meters":16000,"station_id":"ce4bh4p2rcd13ifvqe0g","pricing_plan_id":"cebpf4jnsgd1na2vs0mg"},{"bike_id":"31695fe3-ba1a-451d-a7a2-e6e81aefdddc","system_id":"levelo_inurba_marseille","lat":43.28617,"lon":5.35092,"is_reserved":false,"is_disabled":true,"rental_uris":{"android":"levelo://app?vid=31695fe3-ba1a-451d-a7a2-e6e81aefdddc","ios":"levelo://app?vid=31695fe3-ba1a-451d-a7a2-e6e81aefdddc"},"vehicle_type_id":"4","last_reported":1752779426,"current_range_meters":16000,"station_id":"ce4bhch2rcd13ifvqeug","pricing_plan_id":"cebpf4jnsgd1na2vs0mg"},{"bike_id":"c3341e4c-276d-48cf-9580-c3f766d86c01","system_id":"levelo_inurba_marseille","lat":43.28613,"lon":5.35098,"is_reserved":false,"is_disabled":false,"rental_uris":{"android":"levelo://app?vid=c3341e4c-276d-48cf-9580-c3f766d86c01","ios":"levelo://app?vid=c3341e4c-276d-48cf-9580-c3f766d86c01"},"vehicle_type_id":"4","last_reported":1752779426,"current_range_meters":16000,"station_id":"ce4bhch2rcd13ifvqeug","pricing_plan_id":"cebpf4jnsgd1na2vs0mg"},{"bike_id":"3122ab7c-90b3-44eb-aa76-127d826025d6","system_id":"levelo_inurba_marseille","lat":43.2481,"lon":5.37452,"is_reserved":false,"is_disabled":false,"rental_uris":{"android":"levelo://app?vid=3122ab7c-90b3-44eb-aa76-127d826025d6","ios":"levelo://app?vid=3122ab7c-90b3-44eb-aa76-127d826025d6"},"vehicle_type_id":"4","last_reported":1752779426,"current_range_meters":16000,"station_id":"ce4bhgh2rcd13ifvqfb0","pricing_plan_id":"cebpf4jnsgd1na2vs0mg"},{"bike_id":"0a0d6a1e-9764-49da-afe9-af83868d03a3","system_id":"levelo_inurba_marseille","lat":43.21189,"lon":5.35062,"is_reserved":false,"is_disabled":false,"rental_uris":{"android":"levelo://app?vid=0a0d6a1e-9764-49da-afe9-af83868d03a3","ios":"levelo://app?vid=0a0d6a1e-9764-49da-afe9-af83868d03a3"},"vehicle_type_id":"4","last_reported":1752779426,"current_range_meters":16000,"station_id":"st_cvj6sg6p6f1abm77japg","pricing_plan_id":"cebpf4jnsgd1na2vs0mg"},{"bike_id":"d62c51b7-57be-4d3a-83c6-b333dd0d0479","system_id":"levelo_inurba_marseille","lat":43.30423,"lon":5.3888,"is_reserved":false,"is_disabled":false,"rental_uris":{"android":"levelo://app?vid=d62c51b7-57be-4d3a-83c6-b333dd0d0479","ios":"levelo://app?vid=d62c51b7-57be-4d3a-83c6-b333dd0d0479"},"vehicle_type_id":"4","last_reported":1752779426,"current_range_meters":16000,"station_id":"ce4bgk12rcd13ifvqbi0","pricing_plan_id":"cebpf4jnsgd1na2vs0mg"},{"bike_id":"6408ec5e-9b85-4c94-a259-b183f70b8ad0","system_id":"levelo_inurba_marseille","lat":43.30137,"lon":5.38773,"is_reserved":false,"is_disabled":false,"rental_uris":{"android":"levelo://app?vid=6408ec5e-9b85-4c94-a259-b183f70b8ad0","ios":"levelo://app?vid=6408ec5e-9b85-4c94-a259-b183f70b8ad0"},"vehicle_type_id":"4","last_reported":1752779426,"current_range_meters":16000,"station_id":"ce4bghh2rcd13ifvqb60","pricing_plan_id":"cebpf4jnsgd1na2vs0mg"},{"bike_id":"5a53aea4-6ba9-4a21-96e1-b5898a42c2ca","system_id":"levelo_inurba_marseille","lat":43.29533,"lon":5.3854,"is_reserved":false,"is_disabled":false,"rental_uris":{"android":"levelo://app?vid=5a53aea4-6ba9-4a21-96e1-b5898a42c2ca","ios":"levelo://app?vid=5a53aea4-6ba9-4a21-96e1-b5898a42c2ca"},"vehicle_type_id":"4","last_reported":1752779426,"current_range_meters":16000,"station_id":"ce4bgih2rcd13ifvqba0","pricing_plan_id":"cebpf4jnsgd1na2vs0mg"},{"bike_id":"fa04a682-3214-4c8b-a4c6-5569082383b8","system_id":"levelo_inurba_marseille","lat":43.29215,"lon":5.36042,"is_reserved":false,"is_disabled":false,"rental_uris":{"android":"levelo://app?vid=fa04a682-3214-4c8b-a4c6-5569082383b8","ios":"levelo://app?vid=fa04a682-3214-4c8b-a4c6-5569082383b8"},"vehicle_type_id":"4","last_reported":1752779426,"current_range_meters":16400,"station_id":"ce4bhbh2rcd13ifvqeqg","pricing_plan_id":"cebpf4jnsgd1na2vs0mg"},{"bike_id":"1d94feba-c90e-4d75-9f8d-9ea4bb03490e","system_id":"levelo_inurba_marseille","lat":43.29093,"lon":5.38119,"is_reserved":false,"is_disabled":true,"rental_uris":{"android":"levelo://app?vid=1d94feba-c90e-4d75-9f8d-9ea4bb03490e","ios":"levelo://app?vid=1d94feba-c90e-4d75-9f8d-9ea4bb03490e"},"vehicle_type_id":"4","last_reported":1752779426,"current_range_meters":16400,"station_id":"ce4bh512rcd13ifvqe2g","pricing_plan_id":"cebpf4jnsgd1na2vs0mg"},{"bike_id":"a8f9d7f7-8ff4-4305-894c-9d5ea171ae36","system_id":"levelo_inurba_marseille","lat":43.29531,"lon":5.38546,"is_reserved":false,"is_disabled":false,"rental_uris":{"android":"levelo://app?vid=a8f9d7f7-8ff4-4305-894c-9d5ea171ae36","ios":"levelo://app?vid=a8f9d7f7-8ff4-4305-894c-9d5ea171ae36"},"vehicle_type_id":"4","last_reported":1752779426,"current_range_meters":16400,"station_id":"ce4bgih2rcd13ifvqba0","pricing_plan_id":"cebpf4jnsgd1na2vs0mg"},{"bike_id":"b9c220fa-ce21-46e5-9c5b-52d91725030b","system_id":"levelo_inurba_marseille","lat":43.22929,"lon":5.35368,"is_reserved":false,"is_disabled":false,"rental_uris":{"android":"levelo://app?vid=b9c220fa-ce21-46e5-9c5b-52d91725030b","ios":"levelo://app?vid=b9c220fa-ce21-46e5-9c5b-52d91725030b"},"vehicle_type_id":"4","last_reported":1752779426,"current_range_meters":16400,"station_id":"cpo3532slgdg3j2ikp40","pricing_plan_id":"cebpf4jnsgd1na2vs0mg"},{"bike_id":"524f857b-7abb-4798-bc14-275f121daee5","system_id":"levelo_inurba_marseille","lat":43.28407,"lon":5.34993,"is_reserved":false,"is_disabled":false,"rental_uris":{"android":"levelo://app?vid=524f857b-7abb-4798-bc14-275f121daee5","ios":"levelo://app?vid=524f857b-7abb-4798-bc14-275f121daee5"},"vehicle_type_id":"4","last_reported":1752779426,"current_range_meters":16400,"station_id":"ce4bhbh2rcd13ifvqepg","pricing_plan_id":"cebpf4jnsgd1na2vs0mg"},{"bike_id":"d0573d96-ddb4-4622-bd15-49483cac3810","system_id":"levelo_inurba_marseille","lat":43.258633,"lon":5.399035,"is_reserved":false,"is_disabled":true,"rental_uris":{"android":"levelo://app?vid=d0573d96-ddb4-4622-bd15-49483cac3810","ios":"levelo://app?vid=d0573d96-ddb4-4622-bd15-49483cac3810"},"vehicle_type_id":"4","last_reported":1752779426,"current_range_meters":16400,"station_id":"ce4bhl92rcd13ifvqghg","pricing_plan_id":"cebpf4jnsgd1na2vs0mg"},{"bike_id":"021ae083-fcf2-438c-90c1-c664ee4672f6","system_id":"levelo_inurba_marseille","lat":43.28351,"lon":5.38097,"is_reserved":false,"is_disabled":false,"rental_uris":{"android":"levelo://app?vid=021ae083-fcf2-438c-90c1-c664ee4672f6","ios":"levelo://app?vid=021ae083-fcf2-438c-90c1-c664ee4672f6"},"vehicle_type_id":"4","last_reported":1752779426,"current_range_meters":16400,"station_id":"ce4bh412rcd13ifvqdr0","pricing_plan_id":"cebpf4jnsgd1na2vs0mg"},{"bike_id":"9f1aca20-d109-4c79-a6a8-d7b708a623f1","system_id":"levelo_inurba_marseille","lat":43.290549,"lon":5.359156,"is_reserved":false,"is_disabled":false,"rental_uris":{"android":"levelo://app?vid=9f1aca20-d109-4c79-a6a8-d7b708a623f1","ios":"levelo://app?vid=9f1aca20-d109-4c79-a6a8-d7b708a623f1"},"vehicle_type_id":"4","last_reported":1752779426,"current_range_meters":16000,"station_id":"ce4bha92rcd13ifvqeg0","pricing_plan_id":"cebpf4jnsgd1na2vs0mg"},{"bike_id":"e54582ed-ba92-4640-a97f-9e97144ce87f","system_id":"levelo_inurba_marseille","lat":43.3227,"lon":5.40649,"is_reserved":false,"is_disabled":false,"rental_uris":{"android":"levelo://app?vid=e54582ed-ba92-4640-a97f-9e97144ce87f","ios":"levelo://app?vid=e54582ed-ba92-4640-a97f-9e97144ce87f"},"vehicle_type_id":"4","last_reported":1752779426,"current_range_meters":16400,"station_id":"","pricing_plan_id":"cebpf4jnsgd1na2vs0mg"},{"bike_id":"7a6aca03-37b0-40ef-9d9a-27893d501471","system_id":"levelo_inurba_marseille","lat":43.24992,"lon":5.38938,"is_reserved":false,"is_disabled":false,"rental_uris":{"android":"levelo://app?vid=7a6aca03-37b0-40ef-9d9a-27893d501471","ios":"levelo://app?vid=7a6aca03-37b0-40ef-9d9a-27893d501471"},"vehicle_type_id":"4","last_reported":1752779426,"current_range_meters":16400,"station_id":"ce4bhgp2rcd13ifvqfd0","pricing_plan_id":"cebpf4jnsgd1na2vs0mg"},{"bike_id":"58838228-a1b0-4de0-822a-a4bca910efa4","system_id":"levelo_inurba_marseille","lat":43.26209,"lon":5.374404,"is_reserved":false,"is_disabled":false,"rental_uris":{"android":"levelo://app?vid=58838228-a1b0-4de0-822a-a4bca910efa4","ios":"levelo://app?vid=58838228-a1b0-4de0-822a-a4bca910efa4"},"vehicle_type_id":"4","last_reported":1752779426,"current_range_meters":16400,"station_id":"ce4bhgp2rcd13ifvqfc0","pricing_plan_id":"cebpf4jnsgd1na2vs0mg"},{"bike_id":"2104ca0e-40f5-4ae7-97f2-f7c3bf7f2de9","system_id":"levelo_inurba_marseille","lat":43.26031,"lon":5.37555,"is_reserved":false,"is_disabled":false,"rental_uris":{"android":"levelo://app?vid=2104ca0e-40f5-4ae7-97f2-f7c3bf7f2de9","ios":"levelo://app?vid=2104ca0e-40f5-4ae7-97f2-f7c3bf7f2de9"},"vehicle_type_id":"4","last_reported":1752779426,"current_range_meters":16000,"station_id":"ce4bhgh2rcd13ifvqfa0","pricing_plan_id":"cebpf4jnsgd1na2vs0mg"},{"bike_id":"2ded6291-a823-49b5-9bc5-1374dd62faea","system_id":"levelo_inurba_marseille","lat":43.243877,"lon":5.370517,"is_reserved":false,"is_disabled":false,"rental_uris":{"android":"levelo://app?vid=2ded6291-a823-49b5-9bc5-1374dd62faea","ios":"levelo://app?vid=2ded6291-a823-49b5-9bc5-1374dd62faea"},"vehicle_type_id":"4","last_reported":1752779426,"current_range_meters":16400,"station_id":"ce4bhhh2rcd13ifvqfk0","pricing_plan_id":"cebpf4jnsgd1na2vs0mg"},{"bike_id":"3f1e74cc-ae48-4ae1-ba23-34666cbb7bdb","system_id":"levelo_inurba_marseille","lat":43.29527,"lon":5.38545,"is_reserved":false,"is_disabled":false,"rental_uris":{"android":"levelo://app?vid=3f1e74cc-ae48-4ae1-ba23-34666cbb7bdb","ios":"levelo://app?vid=3f1e74cc-ae48-4ae1-ba23-34666cbb7bdb"},"vehicle_type_id":"4","last_reported":1752779426,"current_range_meters":16400,"station_id":"ce4bgih2rcd13ifvqba0","pricing_plan_id":"cebpf4jnsgd1na2vs0mg"},{"bike_id":"985fc191-eca1-4c24-978d-21411decb24a","system_id":"levelo_inurba_marseille","lat":43.29781,"lon":5.39355,"is_reserved":false,"is_disabled":false,"rental_uris":{"android":"levelo://app?vid=985fc191-eca1-4c24-978d-21411decb24a","ios":"levelo://app?vid=985fc191-eca1-4c24-978d-21411decb24a"},"vehicle_type_id":"4","last_reported":1752779426,"current_range_meters":16400,"station_id":"chh1huq6cuj3fo74tm60","pricing_plan_id":"cebpf4jnsgd1na2vs0mg"},{"bike_id":"93064a8f-6df9-4f93-85e3-ab80e6e91177","system_id":"levelo_inurba_marseille","lat":43.2623,"lon":5.40455,"is_reserved":false,"is_disabled":false,"rental_uris":{"android":"levelo://app?vid=93064a8f-6df9-4f93-85e3-ab80e6e91177","ios":"levelo://app?vid=93064a8f-6df9-4f93-85e3-ab80e6e91177"},"vehicle_type_id":"4","last_reported":1752779426,"current_range_meters":16800,"station_id":"ce4bhmh2rcd13ifvqgmg","pricing_plan_id":"cebpf4jnsgd1na2vs0mg"},{"bike_id":"93a7b88e-fec1-44d4-b873-e039149d5b0c","system_id":"levelo_inurba_marseille","lat":43.29713,"lon":5.37712,"is_reserved":false,"is_disabled":false,"rental_uris":{"android":"levelo://app?vid=93a7b88e-fec1-44d4-b873-e039149d5b0c","ios":"levelo://app?vid=93a7b88e-fec1-44d4-b873-e039149d5b0c"},"vehicle_type_id":"4","last_reported":1752779426,"current_range_meters":16800,"station_id":"ce4bgkh2rcd13ifvqbl0","pricing_plan_id":"cebpf4jnsgd1na2vs0mg"},{"bike_id":"6be86623-c65c-4a0d-b3a4-c58891bfa931","system_id":"levelo_inurba_marseille","lat":43.2251,"lon":5.34758,"is_reserved":false,"is_disabled":false,"rental_uris":{"android":"levelo://app?vid=6be86623-c65c-4a0d-b3a4-c58891bfa931","ios":"levelo://app?vid=6be86623-c65c-4a0d-b3a4-c58891bfa931"},"vehicle_type_id":"4","last_reported":1752779426,"current_range_meters":16800,"station_id":"st_cvj5dfep6f1abm77gieg","pricing_plan_id":"cebpf4jnsgd1na2vs0mg"},{"bike_id":"6df64788-ebb3-4d7e-a634-805992451435","system_id":"levelo_inurba_marseille","lat":43.29205,"lon":5.35806,"is_reserved":false,"is_disabled":false,"rental_uris":{"android":"levelo://app?vid=6df64788-ebb3-4d7e-a634-805992451435","ios":"levelo://app?vid=6df64788-ebb3-4d7e-a634-805992451435"},"vehicle_type_id":"4","last_reported":1752779426,"current_range_meters":16800,"station_id":"ce4bhb12rcd13ifvqel0","pricing_plan_id":"cebpf4jnsgd1na2vs0mg"},{"bike_id":"084eace8-045f-4012-9455-c501cad7ce10","system_id":"levelo_inurba_marseille","lat":43.22505,"lon":5.34768,"is_reserved":false,"is_disabled":false,"rental_uris":{"android":"levelo://app?vid=084eace8-045f-4012-9455-c501cad7ce10","ios":"levelo://app?vid=084eace8-045f-4012-9455-c501cad7ce10"},"vehicle_type_id":"4","last_reported":1752779426,"current_range_meters":16800,"station_id":"st_cvj5dfep6f1abm77gieg","pricing_plan_id":"cebpf4jnsgd1na2vs0mg"},{"bike_id":"56363773-7686-4d8f-8f90-e38d7e03b1d7","system_id":"levelo_inurba_marseille","lat":43.29033,"lon":5.38648,"is_reserved":false,"is_disabled":false,"rental_uris":{"android":"levelo://app?vid=56363773-7686-4d8f-8f90-e38d7e03b1d7","ios":"levelo://app?vid=56363773-7686-4d8f-8f90-e38d7e03b1d7"},"vehicle_type_id":"4","last_reported":1752779426,"current_range_meters":16800,"station_id":"ce4bh4p2rcd13ifvqe0g","pricing_plan_id":"cebpf4jnsgd1na2vs0mg"},{"bike_id":"2941c2eb-ce07-411b-ae06-10f7402b1e36","system_id":"levelo_inurba_marseille","lat":43.29528,"lon":5.3903,"is_reserved":false,"is_disabled":false,"rental_uris":{"android":"levelo://app?vid=2941c2eb-ce07-411b-ae06-10f7402b1e36","ios":"levelo://app?vid=2941c2eb-ce07-411b-ae06-10f7402b1e36"},"vehicle_type_id":"4","last_reported":1752779426,"current_range_meters":16800,"station_id":"ce4bh3p2rcd13ifvqdp0","pricing_plan_id":"cebpf4jnsgd1na2vs0mg"},{"bike_id":"ed822664-f978-4865-b4d3-8b7323601ddf","system_id":"levelo_inurba_marseille","lat":43.29795,"lon":5.39343,"is_reserved":false,"is_disabled":true,"rental_uris":{"android":"levelo://app?vid=ed822664-f978-4865-b4d3-8b7323601ddf","ios":"levelo://app?vid=ed822664-f978-4865-b4d3-8b7323601ddf"},"vehicle_type_id":"4","last_reported":1752779426,"current_range_meters":16800,"station_id":"chh1huq6cuj3fo74tm60","pricing_plan_id":"cebpf4jnsgd1na2vs0mg"},{"bike_id":"1888020a-75e6-4108-8545-6cfe24037331","system_id":"levelo_inurba_marseille","lat":43.29532,"lon":5.38548,"is_reserved":false,"is_disabled":false,"rental_uris":{"android":"levelo://app?vid=1888020a-75e6-4108-8545-6cfe24037331","ios":"levelo://app?vid=1888020a-75e6-4108-8545-6cfe24037331"},"vehicle_type_id":"4","last_reported":1752779426,"current_range_meters":16800,"station_id":"ce4bgih2rcd13ifvqba0","pricing_plan_id":"cebpf4jnsgd1na2vs0mg"},{"bike_id":"de58234c-ab03-426d-a473-6a6b5652d2f7","system_id":"levelo_inurba_marseille","lat":43.28263,"lon":5.35076,"is_reserved":false,"is_disabled":false,"rental_uris":{"android":"levelo://app?vid=de58234c-ab03-426d-a473-6a6b5652d2f7","ios":"levelo://app?vid=de58234c-ab03-426d-a473-6a6b5652d2f7"},"vehicle_type_id":"4","last_reported":1752779426,"current_range_meters":16800,"station_id":"ce4bhbp2rcd13ifvqerg","pricing_plan_id":"cebpf4jnsgd1na2vs0mg"},{"bike_id":"5b4e5f0f-cac3-450a-9463-e6a77e2c277e","system_id":"levelo_inurba_marseille","lat":43.246423,"lon":5.388921,"is_reserved":false,"is_disabled":true,"rental_uris":{"android":"levelo://app?vid=5b4e5f0f-cac3-450a-9463-e6a77e2c277e","ios":"levelo://app?vid=5b4e5f0f-cac3-450a-9463-e6a77e2c277e"},"vehicle_type_id":"4","last_reported":1752779426,"current_range_meters":16800,"station_id":"ce4bhg12rcd13ifvqf60","pricing_plan_id":"cebpf4jnsgd1na2vs0mg"},{"bike_id":"be60c88c-1453-4626-be80-200258f79626","system_id":"levelo_inurba_marseille","lat":43.23196,"lon":5.35553,"is_reserved":false,"is_disabled":false,"rental_uris":{"android":"levelo://app?vid=be60c88c-1453-4626-be80-200258f79626","ios":"levelo://app?vid=be60c88c-1453-4626-be80-200258f79626"},"vehicle_type_id":"4","last_reported":1752779426,"current_range_meters":16800,"station_id":"ce4bhu92rcd13ifvqi70","pricing_plan_id":"cebpf4jnsgd1na2vs0mg"},{"bike_id":"c6db0f6a-96fe-4e1d-8ded-c2ef38c9bab4","system_id":"levelo_inurba_marseille","lat":43.304183,"lon":5.412838,"is_reserved":false,"is_disabled":true,"rental_uris":{"android":"levelo://app?vid=c6db0f6a-96fe-4e1d-8ded-c2ef38c9bab4","ios":"levelo://app?vid=c6db0f6a-96fe-4e1d-8ded-c2ef38c9bab4"},"vehicle_type_id":"4","last_reported":1752779426,"current_range_meters":17200,"station_id":"ce4bhop2rcd13ifvqh8g","pricing_plan_id":"cebpf4jnsgd1na2vs0mg"},{"bike_id":"b1411f20-9712-40f9-a9cc-407b4e40f865","system_id":"levelo_inurba_marseille","lat":43.268212,"lon":5.414874,"is_reserved":false,"is_disabled":false,"rental_uris":{"android":"levelo://app?vid=b1411f20-9712-40f9-a9cc-407b4e40f865","ios":"levelo://app?vid=b1411f20-9712-40f9-a9cc-407b4e40f865"},"vehicle_type_id":"4","last_reported":1752779426,"current_range_meters":17200,"station_id":"","pricing_plan_id":"cebpf4jnsgd1na2vs0mg"},{"bike_id":"6940d4b7-509f-4efb-ad16-58c0ae0c14ce","system_id":"levelo_inurba_marseille","lat":43.295258,"lon":5.385419,"is_reserved":false,"is_disabled":false,"rental_uris":{"android":"levelo://app?vid=6940d4b7-509f-4efb-ad16-58c0ae0c14ce","ios":"levelo://app?vid=6940d4b7-509f-4efb-ad16-58c0ae0c14ce"},"vehicle_type_id":"4","last_reported":1752779426,"current_range_meters":14800,"station_id":"ce4bgih2rcd13ifvqba0","pricing_plan_id":"cebpf4jnsgd1na2vs0mg"},{"bike_id":"ea75efb2-ac36-4344-b925-58a5bd2f6327","system_id":"levelo_inurba_marseille","lat":43.271854,"lon":5.362776,"is_reserved":false,"is_disabled":false,"rental_uris":{"android":"levelo://app?vid=ea75efb2-ac36-4344-b925-58a5bd2f6327","ios":"levelo://app?vid=ea75efb2-ac36-4344-b925-58a5bd2f6327"},"vehicle_type_id":"4","last_reported":1752779426,"current_range_meters":17200,"station_id":"","pricing_plan_id":"cebpf4jnsgd1na2vs0mg"},{"bike_id":"87f02c1f-0766-4756-9b53-77cefe7389cc","system_id":"levelo_inurba_marseille","lat":43.29031,"lon":5.38633,"is_reserved":false,"is_disabled":false,"rental_uris":{"android":"levelo://app?vid=87f02c1f-0766-4756-9b53-77cefe7389cc","ios":"levelo://app?vid=87f02c1f-0766-4756-9b53-77cefe7389cc"},"vehicle_type_id":"4","last_reported":1752779426,"current_range_meters":17200,"station_id":"ce4bh4p2rcd13ifvqe0g","pricing_plan_id":"cebpf4jnsgd1na2vs0mg"},{"bike_id":"21c28a41-5988-44fd-bd9c-8737f24b78b9","system_id":"levelo_inurba_marseille","lat":43.27221,"lon":5.40091,"is_reserved":false,"is_disabled":false,"rental_uris":{"android":"levelo://app?vid=21c28a41-5988-44fd-bd9c-8737f24b78b9","ios":"levelo://app?vid=21c28a41-5988-44fd-bd9c-8737f24b78b9"},"vehicle_type_id":"4","last_reported":1752779426,"current_range_meters":17200,"station_id":"","pricing_plan_id":"cebpf4jnsgd1na2vs0mg"},{"bike_id":"297914b4-f29d-4efa-a16f-6b7800ec2454","system_id":"levelo_inurba_marseille","lat":43.28884,"lon":5.37128,"is_reserved":false,"is_disabled":false,"rental_uris":{"android":"levelo://app?vid=297914b4-f29d-4efa-a16f-6b7800ec2454","ios":"levelo://app?vid=297914b4-f29d-4efa-a16f-6b7800ec2454"},"vehicle_type_id":"4","last_reported":1752779426,"current_range_meters":17200,"station_id":"","pricing_plan_id":"cebpf4jnsgd1na2vs0mg"},{"bike_id":"409515f8-3415-426d-b0c7-61f840c7c187","system_id":"levelo_inurba_marseille","lat":43.22485,"lon":5.34786,"is_reserved":false,"is_disabled":false,"rental_uris":{"android":"levelo://app?vid=409515f8-3415-426d-b0c7-61f840c7c187","ios":"levelo://app?vid=409515f8-3415-426d-b0c7-61f840c7c187"},"vehicle_type_id":"4","last_reported":1752779426,"current_range_meters":17200,"station_id":"st_cvj5dfep6f1abm77gieg","pricing_plan_id":"cebpf4jnsgd1na2vs0mg"},{"bike_id":"ea8239c6-d099-42a9-b54c-af65493c715d","system_id":"levelo_inurba_marseille","lat":43.28425,"lon":5.3497,"is_reserved":false,"is_disabled":false,"rental_uris":{"android":"levelo://app?vid=ea8239c6-d099-42a9-b54c-af65493c715d","ios":"levelo://app?vid=ea8239c6-d099-42a9-b54c-af65493c715d"},"vehicle_type_id":"4","last_reported":1752779426,"current_range_meters":17600,"station_id":"ce4bhbh2rcd13ifvqepg","pricing_plan_id":"cebpf4jnsgd1na2vs0mg"},{"bike_id":"6ab11f1c-8356-4972-a47f-a4e496bb3f20","system_id":"levelo_inurba_marseille","lat":43.28417,"lon":5.34973,"is_reserved":false,"is_disabled":false,"rental_uris":{"android":"levelo://app?vid=6ab11f1c-8356-4972-a47f-a4e496bb3f20","ios":"levelo://app?vid=6ab11f1c-8356-4972-a47f-a4e496bb3f20"},"vehicle_type_id":"4","last_reported":1752779426,"current_range_meters":17600,"station_id":"ce4bhbh2rcd13ifvqepg","pricing_plan_id":"cebpf4jnsgd1na2vs0mg"},{"bike_id":"2d2b3e08-8242-48a8-b7af-9a44213a94bd","system_id":"levelo_inurba_marseille","lat":43.29784,"lon":5.39343,"is_reserved":false,"is_disabled":false,"rental_uris":{"android":"levelo://app?vid=2d2b3e08-8242-48a8-b7af-9a44213a94bd","ios":"levelo://app?vid=2d2b3e08-8242-48a8-b7af-9a44213a94bd"},"vehicle_type_id":"4","last_reported":1752779426,"current_range_meters":17200,"station_id":"chh1huq6cuj3fo74tm60","pricing_plan_id":"cebpf4jnsgd1na2vs0mg"},{"bike_id":"ce40837d-3edf-4cc2-a747-2f8d4ee2c7fb","system_id":"levelo_inurba_marseille","lat":43.22489,"lon":5.34802,"is_reserved":false,"is_disabled":false,"rental_uris":{"android":"levelo://app?vid=ce40837d-3edf-4cc2-a747-2f8d4ee2c7fb","ios":"levelo://app?vid=ce40837d-3edf-4cc2-a747-2f8d4ee2c7fb"},"vehicle_type_id":"4","last_reported":1752779426,"current_range_meters":18000,"station_id":"st_cvj5dfep6f1abm77gieg","pricing_plan_id":"cebpf4jnsgd1na2vs0mg"},{"bike_id":"dd75c730-2011-40b9-8edf-c6f36c41a23c","system_id":"levelo_inurba_marseille","lat":43.26931,"lon":5.38925,"is_reserved":false,"is_disabled":false,"rental_uris":{"android":"levelo://app?vid=dd75c730-2011-40b9-8edf-c6f36c41a23c","ios":"levelo://app?vid=dd75c730-2011-40b9-8edf-c6f36c41a23c"},"vehicle_type_id":"4","last_reported":1752779426,"current_range_meters":17200,"station_id":"ce4bhhh2rcd13ifvqfl0","pricing_plan_id":"cebpf4jnsgd1na2vs0mg"},{"bike_id":"526b6530-feba-42bb-9973-320fc7f601a2","system_id":"levelo_inurba_marseille","lat":43.23194,"lon":5.35552,"is_reserved":false,"is_disabled":false,"rental_uris":{"android":"levelo://app?vid=526b6530-feba-42bb-9973-320fc7f601a2","ios":"levelo://app?vid=526b6530-feba-42bb-9973-320fc7f601a2"},"vehicle_type_id":"4","last_reported":1752779426,"current_range_meters":17600,"station_id":"ce4bhu92rcd13ifvqi70","pricing_plan_id":"cebpf4jnsgd1na2vs0mg"},{"bike_id":"073cb7e4-4d7f-42fd-a352-2aec7eb9446c","system_id":"levelo_inurba_marseille","lat":43.26561,"lon":5.37312,"is_reserved":false,"is_disabled":false,"rental_uris":{"android":"levelo://app?vid=073cb7e4-4d7f-42fd-a352-2aec7eb9446c","ios":"levelo://app?vid=073cb7e4-4d7f-42fd-a352-2aec7eb9446c"},"vehicle_type_id":"4","last_reported":1752779426,"current_range_meters":17600,"station_id":"ce4bhg12rcd13ifvqf70","pricing_plan_id":"cebpf4jnsgd1na2vs0mg"},{"bike_id":"66867a12-d88b-4820-bc2a-9a8726321e3c","system_id":"levelo_inurba_marseille","lat":43.295549,"lon":5.423009,"is_reserved":false,"is_disabled":false,"rental_uris":{"android":"levelo://app?vid=66867a12-d88b-4820-bc2a-9a8726321e3c","ios":"levelo://app?vid=66867a12-d88b-4820-bc2a-9a8726321e3c"},"vehicle_type_id":"4","last_reported":1752779426,"current_range_meters":17600,"station_id":"ce4bhph2rcd13ifvqhdg","pricing_plan_id":"cebpf4jnsgd1na2vs0mg"},{"bike_id":"00cb9e03-8028-497f-8c29-77cd4bf2e8d6","system_id":"levelo_inurba_marseille","lat":43.28615,"lon":5.35099,"is_reserved":false,"is_disabled":true,"rental_uris":{"android":"levelo://app?vid=00cb9e03-8028-497f-8c29-77cd4bf2e8d6","ios":"levelo://app?vid=00cb9e03-8028-497f-8c29-77cd4bf2e8d6"},"vehicle_type_id":"4","last_reported":1752779426,"current_range_meters":17600,"station_id":"ce4bhch2rcd13ifvqeug","pricing_plan_id":"cebpf4jnsgd1na2vs0mg"},{"bike_id":"7acde026-60d2-4f30-857e-d117fba0b592","system_id":"levelo_inurba_marseille","lat":43.29262,"lon":5.38431,"is_reserved":false,"is_disabled":false,"rental_uris":{"android":"levelo://app?vid=7acde026-60d2-4f30-857e-d117fba0b592","ios":"levelo://app?vid=7acde026-60d2-4f30-857e-d117fba0b592"},"vehicle_type_id":"4","last_reported":1752779426,"current_range_meters":17600,"station_id":"ce4bh692rcd13ifvqea0","pricing_plan_id":"cebpf4jnsgd1na2vs0mg"},