{"last_updated":1742804045,"ttl":60,"version":"2.2","data":{"bikes":[{"bike_id":"d8edcd8c-4f6a-4a41-b974-deb509bc067f","system_id":"levelo_inurba_marseille","lat":43.28629,"lon":5.35131,"is_reserved":false,"is_disabled":true,"rental_uris":{"android":"levelo://app?vid=d8edcd8c-4f6a-4a41-b974-deb509bc067f","ios":"levelo://app?vid=d8edcd8c-4f6a-4a41-b974-deb509bc067f"},"vehicle_type_id":"4","last_reported":1742804045,"current_range_meters":2800,"station_id":"ce4bhch2rcd13ifvqeug","pricing_plan_id":"cebpf4jnsgd1na2vs0mg"},{"bike_id":"1dbad447-a221-49b2-ab4f-9e51b4e7f63a","system_id":"levelo_inurba_marseille","lat":43.31219,"lon":5.36862,"is_reserved":false,"is_disabled":false,"rental_uris":{"android":"levelo://app?vid=1dbad447-a221-49b2-ab4f-9e51b4e7f63a","ios":"levelo://app?vid=1dbad447-a221-49b2-ab4f-9e51b4e7f63a"},"vehicle_type_id":"4","last_reported":1742804045,"current_range_meters":2800,"station_id":"ce4bgl92rcd13ifvqbq0","pricing_plan_id":"cebpf4jnsgd1na2vs0mg"},{"bike_id":"5d91a8f9-22fb-4efd-a15c-0efe7bedaeb7","system_id":"levelo_inurba_marseille","lat":43.26575,"lon":5.3906,"is_reserved":false,"is_disabled":false,"rental_uris":{"android":"levelo://app?vid=5d91a8f9-22fb-4efd-a15c-0efe7bedaeb7","ios":"levelo://app?vid=5d91a8f9-22fb-4efd-a15c-0efe7bedaeb7"},"vehicle_type_id":"4","last_reported":1742804045,"current_range_meters":2800,"station_id":"ce4bhe12rcd13ifvqf30","pricing_plan_id":"cebpf4jnsgd1na2vs0mg"},{"bike_id":"3bc17e9f-c28e-42ac-ab2f-a661d914a8b7","system_id":"levelo_inurba_marseille","lat":43.2508,"lon":5.39522,"is_reserved":false,"is_disabled":true,"rental_uris":{"android":"levelo://app?vid=3bc17e9f-c28e-42ac-ab2f-a661d914a8b7","ios":"levelo://app?vid=3bc17e9f-c28e-42ac-ab2f-a661d914a8b7"},"vehicle_type_id":"4","last_reported":1742804045,"current_range_meters":2800,"station_id":"ce4bhm12rcd13ifvqgkg","pricing_plan_id":"cebpf4jnsgd1na2vs0mg"},{"bike_id":"b5fe94a0-6e2f-4306-91ba-f45908f83cd5","system_id":"levelo_inurba_marseille","lat":43.29293,"lon":5.37465,"is_reserved":false,"is_disabled":false,"rental_uris":{"android":"levelo://app?vid=b5fe94a0-6e2f-4306-91ba-f45908f83cd5","ios":"levelo://app?vid=b5fe94a0-6e2f-4306-91ba-f45908f83cd5"},"vehicle_type_id":"4","last_reported":1742804045,"current_range_meters":3200,"station_id":"ce4bgi12rcd13ifvqb70","pricing_plan_id":"cebpf4jnsgd1na2vs0mg"},{"bike_id":"cf27ed75-280e-4f53-8a31-8fce99cf2cf6","system_id":"levelo_inurba_marseille","lat":43.24547,"lon":5.39512,"is_reserved":false,"is_disabled":false,"rental_uris":{"android":"levelo://app?vid=cf27ed75-280e-4f53-8a31-8fce99cf2cf6","ios":"levelo://app?vid=cf27ed75-280e-4f53-8a31-8fce99cf2cf6"},"vehicle_type_id":"4","last_reported":1742804045,"current_range_meters":3200,"station_id":"ce4bhlp2rcd13ifvqgjg","pricing_plan_id":"cebpf4jnsgd1na2vs0mg"},{"bike_id":"1df0b3b2-8b10-4d59-a49f-c6ab72341a39","system_id":"levelo_inurba_marseille","lat":43.2306,"lon":5.35492,"is_reserved":false,"is_disabled":false,"rental_uris":{"android":"levelo://app?vid=1df0b3b2-8b10-4d59-a49f-c6ab72341a39","ios":"levelo://app?vid=1df0b3b2-8b10-4d59-a49f-c6ab72341a39"},"vehicle_type_id":"4","last_reported":1742804045,"current_range_meters":3600,"station_id":"cpo3342slgdg3j2ifvpg","pricing_plan_id":"cebpf4jnsgd1na2vs0mg"},{"bike_id":"768ca5e6-f1bb-42f2-ac3f-2632b474747d","system_id":"levelo_inurba_marseille","lat":43.258238,"lon":5.39444,"is_reserved":false,"is_disabled":false,"rental_uris":{"android":"levelo://app?vid=768ca5e6-f1bb-42f2-ac3f-2632b474747d","ios":"levelo://app?vid=768ca5e6-f1bb-42f2-ac3f-2632b474747d"},"vehicle_type_id":"4","last_reported":1742804045,"current_range_meters":3600,"station_id":"ce4bhip2rcd13ifvqft0","pricing_plan_id":"cebpf4jnsgd1na2vs0mg"},{"bike_id":"06fae1ed-5390-4459-a81a-99d73568fe22","system_id":"levelo_inurba_marseille","lat":43.29561,"lon":5.37503,"is_reserved":false,"is_disabled":false,"rental_uris":{"android":"levelo://app?vid=06fae1ed-5390-4459-a81a-99d73568fe22","ios":"levelo://app?vid=06fae1ed-5390-4459-a81a-99d73568fe22"},"vehicle_type_id":"4","last_reported":1742804045,"current_range_meters":3600,"station_id":"ce4bgh92rcd13ifvqb50","pricing_plan_id":"cebpf4jnsgd1na2vs0mg"},{"bike_id":"2bc1fedf-7b73-4485-8827-69df712a91dd","system_id":"levelo_inurba_marseille","lat":43.25823,"lon":5.3944,"is_reserved":false,"is_disabled":false,"rental_uris":{"android":"levelo://app?vid=2bc1fedf-7b73-4485-8827-69df712a91dd","ios":"levelo://app?vid=2bc1fedf-7b73-4485-8827-69df712a91dd"},"vehicle_type_id":"4","last_reported":1742804045,"current_range_meters":4000,"station_id":"ce4bhip2rcd13ifvqft0","pricing_plan_id":"cebpf4jnsgd1na2vs0mg"},{"bike_id":"014cf003-1505-49cd-ba72-06250a2191ab","system_id":"levelo_inurba_marseille","lat":43.230529,"lon":5.355001,"is_reserved":false,"is_disabled":false,"rental_uris":{"android":"levelo://app?vid=014cf003-1505-49cd-ba72-06250a2191ab","ios":"levelo://app?vid=014cf003-1505-49cd-ba72-06250a2191ab"},"vehicle_type_id":"4","last_reported":1742804045,"current_range_meters":4000,"station_id":"cpo3342slgdg3j2ifvpg","pricing_plan_id":"cebpf4jnsgd1na2vs0mg"},{"bike_id":"75d017d9-78fd-47d8-ace5-fc5e1509989f","system_id":"levelo_inurba_marseille","lat":43.27438,"lon":5.39427,"is_reserved":false,"is_disabled":false,"rental_uris":{"android":"levelo://app?vid=75d017d9-78fd-47d8-ace5-fc5e1509989f","ios":"levelo://app?vid=75d017d9-78fd-47d8-ace5-fc5e1509989f"},"vehicle_type_id":"4","last_reported":1742804045,"current_range_meters":4000,"station_id":"ce4bhdp2rcd13ifvqf20","pricing_plan_id":"cebpf4jnsgd1na2vs0mg"},{"bike_id":"bff30ec9-1488-4a07-a3af-64e2d22c62b5","system_id":"levelo_inurba_marseille","lat":43.30423,"lon":5.389,"is_reserved":false,"is_disabled":false,"rental_uris":{"android":"levelo://app?vid=bff30ec9-1488-4a07-a3af-64e2d22c62b5","ios":"levelo://app?vid=bff30ec9-1488-4a07-a3af-64e2d22c62b5"},"vehicle_type_id":"4","last_reported":1742804045,"current_range_meters":4400,"station_id":"ce4bgk12rcd13ifvqbi0","pricing_plan_id":"cebpf4jnsgd1na2vs0mg"},{"bike_id":"0f487f71-2414-40a4-8cea-102c4cda13c1","system_id":"levelo_inurba_marseille","lat":43.273935,"lon":5.423794,"is_reserved":false,"is_disabled":false,"rental_uris":{"android":"levelo://app?vid=0f487f71-2414-40a4-8cea-102c4cda13c1","ios":"levelo://app?vid=0f487f71-2414-40a4-8cea-102c4cda13c1"},"vehicle_type_id":"4","last_reported":1742804045,"current_range_meters":4400,"station_id":"","pricing_plan_id":"cebpf4jnsgd1na2vs0mg"},{"bike_id":"7db6369d-1597-40dd-bcb9-0d5774b1ee2e","system_id":"levelo_inurba_marseille","lat":43.27319,"lon":5.3907,"is_reserved":false,"is_disabled":false,"rental_uris":{"android":"levelo://app?vid=7db6369d-1597-40dd-bcb9-0d5774b1ee2e","ios":"levelo://app?vid=7db6369d-1597-40dd-bcb9-0d5774b1ee2e"},"vehicle_type_id":"4","last_reported":1742804045,"current_range_meters":4400,"station_id":"ce4bhgp2rcd13ifvqfe0","pricing_plan_id":"cebpf4jnsgd1na2vs0mg"},{"bike_id":"6775de44-350d-4189-8a96-53e7ef2b10b5","system_id":"levelo_inurba_marseille","lat":43.24078,"lon":5.37772,"is_reserved":false,"is_disabled":false,"rental_uris":{"android":"levelo://app?vid=6775de44-350d-4189-8a96-53e7ef2b10b5","ios":"levelo://app?vid=6775de44-350d-4189-8a96-53e7ef2b10b5"},"vehicle_type_id":"4","last_reported":1742804045,"current_range_meters":4400,"station_id":"ce4bhnp2rcd13ifvqgvg","pricing_plan_id":"cebpf4jnsgd1na2vs0mg"},{"bike_id":"bdf66989-e0e5-4082-9607-aff4ca0b3edd","system_id":"levelo_inurba_marseille","lat":43.31344,"lon":5.36729,"is_reserved":false,"is_disabled":false,"rental_uris":{"android":"levelo://app?vid=bdf66989-e0e5-4082-9607-aff4ca0b3edd","ios":"levelo://app?vid=bdf66989-e0e5-4082-9607-aff4ca0b3edd"},"vehicle_type_id":"4","last_reported":1742804045,"current_range_meters":4400,"station_id":"ce4bgr92rcd13ifvqc6g","pricing_plan_id":"cebpf4jnsgd1na2vs0mg"},{"bike_id":"6ebf70a2-b9ef-48a6-bea9-335083535192","system_id":"levelo_inurba_marseille","lat":43.25724,"lon":5.41105,"is_reserved":false,"is_disabled":false,"rental_uris":{"android":"levelo://app?vid=6ebf70a2-b9ef-48a6-bea9-335083535192","ios":"levelo://app?vid=6ebf70a2-b9ef-48a6-bea9-335083535192"},"vehicle_type_id":"4","last_reported":1742804045,"current_range_meters":4400,"station_id":"ce4bhkp2rcd13ifvqgd0","pricing_plan_id":"cebpf4jnsgd1na2vs0mg"},{"bike_id":"ea375b77-5265-4f10-98eb-8a594992fa8c","system_id":"levelo_inurba_marseille","lat":43.23084,"lon":5.35498,"is_reserved":false,"is_disabled":false,"rental_uris":{"android":"levelo://app?vid=ea375b77-5265-4f10-98eb-8a594992fa8c","ios":"levelo://app?vid=ea375b77-5265-4f10-98eb-8a594992fa8c"},"vehicle_type_id":"4","last_reported":1742804045,"current_range_meters":4800,"station_id":"cpo3342slgdg3j2ifvpg","pricing_plan_id":"cebpf4jnsgd1na2vs0mg"},{"bike_id":"440c7670-fe01-46d3-b208-65e5ea34b06b","system_id":"levelo_inurba_marseille","lat":43.26917,"lon":5.38637,"is_reserved":false,"is_disabled":false,"rental_uris":{"android":"levelo://app?vid=440c7670-fe01-46d3-b208-65e5ea34b06b","ios":"levelo://app?vid=440c7670-fe01-46d3-b208-65e5ea34b06b"},"vehicle_type_id":"4","last_reported":1742804045,"current_range_meters":4800,"station_id":"ce4bhh92rcd13ifvqfh0","pricing_plan_id":"cebpf4jnsgd1na2vs0mg"},{"bike_id":"ac0e7fd4-ecda-448a-8ecd-c416341038fd","system_id":"levelo_inurba_marseille","lat":43.30305,"lon":5.36886,"is_reserved":false,"is_disabled":false,"rental_uris":{"android":"levelo://app?vid=ac0e7fd4-ecda-448a-8ecd-c416341038fd","ios":"levelo://app?vid=ac0e7fd4-ecda-448a-8ecd-c416341038fd"},"vehicle_type_id":"4","last_reported":1742804045,"current_range_meters":4800,"station_id":"ce4bgqh2rcd13ifvqc5g","pricing_plan_id":"cebpf4jnsgd1na2vs0mg"},{"bike_id":"8ed1ac19-a2dd-4532-af16-423d1df5a6d4","system_id":"levelo_inurba_marseille","lat":43.23126,"lon":5.413881,"is_reserved":false,"is_disabled":false,"rental_uris":{"android":"levelo://app?vid=8ed1ac19-a2dd-4532-af16-423d1df5a6d4","ios":"levelo://app?vid=8ed1ac19-a2dd-4532-af16-423d1df5a6d4"},"vehicle_type_id":"4","last_reported":1742804045,"current_range_meters":4800,"station_id":"","pricing_plan_id":"cebpf4jnsgd1na2vs0mg"},{"bike_id":"54e5c63d-9d92-423b-af54-4a427b97d3a8","system_id":"levelo_inurba_marseille","lat":43.27489,"lon":5.42451,"is_reserved":false,"is_disabled":false,"rental_uris":{"android":"levelo://app?vid=54e5c63d-9d92-423b-af54-4a427b97d3a8","ios":"levelo://app?vid=54e5c63d-9d92-423b-af54-4a427b97d3a8"},"vehicle_type_id":"4","last_reported":1742804045,"current_range_meters":5600,"station_id":"ce4bhn92rcd13ifvqgrg","pricing_plan_id":"cebpf4jnsgd1na2vs0mg"},{"bike_id":"a8afb392-bbb2-48f2-8393-bfece4e3204a","system_id":"levelo_inurba_marseille","lat":43.24084,"lon":5.37707,"is_reserved":false,"is_disabled":false,"rental_uris":{"android":"levelo://app?vid=a8afb392-bbb2-48f2-8393-bfece4e3204a","ios":"levelo://app?vid=a8afb392-bbb2-48f2-8393-bfece4e3204a"},"vehicle_type_id":"4","last_reported":1742804045,"current_range_meters":5600,"station_id":"ce4bhnp2rcd13ifvqgvg","pricing_plan_id":"cebpf4jnsgd1na2vs0mg"},{"bike_id":"38692f59-cf0f-43f6-bb0c-2f27fe383eb8","system_id":"levelo_inurba_marseille","lat":43.30138,"lon":5.37408,"is_reserved":false,"is_disabled":false,"rental_uris":{"android":"levelo://app?vid=38692f59-cf0f-43f6-bb0c-2f27fe383eb8","ios":"levelo://app?vid=38692f59-cf0f-43f6-bb0c-2f27fe383eb8"},"vehicle_type_id":"4","last_reported":1742804045,"current_range_meters":5600,"station_id":"ce4bgs92rcd13ifvqcc0","pricing_plan_id":"cebpf4jnsgd1na2vs0mg"},{"bike_id":"5de93a4e-8597-44d3-b79a-a868c09960fb","system_id":"levelo_inurba_marseille","lat":43.26192,"lon":5.3745,"is_reserved":false,"is_disabled":true,"rental_uris":{"android":"levelo://app?vid=5de93a4e-8597-44d3-b79a-a868c09960fb","ios":"levelo://app?vid=5de93a4e-8597-44d3-b79a-a868c09960fb"},"vehicle_type_id":"4","last_reported":1742804045,"current_range_meters":5600,"station_id":"ce4bhgp2rcd13ifvqfc0","pricing_plan_id":"cebpf4jnsgd1na2vs0mg"},{"bike_id":"72123cf2-9d2b-41b8-9bee-4f35b0be3549","system_id":"levelo_inurba_marseille","lat":43.2306,"lon":5.35494,"is_reserved":false,"is_disabled":true,"rental_uris":{"android":"levelo://app?vid=72123cf2-9d2b-41b8-9bee-4f35b0be3549","ios":"levelo://app?vid=72123cf2-9d2b-41b8-9bee-4f35b0be3549"},"vehicle_type_id":"4","last_reported":1742804045,"current_range_meters":5600,"station_id":"cpo3342slgdg3j2ifvpg","pricing_plan_id":"cebpf4jnsgd1na2vs0mg"},{"bike_id":"a7a9d68a-b527-472d-b45c-c1363e8def55","system_id":"levelo_inurba_marseille","lat":43.26214,"lon":5.37441,"is_reserved":false,"is_disabled":false,"rental_uris":{"android":"levelo://app?vid=a7a9d68a-b527-472d-b45c-c1363e8def55","ios":"levelo://app?vid=a7a9d68a-b527-472d-b45c-c1363e8def55"},"vehicle_type_id":"4","last_reported":1742804045,"current_range_meters":6000,"station_id":"ce4bhgp2rcd13ifvqfc0","pricing_plan_id":"cebpf4jnsgd1na2vs0mg"},{"bike_id":"72503a27-a949-4a46-b139-c44d4f416a58","system_id":"levelo_inurba_marseille","lat":43.231899,"lon":5.355459,"is_reserved":false,"is_disabled":false,"rental_uris":{"android":"levelo://app?vid=72503a27-a949-4a46-b139-c44d4f416a58","ios":"levelo://app?vid=72503a27-a949-4a46-b139-c44d4f416a58"},"vehicle_type_id":"4","last_reported":1742804045,"current_range_meters":6000,"station_id":"ce4bhu92rcd13ifvqi70","pricing_plan_id":"cebpf4jnsgd1na2vs0mg"},{"bike_id":"cc528c0b-c1fb-4471-a66b-44946fc42f3b","system_id":"levelo_inurba_marseille","lat":43.30547,"lon":5.36551,"is_reserved":false,"is_disabled":false,"rental_uris":{"android":"levelo://app?vid=cc528c0b-c1fb-4471-a66b-44946fc42f3b","ios":"levelo://app?vid=cc528c0b-c1fb-4471-a66b-44946fc42f3b"},"vehicle_type_id":"4","last_reported":1742804045,"current_range_meters":6000,"station_id":"ce4bgs12rcd13ifvqcag","pricing_plan_id":"cebpf4jnsgd1na2vs0mg"},{"bike_id":"062f6fb7-9181-4301-83e7-befcb46443d9","system_id":"levelo_inurba_marseille","lat":43.30463,"lon":5.37916,"is_reserved":false,"is_disabled":false,"rental_uris":{"android":"levelo://app?vid=062f6fb7-9181-4301-83e7-befcb46443d9","ios":"levelo://app?vid=062f6fb7-9181-4301-83e7-befcb46443d9"},"vehicle_type_id":"4","last_reported":1742804045,"current_range_meters":6000,"station_id":"ce4bgup2rcd13ifvqcn0","pricing_plan_id":"cebpf4jnsgd1na2vs0mg"},{"bike_id":"721ba561-54ac-4548-8df8-dfb5a4ff8561","system_id":"levelo_inurba_marseille","lat":43.32355,"lon":5.3674,"is_reserved":false,"is_disabled":false,"rental_uris":{"android":"levelo://app?vid=721ba561-54ac-4548-8df8-dfb5a4ff8561","ios":"levelo://app?vid=721ba561-54ac-4548-8df8-dfb5a4ff8561"},"vehicle_type_id":"4","last_reported":1742804045,"current_range_meters":6000,"station_id":"ce4bhsh2rcd13ifvqi2g","pricing_plan_id":"cebpf4jnsgd1na2vs0mg"},{"bike_id":"1808acc0-4455-446d-8193-28a5639ccacc","system_id":"levelo_inurba_marseille","lat":43.28436,"lon":5.39206,"is_reserved":false,"is_disabled":false,"rental_uris":{"android":"levelo://app?vid=1808acc0-4455-446d-8193-28a5639ccacc","ios":"levelo://app?vid=1808acc0-4455-446d-8193-28a5639ccacc"},"vehicle_type_id":"4","last_reported":1742804045,"current_range_meters":6000,"station_id":"ce4bhoh2rcd13ifvqh5g","pricing_plan_id":"cebpf4jnsgd1na2vs0mg"},{"bike_id":"f82d61b6-a985-4cdd-af91-32f19ae82d4c","system_id":"levelo_inurba_marseille","lat":43.26241,"lon":5.37492,"is_reserved":false,"is_disabled":false,"rental_uris":{"android":"levelo://app?vid=f82d61b6-a985-4cdd-af91-32f19ae82d4c","ios":"levelo://app?vid=f82d61b6-a985-4cdd-af91-32f19ae82d4c"},"vehicle_type_id":"4","last_reported":1742804045,"current_range_meters":6400,"station_id":"","pricing_plan_id":"cebpf4jnsgd1na2vs0mg"},{"bike_id":"70414b69-49bc-47b7-adc0-31b9c9594897","system_id":"levelo_inurba_marseille","lat":43.29915,"lon":5.37462,"is_reserved":false,"is_disabled":true,"rental_uris":{"android":"levelo://app?vid=70414b69-49bc-47b7-adc0-31b9c9594897","ios":"levelo://app?vid=70414b69-49bc-47b7-adc0-31b9c9594897"},"vehicle_type_id":"4","last_reported":1742804045,"current_range_meters":6400,"station_id":"ce4bgjh2rcd13ifvqbg0","pricing_plan_id":"cebpf4jnsgd1na2vs0mg"},{"bike_id":"787fb028-74e3-4ece-a600-b719e0014a09","system_id":"levelo_inurba_marseille","lat":43.24668,"lon":5.38149,"is_reserved":false,"is_disabled":false,"rental_uris":{"android":"levelo://app?vid=787fb028-74e3-4ece-a600-b719e0014a09","ios":"levelo://app?vid=787fb028-74e3-4ece-a600-b719e0014a09"},"vehicle_type_id":"4","last_reported":1742804045,"current_range_meters":6400,"station_id":"ce4bhih2rcd13ifvqfr0","pricing_plan_id":"cebpf4jnsgd1na2vs0mg"},{"bike_id":"42dac74d-cb0b-441e-84af-c9fc6427c0c9","system_id":"levelo_inurba_marseille","lat":43.27956,"lon":5.38712,"is_reserved":false,"is_disabled":false,"rental_uris":{"android":"levelo://app?vid=42dac74d-cb0b-441e-84af-c9fc6427c0c9","ios":"levelo://app?vid=42dac74d-cb0b-441e-84af-c9fc6427c0c9"},"vehicle_type_id":"4","last_reported":1742804045,"current_range_meters":6400,"station_id":"ce4bhg12rcd13ifvqf80","pricing_plan_id":"cebpf4jnsgd1na2vs0mg"},{"bike_id":"f7c14bf7-7731-49c8-ac0d-643990b9bf0b","system_id":"levelo_inurba_marseille","lat":43.25003,"lon":5.38923,"is_reserved":false,"is_disabled":false,"rental_uris":{"android":"levelo://app?vid=f7c14bf7-7731-49c8-ac0d-643990b9bf0b","ios":"levelo://app?vid=f7c14bf7-7731-49c8-ac0d-643990b9bf0b"},"vehicle_type_id":"4","last_reported":1742804045,"current_range_meters":6400,"station_id":"ce4bhgp2rcd13ifvqfd0","pricing_plan_id":"cebpf4jnsgd1na2vs0mg"},{"bike_id":"217589cc-6d6b-4c93-be2c-3a260f0ed08c","system_id":"levelo_inurba_marseille","lat":43.25939,"lon":5.409,"is_reserved":false,"is_disabled":false,"rental_uris":{"android":"levelo://app?vid=217589cc-6d6b-4c93-be2c-3a260f0ed08c","ios":"levelo://app?vid=217589cc-6d6b-4c93-be2c-3a260f0ed08c"},"vehicle_type_id":"4","last_reported":1742804045,"current_range_meters":6400,"station_id":"ce4bhm92rcd13ifvqglg","pricing_plan_id":"cebpf4jnsgd1na2vs0mg"},{"bike_id":"a0514e1d-555c-40ed-b843-6b56e40772bc","system_id":"levelo_inurba_marseille","lat":43.31218,"lon":5.3686,"is_reserved":false,"is_disabled":false,"rental_uris":{"android":"levelo://app?vid=a0514e1d-555c-40ed-b843-6b56e40772bc","ios":"levelo://app?vid=a0514e1d-555c-40ed-b843-6b56e40772bc"},"vehicle_type_id":"4","last_reported":1742804045,"current_range_meters":6400,"station_id":"ce4bgl92rcd13ifvqbq0","pricing_plan_id":"cebpf4jnsgd1na2vs0mg"},{"bike_id":"29a7b015-6848-4293-8d3e-2f7048213caa","system_id":"levelo_inurba_marseille","lat":43.26785,"lon":5.39411,"is_reserved":false,"is_disabled":false,"rental_uris":{"android":"levelo://app?vid=29a7b015-6848-4293-8d3e-2f7048213caa","ios":"levelo://app?vid=29a7b015-6848-4293-8d3e-2f7048213caa"},"vehicle_type_id":"4","last_reported":1742804045,"current_range_meters":6000,"station_id":"ce4bhh12rcd13ifvqfg0","pricing_plan_id":"cebpf4jnsgd1na2vs0mg"},{"bike_id":"40646b78-2d69-4896-9c18-c5e26c8820f8","system_id":"levelo_inurba_marseille","lat":43.30873,"lon":5.37205,"is_reserved":false,"is_disabled":false,"rental_uris":{"android":"levelo://app?vid=40646b78-2d69-4896-9c18-c5e26c8820f8","ios":"levelo://app?vid=40646b78-2d69-4896-9c18-c5e26c8820f8"},"vehicle_type_id":"4","last_reported":1742804045,"current_range_meters":6400,"station_id":"ce4bguh2rcd13ifvqckg","pricing_plan_id":"cebpf4jnsgd1na2vs0mg"},{"bike_id":"cd383773-4b9e-47b8-a0dc-4b9211546aa7","system_id":"levelo_inurba_marseille","lat":43.33605,"lon":5.41024,"is_reserved":false,"is_disabled":false,"rental_uris":{"android":"levelo://app?vid=cd383773-4b9e-47b8-a0dc-4b9211546aa7","ios":"levelo://app?vid=cd383773-4b9e-47b8-a0dc-4b9211546aa7"},"vehicle_type_id":"4","last_reported":1742804045,"current_range_meters":6800,"station_id":"ce4bhqh2rcd13ifvqhmg","pricing_plan_id":"cebpf4jnsgd1na2vs0mg"},{"bike_id":"2032e81a-8d24-4036-9cc6-bf67698b8322","system_id":"levelo_inurba_marseille","lat":43.2418,"lon":5.39737,"is_reserved":false,"is_disabled":false,"rental_uris":{"android":"levelo://app?vid=2032e81a-8d24-4036-9cc6-bf67698b8322","ios":"levelo://app?vid=2032e81a-8d24-4036-9cc6-bf67698b8322"},"vehicle_type_id":"4","last_reported":1742804045,"current_range_meters":6800,"station_id":"ce4bhn12rcd13ifvqgpg","pricing_plan_id":"cebpf4jnsgd1na2vs0mg"},{"bike_id":"52390db3-1658-4d95-8474-5735938b9643","system_id":"levelo_inurba_marseille","lat":43.26246,"lon":5.40447,"is_reserved":false,"is_disabled":false,"rental_uris":{"android":"levelo://app?vid=52390db3-1658-4d95-8474-5735938b9643","ios":"levelo://app?vid=52390db3-1658-4d95-8474-5735938b9643"},"vehicle_type_id":"4","last_reported":1742804045,"current_range_meters":6800,"station_id":"ce4bhmh2rcd13ifvqgmg","pricing_plan_id":"cebpf4jnsgd1na2vs0mg"},{"bike_id":"38f62cf7-f5fb-4f1b-acd7-6129484ad86e","system_id":"levelo_inurba_marseille","lat":43.30167,"lon":5.36568,"is_reserved":false,"is_disabled":false,"rental_uris":{"android":"levelo://app?vid=38f62cf7-f5fb-4f1b-acd7-6129484ad86e","ios":"levelo://app?vid=38f62cf7-f5fb-4f1b-acd7-6129484ad86e"},"vehicle_type_id":"4","last_reported":1742804045,"current_range_meters":6800,"station_id":"","pricing_plan_id":"cebpf4jnsgd1na2vs0mg"},{"bike_id":"c344540f-c840-4e62-adc1-0d209d4c3c3e","system_id":"levelo_inurba_marseille","lat":43.23219,"lon":5.35552,"is_reserved":false,"is_disabled":false,"rental_uris":{"android":"levelo://app?vid=c344540f-c840-4e62-adc1-0d209d4c3c3e","ios":"levelo://app?vid=c344540f-c840-4e62-adc1-0d209d4c3c3e"},"vehicle_type_id":"4","last_reported":1742804045,"current_range_meters":7200,"station_id":"ce4bhu92rcd13ifvqi70","pricing_plan_id":"cebpf4jnsgd1na2vs0mg"},{"bike_id":"2fd4d927-0f70-4f4e-9269-8cd3b232bcd8","system_id":"levelo_inurba_marseille","lat":43.259383,"lon":5.409066,"is_reserved":false,"is_disabled":false,"rental_uris":{"android":"levelo://app?vid=2fd4d927-0f70-4f4e-9269-8cd3b232bcd8","ios":"levelo://app?vid=2fd4d927-0f70-4f4e-9269-8cd3b232bcd8"},"vehicle_type_id":"4","last_reported":1742804045,"current_range_meters":7200,"station_id":"ce4bhm92rcd13ifvqglg","pricing_plan_id":"cebpf4jnsgd1na2vs0mg"},{"bike_id":"ff83d67d-69e1-4014-a673-c72aeeff7474","system_id":"levelo_inurba_marseille","lat":43.26953,"lon":5.38653,"is_reserved":false,"is_disabled":false,"rental_uris":{"android":"levelo://app?vid=ff83d67d-69e1-4014-a673-c72aeeff7474","ios":"levelo://app?vid=ff83d67d-69e1-4014-a673-c72aeeff7474"},"vehicle_type_id":"4","last_reported":1742804045,"current_range_meters":7200,"station_id":"ce4bhh92rcd13ifvqfh0","pricing_plan_id":"cebpf4jnsgd1na2vs0mg"},{"bike_id":"9b4a9cfc-3813-44ea-8a40-10d7cdec655c","system_id":"levelo_inurba_marseille","lat":43.24176,"lon":5.39723,"is_reserved":false,"is_disabled":false,"rental_uris":{"android":"levelo://app?vid=9b4a9cfc-3813-44ea-8a40-10d7cdec655c","ios":"levelo://app?vid=9b4a9cfc-3813-44ea-8a40-10d7cdec655c"},"vehicle_type_id":"4","last_reported":1742804045,"current_range_meters":7200,"station_id":"ce4bhn12rcd13ifvqgpg","pricing_plan_id":"cebpf4jnsgd1na2vs0mg"},{"bike_id":"df7907f6-1a39-414a-ae9f-6492e213d7ad","system_id":"levelo_inurba_marseille","lat":43.26947,"lon":5.38628,"is_reserved":false,"is_disabled":false,"rental_uris":{"android":"levelo://app?vid=df7907f6-1a39-414a-ae9f-6492e213d7ad","ios":"levelo://app?vid=df7907f6-1a39-414a-ae9f-6492e213d7ad"},"vehicle_type_id":"4","last_reported":1742804045,"current_range_meters":7200,"station_id":"ce4bhh92rcd13ifvqfh0","pricing_plan_id":"cebpf4jnsgd1na2vs0mg"},{"bike_id":"aa47fc9b-42bb-4cad-9617-d3a64512143c","system_id":"levelo_inurba_marseille","lat":43.24079,"lon":5.37755,"is_reserved":false,"is_disabled":false,"rental_uris":{"android":"levelo://app?vid=aa47fc9b-42bb-4cad-9617-d3a64512143c","ios":"levelo://app?vid=aa47fc9b-42bb-4cad-9617-d3a64512143c"},"vehicle_type_id":"4","last_reported":1742804045,"current_range_meters":7200,"station_id":"ce4bhnp2rcd13ifvqgvg","pricing_plan_id":"cebpf4jnsgd1na2vs0mg"},{"bike_id":"612a0c17-962e-4e78-b8bf-84b6c93d4dc8","system_id":"levelo_inurba_marseille","lat":43.32453,"lon":5.36582,"is_reserved":false,"is_disabled":false,"rental_uris":{"android":"levelo://app?vid=612a0c17-962e-4e78-b8bf-84b6c93d4dc8","ios":"levelo://app?vid=612a0c17-962e-4e78-b8bf-84b6c93d4dc8"},"vehicle_type_id":"4","last_reported":1742804045,"current_range_meters":7200,"station_id":"ce4bhs12rcd13ifvqhvg","pricing_plan_id":"cebpf4jnsgd1na2vs0mg"},{"bike_id":"619e88cf-0fac-4395-aa5f-f6f4b7ef66ca","system_id":"levelo_inurba_marseille","lat":43.2785,"lon":5.39207,"is_reserved":false,"is_disabled":false,"rental_uris":{"android":"levelo://app?vid=619e88cf-0fac-4395-aa5f-f6f4b7ef66ca","ios":"levelo://app?vid=619e88cf-0fac-4395-aa5f-f6f4b7ef66ca"},"vehicle_type_id":"4","last_reported":1742804045,"current_range_meters":7200,"station_id":"ce4bhjp2rcd13ifvqga0","pricing_plan_id":"cebpf4jnsgd1na2vs0mg"},{"bike_id":"466b52b1-619d-4757-a4a2-7dbcc5ac0e91","system_id":"levelo_inurba_marseille","lat":43.30401,"lon":5.4248,"is_reserved":false,"is_disabled":false,"rental_uris":{"android":"levelo://app?vid=466b52b1-619d-4757-a4a2-7dbcc5ac0e91","ios":"levelo://app?vid=466b52b1-619d-4757-a4a2-7dbcc5ac0e91"},"vehicle_type_id":"4","last_reported":1742804045,"current_range_meters":7200,"station_id":"ce4bhoh2rcd13ifvqh6g","pricing_plan_id":"cebpf4jnsgd1na2vs0mg"},{"bike_id":"ca7ca978-1fef-4a0e-9aa2-95e430214d5b","system_id":"levelo_inurba_marseille","lat":43.241645,"lon":5.364118,"is_reserved":false,"is_disabled":false,"rental_uris":{"android":"levelo://app?vid=ca7ca978-1fef-4a0e-9aa2-95e430214d5b","ios":"levelo://app?vid=ca7ca978-1fef-4a0e-9aa2-95e430214d5b"},"vehicle_type_id":"4","last_reported":1742804045,"current_range_meters":7200,"station_id":"cpo36qri1sfpv3e86is0","pricing_plan_id":"cebpf4jnsgd1na2vs0mg"},{"bike_id":"47a31937-62bb-4a4d-96ed-a098fcdc3ffe","system_id":"levelo_inurba_marseille","lat":43.29276,"lon":5.36848,"is_reserved":false,"is_disabled":false,"rental_uris":{"android":"levelo://app?vid=47a31937-62bb-4a4d-96ed-a098fcdc3ffe","ios":"levelo://app?vid=47a31937-62bb-4a4d-96ed-a098fcdc3ffe"},"vehicle_type_id":"4","last_reported":1742804045,"current_range_meters":7200,"station_id":"ce4bhbp2rcd13ifvqesg","pricing_plan_id":"cebpf4jnsgd1na2vs0mg"},{"bike_id":"801ac92f-133f-417e-90ff-e9cdca3569b0","system_id":"levelo_inurba_marseille","lat":43.240731,"lon":5.377616,"is_reserved":false,"is_disabled":false,"rental_uris":{"android":"levelo://app?vid=801ac92f-133f-417e-90ff-e9cdca3569b0","ios":"levelo://app?vid=801ac92f-133f-417e-90ff-e9cdca3569b0"},"vehicle_type_id":"4","last_reported":1742804045,"current_range_meters":7200,"station_id":"ce4bhnp2rcd13ifvqgvg","pricing_plan_id":"cebpf4jnsgd1na2vs0mg"},{"bike_id":"80bd481f-76dd-47f5-8a33-ce4926e26fff","system_id":"levelo_inurba_marseille","lat":43.26193,"lon":5.37442,"is_reserved":false,"is_disabled":true,"rental_uris":{"android":"levelo://app?vid=80bd481f-76dd-47f5-8a33-ce4926e26fff","ios":"levelo://app?vid=80bd481f-76dd-47f5-8a33-ce4926e26fff"},"vehicle_type_id":"4","last_reported":1742804045,"current_range_meters":7200,"station_id":"ce4bhgp2rcd13ifvqfc0","pricing_plan_id":"cebpf4jnsgd1na2vs0mg"},{"bike_id":"0bdcf116-4ba9-495a-860f-b8bd175bed9c","system_id":"levelo_inurba_marseille","lat":43.25937,"lon":5.40915,"is_reserved":false,"is_disabled":false,"rental_uris":{"android":"levelo://app?vid=0bdcf116-4ba9-495a-860f-b8bd175bed9c","ios":"levelo://app?vid=0bdcf116-4ba9-495a-860f-b8bd175bed9c"},"vehicle_type_id":"4","last_reported":1742804045,"current_range_meters":8000,"station_id":"ce4bhm92rcd13ifvqglg","pricing_plan_id":"cebpf4jnsgd1na2vs0mg"},{"bike_id":"47a56877-d2ef-4cbd-96cd-4c7c6f750408","system_id":"levelo_inurba_marseille","lat":43.26546,"lon":5.39033,"is_reserved":false,"is_disabled":false,"rental_uris":{"android":"levelo://app?vid=47a56877-d2ef-4cbd-96cd-4c7c6f750408","ios":"levelo://app?vid=47a56877-d2ef-4cbd-96cd-4c7c6f750408"},"vehicle_type_id":"4","last_reported":1742804045,"current_range_meters":8000,"station_id":"ce4bhe12rcd13ifvqf30","pricing_plan_id":"cebpf4jnsgd1na2vs0mg"},{"bike_id":"e286c3ad-5aad-4e60-be2d-b5f6cad4b6bc","system_id":"levelo_inurba_marseille","lat":43.292987,"lon":5.374457,"is_reserved":false,"is_disabled":true,"rental_uris":{"android":"levelo://app?vid=e286c3ad-5aad-4e60-be2d-b5f6cad4b6bc","ios":"levelo://app?vid=e286c3ad-5aad-4e60-be2d-b5f6cad4b6bc"},"vehicle_type_id":"4","last_reported":1742804045,"current_range_meters":8000,"station_id":"ce4bgi12rcd13ifvqb70","pricing_plan_id":"cebpf4jnsgd1na2vs0mg"},{"bike_id":"a8054457-ef9c-4293-879f-1eab83000740","system_id":"levelo_inurba_marseille","lat":43.241678,"lon":5.364003,"is_reserved":false,"is_disabled":false,"rental_uris":{"android":"levelo://app?vid=a8054457-ef9c-4293-879f-1eab83000740","ios":"levelo://app?vid=a8054457-ef9c-4293-879f-1eab83000740"},"vehicle_type_id":"4","last_reported":1742804045,"current_range_meters":8000,"station_id":"cpo36qri1sfpv3e86is0","pricing_plan_id":"cebpf4jnsgd1na2vs0mg"},{"bike_id":"24cefc58-264e-45fe-a7d0-590804a67155","system_id":"levelo_inurba_marseille","lat":43.26688,"lon":5.38275,"is_reserved":false,"is_disabled":false,"rental_uris":{"android":"levelo://app?vid=24cefc58-264e-45fe-a7d0-590804a67155","ios":"levelo://app?vid=24cefc58-264e-45fe-a7d0-590804a67155"},"vehicle_type_id":"4","last_reported":1742804045,"current_range_meters":8000,"station_id":"ce4bhg92rcd13ifvqf90","pricing_plan_id":"cebpf4jnsgd1na2vs0mg"},{"bike_id":"08fcbc8a-2ec7-4352-afeb-2a43a18f8a05","system_id":"levelo_inurba_marseille","lat":43.27612,"lon":5.36102,"is_reserved":false,"is_disabled":false,"rental_uris":{"android":"levelo://app?vid=08fcbc8a-2ec7-4352-afeb-2a43a18f8a05","ios":"levelo://app?vid=08fcbc8a-2ec7-4352-afeb-2a43a18f8a05"},"vehicle_type_id":"4","last_reported":1742804045,"current_range_meters":8000,"station_id":"ce4bgj92rcd13ifvqbe0","pricing_plan_id":"cebpf4jnsgd1na2vs0mg"},{"bike_id":"bdd85a69-2526-423f-83bc-580097d3e5b5","system_id":"levelo_inurba_marseille","lat":43.230612,"lon":5.355068,"is_reserved":false,"is_disabled":false,"rental_uris":{"android":"levelo://app?vid=bdd85a69-2526-423f-83bc-580097d3e5b5","ios":"levelo://app?vid=bdd85a69-2526-423f-83bc-580097d3e5b5"},"vehicle_type_id":"4","last_reported":1742804045,"current_range_meters":8000,"station_id":"cpo3342slgdg3j2ifvpg","pricing_plan_id":"cebpf4jnsgd1na2vs0mg"},{"bike_id":"d954b141-3cee-4de0-9c29-d5babd11cd82","system_id":"levelo_inurba_marseille","lat":43.25086,"lon":5.39551,"is_reserved":false,"is_disabled":false,"rental_uris":{"android":"levelo://app?vid=d954b141-3cee-4de0-9c29-d5babd11cd82","ios":"levelo://app?vid=d954b141-3cee-4de0-9c29-d5babd11cd82"},"vehicle_type_id":"4","last_reported":1742804045,"current_range_meters":8000,"station_id":"ce4bhm12rcd13ifvqgkg","pricing_plan_id":"cebpf4jnsgd1na2vs0mg"},{"bike_id":"bd62022d-7027-4e20-a262-5f551d4d7063","system_id":"levelo_inurba_marseille","lat":43.26949,"lon":5.38636,"is_reserved":false,"is_disabled":true,"rental_uris":{"android":"levelo://app?vid=bd62022d-7027-4e20-a262-5f551d4d7063","ios":"levelo://app?vid=bd62022d-7027-4e20-a262-5f551d4d7063"},"vehicle_type_id":"4","last_reported":1742804045,"current_range_meters":8000,"station_id":"ce4bhh92rcd13ifvqfh0","pricing_plan_id":"cebpf4jnsgd1na2vs0mg"},{"bike_id":"2fefb308-230e-403a-b202-3b45e328bb87","system_id":"levelo_inurba_marseille","lat":43.30142,"lon":5.37419,"is_reserved":false,"is_disabled":true,"rental_uris":{"android":"levelo://app?vid=2fefb308-230e-403a-b202-3b45e328bb87","ios":"levelo://app?vid=2fefb308-230e-403a-b202-3b45e328bb87"},"vehicle_type_id":"4","last_reported":1742804045,"current_range_meters":8000,"station_id":"ce4bgs92rcd13ifvqcc0","pricing_plan_id":"cebpf4jnsgd1na2vs0mg"},{"bike_id":"3bb33489-a82f-4739-bc09-2fe3082e2e8c","system_id":"levelo_inurba_marseille","lat":43.307938,"lon":5.373389,"is_reserved":false,"is_disabled":false,"rental_uris":{"android":"levelo://app?vid=3bb33489-a82f-4739-bc09-2fe3082e2e8c","ios":"levelo://app?vid=3bb33489-a82f-4739-bc09-2fe3082e2e8c"},"vehicle_type_id":"4","last_reported":1742804045,"current_range_meters":8000,"station_id":"","pricing_plan_id":"cebpf4jnsgd1na2vs0mg"},{"bike_id":"2753a154-7251-49f8-be78-702dd82035bc","system_id":"levelo_inurba_marseille","lat":43.3482,"lon":5.37377,"is_reserved":false,"is_disabled":true,"rental_uris":{"android":"levelo://app?vid=2753a154-7251-49f8-be78-702dd82035bc","ios":"levelo://app?vid=2753a154-7251-49f8-be78-702dd82035bc"},"vehicle_type_id":"4","last_reported":1742804045,"current_range_meters":8400,"station_id":"","pricing_plan_id":"cebpf4jnsgd1na2vs0mg"},{"bike_id":"9f39ed43-46d0-459b-9c1a-8d899abe99b7","system_id":"levelo_inurba_marseille","lat":43.33598,"lon":5.41036,"is_reserved":false,"is_disabled":false,"rental_uris":{"android":"levelo://app?vid=9f39ed43-46d0-459b-9c1a-8d899abe99b7","ios":"levelo://app?vid=9f39ed43-46d0-459b-9c1a-8d899abe99b7"},"vehicle_type_id":"4","last_reported":1742804045,"current_range_meters":8400,"station_id":"ce4bhqh2rcd13ifvqhmg","pricing_plan_id":"cebpf4jnsgd1na2vs0mg"},{"bike_id":"40587d9c-2db4-436c-bdff-e5da81eb038e","system_id":"levelo_inurba_marseille","lat":43.24078,"lon":5.37748,"is_reserved":false,"is_disabled":false,"rental_uris":{"android":"levelo://app?vid=40587d9c-2db4-436c-bdff-e5da81eb038e","ios":"levelo://app?vid=40587d9c-2db4-436c-bdff-e5da81eb038e"},"vehicle_type_id":"4","last_reported":1742804045,"current_range_meters":8400,"station_id":"ce4bhnp2rcd13ifvqgvg","pricing_plan_id":"cebpf4jnsgd1na2vs0mg"},{"bike_id":"5932f5b5-0803-41be-ad57-2c62bb691349","system_id":"levelo_inurba_marseille","lat":43.24662,"lon":5.38167,"is_reserved":false,"is_disabled":false,"rental_uris":{"android":"levelo://app?vid=5932f5b5-0803-41be-ad57-2c62bb691349","ios":"levelo://app?vid=5932f5b5-0803-41be-ad57-2c62bb691349"},"vehicle_type_id":"4","last_reported":1742804045,"current_range_meters":8400,"station_id":"ce4bhih2rcd13ifvqfr0","pricing_plan_id":"cebpf4jnsgd1na2vs0mg"},{"bike_id":"8baa2ca8-9eb2-4942-ba47-ed90d166dad3","system_id":"levelo_inurba_marseille","lat":43.25356,"lon":5.4021,"is_reserved":false,"is_disabled":true,"rental_uris":{"android":"levelo://app?vid=8baa2ca8-9eb2-4942-ba47-ed90d166dad3","ios":"levelo://app?vid=8baa2ca8-9eb2-4942-ba47-ed90d166dad3"},"vehicle_type_id":"4","last_reported":1742804045,"current_range_meters":8400,"station_id":"","pricing_plan_id":"cebpf4jnsgd1na2vs0mg"},{"bike_id":"2ff95ac2-6619-412a-bbcd-77e076a2b3d5","system_id":"levelo_inurba_marseille","lat":43.26681,"lon":5.38273,"is_reserved":false,"is_disabled":false,"rental_uris":{"android":"levelo://app?vid=2ff95ac2-6619-412a-bbcd-77e076a2b3d5","ios":"levelo://app?vid=2ff95ac2-6619-412a-bbcd-77e076a2b3d5"},"vehicle_type_id":"4","last_reported":1742804045,"current_range_meters":8000,"station_id":"ce4bhg92rcd13ifvqf90","pricing_plan_id":"cebpf4jnsgd1na2vs0mg"},{"bike_id":"07541760-82c4-4d38-b58c-85ffff07e965","system_id":"levelo_inurba_marseille","lat":43.23959,"lon":5.36597,"is_reserved":false,"is_disabled":false,"rental_uris":{"android":"levelo://app?vid=07541760-82c4-4d38-b58c-85ffff07e965","ios":"levelo://app?vid=07541760-82c4-4d38-b58c-85ffff07e965"},"vehicle_type_id":"4","last_reported":1742804045,"current_range_meters":8400,"station_id":"ce4bhi12rcd13ifvqfp0","pricing_plan_id":"cebpf4jnsgd1na2vs0mg"},{"bike_id":"12f0fd96-1943-423b-9d91-d4222abe9e05","system_id":"levelo_inurba_marseille","lat":43.30884,"lon":5.37201,"is_reserved":false,"is_disabled":false,"rental_uris":{"android":"levelo://app?vid=12f0fd96-1943-423b-9d91-d4222abe9e05","ios":"levelo://app?vid=12f0fd96-1943-423b-9d91-d4222abe9e05"},"vehicle_type_id":"4","last_reported":1742804045,"current_range_meters":8400,"station_id":"ce4bguh2rcd13ifvqckg","pricing_plan_id":"cebpf4jnsgd1na2vs0mg"},{"bike_id":"196e5527-f8ec-47c9-88d8-c0c49611574a","system_id":"levelo_inurba_marseille","lat":43.230509,"lon":5.354918,"is_reserved":false,"is_disabled":false,"rental_uris":{"android":"levelo://app?vid=196e5527-f8ec-47c9-88d8-c0c49611574a","ios":"levelo://app?vid=196e5527-f8ec-47c9-88d8-c0c49611574a"},"vehicle_type_id":"4","last_reported":1742804045,"current_range_meters":8400,"station_id":"cpo3342slgdg3j2ifvpg","pricing_plan_id":"cebpf4jnsgd1na2vs0mg"},{"bike_id":"2ba46124-a093-4345-928b-13702ad74f31","system_id":"levelo_inurba_marseille","lat":43.23061,"lon":5.35507,"is_reserved":false,"is_disabled":false,"rental_uris":{"android":"levelo://app?vid=2ba46124-a093-4345-928b-13702ad74f31","ios":"levelo://app?vid=2ba46124-a093-4345-928b-13702ad74f31"},"vehicle_type_id":"4","last_reported":1742804045,"current_range_meters":8800,"station_id":"cpo3342slgdg3j2ifvpg","pricing_plan_id":"cebpf4jnsgd1na2vs0mg"},{"bike_id":"bdf6047f-995d-4223-be28-22922e98aedf","system_id":"levelo_inurba_marseille","lat":43.29275,"lon":5.36839,"is_reserved":false,"is_disabled":false,"rental_uris":{"android":"levelo://app?vid=bdf6047f-995d-4223-be28-22922e98aedf","ios":"levelo://app?vid=bdf6047f-995d-4223-be28-22922e98aedf"},"vehicle_type_id":"4","last_reported":1742804045,"current_range_meters":8800,"station_id":"ce4bhbp2rcd13ifvqesg","pricing_plan_id":"cebpf4jnsgd1na2vs0mg"},{"bike_id":"8ac76298-3375-4b96-8a90-9315b1510fa4","system_id":"levelo_inurba_marseille","lat":43.27815,"lon":5.40701,"is_reserved":false,"is_disabled":false,"rental_uris":{"android":"levelo://app?vid=8ac76298-3375-4b96-8a90-9315b1510fa4","ios":"levelo://app?vid=8ac76298-3375-4b96-8a90-9315b1510fa4"},"vehicle_type_id":"4","last_reported":1742804045,"current_range_meters":8800,"station_id":"ce4bhnh2rcd13ifvqgtg","pricing_plan_id":"cebpf4jnsgd1na2vs0mg"},{"bike_id":"901ad870-67db-4efd-a3cc-2d5ce9510114","system_id":"levelo_inurba_marseille","lat":43.268138,"lon":5.394197,"is_reserved":false,"is_disabled":false,"rental_uris":{"android":"levelo://app?vid=901ad870-67db-4efd-a3cc-2d5ce9510114","ios":"levelo://app?vid=901ad870-67db-4efd-a3cc-2d5ce9510114"},"vehicle_type_id":"4","last_reported":1742804045,"current_range_meters":8800,"station_id":"ce4bhh12rcd13ifvqfg0","pricing_plan_id":"cebpf4jnsgd1na2vs0mg"},{"bike_id":"daf705b5-817b-4bbc-bd5a-5101c6aa000f","system_id":"levelo_inurba_marseille","lat":43.278041,"lon":5.407356,"is_reserved":false,"is_disabled":true,"rental_uris":{"android":"levelo://app?vid=daf705b5-817b-4bbc-bd5a-5101c6aa000f","ios":"levelo://app?vid=daf705b5-817b-4bbc-bd5a-5101c6aa000f"},"vehicle_type_id":"4","last_reported":1742804045,"current_range_meters":8800,"station_id":"ce4bhnh2rcd13ifvqgtg","pricing_plan_id":"cebpf4jnsgd1na2vs0mg"},{"bike_id":"282809df-29b4-411f-b718-322266f75751","system_id":"levelo_inurba_marseille","lat":43.23055,"lon":5.35493,"is_reserved":false,"is_disabled":false,"rental_uris":{"android":"levelo://app?vid=282809df-29b4-411f-b718-322266f75751","ios":"levelo://app?vid=282809df-29b4-411f-b718-322266f75751"},"vehicle_type_id":"4","last_reported":1742804045,"current_range_meters":8800,"station_id":"cpo3342slgdg3j2ifvpg","pricing_plan_id":"cebpf4jnsgd1na2vs0mg"},{"bike_id":"d2facb37-73d1-46b8-8ff4-6d04ce0631bc","system_id":"levelo_inurba_marseille","lat":43.2929,"lon":5.37469,"is_reserved":false,"is_disabled":false,"rental_uris":{"android":"levelo://app?vid=d2facb37-73d1-46b8-8ff4-6d04ce0631bc","ios":"levelo://app?vid=d2facb37-73d1-46b8-8ff4-6d04ce0631bc"},"vehicle_type_id":"4","last_reported":1742804045,"current_range_meters":8800,"station_id":"ce4bgi12rcd13ifvqb70","pricing_plan_id":"cebpf4jnsgd1na2vs0mg"},{"bike_id":"57b83645-2987-4346-ae33-23cd851c6c26","system_id":"levelo_inurba_marseille","lat":43.25928,"lon":5.40909,"is_reserved":false,"is_disabled":false,"rental_uris":{"android":"levelo://app?vid=57b83645-2987-4346-ae33-23cd851c6c26","ios":"levelo://app?vid=57b83645-2987-4346-ae33-23cd851c6c26"},"vehicle_type_id":"4","last_reported":1742804045,"current_range_meters":9200,"station_id":"ce4bhm92rcd13ifvqglg","pricing_plan_id":"cebpf4jnsgd1na2vs0mg"},{"bike_id":"419396b2-237f-4fa9-8454-570eb77ef24f","system_id":"levelo_inurba_marseille","lat":43.29195,"lon":5.39328,"is_reserved":false,"is_disabled":false,"rental_uris":{"android":"levelo://app?vid=419396b2-237f-4fa9-8454-570eb77ef24f","ios":"levelo://app?vid=419396b2-237f-4fa9-8454-570eb77ef24f"},"vehicle_type_id":"4","last_reported":1742804045,"current_range_meters":9200,"station_id":"ce4bh192rcd13ifvqdd0","pricing_plan_id":"cebpf4jnsgd1na2vs0mg"},{"bike_id":"034718de-67f9-4b03-9b14-13a8fc4858ac","system_id":"levelo_inurba_marseille","lat":43.23188,"lon":5.35573,"is_reserved":false,"is_disabled":false,"rental_uris":{"android":"levelo://app?vid=034718de-67f9-4b03-9b14-13a8fc4858ac","ios":"levelo://app?vid=034718de-67f9-4b03-9b14-13a8fc4858ac"},"vehicle_type_id":"4","last_reported":1742804045,"current_range_meters":9200,"station_id":"ce4bhu92rcd13ifvqi70","pricing_plan_id":"cebpf4jnsgd1na2vs0mg"},{"bike_id":"e2b68c00-ea55-4d0f-ae98-6403b351276c","system_id":"levelo_inurba_marseille","lat":43.23052,"lon":5.35501,"is_reserved":false,"is_disabled":false,"rental_uris":{"android":"levelo://app?vid=e2b68c00-ea55-4d0f-ae98-6403b351276c","ios":"levelo://app?vid=e2b68c00-ea55-4d0f-ae98-6403b351276c"},"vehicle_type_id":"4","last_reported":1742804045,"current_range_meters":9200,"station_id":"cpo3342slgdg3j2ifvpg","pricing_plan_id":"cebpf4jnsgd1na2vs0mg"},{"bike_id":"9be53234-e8da-4655-a547-efe22c321e3c","system_id":"levelo_inurba_marseille","lat":43.290265,"lon":5.386393,"is_reserved":false,"is_disabled":false,"rental_uris":{"android":"levelo://app?vid=9be53234-e8da-4655-a547-efe22c321e3c","ios":"levelo://app?vid=9be53234-e8da-4655-a547-efe22c321e3c"},"vehicle_type_id":"4","last_reported":1742804045,"current_range_meters":9200,"station_id":"ce4bh9p2rcd13ifvqed0","pricing_plan_id":"cebpf4jnsgd1na2vs0mg"},{"bike_id":"4baf8c5d-e0fe-4a6c-97de-a71e960c5338","system_id":"levelo_inurba_marseille","lat":43.241675,"lon":5.363965,"is_reserved":false,"is_disabled":false,"rental_uris":{"android":"levelo://app?vid=4baf8c5d-e0fe-4a6c-97de-a71e960c5338","ios":"levelo://app?vid=4baf8c5d-e0fe-4a6c-97de-a71e960c5338"},"vehicle_type_id":"4","last_reported":1742804045,"current_range_meters":9200,"station_id":"cpo36qri1sfpv3e86is0","pricing_plan_id":"cebpf4jnsgd1na2vs0mg"},{"bike_id":"7693ecee-8d6e-455f-b5ec-ea4ac1b115de","system_id":"levelo_inurba_marseille","lat":43.31223,"lon":5.36871,"is_reserved":false,"is_disabled":false,"rental_uris":{"android":"levelo://app?vid=7693ecee-8d6e-455f-b5ec-ea4ac1b115de","ios":"levelo://app?vid=7693ecee-8d6e-455f-b5ec-ea4ac1b115de"},"vehicle_type_id":"4","last_reported":1742804045,"current_range_meters":9200,"station_id":"ce4bgl92rcd13ifvqbq0","pricing_plan_id":"cebpf4jnsgd1na2vs0mg"},{"bike_id":"3b83aa61-84fe-4de9-b0ae-63bfda2a5b93","system_id":"levelo_inurba_marseille","lat":43.25011,"lon":5.38932,"is_reserved":false,"is_disabled":false,"rental_uris":{"android":"levelo://app?vid=3b83aa61-84fe-4de9-b0ae-63bfda2a5b93","ios":"levelo://app?vid=3b83aa61-84fe-4de9-b0ae-63bfda2a5b93"},"vehicle_type_id":"4","last_reported":1742804045,"current_range_meters":9200,"station_id":"ce4bhgp2rcd13ifvqfd0","pricing_plan_id":"cebpf4jnsgd1na2vs0mg"},{"bike_id":"d1275e34-17bb-457a-bd2d-af7a33ad43ca","system_id":"levelo_inurba_marseille","lat":43.31482,"lon":5.37296,"is_reserved":false,"is_disabled":false,"rental_uris":{"android":"levelo://app?vid=d1275e34-17bb-457a-bd2d-af7a33ad43ca","ios":"levelo://app?vid=d1275e34-17bb-457a-bd2d-af7a33ad43ca"},"vehicle_type_id":"4","last_reported":1742804045,"current_range_meters":9600,"station_id":"ce4bgt12rcd13ifvqcd0","pricing_plan_id":"cebpf4jnsgd1na2vs0mg"},{"bike_id":"51dec2cb-b502-4789-9f08-00dd3a6a45eb","system_id":"levelo_inurba_marseille","lat":43.28973,"lon":5.37842,"is_reserved":false,"is_disabled":false,"rental_uris":{"android":"levelo://app?vid=51dec2cb-b502-4789-9f08-00dd3a6a45eb","ios":"levelo://app?vid=51dec2cb-b502-4789-9f08-00dd3a6a45eb"},"vehicle_type_id":"4","last_reported":1742804045,"current_range_meters":9200,"station_id":"ce4bh9p2rcd13ifvqed0","pricing_plan_id":"cebpf4jnsgd1na2vs0mg"},{"bike_id":"b9379432-0e96-4d9f-a7ed-12d7d124db3e","system_id":"levelo_inurba_marseille","lat":43.25938,"lon":5.40901,"is_reserved":false,"is_disabled":false,"rental_uris":{"android":"levelo://app?vid=b9379432-0e96-4d9f-a7ed-12d7d124db3e","ios":"levelo://app?vid=b9379432-0e96-4d9f-a7ed-12d7d124db3e"},"vehicle_type_id":"4","last_reported":1742804045,"current_range_meters":9600,"station_id":"ce4bhm92rcd13ifvqglg","pricing_plan_id":"cebpf4jnsgd1na2vs0mg"},{"bike_id":"651a4564-754b-487b-a9bf-92e7beb6cb5c","system_id":"levelo_inurba_marseille","lat":43.29898,"lon":5.37474,"is_reserved":false,"is_disabled":false,"rental_uris":{"android":"levelo://app?vid=651a4564-754b-487b-a9bf-92e7beb6cb5c","ios":"levelo://app?vid=651a4564-754b-487b-a9bf-92e7beb6cb5c"},"vehicle_type_id":"4","last_reported":1742804045,"current_range_meters":9600,"station_id":"ce4bgjh2rcd13ifvqbg0","pricing_plan_id":"cebpf4jnsgd1na2vs0mg"},{"bike_id":"bb0a4a5f-6373-4b21-8807-70f0bc0a65c7","system_id":"levelo_inurba_marseille","lat":43.32476,"lon":5.36575,"is_reserved":false,"is_disabled":false,"rental_uris":{"android":"levelo://app?vid=bb0a4a5f-6373-4b21-8807-70f0bc0a65c7","ios":"levelo://app?vid=bb0a4a5f-6373-4b21-8807-70f0bc0a65c7"},"vehicle_type_id":"4","last_reported":1742804045,"current_range_meters":9600,"station_id":"ce4bhs12rcd13ifvqhvg","pricing_plan_id":"cebpf4jnsgd1na2vs0mg"},{"bike_id":"e77d191c-b6c2-4af6-8798-46f31e387227","system_id":"levelo_inurba_marseille","lat":43.30195,"lon":5.37445,"is_reserved":false,"is_disabled":false,"rental_uris":{"android":"levelo://app?vid=e77d191c-b6c2-4af6-8798-46f31e387227","ios":"levelo://app?vid=e77d191c-b6c2-4af6-8798-46f31e387227"},"vehicle_type_id":"4","last_reported":1742804045,"current_range_meters":9600,"station_id":"","pricing_plan_id":"cebpf4jnsgd1na2vs0mg"},{"bike_id":"81c28995-a624-4bc5-ad4b-6d333e9d549b","system_id":"levelo_inurba_marseille","lat":43.24681,"lon":5.3815,"is_reserved":false,"is_disabled":false,"rental_uris":{"android":"levelo://app?vid=81c28995-a624-4bc5-ad4b-6d333e9d549b","ios":"levelo://app?vid=81c28995-a624-4bc5-ad4b-6d333e9d549b"},"vehicle_type_id":"4","last_reported":1742804045,"current_range_meters":9600,"station_id":"ce4bhih2rcd13ifvqfr0","pricing_plan_id":"cebpf4jnsgd1na2vs0mg"},{"bike_id":"83749387-4504-4259-a6ca-3b74b7ae7717","system_id":"levelo_inurba_marseille","lat":43.23156,"lon":5.43721,"is_reserved":false,"is_disabled":false,"rental_uris":{"android":"levelo://app?vid=83749387-4504-4259-a6ca-3b74b7ae7717","ios":"levelo://app?vid=83749387-4504-4259-a6ca-3b74b7ae7717"},"vehicle_type_id":"4","last_reported":1742804045,"current_range_meters":9600,"station_id":"ce4bhmp2rcd13ifvqgog","pricing_plan_id":"cebpf4jnsgd1na2vs0mg"},{"bike_id":"b4033be0-5b35-45ca-9979-c7890f6c888e","system_id":"levelo_inurba_marseille","lat":43.311677,"lon":5.387185,"is_reserved":false,"is_disabled":false,"rental_uris":{"android":"levelo://app?vid=b4033be0-5b35-45ca-9979-c7890f6c888e","ios":"levelo://app?vid=b4033be0-5b35-45ca-9979-c7890f6c888e"},"vehicle_type_id":"4","last_reported":1742804045,"current_range_meters":9600,"station_id":"ce4bh612rcd13ifvqe6g","pricing_plan_id":"cebpf4jnsgd1na2vs0mg"},{"bike_id":"713ab737-c234-4d46-8112-2057b4371ffd","system_id":"levelo_inurba_marseille","lat":43.29571,"lon":5.39964,"is_reserved":false,"is_disabled":true,"rental_uris":{"android":"levelo://app?vid=713ab737-c234-4d46-8112-2057b4371ffd","ios":"levelo://app?vid=713ab737-c234-4d46-8112-2057b4371ffd"},"vehicle_type_id":"4","last_reported":1742804045,"current_range_meters":9600,"station_id":"ce4bh312rcd13ifvqdj0","pricing_plan_id":"cebpf4jnsgd1na2vs0mg"},{"bike_id":"29f0b286-7efb-4c23-b7bf-62b36b2fe190","system_id":"levelo_inurba_marseille","lat":43.30242,"lon":5.40081,"is_reserved":false,"is_disabled":true,"rental_uris":{"android":"levelo://app?vid=29f0b286-7efb-4c23-b7bf-62b36b2fe190","ios":"levelo://app?vid=29f0b286-7efb-4c23-b7bf-62b36b2fe190"},"vehicle_type_id":"4","last_reported":1742804045,"current_range_meters":10000,"station_id":"ce4bgvh2rcd13ifvqcs0","pricing_plan_id":"cebpf4jnsgd1na2vs0mg"},{"bike_id":"24b77e8f-4e9e-4342-9950-404af23a4ef7","system_id":"levelo_inurba_marseille","lat":43.239584,"lon":5.366268,"is_reserved":false,"is_disabled":false,"rental_uris":{"android":"levelo://app?vid=24b77e8f-4e9e-4342-9950-404af23a4ef7","ios":"levelo://app?vid=24b77e8f-4e9e-4342-9950-404af23a4ef7"},"vehicle_type_id":"4","last_reported":1742804045,"current_range_meters":10000,"station_id":"ce4bhi12rcd13ifvqfp0","pricing_plan_id":"cebpf4jnsgd1na2vs0mg"},{"bike_id":"73f24004-486a-42ce-8b4c-437345158989","system_id":"levelo_inurba_marseille","lat":43.2592,"lon":5.40906,"is_reserved":false,"is_disabled":false,"rental_uris":{"android":"levelo://app?vid=73f24004-486a-42ce-8b4c-437345158989","ios":"levelo://app?vid=73f24004-486a-42ce-8b4c-437345158989"},"vehicle_type_id":"4","last_reported":1742804045,"current_range_meters":10000,"station_id":"ce4bhm92rcd13ifvqglg","pricing_plan_id":"cebpf4jnsgd1na2vs0mg"},{"bike_id":"6a8fb34b-1c2c-4e30-9fa4-a23fcf3c6317","system_id":"levelo_inurba_marseille","lat":43.25938,"lon":5.40901,"is_reserved":false,"is_disabled":false,"rental_uris":{"android":"levelo://app?vid=6a8fb34b-1c2c-4e30-9fa4-a23fcf3c6317","ios":"levelo://app?vid=6a8fb34b-1c2c-4e30-9fa4-a23fcf3c6317"},"vehicle_type_id":"4","last_reported":1742804045,"current_range_meters":10000,"station_id":"ce4bhm92rcd13ifvqglg","pricing_plan_id":"cebpf4jnsgd1na2vs0mg"},{"bike_id":"794fb38b-1d82-45e0-bfb3-5bbb935a3b94","system_id":"levelo_inurba_marseille","lat":43.26213,"lon":5.37448,"is_reserved":false,"is_disabled":false,"rental_uris":{"android":"levelo://app?vid=794fb38b-1d82-45e0-bfb3-5bbb935a3b94","ios":"levelo://app?vid=794fb38b-1d82-45e0-bfb3-5bbb935a3b94"},"vehicle_type_id":"4","last_reported":1742804045,"current_range_meters":10000,"station_id":"ce4bhgp2rcd13ifvqfc0","pricing_plan_id":"cebpf4jnsgd1na2vs0mg"},{"bike_id":"e68f39a4-b1c9-4500-a984-f338c20cee46","system_id":"levelo_inurba_marseille","lat":43.24177,"lon":5.3973,"is_reserved":false,"is_disabled":false,"rental_uris":{"android":"levelo://app?vid=e68f39a4-b1c9-4500-a984-f338c20cee46","ios":"levelo://app?vid=e68f39a4-b1c9-4500-a984-f338c20cee46"},"vehicle_type_id":"4","last_reported":1742804045,"current_range_meters":10000,"station_id":"ce4bhn12rcd13ifvqgpg","pricing_plan_id":"cebpf4jnsgd1na2vs0mg"},{"bike_id":"32472832-a93e-47a2-925d-c37093eefcdd","system_id":"levelo_inurba_marseille","lat":43.2404,"lon":5.37726,"is_reserved":false,"is_disabled":false,"rental_uris":{"android":"levelo://app?vid=32472832-a93e-47a2-925d-c37093eefcdd","ios":"levelo://app?vid=32472832-a93e-47a2-925d-c37093eefcdd"},"vehicle_type_id":"4","last_reported":1742804045,"current_range_meters":10000,"station_id":"ce4bhnp2rcd13ifvqgvg","pricing_plan_id":"cebpf4jnsgd1na2vs0mg"},{"bike_id":"587c4b09-c6c3-4755-8011-d820e3904490","system_id":"levelo_inurba_marseille","lat":43.23956,"lon":5.36632,"is_reserved":false,"is_disabled":false,"rental_uris":{"android":"levelo://app?vid=587c4b09-c6c3-4755-8011-d820e3904490","ios":"levelo://app?vid=587c4b09-c6c3-4755-8011-d820e3904490"},"vehicle_type_id":"4","last_reported":1742804045,"current_range_meters":10000,"station_id":"ce4bhi12rcd13ifvqfp0","pricing_plan_id":"cebpf4jnsgd1na2vs0mg"},{"bike_id":"9569d2f2-6465-4a19-b0ca-73d69cacec4c","system_id":"levelo_inurba_marseille","lat":43.24075,"lon":5.37739,"is_reserved":false,"is_disabled":false,"rental_uris":{"android":"levelo://app?vid=9569d2f2-6465-4a19-b0ca-73d69cacec4c","ios":"levelo://app?vid=9569d2f2-6465-4a19-b0ca-73d69cacec4c"},"vehicle_type_id":"4","last_reported":1742804045,"current_range_meters":10800,"station_id":"ce4bhnp2rcd13ifvqgvg","pricing_plan_id":"cebpf4jnsgd1na2vs0mg"},{"bike_id":"80f26f42-cb76-461e-aec6-622df09a3d42","system_id":"levelo_inurba_marseille","lat":43.29918,"lon":5.3749,"is_reserved":false,"is_disabled":false,"rental_uris":{"android":"levelo://app?vid=80f26f42-cb76-461e-aec6-622df09a3d42","ios":"levelo://app?vid=80f26f42-cb76-461e-aec6-622df09a3d42"},"vehicle_type_id":"4","last_reported":1742804045,"current_range_meters":10800,"station_id":"ce4bgjh2rcd13ifvqbg0","pricing_plan_id":"cebpf4jnsgd1na2vs0mg"},{"bike_id":"e4b774eb-4f8c-467d-a661-2775e97d8c43","system_id":"levelo_inurba_marseille","lat":43.27325,"lon":5.39064,"is_reserved":false,"is_disabled":false,"rental_uris":{"android":"levelo://app?vid=e4b774eb-4f8c-467d-a661-2775e97d8c43","ios":"levelo://app?vid=e4b774eb-4f8c-467d-a661-2775e97d8c43"},"vehicle_type_id":"4","last_reported":1742804045,"current_range_meters":10800,"station_id":"ce4bhgp2rcd13ifvqfe0","pricing_plan_id":"cebpf4jnsgd1na2vs0mg"},{"bike_id":"f52d578c-2e92-468c-8d0d-6b48faf8734d","system_id":"levelo_inurba_marseille","lat":43.29876,"lon":5.389,"is_reserved":false,"is_disabled":true,"rental_uris":{"android":"levelo://app?vid=f52d578c-2e92-468c-8d0d-6b48faf8734d","ios":"levelo://app?vid=f52d578c-2e92-468c-8d0d-6b48faf8734d"},"vehicle_type_id":"4","last_reported":1742804045,"current_range_meters":10800,"station_id":"ce4bh392rcd13ifvqdl0","pricing_plan_id":"cebpf4jnsgd1na2vs0mg"},{"bike_id":"b873272a-fcbc-42a4-8103-bd1b158217b1","system_id":"levelo_inurba_marseille","lat":43.24076,"lon":5.37756,"is_reserved":false,"is_disabled":false,"rental_uris":{"android":"levelo://app?vid=b873272a-fcbc-42a4-8103-bd1b158217b1","ios":"levelo://app?vid=b873272a-fcbc-42a4-8103-bd1b158217b1"},"vehicle_type_id":"4","last_reported":1742804045,"current_range_meters":10800,"station_id":"ce4bhnp2rcd13ifvqgvg","pricing_plan_id":"cebpf4jnsgd1na2vs0mg"},{"bike_id":"362ce256-d873-44d5-8d0c-8eb3060da6b1","system_id":"levelo_inurba_marseille","lat":43.28162,"lon":5.4266,"is_reserved":false,"is_disabled":false,"rental_uris":{"android":"levelo://app?vid=362ce256-d873-44d5-8d0c-8eb3060da6b1","ios":"levelo://app?vid=362ce256-d873-44d5-8d0c-8eb3060da6b1"},"vehicle_type_id":"4","last_reported":1742804045,"current_range_meters":10800,"station_id":"ce4bhnh2rcd13ifvqgug","pricing_plan_id":"cebpf4jnsgd1na2vs0mg"},{"bike_id":"8db8e94c-5c15-452d-8525-723b319c3c7c","system_id":"levelo_inurba_marseille","lat":43.288531,"lon":5.393318,"is_reserved":false,"is_disabled":true,"rental_uris":{"android":"levelo://app?vid=8db8e94c-5c15-452d-8525-723b319c3c7c","ios":"levelo://app?vid=8db8e94c-5c15-452d-8525-723b319c3c7c"},"vehicle_type_id":"4","last_reported":1742804045,"current_range_meters":10800,"station_id":"ce4bh2p2rcd13ifvqdi0","pricing_plan_id":"cebpf4jnsgd1na2vs0mg"},{"bike_id":"76757220-d8a3-400d-93c0-947089c24c8c","system_id":"levelo_inurba_marseille","lat":43.299053,"lon":5.43669,"is_reserved":false,"is_disabled":false,"rental_uris":{"android":"levelo://app?vid=76757220-d8a3-400d-93c0-947089c24c8c","ios":"levelo://app?vid=76757220-d8a3-400d-93c0-947089c24c8c"},"vehicle_type_id":"4","last_reported":1742804045,"current_range_meters":11200,"station_id":"ce4bhpp2rcd13ifvqhfg","pricing_plan_id":"cebpf4jnsgd1na2vs0mg"},{"bike_id":"11e9fcc4-be0a-4717-9476-7b4283ae15fe","system_id":"levelo_inurba_marseille","lat":43.24082,"lon":5.37744,"is_reserved":false,"is_disabled":false,"rental_uris":{"android":"levelo://app?vid=11e9fcc4-be0a-4717-9476-7b4283ae15fe","ios":"levelo://app?vid=11e9fcc4-be0a-4717-9476-7b4283ae15fe"},"vehicle_type_id":"4","last_reported":1742804045,"current_range_meters":11200,"station_id":"ce4bhnp2rcd13ifvqgvg","pricing_plan_id":"cebpf4jnsgd1na2vs0mg"},{"bike_id":"30d12048-4f55-4649-8008-112d4b94b531","system_id":"levelo_inurba_marseille","lat":43.30129,"lon":5.37424,"is_reserved":false,"is_disabled":false,"rental_uris":{"android":"levelo://app?vid=30d12048-4f55-4649-8008-112d4b94b531","ios":"levelo://app?vid=30d12048-4f55-4649-8008-112d4b94b531"},"vehicle_type_id":"4","last_reported":1742804045,"current_range_meters":11200,"station_id":"ce4bgs92rcd13ifvqcc0","pricing_plan_id":"cebpf4jnsgd1na2vs0mg"},{"bike_id":"d1f7ca60-4bb4-4dd9-9c90-e8069ceefa40","system_id":"levelo_inurba_marseille","lat":43.241739,"lon":5.364094,"is_reserved":false,"is_disabled":false,"rental_uris":{"android":"levelo://app?vid=d1f7ca60-4bb4-4dd9-9c90-e8069ceefa40","ios":"levelo://app?vid=d1f7ca60-4bb4-4dd9-9c90-e8069ceefa40"},"vehicle_type_id":"4","last_reported":1742804045,"current_range_meters":11600,"station_id":"cpo36qri1sfpv3e86is0","pricing_plan_id":"cebpf4jnsgd1na2vs0mg"},{"bike_id":"69e58d75-4622-44f9-a116-094186a08c1c","system_id":"levelo_inurba_marseille","lat":43.25933,"lon":5.40908,"is_reserved":false,"is_disabled":false,"rental_uris":{"android":"levelo://app?vid=69e58d75-4622-44f9-a116-094186a08c1c","ios":"levelo://app?vid=69e58d75-4622-44f9-a116-094186a08c1c"},"vehicle_type_id":"4","last_reported":1742804045,"current_range_meters":11600,"station_id":"ce4bhm92rcd13ifvqglg","pricing_plan_id":"cebpf4jnsgd1na2vs0mg"},{"bike_id":"6e037283-94f1-431a-b064-acee2cca24cf","system_id":"levelo_inurba_marseille","lat":43.2931,"lon":5.37178,"is_reserved":false,"is_disabled":false,"rental_uris":{"android":"levelo://app?vid=6e037283-94f1-431a-b064-acee2cca24cf","ios":"levelo://app?vid=6e037283-94f1-431a-b064-acee2cca24cf"},"vehicle_type_id":"4","last_reported":1742804045,"current_range_meters":11600,"station_id":"ce4bgh92rcd13ifvqb40","pricing_plan_id":"cebpf4jnsgd1na2vs0mg"},{"bike_id":"24068a25-aec7-4a93-84b4-0ff786d8d93b","system_id":"levelo_inurba_marseille","lat":43.30531,"lon":5.36546,"is_reserved":false,"is_disabled":false,"rental_uris":{"android":"levelo://app?vid=24068a25-aec7-4a93-84b4-0ff786d8d93b","ios":"levelo://app?vid=24068a25-aec7-4a93-84b4-0ff786d8d93b"},"vehicle_type_id":"4","last_reported":1742804045,"current_range_meters":11600,"station_id":"ce4bgs12rcd13ifvqcag","pricing_plan_id":"cebpf4jnsgd1na2vs0mg"},{"bike_id":"5cd3e5bf-29e6-4dab-a930-b49601feb04c","system_id":"levelo_inurba_marseille","lat":43.30131,"lon":5.37429,"is_reserved":false,"is_disabled":false,"rental_uris":{"android":"levelo://app?vid=5cd3e5bf-29e6-4dab-a930-b49601feb04c","ios":"levelo://app?vid=5cd3e5bf-29e6-4dab-a930-b49601feb04c"},"vehicle_type_id":"4","last_reported":1742804045,"current_range_meters":11600,"station_id":"ce4bgs92rcd13ifvqcc0","pricing_plan_id":"cebpf4jnsgd1na2vs0mg"},{"bike_id":"9058318e-f824-4e7b-99a5-872b8f2e7955","system_id":"levelo_inurba_marseille","lat":43.279411,"lon":5.387333,"is_reserved":false,"is_disabled":false,"rental_uris":{"android":"levelo://app?vid=9058318e-f824-4e7b-99a5-872b8f2e7955","ios":"levelo://app?vid=9058318e-f824-4e7b-99a5-872b8f2e7955"},"vehicle_type_id":"4","last_reported":1742804045,"current_range_meters":12000,"station_id":"ce4bh9p2rcd13ifvqec0","pricing_plan_id":"cebpf4jnsgd1na2vs0mg"},{"bike_id":"be1accbe-03e1-4194-aac7-f77289c5c4f3","system_id":"levelo_inurba_marseille","lat":43.29042,"lon":5.37569,"is_reserved":false,"is_disabled":false,"rental_uris":{"android":"levelo://app?vid=be1accbe-03e1-4194-aac7-f77289c5c4f3","ios":"levelo://app?vid=be1accbe-03e1-4194-aac7-f77289c5c4f3"},"vehicle_type_id":"4","last_reported":1742804045,"current_range_meters":12000,"station_id":"ce4bh692rcd13ifvqe90","pricing_plan_id":"cebpf4jnsgd1na2vs0mg"},{"bike_id":"e784bcf0-e6f4-419c-acc0-929d2665a4b7","system_id":"levelo_inurba_marseille","lat":43.28175,"lon":5.42636,"is_reserved":false,"is_disabled":false,"rental_uris":{"android":"levelo://app?vid=e784bcf0-e6f4-419c-acc0-929d2665a4b7","ios":"levelo://app?vid=e784bcf0-e6f4-419c-acc0-929d2665a4b7"},"vehicle_type_id":"4","last_reported":1742804045,"current_range_meters":12000,"station_id":"ce4bhnh2rcd13ifvqgug","pricing_plan_id":"cebpf4jnsgd1na2vs0mg"},{"bike_id":"e5c0b98b-2fc4-4f38-bd38-b8bb0e5cc46e","system_id":"levelo_inurba_marseille","lat":43.23154,"lon":5.43705,"is_reserved":false,"is_disabled":false,"rental_uris":{"android":"levelo://app?vid=e5c0b98b-2fc4-4f38-bd38-b8bb0e5cc46e","ios":"levelo://app?vid=e5c0b98b-2fc4-4f38-bd38-b8bb0e5cc46e"},"vehicle_type_id":"4","last_reported":1742804045,"current_range_meters":12000,"station_id":"ce4bhmp2rcd13ifvqgog","pricing_plan_id":"cebpf4jnsgd1na2vs0mg"},{"bike_id":"65242f0b-a8aa-4cab-8697-be58691d098c","system_id":"levelo_inurba_marseille","lat":43.28877,"lon":5.40902,"is_reserved":false,"is_disabled":false,"rental_uris":{"android":"levelo://app?vid=65242f0b-a8aa-4cab-8697-be58691d098c","ios":"levelo://app?vid=65242f0b-a8aa-4cab-8697-be58691d098c"},"vehicle_type_id":"4","last_reported":1742804045,"current_range_meters":12000,"station_id":"","pricing_plan_id":"cebpf4jnsgd1na2vs0mg"},{"bike_id":"1ddc70ec-e444-4841-84e9-456f7aeb224f","system_id":"levelo_inurba_marseille","lat":43.30953,"lon":5.40475,"is_reserved":false,"is_disabled":false,"rental_uris":{"android":"levelo://app?vid=1ddc70ec-e444-4841-84e9-456f7aeb224f","ios":"levelo://app?vid=1ddc70ec-e444-4841-84e9-456f7aeb224f"},"vehicle_type_id":"4","last_reported":1742804045,"current_range_meters":12400,"station_id":"","pricing_plan_id":"cebpf4jnsgd1na2vs0mg"},{"bike_id":"f74b13c7-053c-4b7a-983a-625dd03e6fbb","system_id":"levelo_inurba_marseille","lat":43.2319,"lon":5.35558,"is_reserved":false,"is_disabled":false,"rental_uris":{"android":"levelo://app?vid=f74b13c7-053c-4b7a-983a-625dd03e6fbb","ios":"levelo://app?vid=f74b13c7-053c-4b7a-983a-625dd03e6fbb"},"vehicle_type_id":"4","last_reported":1742804045,"current_range_meters":12400,"station_id":"ce4bhu92rcd13ifvqi70","pricing_plan_id":"cebpf4jnsgd1na2vs0mg"},{"bike_id":"ba298775-8350-4b57-9be0-99308773b5b4","system_id":"levelo_inurba_marseille","lat":43.28153,"lon":5.42648,"is_reserved":false,"is_disabled":false,"rental_uris":{"android":"levelo://app?vid=ba298775-8350-4b57-9be0-99308773b5b4","ios":"levelo://app?vid=ba298775-8350-4b57-9be0-99308773b5b4"},"vehicle_type_id":"4","last_reported":1742804045,"current_range_meters":12400,"station_id":"ce4bhnh2rcd13ifvqgug","pricing_plan_id":"cebpf4jnsgd1na2vs0mg"},{"bike_id":"55b86800-4bfb-4509-b486-5706fe5277fd","system_id":"levelo_inurba_marseille","lat":43.28708,"lon":5.40009,"is_reserved":false,"is_disabled":true,"rental_uris":{"android":"levelo://app?vid=55b86800-4bfb-4509-b486-5706fe5277fd","ios":"levelo://app?vid=55b86800-4bfb-4509-b486-5706fe5277fd"},"vehicle_type_id":"4","last_reported":1742804045,"current_range_meters":12400,"station_id":"ce4bho92rcd13ifvqh3g","pricing_plan_id":"cebpf4jnsgd1na2vs0mg"},{"bike_id":"dab93d97-cd10-45cb-95b1-e7983b12e2b6","system_id":"levelo_inurba_marseille","lat":43.31362,"lon":5.38494,"is_reserved":false,"is_disabled":false,"rental_uris":{"android":"levelo://app?vid=dab93d97-cd10-45cb-95b1-e7983b12e2b6","ios":"levelo://app?vid=dab93d97-cd10-45cb-95b1-e7983b12e2b6"},"vehicle_type_id":"4","last_reported":1742804045,"current_range_meters":12000,"station_id":"ce4bgt92rcd13ifvqcf0","pricing_plan_id":"cebpf4jnsgd1na2vs0mg"},{"bike_id":"23885284-84a0-4384-b2a8-68c09a508c5c","system_id":"levelo_inurba_marseille","lat":43.29044,"lon":5.39973,"is_reserved":false,"is_disabled":false,"rental_uris":{"android":"levelo://app?vid=23885284-84a0-4384-b2a8-68c09a508c5c","ios":"levelo://app?vid=23885284-84a0-4384-b2a8-68c09a508c5c"},"vehicle_type_id":"4","last_reported":1742804045,"current_range_meters":12400,"station_id":"ce4bh392rcd13ifvqdm0","pricing_plan_id":"cebpf4jnsgd1na2vs0mg"},{"bike_id":"9b3dcaf5-b313-4c20-91dc-f1c16272632c","system_id":"levelo_inurba_marseille","lat":43.28153,"lon":5.426394,"is_reserved":false,"is_disabled":false,"rental_uris":{"android":"levelo://app?vid=9b3dcaf5-b313-4c20-91dc-f1c16272632c","ios":"levelo://app?vid=9b3dcaf5-b313-4c20-91dc-f1c16272632c"},"vehicle_type_id":"4","last_reported":1742804045,"current_range_meters":12400,"station_id":"ce4bhnh2rcd13ifvqgug","pricing_plan_id":"cebpf4jnsgd1na2vs0mg"},{"bike_id":"41c8b74c-362a-4ace-a8be-a871abb3ef89","system_id":"levelo_inurba_marseille","lat":43.26158,"lon":5.4055,"is_reserved":false,"is_disabled":false,"rental_uris":{"android":"levelo://app?vid=41c8b74c-362a-4ace-a8be-a871abb3ef89","ios":"levelo://app?vid=41c8b74c-362a-4ace-a8be-a871abb3ef89"},"vehicle_type_id":"4","last_reported":1742804045,"current_range_meters":12400,"station_id":"","pricing_plan_id":"cebpf4jnsgd1na2vs0mg"},{"bike_id":"11f4a5ee-676e-429f-8679-1776cbfb5777","system_id":"levelo_inurba_marseille","lat":43.239611,"lon":5.366276,"is_reserved":false,"is_disabled":false,"rental_uris":{"android":"levelo://app?vid=11f4a5ee-676e-429f-8679-1776cbfb5777","ios":"levelo://app?vid=11f4a5ee-676e-429f-8679-1776cbfb5777"},"vehicle_type_id":"4","last_reported":1742804045,"current_range_meters":12800,"station_id":"ce4bhi12rcd13ifvqfp0","pricing_plan_id":"cebpf4jnsgd1na2vs0mg"},{"bike_id":"dbbd636e-a5cb-462f-9394-b160e90ed820","system_id":"levelo_inurba_marseille","lat":43.25926,"lon":5.40904,"is_reserved":false,"is_disabled":false,"rental_uris":{"android":"levelo://app?vid=dbbd636e-a5cb-462f-9394-b160e90ed820","ios":"levelo://app?vid=dbbd636e-a5cb-462f-9394-b160e90ed820"},"vehicle_type_id":"4","last_reported":1742804045,"current_range_meters":12800,"station_id":"ce4bhm92rcd13ifvqglg","pricing_plan_id":"cebpf4jnsgd1na2vs0mg"},{"bike_id":"42fdf00b-029c-4102-b480-0fbc257b1954","system_id":"levelo_inurba_marseille","lat":43.31689,"lon":5.4046,"is_reserved":false,"is_disabled":false,"rental_uris":{"android":"levelo://app?vid=42fdf00b-029c-4102-b480-0fbc257b1954","ios":"levelo://app?vid=42fdf00b-029c-4102-b480-0fbc257b1954"},"vehicle_type_id":"4","last_reported":1742804045,"current_range_meters":12800,"station_id":"ce4bh012rcd13ifvqd00","pricing_plan_id":"cebpf4jnsgd1na2vs0mg"},{"bike_id":"c3ea81e6-8675-4847-b618-2dfb23c938f8","system_id":"levelo_inurba_marseille","lat":43.276171,"lon":5.361014,"is_reserved":false,"is_disabled":true,"rental_uris":{"android":"levelo://app?vid=c3ea81e6-8675-4847-b618-2dfb23c938f8","ios":"levelo://app?vid=c3ea81e6-8675-4847-b618-2dfb23c938f8"},"vehicle_type_id":"4","last_reported":1742804045,"current_range_meters":12800,"station_id":"ce4bgj92rcd13ifvqbe0","pricing_plan_id":"cebpf4jnsgd1na2vs0mg"},{"bike_id":"a02ebaf7-0361-4838-b9fa-4a254f1f05c3","system_id":"levelo_inurba_marseille","lat":43.23204,"lon":5.35557,"is_reserved":false,"is_disabled":true,"rental_uris":{"android":"levelo://app?vid=a02ebaf7-0361-4838-b9fa-4a254f1f05c3","ios":"levelo://app?vid=a02ebaf7-0361-4838-b9fa-4a254f1f05c3"},"vehicle_type_id":"4","last_reported":1742804045,"current_range_meters":12800,"station_id":"ce4bhu92rcd13ifvqi70","pricing_plan_id":"cebpf4jnsgd1na2vs0mg"},{"bike_id":"64da6105-406b-402f-b4c9-ed2c19fbf402","system_id":"levelo_inurba_marseille","lat":43.292725,"lon":5.384452,"is_reserved":false,"is_disabled":true,"rental_uris":{"android":"levelo://app?vid=64da6105-406b-402f-b4c9-ed2c19fbf402","ios":"levelo://app?vid=64da6105-406b-402f-b4c9-ed2c19fbf402"},"vehicle_type_id":"4","last_reported":1742804045,"current_range_meters":13600,"station_id":"","pricing_plan_id":"cebpf4jnsgd1na2vs0mg"},{"bike_id":"074ef621-2343-421e-9821-ea27910008f6","system_id":"levelo_inurba_marseille","lat":43.23665,"lon":5.37769,"is_reserved":false,"is_disabled":false,"rental_uris":{"android":"levelo://app?vid=074ef621-2343-421e-9821-ea27910008f6","ios":"levelo://app?vid=074ef621-2343-421e-9821-ea27910008f6"},"vehicle_type_id":"4","last_reported":1742804045,"current_range_meters":13600,"station_id":"","pricing_plan_id":"cebpf4jnsgd1na2vs0mg"},{"bike_id":"b97b8876-d969-4576-b7ab-db9b2177d974","system_id":"levelo_inurba_marseille","lat":43.276506,"lon":5.389094,"is_reserved":false,"is_disabled":false,"rental_uris":{"android":"levelo://app?vid=b97b8876-d969-4576-b7ab-db9b2177d974","ios":"levelo://app?vid=b97b8876-d969-4576-b7ab-db9b2177d974"},"vehicle_type_id":"4","last_reported":1742804045,"current_range_meters":13600,"station_id":"ce4bhi12rcd13ifvqfo0","pricing_plan_id":"cebpf4jnsgd1na2vs0mg"},{"bike_id":"b8c55d8a-dbd2-455d-921a-196c9c89183e","system_id":"levelo_inurba_marseille","lat":43.30942,"lon":5.39018,"is_reserved":false,"is_disabled":true,"rental_uris":{"android":"levelo://app?vid=b8c55d8a-dbd2-455d-921a-196c9c89183e","ios":"levelo://app?vid=b8c55d8a-dbd2-455d-921a-196c9c89183e"},"vehicle_type_id":"4","last_reported":1742804045,"current_range_meters":13600,"station_id":"ce4bgup2rcd13ifvqco0","pricing_plan_id":"cebpf4jnsgd1na2vs0mg"},{"bike_id":"003b88bd-4567-4889-b3a0-c34cb5d46a0b","system_id":"levelo_inurba_marseille","lat":43.23963,"lon":5.36614,"is_reserved":false,"is_disabled":false,"rental_uris":{"android":"levelo://app?vid=003b88bd-4567-4889-b3a0-c34cb5d46a0b","ios":"levelo://app?vid=003b88bd-4567-4889-b3a0-c34cb5d46a0b"},"vehicle_type_id":"4","last_reported":1742804045,"current_range_meters":13600,"station_id":"ce4bhi12rcd13ifvqfp0","pricing_plan_id":"cebpf4jnsgd1na2vs0mg"},{"bike_id":"70769d9e-f6fb-480f-af9b-cfb7d437063b","system_id":"levelo_inurba_marseille","lat":43.24078,"lon":5.37761,"is_reserved":false,"is_disabled":false,"rental_uris":{"android":"levelo://app?vid=70769d9e-f6fb-480f-af9b-cfb7d437063b","ios":"levelo://app?vid=70769d9e-f6fb-480f-af9b-cfb7d437063b"},"vehicle_type_id":"4","last_reported":1742804045,"current_range_meters":13600,"station_id":"ce4bhnp2rcd13ifvqgvg","pricing_plan_id":"cebpf4jnsgd1na2vs0mg"},{"bike_id":"b4f43f66-3b24-49fa-a71b-063832082f08","system_id":"levelo_inurba_marseille","lat":43.25934,"lon":5.40912,"is_reserved":false,"is_disabled":false,"rental_uris":{"android":"levelo://app?vid=b4f43f66-3b24-49fa-a71b-063832082f08","ios":"levelo://app?vid=b4f43f66-3b24-49fa-a71b-063832082f08"},"vehicle_type_id":"4","last_reported":1742804045,"current_range_meters":13600,"station_id":"ce4bhm92rcd13ifvqglg","pricing_plan_id":"cebpf4jnsgd1na2vs0mg"},{"bike_id":"55b04f4a-879f-4d47-b322-215cc8b7ab50","system_id":"levelo_inurba_marseille","lat":43.29422,"lon":5.38607,"is_reserved":false,"is_disabled":true,"rental_uris":{"android":"levelo://app?vid=55b04f4a-879f-4d47-b322-215cc8b7ab50","ios":"levelo://app?vid=55b04f4a-879f-4d47-b322-215cc8b7ab50"},"vehicle_type_id":"4","last_reported":1742804045,"current_range_meters":13600,"station_id":"ce4bh2h2rcd13ifvqdh0","pricing_plan_id":"cebpf4jnsgd1na2vs0mg"},{"bike_id":"5834dfcf-f290-419a-acc0-1e4a34af5222","system_id":"levelo_inurba_marseille","lat":43.239605,"lon":5.366277,"is_reserved":false,"is_disabled":false,"rental_uris":{"android":"levelo://app?vid=5834dfcf-f290-419a-acc0-1e4a34af5222","ios":"levelo://app?vid=5834dfcf-f290-419a-acc0-1e4a34af5222"},"vehicle_type_id":"4","last_reported":1742804045,"current_range_meters":14000,"station_id":"ce4bhi12rcd13ifvqfp0","pricing_plan_id":"cebpf4jnsgd1na2vs0mg"},{"bike_id":"411f3bcd-8c10-4807-829c-d644d09dbe42","system_id":"levelo_inurba_marseille","lat":43.33007,"lon":5.39062,"is_reserved":false,"is_disabled":false,"rental_uris":{"android":"levelo://app?vid=411f3bcd-8c10-4807-829c-d644d09dbe42","ios":"levelo://app?vid=411f3bcd-8c10-4807-829c-d644d09dbe42"},"vehicle_type_id":"4","last_reported":1742804045,"current_range_meters":14000,"station_id":"ce4bhr92rcd13ifvqhrg","pricing_plan_id":"cebpf4jnsgd1na2vs0mg"},{"bike_id":"33c1bffb-877b-401f-93fc-c03ca9edcbed","system_id":"levelo_inurba_marseille","lat":43.24088,"lon":5.37767,"is_reserved":false,"is_disabled":false,"rental_uris":{"android":"levelo://app?vid=33c1bffb-877b-401f-93fc-c03ca9edcbed","ios":"levelo://app?vid=33c1bffb-877b-401f-93fc-c03ca9edcbed"},"vehicle_type_id":"4","last_reported":1742804045,"current_range_meters":14000,"station_id":"ce4bhnp2rcd13ifvqgvg","pricing_plan_id":"cebpf4jnsgd1na2vs0mg"},{"bike_id":"8a156e20-6df8-4476-b5c7-a2d769c53f38","system_id":"levelo_inurba_marseille","lat":43.27472,"lon":5.42455,"is_reserved":false,"is_disabled":false,"rental_uris":{"android":"levelo://app?vid=8a156e20-6df8-4476-b5c7-a2d769c53f38","ios":"levelo://app?vid=8a156e20-6df8-4476-b5c7-a2d769c53f38"},"vehicle_type_id":"4","last_reported":1742804045,"current_range_meters":14400,"station_id":"ce4bhn92rcd13ifvqgrg","pricing_plan_id":"cebpf4jnsgd1na2vs0mg"},{"bike_id":"3bdebdf2-56ae-437c-b382-19775de32079","system_id":"levelo_inurba_marseille","lat":43.298523,"lon":5.36298,"is_reserved":false,"is_disabled":false,"rental_uris":{"android":"levelo://app?vid=3bdebdf2-56ae-437c-b382-19775de32079","ios":"levelo://app?vid=3bdebdf2-56ae-437c-b382-19775de32079"},"vehicle_type_id":"4","last_reported":1742804045,"current_range_meters":14400,"station_id":"ce4bgpp2rcd13ifvqc3g","pricing_plan_id":"cebpf4jnsgd1na2vs0mg"},{"bike_id":"2837128b-27ec-48c9-9f29-25103435cee9","system_id":"levelo_inurba_marseille","lat":43.26562,"lon":5.39042,"is_reserved":false,"is_disabled":false,"rental_uris":{"android":"levelo://app?vid=2837128b-27ec-48c9-9f29-25103435cee9","ios":"levelo://app?vid=2837128b-27ec-48c9-9f29-25103435cee9"},"vehicle_type_id":"4","last_reported":1742804045,"current_range_meters":14400,"station_id":"ce4bhe12rcd13ifvqf30","pricing_plan_id":"cebpf4jnsgd1na2vs0mg"},{"bike_id":"1a75159d-6eb4-45f3-ac89-6ff2d642b219","system_id":"levelo_inurba_marseille","lat":43.23197,"lon":5.35552,"is_reserved":false,"is_disabled":false,"rental_uris":{"android":"levelo://app?vid=1a75159d-6eb4-45f3-ac89-6ff2d642b219","ios":"levelo://app?vid=1a75159d-6eb4-45f3-ac89-6ff2d642b219"},"vehicle_type_id":"4","last_reported":1742804045,"current_range_meters":14400,"station_id":"ce4bhu92rcd13ifvqi70","pricing_plan_id":"cebpf4jnsgd1na2vs0mg"},{"bike_id":"989306f0-ec00-4c5a-a143-c730bd5bb983","system_id":"levelo_inurba_marseille","lat":43.26512,"lon":5.37308,"is_reserved":false,"is_disabled":false,"rental_uris":{"android":"levelo://app?vid=989306f0-ec00-4c5a-a143-c730bd5bb983","ios":"levelo://app?vid=989306f0-ec00-4c5a-a143-c730bd5bb983"},"vehicle_type_id":"4","last_reported":1742804045,"current_range_meters":14400,"station_id":"","pricing_plan_id":"cebpf4jnsgd1na2vs0mg"},{"bike_id":"de5ee395-27b0-47e4-ad82-2ba579efa4a0","system_id":"levelo_inurba_marseille","lat":43.24558,"lon":5.39554,"is_reserved":false,"is_disabled":false,"rental_uris":{"android":"levelo://app?vid=de5ee395-27b0-47e4-ad82-2ba579efa4a0","ios":"levelo://app?vid=de5ee395-27b0-47e4-ad82-2ba579efa4a0"},"vehicle_type_id":"4","last_reported":1742804045,"current_range_meters":14400,"station_id":"ce4bhlp2rcd13ifvqgjg","pricing_plan_id":"cebpf4jnsgd1na2vs0mg"},{"bike_id":"07b2103e-4193-4858-b1c1-e886843ce84c","system_id":"levelo_inurba_marseille","lat":43.336088,"lon":5.410288,"is_reserved":false,"is_disabled":false,"rental_uris":{"android":"levelo://app?vid=07b2103e-4193-4858-b1c1-e886843ce84c","ios":"levelo://app?vid=07b2103e-4193-4858-b1c1-e886843ce84c"},"vehicle_type_id":"4","last_reported":1742804045,"current_range_meters":14400,"station_id":"ce4bhqh2rcd13ifvqhmg","pricing_plan_id":"cebpf4jnsgd1na2vs0mg"},{"bike_id":"ef12f1df-58a7-44f9-a515-abbc046895de","system_id":"levelo_inurba_marseille","lat":43.24175,"lon":5.397364,"is_reserved":false,"is_disabled":false,"rental_uris":{"android":"levelo://app?vid=ef12f1df-58a7-44f9-a515-abbc046895de","ios":"levelo://app?vid=ef12f1df-58a7-44f9-a515-abbc046895de"},"vehicle_type_id":"4","last_reported":1742804045,"current_range_meters":14800,"station_id":"ce4bhn12rcd13ifvqgpg","pricing_plan_id":"cebpf4jnsgd1na2vs0mg"},{"bike_id":"f19085cb-cf58-4880-9438-584d4746ae3b","system_id":"levelo_inurba_marseille","lat":43.30467,"lon":5.37917,"is_reserved":false,"is_disabled":false,"rental_uris":{"android":"levelo://app?vid=f19085cb-cf58-4880-9438-584d4746ae3b","ios":"levelo://app?vid=f19085cb-cf58-4880-9438-584d4746ae3b"},"vehicle_type_id":"4","last_reported":1742804045,"current_range_meters":14800,"station_id":"ce4bgup2rcd13ifvqcn0","pricing_plan_id":"cebpf4jnsgd1na2vs0mg"},{"bike_id":"5aa0b45f-be4e-4023-b733-8ed860543228","system_id":"levelo_inurba_marseille","lat":43.23063,"lon":5.35492,"is_reserved":false,"is_disabled":false,"rental_uris":{"android":"levelo://app?vid=5aa0b45f-be4e-4023-b733-8ed860543228","ios":"levelo://app?vid=5aa0b45f-be4e-4023-b733-8ed860543228"},"vehicle_type_id":"4","last_reported":1742804045,"current_range_meters":14800,"station_id":"cpo3342slgdg3j2ifvpg","pricing_plan_id":"cebpf4jnsgd1na2vs0mg"},{"bike_id":"479067b0-fbf6-4767-934b-6c0d74f12f79","system_id":"levelo_inurba_marseille","lat":43.26182,"lon":5.37921,"is_reserved":false,"is_disabled":true,"rental_uris":{"android":"levelo://app?vid=479067b0-fbf6-4767-934b-6c0d74f12f79","ios":"levelo://app?vid=479067b0-fbf6-4767-934b-6c0d74f12f79"},"vehicle_type_id":"4","last_reported":1742804045,"current_range_meters":14800,"station_id":"ce4bhjp2rcd13ifvqg90","pricing_plan_id":"cebpf4jnsgd1na2vs0mg"},{"bike_id":"e9684e7d-e922-4fc1-9d3d-e619405b93f1","system_id":"levelo_inurba_marseille","lat":43.28475,"lon":5.38424,"is_reserved":false,"is_disabled":false,"rental_uris":{"android":"levelo://app?vid=e9684e7d-e922-4fc1-9d3d-e619405b93f1","ios":"levelo://app?vid=e9684e7d-e922-4fc1-9d3d-e619405b93f1"},"vehicle_type_id":"4","last_reported":1742804045,"current_range_meters":14800,"station_id":"ce4bh512rcd13ifvqe3g","pricing_plan_id":"cebpf4jnsgd1na2vs0mg"},{"bike_id":"b12facdc-e071-47de-9f67-f86c648caee0","system_id":"levelo_inurba_marseille","lat":43.32476,"lon":5.36571,"is_reserved":false,"is_disabled":false,"rental_uris":{"android":"levelo://app?vid=b12facdc-e071-47de-9f67-f86c648caee0","ios":"levelo://app?vid=b12facdc-e071-47de-9f67-f86c648caee0"},"vehicle_type_id":"4","last_reported":1742804045,"current_range_meters":14800,"station_id":"ce4bhs12rcd13ifvqhvg","pricing_plan_id":"cebpf4jnsgd1na2vs0mg"},{"bike_id":"8b0044fa-37e4-42fc-bb47-64dd5d739dae","system_id":"levelo_inurba_marseille","lat":43.23063,"lon":5.35497,"is_reserved":false,"is_disabled":false,"rental_uris":{"android":"levelo://app?vid=8b0044fa-37e4-42fc-bb47-64dd5d739dae","ios":"levelo://app?vid=8b0044fa-37e4-42fc-bb47-64dd5d739dae"},"vehicle_type_id":"4","last_reported":1742804045,"current_range_meters":14800,"station_id":"cpo3342slgdg3j2ifvpg","pricing_plan_id":"cebpf4jnsgd1na2vs0mg"},{"bike_id":"2ded2aef-d386-4b12-bf94-6d80e6034554","system_id":"levelo_inurba_marseille","lat":43.335985,"lon":5.410197,"is_reserved":false,"is_disabled":false,"rental_uris":{"android":"levelo://app?vid=2ded2aef-d386-4b12-bf94-6d80e6034554","ios":"levelo://app?vid=2ded2aef-d386-4b12-bf94-6d80e6034554"},"vehicle_type_id":"4","last_reported":1742804045,"current_range_meters":14800,"station_id":"ce4bhqh2rcd13ifvqhmg","pricing_plan_id":"cebpf4jnsgd1na2vs0mg"},{"bike_id":"dcac929e-bfc7-4642-a3fd-df1c23a9d9e2","system_id":"levelo_inurba_marseille","lat":43.30889,"lon":5.37827,"is_reserved":false,"is_disabled":false,"rental_uris":{"android":"levelo://app?vid=dcac929e-bfc7-4642-a3fd-df1c23a9d9e2","ios":"levelo://app?vid=dcac929e-bfc7-4642-a3fd-df1c23a9d9e2"},"vehicle_type_id":"4","last_reported":1742804045,"current_range_meters":15200,"station_id":"","pricing_plan_id":"cebpf4jnsgd1na2vs0mg"},{"bike_id":"32c52765-d7d0-4271-9921-e60cde98e516","system_id":"levelo_inurba_marseille","lat":43.309152,"lon":5.401674,"is_reserved":false,"is_disabled":true,"rental_uris":{"android":"levelo://app?vid=32c52765-d7d0-4271-9921-e60cde98e516","ios":"levelo://app?vid=32c52765-d7d0-4271-9921-e60cde98e516"},"vehicle_type_id":"4","last_reported":1742804045,"current_range_meters":15200,"station_id":"ce4bgvp2rcd13ifvqct0","pricing_plan_id":"cebpf4jnsgd1na2vs0mg"},{"bike_id":"e6f49cb8-0786-4ec2-9267-b00ed3a09663","system_id":"levelo_inurba_marseille","lat":43.33592,"lon":5.41023,"is_reserved":false,"is_disabled":false,"rental_uris":{"android":"levelo://app?vid=e6f49cb8-0786-4ec2-9267-b00ed3a09663","ios":"levelo://app?vid=e6f49cb8-0786-4ec2-9267-b00ed3a09663"},"vehicle_type_id":"4","last_reported":1742804045,"current_range_meters":15200,"station_id":"ce4bhqh2rcd13ifvqhmg","pricing_plan_id":"cebpf4jnsgd1na2vs0mg"},{"bike_id":"b91e64e7-d25b-41c3-a6a4-73a829fb9e24","system_id":"levelo_inurba_marseille","lat":43.24164,"lon":5.39717,"is_reserved":false,"is_disabled":false,"rental_uris":{"android":"levelo://app?vid=b91e64e7-d25b-41c3-a6a4-73a829fb9e24","ios":"levelo://app?vid=b91e64e7-d25b-41c3-a6a4-73a829fb9e24"},"vehicle_type_id":"4","last_reported":1742804045,"current_range_meters":15200,"station_id":"ce4bhn12rcd13ifvqgpg","pricing_plan_id":"cebpf4jnsgd1na2vs0mg"},{"bike_id":"0d6ee2bc-5ea6-4a9b-99fb-57ef5619da37","system_id":"levelo_inurba_marseille","lat":43.27938,"lon":5.4106,"is_reserved":false,"is_disabled":false,"rental_uris":{"android":"levelo://app?vid=0d6ee2bc-5ea6-4a9b-99fb-57ef5619da37","ios":"levelo://app?vid=0d6ee2bc-5ea6-4a9b-99fb-57ef5619da37"},"vehicle_type_id":"4","last_reported":1742804045,"current_range_meters":15200,"station_id":"ce4bhnp2rcd13ifvqh0g","pricing_plan_id":"cebpf4jnsgd1na2vs0mg"},{"bike_id":"60fc9dc0-aa89-46d1-a71a-98cd30570cb9","system_id":"levelo_inurba_marseille","lat":43.25664,"lon":5.40989,"is_reserved":false,"is_disabled":false,"rental_uris":{"android":"levelo://app?vid=60fc9dc0-aa89-46d1-a71a-98cd30570cb9","ios":"levelo://app?vid=60fc9dc0-aa89-46d1-a71a-98cd30570cb9"},"vehicle_type_id":"4","last_reported":1742804045,"current_range_meters":16000,"station_id":"ce4bhkp2rcd13ifvqgd0","pricing_plan_id":"cebpf4jnsgd1na2vs0mg"},{"bike_id":"51d94d1d-c404-49b2-96be-b65a69716640","system_id":"levelo_inurba_marseille","lat":43.29201,"lon":5.39322,"is_reserved":false,"is_disabled":false,"rental_uris":{"android":"levelo://app?vid=51d94d1d-c404-49b2-96be-b65a69716640","ios":"levelo://app?vid=51d94d1d-c404-49b2-96be-b65a69716640"},"vehicle_type_id":"4","last_reported":1742804045,"current_range_meters":16000,"station_id":"ce4bh192rcd13ifvqdd0","pricing_plan_id":"cebpf4jnsgd1na2vs0mg"},{"bike_id":"7f869988-23aa-407e-80d8-3b578867d0d0","system_id":"levelo_inurba_marseille","lat":43.31227,"lon":5.36865,"is_reserved":false,"is_disabled":false,"rental_uris":{"android":"levelo://app?vid=7f869988-23aa-407e-80d8-3b578867d0d0","ios":"levelo://app?vid=7f869988-23aa-407e-80d8-3b578867d0d0"},"vehicle_type_id":"4","last_reported":1742804045,"current_range_meters":16000,"station_id":"ce4bgl92rcd13ifvqbq0","pricing_plan_id":"cebpf4jnsgd1na2vs0mg"},{"bike_id":"79078a36-a95b-40c6-a147-741eed07d033","system_id":"levelo_inurba_marseille","lat":43.290461,"lon":5.377992,"is_reserved":false,"is_disabled":false,"rental_uris":{"android":"levelo://app?vid=79078a36-a95b-40c6-a147-741eed07d033","ios":"levelo://app?vid=79078a36-a95b-40c6-a147-741eed07d033"},"vehicle_type_id":"4","last_reported":1742804045,"current_range_meters":16000,"station_id":"ce4bhap2rcd13ifvqek0","pricing_plan_id":"cebpf4jnsgd1na2vs0mg"},{"bike_id":"afde9b95-1fdd-4403-b679-302abb462ed4","system_id":"levelo_inurba_marseille","lat":43.30055,"lon":5.37245,"is_reserved":false,"is_disabled":false,"rental_uris":{"android":"levelo://app?vid=afde9b95-1fdd-4403-b679-302abb462ed4","ios":"levelo://app?vid=afde9b95-1fdd-4403-b679-302abb462ed4"},"vehicle_type_id":"4","last_reported":1742804045,"current_range_meters":16000,"station_id":"","pricing_plan_id":"cebpf4jnsgd1na2vs0mg"},{"bike_id":"aacabc2e-b5f4-4836-97cb-dd2be5b36748","system_id":"levelo_inurba_marseille","lat":43.30539,"lon":5.36712,"is_reserved":false,"is_disabled":false,"rental_uris":{"android":"levelo://app?vid=aacabc2e-b5f4-4836-97cb-dd2be5b36748","ios":"levelo://app?vid=aacabc2e-b5f4-4836-97cb-dd2be5b36748"},"vehicle_type_id":"4","last_reported":1742804045,"current_range_meters":16000,"station_id":"ce4bgrp2rcd13ifvqc9g","pricing_plan_id":"cebpf4jnsgd1na2vs0mg"},{"bike_id":"ce942f3c-c8bc-45ca-9166-50ef7d5bca2c","system_id":"levelo_inurba_marseille","lat":43.23069,"lon":5.35494,"is_reserved":false,"is_disabled":false,"rental_uris":{"android":"levelo://app?vid=ce942f3c-c8bc-45ca-9166-50ef7d5bca2c","ios":"levelo://app?vid=ce942f3c-c8bc-45ca-9166-50ef7d5bca2c"},"vehicle_type_id":"4","last_reported":1742804045,"current_range_meters":16000,"station_id":"cpo3342slgdg3j2ifvpg","pricing_plan_id":"cebpf4jnsgd1na2vs0mg"},{"bike_id":"11a49c7b-5038-411f-a240-88e098d89f73","system_id":"levelo_inurba_marseille","lat":43.26562,"lon":5.38995,"is_reserved":false,"is_disabled":false,"rental_uris":{"android":"levelo://app?vid=11a49c7b-5038-411f-a240-88e098d89f73","ios":"levelo://app?vid=11a49c7b-5038-411f-a240-88e098d89f73"},"vehicle_type_id":"4","last_reported":1742804045,"current_range_meters":16000,"station_id":"ce4bhe12rcd13ifvqf30","pricing_plan_id":"cebpf4jnsgd1na2vs0mg"},{"bike_id":"757e9d77-3e68-4058-adbb-ffeaa3762057","system_id":"levelo_inurba_marseille","lat":43.257271,"lon":5.411065,"is_reserved":false,"is_disabled":false,"rental_uris":{"android":"levelo://app?vid=757e9d77-3e68-4058-adbb-ffeaa3762057","ios":"levelo://app?vid=757e9d77-3e68-4058-adbb-ffeaa3762057"},"vehicle_type_id":"4","last_reported":1742804045,"current_range_meters":16000,"station_id":"ce4bhkp2rcd13ifvqgd0","pricing_plan_id":"cebpf4jnsgd1na2vs0mg"},{"bike_id":"d0a0bd07-f50d-421d-b666-a51e05edc038","system_id":"levelo_inurba_marseille","lat":43.31332,"lon":5.36739,"is_reserved":false,"is_disabled":false,"rental_uris":{"android":"levelo://app?vid=d0a0bd07-f50d-421d-b666-a51e05edc038","ios":"levelo://app?vid=d0a0bd07-f50d-421d-b666-a51e05edc038"},"vehicle_type_id":"4","last_reported":1742804045,"current_range_meters":16400,"station_id":"ce4bgr92rcd13ifvqc6g","pricing_plan_id":"cebpf4jnsgd1na2vs0mg"},{"bike_id":"2ba0f073-e0c1-4981-8b66-b0ecda6f1fe8","system_id":"levelo_inurba_marseille","lat":43.27806,"lon":5.40717,"is_reserved":false,"is_disabled":true,"rental_uris":{"android":"levelo://app?vid=2ba0f073-e0c1-4981-8b66-b0ecda6f1fe8","ios":"levelo://app?vid=2ba0f073-e0c1-4981-8b66-b0ecda6f1fe8"},"vehicle_type_id":"4","last_reported":1742804045,"current_range_meters":16400,"station_id":"ce4bhnh2rcd13ifvqgtg","pricing_plan_id":"cebpf4jnsgd1na2vs0mg"},{"bike_id":"d1adfc43-e43c-4f7c-aa18-df37eb15e88e","system_id":"levelo_inurba_marseille","lat":43.299671,"lon":5.413353,"is_reserved":false,"is_disabled":true,"rental_uris":{"android":"levelo://app?vid=d1adfc43-e43c-4f7c-aa18-df37eb15e88e","ios":"levelo://app?vid=d1adfc43-e43c-4f7c-aa18-df37eb15e88e"},"vehicle_type_id":"4","last_reported":1742804045,"current_range_meters":16400,"station_id":"ce4bhp12rcd13ifvqh9g","pricing_plan_id":"cebpf4jnsgd1na2vs0mg"},{"bike_id":"e07ea2d7-5b46-4660-b60c-44f8cf6d528d","system_id":"levelo_inurba_marseille","lat":43.23162,"lon":5.43725,"is_reserved":false,"is_disabled":false,"rental_uris":{"android":"levelo://app?vid=e07ea2d7-5b46-4660-b60c-44f8cf6d528d","ios":"levelo://app?vid=e07ea2d7-5b46-4660-b60c-44f8cf6d528d"},"vehicle_type_id":"4","last_reported":1742804045,"current_range_meters":16400,"station_id":"ce4bhmp2rcd13ifvqgog","pricing_plan_id":"cebpf4jnsgd1na2vs0mg"},{"bike_id":"210f7b2b-8604-493c-98c4-dee5ecdd6e0a","system_id":"levelo_inurba_marseille","lat":43.31354,"lon":5.3673,"is_reserved":false,"is_disabled":false,"rental_uris":{"android":"levelo://app?vid=210f7b2b-8604-493c-98c4-dee5ecdd6e0a","ios":"levelo://app?vid=210f7b2b-8604-493c-98c4-dee5ecdd6e0a"},"vehicle_type_id":"4","last_reported":1742804045,"current_range_meters":16400,"station_id":"ce4bgr92rcd13ifvqc6g","pricing_plan_id":"cebpf4jnsgd1na2vs0mg"},{"bike_id":"f5b6c758-f9ac-4fbd-9057-723b47ec4814","system_id":"levelo_inurba_marseille","lat":43.30126,"lon":5.37401,"is_reserved":false,"is_disabled":false,"rental_uris":{"android":"levelo://app?vid=f5b6c758-f9ac-4fbd-9057-723b47ec4814","ios":"levelo://app?vid=f5b6c758-f9ac-4fbd-9057-723b47ec4814"},"vehicle_type_id":"4","last_reported":1742804045,"current_range_meters":16400,"station_id":"ce4bgs92rcd13ifvqcc0","pricing_plan_id":"cebpf4jnsgd1na2vs0mg"},{"bike_id":"6379133d-24a7-402c-887e-cf1ec5f697ce","system_id":"levelo_inurba_marseille","lat":43.28661,"lon":5.36347,"is_reserved":false,"is_disabled":false,"rental_uris":{"android":"levelo://app?vid=6379133d-24a7-402c-887e-cf1ec5f697ce","ios":"levelo://app?vid=6379133d-24a7-402c-887e-cf1ec5f697ce"},"vehicle_type_id":"4","last_reported":1742804045,"current_range_meters":16400,"station_id":"ce4bhah2rcd13ifvqej0","pricing_plan_id":"cebpf4jnsgd1na2vs0mg"},{"bike_id":"0f04486c-4261-48f0-bbdd-18a64ad89c31","system_id":"levelo_inurba_marseille","lat":43.31654,"lon":5.39433,"is_reserved":false,"is_disabled":false,"rental_uris":{"android":"levelo://app?vid=0f04486c-4261-48f0-bbdd-18a64ad89c31","ios":"levelo://app?vid=0f04486c-4261-48f0-bbdd-18a64ad89c31"},"vehicle_type_id":"4","last_reported":1742804045,"current_range_meters":16400,"station_id":"","pricing_plan_id":"cebpf4jnsgd1na2vs0mg"},{"bike_id":"5a837cb4-7806-48ac-9b64-d6680b6ef0c7","system_id":"levelo_inurba_marseille","lat":43.29673,"lon":5.42749,"is_reserved":false,"is_disabled":false,"rental_uris":{"android":"levelo://app?vid=5a837cb4-7806-48ac-9b64-d6680b6ef0c7","ios":"levelo://app?vid=5a837cb4-7806-48ac-9b64-d6680b6ef0c7"},"vehicle_type_id":"4","last_reported":1742804045,"current_range_meters":16400,"station_id":"","pricing_plan_id":"cebpf4jnsgd1na2vs0mg"},{"bike_id":"68bf77d1-f7b2-4f13-a7d4-868a5c8aaa5b","system_id":"levelo_inurba_marseille","lat":43.24651,"lon":5.38901,"is_reserved":false,"is_disabled":false,"rental_uris":{"android":"levelo://app?vid=68bf77d1-f7b2-4f13-a7d4-868a5c8aaa5b","ios":"levelo://app?vid=68bf77d1-f7b2-4f13-a7d4-868a5c8aaa5b"},"vehicle_type_id":"4","last_reported":1742804045,"current_range_meters":16400,"station_id":"ce4bhg12rcd13ifvqf60","pricing_plan_id":"cebpf4jnsgd1na2vs0mg"},{"bike_id":"494e9189-a7ef-478d-aeb2-f6472591e80d","system_id":"levelo_inurba_marseille","lat":43.23143,"lon":5.43712,"is_reserved":false,"is_disabled":false,"rental_uris":{"android":"levelo://app?vid=494e9189-a7ef-478d-aeb2-f6472591e80d","ios":"levelo://app?vid=494e9189-a7ef-478d-aeb2-f6472591e80d"},"vehicle_type_id":"4","last_reported":1742804045,"current_range_meters":16400,"station_id":"ce4bhmp2rcd13ifvqgog","pricing_plan_id":"cebpf4jnsgd1na2vs0mg"},{"bike_id":"dfb041f4-1d00-4dc0-a1c5-458d281371c5","system_id":"levelo_inurba_marseille","lat":43.3248,"lon":5.3659,"is_reserved":false,"is_disabled":false,"rental_uris":{"android":"levelo://app?vid=dfb041f4-1d00-4dc0-a1c5-458d281371c5","ios":"levelo://app?vid=dfb041f4-1d00-4dc0-a1c5-458d281371c5"},"vehicle_type_id":"4","last_reported":1742804045,"current_range_meters":16800,"station_id":"ce4bhs12rcd13ifvqhvg","pricing_plan_id":"cebpf4jnsgd1na2vs0mg"},{"bike_id":"3c5f6d1c-8e84-4f98-930c-f2d0d12ae2dc","system_id":"levelo_inurba_marseille","lat":43.29714,"lon":5.37956,"is_reserved":false,"is_disabled":false,"rental_uris":{"android":"levelo://app?vid=3c5f6d1c-8e84-4f98-930c-f2d0d12ae2dc","ios":"levelo://app?vid=3c5f6d1c-8e84-4f98-930c-f2d0d12ae2dc"},"vehicle_type_id":"4","last_reported":1742804045,"current_range_meters":16800,"station_id":"","pricing_plan_id":"cebpf4jnsgd1na2vs0mg"},{"bike_id":"82c55594-ce21-4ae6-8cf2-e3c4eb8b2c96","system_id":"levelo_inurba_marseille","lat":43.30907,"lon":5.36843,"is_reserved":false,"is_disabled":false,"rental_uris":{"android":"levelo://app?vid=82c55594-ce21-4ae6-8cf2-e3c4eb8b2c96","ios":"levelo://app?vid=82c55594-ce21-4ae6-8cf2-e3c4eb8b2c96"},"vehicle_type_id":"4","last_reported":1742804045,"current_range_meters":16800,"station_id":"ce4bgn92rcd13ifvqbvg","pricing_plan_id":"cebpf4jnsgd1na2vs0mg"},{"bike_id":"bd83da15-2b96-46f4-b7e1-0ce0a67b95d9","system_id":"levelo_inurba_marseille","lat":43.27899,"lon":5.38018,"is_reserved":false,"is_disabled":false,"rental_uris":{"android":"levelo://app?vid=bd83da15-2b96-46f4-b7e1-0ce0a67b95d9","ios":"levelo://app?vid=bd83da15-2b96-46f4-b7e1-0ce0a67b95d9"},"vehicle_type_id":"4","last_reported":1742804045,"current_range_meters":16800,"station_id":"ce4bhf92rcd13ifvqf50","pricing_plan_id":"cebpf4jnsgd1na2vs0mg"},{"bike_id":"4b10aae3-225f-48c5-b906-e289059223d9","system_id":"levelo_inurba_marseille","lat":43.2733,"lon":5.39079,"is_reserved":false,"is_disabled":false,"rental_uris":{"android":"levelo://app?vid=4b10aae3-225f-48c5-b906-e289059223d9","ios":"levelo://app?vid=4b10aae3-225f-48c5-b906-e289059223d9"},"vehicle_type_id":"4","last_reported":1742804045,"current_range_meters":16800,"station_id":"ce4bhgp2rcd13ifvqfe0","pricing_plan_id":"cebpf4jnsgd1na2vs0mg"},{"bike_id":"9e0aa70d-46be-49fd-ac8d-9cad19ef0031","system_id":"levelo_inurba_marseille","lat":43.308251,"lon":5.375351,"is_reserved":false,"is_disabled":false,"rental_uris":{"android":"levelo://app?vid=9e0aa70d-46be-49fd-ac8d-9cad19ef0031","ios":"levelo://app?vid=9e0aa70d-46be-49fd-ac8d-9cad19ef0031"},"vehicle_type_id":"4","last_reported":1742804045,"current_range_meters":16800,"station_id":"","pricing_plan_id":"cebpf4jnsgd1na2vs0mg"},{"bike_id":"a5446fa9-b2f7-45f6-bfb4-1335cb6018ff","system_id":"levelo_inurba_marseille","lat":43.230668,"lon":5.354936,"is_reserved":false,"is_disabled":false,"rental_uris":{"android":"levelo://app?vid=a5446fa9-b2f7-45f6-bfb4-1335cb6018ff","ios":"levelo://app?vid=a5446fa9-b2f7-45f6-bfb4-1335cb6018ff"},"vehicle_type_id":"4","last_reported":1742804045,"current_range_meters":16800,"station_id":"cpo3342slgdg3j2ifvpg","pricing_plan_id":"cebpf4jnsgd1na2vs0mg"},{"bike_id":"865fc802-c325-4b12-83c0-48fd2ae9da14","system_id":"levelo_inurba_marseille","lat":43.30946,"lon":5.39028,"is_reserved":false,"is_disabled":false,"rental_uris":{"android":"levelo://app?vid=865fc802-c325-4b12-83c0-48fd2ae9da14","ios":"levelo://app?vid=865fc802-c325-4b12-83c0-48fd2ae9da14"},"vehicle_type_id":"4","last_reported":1742804045,"current_range_meters":16800,"station_id":"ce4bgup2rcd13ifvqco0","pricing_plan_id":"cebpf4jnsgd1na2vs0mg"},{"bike_id":"3b92dbdd-25f3-4387-9d5a-02c5bf280819","system_id":"levelo_inurba_marseille","lat":43.24557,"lon":5.39542,"is_reserved":false,"is_disabled":false,"rental_uris":{"android":"levelo://app?vid=3b92dbdd-25f3-4387-9d5a-02c5bf280819","ios":"levelo://app?vid=3b92dbdd-25f3-4387-9d5a-02c5bf280819"},"vehicle_type_id":"4","last_reported":1742804045,"current_range_meters":16800,"station_id":"ce4bhlp2rcd13ifvqgjg","pricing_plan_id":"cebpf4jnsgd1na2vs0mg"},{"bike_id":"0588399f-c86f-433c-b4af-e8e4e2319b08","system_id":"levelo_inurba_marseille","lat":43.32122,"lon":5.36776,"is_reserved":false,"is_disabled":false,"rental_uris":{"android":"levelo://app?vid=0588399f-c86f-433c-b4af-e8e4e2319b08","ios":"levelo://app?vid=0588399f-c86f-433c-b4af-e8e4e2319b08"},"vehicle_type_id":"4","last_reported":1742804045,"current_range_meters":16800,"station_id":"ce4bhrh2rcd13ifvqhug","pricing_plan_id":"cebpf4jnsgd1na2vs0mg"},{"bike_id":"46fc8030-f736-4758-8fff-960db363a17e","system_id":"levelo_inurba_marseille","lat":43.30156,"lon":5.37424,"is_reserved":false,"is_disabled":true,"rental_uris":{"android":"levelo://app?vid=46fc8030-f736-4758-8fff-960db363a17e","ios":"levelo://app?vid=46fc8030-f736-4758-8fff-960db363a17e"},"vehicle_type_id":"4","last_reported":1742804045,"current_range_meters":16800,"station_id":"ce4bgs92rcd13ifvqcc0","pricing_plan_id":"cebpf4jnsgd1na2vs0mg"},{"bike_id":"d0378c28-2ab6-47f3-9248-f012c7b13062","system_id":"levelo_inurba_marseille","lat":43.27661,"lon":5.38905,"is_reserved":false,"is_disabled":true,"rental_uris":{"android":"levelo://app?vid=d0378c28-2ab6-47f3-9248-f012c7b13062","ios":"levelo://app?vid=d0378c28-2ab6-47f3-9248-f012c7b13062"},"vehicle_type_id":"4","last_reported":1742804045,"current_range_meters":17200,"station_id":"ce4bhi12rcd13ifvqfo0","pricing_plan_id":"cebpf4jnsgd1na2vs0mg"},{"bike_id":"45108df1-d8ff-4e14-9429-1c1dadf15cfe","system_id":"levelo_inurba_marseille","lat":43.24089,"lon":5.37793,"is_reserved":false,"is_disabled":false,"rental_uris":{"android":"levelo://app?vid=45108df1-d8ff-4e14-9429-1c1dadf15cfe","ios":"levelo://app?vid=45108df1-d8ff-4e14-9429-1c1dadf15cfe"},"vehicle_type_id":"4","last_reported":1742804045,"current_range_meters":17200,"station_id":"ce4bhnp2rcd13ifvqgvg","pricing_plan_id":"cebpf4jnsgd1na2vs0mg"},{"bike_id":"a0a76abd-f1a0-42b4-b75c-cc3cea312f46","system_id":"levelo_inurba_marseille","lat":43.30541,"lon":5.36715,"is_reserved":false,"is_disabled":false,"rental_uris":{"android":"levelo://app?vid=a0a76abd-f1a0-42b4-b75c-cc3cea312f46","ios":"levelo://app?vid=a0a76abd-f1a0-42b4-b75c-cc3cea312f46"},"vehicle_type_id":"4","last_reported":1742804045,"current_range_meters":17200,"station_id":"ce4bgrp2rcd13ifvqc9g","pricing_plan_id":"cebpf4jnsgd1na2vs0mg"},{"bike_id":"014df70c-3d58-4b9e-9bcb-c35a3eb714cc","system_id":"levelo_inurba_marseille","lat":43.30553,"lon":5.36713,"is_reserved":false,"is_disabled":false,"rental_uris":{"android":"levelo://app?vid=014df70c-3d58-4b9e-9bcb-c35a3eb714cc","ios":"levelo://app?vid=014df70c-3d58-4b9e-9bcb-c35a3eb714cc"},"vehicle_type_id":"4","last_reported":1742804045,"current_range_meters":17200,"station_id":"ce4bgrp2rcd13ifvqc9g","pricing_plan_id":"cebpf4jnsgd1na2vs0mg"},{"bike_id":"7f9b2e17-cff5-4571-89a8-faf216bdaffa","system_id":"levelo_inurba_marseille","lat":43.2539,"lon":5.41346,"is_reserved":false,"is_disabled":false,"rental_uris":{"android":"levelo://app?vid=7f9b2e17-cff5-4571-89a8-faf216bdaffa","ios":"levelo://app?vid=7f9b2e17-cff5-4571-89a8-faf216bdaffa"},"vehicle_type_id":"4","last_reported":1742804045,"current_range_meters":17200,"station_id":"","pricing_plan_id":"cebpf4jnsgd1na2vs0mg"},{"bike_id":"fc6717f8-2115-4e76-8024-9374d91591ae","system_id":"levelo_inurba_marseille","lat":43.28442,"lon":5.39216,"is_reserved":false,"is_disabled":false,"rental_uris":{"android":"levelo://app?vid=fc6717f8-2115-4e76-8024-9374d91591ae","ios":"levelo://app?vid=fc6717f8-2115-4e76-8024-9374d91591ae"},"vehicle_type_id":"4","last_reported":1742804045,"current_range_meters":17200,"station_id":"ce4bhoh2rcd13ifvqh5g","pricing_plan_id":"cebpf4jnsgd1na2vs0mg"},{"bike_id":"10cd0674-8ad1-4c13-958f-ed6aa40a0a2c","system_id":"levelo_inurba_marseille","lat":43.241684,"lon":5.397453,"is_reserved":false,"is_disabled":false,"rental_uris":{"android":"levelo://app?vid=10cd0674-8ad1-4c13-958f-ed6aa40a0a2c","ios":"levelo://app?vid=10cd0674-8ad1-4c13-958f-ed6aa40a0a2c"},"vehicle_type_id":"4","last_reported":1742804045,"current_range_meters":17200,"station_id":"ce4bhn12rcd13ifvqgpg","pricing_plan_id":"cebpf4jnsgd1na2vs0mg"},{"bike_id":"41f8bfbb-c4b3-417a-af98-41f675605b76","system_id":"levelo_inurba_marseille","lat":43.30132,"lon":5.37424,"is_reserved":false,"is_disabled":false,"rental_uris":{"android":"levelo://app?vid=41f8bfbb-c4b3-417a-af98-41f675605b76","ios":"levelo://app?vid=41f8bfbb-c4b3-417a-af98-41f675605b76"},"vehicle_type_id":"4","last_reported":1742804045,"current_range_meters":17200,"station_id":"ce4bgs92rcd13ifvqcc0","pricing_plan_id":"cebpf4jnsgd1na2vs0mg"},{"bike_id":"f85ad57a-7de5-4c69-8f8f-b66bd4b03546","system_id":"levelo_inurba_marseille","lat":43.30538,"lon":5.36719,"is_reserved":false,"is_disabled":false,"rental_uris":{"android":"levelo://app?vid=f85ad57a-7de5-4c69-8f8f-b66bd4b03546","ios":"levelo://app?vid=f85ad57a-7de5-4c69-8f8f-b66bd4b03546"},"vehicle_type_id":"4","last_reported":1742804045,"current_range_meters":17200,"station_id":"ce4bgrp2rcd13ifvqc9g","pricing_plan_id":"cebpf4jnsgd1na2vs0mg"},{"bike_id":"94e87bff-6c28-4d4c-afa7-93a8163cb6d3","system_id":"levelo_inurba_marseille","lat":43.3169,"lon":5.40479,"is_reserved":false,"is_disabled":false,"rental_uris":{"android":"levelo://app?vid=94e87bff-6c28-4d4c-afa7-93a8163cb6d3","ios":"levelo://app?vid=94e87bff-6c28-4d4c-afa7-93a8163cb6d3"},"vehicle_type_id":"4","last_reported":1742804045,"current_range_meters":16800,"station_id":"ce4bh012rcd13ifvqd00","pricing_plan_id":"cebpf4jnsgd1na2vs0mg"},{"bike_id":"90d86941-e048-4ccd-b98e-e1802345de6e","system_id":"levelo_inurba_marseille","lat":43.26055,"lon":5.39384,"is_reserved":false,"is_disabled":true,"rental_uris":{"android":"levelo://app?vid=90d86941-e048-4ccd-b98e-e1802345de6e","ios":"levelo://app?vid=90d86941-e048-4ccd-b98e-e1802345de6e"},"vehicle_type_id":"4","last_reported":1742804045,"current_range_meters":17200,"station_id":"ce4bhh92rcd13ifvqfj0","pricing_plan_id":"cebpf4jnsgd1na2vs0mg"},{"bike_id":"1989f9c3-6156-47a7-8f6e-689a009b64a2","system_id":"levelo_inurba_marseille","lat":43.31212,"lon":5.36852,"is_reserved":false,"is_disabled":false,"rental_uris":{"android":"levelo://app?vid=1989f9c3-6156-47a7-8f6e-689a009b64a2","ios":"levelo://app?vid=1989f9c3-6156-47a7-8f6e-689a009b64a2"},"vehicle_type_id":"4","last_reported":1742804045,"current_range_meters":17600,"station_id":"ce4bgl92rcd13ifvqbq0","pricing_plan_id":"cebpf4jnsgd1na2vs0mg"},{"bike_id":"9a3b5e62-7140-4847-a46d-6597d6398a5a","system_id":"levelo_inurba_marseille","lat":43.26962,"lon":5.38649,"is_reserved":false,"is_disabled":false,"rental_uris":{"android":"levelo://app?vid=9a3b5e62-7140-4847-a46d-6597d6398a5a","ios":"levelo://app?vid=9a3b5e62-7140-4847-a46d-6597d6398a5a"},