{"last_updated":1698829617,"ttl":30,"version":"2.2","data":{"bikes":[{"bike_id":"986997bf-e04b-4b69-a270-0c779b2e651b","system_id":"levelo_inurba_marseille","lat":43.31341,"lon":5.367098,"is_reserved":false,"is_disabled":false,"rental_uris":{"android":"levelo://app?vid=986997bf-e04b-4b69-a270-0c779b2e651b","ios":"levelo://app?vid=986997bf-e04b-4b69-a270-0c779b2e651b"},"vehicle_type_id":"4","last_reported":1698829618,"current_range_meters":27600,"station_id":"ce4bgr92rcd13ifvqc6g","pricing_plan_id":"free"},{"bike_id":"f635d9a0-eee5-4ebb-8993-9b00e62230ad","system_id":"levelo_inurba_marseille","lat":43.31241,"lon":5.36856,"is_reserved":false,"is_disabled":false,"rental_uris":{"android":"levelo://app?vid=f635d9a0-eee5-4ebb-8993-9b00e62230ad","ios":"levelo://app?vid=f635d9a0-eee5-4ebb-8993-9b00e62230ad"},"vehicle_type_id":"4","last_reported":1698829618,"current_range_meters":26800,"station_id":"","pricing_plan_id":"free"},{"bike_id":"71347b79-d35d-4e90-b3d2-cd1bcd858252","system_id":"levelo_inurba_marseille","lat":43.312239,"lon":5.368562,"is_reserved":false,"is_disabled":false,"rental_uris":{"android":"levelo://app?vid=71347b79-d35d-4e90-b3d2-cd1bcd858252","ios":"levelo://app?vid=71347b79-d35d-4e90-b3d2-cd1bcd858252"},"vehicle_type_id":"4","last_reported":1698829618,"current_range_meters":2000,"station_id":"ce4bgl92rcd13ifvqbq0","pricing_plan_id":"free"},{"bike_id":"b1cb48cb-22d4-4cd4-97b0-038c1cf723b7","system_id":"levelo_inurba_marseille","lat":43.315186,"lon":5.371432,"is_reserved":false,"is_disabled":false,"rental_uris":{"android":"levelo://app?vid=b1cb48cb-22d4-4cd4-97b0-038c1cf723b7","ios":"levelo://app?vid=b1cb48cb-22d4-4cd4-97b0-038c1cf723b7"},"vehicle_type_id":"4","last_reported":1698829618,"current_range_meters":4400,"station_id":"","pricing_plan_id":"free"},{"bike_id":"fcb7a0d3-b181-456e-97fd-34c32b836426","system_id":"levelo_inurba_marseille","lat":43.314811,"lon":5.373103,"is_reserved":false,"is_disabled":false,"rental_uris":{"android":"levelo://app?vid=fcb7a0d3-b181-456e-97fd-34c32b836426","ios":"levelo://app?vid=fcb7a0d3-b181-456e-97fd-34c32b836426"},"vehicle_type_id":"4","last_reported":1698829618,"current_range_meters":30000,"station_id":"ce4bgt12rcd13ifvqcd0","pricing_plan_id":"free"},{"bike_id":"3f91eb69-14ab-42e2-b3aa-2508d17b04b3","system_id":"levelo_inurba_marseille","lat":43.314811,"lon":5.373103,"is_reserved":false,"is_disabled":false,"rental_uris":{"android":"levelo://app?vid=3f91eb69-14ab-42e2-b3aa-2508d17b04b3","ios":"levelo://app?vid=3f91eb69-14ab-42e2-b3aa-2508d17b04b3"},"vehicle_type_id":"4","last_reported":1698829618,"current_range_meters":19600,"station_id":"ce4bgt12rcd13ifvqcd0","pricing_plan_id":"free"},{"bike_id":"89b6e4d0-c0df-45f9-9318-99c1af353bc3","system_id":"levelo_inurba_marseille","lat":43.305714,"lon":5.365633,"is_reserved":false,"is_disabled":false,"rental_uris":{"android":"levelo://app?vid=89b6e4d0-c0df-45f9-9318-99c1af353bc3","ios":"levelo://app?vid=89b6e4d0-c0df-45f9-9318-99c1af353bc3"},"vehicle_type_id":"4","last_reported":1698829618,"current_range_meters":23200,"station_id":"ce4bgs12rcd13ifvqcag","pricing_plan_id":"free"},{"bike_id":"f252b071-dddd-4e5f-ad07-506846af6d1a","system_id":"levelo_inurba_marseille","lat":43.30546,"lon":5.36539,"is_reserved":false,"is_disabled":false,"rental_uris":{"android":"levelo://app?vid=f252b071-dddd-4e5f-ad07-506846af6d1a","ios":"levelo://app?vid=f252b071-dddd-4e5f-ad07-506846af6d1a"},"vehicle_type_id":"4","last_reported":1698829618,"current_range_meters":20000,"station_id":"ce4bgs12rcd13ifvqcag","pricing_plan_id":"free"},{"bike_id":"d0552375-1856-41f5-8fd3-3466c4b85e1b","system_id":"levelo_inurba_marseille","lat":43.30542,"lon":5.36555,"is_reserved":false,"is_disabled":false,"rental_uris":{"android":"levelo://app?vid=d0552375-1856-41f5-8fd3-3466c4b85e1b","ios":"levelo://app?vid=d0552375-1856-41f5-8fd3-3466c4b85e1b"},"vehicle_type_id":"4","last_reported":1698829618,"current_range_meters":26000,"station_id":"ce4bgs12rcd13ifvqcag","pricing_plan_id":"free"},{"bike_id":"0b6cf204-7a33-4f3c-ac38-53a1030c4dff","system_id":"levelo_inurba_marseille","lat":43.30544,"lon":5.36533,"is_reserved":false,"is_disabled":false,"rental_uris":{"android":"levelo://app?vid=0b6cf204-7a33-4f3c-ac38-53a1030c4dff","ios":"levelo://app?vid=0b6cf204-7a33-4f3c-ac38-53a1030c4dff"},"vehicle_type_id":"4","last_reported":1698829618,"current_range_meters":28000,"station_id":"ce4bgs12rcd13ifvqcag","pricing_plan_id":"free"},{"bike_id":"1c9f040a-d765-40f7-ae2e-b056d92ef483","system_id":"levelo_inurba_marseille","lat":43.305714,"lon":5.365633,"is_reserved":false,"is_disabled":false,"rental_uris":{"android":"levelo://app?vid=1c9f040a-d765-40f7-ae2e-b056d92ef483","ios":"levelo://app?vid=1c9f040a-d765-40f7-ae2e-b056d92ef483"},"vehicle_type_id":"4","last_reported":1698829618,"current_range_meters":19200,"station_id":"ce4bgs12rcd13ifvqcag","pricing_plan_id":"free"},{"bike_id":"2b6e8bfa-3bf4-447a-a13c-afba11755d92","system_id":"levelo_inurba_marseille","lat":43.30534,"lon":5.36553,"is_reserved":false,"is_disabled":false,"rental_uris":{"android":"levelo://app?vid=2b6e8bfa-3bf4-447a-a13c-afba11755d92","ios":"levelo://app?vid=2b6e8bfa-3bf4-447a-a13c-afba11755d92"},"vehicle_type_id":"4","last_reported":1698829618,"current_range_meters":28400,"station_id":"ce4bgs12rcd13ifvqcag","pricing_plan_id":"free"},{"bike_id":"cde09343-cb34-42b4-bd82-ba3dc99ca7a9","system_id":"levelo_inurba_marseille","lat":43.319338,"lon":5.372622,"is_reserved":false,"is_disabled":false,"rental_uris":{"android":"levelo://app?vid=cde09343-cb34-42b4-bd82-ba3dc99ca7a9","ios":"levelo://app?vid=cde09343-cb34-42b4-bd82-ba3dc99ca7a9"},"vehicle_type_id":"4","last_reported":1698829618,"current_range_meters":21200,"station_id":"ce4bhqp2rcd13ifvqhng","pricing_plan_id":"free"},{"bike_id":"bf1dede2-c51f-4e7b-b230-4f3fa3807de0","system_id":"levelo_inurba_marseille","lat":43.311188,"lon":5.377591,"is_reserved":false,"is_disabled":false,"rental_uris":{"android":"levelo://app?vid=bf1dede2-c51f-4e7b-b230-4f3fa3807de0","ios":"levelo://app?vid=bf1dede2-c51f-4e7b-b230-4f3fa3807de0"},"vehicle_type_id":"4","last_reported":1698829618,"current_range_meters":11200,"station_id":"ce4bgt92rcd13ifvqcg0","pricing_plan_id":"free"},{"bike_id":"11498dd4-ecbc-45fd-a2f2-606cf0e24a75","system_id":"levelo_inurba_marseille","lat":43.311125,"lon":5.377624,"is_reserved":false,"is_disabled":false,"rental_uris":{"android":"levelo://app?vid=11498dd4-ecbc-45fd-a2f2-606cf0e24a75","ios":"levelo://app?vid=11498dd4-ecbc-45fd-a2f2-606cf0e24a75"},"vehicle_type_id":"4","last_reported":1698829618,"current_range_meters":30800,"station_id":"ce4bgt92rcd13ifvqcg0","pricing_plan_id":"free"},{"bike_id":"60ad32bf-ef2a-4611-8bbd-c54b435f4bbc","system_id":"levelo_inurba_marseille","lat":43.311133,"lon":5.377659,"is_reserved":false,"is_disabled":false,"rental_uris":{"android":"levelo://app?vid=60ad32bf-ef2a-4611-8bbd-c54b435f4bbc","ios":"levelo://app?vid=60ad32bf-ef2a-4611-8bbd-c54b435f4bbc"},"vehicle_type_id":"4","last_reported":1698829618,"current_range_meters":18000,"station_id":"ce4bgt92rcd13ifvqcg0","pricing_plan_id":"free"},{"bike_id":"84369dd8-10df-41ce-9dab-b3c4e0c7d560","system_id":"levelo_inurba_marseille","lat":43.31122,"lon":5.37772,"is_reserved":false,"is_disabled":false,"rental_uris":{"android":"levelo://app?vid=84369dd8-10df-41ce-9dab-b3c4e0c7d560","ios":"levelo://app?vid=84369dd8-10df-41ce-9dab-b3c4e0c7d560"},"vehicle_type_id":"4","last_reported":1698829618,"current_range_meters":4800,"station_id":"ce4bgt92rcd13ifvqcg0","pricing_plan_id":"free"},{"bike_id":"f0f4de4f-92bc-47ef-b944-6683e06a3164","system_id":"levelo_inurba_marseille","lat":43.317167,"lon":5.377407,"is_reserved":false,"is_disabled":false,"rental_uris":{"android":"levelo://app?vid=f0f4de4f-92bc-47ef-b944-6683e06a3164","ios":"levelo://app?vid=f0f4de4f-92bc-47ef-b944-6683e06a3164"},"vehicle_type_id":"4","last_reported":1698829618,"current_range_meters":31200,"station_id":"ce4bgth2rcd13ifvqch0","pricing_plan_id":"free"},{"bike_id":"a85ea2f1-b11c-432c-acef-4d11871cee58","system_id":"levelo_inurba_marseille","lat":43.322635,"lon":5.36771,"is_reserved":false,"is_disabled":false,"rental_uris":{"android":"levelo://app?vid=a85ea2f1-b11c-432c-acef-4d11871cee58","ios":"levelo://app?vid=a85ea2f1-b11c-432c-acef-4d11871cee58"},"vehicle_type_id":"4","last_reported":1698829618,"current_range_meters":4800,"station_id":"","pricing_plan_id":"free"},{"bike_id":"d0ab3e9e-a9ff-4b32-8ce2-ded417d0c2df","system_id":"levelo_inurba_marseille","lat":43.322362,"lon":5.370442,"is_reserved":false,"is_disabled":false,"rental_uris":{"android":"levelo://app?vid=d0ab3e9e-a9ff-4b32-8ce2-ded417d0c2df","ios":"levelo://app?vid=d0ab3e9e-a9ff-4b32-8ce2-ded417d0c2df"},"vehicle_type_id":"4","last_reported":1698829618,"current_range_meters":31200,"station_id":"","pricing_plan_id":"free"},{"bike_id":"3e4f8598-a592-4229-9042-7cc84afe0b9f","system_id":"levelo_inurba_marseille","lat":43.315333,"lon":5.380235,"is_reserved":false,"is_disabled":false,"rental_uris":{"android":"levelo://app?vid=3e4f8598-a592-4229-9042-7cc84afe0b9f","ios":"levelo://app?vid=3e4f8598-a592-4229-9042-7cc84afe0b9f"},"vehicle_type_id":"4","last_reported":1698829618,"current_range_meters":8400,"station_id":"ce4bhsp2rcd13ifvqi50","pricing_plan_id":"free"},{"bike_id":"528b934a-9be8-4fd0-96d5-c0bf9a00c1cb","system_id":"levelo_inurba_marseille","lat":43.315298,"lon":5.38026,"is_reserved":false,"is_disabled":false,"rental_uris":{"android":"levelo://app?vid=528b934a-9be8-4fd0-96d5-c0bf9a00c1cb","ios":"levelo://app?vid=528b934a-9be8-4fd0-96d5-c0bf9a00c1cb"},"vehicle_type_id":"4","last_reported":1698829618,"current_range_meters":9200,"station_id":"ce4bhsp2rcd13ifvqi50","pricing_plan_id":"free"},{"bike_id":"5947a2f3-dafc-42b0-8d53-7923e7712820","system_id":"levelo_inurba_marseille","lat":43.301939,"lon":5.366286,"is_reserved":false,"is_disabled":false,"rental_uris":{"android":"levelo://app?vid=5947a2f3-dafc-42b0-8d53-7923e7712820","ios":"levelo://app?vid=5947a2f3-dafc-42b0-8d53-7923e7712820"},"vehicle_type_id":"4","last_reported":1698829618,"current_range_meters":29200,"station_id":"ce4bgrh2rcd13ifvqc8g","pricing_plan_id":"free"},{"bike_id":"475be5ac-8ec0-445b-bceb-cad9391d40b5","system_id":"levelo_inurba_marseille","lat":43.301939,"lon":5.366286,"is_reserved":false,"is_disabled":false,"rental_uris":{"android":"levelo://app?vid=475be5ac-8ec0-445b-bceb-cad9391d40b5","ios":"levelo://app?vid=475be5ac-8ec0-445b-bceb-cad9391d40b5"},"vehicle_type_id":"4","last_reported":1698829618,"current_range_meters":24000,"station_id":"ce4bgrh2rcd13ifvqc8g","pricing_plan_id":"free"},{"bike_id":"daa866a5-1ab1-42b1-bcc2-61a837279021","system_id":"levelo_inurba_marseille","lat":43.301939,"lon":5.366286,"is_reserved":false,"is_disabled":false,"rental_uris":{"android":"levelo://app?vid=daa866a5-1ab1-42b1-bcc2-61a837279021","ios":"levelo://app?vid=daa866a5-1ab1-42b1-bcc2-61a837279021"},"vehicle_type_id":"4","last_reported":1698829618,"current_range_meters":24000,"station_id":"ce4bgrh2rcd13ifvqc8g","pricing_plan_id":"free"},{"bike_id":"73a1f729-cf3e-45f5-a740-101a89ed1e70","system_id":"levelo_inurba_marseille","lat":43.308012,"lon":5.381511,"is_reserved":false,"is_disabled":false,"rental_uris":{"android":"levelo://app?vid=73a1f729-cf3e-45f5-a740-101a89ed1e70","ios":"levelo://app?vid=73a1f729-cf3e-45f5-a740-101a89ed1e70"},"vehicle_type_id":"4","last_reported":1698829618,"current_range_meters":22800,"station_id":"ce4bgt12rcd13ifvqce0","pricing_plan_id":"free"},{"bike_id":"e3f253a1-9788-4492-938f-39b642fbd881","system_id":"levelo_inurba_marseille","lat":43.3245,"lon":5.36788,"is_reserved":false,"is_disabled":false,"rental_uris":{"android":"levelo://app?vid=e3f253a1-9788-4492-938f-39b642fbd881","ios":"levelo://app?vid=e3f253a1-9788-4492-938f-39b642fbd881"},"vehicle_type_id":"4","last_reported":1698829618,"current_range_meters":0,"station_id":"","pricing_plan_id":"free"},{"bike_id":"4b64673e-9584-4971-b391-2dc6ceeb745d","system_id":"levelo_inurba_marseille","lat":43.304606,"lon":5.379026,"is_reserved":false,"is_disabled":false,"rental_uris":{"android":"levelo://app?vid=4b64673e-9584-4971-b391-2dc6ceeb745d","ios":"levelo://app?vid=4b64673e-9584-4971-b391-2dc6ceeb745d"},"vehicle_type_id":"4","last_reported":1698829618,"current_range_meters":22400,"station_id":"ce4bgup2rcd13ifvqcn0","pricing_plan_id":"free"},{"bike_id":"d90b6c16-7c3c-4c04-8c80-47b7bc616223","system_id":"levelo_inurba_marseille","lat":43.304606,"lon":5.379026,"is_reserved":false,"is_disabled":false,"rental_uris":{"android":"levelo://app?vid=d90b6c16-7c3c-4c04-8c80-47b7bc616223","ios":"levelo://app?vid=d90b6c16-7c3c-4c04-8c80-47b7bc616223"},"vehicle_type_id":"4","last_reported":1698829618,"current_range_meters":31200,"station_id":"ce4bgup2rcd13ifvqcn0","pricing_plan_id":"free"},{"bike_id":"7949c7ac-1502-46dd-9d1b-50802774cfad","system_id":"levelo_inurba_marseille","lat":43.30463,"lon":5.37897,"is_reserved":false,"is_disabled":false,"rental_uris":{"android":"levelo://app?vid=7949c7ac-1502-46dd-9d1b-50802774cfad","ios":"levelo://app?vid=7949c7ac-1502-46dd-9d1b-50802774cfad"},"vehicle_type_id":"4","last_reported":1698829618,"current_range_meters":21600,"station_id":"ce4bgup2rcd13ifvqcn0","pricing_plan_id":"free"},{"bike_id":"8e2f8340-9090-40ec-9ad7-0cb38de0ec36","system_id":"levelo_inurba_marseille","lat":43.304606,"lon":5.379026,"is_reserved":false,"is_disabled":false,"rental_uris":{"android":"levelo://app?vid=8e2f8340-9090-40ec-9ad7-0cb38de0ec36","ios":"levelo://app?vid=8e2f8340-9090-40ec-9ad7-0cb38de0ec36"},"vehicle_type_id":"4","last_reported":1698829618,"current_range_meters":9600,"station_id":"ce4bgup2rcd13ifvqcn0","pricing_plan_id":"free"},{"bike_id":"f6ca4f14-140b-4dc5-936c-2a157c7fbc1e","system_id":"levelo_inurba_marseille","lat":43.304606,"lon":5.379026,"is_reserved":false,"is_disabled":false,"rental_uris":{"android":"levelo://app?vid=f6ca4f14-140b-4dc5-936c-2a157c7fbc1e","ios":"levelo://app?vid=f6ca4f14-140b-4dc5-936c-2a157c7fbc1e"},"vehicle_type_id":"4","last_reported":1698829618,"current_range_meters":13600,"station_id":"ce4bgup2rcd13ifvqcn0","pricing_plan_id":"free"},{"bike_id":"0e145258-80a2-4d3a-a0d9-fa08b8d48070","system_id":"levelo_inurba_marseille","lat":43.304606,"lon":5.379026,"is_reserved":false,"is_disabled":false,"rental_uris":{"android":"levelo://app?vid=0e145258-80a2-4d3a-a0d9-fa08b8d48070","ios":"levelo://app?vid=0e145258-80a2-4d3a-a0d9-fa08b8d48070"},"vehicle_type_id":"4","last_reported":1698829618,"current_range_meters":26800,"station_id":"ce4bgup2rcd13ifvqcn0","pricing_plan_id":"free"},{"bike_id":"81f687cb-5aaf-417c-b637-4a472b80f032","system_id":"levelo_inurba_marseille","lat":43.304606,"lon":5.379026,"is_reserved":false,"is_disabled":false,"rental_uris":{"android":"levelo://app?vid=81f687cb-5aaf-417c-b637-4a472b80f032","ios":"levelo://app?vid=81f687cb-5aaf-417c-b637-4a472b80f032"},"vehicle_type_id":"4","last_reported":1698829618,"current_range_meters":29600,"station_id":"ce4bgup2rcd13ifvqcn0","pricing_plan_id":"free"},{"bike_id":"bbcf60ee-a322-4856-bd52-6115fb072383","system_id":"levelo_inurba_marseille","lat":43.304606,"lon":5.379026,"is_reserved":false,"is_disabled":false,"rental_uris":{"android":"levelo://app?vid=bbcf60ee-a322-4856-bd52-6115fb072383","ios":"levelo://app?vid=bbcf60ee-a322-4856-bd52-6115fb072383"},"vehicle_type_id":"4","last_reported":1698829618,"current_range_meters":24400,"station_id":"ce4bgup2rcd13ifvqcn0","pricing_plan_id":"free"},{"bike_id":"0b41fe3f-611f-416f-8040-813398b5d6cc","system_id":"levelo_inurba_marseille","lat":43.304606,"lon":5.379026,"is_reserved":false,"is_disabled":false,"rental_uris":{"android":"levelo://app?vid=0b41fe3f-611f-416f-8040-813398b5d6cc","ios":"levelo://app?vid=0b41fe3f-611f-416f-8040-813398b5d6cc"},"vehicle_type_id":"4","last_reported":1698829618,"current_range_meters":15600,"station_id":"ce4bgup2rcd13ifvqcn0","pricing_plan_id":"free"},{"bike_id":"1139bbe5-2a54-4d83-872e-52207b096d4c","system_id":"levelo_inurba_marseille","lat":43.304606,"lon":5.379026,"is_reserved":false,"is_disabled":false,"rental_uris":{"android":"levelo://app?vid=1139bbe5-2a54-4d83-872e-52207b096d4c","ios":"levelo://app?vid=1139bbe5-2a54-4d83-872e-52207b096d4c"},"vehicle_type_id":"4","last_reported":1698829618,"current_range_meters":20800,"station_id":"ce4bgup2rcd13ifvqcn0","pricing_plan_id":"free"},{"bike_id":"453b0986-129f-460d-b58d-8a8ad17420ec","system_id":"levelo_inurba_marseille","lat":43.304606,"lon":5.379026,"is_reserved":false,"is_disabled":false,"rental_uris":{"android":"levelo://app?vid=453b0986-129f-460d-b58d-8a8ad17420ec","ios":"levelo://app?vid=453b0986-129f-460d-b58d-8a8ad17420ec"},"vehicle_type_id":"4","last_reported":1698829618,"current_range_meters":10400,"station_id":"ce4bgup2rcd13ifvqcn0","pricing_plan_id":"free"},{"bike_id":"dd1c0b20-019a-4f88-ae15-bb2c3eed70ed","system_id":"levelo_inurba_marseille","lat":43.317175,"lon":5.382802,"is_reserved":false,"is_disabled":false,"rental_uris":{"android":"levelo://app?vid=dd1c0b20-019a-4f88-ae15-bb2c3eed70ed","ios":"levelo://app?vid=dd1c0b20-019a-4f88-ae15-bb2c3eed70ed"},"vehicle_type_id":"4","last_reported":1698829618,"current_range_meters":0,"station_id":"","pricing_plan_id":"free"},{"bike_id":"261eae14-013b-40a4-a395-96fe6cc7d6d1","system_id":"levelo_inurba_marseille","lat":43.302784,"lon":5.377158,"is_reserved":false,"is_disabled":false,"rental_uris":{"android":"levelo://app?vid=261eae14-013b-40a4-a395-96fe6cc7d6d1","ios":"levelo://app?vid=261eae14-013b-40a4-a395-96fe6cc7d6d1"},"vehicle_type_id":"4","last_reported":1698829618,"current_range_meters":28000,"station_id":"ce4bguh2rcd13ifvqcj0","pricing_plan_id":"free"},{"bike_id":"0f6e1181-802a-4bfe-80d6-c1fa7c13c13a","system_id":"levelo_inurba_marseille","lat":43.302784,"lon":5.377158,"is_reserved":false,"is_disabled":false,"rental_uris":{"android":"levelo://app?vid=0f6e1181-802a-4bfe-80d6-c1fa7c13c13a","ios":"levelo://app?vid=0f6e1181-802a-4bfe-80d6-c1fa7c13c13a"},"vehicle_type_id":"4","last_reported":1698829618,"current_range_meters":31200,"station_id":"ce4bguh2rcd13ifvqcj0","pricing_plan_id":"free"},{"bike_id":"e2a88f4f-33f5-417d-b5d4-855e8212d490","system_id":"levelo_inurba_marseille","lat":43.30143,"lon":5.37413,"is_reserved":false,"is_disabled":false,"rental_uris":{"android":"levelo://app?vid=e2a88f4f-33f5-417d-b5d4-855e8212d490","ios":"levelo://app?vid=e2a88f4f-33f5-417d-b5d4-855e8212d490"},"vehicle_type_id":"4","last_reported":1698829618,"current_range_meters":30000,"station_id":"ce4bgs92rcd13ifvqcc0","pricing_plan_id":"free"},{"bike_id":"eb4553d5-a3f0-49cc-8109-7cff4cf76113","system_id":"levelo_inurba_marseille","lat":43.319935,"lon":5.381699,"is_reserved":false,"is_disabled":false,"rental_uris":{"android":"levelo://app?vid=eb4553d5-a3f0-49cc-8109-7cff4cf76113","ios":"levelo://app?vid=eb4553d5-a3f0-49cc-8109-7cff4cf76113"},"vehicle_type_id":"4","last_reported":1698829618,"current_range_meters":20400,"station_id":"ce4bhr12rcd13ifvqhpg","pricing_plan_id":"free"},{"bike_id":"ec9482fc-ede0-4a9f-a163-2b86840d78f1","system_id":"levelo_inurba_marseille","lat":43.313571,"lon":5.384829,"is_reserved":false,"is_disabled":false,"rental_uris":{"android":"levelo://app?vid=ec9482fc-ede0-4a9f-a163-2b86840d78f1","ios":"levelo://app?vid=ec9482fc-ede0-4a9f-a163-2b86840d78f1"},"vehicle_type_id":"4","last_reported":1698829618,"current_range_meters":31200,"station_id":"ce4bgt92rcd13ifvqcf0","pricing_plan_id":"free"},{"bike_id":"cecec487-5fa4-4c8a-8787-8e45d6e68871","system_id":"levelo_inurba_marseille","lat":43.299415,"lon":5.365485,"is_reserved":false,"is_disabled":false,"rental_uris":{"android":"levelo://app?vid=cecec487-5fa4-4c8a-8787-8e45d6e68871","ios":"levelo://app?vid=cecec487-5fa4-4c8a-8787-8e45d6e68871"},"vehicle_type_id":"4","last_reported":1698829618,"current_range_meters":4000,"station_id":"ce4bgm92rcd13ifvqbr0","pricing_plan_id":"free"},{"bike_id":"76254287-bb17-450b-9d5b-37b16f9a3d47","system_id":"levelo_inurba_marseille","lat":43.299222,"lon":5.365554,"is_reserved":false,"is_disabled":false,"rental_uris":{"android":"levelo://app?vid=76254287-bb17-450b-9d5b-37b16f9a3d47","ios":"levelo://app?vid=76254287-bb17-450b-9d5b-37b16f9a3d47"},"vehicle_type_id":"4","last_reported":1698829618,"current_range_meters":31200,"station_id":"ce4bgm92rcd13ifvqbr0","pricing_plan_id":"free"},{"bike_id":"5ba66772-20b6-408d-a6c3-0df1cd4bb678","system_id":"levelo_inurba_marseille","lat":43.3264,"lon":5.367334,"is_reserved":false,"is_disabled":false,"rental_uris":{"android":"levelo://app?vid=5ba66772-20b6-408d-a6c3-0df1cd4bb678","ios":"levelo://app?vid=5ba66772-20b6-408d-a6c3-0df1cd4bb678"},"vehicle_type_id":"4","last_reported":1698829618,"current_range_meters":3200,"station_id":"","pricing_plan_id":"free"},{"bike_id":"4dc4b533-4bc7-4ab7-8e2e-a5ce9b6e6e94","system_id":"levelo_inurba_marseille","lat":43.305364,"lon":5.384119,"is_reserved":false,"is_disabled":false,"rental_uris":{"android":"levelo://app?vid=4dc4b533-4bc7-4ab7-8e2e-a5ce9b6e6e94","ios":"levelo://app?vid=4dc4b533-4bc7-4ab7-8e2e-a5ce9b6e6e94"},"vehicle_type_id":"4","last_reported":1698829618,"current_range_meters":21200,"station_id":"ce4bgg92rcd13ifvqb30","pricing_plan_id":"free"},{"bike_id":"76537d95-a19f-402a-9cb8-0020798cfe61","system_id":"levelo_inurba_marseille","lat":43.298433,"lon":5.362774,"is_reserved":false,"is_disabled":false,"rental_uris":{"android":"levelo://app?vid=76537d95-a19f-402a-9cb8-0020798cfe61","ios":"levelo://app?vid=76537d95-a19f-402a-9cb8-0020798cfe61"},"vehicle_type_id":"4","last_reported":1698829618,"current_range_meters":17600,"station_id":"ce4bgpp2rcd13ifvqc3g","pricing_plan_id":"free"},{"bike_id":"5d4f4335-2d9e-4c98-ba3d-386aed269de5","system_id":"levelo_inurba_marseille","lat":43.298433,"lon":5.362774,"is_reserved":false,"is_disabled":false,"rental_uris":{"android":"levelo://app?vid=5d4f4335-2d9e-4c98-ba3d-386aed269de5","ios":"levelo://app?vid=5d4f4335-2d9e-4c98-ba3d-386aed269de5"},"vehicle_type_id":"4","last_reported":1698829618,"current_range_meters":15200,"station_id":"ce4bgpp2rcd13ifvqc3g","pricing_plan_id":"free"},{"bike_id":"50ee6218-7c7c-41f7-ad4d-bcc2dfbb0c92","system_id":"levelo_inurba_marseille","lat":43.299243,"lon":5.374807,"is_reserved":false,"is_disabled":false,"rental_uris":{"android":"levelo://app?vid=50ee6218-7c7c-41f7-ad4d-bcc2dfbb0c92","ios":"levelo://app?vid=50ee6218-7c7c-41f7-ad4d-bcc2dfbb0c92"},"vehicle_type_id":"4","last_reported":1698829618,"current_range_meters":29200,"station_id":"ce4bgjh2rcd13ifvqbg0","pricing_plan_id":"free"},{"bike_id":"69bbccf5-0f47-46d4-ac2a-2e8b314a2e3f","system_id":"levelo_inurba_marseille","lat":43.311722,"lon":5.387247,"is_reserved":false,"is_disabled":false,"rental_uris":{"android":"levelo://app?vid=69bbccf5-0f47-46d4-ac2a-2e8b314a2e3f","ios":"levelo://app?vid=69bbccf5-0f47-46d4-ac2a-2e8b314a2e3f"},"vehicle_type_id":"4","last_reported":1698829618,"current_range_meters":17600,"station_id":"ce4bgv12rcd13ifvqcp0","pricing_plan_id":"free"},{"bike_id":"e84b7ff1-7813-44e9-8446-35dc9a02e9cc","system_id":"levelo_inurba_marseille","lat":43.311722,"lon":5.387247,"is_reserved":false,"is_disabled":false,"rental_uris":{"android":"levelo://app?vid=e84b7ff1-7813-44e9-8446-35dc9a02e9cc","ios":"levelo://app?vid=e84b7ff1-7813-44e9-8446-35dc9a02e9cc"},"vehicle_type_id":"4","last_reported":1698829618,"current_range_meters":24800,"station_id":"ce4bgv12rcd13ifvqcp0","pricing_plan_id":"free"},{"bike_id":"118a3c92-d0ce-4ecf-b412-c652f5ce72e8","system_id":"levelo_inurba_marseille","lat":43.311722,"lon":5.387247,"is_reserved":false,"is_disabled":false,"rental_uris":{"android":"levelo://app?vid=118a3c92-d0ce-4ecf-b412-c652f5ce72e8","ios":"levelo://app?vid=118a3c92-d0ce-4ecf-b412-c652f5ce72e8"},"vehicle_type_id":"4","last_reported":1698829618,"current_range_meters":29600,"station_id":"ce4bgv12rcd13ifvqcp0","pricing_plan_id":"free"},{"bike_id":"649dfad1-4a2a-413f-8a9f-96c1d423af08","system_id":"levelo_inurba_marseille","lat":43.311722,"lon":5.387247,"is_reserved":false,"is_disabled":false,"rental_uris":{"android":"levelo://app?vid=649dfad1-4a2a-413f-8a9f-96c1d423af08","ios":"levelo://app?vid=649dfad1-4a2a-413f-8a9f-96c1d423af08"},"vehicle_type_id":"4","last_reported":1698829618,"current_range_meters":30400,"station_id":"ce4bgv12rcd13ifvqcp0","pricing_plan_id":"free"},{"bike_id":"fd6caed2-8897-4329-869e-506928b3a0bd","system_id":"levelo_inurba_marseille","lat":43.299243,"lon":5.37481,"is_reserved":false,"is_disabled":false,"rental_uris":{"android":"levelo://app?vid=fd6caed2-8897-4329-869e-506928b3a0bd","ios":"levelo://app?vid=fd6caed2-8897-4329-869e-506928b3a0bd"},"vehicle_type_id":"4","last_reported":1698829618,"current_range_meters":13600,"station_id":"ce4bgjh2rcd13ifvqbg0","pricing_plan_id":"free"},{"bike_id":"d750dcbc-0fe1-42b8-830b-3fda5232e10d","system_id":"levelo_inurba_marseille","lat":43.311722,"lon":5.387247,"is_reserved":false,"is_disabled":false,"rental_uris":{"android":"levelo://app?vid=d750dcbc-0fe1-42b8-830b-3fda5232e10d","ios":"levelo://app?vid=d750dcbc-0fe1-42b8-830b-3fda5232e10d"},"vehicle_type_id":"4","last_reported":1698829618,"current_range_meters":28800,"station_id":"ce4bgv12rcd13ifvqcp0","pricing_plan_id":"free"},{"bike_id":"7f6d1821-d960-4aa5-81c2-8064a10d310c","system_id":"levelo_inurba_marseille","lat":43.326515,"lon":5.375407,"is_reserved":false,"is_disabled":false,"rental_uris":{"android":"levelo://app?vid=7f6d1821-d960-4aa5-81c2-8064a10d310c","ios":"levelo://app?vid=7f6d1821-d960-4aa5-81c2-8064a10d310c"},"vehicle_type_id":"4","last_reported":1698829618,"current_range_meters":15200,"station_id":"","pricing_plan_id":"free"},{"bike_id":"5c9dd7b2-9ffc-499a-ad3d-68fc496f8bc7","system_id":"levelo_inurba_marseille","lat":43.328371,"lon":5.366909,"is_reserved":false,"is_disabled":false,"rental_uris":{"android":"levelo://app?vid=5c9dd7b2-9ffc-499a-ad3d-68fc496f8bc7","ios":"levelo://app?vid=5c9dd7b2-9ffc-499a-ad3d-68fc496f8bc7"},"vehicle_type_id":"4","last_reported":1698829618,"current_range_meters":20400,"station_id":"ce4bhs92rcd13ifvqi0g","pricing_plan_id":"free"},{"bike_id":"2bf09692-7151-4aba-9fa7-8ce1d6106004","system_id":"levelo_inurba_marseille","lat":43.328303,"lon":5.366873,"is_reserved":false,"is_disabled":false,"rental_uris":{"android":"levelo://app?vid=2bf09692-7151-4aba-9fa7-8ce1d6106004","ios":"levelo://app?vid=2bf09692-7151-4aba-9fa7-8ce1d6106004"},"vehicle_type_id":"4","last_reported":1698829618,"current_range_meters":0,"station_id":"","pricing_plan_id":"free"},{"bike_id":"67bb7dbe-50ea-4249-bc98-d0ad4814b4a6","system_id":"levelo_inurba_marseille","lat":43.321551,"lon":5.38566,"is_reserved":false,"is_disabled":false,"rental_uris":{"android":"levelo://app?vid=67bb7dbe-50ea-4249-bc98-d0ad4814b4a6","ios":"levelo://app?vid=67bb7dbe-50ea-4249-bc98-d0ad4814b4a6"},"vehicle_type_id":"4","last_reported":1698829618,"current_range_meters":30000,"station_id":"","pricing_plan_id":"free"},{"bike_id":"c9428514-9197-4976-812b-d61139ef9187","system_id":"levelo_inurba_marseille","lat":43.32158,"lon":5.385661,"is_reserved":false,"is_disabled":false,"rental_uris":{"android":"levelo://app?vid=c9428514-9197-4976-812b-d61139ef9187","ios":"levelo://app?vid=c9428514-9197-4976-812b-d61139ef9187"},"vehicle_type_id":"4","last_reported":1698829618,"current_range_meters":15200,"station_id":"","pricing_plan_id":"free"},{"bike_id":"95de5542-6169-4cc9-ac6c-3d5eadba97c0","system_id":"levelo_inurba_marseille","lat":43.321014,"lon":5.386549,"is_reserved":false,"is_disabled":false,"rental_uris":{"android":"levelo://app?vid=95de5542-6169-4cc9-ac6c-3d5eadba97c0","ios":"levelo://app?vid=95de5542-6169-4cc9-ac6c-3d5eadba97c0"},"vehicle_type_id":"4","last_reported":1698829618,"current_range_meters":30400,"station_id":"","pricing_plan_id":"free"},{"bike_id":"ac64cfce-5505-455a-9537-62af5dd3a90a","system_id":"levelo_inurba_marseille","lat":43.32355,"lon":5.38416,"is_reserved":false,"is_disabled":false,"rental_uris":{"android":"levelo://app?vid=ac64cfce-5505-455a-9537-62af5dd3a90a","ios":"levelo://app?vid=ac64cfce-5505-455a-9537-62af5dd3a90a"},"vehicle_type_id":"4","last_reported":1698829618,"current_range_meters":28400,"station_id":"","pricing_plan_id":"free"},{"bike_id":"5a3e4389-a6dc-483b-abd6-709292f6e071","system_id":"levelo_inurba_marseille","lat":43.295893,"lon":5.367112,"is_reserved":false,"is_disabled":false,"rental_uris":{"android":"levelo://app?vid=5a3e4389-a6dc-483b-abd6-709292f6e071","ios":"levelo://app?vid=5a3e4389-a6dc-483b-abd6-709292f6e071"},"vehicle_type_id":"4","last_reported":1698829618,"current_range_meters":28000,"station_id":"ce4bgph2rcd13ifvqc2g","pricing_plan_id":"free"},{"bike_id":"656f6beb-983f-433b-b71e-d6805046f84b","system_id":"levelo_inurba_marseille","lat":43.29624,"lon":5.37168,"is_reserved":false,"is_disabled":false,"rental_uris":{"android":"levelo://app?vid=656f6beb-983f-433b-b71e-d6805046f84b","ios":"levelo://app?vid=656f6beb-983f-433b-b71e-d6805046f84b"},"vehicle_type_id":"4","last_reported":1698829618,"current_range_meters":28000,"station_id":"ce4bgnh2rcd13ifvqc0g","pricing_plan_id":"free"},{"bike_id":"9310f1fb-e9f2-45f9-9779-1f68b2eb7805","system_id":"levelo_inurba_marseille","lat":43.29611,"lon":5.371491,"is_reserved":false,"is_disabled":false,"rental_uris":{"android":"levelo://app?vid=9310f1fb-e9f2-45f9-9779-1f68b2eb7805","ios":"levelo://app?vid=9310f1fb-e9f2-45f9-9779-1f68b2eb7805"},"vehicle_type_id":"4","last_reported":1698829618,"current_range_meters":10800,"station_id":"","pricing_plan_id":"free"},{"bike_id":"c4212ba2-48a7-4742-b150-919a5ed5975a","system_id":"levelo_inurba_marseille","lat":43.299028,"lon":5.381509,"is_reserved":false,"is_disabled":false,"rental_uris":{"android":"levelo://app?vid=c4212ba2-48a7-4742-b150-919a5ed5975a","ios":"levelo://app?vid=c4212ba2-48a7-4742-b150-919a5ed5975a"},"vehicle_type_id":"4","last_reported":1698829618,"current_range_meters":18800,"station_id":"ce4bgj12rcd13ifvqbc0","pricing_plan_id":"free"},{"bike_id":"12097eec-bd2a-4db8-aa63-ebcbdbe380f0","system_id":"levelo_inurba_marseille","lat":43.299028,"lon":5.381509,"is_reserved":false,"is_disabled":false,"rental_uris":{"android":"levelo://app?vid=12097eec-bd2a-4db8-aa63-ebcbdbe380f0","ios":"levelo://app?vid=12097eec-bd2a-4db8-aa63-ebcbdbe380f0"},"vehicle_type_id":"4","last_reported":1698829618,"current_range_meters":28000,"station_id":"ce4bgj12rcd13ifvqbc0","pricing_plan_id":"free"},{"bike_id":"96ac7b66-80ad-4625-acf8-aa8669993b95","system_id":"levelo_inurba_marseille","lat":43.309589,"lon":5.390258,"is_reserved":false,"is_disabled":false,"rental_uris":{"android":"levelo://app?vid=96ac7b66-80ad-4625-acf8-aa8669993b95","ios":"levelo://app?vid=96ac7b66-80ad-4625-acf8-aa8669993b95"},"vehicle_type_id":"4","last_reported":1698829618,"current_range_meters":31200,"station_id":"ce4bgup2rcd13ifvqco0","pricing_plan_id":"free"},{"bike_id":"d7c10437-8328-405b-976b-f770e2413be4","system_id":"levelo_inurba_marseille","lat":43.309589,"lon":5.390258,"is_reserved":false,"is_disabled":false,"rental_uris":{"android":"levelo://app?vid=d7c10437-8328-405b-976b-f770e2413be4","ios":"levelo://app?vid=d7c10437-8328-405b-976b-f770e2413be4"},"vehicle_type_id":"4","last_reported":1698829618,"current_range_meters":30400,"station_id":"ce4bgup2rcd13ifvqco0","pricing_plan_id":"free"},{"bike_id":"f7772606-a5d0-4b8e-9cb6-9b215b84dff7","system_id":"levelo_inurba_marseille","lat":43.30953,"lon":5.39046,"is_reserved":false,"is_disabled":false,"rental_uris":{"android":"levelo://app?vid=f7772606-a5d0-4b8e-9cb6-9b215b84dff7","ios":"levelo://app?vid=f7772606-a5d0-4b8e-9cb6-9b215b84dff7"},"vehicle_type_id":"4","last_reported":1698829618,"current_range_meters":30800,"station_id":"ce4bgup2rcd13ifvqco0","pricing_plan_id":"free"},{"bike_id":"256d6869-2e57-4939-a5d6-0ce5b2b86b08","system_id":"levelo_inurba_marseille","lat":43.298037,"lon":5.381066,"is_reserved":false,"is_disabled":false,"rental_uris":{"android":"levelo://app?vid=256d6869-2e57-4939-a5d6-0ce5b2b86b08","ios":"levelo://app?vid=256d6869-2e57-4939-a5d6-0ce5b2b86b08"},"vehicle_type_id":"4","last_reported":1698829618,"current_range_meters":29600,"station_id":"ce4bgip2rcd13ifvqbb0","pricing_plan_id":"free"},{"bike_id":"0a9ee8c9-c983-4745-964e-6c710753302d","system_id":"levelo_inurba_marseille","lat":43.298037,"lon":5.381066,"is_reserved":false,"is_disabled":false,"rental_uris":{"android":"levelo://app?vid=0a9ee8c9-c983-4745-964e-6c710753302d","ios":"levelo://app?vid=0a9ee8c9-c983-4745-964e-6c710753302d"},"vehicle_type_id":"4","last_reported":1698829618,"current_range_meters":28800,"station_id":"ce4bgip2rcd13ifvqbb0","pricing_plan_id":"free"},{"bike_id":"8828afd6-2d2b-43d4-8a6d-b01e99206a46","system_id":"levelo_inurba_marseille","lat":43.298037,"lon":5.381066,"is_reserved":false,"is_disabled":false,"rental_uris":{"android":"levelo://app?vid=8828afd6-2d2b-43d4-8a6d-b01e99206a46","ios":"levelo://app?vid=8828afd6-2d2b-43d4-8a6d-b01e99206a46"},"vehicle_type_id":"4","last_reported":1698829618,"current_range_meters":4400,"station_id":"ce4bgip2rcd13ifvqbb0","pricing_plan_id":"free"},{"bike_id":"101eb540-5570-4435-866f-914e6d0b664c","system_id":"levelo_inurba_marseille","lat":43.326421,"lon":5.382999,"is_reserved":false,"is_disabled":false,"rental_uris":{"android":"levelo://app?vid=101eb540-5570-4435-866f-914e6d0b664c","ios":"levelo://app?vid=101eb540-5570-4435-866f-914e6d0b664c"},"vehicle_type_id":"4","last_reported":1698829618,"current_range_meters":6800,"station_id":"","pricing_plan_id":"free"},{"bike_id":"155263d8-856c-4c53-82d7-6e897be26a76","system_id":"levelo_inurba_marseille","lat":43.295748,"lon":5.37522,"is_reserved":false,"is_disabled":false,"rental_uris":{"android":"levelo://app?vid=155263d8-856c-4c53-82d7-6e897be26a76","ios":"levelo://app?vid=155263d8-856c-4c53-82d7-6e897be26a76"},"vehicle_type_id":"4","last_reported":1698829618,"current_range_meters":8000,"station_id":"ce4bgh92rcd13ifvqb50","pricing_plan_id":"free"},{"bike_id":"8885dea5-1c65-4dfa-a640-319ffd7d7fbe","system_id":"levelo_inurba_marseille","lat":43.298037,"lon":5.381066,"is_reserved":false,"is_disabled":false,"rental_uris":{"android":"levelo://app?vid=8885dea5-1c65-4dfa-a640-319ffd7d7fbe","ios":"levelo://app?vid=8885dea5-1c65-4dfa-a640-319ffd7d7fbe"},"vehicle_type_id":"4","last_reported":1698829618,"current_range_meters":22400,"station_id":"ce4bgip2rcd13ifvqbb0","pricing_plan_id":"free"},{"bike_id":"8be4dc3b-7463-4eb6-90b7-670986b85c6c","system_id":"levelo_inurba_marseille","lat":43.295748,"lon":5.37522,"is_reserved":false,"is_disabled":false,"rental_uris":{"android":"levelo://app?vid=8be4dc3b-7463-4eb6-90b7-670986b85c6c","ios":"levelo://app?vid=8be4dc3b-7463-4eb6-90b7-670986b85c6c"},"vehicle_type_id":"4","last_reported":1698829618,"current_range_meters":4400,"station_id":"ce4bgh92rcd13ifvqb50","pricing_plan_id":"free"},{"bike_id":"898bab5c-7cf3-4826-ab35-19503150b643","system_id":"levelo_inurba_marseille","lat":43.304274,"lon":5.388873,"is_reserved":false,"is_disabled":false,"rental_uris":{"android":"levelo://app?vid=898bab5c-7cf3-4826-ab35-19503150b643","ios":"levelo://app?vid=898bab5c-7cf3-4826-ab35-19503150b643"},"vehicle_type_id":"4","last_reported":1698829618,"current_range_meters":17600,"station_id":"ce4bgk12rcd13ifvqbi0","pricing_plan_id":"free"},{"bike_id":"5499b884-92f7-45a9-8757-73ec92a25edc","system_id":"levelo_inurba_marseille","lat":43.296263,"lon":5.377094,"is_reserved":false,"is_disabled":false,"rental_uris":{"android":"levelo://app?vid=5499b884-92f7-45a9-8757-73ec92a25edc","ios":"levelo://app?vid=5499b884-92f7-45a9-8757-73ec92a25edc"},"vehicle_type_id":"4","last_reported":1698829618,"current_range_meters":31200,"station_id":"ce4bgi92rcd13ifvqb90","pricing_plan_id":"free"},{"bike_id":"94d41d89-3e67-4403-ab1d-fdee38c5e3be","system_id":"levelo_inurba_marseille","lat":43.295748,"lon":5.37522,"is_reserved":false,"is_disabled":false,"rental_uris":{"android":"levelo://app?vid=94d41d89-3e67-4403-ab1d-fdee38c5e3be","ios":"levelo://app?vid=94d41d89-3e67-4403-ab1d-fdee38c5e3be"},"vehicle_type_id":"4","last_reported":1698829618,"current_range_meters":29600,"station_id":"ce4bgh92rcd13ifvqb50","pricing_plan_id":"free"},{"bike_id":"2c9e0909-66ae-411f-bc85-32cdb61e37cd","system_id":"levelo_inurba_marseille","lat":43.2961,"lon":5.37711,"is_reserved":false,"is_disabled":false,"rental_uris":{"android":"levelo://app?vid=2c9e0909-66ae-411f-bc85-32cdb61e37cd","ios":"levelo://app?vid=2c9e0909-66ae-411f-bc85-32cdb61e37cd"},"vehicle_type_id":"4","last_reported":1698829618,"current_range_meters":0,"station_id":"","pricing_plan_id":"free"},{"bike_id":"b630e690-74fa-4d6b-a280-4e4d816913cf","system_id":"levelo_inurba_marseille","lat":43.295748,"lon":5.37522,"is_reserved":false,"is_disabled":false,"rental_uris":{"android":"levelo://app?vid=b630e690-74fa-4d6b-a280-4e4d816913cf","ios":"levelo://app?vid=b630e690-74fa-4d6b-a280-4e4d816913cf"},"vehicle_type_id":"4","last_reported":1698829618,"current_range_meters":17600,"station_id":"ce4bgh92rcd13ifvqb50","pricing_plan_id":"free"},{"bike_id":"a2f9bd16-8206-451d-9c56-bd99a1eb3758","system_id":"levelo_inurba_marseille","lat":43.296043,"lon":5.377357,"is_reserved":false,"is_disabled":false,"rental_uris":{"android":"levelo://app?vid=a2f9bd16-8206-451d-9c56-bd99a1eb3758","ios":"levelo://app?vid=a2f9bd16-8206-451d-9c56-bd99a1eb3758"},"vehicle_type_id":"4","last_reported":1698829618,"current_range_meters":26400,"station_id":"ce4bgi92rcd13ifvqb90","pricing_plan_id":"free"},{"bike_id":"722d3d92-9942-4132-ba58-2ae35258c27a","system_id":"levelo_inurba_marseille","lat":43.290631,"lon":5.359244,"is_reserved":false,"is_disabled":false,"rental_uris":{"android":"levelo://app?vid=722d3d92-9942-4132-ba58-2ae35258c27a","ios":"levelo://app?vid=722d3d92-9942-4132-ba58-2ae35258c27a"},"vehicle_type_id":"4","last_reported":1698829618,"current_range_meters":27200,"station_id":"ce4bha92rcd13ifvqeg0","pricing_plan_id":"free"},{"bike_id":"037d66c9-b756-400e-821e-15088818efa2","system_id":"levelo_inurba_marseille","lat":43.299669,"lon":5.384971,"is_reserved":false,"is_disabled":false,"rental_uris":{"android":"levelo://app?vid=037d66c9-b756-400e-821e-15088818efa2","ios":"levelo://app?vid=037d66c9-b756-400e-821e-15088818efa2"},"vehicle_type_id":"4","last_reported":1698829618,"current_range_meters":21600,"station_id":"ce4bgj92rcd13ifvqbd0","pricing_plan_id":"free"},{"bike_id":"1f580447-7b2c-4630-9a51-33e28281b372","system_id":"levelo_inurba_marseille","lat":43.329065,"lon":5.379814,"is_reserved":false,"is_disabled":false,"rental_uris":{"android":"levelo://app?vid=1f580447-7b2c-4630-9a51-33e28281b372","ios":"levelo://app?vid=1f580447-7b2c-4630-9a51-33e28281b372"},"vehicle_type_id":"4","last_reported":1698829618,"current_range_meters":28000,"station_id":"","pricing_plan_id":"free"},{"bike_id":"d9f2c8e0-2e6a-40c4-928c-45b18421c21f","system_id":"levelo_inurba_marseille","lat":43.32367,"lon":5.388836,"is_reserved":false,"is_disabled":false,"rental_uris":{"android":"levelo://app?vid=d9f2c8e0-2e6a-40c4-928c-45b18421c21f","ios":"levelo://app?vid=d9f2c8e0-2e6a-40c4-928c-45b18421c21f"},"vehicle_type_id":"4","last_reported":1698829618,"current_range_meters":0,"station_id":"ce4bhqp2rcd13ifvqhog","pricing_plan_id":"free"},{"bike_id":"5676ff4b-97f1-4ba5-95f6-7c03408af805","system_id":"levelo_inurba_marseille","lat":43.32367,"lon":5.388836,"is_reserved":false,"is_disabled":false,"rental_uris":{"android":"levelo://app?vid=5676ff4b-97f1-4ba5-95f6-7c03408af805","ios":"levelo://app?vid=5676ff4b-97f1-4ba5-95f6-7c03408af805"},"vehicle_type_id":"4","last_reported":1698829618,"current_range_meters":28000,"station_id":"ce4bhqp2rcd13ifvqhog","pricing_plan_id":"free"},{"bike_id":"770aa8b0-74e4-477c-8cc4-fd5d552902a6","system_id":"levelo_inurba_marseille","lat":43.32367,"lon":5.388836,"is_reserved":false,"is_disabled":false,"rental_uris":{"android":"levelo://app?vid=770aa8b0-74e4-477c-8cc4-fd5d552902a6","ios":"levelo://app?vid=770aa8b0-74e4-477c-8cc4-fd5d552902a6"},"vehicle_type_id":"4","last_reported":1698829618,"current_range_meters":12000,"station_id":"ce4bhqp2rcd13ifvqhog","pricing_plan_id":"free"},{"bike_id":"b94e4631-0f58-4625-b466-1fb7ad56dc1f","system_id":"levelo_inurba_marseille","lat":43.292749,"lon":5.368402,"is_reserved":false,"is_disabled":false,"rental_uris":{"android":"levelo://app?vid=b94e4631-0f58-4625-b466-1fb7ad56dc1f","ios":"levelo://app?vid=b94e4631-0f58-4625-b466-1fb7ad56dc1f"},"vehicle_type_id":"4","last_reported":1698829618,"current_range_meters":28800,"station_id":"ce4bhbp2rcd13ifvqesg","pricing_plan_id":"free"},{"bike_id":"e94794ee-5a75-4e75-ba27-af2d0e0eb071","system_id":"levelo_inurba_marseille","lat":43.293259,"lon":5.371586,"is_reserved":false,"is_disabled":false,"rental_uris":{"android":"levelo://app?vid=e94794ee-5a75-4e75-ba27-af2d0e0eb071","ios":"levelo://app?vid=e94794ee-5a75-4e75-ba27-af2d0e0eb071"},"vehicle_type_id":"4","last_reported":1698829618,"current_range_meters":11200,"station_id":"ce4bgh92rcd13ifvqb40","pricing_plan_id":"free"},{"bike_id":"1cea4e0c-1af0-4c86-95c3-e6089ea04c34","system_id":"levelo_inurba_marseille","lat":43.292967,"lon":5.371757,"is_reserved":false,"is_disabled":false,"rental_uris":{"android":"levelo://app?vid=1cea4e0c-1af0-4c86-95c3-e6089ea04c34","ios":"levelo://app?vid=1cea4e0c-1af0-4c86-95c3-e6089ea04c34"},"vehicle_type_id":"4","last_reported":1698829618,"current_range_meters":8000,"station_id":"ce4bgh92rcd13ifvqb40","pricing_plan_id":"free"},{"bike_id":"46889cca-3763-4aba-854c-4a7aefdfd90e","system_id":"levelo_inurba_marseille","lat":43.306081,"lon":5.393563,"is_reserved":false,"is_disabled":false,"rental_uris":{"android":"levelo://app?vid=46889cca-3763-4aba-854c-4a7aefdfd90e","ios":"levelo://app?vid=46889cca-3763-4aba-854c-4a7aefdfd90e"},"vehicle_type_id":"4","last_reported":1698829618,"current_range_meters":31200,"station_id":"ce4bh0p2rcd13ifvqd80","pricing_plan_id":"free"},{"bike_id":"f973dc51-ab87-44f2-b07c-cef6b53409aa","system_id":"levelo_inurba_marseille","lat":43.303002,"lon":5.392142,"is_reserved":false,"is_disabled":false,"rental_uris":{"android":"levelo://app?vid=f973dc51-ab87-44f2-b07c-cef6b53409aa","ios":"levelo://app?vid=f973dc51-ab87-44f2-b07c-cef6b53409aa"},"vehicle_type_id":"4","last_reported":1698829618,"current_range_meters":18800,"station_id":"ce4bgkh2rcd13ifvqbk0","pricing_plan_id":"free"},{"bike_id":"6f045c16-7dd3-48b7-91ae-d1a62014fe04","system_id":"levelo_inurba_marseille","lat":43.302992,"lon":5.392136,"is_reserved":false,"is_disabled":false,"rental_uris":{"android":"levelo://app?vid=6f045c16-7dd3-48b7-91ae-d1a62014fe04","ios":"levelo://app?vid=6f045c16-7dd3-48b7-91ae-d1a62014fe04"},"vehicle_type_id":"4","last_reported":1698829618,"current_range_meters":30800,"station_id":"ce4bgkh2rcd13ifvqbk0","pricing_plan_id":"free"},{"bike_id":"ca0ecb03-229e-431b-b081-8f556246cb6b","system_id":"levelo_inurba_marseille","lat":43.302992,"lon":5.392136,"is_reserved":false,"is_disabled":false,"rental_uris":{"android":"levelo://app?vid=ca0ecb03-229e-431b-b081-8f556246cb6b","ios":"levelo://app?vid=ca0ecb03-229e-431b-b081-8f556246cb6b"},"vehicle_type_id":"4","last_reported":1698829618,"current_range_meters":31200,"station_id":"ce4bgkh2rcd13ifvqbk0","pricing_plan_id":"free"},{"bike_id":"d6c968da-5c06-48a0-b52e-c2c1b9ebc63c","system_id":"levelo_inurba_marseille","lat":43.29366,"lon":5.37855,"is_reserved":false,"is_disabled":false,"rental_uris":{"android":"levelo://app?vid=d6c968da-5c06-48a0-b52e-c2c1b9ebc63c","ios":"levelo://app?vid=d6c968da-5c06-48a0-b52e-c2c1b9ebc63c"},"vehicle_type_id":"4","last_reported":1698829618,"current_range_meters":26000,"station_id":"ce4bgjh2rcd13ifvqbf0","pricing_plan_id":"free"},{"bike_id":"ecd5fcfb-e675-41c4-803e-df009ca85e60","system_id":"levelo_inurba_marseille","lat":43.309804,"lon":5.395406,"is_reserved":false,"is_disabled":false,"rental_uris":{"android":"levelo://app?vid=ecd5fcfb-e675-41c4-803e-df009ca85e60","ios":"levelo://app?vid=ecd5fcfb-e675-41c4-803e-df009ca85e60"},"vehicle_type_id":"4","last_reported":1698829618,"current_range_meters":28400,"station_id":"","pricing_plan_id":"free"},{"bike_id":"0b61cdf8-4ab3-4fbd-93f3-f434b58ea1d9","system_id":"levelo_inurba_marseille","lat":43.30085,"lon":5.390856,"is_reserved":false,"is_disabled":false,"rental_uris":{"android":"levelo://app?vid=0b61cdf8-4ab3-4fbd-93f3-f434b58ea1d9","ios":"levelo://app?vid=0b61cdf8-4ab3-4fbd-93f3-f434b58ea1d9"},"vehicle_type_id":"4","last_reported":1698829618,"current_range_meters":2000,"station_id":"ce4bh192rcd13ifvqdb0","pricing_plan_id":"free"},{"bike_id":"126ab10a-f675-4c90-83b0-022bc195db9c","system_id":"levelo_inurba_marseille","lat":43.300852,"lon":5.390859,"is_reserved":false,"is_disabled":false,"rental_uris":{"android":"levelo://app?vid=126ab10a-f675-4c90-83b0-022bc195db9c","ios":"levelo://app?vid=126ab10a-f675-4c90-83b0-022bc195db9c"},"vehicle_type_id":"4","last_reported":1698829618,"current_range_meters":24400,"station_id":"ce4bh192rcd13ifvqdb0","pricing_plan_id":"free"},{"bike_id":"4f9d82e1-5d68-4b69-9ffd-5da73cc96cb3","system_id":"levelo_inurba_marseille","lat":43.300852,"lon":5.390859,"is_reserved":false,"is_disabled":false,"rental_uris":{"android":"levelo://app?vid=4f9d82e1-5d68-4b69-9ffd-5da73cc96cb3","ios":"levelo://app?vid=4f9d82e1-5d68-4b69-9ffd-5da73cc96cb3"},"vehicle_type_id":"4","last_reported":1698829618,"current_range_meters":1200,"station_id":"ce4bh192rcd13ifvqdb0","pricing_plan_id":"free"},{"bike_id":"419ada63-740c-4e0c-ac38-f1aa36755182","system_id":"levelo_inurba_marseille","lat":43.292663,"lon":5.376389,"is_reserved":false,"is_disabled":false,"rental_uris":{"android":"levelo://app?vid=419ada63-740c-4e0c-ac38-f1aa36755182","ios":"levelo://app?vid=419ada63-740c-4e0c-ac38-f1aa36755182"},"vehicle_type_id":"4","last_reported":1698829618,"current_range_meters":29200,"station_id":"ce4bgi12rcd13ifvqb80","pricing_plan_id":"free"},{"bike_id":"d3a4ce6e-5f8b-4824-833b-191b64cfeb3d","system_id":"levelo_inurba_marseille","lat":43.298764,"lon":5.388973,"is_reserved":false,"is_disabled":false,"rental_uris":{"android":"levelo://app?vid=d3a4ce6e-5f8b-4824-833b-191b64cfeb3d","ios":"levelo://app?vid=d3a4ce6e-5f8b-4824-833b-191b64cfeb3d"},"vehicle_type_id":"4","last_reported":1698829618,"current_range_meters":4800,"station_id":"ce4bh392rcd13ifvqdl0","pricing_plan_id":"free"},{"bike_id":"d797f1e6-f3ca-4ad7-8b56-5ed6191da53c","system_id":"levelo_inurba_marseille","lat":43.292571,"lon":5.376151,"is_reserved":false,"is_disabled":false,"rental_uris":{"android":"levelo://app?vid=d797f1e6-f3ca-4ad7-8b56-5ed6191da53c","ios":"levelo://app?vid=d797f1e6-f3ca-4ad7-8b56-5ed6191da53c"},"vehicle_type_id":"4","last_reported":1698829618,"current_range_meters":30800,"station_id":"ce4bgi12rcd13ifvqb80","pricing_plan_id":"free"},{"bike_id":"0e8233d2-0d57-470f-8c07-e9f753046a4f","system_id":"levelo_inurba_marseille","lat":43.33217,"lon":5.3788,"is_reserved":false,"is_disabled":false,"rental_uris":{"android":"levelo://app?vid=0e8233d2-0d57-470f-8c07-e9f753046a4f","ios":"levelo://app?vid=0e8233d2-0d57-470f-8c07-e9f753046a4f"},"vehicle_type_id":"4","last_reported":1698829618,"current_range_meters":25200,"station_id":"","pricing_plan_id":"free"},{"bike_id":"ca82a2f5-f01b-45e8-abaf-b0b5dea8554c","system_id":"levelo_inurba_marseille","lat":43.299724,"lon":5.384848,"is_reserved":false,"is_disabled":false,"rental_uris":{"android":"levelo://app?vid=ca82a2f5-f01b-45e8-abaf-b0b5dea8554c","ios":"levelo://app?vid=ca82a2f5-f01b-45e8-abaf-b0b5dea8554c"},"vehicle_type_id":"4","last_reported":1698829618,"current_range_meters":0,"station_id":"ce4bgj92rcd13ifvqbd0","pricing_plan_id":"free"},{"bike_id":"afc2e94c-b053-4300-b50d-a8e0a7c2d022","system_id":"levelo_inurba_marseille","lat":43.309047,"lon":5.396551,"is_reserved":false,"is_disabled":false,"rental_uris":{"android":"levelo://app?vid=afc2e94c-b053-4300-b50d-a8e0a7c2d022","ios":"levelo://app?vid=afc2e94c-b053-4300-b50d-a8e0a7c2d022"},"vehicle_type_id":"4","last_reported":1698829618,"current_range_meters":31200,"station_id":"ce4bh012rcd13ifvqcv0","pricing_plan_id":"free"},{"bike_id":"5e0bd864-4418-47dd-adf7-36cf671de379","system_id":"levelo_inurba_marseille","lat":43.309038,"lon":5.396546,"is_reserved":false,"is_disabled":false,"rental_uris":{"android":"levelo://app?vid=5e0bd864-4418-47dd-adf7-36cf671de379","ios":"levelo://app?vid=5e0bd864-4418-47dd-adf7-36cf671de379"},"vehicle_type_id":"4","last_reported":1698829618,"current_range_meters":31200,"station_id":"ce4bh012rcd13ifvqcv0","pricing_plan_id":"free"},{"bike_id":"8c8f0698-c3d3-427b-8acd-e461daaf8f43","system_id":"levelo_inurba_marseille","lat":43.308899,"lon":5.396386,"is_reserved":false,"is_disabled":false,"rental_uris":{"android":"levelo://app?vid=8c8f0698-c3d3-427b-8acd-e461daaf8f43","ios":"levelo://app?vid=8c8f0698-c3d3-427b-8acd-e461daaf8f43"},"vehicle_type_id":"4","last_reported":1698829618,"current_range_meters":30400,"station_id":"ce4bh012rcd13ifvqcv0","pricing_plan_id":"free"},{"bike_id":"b494f2e8-da00-476e-809d-fcd043466fdb","system_id":"levelo_inurba_marseille","lat":43.309038,"lon":5.396546,"is_reserved":false,"is_disabled":false,"rental_uris":{"android":"levelo://app?vid=b494f2e8-da00-476e-809d-fcd043466fdb","ios":"levelo://app?vid=b494f2e8-da00-476e-809d-fcd043466fdb"},"vehicle_type_id":"4","last_reported":1698829618,"current_range_meters":21600,"station_id":"ce4bh012rcd13ifvqcv0","pricing_plan_id":"free"},{"bike_id":"3ecd101c-e530-46ce-8cd4-b635a2fa04c4","system_id":"levelo_inurba_marseille","lat":43.309047,"lon":5.396551,"is_reserved":false,"is_disabled":false,"rental_uris":{"android":"levelo://app?vid=3ecd101c-e530-46ce-8cd4-b635a2fa04c4","ios":"levelo://app?vid=3ecd101c-e530-46ce-8cd4-b635a2fa04c4"},"vehicle_type_id":"4","last_reported":1698829618,"current_range_meters":31600,"station_id":"ce4bh012rcd13ifvqcv0","pricing_plan_id":"free"},{"bike_id":"d9ca683c-3177-4712-acaa-daa60508ea8c","system_id":"levelo_inurba_marseille","lat":43.309038,"lon":5.396546,"is_reserved":false,"is_disabled":false,"rental_uris":{"android":"levelo://app?vid=d9ca683c-3177-4712-acaa-daa60508ea8c","ios":"levelo://app?vid=d9ca683c-3177-4712-acaa-daa60508ea8c"},"vehicle_type_id":"4","last_reported":1698829618,"current_range_meters":21600,"station_id":"ce4bh012rcd13ifvqcv0","pricing_plan_id":"free"},{"bike_id":"f71d5960-07db-46c8-9d66-924677604cdc","system_id":"levelo_inurba_marseille","lat":43.309038,"lon":5.396546,"is_reserved":false,"is_disabled":false,"rental_uris":{"android":"levelo://app?vid=f71d5960-07db-46c8-9d66-924677604cdc","ios":"levelo://app?vid=f71d5960-07db-46c8-9d66-924677604cdc"},"vehicle_type_id":"4","last_reported":1698829618,"current_range_meters":31200,"station_id":"ce4bh012rcd13ifvqcv0","pricing_plan_id":"free"},{"bike_id":"3ad9e397-4fee-45d3-8ac3-0db596c3fa71","system_id":"levelo_inurba_marseille","lat":43.309047,"lon":5.396551,"is_reserved":false,"is_disabled":false,"rental_uris":{"android":"levelo://app?vid=3ad9e397-4fee-45d3-8ac3-0db596c3fa71","ios":"levelo://app?vid=3ad9e397-4fee-45d3-8ac3-0db596c3fa71"},"vehicle_type_id":"4","last_reported":1698829618,"current_range_meters":30000,"station_id":"ce4bh012rcd13ifvqcv0","pricing_plan_id":"free"},{"bike_id":"6a44c3ef-755c-42ca-9c71-9c676773dfc6","system_id":"levelo_inurba_marseille","lat":43.309038,"lon":5.396546,"is_reserved":false,"is_disabled":false,"rental_uris":{"android":"levelo://app?vid=6a44c3ef-755c-42ca-9c71-9c676773dfc6","ios":"levelo://app?vid=6a44c3ef-755c-42ca-9c71-9c676773dfc6"},"vehicle_type_id":"4","last_reported":1698829618,"current_range_meters":30400,"station_id":"ce4bh012rcd13ifvqcv0","pricing_plan_id":"free"},{"bike_id":"0169273f-c54f-4cf4-b50d-88c9618f517c","system_id":"levelo_inurba_marseille","lat":43.313264,"lon":5.396962,"is_reserved":false,"is_disabled":false,"rental_uris":{"android":"levelo://app?vid=0169273f-c54f-4cf4-b50d-88c9618f517c","ios":"levelo://app?vid=0169273f-c54f-4cf4-b50d-88c9618f517c"},"vehicle_type_id":"4","last_reported":1698829618,"current_range_meters":21600,"station_id":"","pricing_plan_id":"free"},{"bike_id":"2c016f71-3073-4b69-982d-3343ff46c7ad","system_id":"levelo_inurba_marseille","lat":43.309038,"lon":5.396546,"is_reserved":false,"is_disabled":false,"rental_uris":{"android":"levelo://app?vid=2c016f71-3073-4b69-982d-3343ff46c7ad","ios":"levelo://app?vid=2c016f71-3073-4b69-982d-3343ff46c7ad"},"vehicle_type_id":"4","last_reported":1698829618,"current_range_meters":17600,"station_id":"ce4bh012rcd13ifvqcv0","pricing_plan_id":"free"},{"bike_id":"071b63bd-64c3-4d75-a3a7-50251e2044ec","system_id":"levelo_inurba_marseille","lat":43.29529,"lon":5.385581,"is_reserved":false,"is_disabled":false,"rental_uris":{"android":"levelo://app?vid=071b63bd-64c3-4d75-a3a7-50251e2044ec","ios":"levelo://app?vid=071b63bd-64c3-4d75-a3a7-50251e2044ec"},"vehicle_type_id":"4","last_reported":1698829618,"current_range_meters":24400,"station_id":"ce4bgih2rcd13ifvqba0","pricing_plan_id":"free"},{"bike_id":"46522279-471b-41df-a57f-cee60ef40cd5","system_id":"levelo_inurba_marseille","lat":43.290631,"lon":5.359244,"is_reserved":false,"is_disabled":false,"rental_uris":{"android":"levelo://app?vid=46522279-471b-41df-a57f-cee60ef40cd5","ios":"levelo://app?vid=46522279-471b-41df-a57f-cee60ef40cd5"},"vehicle_type_id":"4","last_reported":1698829618,"current_range_meters":30400,"station_id":"ce4bha92rcd13ifvqeg0","pricing_plan_id":"free"},{"bike_id":"573693a2-1c29-4c9b-87e6-dfab262f5347","system_id":"levelo_inurba_marseille","lat":43.290624,"lon":5.359245,"is_reserved":false,"is_disabled":false,"rental_uris":{"android":"levelo://app?vid=573693a2-1c29-4c9b-87e6-dfab262f5347","ios":"levelo://app?vid=573693a2-1c29-4c9b-87e6-dfab262f5347"},"vehicle_type_id":"4","last_reported":1698829618,"current_range_meters":20800,"station_id":"ce4bha92rcd13ifvqeg0","pricing_plan_id":"free"},{"bike_id":"eb0c0c5f-74ba-486c-a6f7-45f94928cf91","system_id":"levelo_inurba_marseille","lat":43.290327,"lon":5.375711,"is_reserved":false,"is_disabled":false,"rental_uris":{"android":"levelo://app?vid=eb0c0c5f-74ba-486c-a6f7-45f94928cf91","ios":"levelo://app?vid=eb0c0c5f-74ba-486c-a6f7-45f94928cf91"},"vehicle_type_id":"4","last_reported":1698829618,"current_range_meters":26800,"station_id":"ce4bh692rcd13ifvqe90","pricing_plan_id":"free"},{"bike_id":"218c74f2-825c-47be-a0b4-ba304b3b803a","system_id":"levelo_inurba_marseille","lat":43.289184,"lon":5.366408,"is_reserved":false,"is_disabled":false,"rental_uris":{"android":"levelo://app?vid=218c74f2-825c-47be-a0b4-ba304b3b803a","ios":"levelo://app?vid=218c74f2-825c-47be-a0b4-ba304b3b803a"},"vehicle_type_id":"4","last_reported":1698829618,"current_range_meters":27600,"station_id":"ce4bhap2rcd13ifvqek0","pricing_plan_id":"free"},{"bike_id":"75d52511-3d45-4341-a3a8-fbd83e0ecbba","system_id":"levelo_inurba_marseille","lat":43.28932,"lon":5.36633,"is_reserved":false,"is_disabled":false,"rental_uris":{"android":"levelo://app?vid=75d52511-3d45-4341-a3a8-fbd83e0ecbba","ios":"levelo://app?vid=75d52511-3d45-4341-a3a8-fbd83e0ecbba"},"vehicle_type_id":"4","last_reported":1698829618,"current_range_meters":15200,"station_id":"ce4bhap2rcd13ifvqek0","pricing_plan_id":"free"},{"bike_id":"60e22fc3-ee04-4cce-8011-de068f1f194e","system_id":"levelo_inurba_marseille","lat":43.304296,"lon":5.397513,"is_reserved":false,"is_disabled":false,"rental_uris":{"android":"levelo://app?vid=60e22fc3-ee04-4cce-8011-de068f1f194e","ios":"levelo://app?vid=60e22fc3-ee04-4cce-8011-de068f1f194e"},"vehicle_type_id":"4","last_reported":1698829618,"current_range_meters":17600,"station_id":"ce4bh092rcd13ifvqd20","pricing_plan_id":"free"},{"bike_id":"016d3502-30d8-47de-90db-2bc784834b62","system_id":"levelo_inurba_marseille","lat":43.292644,"lon":5.384257,"is_reserved":false,"is_disabled":false,"rental_uris":{"android":"levelo://app?vid=016d3502-30d8-47de-90db-2bc784834b62","ios":"levelo://app?vid=016d3502-30d8-47de-90db-2bc784834b62"},"vehicle_type_id":"4","last_reported":1698829618,"current_range_meters":26400,"station_id":"ce4bh692rcd13ifvqea0","pricing_plan_id":"free"},{"bike_id":"9d339a6b-8d28-480e-bc3c-d64d12c7eb19","system_id":"levelo_inurba_marseille","lat":43.330409,"lon":5.389169,"is_reserved":false,"is_disabled":false,"rental_uris":{"android":"levelo://app?vid=9d339a6b-8d28-480e-bc3c-d64d12c7eb19","ios":"levelo://app?vid=9d339a6b-8d28-480e-bc3c-d64d12c7eb19"},"vehicle_type_id":"4","last_reported":1698829618,"current_range_meters":22000,"station_id":"ce4bhr92rcd13ifvqhrg","pricing_plan_id":"free"},{"bike_id":"ff7f9739-5001-4ab9-919c-f6555f7061d6","system_id":"levelo_inurba_marseille","lat":43.33043,"lon":5.38918,"is_reserved":false,"is_disabled":false,"rental_uris":{"android":"levelo://app?vid=ff7f9739-5001-4ab9-919c-f6555f7061d6","ios":"levelo://app?vid=ff7f9739-5001-4ab9-919c-f6555f7061d6"},"vehicle_type_id":"4","last_reported":1698829618,"current_range_meters":30800,"station_id":"ce4bhr92rcd13ifvqhrg","pricing_plan_id":"free"},{"bike_id":"84a0f992-03e9-46cb-b3a7-032cd3c9898c","system_id":"levelo_inurba_marseille","lat":43.290104,"lon":5.356111,"is_reserved":false,"is_disabled":false,"rental_uris":{"android":"levelo://app?vid=84a0f992-03e9-46cb-b3a7-032cd3c9898c","ios":"levelo://app?vid=84a0f992-03e9-46cb-b3a7-032cd3c9898c"},"vehicle_type_id":"4","last_reported":1698829618,"current_range_meters":23200,"station_id":"ce4bhb92rcd13ifvqen0","pricing_plan_id":"free"},{"bike_id":"15600a46-1ea2-4088-a56f-c0d06030a409","system_id":"levelo_inurba_marseille","lat":43.290104,"lon":5.356111,"is_reserved":false,"is_disabled":false,"rental_uris":{"android":"levelo://app?vid=15600a46-1ea2-4088-a56f-c0d06030a409","ios":"levelo://app?vid=15600a46-1ea2-4088-a56f-c0d06030a409"},"vehicle_type_id":"4","last_reported":1698829618,"current_range_meters":28000,"station_id":"ce4bhb92rcd13ifvqen0","pricing_plan_id":"free"},{"bike_id":"8eda89f1-457e-4987-9dcd-47be68802976","system_id":"levelo_inurba_marseille","lat":43.290995,"lon":5.381361,"is_reserved":false,"is_disabled":false,"rental_uris":{"android":"levelo://app?vid=8eda89f1-457e-4987-9dcd-47be68802976","ios":"levelo://app?vid=8eda89f1-457e-4987-9dcd-47be68802976"},"vehicle_type_id":"4","last_reported":1698829618,"current_range_meters":25600,"station_id":"ce4bh512rcd13ifvqe2g","pricing_plan_id":"free"},{"bike_id":"e0d713cd-ec81-44ec-8ba4-571dd76a2b05","system_id":"levelo_inurba_marseille","lat":43.295169,"lon":5.390426,"is_reserved":false,"is_disabled":false,"rental_uris":{"android":"levelo://app?vid=e0d713cd-ec81-44ec-8ba4-571dd76a2b05","ios":"levelo://app?vid=e0d713cd-ec81-44ec-8ba4-571dd76a2b05"},"vehicle_type_id":"4","last_reported":1698829618,"current_range_meters":13600,"station_id":"ce4bh3p2rcd13ifvqdp0","pricing_plan_id":"free"},{"bike_id":"0d731ed0-f99a-4456-bf86-a8945ef0cd0c","system_id":"levelo_inurba_marseille","lat":43.28856,"lon":5.358371,"is_reserved":false,"is_disabled":false,"rental_uris":{"android":"levelo://app?vid=0d731ed0-f99a-4456-bf86-a8945ef0cd0c","ios":"levelo://app?vid=0d731ed0-f99a-4456-bf86-a8945ef0cd0c"},"vehicle_type_id":"4","last_reported":1698829618,"current_range_meters":26800,"station_id":"ce4bhb12rcd13ifvqem0","pricing_plan_id":"free"},{"bike_id":"c89f602f-0bc6-4ecd-836e-b5f479125398","system_id":"levelo_inurba_marseille","lat":43.2901,"lon":5.381269,"is_reserved":false,"is_disabled":false,"rental_uris":{"android":"levelo://app?vid=c89f602f-0bc6-4ecd-836e-b5f479125398","ios":"levelo://app?vid=c89f602f-0bc6-4ecd-836e-b5f479125398"},"vehicle_type_id":"4","last_reported":1698829618,"current_range_meters":31200,"station_id":"ce4bh4p2rcd13ifvqe1g","pricing_plan_id":"free"},{"bike_id":"bfcd1a56-feb9-4a3d-9ad6-718e1d52d777","system_id":"levelo_inurba_marseille","lat":43.28856,"lon":5.358371,"is_reserved":false,"is_disabled":false,"rental_uris":{"android":"levelo://app?vid=bfcd1a56-feb9-4a3d-9ad6-718e1d52d777","ios":"levelo://app?vid=bfcd1a56-feb9-4a3d-9ad6-718e1d52d777"},"vehicle_type_id":"4","last_reported":1698829618,"current_range_meters":8800,"station_id":"ce4bhb12rcd13ifvqem0","pricing_plan_id":"free"},{"bike_id":"51695c26-3878-43bf-941e-ce4e4dce41bc","system_id":"levelo_inurba_marseille","lat":43.28856,"lon":5.358371,"is_reserved":false,"is_disabled":false,"rental_uris":{"android":"levelo://app?vid=51695c26-3878-43bf-941e-ce4e4dce41bc","ios":"levelo://app?vid=51695c26-3878-43bf-941e-ce4e4dce41bc"},"vehicle_type_id":"4","last_reported":1698829618,"current_range_meters":30400,"station_id":"ce4bhb12rcd13ifvqem0","pricing_plan_id":"free"},{"bike_id":"3ca3c3e2-7da2-43e4-84d6-5a39a393ba9e","system_id":"levelo_inurba_marseille","lat":43.312751,"lon":5.401714,"is_reserved":false,"is_disabled":false,"rental_uris":{"android":"levelo://app?vid=3ca3c3e2-7da2-43e4-84d6-5a39a393ba9e","ios":"levelo://app?vid=3ca3c3e2-7da2-43e4-84d6-5a39a393ba9e"},"vehicle_type_id":"4","last_reported":1698829618,"current_range_meters":30800,"station_id":"ce4bh092rcd13ifvqd30","pricing_plan_id":"free"},{"bike_id":"55b0ecf0-8ecd-4b50-bdff-91b9f308e9b6","system_id":"levelo_inurba_marseille","lat":43.3093,"lon":5.40139,"is_reserved":false,"is_disabled":false,"rental_uris":{"android":"levelo://app?vid=55b0ecf0-8ecd-4b50-bdff-91b9f308e9b6","ios":"levelo://app?vid=55b0ecf0-8ecd-4b50-bdff-91b9f308e9b6"},"vehicle_type_id":"4","last_reported":1698829618,"current_range_meters":24000,"station_id":"ce4bgvp2rcd13ifvqct0","pricing_plan_id":"free"},{"bike_id":"7e9dd234-5556-412a-9c90-9cd6682d223d","system_id":"levelo_inurba_marseille","lat":43.312761,"lon":5.401748,"is_reserved":false,"is_disabled":false,"rental_uris":{"android":"levelo://app?vid=7e9dd234-5556-412a-9c90-9cd6682d223d","ios":"levelo://app?vid=7e9dd234-5556-412a-9c90-9cd6682d223d"},"vehicle_type_id":"4","last_reported":1698829618,"current_range_meters":29200,"station_id":"ce4bh092rcd13ifvqd30","pricing_plan_id":"free"},{"bike_id":"aef89d36-8ca3-4ba8-9084-1261fd7bb16e","system_id":"levelo_inurba_marseille","lat":43.309296,"lon":5.401441,"is_reserved":false,"is_disabled":false,"rental_uris":{"android":"levelo://app?vid=aef89d36-8ca3-4ba8-9084-1261fd7bb16e","ios":"levelo://app?vid=aef89d36-8ca3-4ba8-9084-1261fd7bb16e"},"vehicle_type_id":"4","last_reported":1698829618,"current_range_meters":20400,"station_id":"ce4bgvp2rcd13ifvqct0","pricing_plan_id":"free"},{"bike_id":"c55fa2a1-a50a-46de-9037-88e2ccd34ad7","system_id":"levelo_inurba_marseille","lat":43.312609,"lon":5.401662,"is_reserved":false,"is_disabled":false,"rental_uris":{"android":"levelo://app?vid=c55fa2a1-a50a-46de-9037-88e2ccd34ad7","ios":"levelo://app?vid=c55fa2a1-a50a-46de-9037-88e2ccd34ad7"},"vehicle_type_id":"4","last_reported":1698829618,"current_range_meters":27200,"station_id":"ce4bh092rcd13ifvqd30","pricing_plan_id":"free"},{"bike_id":"6948b262-2520-4833-a756-d38d4e58efdc","system_id":"levelo_inurba_marseille","lat":43.28727,"lon":5.36088,"is_reserved":false,"is_disabled":false,"rental_uris":{"android":"levelo://app?vid=6948b262-2520-4833-a756-d38d4e58efdc","ios":"levelo://app?vid=6948b262-2520-4833-a756-d38d4e58efdc"},"vehicle_type_id":"4","last_reported":1698829618,"current_range_meters":23600,"station_id":"cki0cbj6b192h4jlfktg","pricing_plan_id":"free"},{"bike_id":"d102c1e3-92d9-4f27-8c70-f37fc387d558","system_id":"levelo_inurba_marseille","lat":43.287255,"lon":5.360973,"is_reserved":false,"is_disabled":false,"rental_uris":{"android":"levelo://app?vid=d102c1e3-92d9-4f27-8c70-f37fc387d558","ios":"levelo://app?vid=d102c1e3-92d9-4f27-8c70-f37fc387d558"},"vehicle_type_id":"4","last_reported":1698829618,"current_range_meters":31200,"station_id":"cki0cbj6b192h4jlfktg","pricing_plan_id":"free"},{"bike_id":"822518af-18e6-412c-b07d-fda7e0de2e6a","system_id":"levelo_inurba_marseille","lat":43.28726,"lon":5.3608,"is_reserved":false,"is_disabled":false,"rental_uris":{"android":"levelo://app?vid=822518af-18e6-412c-b07d-fda7e0de2e6a","ios":"levelo://app?vid=822518af-18e6-412c-b07d-fda7e0de2e6a"},"vehicle_type_id":"4","last_reported":1698829618,"current_range_meters":31200,"station_id":"cki0cbj6b192h4jlfktg","pricing_plan_id":"free"},{"bike_id":"a20b5a68-c0dc-41ab-9a2d-66822df5c30f","system_id":"levelo_inurba_marseille","lat":43.287216,"lon":5.360924,"is_reserved":false,"is_disabled":false,"rental_uris":{"android":"levelo://app?vid=a20b5a68-c0dc-41ab-9a2d-66822df5c30f","ios":"levelo://app?vid=a20b5a68-c0dc-41ab-9a2d-66822df5c30f"},"vehicle_type_id":"4","last_reported":1698829618,"current_range_meters":31200,"station_id":"cki0cbj6b192h4jlfktg","pricing_plan_id":"free"},{"bike_id":"c0804cd8-eca4-41f7-91a9-cc7df4a2d5d0","system_id":"levelo_inurba_marseille","lat":43.286961,"lon":5.373785,"is_reserved":false,"is_disabled":false,"rental_uris":{"android":"levelo://app?vid=c0804cd8-eca4-41f7-91a9-cc7df4a2d5d0","ios":"levelo://app?vid=c0804cd8-eca4-41f7-91a9-cc7df4a2d5d0"},"vehicle_type_id":"4","last_reported":1698829618,"current_range_meters":25200,"station_id":"ce4bh3p2rcd13ifvqdq0","pricing_plan_id":"free"},{"bike_id":"dc9ee42c-8727-4239-a928-5c4f555e8b75","system_id":"levelo_inurba_marseille","lat":43.29041,"lon":5.38625,"is_reserved":false,"is_disabled":false,"rental_uris":{"android":"levelo://app?vid=dc9ee42c-8727-4239-a928-5c4f555e8b75","ios":"levelo://app?vid=dc9ee42c-8727-4239-a928-5c4f555e8b75"},"vehicle_type_id":"4","last_reported":1698829618,"current_range_meters":16400,"station_id":"ce4bh4p2rcd13ifvqe0g","pricing_plan_id":"free"},{"bike_id":"e783adff-a92b-4478-b8af-104791f47df0","system_id":"levelo_inurba_marseille","lat":43.29024,"lon":5.38635,"is_reserved":false,"is_disabled":false,"rental_uris":{"android":"levelo://app?vid=e783adff-a92b-4478-b8af-104791f47df0","ios":"levelo://app?vid=e783adff-a92b-4478-b8af-104791f47df0"},"vehicle_type_id":"4","last_reported":1698829618,"current_range_meters":23600,"station_id":"","pricing_plan_id":"free"},{"bike_id":"60191834-bb17-40dc-aefa-857c2c14c909","system_id":"levelo_inurba_marseille","lat":43.289307,"lon":5.38406,"is_reserved":false,"is_disabled":false,"rental_uris":{"android":"levelo://app?vid=60191834-bb17-40dc-aefa-857c2c14c909","ios":"levelo://app?vid=60191834-bb17-40dc-aefa-857c2c14c909"},"vehicle_type_id":"4","last_reported":1698829618,"current_range_meters":16400,"station_id":"ce4bh612rcd13ifvqe6g","pricing_plan_id":"free"},{"bike_id":"d07c0cda-9446-44a6-ab64-bf282e14a33e","system_id":"levelo_inurba_marseille","lat":43.286109,"lon":5.370642,"is_reserved":false,"is_disabled":false,"rental_uris":{"android":"levelo://app?vid=d07c0cda-9446-44a6-ab64-bf282e14a33e","ios":"levelo://app?vid=d07c0cda-9446-44a6-ab64-bf282e14a33e"},"vehicle_type_id":"4","last_reported":1698829618,"current_range_meters":27600,"station_id":"ce4bht12rcd13ifvqi60","pricing_plan_id":"free"},{"bike_id":"07eee4df-f512-438f-a9d3-6ad6fc625621","system_id":"levelo_inurba_marseille","lat":43.287184,"lon":5.37937,"is_reserved":false,"is_disabled":false,"rental_uris":{"android":"levelo://app?vid=07eee4df-f512-438f-a9d3-6ad6fc625621","ios":"levelo://app?vid=07eee4df-f512-438f-a9d3-6ad6fc625621"},"vehicle_type_id":"4","last_reported":1698829618,"current_range_meters":24000,"station_id":"ce4bh9p2rcd13ifvqec0","pricing_plan_id":"free"},{"bike_id":"b7f451bc-fa0e-41e8-b713-b0026c62474c","system_id":"levelo_inurba_marseille","lat":43.316434,"lon":5.404552,"is_reserved":false,"is_disabled":false,"rental_uris":{"android":"levelo://app?vid=b7f451bc-fa0e-41e8-b713-b0026c62474c","ios":"levelo://app?vid=b7f451bc-fa0e-41e8-b713-b0026c62474c"},"vehicle_type_id":"4","last_reported":1698829618,"current_range_meters":9600,"station_id":"ce4bh012rcd13ifvqd00","pricing_plan_id":"free"},{"bike_id":"d88deac7-1eec-457f-a8e5-1c2ea5192367","system_id":"levelo_inurba_marseille","lat":43.284622,"lon":5.358893,"is_reserved":false,"is_disabled":false,"rental_uris":{"android":"levelo://app?vid=d88deac7-1eec-457f-a8e5-1c2ea5192367","ios":"levelo://app?vid=d88deac7-1eec-457f-a8e5-1c2ea5192367"},"vehicle_type_id":"4","last_reported":1698829618,"current_range_meters":30400,"station_id":"ce4bhah2rcd13ifvqei0","pricing_plan_id":"free"},{"bike_id":"f38be388-9070-49f1-a346-3c26f79d9b48","system_id":"levelo_inurba_marseille","lat":43.284599,"lon":5.358942,"is_reserved":false,"is_disabled":false,"rental_uris":{"android":"levelo://app?vid=f38be388-9070-49f1-a346-3c26f79d9b48","ios":"levelo://app?vid=f38be388-9070-49f1-a346-3c26f79d9b48"},"vehicle_type_id":"4","last_reported":1698829618,"current_range_meters":28400,"station_id":"ce4bhah2rcd13ifvqei0","pricing_plan_id":"free"},{"bike_id":"c90fc7e5-d36b-4fe3-ab3f-00c37fccc47c","system_id":"levelo_inurba_marseille","lat":43.28459,"lon":5.35894,"is_reserved":false,"is_disabled":false,"rental_uris":{"android":"levelo://app?vid=c90fc7e5-d36b-4fe3-ab3f-00c37fccc47c","ios":"levelo://app?vid=c90fc7e5-d36b-4fe3-ab3f-00c37fccc47c"},"vehicle_type_id":"4","last_reported":1698829618,"current_range_meters":30400,"station_id":"ce4bhah2rcd13ifvqei0","pricing_plan_id":"free"},{"bike_id":"5a011448-4abd-45a3-9c5a-8fd947849718","system_id":"levelo_inurba_marseille","lat":43.28461,"lon":5.35879,"is_reserved":false,"is_disabled":false,"rental_uris":{"android":"levelo://app?vid=5a011448-4abd-45a3-9c5a-8fd947849718","ios":"levelo://app?vid=5a011448-4abd-45a3-9c5a-8fd947849718"},"vehicle_type_id":"4","last_reported":1698829618,"current_range_meters":29600,"station_id":"ce4bhah2rcd13ifvqei0","pricing_plan_id":"free"},{"bike_id":"795ccb15-8de8-4238-aa2b-f3731900ccd1","system_id":"levelo_inurba_marseille","lat":43.28458,"lon":5.35894,"is_reserved":false,"is_disabled":false,"rental_uris":{"android":"levelo://app?vid=795ccb15-8de8-4238-aa2b-f3731900ccd1","ios":"levelo://app?vid=795ccb15-8de8-4238-aa2b-f3731900ccd1"},"vehicle_type_id":"4","last_reported":1698829618,"current_range_meters":26800,"station_id":"ce4bhah2rcd13ifvqei0","pricing_plan_id":"free"},{"bike_id":"74de69e1-dbb0-47db-b83b-469781e80a1a","system_id":"levelo_inurba_marseille","lat":43.2846,"lon":5.35877,"is_reserved":false,"is_disabled":false,"rental_uris":{"android":"levelo://app?vid=74de69e1-dbb0-47db-b83b-469781e80a1a","ios":"levelo://app?vid=74de69e1-dbb0-47db-b83b-469781e80a1a"},"vehicle_type_id":"4","last_reported":1698829618,"current_range_meters":22400,"station_id":"ce4bhah2rcd13ifvqei0","pricing_plan_id":"free"},{"bike_id":"b277c708-e675-4f6e-815f-0b57759c6faf","system_id":"levelo_inurba_marseille","lat":43.284595,"lon":5.358765,"is_reserved":false,"is_disabled":false,"rental_uris":{"android":"levelo://app?vid=b277c708-e675-4f6e-815f-0b57759c6faf","ios":"levelo://app?vid=b277c708-e675-4f6e-815f-0b57759c6faf"},"vehicle_type_id":"4","last_reported":1698829618,"current_range_meters":19600,"station_id":"ce4bhah2rcd13ifvqei0","pricing_plan_id":"free"},{"bike_id":"5a5108bc-4b77-4223-a04e-f1d14a5b8ef9","system_id":"levelo_inurba_marseille","lat":43.284557,"lon":5.358867,"is_reserved":false,"is_disabled":false,"rental_uris":{"android":"levelo://app?vid=5a5108bc-4b77-4223-a04e-f1d14a5b8ef9","ios":"levelo://app?vid=5a5108bc-4b77-4223-a04e-f1d14a5b8ef9"},"vehicle_type_id":"4","last_reported":1698829618,"current_range_meters":31200,"station_id":"ce4bhah2rcd13ifvqei0","pricing_plan_id":"free"},{"bike_id":"06747b60-4bbd-4b67-b60b-2033c8b2f8f6","system_id":"levelo_inurba_marseille","lat":43.284567,"lon":5.358758,"is_reserved":false,"is_disabled":false,"rental_uris":{"android":"levelo://app?vid=06747b60-4bbd-4b67-b60b-2033c8b2f8f6","ios":"levelo://app?vid=06747b60-4bbd-4b67-b60b-2033c8b2f8f6"},"vehicle_type_id":"4","last_reported":1698829618,"current_range_meters":31200,"station_id":"ce4bhah2rcd13ifvqei0","pricing_plan_id":"free"},{"bike_id":"e2ec3ae6-0f4b-4680-8afd-22991cee87c1","system_id":"levelo_inurba_marseille","lat":43.28457,"lon":5.358736,"is_reserved":false,"is_disabled":false,"rental_uris":{"android":"levelo://app?vid=e2ec3ae6-0f4b-4680-8afd-22991cee87c1","ios":"levelo://app?vid=e2ec3ae6-0f4b-4680-8afd-22991cee87c1"},"vehicle_type_id":"4","last_reported":1698829618,"current_range_meters":28800,"station_id":"ce4bhah2rcd13ifvqei0","pricing_plan_id":"free"},{"bike_id":"aeb492de-4cfc-40c3-85e1-edc5d0e851b8","system_id":"levelo_inurba_marseille","lat":43.294314,"lon":5.397498,"is_reserved":false,"is_disabled":false,"rental_uris":{"android":"levelo://app?vid=aeb492de-4cfc-40c3-85e1-edc5d0e851b8","ios":"levelo://app?vid=aeb492de-4cfc-40c3-85e1-edc5d0e851b8"},"vehicle_type_id":"4","last_reported":1698829618,"current_range_meters":14000,"station_id":"ce4bh3h2rcd13ifvqdo0","pricing_plan_id":"free"},{"bike_id":"4e4156a5-072e-4ae4-8c48-72369bcd4d77","system_id":"levelo_inurba_marseille","lat":43.28453,"lon":5.35881,"is_reserved":false,"is_disabled":false,"rental_uris":{"android":"levelo://app?vid=4e4156a5-072e-4ae4-8c48-72369bcd4d77","ios":"levelo://app?vid=4e4156a5-072e-4ae4-8c48-72369bcd4d77"},"vehicle_type_id":"4","last_reported":1698829618,"current_range_meters":30400,"station_id":"ce4bhah2rcd13ifvqei0","pricing_plan_id":"free"},{"bike_id":"c48c6f14-6bb6-4ba1-94ea-f5317111c89e","system_id":"levelo_inurba_marseille","lat":43.294366,"lon":5.397522,"is_reserved":false,"is_disabled":false,"rental_uris":{"android":"levelo://app?vid=c48c6f14-6bb6-4ba1-94ea-f5317111c89e","ios":"levelo://app?vid=c48c6f14-6bb6-4ba1-94ea-f5317111c89e"},"vehicle_type_id":"4","last_reported":1698829618,"current_range_meters":29600,"station_id":"ce4bh3h2rcd13ifvqdo0","pricing_plan_id":"free"},{"bike_id":"c90275dd-8159-4b65-a034-1d3d353e294c","system_id":"levelo_inurba_marseille","lat":43.28617,"lon":5.35116,"is_reserved":false,"is_disabled":false,"rental_uris":{"android":"levelo://app?vid=c90275dd-8159-4b65-a034-1d3d353e294c","ios":"levelo://app?vid=c90275dd-8159-4b65-a034-1d3d353e294c"},"vehicle_type_id":"4","last_reported":1698829618,"current_range_meters":23200,"station_id":"ce4bhch2rcd13ifvqeug","pricing_plan_id":"free"},{"bike_id":"4f4ca020-a216-4733-9446-742d527d3950","system_id":"levelo_inurba_marseille","lat":43.28617,"lon":5.35105,"is_reserved":false,"is_disabled":false,"rental_uris":{"android":"levelo://app?vid=4f4ca020-a216-4733-9446-742d527d3950","ios":"levelo://app?vid=4f4ca020-a216-4733-9446-742d527d3950"},"vehicle_type_id":"4","last_reported":1698829618,"current_range_meters":19200,"station_id":"ce4bhch2rcd13ifvqeug","pricing_plan_id":"free"},{"bike_id":"bae30bd7-8da3-419b-a941-477a67ad3493","system_id":"levelo_inurba_marseille","lat":43.286164,"lon":5.351049,"is_reserved":false,"is_disabled":false,"rental_uris":{"android":"levelo://app?vid=bae30bd7-8da3-419b-a941-477a67ad3493","ios":"levelo://app?vid=bae30bd7-8da3-419b-a941-477a67ad3493"},"vehicle_type_id":"4","last_reported":1698829618,"current_range_meters":30800,"station_id":"ce4bhch2rcd13ifvqeug","pricing_plan_id":"free"},{"bike_id":"edc44568-b93e-4786-b686-9eea8bb7361c","system_id":"levelo_inurba_marseille","lat":43.286161,"lon":5.35103,"is_reserved":false,"is_disabled":false,"rental_uris":{"android":"levelo://app?vid=edc44568-b93e-4786-b686-9eea8bb7361c","ios":"levelo://app?vid=edc44568-b93e-4786-b686-9eea8bb7361c"},"vehicle_type_id":"4","last_reported":1698829618,"current_range_meters":18000,"station_id":"ce4bhch2rcd13ifvqeug","pricing_plan_id":"free"},{"bike_id":"c45fb6be-60b4-4752-9c96-ee69df68842a","system_id":"levelo_inurba_marseille","lat":43.294314,"lon":5.397498,"is_reserved":false,"is_disabled":false,"rental_uris":{"android":"levelo://app?vid=c45fb6be-60b4-4752-9c96-ee69df68842a","ios":"levelo://app?vid=c45fb6be-60b4-4752-9c96-ee69df68842a"},"vehicle_type_id":"4","last_reported":1698829618,"current_range_meters":20800,"station_id":"ce4bh3h2rcd13ifvqdo0","pricing_plan_id":"free"},{"bike_id":"86a3bd79-d5a8-489f-94eb-a93b9b1ee41f","system_id":"levelo_inurba_marseille","lat":43.286103,"lon":5.351127,"is_reserved":false,"is_disabled":false,"rental_uris":{"android":"levelo://app?vid=86a3bd79-d5a8-489f-94eb-a93b9b1ee41f","ios":"levelo://app?vid=86a3bd79-d5a8-489f-94eb-a93b9b1ee41f"},"vehicle_type_id":"4","last_reported":1698829618,"current_range_meters":30800,"station_id":"ce4bhch2rcd13ifvqeug","pricing_plan_id":"free"},{"bike_id":"f6cf2846-5643-4ea1-b6d3-43b3dc08c1f9","system_id":"levelo_inurba_marseille","lat":43.295713,"lon":5.399639,"is_reserved":false,"is_disabled":false,"rental_uris":{"android":"levelo://app?vid=f6cf2846-5643-4ea1-b6d3-43b3dc08c1f9","ios":"levelo://app?vid=f6cf2846-5643-4ea1-b6d3-43b3dc08c1f9"},"vehicle_type_id":"4","last_reported":1698829618,"current_range_meters":30800,"station_id":"ce4bh312rcd13ifvqdj0","pricing_plan_id":"free"},{"bike_id":"7c2f14ce-f8df-46e7-9128-4c71d8c22c6f","system_id":"levelo_inurba_marseille","lat":43.28677,"lon":5.386618,"is_reserved":false,"is_disabled":false,"rental_uris":{"android":"levelo://app?vid=7c2f14ce-f8df-46e7-9128-4c71d8c22c6f","ios":"levelo://app?vid=7c2f14ce-f8df-46e7-9128-4c71d8c22c6f"},"vehicle_type_id":"4","last_reported":1698829618,"current_range_meters":4400,"station_id":"ce4bh492rcd13ifvqdug","pricing_plan_id":"free"},{"bike_id":"22782270-1ff9-4f2c-8018-6fd7e46fb390","system_id":"levelo_inurba_marseille","lat":43.286595,"lon":5.386795,"is_reserved":false,"is_disabled":false,"rental_uris":{"android":"levelo://app?vid=22782270-1ff9-4f2c-8018-6fd7e46fb390","ios":"levelo://app?vid=22782270-1ff9-4f2c-8018-6fd7e46fb390"},"vehicle_type_id":"4","last_reported":1698829618,"current_range_meters":26400,"station_id":"ce4bh492rcd13ifvqdug","pricing_plan_id":"free"},{"bike_id":"a055d3cd-356a-404c-bbd2-051de57d716a","system_id":"levelo_inurba_marseille","lat":43.319179,"lon":5.407725,"is_reserved":false,"is_disabled":false,"rental_uris":{"android":"levelo://app?vid=a055d3cd-356a-404c-bbd2-051de57d716a","ios":"levelo://app?vid=a055d3cd-356a-404c-bbd2-051de57d716a"},"vehicle_type_id":"4","last_reported":1698829618,"current_range_meters":29200,"station_id":"ce4bhq12rcd13ifvqhig","pricing_plan_id":"free"},{"bike_id":"efff5fd1-266e-4adf-8f1f-62825b0fcd46","system_id":"levelo_inurba_marseille","lat":43.319179,"lon":5.407725,"is_reserved":false,"is_disabled":false,"rental_uris":{"android":"levelo://app?vid=efff5fd1-266e-4adf-8f1f-62825b0fcd46","ios":"levelo://app?vid=efff5fd1-266e-4adf-8f1f-62825b0fcd46"},"vehicle_type_id":"4","last_reported":1698829618,"current_range_meters":31200,"station_id":"ce4bhq12rcd13ifvqhig","pricing_plan_id":"free"},{"bike_id":"1a9ba26e-13fa-4bb8-a943-0396be7a4c60","system_id":"levelo_inurba_marseille","lat":43.319179,"lon":5.407725,"is_reserved":false,"is_disabled":false,"rental_uris":{"android":"levelo://app?vid=1a9ba26e-13fa-4bb8-a943-0396be7a4c60","ios":"levelo://app?vid=1a9ba26e-13fa-4bb8-a943-0396be7a4c60"},"vehicle_type_id":"4","last_reported":1698829618,"current_range_meters":31200,"station_id":"ce4bhq12rcd13ifvqhig","pricing_plan_id":"free"},{"bike_id":"821b4f5f-8b8b-49d8-8410-98ecf646aec4","system_id":"levelo_inurba_marseille","lat":43.33717,"lon":5.391857,"is_reserved":false,"is_disabled":false,"rental_uris":{"android":"levelo://app?vid=821b4f5f-8b8b-49d8-8410-98ecf646aec4","ios":"levelo://app?vid=821b4f5f-8b8b-49d8-8410-98ecf646aec4"},"vehicle_type_id":"4","last_reported":1698829618,"current_range_meters":30000,"station_id":"ce4bhr92rcd13ifvqhsg","pricing_plan_id":"free"},{"bike_id":"9ce7480c-5ad7-4215-b6c0-505ed331c39e","system_id":"levelo_inurba_marseille","lat":43.337168,"lon":5.391825,"is_reserved":false,"is_disabled":false,"rental_uris":{"android":"levelo://app?vid=9ce7480c-5ad7-4215-b6c0-505ed331c39e","ios":"levelo://app?vid=9ce7480c-5ad7-4215-b6c0-505ed331c39e"},"vehicle_type_id":"4","last_reported":1698829618,"current_range_meters":31200,"station_id":"ce4bhr92rcd13ifvqhsg","pricing_plan_id":"free"},{"bike_id":"7d8faa3d-c112-47e0-bd1d-cf47eba43e72","system_id":"levelo_inurba_marseille","lat":43.323464,"lon":5.406297,"is_reserved":false,"is_disabled":false,"rental_uris":{"android":"levelo://app?vid=7d8faa3d-c112-47e0-bd1d-cf47eba43e72","ios":"levelo://app?vid=7d8faa3d-c112-47e0-bd1d-cf47eba43e72"},"vehicle_type_id":"4","last_reported":1698829618,"current_range_meters":11600,"station_id":"ce4bhq92rcd13ifvqhjg","pricing_plan_id":"free"},{"bike_id":"fbeefe6e-6251-465e-a863-82ca958ebf86","system_id":"levelo_inurba_marseille","lat":43.323464,"lon":5.406297,"is_reserved":false,"is_disabled":false,"rental_uris":{"android":"levelo://app?vid=fbeefe6e-6251-465e-a863-82ca958ebf86","ios":"levelo://app?vid=fbeefe6e-6251-465e-a863-82ca958ebf86"},"vehicle_type_id":"4","last_reported":1698829618,"current_range_meters":28000,"station_id":"ce4bhq92rcd13ifvqhjg","pricing_plan_id":"free"},{"bike_id":"addfdb12-f9a9-4295-a7fe-4df22953dd9d","system_id":"levelo_inurba_marseille","lat":43.284793,"lon":5.384113,"is_reserved":false,"is_disabled":false,"rental_uris":{"android":"levelo://app?vid=addfdb12-f9a9-4295-a7fe-4df22953dd9d","ios":"levelo://app?vid=addfdb12-f9a9-4295-a7fe-4df22953dd9d"},"vehicle_type_id":"4","last_reported":1698829618,"current_range_meters":14800,"station_id":"ce4bh512rcd13ifvqe3g","pricing_plan_id":"free"},{"bike_id":"b67fdadb-3071-4c67-888a-324041d8f6a2","system_id":"levelo_inurba_marseille","lat":43.284793,"lon":5.384113,"is_reserved":false,"is_disabled":false,"rental_uris":{"android":"levelo://app?vid=b67fdadb-3071-4c67-888a-324041d8f6a2","ios":"levelo://app?vid=b67fdadb-3071-4c67-888a-324041d8f6a2"},"vehicle_type_id":"4","last_reported":1698829618,"current_range_meters":7600,"station_id":"ce4bh512rcd13ifvqe3g","pricing_plan_id":"free"},{"bike_id":"3190577a-b666-406b-82bf-5d88c53e4efd","system_id":"levelo_inurba_marseille","lat":43.284793,"lon":5.384113,"is_reserved":false,"is_disabled":false,"rental_uris":{"android":"levelo://app?vid=3190577a-b666-406b-82bf-5d88c53e4efd","ios":"levelo://app?vid=3190577a-b666-406b-82bf-5d88c53e4efd"},"vehicle_type_id":"4","last_reported":1698829618,"current_range_meters":31200,"station_id":"ce4bh512rcd13ifvqe3g","pricing_plan_id":"free"},{"bike_id":"aa638e73-42dc-4bb4-98aa-f6e79f669f62","system_id":"levelo_inurba_marseille","lat":43.284787,"lon":5.384116,"is_reserved":false,"is_disabled":false,"rental_uris":{"android":"levelo://app?vid=aa638e73-42dc-4bb4-98aa-f6e79f669f62","ios":"levelo://app?vid=aa638e73-42dc-4bb4-98aa-f6e79f669f62"},"vehicle_type_id":"4","last_reported":1698829618,"current_range_meters":28800,"station_id":"ce4bh512rcd13ifvqe3g","pricing_plan_id":"free"},{"bike_id":"be268403-5028-48f5-9a18-c39cb75ae6cd","system_id":"levelo_inurba_marseille","lat":43.284793,"lon":5.384113,"is_reserved":false,"is_disabled":false,"rental_uris":{"android":"levelo://app?vid=be268403-5028-48f5-9a18-c39cb75ae6cd","ios":"levelo://app?vid=be268403-5028-48f5-9a18-c39cb75ae6cd"},"vehicle_type_id":"4","last_reported":1698829618,"current_range_meters":26000,"station_id":"ce4bh512rcd13ifvqe3g","pricing_plan_id":"free"},{"bike_id":"b9f1e8af-3886-4bec-aef5-df6d7bd0a696","system_id":"levelo_inurba_marseille","lat":43.284787,"lon":5.384116,"is_reserved":false,"is_disabled":false,"rental_uris":{"android":"levelo://app?vid=b9f1e8af-3886-4bec-aef5-df6d7bd0a696","ios":"levelo://app?vid=b9f1e8af-3886-4bec-aef5-df6d7bd0a696"},"vehicle_type_id":"4","last_reported":1698829618,"current_range_meters":28000,"station_id":"ce4bh512rcd13ifvqe3g","pricing_plan_id":"free"},{"bike_id":"f2f60660-1014-4c9e-870b-4d13e7299712","system_id":"levelo_inurba_marseille","lat":43.288501,"lon":5.393087,"is_reserved":false,"is_disabled":false,"rental_uris":{"android":"levelo://app?vid=f2f60660-1014-4c9e-870b-4d13e7299712","ios":"levelo://app?vid=f2f60660-1014-4c9e-870b-4d13e7299712"},"vehicle_type_id":"4","last_reported":1698829618,"current_range_meters":26400,"station_id":"ce4bh2p2rcd13ifvqdi0","pricing_plan_id":"free"},{"bike_id":"3017f9e8-2c24-4e2c-8995-e186bac7580f","system_id":"levelo_inurba_marseille","lat":43.288497,"lon":5.393089,"is_reserved":false,"is_disabled":false,"rental_uris":{"android":"levelo://app?vid=3017f9e8-2c24-4e2c-8995-e186bac7580f","ios":"levelo://app?vid=3017f9e8-2c24-4e2c-8995-e186bac7580f"},"vehicle_type_id":"4","last_reported":1698829618,"current_range_meters":26400,"station_id":"ce4bh2p2rcd13ifvqdi0","pricing_plan_id":"free"},{"bike_id":"d8e02134-0d42-4d51-9017-ebf23ec3efa2","system_id":"levelo_inurba_marseille","lat":43.284793,"lon":5.384119,"is_reserved":false,"is_disabled":false,"rental_uris":{"android":"levelo://app?vid=d8e02134-0d42-4d51-9017-ebf23ec3efa2","ios":"levelo://app?vid=d8e02134-0d42-4d51-9017-ebf23ec3efa2"},"vehicle_type_id":"4","last_reported":1698829618,"current_range_meters":30400,"station_id":"ce4bh512rcd13ifvqe3g","pricing_plan_id":"free"},{"bike_id":"471e697f-fd6d-4126-8f65-e0e1a9758fea","system_id":"levelo_inurba_marseille","lat":43.284793,"lon":5.384119,"is_reserved":false,"is_disabled":false,"rental_uris":{"android":"levelo://app?vid=471e697f-fd6d-4126-8f65-e0e1a9758fea","ios":"levelo://app?vid=471e697f-fd6d-4126-8f65-e0e1a9758fea"},"vehicle_type_id":"4","last_reported":1698829618,"current_range_meters":4400,"station_id":"ce4bh512rcd13ifvqe3g","pricing_plan_id":"free"},{"bike_id":"4ef5cb6b-cf1b-4f98-9531-dc9c99e093e5","system_id":"levelo_inurba_marseille","lat":43.29795,"lon":5.404086,"is_reserved":false,"is_disabled":false,"rental_uris":{"android":"levelo://app?vid=4ef5cb6b-cf1b-4f98-9531-dc9c99e093e5","ios":"levelo://app?vid=4ef5cb6b-cf1b-4f98-9531-dc9c99e093e5"},"vehicle_type_id":"4","last_reported":1698829618,"current_range_meters":31200,"station_id":"ce4bh112rcd13ifvqd90","pricing_plan_id":"free"},{"bike_id":"fbfc620c-14be-4a12-8d62-f7c05de880e1","system_id":"levelo_inurba_marseille","lat":43.29795,"lon":5.404086,"is_reserved":false,"is_disabled":false,"rental_uris":{"android":"levelo://app?vid=fbfc620c-14be-4a12-8d62-f7c05de880e1","ios":"levelo://app?vid=fbfc620c-14be-4a12-8d62-f7c05de880e1"},"vehicle_type_id":"4","last_reported":1698829618,"current_range_meters":7200,"station_id":"ce4bh112rcd13ifvqd90","pricing_plan_id":"free"},{"bike_id":"23702b18-903b-41fd-b1fd-7894b96bda7e","system_id":"levelo_inurba_marseille","lat":43.288501,"lon":5.393087,"is_reserved":false,"is_disabled":false,"rental_uris":{"android":"levelo://app?vid=23702b18-903b-41fd-b1fd-7894b96bda7e","ios":"levelo://app?vid=23702b18-903b-41fd-b1fd-7894b96bda7e"},"vehicle_type_id":"4","last_reported":1698829618,"current_range_meters":0,"station_id":"ce4bh2p2rcd13ifvqdi0","pricing_plan_id":"free"},{"bike_id":"82f33201-ac5f-4bd2-9461-96d85c2f82c2","system_id":"levelo_inurba_marseille","lat":43.29795,"lon":5.404086,"is_reserved":false,"is_disabled":false,"rental_uris":{"android":"levelo://app?vid=82f33201-ac5f-4bd2-9461-96d85c2f82c2","ios":"levelo://app?vid=82f33201-ac5f-4bd2-9461-96d85c2f82c2"},"vehicle_type_id":"4","last_reported":1698829618,"current_range_meters":22400,"station_id":"ce4bh112rcd13ifvqd90","pricing_plan_id":"free"},{"bike_id":"2f666bbb-190f-4291-ade2-95e2c0cfd815","system_id":"levelo_inurba_marseille","lat":43.325281,"lon":5.405683,"is_reserved":false,"is_disabled":false,"rental_uris":{"android":"levelo://app?vid=2f666bbb-190f-4291-ade2-95e2c0cfd815","ios":"levelo://app?vid=2f666bbb-190f-4291-ade2-95e2c0cfd815"},"vehicle_type_id":"4","last_reported":1698829618,"current_range_meters":3200,"station_id":"","pricing_plan_id":"free"},{"bike_id":"969e01cb-c696-4521-8981-eacf40df67be","system_id":"levelo_inurba_marseille","lat":43.288497,"lon":5.393089,"is_reserved":false,"is_disabled":false,"rental_uris":{"android":"levelo://app?vid=969e01cb-c696-4521-8981-eacf40df67be","ios":"levelo://app?vid=969e01cb-c696-4521-8981-eacf40df67be"},"vehicle_type_id":"4","last_reported":1698829618,"current_range_meters":1200,"station_id":"ce4bh2p2rcd13ifvqdi0","pricing_plan_id":"free"},{"bike_id":"1b630727-ac17-44fc-9146-18aa37bd7c32","system_id":"levelo_inurba_marseille","lat":43.288497,"lon":5.393089,"is_reserved":false,"is_disabled":false,"rental_uris":{"android":"levelo://app?vid=1b630727-ac17-44fc-9146-18aa37bd7c32","ios":"levelo://app?vid=1b630727-ac17-44fc-9146-18aa37bd7c32"},"vehicle_type_id":"4","last_reported":1698829618,"current_range_meters":16400,"station_id":"ce4bh2p2rcd13ifvqdi0","pricing_plan_id":"free"},{"bike_id":"63c12a30-9074-45ad-a273-b18baafe95d6","system_id":"levelo_inurba_marseille","lat":43.283494,"lon":5.380945,"is_reserved":false,"is_disabled":false,"rental_uris":{"android":"levelo://app?vid=63c12a30-9074-45ad-a273-b18baafe95d6","ios":"levelo://app?vid=63c12a30-9074-45ad-a273-b18baafe95d6"},"vehicle_type_id":"4","last_reported":1698829618,"current_range_meters":14800,"station_id":"ce4bh412rcd13ifvqdr0","pricing_plan_id":"free"},{"bike_id":"3a6c1901-f9bf-4629-81e1-1983ced8cabd","system_id":"levelo_inurba_marseille","lat":43.292724,"lon":5.401131,"is_reserved":false,"is_disabled":false,"rental_uris":{"android":"levelo://app?vid=3a6c1901-f9bf-4629-81e1-1983ced8cabd","ios":"levelo://app?vid=3a6c1901-f9bf-4629-81e1-1983ced8cabd"},"vehicle_type_id":"4","last_reported":1698829618,"current_range_meters":28000,"station_id":"ce4bh312rcd13ifvqdk0","pricing_plan_id":"free"},{"bike_id":"0e329556-8330-408a-be36-37a9b2e6bcc6","system_id":"levelo_inurba_marseille","lat":43.292724,"lon":5.401131,"is_reserved":false,"is_disabled":false,"rental_uris":{"android":"levelo://app?vid=0e329556-8330-408a-be36-37a9b2e6bcc6","ios":"levelo://app?vid=0e329556-8330-408a-be36-37a9b2e6bcc6"},"vehicle_type_id":"4","last_reported":1698829618,"current_range_meters":31200,"station_id":"ce4bh312rcd13ifvqdk0","pricing_plan_id":"free"},{"bike_id":"f1871396-2c31-4450-884f-430878e98385","system_id":"levelo_inurba_marseille","lat":43.292724,"lon":5.401131,"is_reserved":false,"is_disabled":false,"rental_uris":{"android":"levelo://app?vid=f1871396-2c31-4450-884f-430878e98385","ios":"levelo://app?vid=f1871396-2c31-4450-884f-430878e98385"},"vehicle_type_id":"4","last_reported":1698829618,"current_range_meters":31200,"station_id":"ce4bh312rcd13ifvqdk0","pricing_plan_id":"free"},{"bike_id":"bd1ba8db-ee76-47fb-8d6d-672b06bccba9","system_id":"levelo_inurba_marseille","lat":43.282754,"lon":5.350519,"is_reserved":false,"is_disabled":false,"rental_uris":{"android":"levelo://app?vid=bd1ba8db-ee76-47fb-8d6d-672b06bccba9","ios":"levelo://app?vid=bd1ba8db-ee76-47fb-8d6d-672b06bccba9"},"vehicle_type_id":"4","last_reported":1698829618,"current_range_meters":6400,"station_id":"ce4bhbp2rcd13ifvqerg","pricing_plan_id":"free"},{"bike_id":"dd63b77a-ce79-413b-80c3-c0124c6783e4","system_id":"levelo_inurba_marseille","lat":43.282754,"lon":5.350519,"is_reserved":false,"is_disabled":false,"rental_uris":{"android":"levelo://app?vid=dd63b77a-ce79-413b-80c3-c0124c6783e4","ios":"levelo://app?vid=dd63b77a-ce79-413b-80c3-c0124c6783e4"},"vehicle_type_id":"4","last_reported":1698829618,"current_range_meters":31200,"station_id":"ce4bhbp2rcd13ifvqerg","pricing_plan_id":"free"},{"bike_id":"d5f187ca-98f8-4fcb-abfb-b8578be34842","system_id":"levelo_inurba_marseille","lat":43.282744,"lon":5.350533,"is_reserved":false,"is_disabled":false,"rental_uris":{"android":"levelo://app?vid=d5f187ca-98f8-4fcb-abfb-b8578be34842","ios":"levelo://app?vid=d5f187ca-98f8-4fcb-abfb-b8578be34842"},"vehicle_type_id":"4","last_reported":1698829618,"current_range_meters":16800,"station_id":"ce4bhbp2rcd13ifvqerg","pricing_plan_id":"free"},{"bike_id":"b09a7e30-6d0e-46b1-b131-4528ee8b3549","system_id":"levelo_inurba_marseille","lat":43.282744,"lon":5.350533,"is_reserved":false,"is_disabled":false,"rental_uris":{"android":"levelo://app?vid=b09a7e30-6d0e-46b1-b131-4528ee8b3549","ios":"levelo://app?vid=b09a7e30-6d0e-46b1-b131-4528ee8b3549"},"vehicle_type_id":"4","last_reported":1698829618,"current_range_meters":23600,"station_id":"ce4bhbp2rcd13ifvqerg","pricing_plan_id":"free"},{"bike_id":"20fe456e-7171-4f5b-b1ba-20fc14c32945","system_id":"levelo_inurba_marseille","lat":43.282744,"lon":5.350533,"is_reserved":false,"is_disabled":false,"rental_uris":{"android":"levelo://app?vid=20fe456e-7171-4f5b-b1ba-20fc14c32945","ios":"levelo://app?vid=20fe456e-7171-4f5b-b1ba-20fc14c32945"},"vehicle_type_id":"4","last_reported":1698829618,"current_range_meters":24000,"station_id":"ce4bhbp2rcd13ifvqerg","pricing_plan_id":"free"},{"bike_id":"3a4dc729-744e-4715-aa20-387ccb3a3539","system_id":"levelo_inurba_marseille","lat":43.282754,"lon":5.350519,"is_reserved":false,"is_disabled":false,"rental_uris":{"android":"levelo://app?vid=3a4dc729-744e-4715-aa20-387ccb3a3539","ios":"levelo://app?vid=3a4dc729-744e-4715-aa20-387ccb3a3539"},"vehicle_type_id":"4","last_reported":1698829618,"current_range_meters":24000,"station_id":"ce4bhbp2rcd13ifvqerg","pricing_plan_id":"free"},{"bike_id":"5fc9d749-dd1e-4ebf-802e-4cf3f1a26c58","system_id":"levelo_inurba_marseille","lat":43.265571,"lon":5.390032,"is_reserved":false,"is_disabled":false,"rental_uris":{"android":"levelo://app?vid=5fc9d749-dd1e-4ebf-802e-4cf3f1a26c58","ios":"levelo://app?vid=5fc9d749-dd1e-4ebf-802e-4cf3f1a26c58"},"vehicle_type_id":"4","last_reported":1698829618,"current_range_meters":11200,"station_id":"ce4bhe12rcd13ifvqf30","pricing_plan_id":"free"},{"bike_id":"99e9d622-6e04-4375-97ba-741f69c1767d","system_id":"levelo_inurba_marseille","lat":43.29041,"lon":5.399634,"is_reserved":false,"is_disabled":false,"rental_uris":{"android":"levelo://app?vid=99e9d622-6e04-4375-97ba-741f69c1767d","ios":"levelo://app?vid=99e9d622-6e04-4375-97ba-741f69c1767d"},"vehicle_type_id":"4","last_reported":1698829618,"current_range_meters":26000,"station_id":"ce4bh392rcd13ifvqdm0","pricing_plan_id":"free"},{"bike_id":"0da90833-f4aa-4650-b1c5-879a0420e983","system_id":"levelo_inurba_marseille","lat":43.296263,"lon":5.40601,"is_reserved":false,"is_disabled":false,"rental_uris":{"android":"levelo://app?vid=0da90833-f4aa-4650-b1c5-879a0420e983","ios":"levelo://app?vid=0da90833-f4aa-4650-b1c5-879a0420e983"},"vehicle_type_id":"4","last_reported":1698829618,"current_range_meters":26800,"station_id":"ce4bh0h2rcd13ifvqd60","pricing_plan_id":"free"},{"bike_id":"1ca242fe-6084-4f9b-8b54-35d465872844","system_id":"levelo_inurba_marseille","lat":43.29041,"lon":5.399634,"is_reserved":false,"is_disabled":false,"rental_uris":{"android":"levelo://app?vid=1ca242fe-6084-4f9b-8b54-35d465872844","ios":"levelo://app?vid=1ca242fe-6084-4f9b-8b54-35d465872844"},"vehicle_type_id":"4","last_reported":1698829618,"current_range_meters":19600,"station_id":"ce4bh392rcd13ifvqdm0","pricing_plan_id":"free"},{"bike_id":"d445e7dc-8f39-4198-8d15-1838ad42556e","system_id":"levelo_inurba_marseille","lat":43.296263,"lon":5.40601,"is_reserved":false,"is_disabled":false,"rental_uris":{"android":"levelo://app?vid=d445e7dc-8f39-4198-8d15-1838ad42556e","ios":"levelo://app?vid=d445e7dc-8f39-4198-8d15-1838ad42556e"},"vehicle_type_id":"4","last_reported":1698829618,"current_range_meters":23200,"station_id":"ce4bh0h2rcd13ifvqd60","pricing_plan_id":"free"},{"bike_id":"e651e97b-1c67-4736-afde-f7f2aa1fd375","system_id":"levelo_inurba_marseille","lat":43.296263,"lon":5.40601,"is_reserved":false,"is_disabled":false,"rental_uris":{"android":"levelo://app?vid=e651e97b-1c67-4736-afde-f7f2aa1fd375","ios":"levelo://app?vid=e651e97b-1c67-4736-afde-f7f2aa1fd375"},"vehicle_type_id":"4","last_reported":1698829618,"current_range_meters":29200,"station_id":"ce4bh0h2rcd13ifvqd60","pricing_plan_id":"free"},{"bike_id":"392d34db-1428-486d-8427-f96d6a4dde37","system_id":"levelo_inurba_marseille","lat":43.281044,"lon":5.378308,"is_reserved":false,"is_disabled":false,"rental_uris":{"android":"levelo://app?vid=392d34db-1428-486d-8427-f96d6a4dde37","ios":"levelo://app?vid=392d34db-1428-486d-8427-f96d6a4dde37"},"vehicle_type_id":"4","last_reported":1698829618,"current_range_meters":23600,"station_id":"ce4bha12rcd13ifvqee0","pricing_plan_id":"free"},{"bike_id":"ce82a8f1-4ccf-4ef1-9602-45dcbb0e6bfe","system_id":"levelo_inurba_marseille","lat":43.284462,"lon":5.392121,"is_reserved":false,"is_disabled":false,"rental_uris":{"android":"levelo://app?vid=ce82a8f1-4ccf-4ef1-9602-45dcbb0e6bfe","ios":"levelo://app?vid=ce82a8f1-4ccf-4ef1-9602-45dcbb0e6bfe"},"vehicle_type_id":"4","last_reported":1698829618,"current_range_meters":31200,"station_id":"ce4bhoh2rcd13ifvqh5g","pricing_plan_id":"free"},{"bike_id":"de06e069-706f-4abc-bf54-23766317732c","system_id":"levelo_inurba_marseille","lat":43.284462,"lon":5.392121,"is_reserved":false,"is_disabled":false,"rental_uris":{"android":"levelo://app?vid=de06e069-706f-4abc-bf54-23766317732c","ios":"levelo://app?vid=de06e069-706f-4abc-bf54-23766317732c"},"vehicle_type_id":"4","last_reported":1698829618,"current_range_meters":31200,"station_id":"ce4bhoh2rcd13ifvqh5g","pricing_plan_id":"free"},{"bike_id":"bf2dd38f-ec7b-472a-8401-c3fd96d93987","system_id":"levelo_inurba_marseille","lat":43.28573,"lon":5.394992,"is_reserved":false,"is_disabled":false,"rental_uris":{"android":"levelo://app?vid=bf2dd38f-ec7b-472a-8401-c3fd96d93987","ios":"levelo://app?vid=bf2dd38f-ec7b-472a-8401-c3fd96d93987"},"vehicle_type_id":"4","last_reported":1698829618,"current_range_meters":31200,"station_id":"ce4bh292rcd13ifvqdg0","pricing_plan_id":"free"},{"bike_id":"4dfd6ed8-d7a5-4950-80b8-1f3f8e20c22d","system_id":"levelo_inurba_marseille","lat":43.28573,"lon":5.394992,"is_reserved":false,"is_disabled":false,"rental_uris":{"android":"levelo://app?vid=4dfd6ed8-d7a5-4950-80b8-1f3f8e20c22d","ios":"levelo://app?vid=4dfd6ed8-d7a5-4950-80b8-1f3f8e20c22d"},"vehicle_type_id":"4","last_reported":1698829618,"current_range_meters":0,"station_id":"ce4bh292rcd13ifvqdg0","pricing_plan_id":"free"},{"bike_id":"56a84504-a073-4a0e-9da1-11c022142343","system_id":"levelo_inurba_marseille","lat":43.28573,"lon":5.394992,"is_reserved":false,"is_disabled":false,"rental_uris":{"android":"levelo://app?vid=56a84504-a073-4a0e-9da1-11c022142343","ios":"levelo://app?vid=56a84504-a073-4a0e-9da1-11c022142343"},"vehicle_type_id":"4","last_reported":1698829618,"current_range_meters":26400,"station_id":"ce4bh292rcd13ifvqdg0","pricing_plan_id":"free"},{"bike_id":"52f8d5d7-9795-4292-af3a-cf714fa02f9c","system_id":"levelo_inurba_marseille","lat":43.285742,"lon":5.395004,"is_reserved":false,"is_disabled":false,"rental_uris":{"android":"levelo://app?vid=52f8d5d7-9795-4292-af3a-cf714fa02f9c","ios":"levelo://app?vid=52f8d5d7-9795-4292-af3a-cf714fa02f9c"},"vehicle_type_id":"4","last_reported":1698829618,"current_range_meters":31200,"station_id":"ce4bh292rcd13ifvqdg0","pricing_plan_id":"free"},{"bike_id":"c7f16298-9d4d-44a0-bbf2-b1cd850564df","system_id":"levelo_inurba_marseille","lat":43.285742,"lon":5.395004,"is_reserved":false,"is_disabled":false,"rental_uris":{"android":"levelo://app?vid=c7f16298-9d4d-44a0-bbf2-b1cd850564df","ios":"levelo://app?vid=c7f16298-9d4d-44a0-bbf2-b1cd850564df"},"vehicle_type_id":"4","last_reported":1698829618,"current_range_meters":24800,"station_id":"ce4bh292rcd13ifvqdg0","pricing_plan_id":"free"},{"bike_id":"76d78e5e-c8fa-46cb-84ba-20553be20706","system_id":"levelo_inurba_marseille","lat":43.28573,"lon":5.394992,"is_reserved":false,"is_disabled":false,"rental_uris":{"android":"levelo://app?vid=76d78e5e-c8fa-46cb-84ba-20553be20706","ios":"levelo://app?vid=76d78e5e-c8fa-46cb-84ba-20553be20706"},"vehicle_type_id":"4","last_reported":1698829618,"current_range_meters":16000,"station_id":"ce4bh292rcd13ifvqdg0","pricing_plan_id":"free"},{"bike_id":"26a26f98-1a03-4b51-b266-19c56343a037","system_id":"levelo_inurba_marseille","lat":43.326605,"lon":5.409903,"is_reserved":false,"is_disabled":false,"rental_uris":{"android":"levelo://app?vid=26a26f98-1a03-4b51-b266-19c56343a037","ios":"levelo://app?vid=26a26f98-1a03-4b51-b266-19c56343a037"},"vehicle_type_id":"4","last_reported":1698829618,"current_range_meters":31200,"station_id":"ce4bhpp2rcd13ifvqhgg","pricing_plan_id":"free"},{"bike_id":"204df8be-291e-413f-a418-f68ca57cac39","system_id":"levelo_inurba_marseille","lat":43.326605,"lon":5.409903,"is_reserved":false,"is_disabled":false,"rental_uris":{"android":"levelo://app?vid=204df8be-291e-413f-a418-f68ca57cac39","ios":"levelo://app?vid=204df8be-291e-413f-a418-f68ca57cac39"},"vehicle_type_id":"4","last_reported":1698829618,"current_range_meters":31200,"station_id":"ce4bhpp2rcd13ifvqhgg","pricing_plan_id":"free"},{"bike_id":"c1ec2743-8ddb-46f9-9eca-8688681db7c6","system_id":"levelo_inurba_marseille","lat":43.326605,"lon":5.409903,"is_reserved":false,"is_disabled":false,"rental_uris":{"android":"levelo://app?vid=c1ec2743-8ddb-46f9-9eca-8688681db7c6","ios":"levelo://app?vid=c1ec2743-8ddb-46f9-9eca-8688681db7c6"},