{"last_updated":1731658359,"ttl":60,"version":"2.2","data":{"bikes":[{"bike_id":"e866fb4e-b2b6-41db-b400-a7e299baf5de","system_id":"levelo_inurba_marseille","lat":43.274932,"lon":5.424524,"is_reserved":false,"is_disabled":false,"rental_uris":{"android":"levelo://app?vid=e866fb4e-b2b6-41db-b400-a7e299baf5de","ios":"levelo://app?vid=e866fb4e-b2b6-41db-b400-a7e299baf5de"},"vehicle_type_id":"4","last_reported":1731658359,"current_range_meters":19600,"station_id":"ce4bhn92rcd13ifvqgrg","pricing_plan_id":"cebpf4jnsgd1na2vs0mg"},{"bike_id":"daaf2990-ca7b-482b-8192-b8b384a2875e","system_id":"levelo_inurba_marseille","lat":43.31688,"lon":5.40473,"is_reserved":false,"is_disabled":false,"rental_uris":{"android":"levelo://app?vid=daaf2990-ca7b-482b-8192-b8b384a2875e","ios":"levelo://app?vid=daaf2990-ca7b-482b-8192-b8b384a2875e"},"vehicle_type_id":"4","last_reported":1731658359,"current_range_meters":39200,"station_id":"ce4bh012rcd13ifvqd00","pricing_plan_id":"cebpf4jnsgd1na2vs0mg"},{"bike_id":"5a5e9231-798f-41d7-b9b3-00691ce9405a","system_id":"levelo_inurba_marseille","lat":43.30531,"lon":5.38414,"is_reserved":false,"is_disabled":false,"rental_uris":{"android":"levelo://app?vid=5a5e9231-798f-41d7-b9b3-00691ce9405a","ios":"levelo://app?vid=5a5e9231-798f-41d7-b9b3-00691ce9405a"},"vehicle_type_id":"4","last_reported":1731658359,"current_range_meters":27600,"station_id":"ce4bgg92rcd13ifvqb30","pricing_plan_id":"cebpf4jnsgd1na2vs0mg"},{"bike_id":"017e864d-35fd-41c7-aba9-70c4b14a7417","system_id":"levelo_inurba_marseille","lat":43.29033,"lon":5.3998,"is_reserved":false,"is_disabled":false,"rental_uris":{"android":"levelo://app?vid=017e864d-35fd-41c7-aba9-70c4b14a7417","ios":"levelo://app?vid=017e864d-35fd-41c7-aba9-70c4b14a7417"},"vehicle_type_id":"4","last_reported":1731658359,"current_range_meters":8400,"station_id":"ce4bh392rcd13ifvqdm0","pricing_plan_id":"cebpf4jnsgd1na2vs0mg"},{"bike_id":"3167c6fe-678e-4e8b-971f-3227b195a71a","system_id":"levelo_inurba_marseille","lat":43.3091,"lon":5.3684,"is_reserved":false,"is_disabled":false,"rental_uris":{"android":"levelo://app?vid=3167c6fe-678e-4e8b-971f-3227b195a71a","ios":"levelo://app?vid=3167c6fe-678e-4e8b-971f-3227b195a71a"},"vehicle_type_id":"4","last_reported":1731658359,"current_range_meters":34800,"station_id":"ce4bgn92rcd13ifvqbvg","pricing_plan_id":"cebpf4jnsgd1na2vs0mg"},{"bike_id":"8795667c-82c9-4dae-9d1a-4454a05250f8","system_id":"levelo_inurba_marseille","lat":43.27489,"lon":5.42454,"is_reserved":false,"is_disabled":false,"rental_uris":{"android":"levelo://app?vid=8795667c-82c9-4dae-9d1a-4454a05250f8","ios":"levelo://app?vid=8795667c-82c9-4dae-9d1a-4454a05250f8"},"vehicle_type_id":"4","last_reported":1731658359,"current_range_meters":32800,"station_id":"ce4bhn92rcd13ifvqgrg","pricing_plan_id":"cebpf4jnsgd1na2vs0mg"},{"bike_id":"b3f036c2-85ae-4bbb-97d1-d767554080f5","system_id":"levelo_inurba_marseille","lat":43.284658,"lon":5.358846,"is_reserved":false,"is_disabled":false,"rental_uris":{"android":"levelo://app?vid=b3f036c2-85ae-4bbb-97d1-d767554080f5","ios":"levelo://app?vid=b3f036c2-85ae-4bbb-97d1-d767554080f5"},"vehicle_type_id":"4","last_reported":1731658359,"current_range_meters":33600,"station_id":"ce4bhah2rcd13ifvqei0","pricing_plan_id":"cebpf4jnsgd1na2vs0mg"},{"bike_id":"1a59b816-bbb1-4950-9131-7ce955eddad1","system_id":"levelo_inurba_marseille","lat":43.26947,"lon":5.38633,"is_reserved":false,"is_disabled":false,"rental_uris":{"android":"levelo://app?vid=1a59b816-bbb1-4950-9131-7ce955eddad1","ios":"levelo://app?vid=1a59b816-bbb1-4950-9131-7ce955eddad1"},"vehicle_type_id":"4","last_reported":1731658359,"current_range_meters":36800,"station_id":"ce4bhh92rcd13ifvqfh0","pricing_plan_id":"cebpf4jnsgd1na2vs0mg"},{"bike_id":"bba30ccd-2b4f-42d8-b68d-f3f8cfd6f6dd","system_id":"levelo_inurba_marseille","lat":43.31228,"lon":5.3686,"is_reserved":false,"is_disabled":false,"rental_uris":{"android":"levelo://app?vid=bba30ccd-2b4f-42d8-b68d-f3f8cfd6f6dd","ios":"levelo://app?vid=bba30ccd-2b4f-42d8-b68d-f3f8cfd6f6dd"},"vehicle_type_id":"4","last_reported":1731658359,"current_range_meters":36000,"station_id":"ce4bgl92rcd13ifvqbq0","pricing_plan_id":"cebpf4jnsgd1na2vs0mg"},{"bike_id":"9a9b8539-4077-4633-bc5f-44ca15e85ca5","system_id":"levelo_inurba_marseille","lat":43.24388,"lon":5.37055,"is_reserved":false,"is_disabled":false,"rental_uris":{"android":"levelo://app?vid=9a9b8539-4077-4633-bc5f-44ca15e85ca5","ios":"levelo://app?vid=9a9b8539-4077-4633-bc5f-44ca15e85ca5"},"vehicle_type_id":"4","last_reported":1731658359,"current_range_meters":36000,"station_id":"ce4bhhh2rcd13ifvqfk0","pricing_plan_id":"cebpf4jnsgd1na2vs0mg"},{"bike_id":"16fde11b-ad8b-4dc1-964d-0dcff4c00b3f","system_id":"levelo_inurba_marseille","lat":43.27993,"lon":5.40009,"is_reserved":false,"is_disabled":false,"rental_uris":{"android":"levelo://app?vid=16fde11b-ad8b-4dc1-964d-0dcff4c00b3f","ios":"levelo://app?vid=16fde11b-ad8b-4dc1-964d-0dcff4c00b3f"},"vehicle_type_id":"4","last_reported":1731658359,"current_range_meters":24400,"station_id":"ce4bho92rcd13ifvqh4g","pricing_plan_id":"cebpf4jnsgd1na2vs0mg"},{"bike_id":"78b77ac8-4c63-432d-b19f-de7fa33d9847","system_id":"levelo_inurba_marseille","lat":43.3414,"lon":5.40906,"is_reserved":false,"is_disabled":false,"rental_uris":{"android":"levelo://app?vid=78b77ac8-4c63-432d-b19f-de7fa33d9847","ios":"levelo://app?vid=78b77ac8-4c63-432d-b19f-de7fa33d9847"},"vehicle_type_id":"4","last_reported":1731658359,"current_range_meters":38800,"station_id":"ce4bhqh2rcd13ifvqhlg","pricing_plan_id":"cebpf4jnsgd1na2vs0mg"},{"bike_id":"80e1fc0b-099a-420a-8a13-c4ea7058954e","system_id":"levelo_inurba_marseille","lat":43.30556,"lon":5.36554,"is_reserved":false,"is_disabled":false,"rental_uris":{"android":"levelo://app?vid=80e1fc0b-099a-420a-8a13-c4ea7058954e","ios":"levelo://app?vid=80e1fc0b-099a-420a-8a13-c4ea7058954e"},"vehicle_type_id":"4","last_reported":1731658359,"current_range_meters":24800,"station_id":"ce4bgs12rcd13ifvqcag","pricing_plan_id":"cebpf4jnsgd1na2vs0mg"},{"bike_id":"638c3933-c3dd-479e-bd0a-dfff64106917","system_id":"levelo_inurba_marseille","lat":43.26927,"lon":5.38638,"is_reserved":false,"is_disabled":false,"rental_uris":{"android":"levelo://app?vid=638c3933-c3dd-479e-bd0a-dfff64106917","ios":"levelo://app?vid=638c3933-c3dd-479e-bd0a-dfff64106917"},"vehicle_type_id":"4","last_reported":1731658359,"current_range_meters":28800,"station_id":"ce4bhh92rcd13ifvqfh0","pricing_plan_id":"cebpf4jnsgd1na2vs0mg"},{"bike_id":"2132a210-2faa-4846-af47-819c8f13c5f6","system_id":"levelo_inurba_marseille","lat":43.28346,"lon":5.38109,"is_reserved":false,"is_disabled":false,"rental_uris":{"android":"levelo://app?vid=2132a210-2faa-4846-af47-819c8f13c5f6","ios":"levelo://app?vid=2132a210-2faa-4846-af47-819c8f13c5f6"},"vehicle_type_id":"4","last_reported":1731658359,"current_range_meters":16400,"station_id":"ce4bh412rcd13ifvqdr0","pricing_plan_id":"cebpf4jnsgd1na2vs0mg"},{"bike_id":"1d9c49c9-ee91-4089-a94f-8cbfcd96a196","system_id":"levelo_inurba_marseille","lat":43.31355,"lon":5.36721,"is_reserved":false,"is_disabled":false,"rental_uris":{"android":"levelo://app?vid=1d9c49c9-ee91-4089-a94f-8cbfcd96a196","ios":"levelo://app?vid=1d9c49c9-ee91-4089-a94f-8cbfcd96a196"},"vehicle_type_id":"4","last_reported":1731658359,"current_range_meters":10800,"station_id":"ce4bgr92rcd13ifvqc6g","pricing_plan_id":"cebpf4jnsgd1na2vs0mg"},{"bike_id":"a312cbed-4b1c-4402-b9a7-d9dee39ecb7b","system_id":"levelo_inurba_marseille","lat":43.29298,"lon":5.37462,"is_reserved":false,"is_disabled":false,"rental_uris":{"android":"levelo://app?vid=a312cbed-4b1c-4402-b9a7-d9dee39ecb7b","ios":"levelo://app?vid=a312cbed-4b1c-4402-b9a7-d9dee39ecb7b"},"vehicle_type_id":"4","last_reported":1731658359,"current_range_meters":38800,"station_id":"ce4bgi12rcd13ifvqb70","pricing_plan_id":"cebpf4jnsgd1na2vs0mg"},{"bike_id":"96f8c52c-6c28-48a4-af3a-06cc99ebc119","system_id":"levelo_inurba_marseille","lat":43.24073,"lon":5.37759,"is_reserved":false,"is_disabled":false,"rental_uris":{"android":"levelo://app?vid=96f8c52c-6c28-48a4-af3a-06cc99ebc119","ios":"levelo://app?vid=96f8c52c-6c28-48a4-af3a-06cc99ebc119"},"vehicle_type_id":"4","last_reported":1731658359,"current_range_meters":28000,"station_id":"ce4bhnp2rcd13ifvqgvg","pricing_plan_id":"cebpf4jnsgd1na2vs0mg"},{"bike_id":"9ef76943-592f-4d3b-a0f1-da70d440e9b4","system_id":"levelo_inurba_marseille","lat":43.29898,"lon":5.43671,"is_reserved":false,"is_disabled":false,"rental_uris":{"android":"levelo://app?vid=9ef76943-592f-4d3b-a0f1-da70d440e9b4","ios":"levelo://app?vid=9ef76943-592f-4d3b-a0f1-da70d440e9b4"},"vehicle_type_id":"4","last_reported":1731658359,"current_range_meters":24400,"station_id":"ce4bhpp2rcd13ifvqhfg","pricing_plan_id":"cebpf4jnsgd1na2vs0mg"},{"bike_id":"ff9e8fbd-afb5-4332-8f0e-8863372f7ff1","system_id":"levelo_inurba_marseille","lat":43.2815,"lon":5.4265,"is_reserved":false,"is_disabled":false,"rental_uris":{"android":"levelo://app?vid=ff9e8fbd-afb5-4332-8f0e-8863372f7ff1","ios":"levelo://app?vid=ff9e8fbd-afb5-4332-8f0e-8863372f7ff1"},"vehicle_type_id":"4","last_reported":1731658359,"current_range_meters":17200,"station_id":"ce4bhnh2rcd13ifvqgug","pricing_plan_id":"cebpf4jnsgd1na2vs0mg"},{"bike_id":"d9e695fc-913d-4089-90d1-0b4ac35f153c","system_id":"levelo_inurba_marseille","lat":43.27495,"lon":5.42445,"is_reserved":false,"is_disabled":false,"rental_uris":{"android":"levelo://app?vid=d9e695fc-913d-4089-90d1-0b4ac35f153c","ios":"levelo://app?vid=d9e695fc-913d-4089-90d1-0b4ac35f153c"},"vehicle_type_id":"4","last_reported":1731658359,"current_range_meters":37600,"station_id":"ce4bhn92rcd13ifvqgrg","pricing_plan_id":"cebpf4jnsgd1na2vs0mg"},{"bike_id":"bd7c1da7-c8fc-4d77-ab89-2003365d0bce","system_id":"levelo_inurba_marseille","lat":43.27666,"lon":5.38886,"is_reserved":false,"is_disabled":false,"rental_uris":{"android":"levelo://app?vid=bd7c1da7-c8fc-4d77-ab89-2003365d0bce","ios":"levelo://app?vid=bd7c1da7-c8fc-4d77-ab89-2003365d0bce"},"vehicle_type_id":"4","last_reported":1731658359,"current_range_meters":18000,"station_id":"ce4bha12rcd13ifvqee0","pricing_plan_id":"cebpf4jnsgd1na2vs0mg"},{"bike_id":"32f2a1b8-b40b-4234-b46a-9eed4dade8cb","system_id":"levelo_inurba_marseille","lat":43.30456,"lon":5.37898,"is_reserved":false,"is_disabled":false,"rental_uris":{"android":"levelo://app?vid=32f2a1b8-b40b-4234-b46a-9eed4dade8cb","ios":"levelo://app?vid=32f2a1b8-b40b-4234-b46a-9eed4dade8cb"},"vehicle_type_id":"4","last_reported":1731658359,"current_range_meters":32400,"station_id":"ce4bgup2rcd13ifvqcn0","pricing_plan_id":"cebpf4jnsgd1na2vs0mg"},{"bike_id":"354f040a-9ab6-488a-9d26-4c39ec3baaa7","system_id":"levelo_inurba_marseille","lat":43.232074,"lon":5.355577,"is_reserved":false,"is_disabled":false,"rental_uris":{"android":"levelo://app?vid=354f040a-9ab6-488a-9d26-4c39ec3baaa7","ios":"levelo://app?vid=354f040a-9ab6-488a-9d26-4c39ec3baaa7"},"vehicle_type_id":"4","last_reported":1731658359,"current_range_meters":38800,"station_id":"ce4bhu92rcd13ifvqi70","pricing_plan_id":"cebpf4jnsgd1na2vs0mg"},{"bike_id":"a62ce2e1-162d-47cf-a256-817ab6c6e385","system_id":"levelo_inurba_marseille","lat":43.25497,"lon":5.37647,"is_reserved":false,"is_disabled":false,"rental_uris":{"android":"levelo://app?vid=a62ce2e1-162d-47cf-a256-817ab6c6e385","ios":"levelo://app?vid=a62ce2e1-162d-47cf-a256-817ab6c6e385"},"vehicle_type_id":"4","last_reported":1731658359,"current_range_meters":38000,"station_id":"ce4bhh12rcd13ifvqff0","pricing_plan_id":"cebpf4jnsgd1na2vs0mg"},{"bike_id":"6ae7bea2-e357-4478-a0f9-74c3626f2f01","system_id":"levelo_inurba_marseille","lat":43.29763,"lon":5.37305,"is_reserved":false,"is_disabled":false,"rental_uris":{"android":"levelo://app?vid=6ae7bea2-e357-4478-a0f9-74c3626f2f01","ios":"levelo://app?vid=6ae7bea2-e357-4478-a0f9-74c3626f2f01"},"vehicle_type_id":"4","last_reported":1731658359,"current_range_meters":8000,"station_id":"ce4bgrh2rcd13ifvqc8g","pricing_plan_id":"cebpf4jnsgd1na2vs0mg"},{"bike_id":"6c6197b3-07d1-4225-a3b8-efd5a300d58a","system_id":"levelo_inurba_marseille","lat":43.24084,"lon":5.37751,"is_reserved":false,"is_disabled":false,"rental_uris":{"android":"levelo://app?vid=6c6197b3-07d1-4225-a3b8-efd5a300d58a","ios":"levelo://app?vid=6c6197b3-07d1-4225-a3b8-efd5a300d58a"},"vehicle_type_id":"4","last_reported":1731658359,"current_range_meters":14000,"station_id":"ce4bhnp2rcd13ifvqgvg","pricing_plan_id":"cebpf4jnsgd1na2vs0mg"},{"bike_id":"d7939f0a-fb48-49b4-8d16-59d70ebaf709","system_id":"levelo_inurba_marseille","lat":43.2408,"lon":5.37751,"is_reserved":false,"is_disabled":false,"rental_uris":{"android":"levelo://app?vid=d7939f0a-fb48-49b4-8d16-59d70ebaf709","ios":"levelo://app?vid=d7939f0a-fb48-49b4-8d16-59d70ebaf709"},"vehicle_type_id":"4","last_reported":1731658359,"current_range_meters":37600,"station_id":"ce4bhnp2rcd13ifvqgvg","pricing_plan_id":"cebpf4jnsgd1na2vs0mg"},{"bike_id":"4a74f469-1d99-48ee-a8ca-9199898c00a4","system_id":"levelo_inurba_marseille","lat":43.23197,"lon":5.35544,"is_reserved":false,"is_disabled":false,"rental_uris":{"android":"levelo://app?vid=4a74f469-1d99-48ee-a8ca-9199898c00a4","ios":"levelo://app?vid=4a74f469-1d99-48ee-a8ca-9199898c00a4"},"vehicle_type_id":"4","last_reported":1731658359,"current_range_meters":16400,"station_id":"ce4bhu92rcd13ifvqi70","pricing_plan_id":"cebpf4jnsgd1na2vs0mg"},{"bike_id":"f1237c76-3739-45d2-bc41-08ab56ce718a","system_id":"levelo_inurba_marseille","lat":43.30902,"lon":5.36846,"is_reserved":false,"is_disabled":false,"rental_uris":{"android":"levelo://app?vid=f1237c76-3739-45d2-bc41-08ab56ce718a","ios":"levelo://app?vid=f1237c76-3739-45d2-bc41-08ab56ce718a"},"vehicle_type_id":"4","last_reported":1731658359,"current_range_meters":20000,"station_id":"ce4bgn92rcd13ifvqbvg","pricing_plan_id":"cebpf4jnsgd1na2vs0mg"},{"bike_id":"78b3220f-eba1-4f1c-9ccd-1ac6531dbb65","system_id":"levelo_inurba_marseille","lat":43.30906,"lon":5.36848,"is_reserved":false,"is_disabled":false,"rental_uris":{"android":"levelo://app?vid=78b3220f-eba1-4f1c-9ccd-1ac6531dbb65","ios":"levelo://app?vid=78b3220f-eba1-4f1c-9ccd-1ac6531dbb65"},"vehicle_type_id":"4","last_reported":1731658359,"current_range_meters":36400,"station_id":"ce4bgn92rcd13ifvqbvg","pricing_plan_id":"cebpf4jnsgd1na2vs0mg"},{"bike_id":"5a9487f5-1f4a-4526-91df-278697abb58b","system_id":"levelo_inurba_marseille","lat":43.28159,"lon":5.4264,"is_reserved":false,"is_disabled":false,"rental_uris":{"android":"levelo://app?vid=5a9487f5-1f4a-4526-91df-278697abb58b","ios":"levelo://app?vid=5a9487f5-1f4a-4526-91df-278697abb58b"},"vehicle_type_id":"4","last_reported":1731658359,"current_range_meters":20800,"station_id":"ce4bhnh2rcd13ifvqgug","pricing_plan_id":"cebpf4jnsgd1na2vs0mg"},{"bike_id":"b7301d53-d439-43b0-8e2e-8558ccb6d93f","system_id":"levelo_inurba_marseille","lat":43.29517,"lon":5.3751,"is_reserved":false,"is_disabled":false,"rental_uris":{"android":"levelo://app?vid=b7301d53-d439-43b0-8e2e-8558ccb6d93f","ios":"levelo://app?vid=b7301d53-d439-43b0-8e2e-8558ccb6d93f"},"vehicle_type_id":"4","last_reported":1731658359,"current_range_meters":28800,"station_id":"ce4bgkp2rcd13ifvqbmg","pricing_plan_id":"cebpf4jnsgd1na2vs0mg"},{"bike_id":"5204955c-d822-48f7-91b1-f5a2e1506275","system_id":"levelo_inurba_marseille","lat":43.30535,"lon":5.38429,"is_reserved":false,"is_disabled":false,"rental_uris":{"android":"levelo://app?vid=5204955c-d822-48f7-91b1-f5a2e1506275","ios":"levelo://app?vid=5204955c-d822-48f7-91b1-f5a2e1506275"},"vehicle_type_id":"4","last_reported":1731658359,"current_range_meters":38000,"station_id":"ce4bgg92rcd13ifvqb30","pricing_plan_id":"cebpf4jnsgd1na2vs0mg"},{"bike_id":"ac942397-7ee6-4abe-8d72-f4d9bfed9853","system_id":"levelo_inurba_marseille","lat":43.301379,"lon":5.387751,"is_reserved":false,"is_disabled":false,"rental_uris":{"android":"levelo://app?vid=ac942397-7ee6-4abe-8d72-f4d9bfed9853","ios":"levelo://app?vid=ac942397-7ee6-4abe-8d72-f4d9bfed9853"},"vehicle_type_id":"4","last_reported":1731658359,"current_range_meters":33600,"station_id":"ce4bghh2rcd13ifvqb60","pricing_plan_id":"cebpf4jnsgd1na2vs0mg"},{"bike_id":"ac9ff0e2-0c2f-4cb0-8b16-0d7bb3087fdf","system_id":"levelo_inurba_marseille","lat":43.26949,"lon":5.38647,"is_reserved":false,"is_disabled":false,"rental_uris":{"android":"levelo://app?vid=ac9ff0e2-0c2f-4cb0-8b16-0d7bb3087fdf","ios":"levelo://app?vid=ac9ff0e2-0c2f-4cb0-8b16-0d7bb3087fdf"},"vehicle_type_id":"4","last_reported":1731658359,"current_range_meters":38800,"station_id":"ce4bhh92rcd13ifvqfh0","pricing_plan_id":"cebpf4jnsgd1na2vs0mg"},{"bike_id":"463ca339-580c-473e-baa5-641c4124bd2f","system_id":"levelo_inurba_marseille","lat":43.30465,"lon":5.37905,"is_reserved":false,"is_disabled":false,"rental_uris":{"android":"levelo://app?vid=463ca339-580c-473e-baa5-641c4124bd2f","ios":"levelo://app?vid=463ca339-580c-473e-baa5-641c4124bd2f"},"vehicle_type_id":"4","last_reported":1731658359,"current_range_meters":38800,"station_id":"ce4bgup2rcd13ifvqcn0","pricing_plan_id":"cebpf4jnsgd1na2vs0mg"},{"bike_id":"e510c3b1-7618-4e42-834a-ce2d94ac964d","system_id":"levelo_inurba_marseille","lat":43.31228,"lon":5.36863,"is_reserved":false,"is_disabled":false,"rental_uris":{"android":"levelo://app?vid=e510c3b1-7618-4e42-834a-ce2d94ac964d","ios":"levelo://app?vid=e510c3b1-7618-4e42-834a-ce2d94ac964d"},"vehicle_type_id":"4","last_reported":1731658359,"current_range_meters":38400,"station_id":"ce4bgl92rcd13ifvqbq0","pricing_plan_id":"cebpf4jnsgd1na2vs0mg"},{"bike_id":"148b0530-2dbd-4aba-a22a-d0ffd4bd08f1","system_id":"levelo_inurba_marseille","lat":43.30459,"lon":5.379,"is_reserved":false,"is_disabled":false,"rental_uris":{"android":"levelo://app?vid=148b0530-2dbd-4aba-a22a-d0ffd4bd08f1","ios":"levelo://app?vid=148b0530-2dbd-4aba-a22a-d0ffd4bd08f1"},"vehicle_type_id":"4","last_reported":1731658359,"current_range_meters":18000,"station_id":"ce4bgup2rcd13ifvqcn0","pricing_plan_id":"cebpf4jnsgd1na2vs0mg"},{"bike_id":"34894f31-0d58-4b99-bedf-fbccfa834d04","system_id":"levelo_inurba_marseille","lat":43.24086,"lon":5.37741,"is_reserved":false,"is_disabled":false,"rental_uris":{"android":"levelo://app?vid=34894f31-0d58-4b99-bedf-fbccfa834d04","ios":"levelo://app?vid=34894f31-0d58-4b99-bedf-fbccfa834d04"},"vehicle_type_id":"4","last_reported":1731658359,"current_range_meters":36000,"station_id":"ce4bhnp2rcd13ifvqgvg","pricing_plan_id":"cebpf4jnsgd1na2vs0mg"},{"bike_id":"81117fe0-1e47-4966-a7e0-0145c8ef9c98","system_id":"levelo_inurba_marseille","lat":43.25856,"lon":5.39915,"is_reserved":false,"is_disabled":false,"rental_uris":{"android":"levelo://app?vid=81117fe0-1e47-4966-a7e0-0145c8ef9c98","ios":"levelo://app?vid=81117fe0-1e47-4966-a7e0-0145c8ef9c98"},"vehicle_type_id":"4","last_reported":1731658359,"current_range_meters":2800,"station_id":"ce4bhl92rcd13ifvqghg","pricing_plan_id":"cebpf4jnsgd1na2vs0mg"},{"bike_id":"7cb3a79b-4b4d-4fa0-bc42-1eaa7f1019ac","system_id":"levelo_inurba_marseille","lat":43.31492,"lon":5.37302,"is_reserved":false,"is_disabled":false,"rental_uris":{"android":"levelo://app?vid=7cb3a79b-4b4d-4fa0-bc42-1eaa7f1019ac","ios":"levelo://app?vid=7cb3a79b-4b4d-4fa0-bc42-1eaa7f1019ac"},"vehicle_type_id":"4","last_reported":1731658359,"current_range_meters":16400,"station_id":"ce4bgt12rcd13ifvqcd0","pricing_plan_id":"cebpf4jnsgd1na2vs0mg"},{"bike_id":"e0e98219-091d-4cd0-9bac-88071346e05a","system_id":"levelo_inurba_marseille","lat":43.337444,"lon":5.374475,"is_reserved":false,"is_disabled":false,"rental_uris":{"android":"levelo://app?vid=e0e98219-091d-4cd0-9bac-88071346e05a","ios":"levelo://app?vid=e0e98219-091d-4cd0-9bac-88071346e05a"},"vehicle_type_id":"4","last_reported":1731658359,"current_range_meters":27200,"station_id":"","pricing_plan_id":"cebpf4jnsgd1na2vs0mg"},{"bike_id":"29da23e5-7829-4e08-946f-9b695f56e469","system_id":"levelo_inurba_marseille","lat":43.25937,"lon":5.40906,"is_reserved":false,"is_disabled":false,"rental_uris":{"android":"levelo://app?vid=29da23e5-7829-4e08-946f-9b695f56e469","ios":"levelo://app?vid=29da23e5-7829-4e08-946f-9b695f56e469"},"vehicle_type_id":"4","last_reported":1731658359,"current_range_meters":26000,"station_id":"ce4bhm92rcd13ifvqglg","pricing_plan_id":"cebpf4jnsgd1na2vs0mg"},{"bike_id":"01178768-ca9d-437f-897f-0c33982d99d5","system_id":"levelo_inurba_marseille","lat":43.30126,"lon":5.37399,"is_reserved":false,"is_disabled":false,"rental_uris":{"android":"levelo://app?vid=01178768-ca9d-437f-897f-0c33982d99d5","ios":"levelo://app?vid=01178768-ca9d-437f-897f-0c33982d99d5"},"vehicle_type_id":"4","last_reported":1731658359,"current_range_meters":25200,"station_id":"ce4bgs92rcd13ifvqcc0","pricing_plan_id":"cebpf4jnsgd1na2vs0mg"},{"bike_id":"035cc09f-5965-49b7-ba42-6ddf5ce96b29","system_id":"levelo_inurba_marseille","lat":43.29839,"lon":5.36265,"is_reserved":false,"is_disabled":false,"rental_uris":{"android":"levelo://app?vid=035cc09f-5965-49b7-ba42-6ddf5ce96b29","ios":"levelo://app?vid=035cc09f-5965-49b7-ba42-6ddf5ce96b29"},"vehicle_type_id":"4","last_reported":1731658359,"current_range_meters":37600,"station_id":"ce4bgpp2rcd13ifvqc3g","pricing_plan_id":"cebpf4jnsgd1na2vs0mg"},{"bike_id":"8952161e-ca98-4ae9-960a-2b69d6f9f38e","system_id":"levelo_inurba_marseille","lat":43.34139,"lon":5.40903,"is_reserved":false,"is_disabled":false,"rental_uris":{"android":"levelo://app?vid=8952161e-ca98-4ae9-960a-2b69d6f9f38e","ios":"levelo://app?vid=8952161e-ca98-4ae9-960a-2b69d6f9f38e"},"vehicle_type_id":"4","last_reported":1731658359,"current_range_meters":26800,"station_id":"ce4bhqh2rcd13ifvqhlg","pricing_plan_id":"cebpf4jnsgd1na2vs0mg"},{"bike_id":"0dd5c336-8bf7-409f-a046-4f44d557e694","system_id":"levelo_inurba_marseille","lat":43.33724,"lon":5.39181,"is_reserved":false,"is_disabled":false,"rental_uris":{"android":"levelo://app?vid=0dd5c336-8bf7-409f-a046-4f44d557e694","ios":"levelo://app?vid=0dd5c336-8bf7-409f-a046-4f44d557e694"},"vehicle_type_id":"4","last_reported":1731658359,"current_range_meters":18000,"station_id":"ce4bhr92rcd13ifvqhsg","pricing_plan_id":"cebpf4jnsgd1na2vs0mg"},{"bike_id":"fa72eb15-f7eb-4a38-971b-148c4a6a30f3","system_id":"levelo_inurba_marseille","lat":43.27069,"lon":5.42276,"is_reserved":false,"is_disabled":false,"rental_uris":{"android":"levelo://app?vid=fa72eb15-f7eb-4a38-971b-148c4a6a30f3","ios":"levelo://app?vid=fa72eb15-f7eb-4a38-971b-148c4a6a30f3"},"vehicle_type_id":"4","last_reported":1731658359,"current_range_meters":31200,"station_id":"ce4bhk92rcd13ifvqgb0","pricing_plan_id":"cebpf4jnsgd1na2vs0mg"},{"bike_id":"5de1242a-b4c4-4c6a-9608-e5e17c4d6936","system_id":"levelo_inurba_marseille","lat":43.29191,"lon":5.35801,"is_reserved":false,"is_disabled":false,"rental_uris":{"android":"levelo://app?vid=5de1242a-b4c4-4c6a-9608-e5e17c4d6936","ios":"levelo://app?vid=5de1242a-b4c4-4c6a-9608-e5e17c4d6936"},"vehicle_type_id":"4","last_reported":1731658359,"current_range_meters":39200,"station_id":"ce4bhb12rcd13ifvqel0","pricing_plan_id":"cebpf4jnsgd1na2vs0mg"},{"bike_id":"d728a349-ebfd-458d-861e-629eb0fb3d32","system_id":"levelo_inurba_marseille","lat":43.29035,"lon":5.39958,"is_reserved":false,"is_disabled":false,"rental_uris":{"android":"levelo://app?vid=d728a349-ebfd-458d-861e-629eb0fb3d32","ios":"levelo://app?vid=d728a349-ebfd-458d-861e-629eb0fb3d32"},"vehicle_type_id":"4","last_reported":1731658359,"current_range_meters":38800,"station_id":"ce4bh392rcd13ifvqdm0","pricing_plan_id":"cebpf4jnsgd1na2vs0mg"},{"bike_id":"a6dcc830-39bc-4857-934b-df62e8ea4f60","system_id":"levelo_inurba_marseille","lat":43.25582,"lon":5.38236,"is_reserved":false,"is_disabled":false,"rental_uris":{"android":"levelo://app?vid=a6dcc830-39bc-4857-934b-df62e8ea4f60","ios":"levelo://app?vid=a6dcc830-39bc-4857-934b-df62e8ea4f60"},"vehicle_type_id":"4","last_reported":1731658359,"current_range_meters":40000,"station_id":"ce4bhih2rcd13ifvqfs0","pricing_plan_id":"cebpf4jnsgd1na2vs0mg"},{"bike_id":"631284bc-ca79-4566-a19e-c81968ea3fef","system_id":"levelo_inurba_marseille","lat":43.26691,"lon":5.38274,"is_reserved":false,"is_disabled":false,"rental_uris":{"android":"levelo://app?vid=631284bc-ca79-4566-a19e-c81968ea3fef","ios":"levelo://app?vid=631284bc-ca79-4566-a19e-c81968ea3fef"},"vehicle_type_id":"4","last_reported":1731658359,"current_range_meters":30800,"station_id":"ce4bhg92rcd13ifvqf90","pricing_plan_id":"cebpf4jnsgd1na2vs0mg"},{"bike_id":"913a4160-2863-4466-8491-0f2d64cb513c","system_id":"levelo_inurba_marseille","lat":43.28152,"lon":5.42639,"is_reserved":false,"is_disabled":false,"rental_uris":{"android":"levelo://app?vid=913a4160-2863-4466-8491-0f2d64cb513c","ios":"levelo://app?vid=913a4160-2863-4466-8491-0f2d64cb513c"},"vehicle_type_id":"4","last_reported":1731658359,"current_range_meters":36800,"station_id":"ce4bhnh2rcd13ifvqgug","pricing_plan_id":"cebpf4jnsgd1na2vs0mg"},{"bike_id":"4d7eb1ac-0bcc-4f41-8215-7704dcbecfd5","system_id":"levelo_inurba_marseille","lat":43.2848,"lon":5.38544,"is_reserved":false,"is_disabled":false,"rental_uris":{"android":"levelo://app?vid=4d7eb1ac-0bcc-4f41-8215-7704dcbecfd5","ios":"levelo://app?vid=4d7eb1ac-0bcc-4f41-8215-7704dcbecfd5"},"vehicle_type_id":"4","last_reported":1731658359,"current_range_meters":32800,"station_id":"ce4bh8p2rcd13ifvqeb0","pricing_plan_id":"cebpf4jnsgd1na2vs0mg"},{"bike_id":"1d462b25-0ee3-472f-bfe8-421b37804482","system_id":"levelo_inurba_marseille","lat":43.33603,"lon":5.4103,"is_reserved":false,"is_disabled":false,"rental_uris":{"android":"levelo://app?vid=1d462b25-0ee3-472f-bfe8-421b37804482","ios":"levelo://app?vid=1d462b25-0ee3-472f-bfe8-421b37804482"},"vehicle_type_id":"4","last_reported":1731658359,"current_range_meters":6000,"station_id":"ce4bhqh2rcd13ifvqhmg","pricing_plan_id":"cebpf4jnsgd1na2vs0mg"},{"bike_id":"da8d3b70-6a7c-43ff-88a7-f4291299c376","system_id":"levelo_inurba_marseille","lat":43.25726,"lon":5.41106,"is_reserved":false,"is_disabled":false,"rental_uris":{"android":"levelo://app?vid=da8d3b70-6a7c-43ff-88a7-f4291299c376","ios":"levelo://app?vid=da8d3b70-6a7c-43ff-88a7-f4291299c376"},"vehicle_type_id":"4","last_reported":1731658359,"current_range_meters":27600,"station_id":"ce4bhkp2rcd13ifvqgd0","pricing_plan_id":"cebpf4jnsgd1na2vs0mg"},{"bike_id":"d2a23bd7-d052-43a2-b9e4-4b9df45ef282","system_id":"levelo_inurba_marseille","lat":43.28454,"lon":5.35892,"is_reserved":false,"is_disabled":false,"rental_uris":{"android":"levelo://app?vid=d2a23bd7-d052-43a2-b9e4-4b9df45ef282","ios":"levelo://app?vid=d2a23bd7-d052-43a2-b9e4-4b9df45ef282"},"vehicle_type_id":"4","last_reported":1731658359,"current_range_meters":39200,"station_id":"ce4bhah2rcd13ifvqei0","pricing_plan_id":"cebpf4jnsgd1na2vs0mg"},{"bike_id":"675fe710-f9e5-46cf-95f1-88cbcbaf9606","system_id":"levelo_inurba_marseille","lat":43.28153,"lon":5.42648,"is_reserved":false,"is_disabled":false,"rental_uris":{"android":"levelo://app?vid=675fe710-f9e5-46cf-95f1-88cbcbaf9606","ios":"levelo://app?vid=675fe710-f9e5-46cf-95f1-88cbcbaf9606"},"vehicle_type_id":"4","last_reported":1731658359,"current_range_meters":26800,"station_id":"ce4bhnh2rcd13ifvqgug","pricing_plan_id":"cebpf4jnsgd1na2vs0mg"},{"bike_id":"6605d477-88c9-46cf-a1a0-5328d877191a","system_id":"levelo_inurba_marseille","lat":43.29835,"lon":5.36235,"is_reserved":false,"is_disabled":false,"rental_uris":{"android":"levelo://app?vid=6605d477-88c9-46cf-a1a0-5328d877191a","ios":"levelo://app?vid=6605d477-88c9-46cf-a1a0-5328d877191a"},"vehicle_type_id":"4","last_reported":1731658359,"current_range_meters":29600,"station_id":"ce4bgpp2rcd13ifvqc3g","pricing_plan_id":"cebpf4jnsgd1na2vs0mg"},{"bike_id":"6ef5d4e7-f790-4a38-bcd6-5dc3be6aa337","system_id":"levelo_inurba_marseille","lat":43.24076,"lon":5.37757,"is_reserved":false,"is_disabled":false,"rental_uris":{"android":"levelo://app?vid=6ef5d4e7-f790-4a38-bcd6-5dc3be6aa337","ios":"levelo://app?vid=6ef5d4e7-f790-4a38-bcd6-5dc3be6aa337"},"vehicle_type_id":"4","last_reported":1731658359,"current_range_meters":5600,"station_id":"ce4bhnp2rcd13ifvqgvg","pricing_plan_id":"cebpf4jnsgd1na2vs0mg"},{"bike_id":"8591b776-c0d7-4e3d-9075-0334b30ce750","system_id":"levelo_inurba_marseille","lat":43.2407,"lon":5.3776,"is_reserved":false,"is_disabled":false,"rental_uris":{"android":"levelo://app?vid=8591b776-c0d7-4e3d-9075-0334b30ce750","ios":"levelo://app?vid=8591b776-c0d7-4e3d-9075-0334b30ce750"},"vehicle_type_id":"4","last_reported":1731658359,"current_range_meters":35200,"station_id":"ce4bhnp2rcd13ifvqgvg","pricing_plan_id":"cebpf4jnsgd1na2vs0mg"},{"bike_id":"43da6cda-e917-45fb-8057-6df6961ab9cb","system_id":"levelo_inurba_marseille","lat":43.2407,"lon":5.3776,"is_reserved":false,"is_disabled":false,"rental_uris":{"android":"levelo://app?vid=43da6cda-e917-45fb-8057-6df6961ab9cb","ios":"levelo://app?vid=43da6cda-e917-45fb-8057-6df6961ab9cb"},"vehicle_type_id":"4","last_reported":1731658359,"current_range_meters":35600,"station_id":"ce4bhnp2rcd13ifvqgvg","pricing_plan_id":"cebpf4jnsgd1na2vs0mg"},{"bike_id":"103d474b-1417-48c6-95ae-80e20088963e","system_id":"levelo_inurba_marseille","lat":43.30538,"lon":5.36557,"is_reserved":false,"is_disabled":false,"rental_uris":{"android":"levelo://app?vid=103d474b-1417-48c6-95ae-80e20088963e","ios":"levelo://app?vid=103d474b-1417-48c6-95ae-80e20088963e"},"vehicle_type_id":"4","last_reported":1731658359,"current_range_meters":35600,"station_id":"ce4bgs12rcd13ifvqcag","pricing_plan_id":"cebpf4jnsgd1na2vs0mg"},{"bike_id":"d99bff46-e3e0-4c25-9719-3fa3dd9a1a6e","system_id":"levelo_inurba_marseille","lat":43.31874,"lon":5.37364,"is_reserved":false,"is_disabled":false,"rental_uris":{"android":"levelo://app?vid=d99bff46-e3e0-4c25-9719-3fa3dd9a1a6e","ios":"levelo://app?vid=d99bff46-e3e0-4c25-9719-3fa3dd9a1a6e"},"vehicle_type_id":"4","last_reported":1731658359,"current_range_meters":20000,"station_id":"","pricing_plan_id":"cebpf4jnsgd1na2vs0mg"},{"bike_id":"b6186cf4-f08f-43b0-9ae4-28dba67d15b0","system_id":"levelo_inurba_marseille","lat":43.24072,"lon":5.37759,"is_reserved":false,"is_disabled":false,"rental_uris":{"android":"levelo://app?vid=b6186cf4-f08f-43b0-9ae4-28dba67d15b0","ios":"levelo://app?vid=b6186cf4-f08f-43b0-9ae4-28dba67d15b0"},"vehicle_type_id":"4","last_reported":1731658359,"current_range_meters":22000,"station_id":"ce4bhnp2rcd13ifvqgvg","pricing_plan_id":"cebpf4jnsgd1na2vs0mg"},{"bike_id":"85b53427-d19a-4c23-9a60-760294c6f564","system_id":"levelo_inurba_marseille","lat":43.30192,"lon":5.36625,"is_reserved":false,"is_disabled":false,"rental_uris":{"android":"levelo://app?vid=85b53427-d19a-4c23-9a60-760294c6f564","ios":"levelo://app?vid=85b53427-d19a-4c23-9a60-760294c6f564"},"vehicle_type_id":"4","last_reported":1731658359,"current_range_meters":34000,"station_id":"ce4bgrh2rcd13ifvqc8g","pricing_plan_id":"cebpf4jnsgd1na2vs0mg"},{"bike_id":"30aa79f1-0668-46be-86d8-f310708ee696","system_id":"levelo_inurba_marseille","lat":43.32543,"lon":5.41439,"is_reserved":false,"is_disabled":false,"rental_uris":{"android":"levelo://app?vid=30aa79f1-0668-46be-86d8-f310708ee696","ios":"levelo://app?vid=30aa79f1-0668-46be-86d8-f310708ee696"},"vehicle_type_id":"4","last_reported":1731658359,"current_range_meters":36000,"station_id":"ce4bhq12rcd13ifvqhhg","pricing_plan_id":"cebpf4jnsgd1na2vs0mg"},{"bike_id":"5c7ecfeb-59fa-4f58-ae07-5a181a647db0","system_id":"levelo_inurba_marseille","lat":43.30425,"lon":5.3889,"is_reserved":false,"is_disabled":false,"rental_uris":{"android":"levelo://app?vid=5c7ecfeb-59fa-4f58-ae07-5a181a647db0","ios":"levelo://app?vid=5c7ecfeb-59fa-4f58-ae07-5a181a647db0"},"vehicle_type_id":"4","last_reported":1731658359,"current_range_meters":32400,"station_id":"ce4bgk12rcd13ifvqbi0","pricing_plan_id":"cebpf4jnsgd1na2vs0mg"},{"bike_id":"4a8ed5b0-4e4b-4951-a226-d3fea4f209e8","system_id":"levelo_inurba_marseille","lat":43.24065,"lon":5.37764,"is_reserved":false,"is_disabled":false,"rental_uris":{"android":"levelo://app?vid=4a8ed5b0-4e4b-4951-a226-d3fea4f209e8","ios":"levelo://app?vid=4a8ed5b0-4e4b-4951-a226-d3fea4f209e8"},"vehicle_type_id":"4","last_reported":1731658359,"current_range_meters":17600,"station_id":"ce4bhnp2rcd13ifvqgvg","pricing_plan_id":"cebpf4jnsgd1na2vs0mg"},{"bike_id":"7af03ed6-6be4-4a58-b867-e2ebe4cef8c6","system_id":"levelo_inurba_marseille","lat":43.28457,"lon":5.35894,"is_reserved":false,"is_disabled":false,"rental_uris":{"android":"levelo://app?vid=7af03ed6-6be4-4a58-b867-e2ebe4cef8c6","ios":"levelo://app?vid=7af03ed6-6be4-4a58-b867-e2ebe4cef8c6"},"vehicle_type_id":"4","last_reported":1731658359,"current_range_meters":32800,"station_id":"ce4bhah2rcd13ifvqei0","pricing_plan_id":"cebpf4jnsgd1na2vs0mg"},{"bike_id":"030c22c0-17c5-4fc6-9d20-49a83ce50d5f","system_id":"levelo_inurba_marseille","lat":43.2315,"lon":5.43711,"is_reserved":false,"is_disabled":false,"rental_uris":{"android":"levelo://app?vid=030c22c0-17c5-4fc6-9d20-49a83ce50d5f","ios":"levelo://app?vid=030c22c0-17c5-4fc6-9d20-49a83ce50d5f"},"vehicle_type_id":"4","last_reported":1731658359,"current_range_meters":8000,"station_id":"ce4bhmp2rcd13ifvqgog","pricing_plan_id":"cebpf4jnsgd1na2vs0mg"},{"bike_id":"77fed747-2cb1-4ebc-969e-6d965968535b","system_id":"levelo_inurba_marseille","lat":43.26786,"lon":5.39409,"is_reserved":false,"is_disabled":false,"rental_uris":{"android":"levelo://app?vid=77fed747-2cb1-4ebc-969e-6d965968535b","ios":"levelo://app?vid=77fed747-2cb1-4ebc-969e-6d965968535b"},"vehicle_type_id":"4","last_reported":1731658359,"current_range_meters":30000,"station_id":"ce4bhh12rcd13ifvqfg0","pricing_plan_id":"cebpf4jnsgd1na2vs0mg"},{"bike_id":"b33b2f9b-3642-44bf-8698-a9640db3101b","system_id":"levelo_inurba_marseille","lat":43.337444,"lon":5.374475,"is_reserved":false,"is_disabled":false,"rental_uris":{"android":"levelo://app?vid=b33b2f9b-3642-44bf-8698-a9640db3101b","ios":"levelo://app?vid=b33b2f9b-3642-44bf-8698-a9640db3101b"},"vehicle_type_id":"4","last_reported":1731658359,"current_range_meters":34800,"station_id":"","pricing_plan_id":"cebpf4jnsgd1na2vs0mg"},{"bike_id":"f194aaab-021f-449c-991a-be83b9bd6d9f","system_id":"levelo_inurba_marseille","lat":43.31362,"lon":5.36691,"is_reserved":false,"is_disabled":false,"rental_uris":{"android":"levelo://app?vid=f194aaab-021f-449c-991a-be83b9bd6d9f","ios":"levelo://app?vid=f194aaab-021f-449c-991a-be83b9bd6d9f"},"vehicle_type_id":"4","last_reported":1731658359,"current_range_meters":27200,"station_id":"ce4bgr92rcd13ifvqc6g","pricing_plan_id":"cebpf4jnsgd1na2vs0mg"},{"bike_id":"737a65dc-386a-480a-a809-1d0239c1dde8","system_id":"levelo_inurba_marseille","lat":43.27492,"lon":5.42449,"is_reserved":false,"is_disabled":false,"rental_uris":{"android":"levelo://app?vid=737a65dc-386a-480a-a809-1d0239c1dde8","ios":"levelo://app?vid=737a65dc-386a-480a-a809-1d0239c1dde8"},"vehicle_type_id":"4","last_reported":1731658359,"current_range_meters":24000,"station_id":"ce4bhn92rcd13ifvqgrg","pricing_plan_id":"cebpf4jnsgd1na2vs0mg"},{"bike_id":"9ac599f0-c3db-40c1-b15c-489906c4382b","system_id":"levelo_inurba_marseille","lat":43.24082,"lon":5.3775,"is_reserved":false,"is_disabled":false,"rental_uris":{"android":"levelo://app?vid=9ac599f0-c3db-40c1-b15c-489906c4382b","ios":"levelo://app?vid=9ac599f0-c3db-40c1-b15c-489906c4382b"},"vehicle_type_id":"4","last_reported":1731658359,"current_range_meters":6400,"station_id":"ce4bhnp2rcd13ifvqgvg","pricing_plan_id":"cebpf4jnsgd1na2vs0mg"},{"bike_id":"ed5708b3-53d0-4efe-a3fc-3b961aea516d","system_id":"levelo_inurba_marseille","lat":43.3054,"lon":5.38419,"is_reserved":false,"is_disabled":false,"rental_uris":{"android":"levelo://app?vid=ed5708b3-53d0-4efe-a3fc-3b961aea516d","ios":"levelo://app?vid=ed5708b3-53d0-4efe-a3fc-3b961aea516d"},"vehicle_type_id":"4","last_reported":1731658359,"current_range_meters":38000,"station_id":"ce4bgg92rcd13ifvqb30","pricing_plan_id":"cebpf4jnsgd1na2vs0mg"},{"bike_id":"575ba840-0b84-4763-af4c-f1944900d03f","system_id":"levelo_inurba_marseille","lat":43.29274,"lon":5.36849,"is_reserved":false,"is_disabled":false,"rental_uris":{"android":"levelo://app?vid=575ba840-0b84-4763-af4c-f1944900d03f","ios":"levelo://app?vid=575ba840-0b84-4763-af4c-f1944900d03f"},"vehicle_type_id":"4","last_reported":1731658359,"current_range_meters":27200,"station_id":"ce4bhbp2rcd13ifvqesg","pricing_plan_id":"cebpf4jnsgd1na2vs0mg"},{"bike_id":"b178992f-5a02-4413-a253-ab67b2e40184","system_id":"levelo_inurba_marseille","lat":43.31339,"lon":5.36731,"is_reserved":false,"is_disabled":false,"rental_uris":{"android":"levelo://app?vid=b178992f-5a02-4413-a253-ab67b2e40184","ios":"levelo://app?vid=b178992f-5a02-4413-a253-ab67b2e40184"},"vehicle_type_id":"4","last_reported":1731658359,"current_range_meters":35200,"station_id":"ce4bgr92rcd13ifvqc6g","pricing_plan_id":"cebpf4jnsgd1na2vs0mg"},{"bike_id":"1f21a831-83e9-4b48-9193-26c9ad27b1bd","system_id":"levelo_inurba_marseille","lat":43.251251,"lon":5.403163,"is_reserved":false,"is_disabled":false,"rental_uris":{"android":"levelo://app?vid=1f21a831-83e9-4b48-9193-26c9ad27b1bd","ios":"levelo://app?vid=1f21a831-83e9-4b48-9193-26c9ad27b1bd"},"vehicle_type_id":"4","last_reported":1731658359,"current_range_meters":28400,"station_id":"ce4bhlh2rcd13ifvqgig","pricing_plan_id":"cebpf4jnsgd1na2vs0mg"},{"bike_id":"b62cae68-a6eb-436e-b41f-3230e36152a0","system_id":"levelo_inurba_marseille","lat":43.32529,"lon":5.4145,"is_reserved":false,"is_disabled":false,"rental_uris":{"android":"levelo://app?vid=b62cae68-a6eb-436e-b41f-3230e36152a0","ios":"levelo://app?vid=b62cae68-a6eb-436e-b41f-3230e36152a0"},"vehicle_type_id":"4","last_reported":1731658359,"current_range_meters":20000,"station_id":"ce4bhq12rcd13ifvqhhg","pricing_plan_id":"cebpf4jnsgd1na2vs0mg"},{"bike_id":"ee78390f-2a74-4b23-b380-fdaaade1f57a","system_id":"levelo_inurba_marseille","lat":43.29041,"lon":5.39957,"is_reserved":false,"is_disabled":false,"rental_uris":{"android":"levelo://app?vid=ee78390f-2a74-4b23-b380-fdaaade1f57a","ios":"levelo://app?vid=ee78390f-2a74-4b23-b380-fdaaade1f57a"},"vehicle_type_id":"4","last_reported":1731658359,"current_range_meters":30400,"station_id":"ce4bh392rcd13ifvqdm0","pricing_plan_id":"cebpf4jnsgd1na2vs0mg"},{"bike_id":"d6736c06-2984-459e-ae07-5adf0dc321e3","system_id":"levelo_inurba_marseille","lat":43.337444,"lon":5.374475,"is_reserved":false,"is_disabled":false,"rental_uris":{"android":"levelo://app?vid=d6736c06-2984-459e-ae07-5adf0dc321e3","ios":"levelo://app?vid=d6736c06-2984-459e-ae07-5adf0dc321e3"},"vehicle_type_id":"4","last_reported":1731658359,"current_range_meters":18000,"station_id":"","pricing_plan_id":"cebpf4jnsgd1na2vs0mg"},{"bike_id":"3f9da6eb-5d63-48ab-8728-6c7284930681","system_id":"levelo_inurba_marseille","lat":43.298079,"lon":5.381068,"is_reserved":false,"is_disabled":false,"rental_uris":{"android":"levelo://app?vid=3f9da6eb-5d63-48ab-8728-6c7284930681","ios":"levelo://app?vid=3f9da6eb-5d63-48ab-8728-6c7284930681"},"vehicle_type_id":"4","last_reported":1731658359,"current_range_meters":34000,"station_id":"ce4bgip2rcd13ifvqbb0","pricing_plan_id":"cebpf4jnsgd1na2vs0mg"},{"bike_id":"62a400bb-9b7a-4c31-8a10-596f348a6827","system_id":"levelo_inurba_marseille","lat":43.24081,"lon":5.37751,"is_reserved":false,"is_disabled":false,"rental_uris":{"android":"levelo://app?vid=62a400bb-9b7a-4c31-8a10-596f348a6827","ios":"levelo://app?vid=62a400bb-9b7a-4c31-8a10-596f348a6827"},"vehicle_type_id":"4","last_reported":1731658359,"current_range_meters":35600,"station_id":"ce4bhnp2rcd13ifvqgvg","pricing_plan_id":"cebpf4jnsgd1na2vs0mg"},{"bike_id":"898343a1-2642-491c-a1ab-47e0e0534d2f","system_id":"levelo_inurba_marseille","lat":43.33611,"lon":5.41026,"is_reserved":false,"is_disabled":false,"rental_uris":{"android":"levelo://app?vid=898343a1-2642-491c-a1ab-47e0e0534d2f","ios":"levelo://app?vid=898343a1-2642-491c-a1ab-47e0e0534d2f"},"vehicle_type_id":"4","last_reported":1731658359,"current_range_meters":11600,"station_id":"ce4bhqh2rcd13ifvqhmg","pricing_plan_id":"cebpf4jnsgd1na2vs0mg"},{"bike_id":"a8819323-da27-4f25-98d0-afc7343e908f","system_id":"levelo_inurba_marseille","lat":43.31478,"lon":5.37309,"is_reserved":false,"is_disabled":false,"rental_uris":{"android":"levelo://app?vid=a8819323-da27-4f25-98d0-afc7343e908f","ios":"levelo://app?vid=a8819323-da27-4f25-98d0-afc7343e908f"},"vehicle_type_id":"4","last_reported":1731658359,"current_range_meters":26000,"station_id":"ce4bgt12rcd13ifvqcd0","pricing_plan_id":"cebpf4jnsgd1na2vs0mg"},{"bike_id":"507af49a-ce39-427e-89c7-5774852476c0","system_id":"levelo_inurba_marseille","lat":43.30911,"lon":5.3685,"is_reserved":false,"is_disabled":false,"rental_uris":{"android":"levelo://app?vid=507af49a-ce39-427e-89c7-5774852476c0","ios":"levelo://app?vid=507af49a-ce39-427e-89c7-5774852476c0"},"vehicle_type_id":"4","last_reported":1731658359,"current_range_meters":38800,"station_id":"ce4bgn92rcd13ifvqbvg","pricing_plan_id":"cebpf4jnsgd1na2vs0mg"},{"bike_id":"59bbc726-be85-4261-8d1b-ba362cc101ca","system_id":"levelo_inurba_marseille","lat":43.29779,"lon":5.37107,"is_reserved":false,"is_disabled":false,"rental_uris":{"android":"levelo://app?vid=59bbc726-be85-4261-8d1b-ba362cc101ca","ios":"levelo://app?vid=59bbc726-be85-4261-8d1b-ba362cc101ca"},"vehicle_type_id":"4","last_reported":1731658359,"current_range_meters":19200,"station_id":"ce4bgop2rcd13ifvqc1g","pricing_plan_id":"cebpf4jnsgd1na2vs0mg"},{"bike_id":"83d0c08b-53e5-4e1d-aa28-dd3ec259f354","system_id":"levelo_inurba_marseille","lat":43.280965,"lon":5.422255,"is_reserved":false,"is_disabled":false,"rental_uris":{"android":"levelo://app?vid=83d0c08b-53e5-4e1d-aa28-dd3ec259f354","ios":"levelo://app?vid=83d0c08b-53e5-4e1d-aa28-dd3ec259f354"},"vehicle_type_id":"4","last_reported":1731658359,"current_range_meters":9200,"station_id":"","pricing_plan_id":"cebpf4jnsgd1na2vs0mg"},{"bike_id":"59fda6f8-cac8-4aac-9c20-3abff8bab0a2","system_id":"levelo_inurba_marseille","lat":43.29225,"lon":5.36075,"is_reserved":false,"is_disabled":false,"rental_uris":{"android":"levelo://app?vid=59fda6f8-cac8-4aac-9c20-3abff8bab0a2","ios":"levelo://app?vid=59fda6f8-cac8-4aac-9c20-3abff8bab0a2"},"vehicle_type_id":"4","last_reported":1731658359,"current_range_meters":36800,"station_id":"ce4bhbh2rcd13ifvqeqg","pricing_plan_id":"cebpf4jnsgd1na2vs0mg"},{"bike_id":"17709244-3cb1-468c-8028-e3e06ece4dea","system_id":"levelo_inurba_marseille","lat":43.24085,"lon":5.37749,"is_reserved":false,"is_disabled":false,"rental_uris":{"android":"levelo://app?vid=17709244-3cb1-468c-8028-e3e06ece4dea","ios":"levelo://app?vid=17709244-3cb1-468c-8028-e3e06ece4dea"},"vehicle_type_id":"4","last_reported":1731658359,"current_range_meters":32400,"station_id":"ce4bhnp2rcd13ifvqgvg","pricing_plan_id":"cebpf4jnsgd1na2vs0mg"},{"bike_id":"92e3ad17-17c9-4714-a148-ef9436ad6113","system_id":"levelo_inurba_marseille","lat":43.22937,"lon":5.35376,"is_reserved":false,"is_disabled":false,"rental_uris":{"android":"levelo://app?vid=92e3ad17-17c9-4714-a148-ef9436ad6113","ios":"levelo://app?vid=92e3ad17-17c9-4714-a148-ef9436ad6113"},"vehicle_type_id":"4","last_reported":1731658359,"current_range_meters":40000,"station_id":"cpo3532slgdg3j2ikp40","pricing_plan_id":"cebpf4jnsgd1na2vs0mg"},{"bike_id":"094cc33d-da3c-49ab-bc5f-c983906b9f18","system_id":"levelo_inurba_marseille","lat":43.23174,"lon":5.39983,"is_reserved":false,"is_disabled":false,"rental_uris":{"android":"levelo://app?vid=094cc33d-da3c-49ab-bc5f-c983906b9f18","ios":"levelo://app?vid=094cc33d-da3c-49ab-bc5f-c983906b9f18"},"vehicle_type_id":"4","last_reported":1731658359,"current_range_meters":10000,"station_id":"ce4bhn12rcd13ifvqgqg","pricing_plan_id":"cebpf4jnsgd1na2vs0mg"},{"bike_id":"f9a45034-8224-440d-af1b-4924dc783527","system_id":"levelo_inurba_marseille","lat":43.29995,"lon":5.38487,"is_reserved":false,"is_disabled":false,"rental_uris":{"android":"levelo://app?vid=f9a45034-8224-440d-af1b-4924dc783527","ios":"levelo://app?vid=f9a45034-8224-440d-af1b-4924dc783527"},"vehicle_type_id":"4","last_reported":1731658359,"current_range_meters":36400,"station_id":"ce4bgj92rcd13ifvqbd0","pricing_plan_id":"cebpf4jnsgd1na2vs0mg"},{"bike_id":"5326c5f8-bba7-40e6-bfc7-8e986a3bddf3","system_id":"levelo_inurba_marseille","lat":43.3104,"lon":5.37462,"is_reserved":false,"is_disabled":false,"rental_uris":{"android":"levelo://app?vid=5326c5f8-bba7-40e6-bfc7-8e986a3bddf3","ios":"levelo://app?vid=5326c5f8-bba7-40e6-bfc7-8e986a3bddf3"},"vehicle_type_id":"4","last_reported":1731658359,"current_range_meters":22400,"station_id":"ce4bgt12rcd13ifvqcd0","pricing_plan_id":"cebpf4jnsgd1na2vs0mg"},{"bike_id":"99f0def7-88b4-40f3-b210-57c372cfc6e9","system_id":"levelo_inurba_marseille","lat":43.28831,"lon":5.39287,"is_reserved":false,"is_disabled":false,"rental_uris":{"android":"levelo://app?vid=99f0def7-88b4-40f3-b210-57c372cfc6e9","ios":"levelo://app?vid=99f0def7-88b4-40f3-b210-57c372cfc6e9"},"vehicle_type_id":"4","last_reported":1731658359,"current_range_meters":27600,"station_id":"ce4bhi12rcd13ifvqfo0","pricing_plan_id":"cebpf4jnsgd1na2vs0mg"},{"bike_id":"82f309e6-c4ae-421f-89cb-1d64a8e0ef10","system_id":"levelo_inurba_marseille","lat":43.337444,"lon":5.374475,"is_reserved":false,"is_disabled":false,"rental_uris":{"android":"levelo://app?vid=82f309e6-c4ae-421f-89cb-1d64a8e0ef10","ios":"levelo://app?vid=82f309e6-c4ae-421f-89cb-1d64a8e0ef10"},"vehicle_type_id":"4","last_reported":1731658359,"current_range_meters":28800,"station_id":"","pricing_plan_id":"cebpf4jnsgd1na2vs0mg"},{"bike_id":"0d2eaa0e-6843-44a2-9e66-25eadf145698","system_id":"levelo_inurba_marseille","lat":43.3055,"lon":5.38428,"is_reserved":false,"is_disabled":false,"rental_uris":{"android":"levelo://app?vid=0d2eaa0e-6843-44a2-9e66-25eadf145698","ios":"levelo://app?vid=0d2eaa0e-6843-44a2-9e66-25eadf145698"},"vehicle_type_id":"4","last_reported":1731658359,"current_range_meters":29600,"station_id":"ce4bgg92rcd13ifvqb30","pricing_plan_id":"cebpf4jnsgd1na2vs0mg"},{"bike_id":"f1e9fc4f-4524-48c2-bea5-288ea485b230","system_id":"levelo_inurba_marseille","lat":43.23153,"lon":5.43724,"is_reserved":false,"is_disabled":false,"rental_uris":{"android":"levelo://app?vid=f1e9fc4f-4524-48c2-bea5-288ea485b230","ios":"levelo://app?vid=f1e9fc4f-4524-48c2-bea5-288ea485b230"},"vehicle_type_id":"4","last_reported":1731658359,"current_range_meters":18800,"station_id":"ce4bhmp2rcd13ifvqgog","pricing_plan_id":"cebpf4jnsgd1na2vs0mg"},{"bike_id":"367ca332-0563-466c-97d1-8e6cd74b632c","system_id":"levelo_inurba_marseille","lat":43.26566,"lon":5.39009,"is_reserved":false,"is_disabled":false,"rental_uris":{"android":"levelo://app?vid=367ca332-0563-466c-97d1-8e6cd74b632c","ios":"levelo://app?vid=367ca332-0563-466c-97d1-8e6cd74b632c"},"vehicle_type_id":"4","last_reported":1731658359,"current_range_meters":25200,"station_id":"ce4bhe12rcd13ifvqf30","pricing_plan_id":"cebpf4jnsgd1na2vs0mg"},{"bike_id":"2bc483ce-cc7c-4ff4-8f56-dc791152925b","system_id":"levelo_inurba_marseille","lat":43.26686,"lon":5.3827,"is_reserved":false,"is_disabled":false,"rental_uris":{"android":"levelo://app?vid=2bc483ce-cc7c-4ff4-8f56-dc791152925b","ios":"levelo://app?vid=2bc483ce-cc7c-4ff4-8f56-dc791152925b"},"vehicle_type_id":"4","last_reported":1731658359,"current_range_meters":28000,"station_id":"ce4bhg92rcd13ifvqf90","pricing_plan_id":"cebpf4jnsgd1na2vs0mg"},{"bike_id":"feca3b77-9b16-4f1f-8742-27d5e1074087","system_id":"levelo_inurba_marseille","lat":43.265605,"lon":5.390019,"is_reserved":false,"is_disabled":false,"rental_uris":{"android":"levelo://app?vid=feca3b77-9b16-4f1f-8742-27d5e1074087","ios":"levelo://app?vid=feca3b77-9b16-4f1f-8742-27d5e1074087"},"vehicle_type_id":"4","last_reported":1731658359,"current_range_meters":36800,"station_id":"ce4bhe12rcd13ifvqf30","pricing_plan_id":"cebpf4jnsgd1na2vs0mg"},{"bike_id":"14327ff3-45ed-412f-9d6c-e518b4bbab7a","system_id":"levelo_inurba_marseille","lat":43.31174,"lon":5.3871,"is_reserved":false,"is_disabled":false,"rental_uris":{"android":"levelo://app?vid=14327ff3-45ed-412f-9d6c-e518b4bbab7a","ios":"levelo://app?vid=14327ff3-45ed-412f-9d6c-e518b4bbab7a"},"vehicle_type_id":"4","last_reported":1731658359,"current_range_meters":38800,"station_id":"ce4bgv12rcd13ifvqcp0","pricing_plan_id":"cebpf4jnsgd1na2vs0mg"},{"bike_id":"14ec0dcf-913b-4f6d-9327-5395fe151b5e","system_id":"levelo_inurba_marseille","lat":43.24077,"lon":5.377555,"is_reserved":false,"is_disabled":false,"rental_uris":{"android":"levelo://app?vid=14ec0dcf-913b-4f6d-9327-5395fe151b5e","ios":"levelo://app?vid=14ec0dcf-913b-4f6d-9327-5395fe151b5e"},"vehicle_type_id":"4","last_reported":1731658359,"current_range_meters":27600,"station_id":"ce4bhnp2rcd13ifvqgvg","pricing_plan_id":"cebpf4jnsgd1na2vs0mg"},{"bike_id":"46797600-39c0-410a-9d29-8a4c8cac8236","system_id":"levelo_inurba_marseille","lat":43.25932,"lon":5.40912,"is_reserved":false,"is_disabled":false,"rental_uris":{"android":"levelo://app?vid=46797600-39c0-410a-9d29-8a4c8cac8236","ios":"levelo://app?vid=46797600-39c0-410a-9d29-8a4c8cac8236"},"vehicle_type_id":"4","last_reported":1731658359,"current_range_meters":13600,"station_id":"ce4bhm92rcd13ifvqglg","pricing_plan_id":"cebpf4jnsgd1na2vs0mg"},{"bike_id":"c05286ca-c620-43c2-ab1f-b3ea2148b042","system_id":"levelo_inurba_marseille","lat":43.32537,"lon":5.41425,"is_reserved":false,"is_disabled":false,"rental_uris":{"android":"levelo://app?vid=c05286ca-c620-43c2-ab1f-b3ea2148b042","ios":"levelo://app?vid=c05286ca-c620-43c2-ab1f-b3ea2148b042"},"vehicle_type_id":"4","last_reported":1731658359,"current_range_meters":17600,"station_id":"ce4bhq12rcd13ifvqhhg","pricing_plan_id":"cebpf4jnsgd1na2vs0mg"},{"bike_id":"c7ed637b-8d49-4e27-aba5-a10b391031e7","system_id":"levelo_inurba_marseille","lat":43.2797,"lon":5.38744,"is_reserved":false,"is_disabled":false,"rental_uris":{"android":"levelo://app?vid=c7ed637b-8d49-4e27-aba5-a10b391031e7","ios":"levelo://app?vid=c7ed637b-8d49-4e27-aba5-a10b391031e7"},"vehicle_type_id":"4","last_reported":1731658359,"current_range_meters":16800,"station_id":"ce4bhg12rcd13ifvqf80","pricing_plan_id":"cebpf4jnsgd1na2vs0mg"},{"bike_id":"d4357b6e-382d-42fb-a863-ff7fd5649955","system_id":"levelo_inurba_marseille","lat":43.24999,"lon":5.38928,"is_reserved":false,"is_disabled":false,"rental_uris":{"android":"levelo://app?vid=d4357b6e-382d-42fb-a863-ff7fd5649955","ios":"levelo://app?vid=d4357b6e-382d-42fb-a863-ff7fd5649955"},"vehicle_type_id":"4","last_reported":1731658359,"current_range_meters":38400,"station_id":"ce4bhgp2rcd13ifvqfd0","pricing_plan_id":"cebpf4jnsgd1na2vs0mg"},{"bike_id":"79294977-6401-4835-8c97-7dcc2f35c689","system_id":"levelo_inurba_marseille","lat":43.30913,"lon":5.36858,"is_reserved":false,"is_disabled":false,"rental_uris":{"android":"levelo://app?vid=79294977-6401-4835-8c97-7dcc2f35c689","ios":"levelo://app?vid=79294977-6401-4835-8c97-7dcc2f35c689"},"vehicle_type_id":"4","last_reported":1731658359,"current_range_meters":28800,"station_id":"ce4bgn92rcd13ifvqbvg","pricing_plan_id":"cebpf4jnsgd1na2vs0mg"},{"bike_id":"93779908-3df9-4e4b-99d1-931c4b82d6fc","system_id":"levelo_inurba_marseille","lat":43.30949,"lon":5.3903,"is_reserved":false,"is_disabled":false,"rental_uris":{"android":"levelo://app?vid=93779908-3df9-4e4b-99d1-931c4b82d6fc","ios":"levelo://app?vid=93779908-3df9-4e4b-99d1-931c4b82d6fc"},"vehicle_type_id":"4","last_reported":1731658359,"current_range_meters":7200,"station_id":"ce4bgup2rcd13ifvqco0","pricing_plan_id":"cebpf4jnsgd1na2vs0mg"},{"bike_id":"6190abe0-aae9-4a80-a526-d67e8d93d29d","system_id":"levelo_inurba_marseille","lat":43.26944,"lon":5.3864,"is_reserved":false,"is_disabled":false,"rental_uris":{"android":"levelo://app?vid=6190abe0-aae9-4a80-a526-d67e8d93d29d","ios":"levelo://app?vid=6190abe0-aae9-4a80-a526-d67e8d93d29d"},"vehicle_type_id":"4","last_reported":1731658359,"current_range_meters":28400,"station_id":"ce4bhh92rcd13ifvqfh0","pricing_plan_id":"cebpf4jnsgd1na2vs0mg"},{"bike_id":"c326092d-12bb-4427-8871-039029263e1c","system_id":"levelo_inurba_marseille","lat":43.32049,"lon":5.41544,"is_reserved":false,"is_disabled":false,"rental_uris":{"android":"levelo://app?vid=c326092d-12bb-4427-8871-039029263e1c","ios":"levelo://app?vid=c326092d-12bb-4427-8871-039029263e1c"},"vehicle_type_id":"4","last_reported":1731658359,"current_range_meters":24800,"station_id":"ce4bhq92rcd13ifvqhkg","pricing_plan_id":"cebpf4jnsgd1na2vs0mg"},{"bike_id":"5c9e7443-b8c4-4806-8854-3975b1e311f4","system_id":"levelo_inurba_marseille","lat":43.27051,"lon":5.40263,"is_reserved":false,"is_disabled":false,"rental_uris":{"android":"levelo://app?vid=5c9e7443-b8c4-4806-8854-3975b1e311f4","ios":"levelo://app?vid=5c9e7443-b8c4-4806-8854-3975b1e311f4"},"vehicle_type_id":"4","last_reported":1731658359,"current_range_meters":32800,"station_id":"ce4bhk92rcd13ifvqgc0","pricing_plan_id":"cebpf4jnsgd1na2vs0mg"},{"bike_id":"66f1a1c4-c964-4fa2-9783-f9b6c4e20a98","system_id":"levelo_inurba_marseille","lat":43.32476,"lon":5.36566,"is_reserved":false,"is_disabled":false,"rental_uris":{"android":"levelo://app?vid=66f1a1c4-c964-4fa2-9783-f9b6c4e20a98","ios":"levelo://app?vid=66f1a1c4-c964-4fa2-9783-f9b6c4e20a98"},"vehicle_type_id":"4","last_reported":1731658359,"current_range_meters":24000,"station_id":"ce4bhs12rcd13ifvqhvg","pricing_plan_id":"cebpf4jnsgd1na2vs0mg"},{"bike_id":"e6ad9383-9b86-4091-bd19-09c09422cf32","system_id":"levelo_inurba_marseille","lat":43.30469,"lon":5.379,"is_reserved":false,"is_disabled":false,"rental_uris":{"android":"levelo://app?vid=e6ad9383-9b86-4091-bd19-09c09422cf32","ios":"levelo://app?vid=e6ad9383-9b86-4091-bd19-09c09422cf32"},"vehicle_type_id":"4","last_reported":1731658359,"current_range_meters":36000,"station_id":"ce4bgup2rcd13ifvqcn0","pricing_plan_id":"cebpf4jnsgd1na2vs0mg"},{"bike_id":"3954dd37-8389-4e48-b138-27e1c188a614","system_id":"levelo_inurba_marseille","lat":43.31221,"lon":5.36855,"is_reserved":false,"is_disabled":false,"rental_uris":{"android":"levelo://app?vid=3954dd37-8389-4e48-b138-27e1c188a614","ios":"levelo://app?vid=3954dd37-8389-4e48-b138-27e1c188a614"},"vehicle_type_id":"4","last_reported":1731658359,"current_range_meters":36000,"station_id":"ce4bgl92rcd13ifvqbq0","pricing_plan_id":"cebpf4jnsgd1na2vs0mg"},{"bike_id":"bb759855-13a1-4f22-9041-a78d1c33d620","system_id":"levelo_inurba_marseille","lat":43.29711,"lon":5.37695,"is_reserved":false,"is_disabled":false,"rental_uris":{"android":"levelo://app?vid=bb759855-13a1-4f22-9041-a78d1c33d620","ios":"levelo://app?vid=bb759855-13a1-4f22-9041-a78d1c33d620"},"vehicle_type_id":"4","last_reported":1731658359,"current_range_meters":36000,"station_id":"ce4bgkh2rcd13ifvqbl0","pricing_plan_id":"cebpf4jnsgd1na2vs0mg"},{"bike_id":"334f6cf6-336b-4452-8b70-8d818d81053c","system_id":"levelo_inurba_marseille","lat":43.24073,"lon":5.37759,"is_reserved":false,"is_disabled":false,"rental_uris":{"android":"levelo://app?vid=334f6cf6-336b-4452-8b70-8d818d81053c","ios":"levelo://app?vid=334f6cf6-336b-4452-8b70-8d818d81053c"},"vehicle_type_id":"4","last_reported":1731658359,"current_range_meters":20800,"station_id":"ce4bhnp2rcd13ifvqgvg","pricing_plan_id":"cebpf4jnsgd1na2vs0mg"},{"bike_id":"a5ac9c0e-22f7-4dd3-af04-1b827dc1a026","system_id":"levelo_inurba_marseille","lat":43.28155,"lon":5.42647,"is_reserved":false,"is_disabled":false,"rental_uris":{"android":"levelo://app?vid=a5ac9c0e-22f7-4dd3-af04-1b827dc1a026","ios":"levelo://app?vid=a5ac9c0e-22f7-4dd3-af04-1b827dc1a026"},"vehicle_type_id":"4","last_reported":1731658359,"current_range_meters":37600,"station_id":"ce4bhnh2rcd13ifvqgug","pricing_plan_id":"cebpf4jnsgd1na2vs0mg"},{"bike_id":"c965c0d0-933e-4869-9c9d-bc30aa7aadec","system_id":"levelo_inurba_marseille","lat":43.29071,"lon":5.37175,"is_reserved":false,"is_disabled":false,"rental_uris":{"android":"levelo://app?vid=c965c0d0-933e-4869-9c9d-bc30aa7aadec","ios":"levelo://app?vid=c965c0d0-933e-4869-9c9d-bc30aa7aadec"},"vehicle_type_id":"4","last_reported":1731658359,"current_range_meters":10000,"station_id":"ce4bh5p2rcd13ifvqe4g","pricing_plan_id":"cebpf4jnsgd1na2vs0mg"},{"bike_id":"b47cb991-57c8-4ef2-ba6f-88a50e1a1219","system_id":"levelo_inurba_marseille","lat":43.22923,"lon":5.3537,"is_reserved":false,"is_disabled":false,"rental_uris":{"android":"levelo://app?vid=b47cb991-57c8-4ef2-ba6f-88a50e1a1219","ios":"levelo://app?vid=b47cb991-57c8-4ef2-ba6f-88a50e1a1219"},"vehicle_type_id":"4","last_reported":1731658359,"current_range_meters":37600,"station_id":"cpo3532slgdg3j2ikp40","pricing_plan_id":"cebpf4jnsgd1na2vs0mg"},{"bike_id":"58b80146-6940-479a-a5e0-170bae3adb1d","system_id":"levelo_inurba_marseille","lat":43.30144,"lon":5.38079,"is_reserved":false,"is_disabled":false,"rental_uris":{"android":"levelo://app?vid=58b80146-6940-479a-a5e0-170bae3adb1d","ios":"levelo://app?vid=58b80146-6940-479a-a5e0-170bae3adb1d"},"vehicle_type_id":"4","last_reported":1731658359,"current_range_meters":34800,"station_id":"ce4bgjp2rcd13ifvqbh0","pricing_plan_id":"cebpf4jnsgd1na2vs0mg"},{"bike_id":"6fbbc3e3-4588-451b-adb4-0c8fce82d9a2","system_id":"levelo_inurba_marseille","lat":43.28348,"lon":5.38103,"is_reserved":false,"is_disabled":false,"rental_uris":{"android":"levelo://app?vid=6fbbc3e3-4588-451b-adb4-0c8fce82d9a2","ios":"levelo://app?vid=6fbbc3e3-4588-451b-adb4-0c8fce82d9a2"},"vehicle_type_id":"4","last_reported":1731658359,"current_range_meters":2000,"station_id":"ce4bh412rcd13ifvqdr0","pricing_plan_id":"cebpf4jnsgd1na2vs0mg"},{"bike_id":"3be187de-5e5a-4eb9-a6fc-b5be1ff54724","system_id":"levelo_inurba_marseille","lat":43.24082,"lon":5.37749,"is_reserved":false,"is_disabled":false,"rental_uris":{"android":"levelo://app?vid=3be187de-5e5a-4eb9-a6fc-b5be1ff54724","ios":"levelo://app?vid=3be187de-5e5a-4eb9-a6fc-b5be1ff54724"},"vehicle_type_id":"4","last_reported":1731658359,"current_range_meters":30800,"station_id":"ce4bhnp2rcd13ifvqgvg","pricing_plan_id":"cebpf4jnsgd1na2vs0mg"},{"bike_id":"1d36ec1c-d89d-4bb1-8e0d-ff1c762508b7","system_id":"levelo_inurba_marseille","lat":43.22938,"lon":5.35375,"is_reserved":false,"is_disabled":false,"rental_uris":{"android":"levelo://app?vid=1d36ec1c-d89d-4bb1-8e0d-ff1c762508b7","ios":"levelo://app?vid=1d36ec1c-d89d-4bb1-8e0d-ff1c762508b7"},"vehicle_type_id":"4","last_reported":1731658359,"current_range_meters":10000,"station_id":"cpo3532slgdg3j2ikp40","pricing_plan_id":"cebpf4jnsgd1na2vs0mg"},{"bike_id":"548b4e7b-6d37-4aaf-b184-b7f7211de782","system_id":"levelo_inurba_marseille","lat":43.30459,"lon":5.37908,"is_reserved":false,"is_disabled":false,"rental_uris":{"android":"levelo://app?vid=548b4e7b-6d37-4aaf-b184-b7f7211de782","ios":"levelo://app?vid=548b4e7b-6d37-4aaf-b184-b7f7211de782"},"vehicle_type_id":"4","last_reported":1731658359,"current_range_meters":20800,"station_id":"ce4bgup2rcd13ifvqcn0","pricing_plan_id":"cebpf4jnsgd1na2vs0mg"},{"bike_id":"37212eb8-cfa6-47ba-9ed7-bfed51287466","system_id":"levelo_inurba_marseille","lat":43.31479,"lon":5.37371,"is_reserved":false,"is_disabled":false,"rental_uris":{"android":"levelo://app?vid=37212eb8-cfa6-47ba-9ed7-bfed51287466","ios":"levelo://app?vid=37212eb8-cfa6-47ba-9ed7-bfed51287466"},"vehicle_type_id":"4","last_reported":1731658359,"current_range_meters":36400,"station_id":"ce4bgt12rcd13ifvqcd0","pricing_plan_id":"cebpf4jnsgd1na2vs0mg"},{"bike_id":"0a7a7ac5-f54c-44af-a6b9-bff324764339","system_id":"levelo_inurba_marseille","lat":43.230592,"lon":5.35491,"is_reserved":false,"is_disabled":false,"rental_uris":{"android":"levelo://app?vid=0a7a7ac5-f54c-44af-a6b9-bff324764339","ios":"levelo://app?vid=0a7a7ac5-f54c-44af-a6b9-bff324764339"},"vehicle_type_id":"4","last_reported":1731658359,"current_range_meters":16000,"station_id":"cpo3342slgdg3j2ifvpg","pricing_plan_id":"cebpf4jnsgd1na2vs0mg"},{"bike_id":"f370292c-69a8-4324-a6dd-2fe950dc4331","system_id":"levelo_inurba_marseille","lat":43.30429,"lon":5.38881,"is_reserved":false,"is_disabled":false,"rental_uris":{"android":"levelo://app?vid=f370292c-69a8-4324-a6dd-2fe950dc4331","ios":"levelo://app?vid=f370292c-69a8-4324-a6dd-2fe950dc4331"},"vehicle_type_id":"4","last_reported":1731658359,"current_range_meters":37600,"station_id":"ce4bgk12rcd13ifvqbi0","pricing_plan_id":"cebpf4jnsgd1na2vs0mg"},{"bike_id":"5f4496a2-dc1f-4c6c-87bb-f44d8c27445d","system_id":"levelo_inurba_marseille","lat":43.31375,"lon":5.36704,"is_reserved":false,"is_disabled":false,"rental_uris":{"android":"levelo://app?vid=5f4496a2-dc1f-4c6c-87bb-f44d8c27445d","ios":"levelo://app?vid=5f4496a2-dc1f-4c6c-87bb-f44d8c27445d"},"vehicle_type_id":"4","last_reported":1731658359,"current_range_meters":15200,"station_id":"ce4bgr92rcd13ifvqc6g","pricing_plan_id":"cebpf4jnsgd1na2vs0mg"},{"bike_id":"bef7ca68-0ccd-456c-a245-4471193ed987","system_id":"levelo_inurba_marseille","lat":43.26059,"lon":5.39393,"is_reserved":false,"is_disabled":false,"rental_uris":{"android":"levelo://app?vid=bef7ca68-0ccd-456c-a245-4471193ed987","ios":"levelo://app?vid=bef7ca68-0ccd-456c-a245-4471193ed987"},"vehicle_type_id":"4","last_reported":1731658359,"current_range_meters":38800,"station_id":"ce4bhh92rcd13ifvqfj0","pricing_plan_id":"cebpf4jnsgd1na2vs0mg"},{"bike_id":"aea8cdc0-e9e6-4f34-937e-42ad89731e3c","system_id":"levelo_inurba_marseille","lat":43.24076,"lon":5.3776,"is_reserved":false,"is_disabled":false,"rental_uris":{"android":"levelo://app?vid=aea8cdc0-e9e6-4f34-937e-42ad89731e3c","ios":"levelo://app?vid=aea8cdc0-e9e6-4f34-937e-42ad89731e3c"},"vehicle_type_id":"4","last_reported":1731658359,"current_range_meters":29600,"station_id":"ce4bhnp2rcd13ifvqgvg","pricing_plan_id":"cebpf4jnsgd1na2vs0mg"},{"bike_id":"7619cc6e-3d40-497d-863d-005b14967ee7","system_id":"levelo_inurba_marseille","lat":43.26945,"lon":5.3864,"is_reserved":false,"is_disabled":false,"rental_uris":{"android":"levelo://app?vid=7619cc6e-3d40-497d-863d-005b14967ee7","ios":"levelo://app?vid=7619cc6e-3d40-497d-863d-005b14967ee7"},"vehicle_type_id":"4","last_reported":1731658359,"current_range_meters":29600,"station_id":"ce4bhh92rcd13ifvqfh0","pricing_plan_id":"cebpf4jnsgd1na2vs0mg"},{"bike_id":"51904086-b459-4626-90df-99e935701cfe","system_id":"levelo_inurba_marseille","lat":43.28661,"lon":5.36353,"is_reserved":false,"is_disabled":false,"rental_uris":{"android":"levelo://app?vid=51904086-b459-4626-90df-99e935701cfe","ios":"levelo://app?vid=51904086-b459-4626-90df-99e935701cfe"},"vehicle_type_id":"4","last_reported":1731658359,"current_range_meters":9600,"station_id":"ce4bhah2rcd13ifvqej0","pricing_plan_id":"cebpf4jnsgd1na2vs0mg"},{"bike_id":"366cfb73-f810-4c90-999d-a691fedac1aa","system_id":"levelo_inurba_marseille","lat":43.24393,"lon":5.37058,"is_reserved":false,"is_disabled":false,"rental_uris":{"android":"levelo://app?vid=366cfb73-f810-4c90-999d-a691fedac1aa","ios":"levelo://app?vid=366cfb73-f810-4c90-999d-a691fedac1aa"},"vehicle_type_id":"4","last_reported":1731658359,"current_range_meters":40000,"station_id":"ce4bhhh2rcd13ifvqfk0","pricing_plan_id":"cebpf4jnsgd1na2vs0mg"},{"bike_id":"646e64a2-4a2b-440b-9ceb-f788a2544cf0","system_id":"levelo_inurba_marseille","lat":43.3043,"lon":5.38893,"is_reserved":false,"is_disabled":false,"rental_uris":{"android":"levelo://app?vid=646e64a2-4a2b-440b-9ceb-f788a2544cf0","ios":"levelo://app?vid=646e64a2-4a2b-440b-9ceb-f788a2544cf0"},"vehicle_type_id":"4","last_reported":1731658359,"current_range_meters":20400,"station_id":"ce4bgk12rcd13ifvqbi0","pricing_plan_id":"cebpf4jnsgd1na2vs0mg"},{"bike_id":"21f4deff-af91-4926-b3d2-f250f2fb5fcb","system_id":"levelo_inurba_marseille","lat":43.27977,"lon":5.38734,"is_reserved":false,"is_disabled":false,"rental_uris":{"android":"levelo://app?vid=21f4deff-af91-4926-b3d2-f250f2fb5fcb","ios":"levelo://app?vid=21f4deff-af91-4926-b3d2-f250f2fb5fcb"},"vehicle_type_id":"4","last_reported":1731658359,"current_range_meters":38400,"station_id":"ce4bhg12rcd13ifvqf80","pricing_plan_id":"cebpf4jnsgd1na2vs0mg"},{"bike_id":"aaec841f-2a7c-4d64-8722-c25c02ca7092","system_id":"levelo_inurba_marseille","lat":43.237803,"lon":5.43058,"is_reserved":false,"is_disabled":false,"rental_uris":{"android":"levelo://app?vid=aaec841f-2a7c-4d64-8722-c25c02ca7092","ios":"levelo://app?vid=aaec841f-2a7c-4d64-8722-c25c02ca7092"},"vehicle_type_id":"4","last_reported":1731658359,"current_range_meters":34800,"station_id":"","pricing_plan_id":"cebpf4jnsgd1na2vs0mg"},{"bike_id":"94bcc280-7668-4cae-9472-84b313a52528","system_id":"levelo_inurba_marseille","lat":43.33608,"lon":5.41032,"is_reserved":false,"is_disabled":false,"rental_uris":{"android":"levelo://app?vid=94bcc280-7668-4cae-9472-84b313a52528","ios":"levelo://app?vid=94bcc280-7668-4cae-9472-84b313a52528"},"vehicle_type_id":"4","last_reported":1731658359,"current_range_meters":37600,"station_id":"ce4bhqh2rcd13ifvqhmg","pricing_plan_id":"cebpf4jnsgd1na2vs0mg"},{"bike_id":"6d757fef-4f26-43f9-ac2c-ffab39bf7dae","system_id":"levelo_inurba_marseille","lat":43.32249,"lon":5.36901,"is_reserved":false,"is_disabled":false,"rental_uris":{"android":"levelo://app?vid=6d757fef-4f26-43f9-ac2c-ffab39bf7dae","ios":"levelo://app?vid=6d757fef-4f26-43f9-ac2c-ffab39bf7dae"},"vehicle_type_id":"4","last_reported":1731658359,"current_range_meters":25200,"station_id":"","pricing_plan_id":"cebpf4jnsgd1na2vs0mg"},{"bike_id":"26f9698f-20b9-48c0-b5ba-bc3575dbd026","system_id":"levelo_inurba_marseille","lat":43.30968,"lon":5.39037,"is_reserved":false,"is_disabled":false,"rental_uris":{"android":"levelo://app?vid=26f9698f-20b9-48c0-b5ba-bc3575dbd026","ios":"levelo://app?vid=26f9698f-20b9-48c0-b5ba-bc3575dbd026"},"vehicle_type_id":"4","last_reported":1731658359,"current_range_meters":36400,"station_id":"ce4bgup2rcd13ifvqco0","pricing_plan_id":"cebpf4jnsgd1na2vs0mg"},{"bike_id":"cf1e3033-c8d0-4e74-a9aa-3098ae594db7","system_id":"levelo_inurba_marseille","lat":43.3302,"lon":5.39036,"is_reserved":false,"is_disabled":false,"rental_uris":{"android":"levelo://app?vid=cf1e3033-c8d0-4e74-a9aa-3098ae594db7","ios":"levelo://app?vid=cf1e3033-c8d0-4e74-a9aa-3098ae594db7"},"vehicle_type_id":"4","last_reported":1731658359,"current_range_meters":38400,"station_id":"ce4bhr92rcd13ifvqhrg","pricing_plan_id":"cebpf4jnsgd1na2vs0mg"},{"bike_id":"247a46e1-990b-4248-bbcf-22e650bc44ff","system_id":"levelo_inurba_marseille","lat":43.31759,"lon":5.39009,"is_reserved":false,"is_disabled":false,"rental_uris":{"android":"levelo://app?vid=247a46e1-990b-4248-bbcf-22e650bc44ff","ios":"levelo://app?vid=247a46e1-990b-4248-bbcf-22e650bc44ff"},"vehicle_type_id":"4","last_reported":1731658359,"current_range_meters":38000,"station_id":"ce4bhqp2rcd13ifvqhng","pricing_plan_id":"cebpf4jnsgd1na2vs0mg"},{"bike_id":"6011a47f-89f1-4ebb-94f6-563d1411d5b1","system_id":"levelo_inurba_marseille","lat":43.337444,"lon":5.374475,"is_reserved":false,"is_disabled":false,"rental_uris":{"android":"levelo://app?vid=6011a47f-89f1-4ebb-94f6-563d1411d5b1","ios":"levelo://app?vid=6011a47f-89f1-4ebb-94f6-563d1411d5b1"},"vehicle_type_id":"4","last_reported":1731658359,"current_range_meters":37600,"station_id":"","pricing_plan_id":"cebpf4jnsgd1na2vs0mg"},{"bike_id":"2310052f-ab72-4702-bc63-21c4efe6fbbb","system_id":"levelo_inurba_marseille","lat":43.24069,"lon":5.37764,"is_reserved":false,"is_disabled":false,"rental_uris":{"android":"levelo://app?vid=2310052f-ab72-4702-bc63-21c4efe6fbbb","ios":"levelo://app?vid=2310052f-ab72-4702-bc63-21c4efe6fbbb"},"vehicle_type_id":"4","last_reported":1731658359,"current_range_meters":32400,"station_id":"ce4bhnp2rcd13ifvqgvg","pricing_plan_id":"cebpf4jnsgd1na2vs0mg"},{"bike_id":"73a284de-57aa-4356-aa99-ffb5c463a8aa","system_id":"levelo_inurba_marseille","lat":43.26213,"lon":5.37438,"is_reserved":false,"is_disabled":false,"rental_uris":{"android":"levelo://app?vid=73a284de-57aa-4356-aa99-ffb5c463a8aa","ios":"levelo://app?vid=73a284de-57aa-4356-aa99-ffb5c463a8aa"},"vehicle_type_id":"4","last_reported":1731658359,"current_range_meters":36800,"station_id":"ce4bhgp2rcd13ifvqfc0","pricing_plan_id":"cebpf4jnsgd1na2vs0mg"},{"bike_id":"a99ae254-dd32-47ae-982d-07c5c33b3006","system_id":"levelo_inurba_marseille","lat":43.273747,"lon":5.362611,"is_reserved":false,"is_disabled":false,"rental_uris":{"android":"levelo://app?vid=a99ae254-dd32-47ae-982d-07c5c33b3006","ios":"levelo://app?vid=a99ae254-dd32-47ae-982d-07c5c33b3006"},"vehicle_type_id":"4","last_reported":1731658359,"current_range_meters":36000,"station_id":"ce4bhbh2rcd13ifvqeo0","pricing_plan_id":"cebpf4jnsgd1na2vs0mg"},{"bike_id":"adde531d-5164-4789-8c6b-5cf66954baa9","system_id":"levelo_inurba_marseille","lat":43.2408,"lon":5.3775,"is_reserved":false,"is_disabled":false,"rental_uris":{"android":"levelo://app?vid=adde531d-5164-4789-8c6b-5cf66954baa9","ios":"levelo://app?vid=adde531d-5164-4789-8c6b-5cf66954baa9"},"vehicle_type_id":"4","last_reported":1731658359,"current_range_meters":27600,"station_id":"ce4bhnp2rcd13ifvqgvg","pricing_plan_id":"cebpf4jnsgd1na2vs0mg"},{"bike_id":"d25b9df8-c901-4384-9de1-309748251ed5","system_id":"levelo_inurba_marseille","lat":43.290865,"lon":5.367325,"is_reserved":false,"is_disabled":false,"rental_uris":{"android":"levelo://app?vid=d25b9df8-c901-4384-9de1-309748251ed5","ios":"levelo://app?vid=d25b9df8-c901-4384-9de1-309748251ed5"},"vehicle_type_id":"4","last_reported":1731658359,"current_range_meters":28800,"station_id":"ce4bhap2rcd13ifvqek0","pricing_plan_id":"cebpf4jnsgd1na2vs0mg"},{"bike_id":"7d5d63d5-249a-452f-9690-63a9fd494b32","system_id":"levelo_inurba_marseille","lat":43.26565,"lon":5.38997,"is_reserved":false,"is_disabled":false,"rental_uris":{"android":"levelo://app?vid=7d5d63d5-249a-452f-9690-63a9fd494b32","ios":"levelo://app?vid=7d5d63d5-249a-452f-9690-63a9fd494b32"},"vehicle_type_id":"4","last_reported":1731658359,"current_range_meters":18000,"station_id":"ce4bhe12rcd13ifvqf30","pricing_plan_id":"cebpf4jnsgd1na2vs0mg"},{"bike_id":"4df7c49e-022d-40a5-b465-fbd364b6f490","system_id":"levelo_inurba_marseille","lat":43.32482,"lon":5.36565,"is_reserved":false,"is_disabled":false,"rental_uris":{"android":"levelo://app?vid=4df7c49e-022d-40a5-b465-fbd364b6f490","ios":"levelo://app?vid=4df7c49e-022d-40a5-b465-fbd364b6f490"},"vehicle_type_id":"4","last_reported":1731658359,"current_range_meters":39200,"station_id":"ce4bhs12rcd13ifvqhvg","pricing_plan_id":"cebpf4jnsgd1na2vs0mg"},{"bike_id":"9426f4b6-ffe3-4419-afcf-29e3dc862ace","system_id":"levelo_inurba_marseille","lat":43.23154,"lon":5.43712,"is_reserved":false,"is_disabled":false,"rental_uris":{"android":"levelo://app?vid=9426f4b6-ffe3-4419-afcf-29e3dc862ace","ios":"levelo://app?vid=9426f4b6-ffe3-4419-afcf-29e3dc862ace"},"vehicle_type_id":"4","last_reported":1731658359,"current_range_meters":14800,"station_id":"ce4bhmp2rcd13ifvqgog","pricing_plan_id":"cebpf4jnsgd1na2vs0mg"},{"bike_id":"58dc653d-02fd-4c2e-b40e-c22e33994b0b","system_id":"levelo_inurba_marseille","lat":43.29162,"lon":5.37168,"is_reserved":false,"is_disabled":false,"rental_uris":{"android":"levelo://app?vid=58dc653d-02fd-4c2e-b40e-c22e33994b0b","ios":"levelo://app?vid=58dc653d-02fd-4c2e-b40e-c22e33994b0b"},"vehicle_type_id":"4","last_reported":1731658359,"current_range_meters":32400,"station_id":"ce4bha92rcd13ifvqeh0","pricing_plan_id":"cebpf4jnsgd1na2vs0mg"},{"bike_id":"0b8850c2-f140-44f5-a44f-dfc3cc65191a","system_id":"levelo_inurba_marseille","lat":43.2407,"lon":5.37754,"is_reserved":false,"is_disabled":false,"rental_uris":{"android":"levelo://app?vid=0b8850c2-f140-44f5-a44f-dfc3cc65191a","ios":"levelo://app?vid=0b8850c2-f140-44f5-a44f-dfc3cc65191a"},"vehicle_type_id":"4","last_reported":1731658359,"current_range_meters":24000,"station_id":"ce4bhnp2rcd13ifvqgvg","pricing_plan_id":"cebpf4jnsgd1na2vs0mg"},{"bike_id":"18196ac5-c758-4b91-9aee-01185e381c89","system_id":"levelo_inurba_marseille","lat":43.31076,"lon":5.383487,"is_reserved":false,"is_disabled":false,"rental_uris":{"android":"levelo://app?vid=18196ac5-c758-4b91-9aee-01185e381c89","ios":"levelo://app?vid=18196ac5-c758-4b91-9aee-01185e381c89"},"vehicle_type_id":"4","last_reported":1731658359,"current_range_meters":22800,"station_id":"ce4bgv12rcd13ifvqcp0","pricing_plan_id":"cebpf4jnsgd1na2vs0mg"},{"bike_id":"ad3e2259-9111-4862-b574-75ca8a0ccd49","system_id":"levelo_inurba_marseille","lat":43.33745,"lon":5.37437,"is_reserved":false,"is_disabled":false,"rental_uris":{"android":"levelo://app?vid=ad3e2259-9111-4862-b574-75ca8a0ccd49","ios":"levelo://app?vid=ad3e2259-9111-4862-b574-75ca8a0ccd49"},"vehicle_type_id":"4","last_reported":1731658359,"current_range_meters":38400,"station_id":"","pricing_plan_id":"cebpf4jnsgd1na2vs0mg"},{"bike_id":"2ba01715-3170-4a7e-ae00-4a8868ac1042","system_id":"levelo_inurba_marseille","lat":43.25091,"lon":5.39511,"is_reserved":false,"is_disabled":false,"rental_uris":{"android":"levelo://app?vid=2ba01715-3170-4a7e-ae00-4a8868ac1042","ios":"levelo://app?vid=2ba01715-3170-4a7e-ae00-4a8868ac1042"},"vehicle_type_id":"4","last_reported":1731658359,"current_range_meters":25600,"station_id":"ce4bhm12rcd13ifvqgkg","pricing_plan_id":"cebpf4jnsgd1na2vs0mg"},{"bike_id":"28b4c239-bb78-4f29-9755-80498addf411","system_id":"levelo_inurba_marseille","lat":43.30223,"lon":5.40073,"is_reserved":false,"is_disabled":false,"rental_uris":{"android":"levelo://app?vid=28b4c239-bb78-4f29-9755-80498addf411","ios":"levelo://app?vid=28b4c239-bb78-4f29-9755-80498addf411"},"vehicle_type_id":"4","last_reported":1731658359,"current_range_meters":38000,"station_id":"ce4bhqp2rcd13ifvqhng","pricing_plan_id":"cebpf4jnsgd1na2vs0mg"},{"bike_id":"f23920bb-de82-4a59-83f6-23144b5609fc","system_id":"levelo_inurba_marseille","lat":43.26561,"lon":5.39006,"is_reserved":false,"is_disabled":false,"rental_uris":{"android":"levelo://app?vid=f23920bb-de82-4a59-83f6-23144b5609fc","ios":"levelo://app?vid=f23920bb-de82-4a59-83f6-23144b5609fc"},"vehicle_type_id":"4","last_reported":1731658359,"current_range_meters":36000,"station_id":"ce4bhe12rcd13ifvqf30","pricing_plan_id":"cebpf4jnsgd1na2vs0mg"},{"bike_id":"a5945a53-0e8f-40c7-a870-cdbf37eae60b","system_id":"levelo_inurba_marseille","lat":43.29992,"lon":5.38462,"is_reserved":false,"is_disabled":false,"rental_uris":{"android":"levelo://app?vid=a5945a53-0e8f-40c7-a870-cdbf37eae60b","ios":"levelo://app?vid=a5945a53-0e8f-40c7-a870-cdbf37eae60b"},"vehicle_type_id":"4","last_reported":1731658359,"current_range_meters":38000,"station_id":"","pricing_plan_id":"cebpf4jnsgd1na2vs0mg"},{"bike_id":"6d2d7f6e-0690-41e2-a1f7-a3f2f3b738cc","system_id":"levelo_inurba_marseille","lat":43.25937,"lon":5.40901,"is_reserved":false,"is_disabled":false,"rental_uris":{"android":"levelo://app?vid=6d2d7f6e-0690-41e2-a1f7-a3f2f3b738cc","ios":"levelo://app?vid=6d2d7f6e-0690-41e2-a1f7-a3f2f3b738cc"},"vehicle_type_id":"4","last_reported":1731658359,"current_range_meters":27600,"station_id":"ce4bhm92rcd13ifvqglg","pricing_plan_id":"cebpf4jnsgd1na2vs0mg"},{"bike_id":"2ea6854e-cdc6-4ec3-b2e7-d9e630fee8b3","system_id":"levelo_inurba_marseille","lat":43.30425,"lon":5.38888,"is_reserved":false,"is_disabled":false,"rental_uris":{"android":"levelo://app?vid=2ea6854e-cdc6-4ec3-b2e7-d9e630fee8b3","ios":"levelo://app?vid=2ea6854e-cdc6-4ec3-b2e7-d9e630fee8b3"},"vehicle_type_id":"4","last_reported":1731658359,"current_range_meters":26800,"station_id":"ce4bgk12rcd13ifvqbi0","pricing_plan_id":"cebpf4jnsgd1na2vs0mg"},{"bike_id":"dae2e92f-a695-4236-ba87-86f63b465d59","system_id":"levelo_inurba_marseille","lat":43.28669,"lon":5.38669,"is_reserved":false,"is_disabled":false,"rental_uris":{"android":"levelo://app?vid=dae2e92f-a695-4236-ba87-86f63b465d59","ios":"levelo://app?vid=dae2e92f-a695-4236-ba87-86f63b465d59"},"vehicle_type_id":"4","last_reported":1731658359,"current_range_meters":36400,"station_id":"ce4bh492rcd13ifvqdug","pricing_plan_id":"cebpf4jnsgd1na2vs0mg"},{"bike_id":"34187729-5eec-49ed-88e0-40bfd675743d","system_id":"levelo_inurba_marseille","lat":43.24076,"lon":5.37755,"is_reserved":false,"is_disabled":false,"rental_uris":{"android":"levelo://app?vid=34187729-5eec-49ed-88e0-40bfd675743d","ios":"levelo://app?vid=34187729-5eec-49ed-88e0-40bfd675743d"},"vehicle_type_id":"4","last_reported":1731658359,"current_range_meters":6400,"station_id":"ce4bhnp2rcd13ifvqgvg","pricing_plan_id":"cebpf4jnsgd1na2vs0mg"},{"bike_id":"ad9e5643-959a-4636-935c-2a6093955f09","system_id":"levelo_inurba_marseille","lat":43.26199,"lon":5.37933,"is_reserved":false,"is_disabled":false,"rental_uris":{"android":"levelo://app?vid=ad9e5643-959a-4636-935c-2a6093955f09","ios":"levelo://app?vid=ad9e5643-959a-4636-935c-2a6093955f09"},"vehicle_type_id":"4","last_reported":1731658359,"current_range_meters":38800,"station_id":"ce4bhjp2rcd13ifvqg90","pricing_plan_id":"cebpf4jnsgd1na2vs0mg"},{"bike_id":"7c3f0f2b-83de-43e7-aa9c-375971b41735","system_id":"levelo_inurba_marseille","lat":43.24176,"lon":5.39725,"is_reserved":false,"is_disabled":false,"rental_uris":{"android":"levelo://app?vid=7c3f0f2b-83de-43e7-aa9c-375971b41735","ios":"levelo://app?vid=7c3f0f2b-83de-43e7-aa9c-375971b41735"},"vehicle_type_id":"4","last_reported":1731658359,"current_range_meters":9600,"station_id":"ce4bhn12rcd13ifvqgpg","pricing_plan_id":"cebpf4jnsgd1na2vs0mg"},{"bike_id":"021ab24c-2a0d-440d-8e09-9e35589bcbc7","system_id":"levelo_inurba_marseille","lat":43.27993,"lon":5.40019,"is_reserved":false,"is_disabled":false,"rental_uris":{"android":"levelo://app?vid=021ab24c-2a0d-440d-8e09-9e35589bcbc7","ios":"levelo://app?vid=021ab24c-2a0d-440d-8e09-9e35589bcbc7"},"vehicle_type_id":"4","last_reported":1731658359,"current_range_meters":39200,"station_id":"ce4bho92rcd13ifvqh4g","pricing_plan_id":"cebpf4jnsgd1na2vs0mg"},{"bike_id":"53d71c62-eae8-4455-a2f5-8e0e86db76df","system_id":"levelo_inurba_marseille","lat":43.27204,"lon":5.39179,"is_reserved":false,"is_disabled":false,"rental_uris":{"android":"levelo://app?vid=53d71c62-eae8-4455-a2f5-8e0e86db76df","ios":"levelo://app?vid=53d71c62-eae8-4455-a2f5-8e0e86db76df"},"vehicle_type_id":"4","last_reported":1731658359,"current_range_meters":10800,"station_id":"ce4bhhp2rcd13ifvqfm0","pricing_plan_id":"cebpf4jnsgd1na2vs0mg"},{"bike_id":"f4d1c8d8-6c54-48c3-8438-3b6a097f7045","system_id":"levelo_inurba_marseille","lat":43.29374,"lon":5.37851,"is_reserved":false,"is_disabled":false,"rental_uris":{"android":"levelo://app?vid=f4d1c8d8-6c54-48c3-8438-3b6a097f7045","ios":"levelo://app?vid=f4d1c8d8-6c54-48c3-8438-3b6a097f7045"},"vehicle_type_id":"4","last_reported":1731658359,"current_range_meters":38000,"station_id":"ce4bgjh2rcd13ifvqbf0","pricing_plan_id":"cebpf4jnsgd1na2vs0mg"},{"bike_id":"d75784fe-a983-4036-8fa4-fad5d019aed4","system_id":"levelo_inurba_marseille","lat":43.30544,"lon":5.36702,"is_reserved":false,"is_disabled":false,"rental_uris":{"android":"levelo://app?vid=d75784fe-a983-4036-8fa4-fad5d019aed4","ios":"levelo://app?vid=d75784fe-a983-4036-8fa4-fad5d019aed4"},"vehicle_type_id":"4","last_reported":1731658359,"current_range_meters":39200,"station_id":"ce4bgrp2rcd13ifvqc9g","pricing_plan_id":"cebpf4jnsgd1na2vs0mg"},{"bike_id":"c0ca322f-73ff-4f3c-958e-2460f6c69e0c","system_id":"levelo_inurba_marseille","lat":43.25119,"lon":5.40317,"is_reserved":false,"is_disabled":false,"rental_uris":{"android":"levelo://app?vid=c0ca322f-73ff-4f3c-958e-2460f6c69e0c","ios":"levelo://app?vid=c0ca322f-73ff-4f3c-958e-2460f6c69e0c"},"vehicle_type_id":"4","last_reported":1731658359,"current_range_meters":17600,"station_id":"ce4bhlh2rcd13ifvqgig","pricing_plan_id":"cebpf4jnsgd1na2vs0mg"},{"bike_id":"de5f89ce-3c23-451d-a52b-10e68cc821d6","system_id":"levelo_inurba_marseille","lat":43.2594,"lon":5.40899,"is_reserved":false,"is_disabled":false,"rental_uris":{"android":"levelo://app?vid=de5f89ce-3c23-451d-a52b-10e68cc821d6","ios":"levelo://app?vid=de5f89ce-3c23-451d-a52b-10e68cc821d6"},"vehicle_type_id":"4","last_reported":1731658359,"current_range_meters":10000,"station_id":"ce4bhm92rcd13ifvqglg","pricing_plan_id":"cebpf4jnsgd1na2vs0mg"},{"bike_id":"98091770-dcc5-4a56-8220-78a646028af1","system_id":"levelo_inurba_marseille","lat":43.26944,"lon":5.3865,"is_reserved":false,"is_disabled":false,"rental_uris":{"android":"levelo://app?vid=98091770-dcc5-4a56-8220-78a646028af1","ios":"levelo://app?vid=98091770-dcc5-4a56-8220-78a646028af1"},"vehicle_type_id":"4","last_reported":1731658359,"current_range_meters":36000,"station_id":"ce4bhh92rcd13ifvqfh0","pricing_plan_id":"cebpf4jnsgd1na2vs0mg"},{"bike_id":"6d6c2938-95fb-4e6b-911a-cc31cf922297","system_id":"levelo_inurba_marseille","lat":43.24076,"lon":5.37748,"is_reserved":false,"is_disabled":false,"rental_uris":{"android":"levelo://app?vid=6d6c2938-95fb-4e6b-911a-cc31cf922297","ios":"levelo://app?vid=6d6c2938-95fb-4e6b-911a-cc31cf922297"},"vehicle_type_id":"4","last_reported":1731658359,"current_range_meters":12800,"station_id":"ce4bhnp2rcd13ifvqgvg","pricing_plan_id":"cebpf4jnsgd1na2vs0mg"},{"bike_id":"aa30624c-fafa-48e5-ba34-ca92b71e9f8d","system_id":"levelo_inurba_marseille","lat":43.27999,"lon":5.40015,"is_reserved":false,"is_disabled":false,"rental_uris":{"android":"levelo://app?vid=aa30624c-fafa-48e5-ba34-ca92b71e9f8d","ios":"levelo://app?vid=aa30624c-fafa-48e5-ba34-ca92b71e9f8d"},"vehicle_type_id":"4","last_reported":1731658359,"current_range_meters":21600,"station_id":"ce4bho92rcd13ifvqh4g","pricing_plan_id":"cebpf4jnsgd1na2vs0mg"},{"bike_id":"e270c34e-9c66-4ca5-81d1-0c1270da9c85","system_id":"levelo_inurba_marseille","lat":43.26947,"lon":5.38633,"is_reserved":false,"is_disabled":false,"rental_uris":{"android":"levelo://app?vid=e270c34e-9c66-4ca5-81d1-0c1270da9c85","ios":"levelo://app?vid=e270c34e-9c66-4ca5-81d1-0c1270da9c85"},"vehicle_type_id":"4","last_reported":1731658359,"current_range_meters":12000,"station_id":"ce4bhh92rcd13ifvqfh0","pricing_plan_id":"cebpf4jnsgd1na2vs0mg"},{"bike_id":"3801d79e-aba9-453c-9e83-33f3550a7c41","system_id":"levelo_inurba_marseille","lat":43.24396,"lon":5.37063,"is_reserved":false,"is_disabled":false,"rental_uris":{"android":"levelo://app?vid=3801d79e-aba9-453c-9e83-33f3550a7c41","ios":"levelo://app?vid=3801d79e-aba9-453c-9e83-33f3550a7c41"},"vehicle_type_id":"4","last_reported":1731658359,"current_range_meters":38400,"station_id":"ce4bhhh2rcd13ifvqfk0","pricing_plan_id":"cebpf4jnsgd1na2vs0mg"},{"bike_id":"792531a3-4da6-4082-bd0a-16451cbb2558","system_id":"levelo_inurba_marseille","lat":43.26026,"lon":5.3755,"is_reserved":false,"is_disabled":false,"rental_uris":{"android":"levelo://app?vid=792531a3-4da6-4082-bd0a-16451cbb2558","ios":"levelo://app?vid=792531a3-4da6-4082-bd0a-16451cbb2558"},"vehicle_type_id":"4","last_reported":1731658359,"current_range_meters":23200,"station_id":"ce4bhgh2rcd13ifvqfa0","pricing_plan_id":"cebpf4jnsgd1na2vs0mg"},{"bike_id":"2075620d-8e40-4b07-9f01-b71e03b5e7d1","system_id":"levelo_inurba_marseille","lat":43.28306,"lon":5.3806,"is_reserved":false,"is_disabled":false,"rental_uris":{"android":"levelo://app?vid=2075620d-8e40-4b07-9f01-b71e03b5e7d1","ios":"levelo://app?vid=2075620d-8e40-4b07-9f01-b71e03b5e7d1"},"vehicle_type_id":"4","last_reported":1731658359,"current_range_meters":23200,"station_id":"","pricing_plan_id":"cebpf4jnsgd1na2vs0mg"},{"bike_id":"3518ef3f-0bbc-4e32-9c56-873651871a8f","system_id":"levelo_inurba_marseille","lat":43.25934,"lon":5.40907,"is_reserved":false,"is_disabled":false,"rental_uris":{"android":"levelo://app?vid=3518ef3f-0bbc-4e32-9c56-873651871a8f","ios":"levelo://app?vid=3518ef3f-0bbc-4e32-9c56-873651871a8f"},"vehicle_type_id":"4","last_reported":1731658359,"current_range_meters":24000,"station_id":"ce4bhm92rcd13ifvqglg","pricing_plan_id":"cebpf4jnsgd1na2vs0mg"},{"bike_id":"ed8d3b4d-50db-43d3-b6b4-29451a4a1a6d","system_id":"levelo_inurba_marseille","lat":43.28339,"lon":5.38105,"is_reserved":false,"is_disabled":false,"rental_uris":{"android":"levelo://app?vid=ed8d3b4d-50db-43d3-b6b4-29451a4a1a6d","ios":"levelo://app?vid=ed8d3b4d-50db-43d3-b6b4-29451a4a1a6d"},"vehicle_type_id":"4","last_reported":1731658359,"current_range_meters":26800,"station_id":"ce4bh412rcd13ifvqdr0","pricing_plan_id":"cebpf4jnsgd1na2vs0mg"},{"bike_id":"1311c692-6e9d-4afb-b7b0-20686564fe7a","system_id":"levelo_inurba_marseille","lat":43.337444,"lon":5.374475,"is_reserved":false,"is_disabled":false,"rental_uris":{"android":"levelo://app?vid=1311c692-6e9d-4afb-b7b0-20686564fe7a","ios":"levelo://app?vid=1311c692-6e9d-4afb-b7b0-20686564fe7a"},"vehicle_type_id":"4","last_reported":1731658359,"current_range_meters":28800,"station_id":"","pricing_plan_id":"cebpf4jnsgd1na2vs0mg"},{"bike_id":"3614b31d-ccb0-4c36-8e08-a30882a1506a","system_id":"levelo_inurba_marseille","lat":43.30527,"lon":5.36716,"is_reserved":false,"is_disabled":false,"rental_uris":{"android":"levelo://app?vid=3614b31d-ccb0-4c36-8e08-a30882a1506a","ios":"levelo://app?vid=3614b31d-ccb0-4c36-8e08-a30882a1506a"},"vehicle_type_id":"4","last_reported":1731658359,"current_range_meters":38800,"station_id":"ce4bgrp2rcd13ifvqc9g","pricing_plan_id":"cebpf4jnsgd1na2vs0mg"},{"bike_id":"1d9ad756-5082-4fa1-b102-0a943c252bef","system_id":"levelo_inurba_marseille","lat":43.24384,"lon":5.37057,"is_reserved":false,"is_disabled":false,"rental_uris":{"android":"levelo://app?vid=1d9ad756-5082-4fa1-b102-0a943c252bef","ios":"levelo://app?vid=1d9ad756-5082-4fa1-b102-0a943c252bef"},"vehicle_type_id":"4","last_reported":1731658359,"current_range_meters":38000,"station_id":"ce4bhhh2rcd13ifvqfk0","pricing_plan_id":"cebpf4jnsgd1na2vs0mg"},{"bike_id":"b03bbc42-f9e3-408d-856d-f2ee9cfcf300","system_id":"levelo_inurba_marseille","lat":43.30272,"lon":5.37715,"is_reserved":false,"is_disabled":false,"rental_uris":{"android":"levelo://app?vid=b03bbc42-f9e3-408d-856d-f2ee9cfcf300","ios":"levelo://app?vid=b03bbc42-f9e3-408d-856d-f2ee9cfcf300"},"vehicle_type_id":"4","last_reported":1731658359,"current_range_meters":36400,"station_id":"ce4bguh2rcd13ifvqcj0","pricing_plan_id":"cebpf4jnsgd1na2vs0mg"},{"bike_id":"c0ac1168-21ff-4da4-a13f-e813768e4b83","system_id":"levelo_inurba_marseille","lat":43.34147,"lon":5.40908,"is_reserved":false,"is_disabled":false,"rental_uris":{"android":"levelo://app?vid=c0ac1168-21ff-4da4-a13f-e813768e4b83","ios":"levelo://app?vid=c0ac1168-21ff-4da4-a13f-e813768e4b83"},"vehicle_type_id":"4","last_reported":1731658359,"current_range_meters":38800,"station_id":"ce4bhqh2rcd13ifvqhlg","pricing_plan_id":"cebpf4jnsgd1na2vs0mg"},{"bike_id":"9c32158b-eff0-46bf-9abf-7cf33fc11138","system_id":"levelo_inurba_marseille","lat":43.30644,"lon":5.40095,"is_reserved":false,"is_disabled":false,"rental_uris":{"android":"levelo://app?vid=9c32158b-eff0-46bf-9abf-7cf33fc11138","ios":"levelo://app?vid=9c32158b-eff0-46bf-9abf-7cf33fc11138"},"vehicle_type_id":"4","last_reported":1731658359,"current_range_meters":26800,"station_id":"ce4bh112rcd13ifvqda0","pricing_plan_id":"cebpf4jnsgd1na2vs0mg"},{"bike_id":"affcd397-63e4-4ee4-b85e-7684e92bc8de","system_id":"levelo_inurba_marseille","lat":43.25935,"lon":5.4091,"is_reserved":false,"is_disabled":false,"rental_uris":{"android":"levelo://app?vid=affcd397-63e4-4ee4-b85e-7684e92bc8de","ios":"levelo://app?vid=affcd397-63e4-4ee4-b85e-7684e92bc8de"},"vehicle_type_id":"4","last_reported":1731658359,"current_range_meters":25200,"station_id":"ce4bhm92rcd13ifvqglg","pricing_plan_id":"cebpf4jnsgd1na2vs0mg"},{"bike_id":"4d8c2b2b-c7e0-4a00-b28e-b4c407c86208","system_id":"levelo_inurba_marseille","lat":43.29549,"lon":5.42284,"is_reserved":false,"is_disabled":false,"rental_uris":{"android":"levelo://app?vid=4d8c2b2b-c7e0-4a00-b28e-b4c407c86208","ios":"levelo://app?vid=4d8c2b2b-c7e0-4a00-b28e-b4c407c86208"},"vehicle_type_id":"4","last_reported":1731658359,"current_range_meters":33200,"station_id":"ce4bhph2rcd13ifvqhdg","pricing_plan_id":"cebpf4jnsgd1na2vs0mg"},{"bike_id":"c7d8c139-6b24-44c2-a47a-2486692d7a62","system_id":"levelo_inurba_marseille","lat":43.30534,"lon":5.36699,"is_reserved":false,"is_disabled":false,"rental_uris":{"android":"levelo://app?vid=c7d8c139-6b24-44c2-a47a-2486692d7a62","ios":"levelo://app?vid=c7d8c139-6b24-44c2-a47a-2486692d7a62"},"vehicle_type_id":"4","last_reported":1731658359,"current_range_meters":11600,"station_id":"ce4bgrp2rcd13ifvqc9g","pricing_plan_id":"cebpf4jnsgd1na2vs0mg"},{"bike_id":"a6b8c285-acc9-4039-9531-1aae39136a33","system_id":"levelo_inurba_marseille","lat":43.312042,"lon":5.367348,"is_reserved":false,"is_disabled":false,"rental_uris":{"android":"levelo://app?vid=a6b8c285-acc9-4039-9531-1aae39136a33","ios":"levelo://app?vid=a6b8c285-acc9-4039-9531-1aae39136a33"},"vehicle_type_id":"4","last_reported":1731658359,"current_range_meters":20400,"station_id":"","pricing_plan_id":"cebpf4jnsgd1na2vs0mg"},{"bike_id":"4ae0feec-086a-4889-a802-7b1ad3606cdb","system_id":"levelo_inurba_marseille","lat":43.29783,"lon":5.39358,"is_reserved":false,"is_disabled":false,"rental_uris":{"android":"levelo://app?vid=4ae0feec-086a-4889-a802-7b1ad3606cdb","ios":"levelo://app?vid=4ae0feec-086a-4889-a802-7b1ad3606cdb"},"vehicle_type_id":"4","last_reported":1731658359,"current_range_meters":14800,"station_id":"chh1huq6cuj3fo74tm60","pricing_plan_id":"cebpf4jnsgd1na2vs0mg"},{"bike_id":"7c658b75-d2f1-4b5e-9932-c70902213565","system_id":"levelo_inurba_marseille","lat":43.30478,"lon":5.3791,"is_reserved":false,"is_disabled":false,"rental_uris":{"android":"levelo://app?vid=7c658b75-d2f1-4b5e-9932-c70902213565","ios":"levelo://app?vid=7c658b75-d2f1-4b5e-9932-c70902213565"},"vehicle_type_id":"4","last_reported":1731658359,"current_range_meters":38800,"station_id":"ce4bguh2rcd13ifvqcj0","pricing_plan_id":"cebpf4jnsgd1na2vs0mg"},{"bike_id":"6a20ddde-eb84-4643-845a-90979389c7de","system_id":"levelo_inurba_marseille","lat":43.290475,"lon":5.399592,"is_reserved":false,"is_disabled":false,"rental_uris":{"android":"levelo://app?vid=6a20ddde-eb84-4643-845a-90979389c7de","ios":"levelo://app?vid=6a20ddde-eb84-4643-845a-90979389c7de"},"vehicle_type_id":"4","last_reported":1731658359,"current_range_meters":27600,"station_id":"ce4bh392rcd13ifvqdm0","pricing_plan_id":"cebpf4jnsgd1na2vs0mg"},{"bike_id":"fb99fb82-1c03-4526-b862-280bcf8ac70c","system_id":"levelo_inurba_marseille","lat":43.23965,"lon":5.3663,"is_reserved":false,"is_disabled":false,"rental_uris":{"android":"levelo://app?vid=fb99fb82-1c03-4526-b862-280bcf8ac70c","ios":"levelo://app?vid=fb99fb82-1c03-4526-b862-280bcf8ac70c"},"vehicle_type_id":"4","last_reported":1731658359,"current_range_meters":14000,"station_id":"ce4bhi12rcd13ifvqfp0","pricing_plan_id":"cebpf4jnsgd1na2vs0mg"},{"bike_id":"e8312b5c-f2d3-4384-bc25-53e8fdd11988","system_id":"levelo_inurba_marseille","lat":43.31341,"lon":5.36732,"is_reserved":false,"is_disabled":false,"rental_uris":{"android":"levelo://app?vid=e8312b5c-f2d3-4384-bc25-53e8fdd11988","ios":"levelo://app?vid=e8312b5c-f2d3-4384-bc25-53e8fdd11988"},"vehicle_type_id":"4","last_reported":1731658359,"current_range_meters":10800,"station_id":"ce4bgr92rcd13ifvqc6g","pricing_plan_id":"cebpf4jnsgd1na2vs0mg"},{"bike_id":"1ae8fe75-00ad-479b-a755-74d45d76bfbe","system_id":"levelo_inurba_marseille","lat":43.24168,"lon":5.36402,"is_reserved":false,"is_disabled":false,"rental_uris":{"android":"levelo://app?vid=1ae8fe75-00ad-479b-a755-74d45d76bfbe","ios":"levelo://app?vid=1ae8fe75-00ad-479b-a755-74d45d76bfbe"},"vehicle_type_id":"4","last_reported":1731658359,"current_range_meters":12000,"station_id":"cpo36qri1sfpv3e86is0","pricing_plan_id":"cebpf4jnsgd1na2vs0mg"},{"bike_id":"43fcca79-91a5-4f38-b8b1-68482d73780d","system_id":"levelo_inurba_marseille","lat":43.30914,"lon":5.36848,"is_reserved":false,"is_disabled":false,"rental_uris":{"android":"levelo://app?vid=43fcca79-91a5-4f38-b8b1-68482d73780d","ios":"levelo://app?vid=43fcca79-91a5-4f38-b8b1-68482d73780d"},"vehicle_type_id":"4","last_reported":1731658359,"current_range_meters":36400,"station_id":"ce4bgn92rcd13ifvqbvg","pricing_plan_id":"cebpf4jnsgd1na2vs0mg"},{"bike_id":"d1e78170-5fa0-4c6d-80de-47b3f2d87661","system_id":"levelo_inurba_marseille","lat":43.3028,"lon":5.37707,"is_reserved":false,"is_disabled":false,"rental_uris":{"android":"levelo://app?vid=d1e78170-5fa0-4c6d-80de-47b3f2d87661","ios":"levelo://app?vid=d1e78170-5fa0-4c6d-80de-47b3f2d87661"},"vehicle_type_id":"4","last_reported":1731658359,"current_range_meters":25600,"station_id":"ce4bguh2rcd13ifvqcj0","pricing_plan_id":"cebpf4jnsgd1na2vs0mg"},{"bike_id":"bb335ce8-237c-4afb-a077-43cbff4664c9","system_id":"levelo_inurba_marseille","lat":43.26689,"lon":5.38273,"is_reserved":false,"is_disabled":false,"rental_uris":{"android":"levelo://app?vid=bb335ce8-237c-4afb-a077-43cbff4664c9","ios":"levelo://app?vid=bb335ce8-237c-4afb-a077-43cbff4664c9"},"vehicle_type_id":"4","last_reported":1731658359,"current_range_meters":38400,"station_id":"ce4bhg92rcd13ifvqf90","pricing_plan_id":"cebpf4jnsgd1na2vs0mg"},{"bike_id":"92ac4858-87d6-4ceb-8f6e-004635a816a8","system_id":"levelo_inurba_marseille","lat":43.2779,"lon":5.40727,"is_reserved":false,"is_disabled":false,"rental_uris":{"android":"levelo://app?vid=92ac4858-87d6-4ceb-8f6e-004635a816a8","ios":"levelo://app?vid=92ac4858-87d6-4ceb-8f6e-004635a816a8"},"vehicle_type_id":"4","last_reported":1731658359,"current_range_meters":37600,"station_id":"ce4bhnh2rcd13ifvqgtg","pricing_plan_id":"cebpf4jnsgd1na2vs0mg"},{"bike_id":"06140cd8-6144-44c7-9c2f-98d0d0dcfe09","system_id":"levelo_inurba_marseille","lat":43.30427,"lon":5.38883,"is_reserved":false,"is_disabled":false,"rental_uris":{"android":"levelo://app?vid=06140cd8-6144-44c7-9c2f-98d0d0dcfe09","ios":"levelo://app?vid=06140cd8-6144-44c7-9c2f-98d0d0dcfe09"},"vehicle_type_id":"4","last_reported":1731658359,"current_range_meters":6400,"station_id":"ce4bgk12rcd13ifvqbi0","pricing_plan_id":"cebpf4jnsgd1na2vs0mg"},{"bike_id":"78902692-3d91-4ddd-aef6-f53ffda7b04d","system_id":"levelo_inurba_marseille","lat":43.295,"lon":5.376,"is_reserved":false,"is_disabled":false,"rental_uris":{"android":"levelo://app?vid=78902692-3d91-4ddd-aef6-f53ffda7b04d","ios":"levelo://app?vid=78902692-3d91-4ddd-aef6-f53ffda7b04d"},"vehicle_type_id":"4","last_reported":1731658359,"current_range_meters":32000,"station_id":"ce4bgkp2rcd13ifvqbmg","pricing_plan_id":"cebpf4jnsgd1na2vs0mg"},{"bike_id":"16c431de-b128-4380-a727-8a0a0eba5b1b","system_id":"levelo_inurba_marseille","lat":43.24389,"lon":5.37048,"is_reserved":false,"is_disabled":false,"rental_uris":{"android":"levelo://app?vid=16c431de-b128-4380-a727-8a0a0eba5b1b","ios":"levelo://app?vid=16c431de-b128-4380-a727-8a0a0eba5b1b"},"vehicle_type_id":"4","last_reported":1731658359,"current_range_meters":39200,"station_id":"ce4bhhh2rcd13ifvqfk0","pricing_plan_id":"cebpf4jnsgd1na2vs0mg"},{"bike_id":"d37a5777-a5f5-4b7f-b7f5-a1dae307da91","system_id":"levelo_inurba_marseille","lat":43.23193,"lon":5.3556,"is_reserved":false,"is_disabled":false,"rental_uris":{"android":"levelo://app?vid=d37a5777-a5f5-4b7f-b7f5-a1dae307da91","ios":"levelo://app?vid=d37a5777-a5f5-4b7f-b7f5-a1dae307da91"},"vehicle_type_id":"4","last_reported":1731658359,"current_range_meters":36800,"station_id":"ce4bhu92rcd13ifvqi70","pricing_plan_id":"cebpf4jnsgd1na2vs0mg"},{"bike_id":"93870316-42b2-4ac6-a1af-a6621b88b268","system_id":"levelo_inurba_marseille","lat":43.30153,"lon":5.38075,"is_reserved":false,"is_disabled":false,"rental_uris":{"android":"levelo://app?vid=93870316-42b2-4ac6-a1af-a6621b88b268","ios":"levelo://app?vid=93870316-42b2-4ac6-a1af-a6621b88b268"},"vehicle_type_id":"4","last_reported":1731658359,"current_range_meters":27600,"station_id":"ce4bgjp2rcd13ifvqbh0","pricing_plan_id":"cebpf4jnsgd1na2vs0mg"},{"bike_id":"2897def0-f093-4815-95bd-d3d19ce37b1d","system_id":"levelo_inurba_marseille","lat":43.28944,"lon":5.36634,"is_reserved":false,"is_disabled":false,"rental_uris":{"android":"levelo://app?vid=2897def0-f093-4815-95bd-d3d19ce37b1d","ios":"levelo://app?vid=2897def0-f093-4815-95bd-d3d19ce37b1d"},"vehicle_type_id":"4","last_reported":1731658359,"current_range_meters":38000,"station_id":"ce4bhap2rcd13ifvqek0","pricing_plan_id":"cebpf4jnsgd1na2vs0mg"},{"bike_id":"674b0e8f-8c9e-4c11-a204-160fb5dcf762","system_id":"levelo_inurba_marseille","lat":43.243874,"lon":5.370534,"is_reserved":false,"is_disabled":false,"rental_uris":{"android":"levelo://app?vid=674b0e8f-8c9e-4c11-a204-160fb5dcf762","ios":"levelo://app?vid=674b0e8f-8c9e-4c11-a204-160fb5dcf762"},"vehicle_type_id":"4","last_reported":1731658359,"current_range_meters":39200,"station_id":"ce4bhhh2rcd13ifvqfk0","pricing_plan_id":"cebpf4jnsgd1na2vs0mg"},{"bike_id":"76755f5e-4f24-4c25-9679-38d41e851be8","system_id":"levelo_inurba_marseille","lat":43.30464,"lon":5.37911,"is_reserved":false,"is_disabled":false,"rental_uris":{"android":"levelo://app?vid=76755f5e-4f24-4c25-9679-38d41e851be8","ios":"levelo://app?vid=76755f5e-4f24-4c25-9679-38d41e851be8"},"vehicle_type_id":"4","last_reported":1731658359,"current_range_meters":39200,"station_id":"ce4bgup2rcd13ifvqcn0","pricing_plan_id":"cebpf4jnsgd1na2vs0mg"},{"bike_id":"9a2fd9f5-e6f0-4451-bce7-490ba3b214c2","system_id":"levelo_inurba_marseille","lat":43.33611,"lon":5.41033,"is_reserved":false,"is_disabled":false,"rental_uris":{"android":"levelo://app?vid=9a2fd9f5-e6f0-4451-bce7-490ba3b214c2","ios":"levelo://app?vid=9a2fd9f5-e6f0-4451-bce7-490ba3b214c2"},"vehicle_type_id":"4","last_reported":1731658359,"current_range_meters":28400,"station_id":"ce4bhqh2rcd13ifvqhmg","pricing_plan_id":"cebpf4jnsgd1na2vs0mg"},{"bike_id":"686aea7d-acf6-4015-87e0-a298375382e2","system_id":"levelo_inurba_marseille","lat":43.26199,"lon":5.37932,"is_reserved":false,"is_disabled":false,"rental_uris":{"android":"levelo://app?vid=686aea7d-acf6-4015-87e0-a298375382e2","ios":"levelo://app?vid=686aea7d-acf6-4015-87e0-a298375382e2"},"vehicle_type_id":"4","last_reported":1731658359,"current_range_meters":39200,"station_id":"ce4bhjp2rcd13ifvqg90","pricing_plan_id":"cebpf4jnsgd1na2vs0mg"},{"bike_id":"39be1f9f-872c-4785-9767-b06028afb233","system_id":"levelo_inurba_marseille","lat":43.30462,"lon":5.37903,"is_reserved":false,"is_disabled":false,"rental_uris":{"android":"levelo://app?vid=39be1f9f-872c-4785-9767-b06028afb233","ios":"levelo://app?vid=39be1f9f-872c-4785-9767-b06028afb233"},"vehicle_type_id":"4","last_reported":1731658359,"current_range_meters":16400,"station_id":"ce4bgup2rcd13ifvqcn0","pricing_plan_id":"cebpf4jnsgd1na2vs0mg"},{"bike_id":"522ea4cf-4d56-4278-bdb0-9b94f9071a34","system_id":"levelo_inurba_marseille","lat":43.29714,"lon":5.37699,"is_reserved":false,"is_disabled":false,"rental_uris":{"android":"levelo://app?vid=522ea4cf-4d56-4278-bdb0-9b94f9071a34","ios":"levelo://app?vid=522ea4cf-4d56-4278-bdb0-9b94f9071a34"},"vehicle_type_id":"4","last_reported":1731658359,"current_range_meters":30000,"station_id":"ce4bgkh2rcd13ifvqbl0","pricing_plan_id":"cebpf4jnsgd1na2vs0mg"},{"bike_id":"f16df411-64d4-4fb9-bc4b-6d204f7a20be","system_id":"levelo_inurba_marseille","lat":43.27322,"lon":5.39086,"is_reserved":false,"is_disabled":false,"rental_uris":{"android":"levelo://app?vid=f16df411-64d4-4fb9-bc4b-6d204f7a20be","ios":"levelo://app?vid=f16df411-64d4-4fb9-bc4b-6d204f7a20be"},"vehicle_type_id":"4","last_reported":1731658359,"current_range_meters":38400,"station_id":"ce4bhgp2rcd13ifvqfe0","pricing_plan_id":"cebpf4jnsgd1na2vs0mg"},{"bike_id":"a2093831-6093-4959-a0f7-dab6a243ed02","system_id":"levelo_inurba_marseille","lat":43.31221,"lon":5.36859,"is_reserved":false,"is_disabled":false,"rental_uris":{"android":"levelo://app?vid=a2093831-6093-4959-a0f7-dab6a243ed02","ios":"levelo://app?vid=a2093831-6093-4959-a0f7-dab6a243ed02"},"vehicle_type_id":"4","last_reported":1731658359,"current_range_meters":38800,"station_id":"ce4bgl92rcd13ifvqbq0","pricing_plan_id":"cebpf4jnsgd1na2vs0mg"},{"bike_id":"54fbf80e-5e23-4673-9c5d-56c54134a3ad","system_id":"levelo_inurba_marseille","lat":43.29572,"lon":5.37574,"is_reserved":false,"is_disabled":false,"rental_uris":{"android":"levelo://app?vid=54fbf80e-5e23-4673-9c5d-56c54134a3ad","ios":"levelo://app?vid=54fbf80e-5e23-4673-9c5d-56c54134a3ad"},"vehicle_type_id":"4","last_reported":1731658359,"current_range_meters":25600,"station_id":"ce4bgrp2rcd13ifvqc9g","pricing_plan_id":"cebpf4jnsgd1na2vs0mg"},{"bike_id":"b448c76e-6a85-4e4e-8af8-7d9249501502","system_id":"levelo_inurba_marseille","lat":43.337444,"lon":5.374475,"is_reserved":false,"is_disabled":false,"rental_uris":{"android":"levelo://app?vid=b448c76e-6a85-4e4e-8af8-7d9249501502","ios":"levelo://app?vid=b448c76e-6a85-4e4e-8af8-7d9249501502"},"vehicle_type_id":"4","last_reported":1731658359,"current_range_meters":29600,"station_id":"","pricing_plan_id":"cebpf4jnsgd1na2vs0mg"},