{"last_updated":1783270466,"ttl":60,"version":"2.2","data":{"bikes":[{"bike_id":"ba0c28b1-8732-48e2-8079-f25b2b3fbc3c","system_id":"levelo_inurba_marseille","lat":43.337444,"lon":5.374475,"is_reserved":false,"is_disabled":false,"rental_uris":{"android":"levelo://app?vid=ba0c28b1-8732-48e2-8079-f25b2b3fbc3c","ios":"levelo://app?vid=ba0c28b1-8732-48e2-8079-f25b2b3fbc3c"},"vehicle_type_id":"4","last_reported":1783270467,"current_range_meters":0,"station_id":"","pricing_plan_id":"cebpf4jnsgd1na2vs0mg"},{"bike_id":"017cc56f-474f-461a-ad6b-eda42c689762","system_id":"levelo_inurba_marseille","lat":43.23203,"lon":5.35548,"is_reserved":false,"is_disabled":false,"rental_uris":{"android":"levelo://app?vid=017cc56f-474f-461a-ad6b-eda42c689762","ios":"levelo://app?vid=017cc56f-474f-461a-ad6b-eda42c689762"},"vehicle_type_id":"4","last_reported":1783270467,"current_range_meters":2000,"station_id":"ce4bhu92rcd13ifvqi70","pricing_plan_id":"cebpf4jnsgd1na2vs0mg"},{"bike_id":"bd146f2d-6c78-4277-9e0d-011fa072d9cf","system_id":"levelo_inurba_marseille","lat":43.26509,"lon":5.39529,"is_reserved":false,"is_disabled":false,"rental_uris":{"android":"levelo://app?vid=bd146f2d-6c78-4277-9e0d-011fa072d9cf","ios":"levelo://app?vid=bd146f2d-6c78-4277-9e0d-011fa072d9cf"},"vehicle_type_id":"4","last_reported":1783270467,"current_range_meters":2800,"station_id":"ce4bhi12rcd13ifvqfq0","pricing_plan_id":"cebpf4jnsgd1na2vs0mg"},{"bike_id":"e228c342-485e-4973-9a86-f0067b7e00fe","system_id":"levelo_inurba_marseille","lat":43.29574,"lon":5.37488,"is_reserved":false,"is_disabled":false,"rental_uris":{"android":"levelo://app?vid=e228c342-485e-4973-9a86-f0067b7e00fe","ios":"levelo://app?vid=e228c342-485e-4973-9a86-f0067b7e00fe"},"vehicle_type_id":"4","last_reported":1783270467,"current_range_meters":2800,"station_id":"ce4bgh92rcd13ifvqb50","pricing_plan_id":"cebpf4jnsgd1na2vs0mg"},{"bike_id":"bf4e3ec7-1fda-4f06-9aed-28b9517289a7","system_id":"levelo_inurba_marseille","lat":43.24816,"lon":5.37453,"is_reserved":false,"is_disabled":false,"rental_uris":{"android":"levelo://app?vid=bf4e3ec7-1fda-4f06-9aed-28b9517289a7","ios":"levelo://app?vid=bf4e3ec7-1fda-4f06-9aed-28b9517289a7"},"vehicle_type_id":"4","last_reported":1783270467,"current_range_meters":2800,"station_id":"ce4bhgh2rcd13ifvqfb0","pricing_plan_id":"cebpf4jnsgd1na2vs0mg"},{"bike_id":"ba21fbda-61f2-4964-8f0a-157cf19d9b2f","system_id":"levelo_inurba_marseille","lat":43.2928,"lon":5.36841,"is_reserved":false,"is_disabled":false,"rental_uris":{"android":"levelo://app?vid=ba21fbda-61f2-4964-8f0a-157cf19d9b2f","ios":"levelo://app?vid=ba21fbda-61f2-4964-8f0a-157cf19d9b2f"},"vehicle_type_id":"4","last_reported":1783270467,"current_range_meters":2800,"station_id":"ce4bhbp2rcd13ifvqesg","pricing_plan_id":"cebpf4jnsgd1na2vs0mg"},{"bike_id":"cde0cd8f-6bc2-4dba-aa19-e31073d52727","system_id":"levelo_inurba_marseille","lat":43.29265,"lon":5.40116,"is_reserved":false,"is_disabled":false,"rental_uris":{"android":"levelo://app?vid=cde0cd8f-6bc2-4dba-aa19-e31073d52727","ios":"levelo://app?vid=cde0cd8f-6bc2-4dba-aa19-e31073d52727"},"vehicle_type_id":"4","last_reported":1783270467,"current_range_meters":2800,"station_id":"ce4bh312rcd13ifvqdk0","pricing_plan_id":"cebpf4jnsgd1na2vs0mg"},{"bike_id":"a9bd2d81-177a-4105-b49e-6c23906e33eb","system_id":"levelo_inurba_marseille","lat":43.2782,"lon":5.40721,"is_reserved":false,"is_disabled":false,"rental_uris":{"android":"levelo://app?vid=a9bd2d81-177a-4105-b49e-6c23906e33eb","ios":"levelo://app?vid=a9bd2d81-177a-4105-b49e-6c23906e33eb"},"vehicle_type_id":"4","last_reported":1783270467,"current_range_meters":2800,"station_id":"ce4bhnh2rcd13ifvqgtg","pricing_plan_id":"cebpf4jnsgd1na2vs0mg"},{"bike_id":"3ca8efd1-5d90-41a4-a02c-0777c130c87a","system_id":"levelo_inurba_marseille","lat":43.3015,"lon":5.38097,"is_reserved":false,"is_disabled":false,"rental_uris":{"android":"levelo://app?vid=3ca8efd1-5d90-41a4-a02c-0777c130c87a","ios":"levelo://app?vid=3ca8efd1-5d90-41a4-a02c-0777c130c87a"},"vehicle_type_id":"4","last_reported":1783270467,"current_range_meters":2800,"station_id":"ce4bgjp2rcd13ifvqbh0","pricing_plan_id":"cebpf4jnsgd1na2vs0mg"},{"bike_id":"ba3ba374-bf1c-4210-837f-bf66500c9366","system_id":"levelo_inurba_marseille","lat":43.28275,"lon":5.35062,"is_reserved":false,"is_disabled":false,"rental_uris":{"android":"levelo://app?vid=ba3ba374-bf1c-4210-837f-bf66500c9366","ios":"levelo://app?vid=ba3ba374-bf1c-4210-837f-bf66500c9366"},"vehicle_type_id":"4","last_reported":1783270467,"current_range_meters":2800,"station_id":"ce4bhbp2rcd13ifvqerg","pricing_plan_id":"cebpf4jnsgd1na2vs0mg"},{"bike_id":"7dcdb77e-5520-404c-a8e4-5410b21ff636","system_id":"levelo_inurba_marseille","lat":43.296,"lon":5.4239,"is_reserved":false,"is_disabled":false,"rental_uris":{"android":"levelo://app?vid=7dcdb77e-5520-404c-a8e4-5410b21ff636","ios":"levelo://app?vid=7dcdb77e-5520-404c-a8e4-5410b21ff636"},"vehicle_type_id":"4","last_reported":1783270467,"current_range_meters":2800,"station_id":"","pricing_plan_id":"cebpf4jnsgd1na2vs0mg"},{"bike_id":"ec8a7f26-fc51-4d8e-9d3b-55a7e6afbdcd","system_id":"levelo_inurba_marseille","lat":43.25928,"lon":5.40893,"is_reserved":false,"is_disabled":false,"rental_uris":{"android":"levelo://app?vid=ec8a7f26-fc51-4d8e-9d3b-55a7e6afbdcd","ios":"levelo://app?vid=ec8a7f26-fc51-4d8e-9d3b-55a7e6afbdcd"},"vehicle_type_id":"4","last_reported":1783270467,"current_range_meters":2800,"station_id":"ce4bhm92rcd13ifvqglg","pricing_plan_id":"cebpf4jnsgd1na2vs0mg"},{"bike_id":"231ef817-fa92-4c52-a98f-e59a3df1b0ff","system_id":"levelo_inurba_marseille","lat":43.23966,"lon":5.3663,"is_reserved":false,"is_disabled":false,"rental_uris":{"android":"levelo://app?vid=231ef817-fa92-4c52-a98f-e59a3df1b0ff","ios":"levelo://app?vid=231ef817-fa92-4c52-a98f-e59a3df1b0ff"},"vehicle_type_id":"4","last_reported":1783270467,"current_range_meters":2800,"station_id":"ce4bhi12rcd13ifvqfp0","pricing_plan_id":"cebpf4jnsgd1na2vs0mg"},{"bike_id":"8ed335c9-da7c-4933-9f87-295663ecb8f9","system_id":"levelo_inurba_marseille","lat":43.29369,"lon":5.37843,"is_reserved":false,"is_disabled":false,"rental_uris":{"android":"levelo://app?vid=8ed335c9-da7c-4933-9f87-295663ecb8f9","ios":"levelo://app?vid=8ed335c9-da7c-4933-9f87-295663ecb8f9"},"vehicle_type_id":"4","last_reported":1783270467,"current_range_meters":2800,"station_id":"ce4bgjh2rcd13ifvqbf0","pricing_plan_id":"cebpf4jnsgd1na2vs0mg"},{"bike_id":"2c52e4bc-365b-40fb-ace9-a63bc2aa685a","system_id":"levelo_inurba_marseille","lat":43.33079,"lon":5.38568,"is_reserved":false,"is_disabled":false,"rental_uris":{"android":"levelo://app?vid=2c52e4bc-365b-40fb-ace9-a63bc2aa685a","ios":"levelo://app?vid=2c52e4bc-365b-40fb-ace9-a63bc2aa685a"},"vehicle_type_id":"4","last_reported":1783270467,"current_range_meters":2800,"station_id":"","pricing_plan_id":"cebpf4jnsgd1na2vs0mg"},{"bike_id":"94f029f8-8790-4fc6-9080-ea23be173259","system_id":"levelo_inurba_marseille","lat":43.29273,"lon":5.36831,"is_reserved":false,"is_disabled":false,"rental_uris":{"android":"levelo://app?vid=94f029f8-8790-4fc6-9080-ea23be173259","ios":"levelo://app?vid=94f029f8-8790-4fc6-9080-ea23be173259"},"vehicle_type_id":"4","last_reported":1783270467,"current_range_meters":2800,"station_id":"ce4bhbp2rcd13ifvqesg","pricing_plan_id":"cebpf4jnsgd1na2vs0mg"},{"bike_id":"35be9783-664d-424b-9f75-a452288e1a12","system_id":"levelo_inurba_marseille","lat":43.28433,"lon":5.34985,"is_reserved":false,"is_disabled":false,"rental_uris":{"android":"levelo://app?vid=35be9783-664d-424b-9f75-a452288e1a12","ios":"levelo://app?vid=35be9783-664d-424b-9f75-a452288e1a12"},"vehicle_type_id":"4","last_reported":1783270467,"current_range_meters":2800,"station_id":"ce4bhbh2rcd13ifvqepg","pricing_plan_id":"cebpf4jnsgd1na2vs0mg"},{"bike_id":"abf1c1fa-1405-476f-bd73-54723798211b","system_id":"levelo_inurba_marseille","lat":43.23722,"lon":5.40179,"is_reserved":false,"is_disabled":false,"rental_uris":{"android":"levelo://app?vid=abf1c1fa-1405-476f-bd73-54723798211b","ios":"levelo://app?vid=abf1c1fa-1405-476f-bd73-54723798211b"},"vehicle_type_id":"4","last_reported":1783270467,"current_range_meters":2800,"station_id":"","pricing_plan_id":"cebpf4jnsgd1na2vs0mg"},{"bike_id":"61cd84df-f76f-41ad-9da2-1b4df883e51c","system_id":"levelo_inurba_marseille","lat":43.26257,"lon":5.38963,"is_reserved":false,"is_disabled":false,"rental_uris":{"android":"levelo://app?vid=61cd84df-f76f-41ad-9da2-1b4df883e51c","ios":"levelo://app?vid=61cd84df-f76f-41ad-9da2-1b4df883e51c"},"vehicle_type_id":"4","last_reported":1783270467,"current_range_meters":2800,"station_id":"","pricing_plan_id":"cebpf4jnsgd1na2vs0mg"},{"bike_id":"367e2c77-1840-403a-b532-0336e7732bd2","system_id":"levelo_inurba_marseille","lat":43.25578,"lon":5.38225,"is_reserved":false,"is_disabled":true,"rental_uris":{"android":"levelo://app?vid=367e2c77-1840-403a-b532-0336e7732bd2","ios":"levelo://app?vid=367e2c77-1840-403a-b532-0336e7732bd2"},"vehicle_type_id":"4","last_reported":1783270467,"current_range_meters":3200,"station_id":"ce4bhih2rcd13ifvqfs0","pricing_plan_id":"cebpf4jnsgd1na2vs0mg"},{"bike_id":"50aa6815-cb65-48bd-999a-1d2dfbbe24c7","system_id":"levelo_inurba_marseille","lat":43.28477,"lon":5.48413,"is_reserved":false,"is_disabled":false,"rental_uris":{"android":"levelo://app?vid=50aa6815-cb65-48bd-999a-1d2dfbbe24c7","ios":"levelo://app?vid=50aa6815-cb65-48bd-999a-1d2dfbbe24c7"},"vehicle_type_id":"4","last_reported":1783270467,"current_range_meters":3200,"station_id":"st_d3svhcjqgbts73a3dn0g","pricing_plan_id":"cebpf4jnsgd1na2vs0mg"},{"bike_id":"3b94f357-cce7-4ff8-b576-3a0f82c8d79a","system_id":"levelo_inurba_marseille","lat":43.254901,"lon":5.376434,"is_reserved":false,"is_disabled":false,"rental_uris":{"android":"levelo://app?vid=3b94f357-cce7-4ff8-b576-3a0f82c8d79a","ios":"levelo://app?vid=3b94f357-cce7-4ff8-b576-3a0f82c8d79a"},"vehicle_type_id":"4","last_reported":1783270467,"current_range_meters":3200,"station_id":"ce4bhh12rcd13ifvqff0","pricing_plan_id":"cebpf4jnsgd1na2vs0mg"},{"bike_id":"aac6d6f5-5414-4268-950d-e95baa8a24a9","system_id":"levelo_inurba_marseille","lat":43.32466,"lon":5.36577,"is_reserved":false,"is_disabled":false,"rental_uris":{"android":"levelo://app?vid=aac6d6f5-5414-4268-950d-e95baa8a24a9","ios":"levelo://app?vid=aac6d6f5-5414-4268-950d-e95baa8a24a9"},"vehicle_type_id":"4","last_reported":1783270467,"current_range_meters":3200,"station_id":"ce4bhs12rcd13ifvqhvg","pricing_plan_id":"cebpf4jnsgd1na2vs0mg"},{"bike_id":"3edad406-7310-4441-b103-43aa843ff572","system_id":"levelo_inurba_marseille","lat":43.27951,"lon":5.37202,"is_reserved":false,"is_disabled":false,"rental_uris":{"android":"levelo://app?vid=3edad406-7310-4441-b103-43aa843ff572","ios":"levelo://app?vid=3edad406-7310-4441-b103-43aa843ff572"},"vehicle_type_id":"4","last_reported":1783270467,"current_range_meters":3200,"station_id":"","pricing_plan_id":"cebpf4jnsgd1na2vs0mg"},{"bike_id":"8a99220e-4931-47ad-bee8-2782f7395670","system_id":"levelo_inurba_marseille","lat":43.30131,"lon":5.39851,"is_reserved":false,"is_disabled":false,"rental_uris":{"android":"levelo://app?vid=8a99220e-4931-47ad-bee8-2782f7395670","ios":"levelo://app?vid=8a99220e-4931-47ad-bee8-2782f7395670"},"vehicle_type_id":"4","last_reported":1783270467,"current_range_meters":3200,"station_id":"ce4bh0h2rcd13ifvqd40","pricing_plan_id":"cebpf4jnsgd1na2vs0mg"},{"bike_id":"1672c8cc-b68e-4341-8176-cb0c75f46473","system_id":"levelo_inurba_marseille","lat":43.25508,"lon":5.37658,"is_reserved":false,"is_disabled":false,"rental_uris":{"android":"levelo://app?vid=1672c8cc-b68e-4341-8176-cb0c75f46473","ios":"levelo://app?vid=1672c8cc-b68e-4341-8176-cb0c75f46473"},"vehicle_type_id":"4","last_reported":1783270467,"current_range_meters":3200,"station_id":"ce4bhh12rcd13ifvqff0","pricing_plan_id":"cebpf4jnsgd1na2vs0mg"},{"bike_id":"4c907ce7-e11d-49a7-8a2b-f8e6d28203bb","system_id":"levelo_inurba_marseille","lat":43.28869,"lon":5.42524,"is_reserved":false,"is_disabled":false,"rental_uris":{"android":"levelo://app?vid=4c907ce7-e11d-49a7-8a2b-f8e6d28203bb","ios":"levelo://app?vid=4c907ce7-e11d-49a7-8a2b-f8e6d28203bb"},"vehicle_type_id":"4","last_reported":1783270467,"current_range_meters":3200,"station_id":"st_d3b462108ojc7389ooeg","pricing_plan_id":"cebpf4jnsgd1na2vs0mg"},{"bike_id":"fdd56223-361e-4603-ab72-f15ddae9a7c4","system_id":"levelo_inurba_marseille","lat":43.2991,"lon":5.38148,"is_reserved":false,"is_disabled":false,"rental_uris":{"android":"levelo://app?vid=fdd56223-361e-4603-ab72-f15ddae9a7c4","ios":"levelo://app?vid=fdd56223-361e-4603-ab72-f15ddae9a7c4"},"vehicle_type_id":"4","last_reported":1783270467,"current_range_meters":3200,"station_id":"ce4bgj12rcd13ifvqbc0","pricing_plan_id":"cebpf4jnsgd1na2vs0mg"},{"bike_id":"40fdd1cf-c3bf-484e-8ffd-9f5f22190a77","system_id":"levelo_inurba_marseille","lat":43.321,"lon":5.36789,"is_reserved":false,"is_disabled":false,"rental_uris":{"android":"levelo://app?vid=40fdd1cf-c3bf-484e-8ffd-9f5f22190a77","ios":"levelo://app?vid=40fdd1cf-c3bf-484e-8ffd-9f5f22190a77"},"vehicle_type_id":"4","last_reported":1783270467,"current_range_meters":3200,"station_id":"ce4bhrh2rcd13ifvqhug","pricing_plan_id":"cebpf4jnsgd1na2vs0mg"},{"bike_id":"0a9ebcff-1b56-45db-9b33-1cda38943cf9","system_id":"levelo_inurba_marseille","lat":43.24479,"lon":5.40728,"is_reserved":false,"is_disabled":false,"rental_uris":{"android":"levelo://app?vid=0a9ebcff-1b56-45db-9b33-1cda38943cf9","ios":"levelo://app?vid=0a9ebcff-1b56-45db-9b33-1cda38943cf9"},"vehicle_type_id":"4","last_reported":1783270467,"current_range_meters":3200,"station_id":"","pricing_plan_id":"cebpf4jnsgd1na2vs0mg"},{"bike_id":"adf781d1-b3dc-4123-b375-519d6858951a","system_id":"levelo_inurba_marseille","lat":43.26215,"lon":5.37902,"is_reserved":false,"is_disabled":false,"rental_uris":{"android":"levelo://app?vid=adf781d1-b3dc-4123-b375-519d6858951a","ios":"levelo://app?vid=adf781d1-b3dc-4123-b375-519d6858951a"},"vehicle_type_id":"4","last_reported":1783270467,"current_range_meters":3200,"station_id":"ce4bhjp2rcd13ifvqg90","pricing_plan_id":"cebpf4jnsgd1na2vs0mg"},{"bike_id":"f6e514fe-47fe-413e-8f51-9deeb1b158a0","system_id":"levelo_inurba_marseille","lat":43.23971,"lon":5.36618,"is_reserved":false,"is_disabled":false,"rental_uris":{"android":"levelo://app?vid=f6e514fe-47fe-413e-8f51-9deeb1b158a0","ios":"levelo://app?vid=f6e514fe-47fe-413e-8f51-9deeb1b158a0"},"vehicle_type_id":"4","last_reported":1783270467,"current_range_meters":3600,"station_id":"ce4bhi12rcd13ifvqfp0","pricing_plan_id":"cebpf4jnsgd1na2vs0mg"},{"bike_id":"b7c7c1e8-84e9-49fb-a54d-fbe5086cd61a","system_id":"levelo_inurba_marseille","lat":43.27847,"lon":5.40727,"is_reserved":false,"is_disabled":true,"rental_uris":{"android":"levelo://app?vid=b7c7c1e8-84e9-49fb-a54d-fbe5086cd61a","ios":"levelo://app?vid=b7c7c1e8-84e9-49fb-a54d-fbe5086cd61a"},"vehicle_type_id":"4","last_reported":1783270467,"current_range_meters":3600,"station_id":"ce4bhnh2rcd13ifvqgtg","pricing_plan_id":"cebpf4jnsgd1na2vs0mg"},{"bike_id":"693afbfa-e70f-40d9-9271-5aba390db9b6","system_id":"levelo_inurba_marseille","lat":43.24106,"lon":5.36282,"is_reserved":false,"is_disabled":false,"rental_uris":{"android":"levelo://app?vid=693afbfa-e70f-40d9-9271-5aba390db9b6","ios":"levelo://app?vid=693afbfa-e70f-40d9-9271-5aba390db9b6"},"vehicle_type_id":"4","last_reported":1783270467,"current_range_meters":3600,"station_id":"","pricing_plan_id":"cebpf4jnsgd1na2vs0mg"},{"bike_id":"504e8c9e-3c3a-443f-8d92-0d6e550eea0a","system_id":"levelo_inurba_marseille","lat":43.296898,"lon":5.37652,"is_reserved":false,"is_disabled":false,"rental_uris":{"android":"levelo://app?vid=504e8c9e-3c3a-443f-8d92-0d6e550eea0a","ios":"levelo://app?vid=504e8c9e-3c3a-443f-8d92-0d6e550eea0a"},"vehicle_type_id":"4","last_reported":1783270467,"current_range_meters":3600,"station_id":"ce4bgkh2rcd13ifvqbl0","pricing_plan_id":"cebpf4jnsgd1na2vs0mg"},{"bike_id":"10acabd2-3a47-4c6d-81d6-0342a098c193","system_id":"levelo_inurba_marseille","lat":43.24166,"lon":5.36391,"is_reserved":false,"is_disabled":false,"rental_uris":{"android":"levelo://app?vid=10acabd2-3a47-4c6d-81d6-0342a098c193","ios":"levelo://app?vid=10acabd2-3a47-4c6d-81d6-0342a098c193"},"vehicle_type_id":"4","last_reported":1783270467,"current_range_meters":3600,"station_id":"cpo36qri1sfpv3e86is0","pricing_plan_id":"cebpf4jnsgd1na2vs0mg"},{"bike_id":"f5a68b71-3761-443f-a16c-225019d233b9","system_id":"levelo_inurba_marseille","lat":43.25383,"lon":5.3752,"is_reserved":false,"is_disabled":false,"rental_uris":{"android":"levelo://app?vid=f5a68b71-3761-443f-a16c-225019d233b9","ios":"levelo://app?vid=f5a68b71-3761-443f-a16c-225019d233b9"},"vehicle_type_id":"4","last_reported":1783270467,"current_range_meters":3600,"station_id":"","pricing_plan_id":"cebpf4jnsgd1na2vs0mg"},{"bike_id":"f4c490b5-dc48-483a-b891-cbc3d779a738","system_id":"levelo_inurba_marseille","lat":43.31587,"lon":5.38793,"is_reserved":false,"is_disabled":false,"rental_uris":{"android":"levelo://app?vid=f4c490b5-dc48-483a-b891-cbc3d779a738","ios":"levelo://app?vid=f4c490b5-dc48-483a-b891-cbc3d779a738"},"vehicle_type_id":"4","last_reported":1783270467,"current_range_meters":3600,"station_id":"","pricing_plan_id":"cebpf4jnsgd1na2vs0mg"},{"bike_id":"9fdcee7d-acc3-4513-87a9-c9dec739e207","system_id":"levelo_inurba_marseille","lat":43.24069,"lon":5.37746,"is_reserved":false,"is_disabled":false,"rental_uris":{"android":"levelo://app?vid=9fdcee7d-acc3-4513-87a9-c9dec739e207","ios":"levelo://app?vid=9fdcee7d-acc3-4513-87a9-c9dec739e207"},"vehicle_type_id":"4","last_reported":1783270467,"current_range_meters":3600,"station_id":"ce4bhnp2rcd13ifvqgvg","pricing_plan_id":"cebpf4jnsgd1na2vs0mg"},{"bike_id":"190f53f5-1748-48a1-9fe2-500cc8cefa8e","system_id":"levelo_inurba_marseille","lat":43.3256,"lon":5.36529,"is_reserved":false,"is_disabled":false,"rental_uris":{"android":"levelo://app?vid=190f53f5-1748-48a1-9fe2-500cc8cefa8e","ios":"levelo://app?vid=190f53f5-1748-48a1-9fe2-500cc8cefa8e"},"vehicle_type_id":"4","last_reported":1783270467,"current_range_meters":3600,"station_id":"","pricing_plan_id":"cebpf4jnsgd1na2vs0mg"},{"bike_id":"5658cfe3-ed59-45e9-8a44-0561163fcd3f","system_id":"levelo_inurba_marseille","lat":43.30845,"lon":5.40498,"is_reserved":false,"is_disabled":false,"rental_uris":{"android":"levelo://app?vid=5658cfe3-ed59-45e9-8a44-0561163fcd3f","ios":"levelo://app?vid=5658cfe3-ed59-45e9-8a44-0561163fcd3f"},"vehicle_type_id":"4","last_reported":1783270467,"current_range_meters":3600,"station_id":"","pricing_plan_id":"cebpf4jnsgd1na2vs0mg"},{"bike_id":"cdb96f67-4069-4baa-a896-228f7764dacd","system_id":"levelo_inurba_marseille","lat":43.29565,"lon":5.3788,"is_reserved":false,"is_disabled":false,"rental_uris":{"android":"levelo://app?vid=cdb96f67-4069-4baa-a896-228f7764dacd","ios":"levelo://app?vid=cdb96f67-4069-4baa-a896-228f7764dacd"},"vehicle_type_id":"4","last_reported":1783270467,"current_range_meters":4000,"station_id":"","pricing_plan_id":"cebpf4jnsgd1na2vs0mg"},{"bike_id":"3bc6d12d-59c0-4162-9cda-07f3d37dc2e0","system_id":"levelo_inurba_marseille","lat":43.24434,"lon":5.40287,"is_reserved":false,"is_disabled":false,"rental_uris":{"android":"levelo://app?vid=3bc6d12d-59c0-4162-9cda-07f3d37dc2e0","ios":"levelo://app?vid=3bc6d12d-59c0-4162-9cda-07f3d37dc2e0"},"vehicle_type_id":"4","last_reported":1783270467,"current_range_meters":4000,"station_id":"","pricing_plan_id":"cebpf4jnsgd1na2vs0mg"},{"bike_id":"c16fdd47-be92-47e0-abeb-e32be9ea84e7","system_id":"levelo_inurba_marseille","lat":43.2656,"lon":5.40316,"is_reserved":false,"is_disabled":false,"rental_uris":{"android":"levelo://app?vid=c16fdd47-be92-47e0-abeb-e32be9ea84e7","ios":"levelo://app?vid=c16fdd47-be92-47e0-abeb-e32be9ea84e7"},"vehicle_type_id":"4","last_reported":1783270467,"current_range_meters":4000,"station_id":"ce4bhmp2rcd13ifvqgng","pricing_plan_id":"cebpf4jnsgd1na2vs0mg"},{"bike_id":"f32649e7-7632-4652-b17b-3ae6b603dcc2","system_id":"levelo_inurba_marseille","lat":43.32111,"lon":5.36768,"is_reserved":false,"is_disabled":false,"rental_uris":{"android":"levelo://app?vid=f32649e7-7632-4652-b17b-3ae6b603dcc2","ios":"levelo://app?vid=f32649e7-7632-4652-b17b-3ae6b603dcc2"},"vehicle_type_id":"4","last_reported":1783270467,"current_range_meters":4000,"station_id":"ce4bhrh2rcd13ifvqhug","pricing_plan_id":"cebpf4jnsgd1na2vs0mg"},{"bike_id":"0df3073c-4d91-4aad-99ca-3266164a2dbe","system_id":"levelo_inurba_marseille","lat":43.28409,"lon":5.37511,"is_reserved":false,"is_disabled":true,"rental_uris":{"android":"levelo://app?vid=0df3073c-4d91-4aad-99ca-3266164a2dbe","ios":"levelo://app?vid=0df3073c-4d91-4aad-99ca-3266164a2dbe"},"vehicle_type_id":"4","last_reported":1783270467,"current_range_meters":4000,"station_id":"ce4bh412rcd13ifvqds0","pricing_plan_id":"cebpf4jnsgd1na2vs0mg"},{"bike_id":"bde4fe8f-be40-4b5e-85e0-e4fdf22fb694","system_id":"levelo_inurba_marseille","lat":43.29266,"lon":5.36858,"is_reserved":false,"is_disabled":true,"rental_uris":{"android":"levelo://app?vid=bde4fe8f-be40-4b5e-85e0-e4fdf22fb694","ios":"levelo://app?vid=bde4fe8f-be40-4b5e-85e0-e4fdf22fb694"},"vehicle_type_id":"4","last_reported":1783270467,"current_range_meters":4000,"station_id":"ce4bhbp2rcd13ifvqesg","pricing_plan_id":"cebpf4jnsgd1na2vs0mg"},{"bike_id":"387838ac-a576-43e0-a6ce-60326cf6d77a","system_id":"levelo_inurba_marseille","lat":43.292599,"lon":5.384425,"is_reserved":false,"is_disabled":false,"rental_uris":{"android":"levelo://app?vid=387838ac-a576-43e0-a6ce-60326cf6d77a","ios":"levelo://app?vid=387838ac-a576-43e0-a6ce-60326cf6d77a"},"vehicle_type_id":"4","last_reported":1783270467,"current_range_meters":4000,"station_id":"ce4bh692rcd13ifvqea0","pricing_plan_id":"cebpf4jnsgd1na2vs0mg"},{"bike_id":"e2770b29-2b53-4a1b-b237-7b8799569b06","system_id":"levelo_inurba_marseille","lat":43.29512,"lon":5.39406,"is_reserved":false,"is_disabled":true,"rental_uris":{"android":"levelo://app?vid=e2770b29-2b53-4a1b-b237-7b8799569b06","ios":"levelo://app?vid=e2770b29-2b53-4a1b-b237-7b8799569b06"},"vehicle_type_id":"4","last_reported":1783270467,"current_range_meters":4000,"station_id":"ce4bh292rcd13ifvqdf0","pricing_plan_id":"cebpf4jnsgd1na2vs0mg"},{"bike_id":"84c89922-e677-4657-978b-dc43c15fbaa9","system_id":"levelo_inurba_marseille","lat":43.289453,"lon":5.366464,"is_reserved":false,"is_disabled":false,"rental_uris":{"android":"levelo://app?vid=84c89922-e677-4657-978b-dc43c15fbaa9","ios":"levelo://app?vid=84c89922-e677-4657-978b-dc43c15fbaa9"},"vehicle_type_id":"4","last_reported":1783270467,"current_range_meters":4000,"station_id":"ce4bhap2rcd13ifvqek0","pricing_plan_id":"cebpf4jnsgd1na2vs0mg"},{"bike_id":"19bbcdde-95c5-47bb-84e4-f60c87ce1731","system_id":"levelo_inurba_marseille","lat":43.28411,"lon":5.3499,"is_reserved":false,"is_disabled":false,"rental_uris":{"android":"levelo://app?vid=19bbcdde-95c5-47bb-84e4-f60c87ce1731","ios":"levelo://app?vid=19bbcdde-95c5-47bb-84e4-f60c87ce1731"},"vehicle_type_id":"4","last_reported":1783270467,"current_range_meters":4000,"station_id":"ce4bhbh2rcd13ifvqepg","pricing_plan_id":"cebpf4jnsgd1na2vs0mg"},{"bike_id":"8c51c550-068e-4ee8-9e6b-2b6156bd353f","system_id":"levelo_inurba_marseille","lat":43.30191,"lon":5.36631,"is_reserved":false,"is_disabled":true,"rental_uris":{"android":"levelo://app?vid=8c51c550-068e-4ee8-9e6b-2b6156bd353f","ios":"levelo://app?vid=8c51c550-068e-4ee8-9e6b-2b6156bd353f"},"vehicle_type_id":"4","last_reported":1783270467,"current_range_meters":4000,"station_id":"ce4bgrh2rcd13ifvqc8g","pricing_plan_id":"cebpf4jnsgd1na2vs0mg"},{"bike_id":"7f01936b-783f-4c86-b3b3-a96fda369574","system_id":"levelo_inurba_marseille","lat":43.29261,"lon":5.36842,"is_reserved":false,"is_disabled":false,"rental_uris":{"android":"levelo://app?vid=7f01936b-783f-4c86-b3b3-a96fda369574","ios":"levelo://app?vid=7f01936b-783f-4c86-b3b3-a96fda369574"},"vehicle_type_id":"4","last_reported":1783270467,"current_range_meters":4000,"station_id":"ce4bhbp2rcd13ifvqesg","pricing_plan_id":"cebpf4jnsgd1na2vs0mg"},{"bike_id":"ff9c35c4-ec4a-496f-8087-b96de0fc0ba2","system_id":"levelo_inurba_marseille","lat":43.23203,"lon":5.35542,"is_reserved":false,"is_disabled":false,"rental_uris":{"android":"levelo://app?vid=ff9c35c4-ec4a-496f-8087-b96de0fc0ba2","ios":"levelo://app?vid=ff9c35c4-ec4a-496f-8087-b96de0fc0ba2"},"vehicle_type_id":"4","last_reported":1783270467,"current_range_meters":4000,"station_id":"ce4bhu92rcd13ifvqi70","pricing_plan_id":"cebpf4jnsgd1na2vs0mg"},{"bike_id":"910a0e56-3842-458a-b929-4deeebc2ab76","system_id":"levelo_inurba_marseille","lat":43.21201,"lon":5.35061,"is_reserved":false,"is_disabled":false,"rental_uris":{"android":"levelo://app?vid=910a0e56-3842-458a-b929-4deeebc2ab76","ios":"levelo://app?vid=910a0e56-3842-458a-b929-4deeebc2ab76"},"vehicle_type_id":"4","last_reported":1783270467,"current_range_meters":4000,"station_id":"st_cvj6sg6p6f1abm77japg","pricing_plan_id":"cebpf4jnsgd1na2vs0mg"},{"bike_id":"d1cdcfbb-a242-478a-9f0c-9ee2c708daa5","system_id":"levelo_inurba_marseille","lat":43.33034,"lon":5.39031,"is_reserved":false,"is_disabled":false,"rental_uris":{"android":"levelo://app?vid=d1cdcfbb-a242-478a-9f0c-9ee2c708daa5","ios":"levelo://app?vid=d1cdcfbb-a242-478a-9f0c-9ee2c708daa5"},"vehicle_type_id":"4","last_reported":1783270467,"current_range_meters":4000,"station_id":"ce4bhr92rcd13ifvqhrg","pricing_plan_id":"cebpf4jnsgd1na2vs0mg"},{"bike_id":"734669e5-8b7c-4f4c-a352-c9caddde0d2c","system_id":"levelo_inurba_marseille","lat":43.297076,"lon":5.376944,"is_reserved":false,"is_disabled":false,"rental_uris":{"android":"levelo://app?vid=734669e5-8b7c-4f4c-a352-c9caddde0d2c","ios":"levelo://app?vid=734669e5-8b7c-4f4c-a352-c9caddde0d2c"},"vehicle_type_id":"4","last_reported":1783270467,"current_range_meters":4000,"station_id":"ce4bgkh2rcd13ifvqbl0","pricing_plan_id":"cebpf4jnsgd1na2vs0mg"},{"bike_id":"31f1fa8e-464b-4ffe-b69b-9ef3135c40cf","system_id":"levelo_inurba_marseille","lat":43.28855,"lon":5.39343,"is_reserved":false,"is_disabled":false,"rental_uris":{"android":"levelo://app?vid=31f1fa8e-464b-4ffe-b69b-9ef3135c40cf","ios":"levelo://app?vid=31f1fa8e-464b-4ffe-b69b-9ef3135c40cf"},"vehicle_type_id":"4","last_reported":1783270467,"current_range_meters":4000,"station_id":"ce4bh2p2rcd13ifvqdi0","pricing_plan_id":"cebpf4jnsgd1na2vs0mg"},{"bike_id":"6c5fe4f7-262b-4001-9eb8-7e80f3afa3a3","system_id":"levelo_inurba_marseille","lat":43.26027,"lon":5.37549,"is_reserved":false,"is_disabled":false,"rental_uris":{"android":"levelo://app?vid=6c5fe4f7-262b-4001-9eb8-7e80f3afa3a3","ios":"levelo://app?vid=6c5fe4f7-262b-4001-9eb8-7e80f3afa3a3"},"vehicle_type_id":"4","last_reported":1783270467,"current_range_meters":4000,"station_id":"ce4bhgh2rcd13ifvqfa0","pricing_plan_id":"cebpf4jnsgd1na2vs0mg"},{"bike_id":"3af208fb-ed62-4f29-bcd1-b301d13a9628","system_id":"levelo_inurba_marseille","lat":43.28399,"lon":5.36474,"is_reserved":false,"is_disabled":false,"rental_uris":{"android":"levelo://app?vid=3af208fb-ed62-4f29-bcd1-b301d13a9628","ios":"levelo://app?vid=3af208fb-ed62-4f29-bcd1-b301d13a9628"},"vehicle_type_id":"4","last_reported":1783270467,"current_range_meters":4000,"station_id":"","pricing_plan_id":"cebpf4jnsgd1na2vs0mg"},{"bike_id":"7a239ef8-3325-427c-90f6-f8a6311bfab5","system_id":"levelo_inurba_marseille","lat":43.25089,"lon":5.39511,"is_reserved":false,"is_disabled":false,"rental_uris":{"android":"levelo://app?vid=7a239ef8-3325-427c-90f6-f8a6311bfab5","ios":"levelo://app?vid=7a239ef8-3325-427c-90f6-f8a6311bfab5"},"vehicle_type_id":"4","last_reported":1783270467,"current_range_meters":4000,"station_id":"ce4bhm12rcd13ifvqgkg","pricing_plan_id":"cebpf4jnsgd1na2vs0mg"},{"bike_id":"696dc738-3c86-46fd-93b8-7bc1359ff003","system_id":"levelo_inurba_marseille","lat":43.25722,"lon":5.41091,"is_reserved":false,"is_disabled":false,"rental_uris":{"android":"levelo://app?vid=696dc738-3c86-46fd-93b8-7bc1359ff003","ios":"levelo://app?vid=696dc738-3c86-46fd-93b8-7bc1359ff003"},"vehicle_type_id":"4","last_reported":1783270467,"current_range_meters":4000,"station_id":"ce4bhkp2rcd13ifvqgd0","pricing_plan_id":"cebpf4jnsgd1na2vs0mg"},{"bike_id":"0ae27b3b-d38f-4118-b04e-7baffad1aebf","system_id":"levelo_inurba_marseille","lat":43.31558,"lon":5.3882,"is_reserved":false,"is_disabled":false,"rental_uris":{"android":"levelo://app?vid=0ae27b3b-d38f-4118-b04e-7baffad1aebf","ios":"levelo://app?vid=0ae27b3b-d38f-4118-b04e-7baffad1aebf"},"vehicle_type_id":"4","last_reported":1783270467,"current_range_meters":4400,"station_id":"","pricing_plan_id":"cebpf4jnsgd1na2vs0mg"},{"bike_id":"1afd20d6-d483-4adf-95ab-4266ebd462f5","system_id":"levelo_inurba_marseille","lat":43.2872,"lon":5.36391,"is_reserved":false,"is_disabled":false,"rental_uris":{"android":"levelo://app?vid=1afd20d6-d483-4adf-95ab-4266ebd462f5","ios":"levelo://app?vid=1afd20d6-d483-4adf-95ab-4266ebd462f5"},"vehicle_type_id":"4","last_reported":1783270467,"current_range_meters":4400,"station_id":"","pricing_plan_id":"cebpf4jnsgd1na2vs0mg"},{"bike_id":"25801e0a-e313-4f6c-8662-d1791b0082b9","system_id":"levelo_inurba_marseille","lat":43.25129,"lon":5.40323,"is_reserved":false,"is_disabled":false,"rental_uris":{"android":"levelo://app?vid=25801e0a-e313-4f6c-8662-d1791b0082b9","ios":"levelo://app?vid=25801e0a-e313-4f6c-8662-d1791b0082b9"},"vehicle_type_id":"4","last_reported":1783270467,"current_range_meters":4400,"station_id":"ce4bhlh2rcd13ifvqgig","pricing_plan_id":"cebpf4jnsgd1na2vs0mg"},{"bike_id":"55a7774b-a8b8-4d45-96aa-b4dda3a05647","system_id":"levelo_inurba_marseille","lat":43.28429,"lon":5.34963,"is_reserved":false,"is_disabled":false,"rental_uris":{"android":"levelo://app?vid=55a7774b-a8b8-4d45-96aa-b4dda3a05647","ios":"levelo://app?vid=55a7774b-a8b8-4d45-96aa-b4dda3a05647"},"vehicle_type_id":"4","last_reported":1783270467,"current_range_meters":4400,"station_id":"ce4bhbh2rcd13ifvqepg","pricing_plan_id":"cebpf4jnsgd1na2vs0mg"},{"bike_id":"de6914c1-a127-4bad-9192-c1a2795bb81d","system_id":"levelo_inurba_marseille","lat":43.21187,"lon":5.35074,"is_reserved":false,"is_disabled":false,"rental_uris":{"android":"levelo://app?vid=de6914c1-a127-4bad-9192-c1a2795bb81d","ios":"levelo://app?vid=de6914c1-a127-4bad-9192-c1a2795bb81d"},"vehicle_type_id":"4","last_reported":1783270467,"current_range_meters":4400,"station_id":"st_cvj6sg6p6f1abm77japg","pricing_plan_id":"cebpf4jnsgd1na2vs0mg"},{"bike_id":"40c60d26-7793-4225-aaf2-3a67b9faf4fc","system_id":"levelo_inurba_marseille","lat":43.23469,"lon":5.3807,"is_reserved":false,"is_disabled":false,"rental_uris":{"android":"levelo://app?vid=40c60d26-7793-4225-aaf2-3a67b9faf4fc","ios":"levelo://app?vid=40c60d26-7793-4225-aaf2-3a67b9faf4fc"},"vehicle_type_id":"4","last_reported":1783270467,"current_range_meters":4400,"station_id":"","pricing_plan_id":"cebpf4jnsgd1na2vs0mg"},{"bike_id":"abaf61ae-3293-4ea8-b207-7a41230a04f3","system_id":"levelo_inurba_marseille","lat":43.23195,"lon":5.35559,"is_reserved":false,"is_disabled":false,"rental_uris":{"android":"levelo://app?vid=abaf61ae-3293-4ea8-b207-7a41230a04f3","ios":"levelo://app?vid=abaf61ae-3293-4ea8-b207-7a41230a04f3"},"vehicle_type_id":"4","last_reported":1783270467,"current_range_meters":4400,"station_id":"ce4bhu92rcd13ifvqi70","pricing_plan_id":"cebpf4jnsgd1na2vs0mg"},{"bike_id":"640e9eab-79f7-4cdb-9553-46f3d8fc9a9e","system_id":"levelo_inurba_marseille","lat":43.21196,"lon":5.35071,"is_reserved":false,"is_disabled":false,"rental_uris":{"android":"levelo://app?vid=640e9eab-79f7-4cdb-9553-46f3d8fc9a9e","ios":"levelo://app?vid=640e9eab-79f7-4cdb-9553-46f3d8fc9a9e"},"vehicle_type_id":"4","last_reported":1783270467,"current_range_meters":4400,"station_id":"st_cvj6sg6p6f1abm77japg","pricing_plan_id":"cebpf4jnsgd1na2vs0mg"},{"bike_id":"7f220556-b0a6-468b-9882-f75938e7d4c9","system_id":"levelo_inurba_marseille","lat":43.273186,"lon":5.39068,"is_reserved":false,"is_disabled":true,"rental_uris":{"android":"levelo://app?vid=7f220556-b0a6-468b-9882-f75938e7d4c9","ios":"levelo://app?vid=7f220556-b0a6-468b-9882-f75938e7d4c9"},"vehicle_type_id":"4","last_reported":1783270467,"current_range_meters":4400,"station_id":"ce4bhgp2rcd13ifvqfe0","pricing_plan_id":"cebpf4jnsgd1na2vs0mg"},{"bike_id":"a5ec9e1c-2bb9-4fc8-9fad-6f1a5d35bb6b","system_id":"levelo_inurba_marseille","lat":43.29786,"lon":5.3792,"is_reserved":false,"is_disabled":false,"rental_uris":{"android":"levelo://app?vid=a5ec9e1c-2bb9-4fc8-9fad-6f1a5d35bb6b","ios":"levelo://app?vid=a5ec9e1c-2bb9-4fc8-9fad-6f1a5d35bb6b"},"vehicle_type_id":"4","last_reported":1783270467,"current_range_meters":4400,"station_id":"","pricing_plan_id":"cebpf4jnsgd1na2vs0mg"},{"bike_id":"664d653d-919d-4371-b516-a4f465272eb6","system_id":"levelo_inurba_marseille","lat":43.286179,"lon":5.351145,"is_reserved":false,"is_disabled":false,"rental_uris":{"android":"levelo://app?vid=664d653d-919d-4371-b516-a4f465272eb6","ios":"levelo://app?vid=664d653d-919d-4371-b516-a4f465272eb6"},"vehicle_type_id":"4","last_reported":1783270467,"current_range_meters":4400,"station_id":"ce4bhch2rcd13ifvqeug","pricing_plan_id":"cebpf4jnsgd1na2vs0mg"},{"bike_id":"87598ed7-b27b-4140-aaea-c015765247bb","system_id":"levelo_inurba_marseille","lat":43.2119,"lon":5.3505,"is_reserved":false,"is_disabled":false,"rental_uris":{"android":"levelo://app?vid=87598ed7-b27b-4140-aaea-c015765247bb","ios":"levelo://app?vid=87598ed7-b27b-4140-aaea-c015765247bb"},"vehicle_type_id":"4","last_reported":1783270467,"current_range_meters":4400,"station_id":"st_cvj6sg6p6f1abm77japg","pricing_plan_id":"cebpf4jnsgd1na2vs0mg"},{"bike_id":"bedee8ac-bc88-4a0d-9458-a321efb6433d","system_id":"levelo_inurba_marseille","lat":43.29167,"lon":5.37144,"is_reserved":false,"is_disabled":false,"rental_uris":{"android":"levelo://app?vid=bedee8ac-bc88-4a0d-9458-a321efb6433d","ios":"levelo://app?vid=bedee8ac-bc88-4a0d-9458-a321efb6433d"},"vehicle_type_id":"4","last_reported":1783270467,"current_range_meters":4400,"station_id":"ce4bha92rcd13ifvqeh0","pricing_plan_id":"cebpf4jnsgd1na2vs0mg"},{"bike_id":"7a71c416-c3b5-4289-ad0e-531bcb18f06d","system_id":"levelo_inurba_marseille","lat":43.33157,"lon":5.37691,"is_reserved":false,"is_disabled":false,"rental_uris":{"android":"levelo://app?vid=7a71c416-c3b5-4289-ad0e-531bcb18f06d","ios":"levelo://app?vid=7a71c416-c3b5-4289-ad0e-531bcb18f06d"},"vehicle_type_id":"4","last_reported":1783270467,"current_range_meters":4400,"station_id":"st_d46cu089ee8s73dldbu0","pricing_plan_id":"cebpf4jnsgd1na2vs0mg"},{"bike_id":"fcd4b9ed-406c-48f5-b03f-b07145ac41f5","system_id":"levelo_inurba_marseille","lat":43.24179,"lon":5.38851,"is_reserved":false,"is_disabled":false,"rental_uris":{"android":"levelo://app?vid=fcd4b9ed-406c-48f5-b03f-b07145ac41f5","ios":"levelo://app?vid=fcd4b9ed-406c-48f5-b03f-b07145ac41f5"},"vehicle_type_id":"4","last_reported":1783270467,"current_range_meters":4400,"station_id":"","pricing_plan_id":"cebpf4jnsgd1na2vs0mg"},{"bike_id":"2c7db2d4-9304-492c-a4d4-40ef195a51c2","system_id":"levelo_inurba_marseille","lat":43.292156,"lon":5.377014,"is_reserved":false,"is_disabled":false,"rental_uris":{"android":"levelo://app?vid=2c7db2d4-9304-492c-a4d4-40ef195a51c2","ios":"levelo://app?vid=2c7db2d4-9304-492c-a4d4-40ef195a51c2"},"vehicle_type_id":"4","last_reported":1783270467,"current_range_meters":4400,"station_id":"ce4bgi12rcd13ifvqb80","pricing_plan_id":"cebpf4jnsgd1na2vs0mg"},{"bike_id":"50746795-3fe0-48c6-b02e-205565dee1dd","system_id":"levelo_inurba_marseille","lat":43.2694,"lon":5.40257,"is_reserved":false,"is_disabled":false,"rental_uris":{"android":"levelo://app?vid=50746795-3fe0-48c6-b02e-205565dee1dd","ios":"levelo://app?vid=50746795-3fe0-48c6-b02e-205565dee1dd"},"vehicle_type_id":"4","last_reported":1783270467,"current_range_meters":4400,"station_id":"cjm6bp8fraef2m0cb0m0","pricing_plan_id":"cebpf4jnsgd1na2vs0mg"},{"bike_id":"5a983d14-4120-46c4-838e-6ea117b194ec","system_id":"levelo_inurba_marseille","lat":43.29038,"lon":5.3863,"is_reserved":false,"is_disabled":false,"rental_uris":{"android":"levelo://app?vid=5a983d14-4120-46c4-838e-6ea117b194ec","ios":"levelo://app?vid=5a983d14-4120-46c4-838e-6ea117b194ec"},"vehicle_type_id":"4","last_reported":1783270467,"current_range_meters":4400,"station_id":"ce4bh4p2rcd13ifvqe0g","pricing_plan_id":"cebpf4jnsgd1na2vs0mg"},{"bike_id":"637ca6f2-621c-4ae1-adb4-7b5112bde475","system_id":"levelo_inurba_marseille","lat":43.2866,"lon":5.36346,"is_reserved":false,"is_disabled":true,"rental_uris":{"android":"levelo://app?vid=637ca6f2-621c-4ae1-adb4-7b5112bde475","ios":"levelo://app?vid=637ca6f2-621c-4ae1-adb4-7b5112bde475"},"vehicle_type_id":"4","last_reported":1783270467,"current_range_meters":4400,"station_id":"ce4bhah2rcd13ifvqej0","pricing_plan_id":"cebpf4jnsgd1na2vs0mg"},{"bike_id":"7fcca41e-2146-47b2-bf38-372ba8763a88","system_id":"levelo_inurba_marseille","lat":43.27983,"lon":5.41647,"is_reserved":false,"is_disabled":false,"rental_uris":{"android":"levelo://app?vid=7fcca41e-2146-47b2-bf38-372ba8763a88","ios":"levelo://app?vid=7fcca41e-2146-47b2-bf38-372ba8763a88"},"vehicle_type_id":"4","last_reported":1783270467,"current_range_meters":4400,"station_id":"ce4bho12rcd13ifvqh1g","pricing_plan_id":"cebpf4jnsgd1na2vs0mg"},{"bike_id":"913b9614-9d3d-45d4-bbd9-fbfbdea16178","system_id":"levelo_inurba_marseille","lat":43.29729,"lon":5.37695,"is_reserved":false,"is_disabled":false,"rental_uris":{"android":"levelo://app?vid=913b9614-9d3d-45d4-bbd9-fbfbdea16178","ios":"levelo://app?vid=913b9614-9d3d-45d4-bbd9-fbfbdea16178"},"vehicle_type_id":"4","last_reported":1783270467,"current_range_meters":4400,"station_id":"ce4bgkh2rcd13ifvqbl0","pricing_plan_id":"cebpf4jnsgd1na2vs0mg"},{"bike_id":"089cc60f-28fb-4f89-ade1-1e4afcdfbfa8","system_id":"levelo_inurba_marseille","lat":43.31717,"lon":5.43678,"is_reserved":false,"is_disabled":false,"rental_uris":{"android":"levelo://app?vid=089cc60f-28fb-4f89-ade1-1e4afcdfbfa8","ios":"levelo://app?vid=089cc60f-28fb-4f89-ade1-1e4afcdfbfa8"},"vehicle_type_id":"4","last_reported":1783270467,"current_range_meters":4400,"station_id":"ce4bhp92rcd13ifvqhcg","pricing_plan_id":"cebpf4jnsgd1na2vs0mg"},{"bike_id":"9efeb665-6ac9-4e70-ba70-20bf3b204b4c","system_id":"levelo_inurba_marseille","lat":43.299059,"lon":5.381578,"is_reserved":false,"is_disabled":false,"rental_uris":{"android":"levelo://app?vid=9efeb665-6ac9-4e70-ba70-20bf3b204b4c","ios":"levelo://app?vid=9efeb665-6ac9-4e70-ba70-20bf3b204b4c"},"vehicle_type_id":"4","last_reported":1783270467,"current_range_meters":4400,"station_id":"ce4bgip2rcd13ifvqbb0","pricing_plan_id":"cebpf4jnsgd1na2vs0mg"},{"bike_id":"e4ee63c7-9eff-4911-8f46-91d4a1859e49","system_id":"levelo_inurba_marseille","lat":43.21173,"lon":5.35078,"is_reserved":false,"is_disabled":false,"rental_uris":{"android":"levelo://app?vid=e4ee63c7-9eff-4911-8f46-91d4a1859e49","ios":"levelo://app?vid=e4ee63c7-9eff-4911-8f46-91d4a1859e49"},"vehicle_type_id":"4","last_reported":1783270467,"current_range_meters":4400,"station_id":"st_cvj6sg6p6f1abm77japg","pricing_plan_id":"cebpf4jnsgd1na2vs0mg"},{"bike_id":"8dc50d6e-d07d-4a4d-bf73-7ff13b4007d0","system_id":"levelo_inurba_marseille","lat":43.28409,"lon":5.34982,"is_reserved":false,"is_disabled":false,"rental_uris":{"android":"levelo://app?vid=8dc50d6e-d07d-4a4d-bf73-7ff13b4007d0","ios":"levelo://app?vid=8dc50d6e-d07d-4a4d-bf73-7ff13b4007d0"},"vehicle_type_id":"4","last_reported":1783270467,"current_range_meters":4400,"station_id":"ce4bhbh2rcd13ifvqepg","pricing_plan_id":"cebpf4jnsgd1na2vs0mg"},{"bike_id":"06d70fe1-2338-42cf-9536-38c00535c503","system_id":"levelo_inurba_marseille","lat":43.26224,"lon":5.38769,"is_reserved":false,"is_disabled":false,"rental_uris":{"android":"levelo://app?vid=06d70fe1-2338-42cf-9536-38c00535c503","ios":"levelo://app?vid=06d70fe1-2338-42cf-9536-38c00535c503"},"vehicle_type_id":"4","last_reported":1783270467,"current_range_meters":4400,"station_id":"st_d8gjfg747rts73coq3b0","pricing_plan_id":"cebpf4jnsgd1na2vs0mg"},{"bike_id":"ce7652c3-6ef2-404b-a80d-bd24bc164bb0","system_id":"levelo_inurba_marseille","lat":43.21753,"lon":5.346,"is_reserved":false,"is_disabled":false,"rental_uris":{"android":"levelo://app?vid=ce7652c3-6ef2-404b-a80d-bd24bc164bb0","ios":"levelo://app?vid=ce7652c3-6ef2-404b-a80d-bd24bc164bb0"},"vehicle_type_id":"4","last_reported":1783270467,"current_range_meters":4400,"station_id":"st_cvj6r9ubvosntc0bgbag","pricing_plan_id":"cebpf4jnsgd1na2vs0mg"},{"bike_id":"0dc7de81-95c2-48a7-88ed-cb7adbb586a8","system_id":"levelo_inurba_marseille","lat":43.27432,"lon":5.39389,"is_reserved":false,"is_disabled":false,"rental_uris":{"android":"levelo://app?vid=0dc7de81-95c2-48a7-88ed-cb7adbb586a8","ios":"levelo://app?vid=0dc7de81-95c2-48a7-88ed-cb7adbb586a8"},"vehicle_type_id":"4","last_reported":1783270467,"current_range_meters":4800,"station_id":"ce4bhdp2rcd13ifvqf20","pricing_plan_id":"cebpf4jnsgd1na2vs0mg"},{"bike_id":"2f1e7c27-cdbb-4552-bcb6-438088afd41d","system_id":"levelo_inurba_marseille","lat":43.297995,"lon":5.381091,"is_reserved":false,"is_disabled":false,"rental_uris":{"android":"levelo://app?vid=2f1e7c27-cdbb-4552-bcb6-438088afd41d","ios":"levelo://app?vid=2f1e7c27-cdbb-4552-bcb6-438088afd41d"},"vehicle_type_id":"4","last_reported":1783270467,"current_range_meters":4800,"station_id":"ce4bgl12rcd13ifvqbo0","pricing_plan_id":"cebpf4jnsgd1na2vs0mg"},{"bike_id":"d69b7eac-e205-49a1-bb8d-1b0bc180c41e","system_id":"levelo_inurba_marseille","lat":43.29022,"lon":5.38639,"is_reserved":false,"is_disabled":false,"rental_uris":{"android":"levelo://app?vid=d69b7eac-e205-49a1-bb8d-1b0bc180c41e","ios":"levelo://app?vid=d69b7eac-e205-49a1-bb8d-1b0bc180c41e"},"vehicle_type_id":"4","last_reported":1783270467,"current_range_meters":4800,"station_id":"ce4bh4p2rcd13ifvqe0g","pricing_plan_id":"cebpf4jnsgd1na2vs0mg"},{"bike_id":"718c826c-5424-4765-ba8f-db3ba26fcb0e","system_id":"levelo_inurba_marseille","lat":43.26234,"lon":5.37419,"is_reserved":false,"is_disabled":true,"rental_uris":{"android":"levelo://app?vid=718c826c-5424-4765-ba8f-db3ba26fcb0e","ios":"levelo://app?vid=718c826c-5424-4765-ba8f-db3ba26fcb0e"},"vehicle_type_id":"4","last_reported":1783270467,"current_range_meters":4800,"station_id":"","pricing_plan_id":"cebpf4jnsgd1na2vs0mg"},{"bike_id":"1654dcb8-614c-421e-ba0d-4219bf83f6de","system_id":"levelo_inurba_marseille","lat":43.27972,"lon":5.38736,"is_reserved":false,"is_disabled":false,"rental_uris":{"android":"levelo://app?vid=1654dcb8-614c-421e-ba0d-4219bf83f6de","ios":"levelo://app?vid=1654dcb8-614c-421e-ba0d-4219bf83f6de"},"vehicle_type_id":"4","last_reported":1783270467,"current_range_meters":4800,"station_id":"ce4bhg12rcd13ifvqf80","pricing_plan_id":"cebpf4jnsgd1na2vs0mg"},{"bike_id":"9249ee1a-143f-4c71-b1ba-2814542e46c9","system_id":"levelo_inurba_marseille","lat":43.24546,"lon":5.39529,"is_reserved":false,"is_disabled":false,"rental_uris":{"android":"levelo://app?vid=9249ee1a-143f-4c71-b1ba-2814542e46c9","ios":"levelo://app?vid=9249ee1a-143f-4c71-b1ba-2814542e46c9"},"vehicle_type_id":"4","last_reported":1783270467,"current_range_meters":4800,"station_id":"ce4bhlp2rcd13ifvqgjg","pricing_plan_id":"cebpf4jnsgd1na2vs0mg"},{"bike_id":"04909e4d-fd9a-4db5-acd1-6dd906aa9d85","system_id":"levelo_inurba_marseille","lat":43.29027,"lon":5.35911,"is_reserved":false,"is_disabled":true,"rental_uris":{"android":"levelo://app?vid=04909e4d-fd9a-4db5-acd1-6dd906aa9d85","ios":"levelo://app?vid=04909e4d-fd9a-4db5-acd1-6dd906aa9d85"},"vehicle_type_id":"4","last_reported":1783270467,"current_range_meters":4800,"station_id":"ce4bha92rcd13ifvqeg0","pricing_plan_id":"cebpf4jnsgd1na2vs0mg"},{"bike_id":"445aa8ea-017b-4914-9471-0a176183bfbb","system_id":"levelo_inurba_marseille","lat":43.29554,"lon":5.39968,"is_reserved":false,"is_disabled":false,"rental_uris":{"android":"levelo://app?vid=445aa8ea-017b-4914-9471-0a176183bfbb","ios":"levelo://app?vid=445aa8ea-017b-4914-9471-0a176183bfbb"},"vehicle_type_id":"4","last_reported":1783270467,"current_range_meters":4800,"station_id":"ce4bh312rcd13ifvqdj0","pricing_plan_id":"cebpf4jnsgd1na2vs0mg"},{"bike_id":"98e6e248-2a70-4fe6-9a5d-a0124df80d02","system_id":"levelo_inurba_marseille","lat":43.26209,"lon":5.37437,"is_reserved":false,"is_disabled":false,"rental_uris":{"android":"levelo://app?vid=98e6e248-2a70-4fe6-9a5d-a0124df80d02","ios":"levelo://app?vid=98e6e248-2a70-4fe6-9a5d-a0124df80d02"},"vehicle_type_id":"4","last_reported":1783270467,"current_range_meters":4800,"station_id":"ce4bhgp2rcd13ifvqfc0","pricing_plan_id":"cebpf4jnsgd1na2vs0mg"},{"bike_id":"e4adf029-8a59-4fef-ba3d-6bc4081090ac","system_id":"levelo_inurba_marseille","lat":43.29294,"lon":5.36842,"is_reserved":false,"is_disabled":false,"rental_uris":{"android":"levelo://app?vid=e4adf029-8a59-4fef-ba3d-6bc4081090ac","ios":"levelo://app?vid=e4adf029-8a59-4fef-ba3d-6bc4081090ac"},"vehicle_type_id":"4","last_reported":1783270467,"current_range_meters":4800,"station_id":"ce4bhbp2rcd13ifvqesg","pricing_plan_id":"cebpf4jnsgd1na2vs0mg"},{"bike_id":"d455396b-25c8-4bf4-aa48-4df15ad83f7e","system_id":"levelo_inurba_marseille","lat":43.33869,"lon":5.34763,"is_reserved":false,"is_disabled":false,"rental_uris":{"android":"levelo://app?vid=d455396b-25c8-4bf4-aa48-4df15ad83f7e","ios":"levelo://app?vid=d455396b-25c8-4bf4-aa48-4df15ad83f7e"},"vehicle_type_id":"4","last_reported":1783270467,"current_range_meters":4800,"station_id":"","pricing_plan_id":"cebpf4jnsgd1na2vs0mg"},{"bike_id":"128c98b0-5c8a-4043-be90-d5616b94b24d","system_id":"levelo_inurba_marseille","lat":43.266774,"lon":5.382777,"is_reserved":false,"is_disabled":false,"rental_uris":{"android":"levelo://app?vid=128c98b0-5c8a-4043-be90-d5616b94b24d","ios":"levelo://app?vid=128c98b0-5c8a-4043-be90-d5616b94b24d"},"vehicle_type_id":"4","last_reported":1783270467,"current_range_meters":4800,"station_id":"ce4bhg92rcd13ifvqf90","pricing_plan_id":"cebpf4jnsgd1na2vs0mg"},{"bike_id":"90956858-67b4-4bbd-82de-736588e9511e","system_id":"levelo_inurba_marseille","lat":43.22557,"lon":5.41631,"is_reserved":false,"is_disabled":false,"rental_uris":{"android":"levelo://app?vid=90956858-67b4-4bbd-82de-736588e9511e","ios":"levelo://app?vid=90956858-67b4-4bbd-82de-736588e9511e"},"vehicle_type_id":"4","last_reported":1783270467,"current_range_meters":5600,"station_id":"st_d2o4gvlbi1j2169b742g","pricing_plan_id":"cebpf4jnsgd1na2vs0mg"},{"bike_id":"d832a3d0-79c6-4ba7-ac9f-b53b8986b84b","system_id":"levelo_inurba_marseille","lat":43.293733,"lon":5.378506,"is_reserved":false,"is_disabled":false,"rental_uris":{"android":"levelo://app?vid=d832a3d0-79c6-4ba7-ac9f-b53b8986b84b","ios":"levelo://app?vid=d832a3d0-79c6-4ba7-ac9f-b53b8986b84b"},"vehicle_type_id":"4","last_reported":1783270467,"current_range_meters":5600,"station_id":"ce4bhch2rcd13ifvqeug","pricing_plan_id":"cebpf4jnsgd1na2vs0mg"},{"bike_id":"617b8d27-faac-4a7b-b31f-c8d5d7522f8c","system_id":"levelo_inurba_marseille","lat":43.28152,"lon":5.4264,"is_reserved":false,"is_disabled":false,"rental_uris":{"android":"levelo://app?vid=617b8d27-faac-4a7b-b31f-c8d5d7522f8c","ios":"levelo://app?vid=617b8d27-faac-4a7b-b31f-c8d5d7522f8c"},"vehicle_type_id":"4","last_reported":1783270467,"current_range_meters":5600,"station_id":"ce4bhnh2rcd13ifvqgug","pricing_plan_id":"cebpf4jnsgd1na2vs0mg"},{"bike_id":"0280cae0-08d7-4f06-a94a-abe8e009ab51","system_id":"levelo_inurba_marseille","lat":43.24875,"lon":5.39407,"is_reserved":false,"is_disabled":false,"rental_uris":{"android":"levelo://app?vid=0280cae0-08d7-4f06-a94a-abe8e009ab51","ios":"levelo://app?vid=0280cae0-08d7-4f06-a94a-abe8e009ab51"},"vehicle_type_id":"4","last_reported":1783270467,"current_range_meters":5600,"station_id":"","pricing_plan_id":"cebpf4jnsgd1na2vs0mg"},{"bike_id":"a99e8568-afd3-423f-b32d-3e2eda81c54b","system_id":"levelo_inurba_marseille","lat":43.26197,"lon":5.37905,"is_reserved":false,"is_disabled":false,"rental_uris":{"android":"levelo://app?vid=a99e8568-afd3-423f-b32d-3e2eda81c54b","ios":"levelo://app?vid=a99e8568-afd3-423f-b32d-3e2eda81c54b"},"vehicle_type_id":"4","last_reported":1783270467,"current_range_meters":5600,"station_id":"ce4bhjp2rcd13ifvqg90","pricing_plan_id":"cebpf4jnsgd1na2vs0mg"},{"bike_id":"9972642f-35aa-4c20-918a-dcbc07e9e004","system_id":"levelo_inurba_marseille","lat":43.29587,"lon":5.36737,"is_reserved":false,"is_disabled":true,"rental_uris":{"android":"levelo://app?vid=9972642f-35aa-4c20-918a-dcbc07e9e004","ios":"levelo://app?vid=9972642f-35aa-4c20-918a-dcbc07e9e004"},"vehicle_type_id":"4","last_reported":1783270467,"current_range_meters":5600,"station_id":"ce4bgph2rcd13ifvqc2g","pricing_plan_id":"cebpf4jnsgd1na2vs0mg"},{"bike_id":"f95ce947-8458-4618-80f2-d002fdbd6738","system_id":"levelo_inurba_marseille","lat":43.292664,"lon":5.376156,"is_reserved":false,"is_disabled":false,"rental_uris":{"android":"levelo://app?vid=f95ce947-8458-4618-80f2-d002fdbd6738","ios":"levelo://app?vid=f95ce947-8458-4618-80f2-d002fdbd6738"},"vehicle_type_id":"4","last_reported":1783270467,"current_range_meters":5600,"station_id":"ce4bgi12rcd13ifvqb80","pricing_plan_id":"cebpf4jnsgd1na2vs0mg"},{"bike_id":"e6c339eb-e8df-419a-a0f3-1c95db4e1937","system_id":"levelo_inurba_marseille","lat":43.26194,"lon":5.37446,"is_reserved":false,"is_disabled":false,"rental_uris":{"android":"levelo://app?vid=e6c339eb-e8df-419a-a0f3-1c95db4e1937","ios":"levelo://app?vid=e6c339eb-e8df-419a-a0f3-1c95db4e1937"},"vehicle_type_id":"4","last_reported":1783270467,"current_range_meters":5600,"station_id":"","pricing_plan_id":"cebpf4jnsgd1na2vs0mg"},{"bike_id":"4db1a738-7f04-42e5-a031-6eb9900c6581","system_id":"levelo_inurba_marseille","lat":43.26197,"lon":5.37452,"is_reserved":false,"is_disabled":false,"rental_uris":{"android":"levelo://app?vid=4db1a738-7f04-42e5-a031-6eb9900c6581","ios":"levelo://app?vid=4db1a738-7f04-42e5-a031-6eb9900c6581"},"vehicle_type_id":"4","last_reported":1783270467,"current_range_meters":5600,"station_id":"ce4bhgp2rcd13ifvqfc0","pricing_plan_id":"cebpf4jnsgd1na2vs0mg"},{"bike_id":"7c427d21-5ba3-47e9-b621-2ca7d29df3d2","system_id":"levelo_inurba_marseille","lat":43.28463,"lon":5.43718,"is_reserved":false,"is_disabled":false,"rental_uris":{"android":"levelo://app?vid=7c427d21-5ba3-47e9-b621-2ca7d29df3d2","ios":"levelo://app?vid=7c427d21-5ba3-47e9-b621-2ca7d29df3d2"},"vehicle_type_id":"4","last_reported":1783270467,"current_range_meters":5600,"station_id":"","pricing_plan_id":"cebpf4jnsgd1na2vs0mg"},{"bike_id":"67ff903d-b2b0-4196-be8d-ce9048cbff4d","system_id":"levelo_inurba_marseille","lat":43.22975,"lon":5.44457,"is_reserved":false,"is_disabled":false,"rental_uris":{"android":"levelo://app?vid=67ff903d-b2b0-4196-be8d-ce9048cbff4d","ios":"levelo://app?vid=67ff903d-b2b0-4196-be8d-ce9048cbff4d"},"vehicle_type_id":"4","last_reported":1783270467,"current_range_meters":5600,"station_id":"","pricing_plan_id":"cebpf4jnsgd1na2vs0mg"},{"bike_id":"f5d895ef-c089-403e-ab80-fa5c68c05b11","system_id":"levelo_inurba_marseille","lat":43.2999,"lon":5.37179,"is_reserved":false,"is_disabled":false,"rental_uris":{"android":"levelo://app?vid=f5d895ef-c089-403e-ab80-fa5c68c05b11","ios":"levelo://app?vid=f5d895ef-c089-403e-ab80-fa5c68c05b11"},"vehicle_type_id":"4","last_reported":1783270467,"current_range_meters":6000,"station_id":"ce4bgr92rcd13ifvqc7g","pricing_plan_id":"cebpf4jnsgd1na2vs0mg"},{"bike_id":"5cf8ff3f-002e-4490-b36d-5909b772d854","system_id":"levelo_inurba_marseille","lat":43.22544,"lon":5.34842,"is_reserved":false,"is_disabled":true,"rental_uris":{"android":"levelo://app?vid=5cf8ff3f-002e-4490-b36d-5909b772d854","ios":"levelo://app?vid=5cf8ff3f-002e-4490-b36d-5909b772d854"},"vehicle_type_id":"4","last_reported":1783270467,"current_range_meters":6000,"station_id":"st_cvj5dfep6f1abm77gieg","pricing_plan_id":"cebpf4jnsgd1na2vs0mg"},{"bike_id":"097703ec-cc97-424c-9bee-1ad2d40222d4","system_id":"levelo_inurba_marseille","lat":43.24816,"lon":5.37451,"is_reserved":false,"is_disabled":false,"rental_uris":{"android":"levelo://app?vid=097703ec-cc97-424c-9bee-1ad2d40222d4","ios":"levelo://app?vid=097703ec-cc97-424c-9bee-1ad2d40222d4"},"vehicle_type_id":"4","last_reported":1783270467,"current_range_meters":6000,"station_id":"ce4bhgh2rcd13ifvqfb0","pricing_plan_id":"cebpf4jnsgd1na2vs0mg"},{"bike_id":"6b4bd43f-9d60-40f8-96cc-0292b478f552","system_id":"levelo_inurba_marseille","lat":43.28779,"lon":5.4662,"is_reserved":false,"is_disabled":false,"rental_uris":{"android":"levelo://app?vid=6b4bd43f-9d60-40f8-96cc-0292b478f552","ios":"levelo://app?vid=6b4bd43f-9d60-40f8-96cc-0292b478f552"},"vehicle_type_id":"4","last_reported":1783270467,"current_range_meters":6000,"station_id":"","pricing_plan_id":"cebpf4jnsgd1na2vs0mg"},{"bike_id":"38360f99-2bce-4f28-bc36-3bc8367dcc77","system_id":"levelo_inurba_marseille","lat":43.302907,"lon":5.377195,"is_reserved":false,"is_disabled":false,"rental_uris":{"android":"levelo://app?vid=38360f99-2bce-4f28-bc36-3bc8367dcc77","ios":"levelo://app?vid=38360f99-2bce-4f28-bc36-3bc8367dcc77"},"vehicle_type_id":"4","last_reported":1783270467,"current_range_meters":6000,"station_id":"ce4bgqh2rcd13ifvqc5g","pricing_plan_id":"cebpf4jnsgd1na2vs0mg"},{"bike_id":"8aa3df7b-1cc5-49a7-a689-1b044e2b59f6","system_id":"levelo_inurba_marseille","lat":43.28472,"lon":5.35863,"is_reserved":false,"is_disabled":false,"rental_uris":{"android":"levelo://app?vid=8aa3df7b-1cc5-49a7-a689-1b044e2b59f6","ios":"levelo://app?vid=8aa3df7b-1cc5-49a7-a689-1b044e2b59f6"},"vehicle_type_id":"4","last_reported":1783270467,"current_range_meters":6000,"station_id":"ce4bhah2rcd13ifvqei0","pricing_plan_id":"cebpf4jnsgd1na2vs0mg"},{"bike_id":"4d52a61b-5c30-41df-a6ac-71b42f016aed","system_id":"levelo_inurba_marseille","lat":43.25869,"lon":5.39905,"is_reserved":false,"is_disabled":true,"rental_uris":{"android":"levelo://app?vid=4d52a61b-5c30-41df-a6ac-71b42f016aed","ios":"levelo://app?vid=4d52a61b-5c30-41df-a6ac-71b42f016aed"},"vehicle_type_id":"4","last_reported":1783270467,"current_range_meters":6000,"station_id":"ce4bhl92rcd13ifvqghg","pricing_plan_id":"cebpf4jnsgd1na2vs0mg"},{"bike_id":"6f74e72f-4daa-466c-8061-7f39615bd85c","system_id":"levelo_inurba_marseille","lat":43.2924,"lon":5.36047,"is_reserved":false,"is_disabled":false,"rental_uris":{"android":"levelo://app?vid=6f74e72f-4daa-466c-8061-7f39615bd85c","ios":"levelo://app?vid=6f74e72f-4daa-466c-8061-7f39615bd85c"},"vehicle_type_id":"4","last_reported":1783270467,"current_range_meters":6000,"station_id":"ce4bhbh2rcd13ifvqeqg","pricing_plan_id":"cebpf4jnsgd1na2vs0mg"},{"bike_id":"defe664f-116a-400b-aa68-5aba6647b941","system_id":"levelo_inurba_marseille","lat":43.29295,"lon":5.44533,"is_reserved":false,"is_disabled":false,"rental_uris":{"android":"levelo://app?vid=defe664f-116a-400b-aa68-5aba6647b941","ios":"levelo://app?vid=defe664f-116a-400b-aa68-5aba6647b941"},"vehicle_type_id":"4","last_reported":1783270467,"current_range_meters":6000,"station_id":"","pricing_plan_id":"cebpf4jnsgd1na2vs0mg"},{"bike_id":"2a8f592d-3ebd-4853-bf23-1a2cca68a093","system_id":"levelo_inurba_marseille","lat":43.27072,"lon":5.38538,"is_reserved":false,"is_disabled":false,"rental_uris":{"android":"levelo://app?vid=2a8f592d-3ebd-4853-bf23-1a2cca68a093","ios":"levelo://app?vid=2a8f592d-3ebd-4853-bf23-1a2cca68a093"},"vehicle_type_id":"4","last_reported":1783270467,"current_range_meters":6000,"station_id":"","pricing_plan_id":"cebpf4jnsgd1na2vs0mg"},{"bike_id":"74c027a4-4b67-40ff-a2fc-35f79d498796","system_id":"levelo_inurba_marseille","lat":43.29228,"lon":5.36017,"is_reserved":false,"is_disabled":true,"rental_uris":{"android":"levelo://app?vid=74c027a4-4b67-40ff-a2fc-35f79d498796","ios":"levelo://app?vid=74c027a4-4b67-40ff-a2fc-35f79d498796"},"vehicle_type_id":"4","last_reported":1783270467,"current_range_meters":6000,"station_id":"ce4bhbh2rcd13ifvqeqg","pricing_plan_id":"cebpf4jnsgd1na2vs0mg"},{"bike_id":"a12a4f83-c050-4064-a9cd-bf7775a31f2f","system_id":"levelo_inurba_marseille","lat":43.24698,"lon":5.38175,"is_reserved":false,"is_disabled":true,"rental_uris":{"android":"levelo://app?vid=a12a4f83-c050-4064-a9cd-bf7775a31f2f","ios":"levelo://app?vid=a12a4f83-c050-4064-a9cd-bf7775a31f2f"},"vehicle_type_id":"4","last_reported":1783270467,"current_range_meters":6000,"station_id":"ce4bhih2rcd13ifvqfr0","pricing_plan_id":"cebpf4jnsgd1na2vs0mg"},{"bike_id":"988f6eb2-476b-4395-993c-77c42e0c0e6a","system_id":"levelo_inurba_marseille","lat":43.26235,"lon":5.38758,"is_reserved":false,"is_disabled":false,"rental_uris":{"android":"levelo://app?vid=988f6eb2-476b-4395-993c-77c42e0c0e6a","ios":"levelo://app?vid=988f6eb2-476b-4395-993c-77c42e0c0e6a"},"vehicle_type_id":"4","last_reported":1783270467,"current_range_meters":6000,"station_id":"st_d8gjfg747rts73coq3b0","pricing_plan_id":"cebpf4jnsgd1na2vs0mg"},{"bike_id":"1ef77d10-3808-4032-a625-bdc5532d78f3","system_id":"levelo_inurba_marseille","lat":43.2898,"lon":5.3782,"is_reserved":false,"is_disabled":true,"rental_uris":{"android":"levelo://app?vid=1ef77d10-3808-4032-a625-bdc5532d78f3","ios":"levelo://app?vid=1ef77d10-3808-4032-a625-bdc5532d78f3"},"vehicle_type_id":"4","last_reported":1783270467,"current_range_meters":6000,"station_id":"ce4bh9p2rcd13ifvqed0","pricing_plan_id":"cebpf4jnsgd1na2vs0mg"},{"bike_id":"95fad6a2-725d-40e1-944a-ec62cb2eae90","system_id":"levelo_inurba_marseille","lat":43.25125,"lon":5.40302,"is_reserved":false,"is_disabled":false,"rental_uris":{"android":"levelo://app?vid=95fad6a2-725d-40e1-944a-ec62cb2eae90","ios":"levelo://app?vid=95fad6a2-725d-40e1-944a-ec62cb2eae90"},"vehicle_type_id":"4","last_reported":1783270467,"current_range_meters":6000,"station_id":"ce4bhlh2rcd13ifvqgig","pricing_plan_id":"cebpf4jnsgd1na2vs0mg"},{"bike_id":"be97f77b-683a-44ce-8240-f5ff6433cfe3","system_id":"levelo_inurba_marseille","lat":43.23203,"lon":5.3555,"is_reserved":false,"is_disabled":true,"rental_uris":{"android":"levelo://app?vid=be97f77b-683a-44ce-8240-f5ff6433cfe3","ios":"levelo://app?vid=be97f77b-683a-44ce-8240-f5ff6433cfe3"},"vehicle_type_id":"4","last_reported":1783270467,"current_range_meters":6000,"station_id":"ce4bhu92rcd13ifvqi70","pricing_plan_id":"cebpf4jnsgd1na2vs0mg"},{"bike_id":"2fa22b1d-12bf-4888-8ff4-67a11349c948","system_id":"levelo_inurba_marseille","lat":43.2121,"lon":5.35048,"is_reserved":false,"is_disabled":false,"rental_uris":{"android":"levelo://app?vid=2fa22b1d-12bf-4888-8ff4-67a11349c948","ios":"levelo://app?vid=2fa22b1d-12bf-4888-8ff4-67a11349c948"},"vehicle_type_id":"4","last_reported":1783270467,"current_range_meters":6400,"station_id":"st_cvj6sg6p6f1abm77japg","pricing_plan_id":"cebpf4jnsgd1na2vs0mg"},{"bike_id":"6d3bf2bf-463a-45fa-bdea-adec4cfed785","system_id":"levelo_inurba_marseille","lat":43.24811,"lon":5.37433,"is_reserved":false,"is_disabled":false,"rental_uris":{"android":"levelo://app?vid=6d3bf2bf-463a-45fa-bdea-adec4cfed785","ios":"levelo://app?vid=6d3bf2bf-463a-45fa-bdea-adec4cfed785"},"vehicle_type_id":"4","last_reported":1783270467,"current_range_meters":6400,"station_id":"ce4bhgh2rcd13ifvqfb0","pricing_plan_id":"cebpf4jnsgd1na2vs0mg"},{"bike_id":"19f14676-25d7-4c70-b5ee-6de2eed9cd83","system_id":"levelo_inurba_marseille","lat":43.25131,"lon":5.40331,"is_reserved":false,"is_disabled":false,"rental_uris":{"android":"levelo://app?vid=19f14676-25d7-4c70-b5ee-6de2eed9cd83","ios":"levelo://app?vid=19f14676-25d7-4c70-b5ee-6de2eed9cd83"},"vehicle_type_id":"4","last_reported":1783270467,"current_range_meters":6400,"station_id":"ce4bhlh2rcd13ifvqgig","pricing_plan_id":"cebpf4jnsgd1na2vs0mg"},{"bike_id":"98d9ab63-952f-49d0-8775-50ac81ca5fd7","system_id":"levelo_inurba_marseille","lat":43.30924,"lon":5.37497,"is_reserved":false,"is_disabled":false,"rental_uris":{"android":"levelo://app?vid=98d9ab63-952f-49d0-8775-50ac81ca5fd7","ios":"levelo://app?vid=98d9ab63-952f-49d0-8775-50ac81ca5fd7"},"vehicle_type_id":"4","last_reported":1783270467,"current_range_meters":6400,"station_id":"","pricing_plan_id":"cebpf4jnsgd1na2vs0mg"},{"bike_id":"c64fd8b2-f458-4a6e-88eb-895f5a6985c2","system_id":"levelo_inurba_marseille","lat":43.31416,"lon":5.39341,"is_reserved":false,"is_disabled":true,"rental_uris":{"android":"levelo://app?vid=c64fd8b2-f458-4a6e-88eb-895f5a6985c2","ios":"levelo://app?vid=c64fd8b2-f458-4a6e-88eb-895f5a6985c2"},"vehicle_type_id":"4","last_reported":1783270467,"current_range_meters":6400,"station_id":"","pricing_plan_id":"cebpf4jnsgd1na2vs0mg"},{"bike_id":"8220ecc2-6bf9-4e7d-8a35-6858c0daf5f4","system_id":"levelo_inurba_marseille","lat":43.21191,"lon":5.35063,"is_reserved":false,"is_disabled":false,"rental_uris":{"android":"levelo://app?vid=8220ecc2-6bf9-4e7d-8a35-6858c0daf5f4","ios":"levelo://app?vid=8220ecc2-6bf9-4e7d-8a35-6858c0daf5f4"},"vehicle_type_id":"4","last_reported":1783270467,"current_range_meters":6400,"station_id":"st_cvj6sg6p6f1abm77japg","pricing_plan_id":"cebpf4jnsgd1na2vs0mg"},{"bike_id":"b99fa2fa-6caa-4e97-a941-8427d6ff2309","system_id":"levelo_inurba_marseille","lat":43.26232,"lon":5.38771,"is_reserved":false,"is_disabled":true,"rental_uris":{"android":"levelo://app?vid=b99fa2fa-6caa-4e97-a941-8427d6ff2309","ios":"levelo://app?vid=b99fa2fa-6caa-4e97-a941-8427d6ff2309"},"vehicle_type_id":"4","last_reported":1783270467,"current_range_meters":6400,"station_id":"st_d8gjfg747rts73coq3b0","pricing_plan_id":"cebpf4jnsgd1na2vs0mg"},{"bike_id":"f60692a9-19ec-4a66-af36-94731e7a61e2","system_id":"levelo_inurba_marseille","lat":43.27615,"lon":5.36068,"is_reserved":false,"is_disabled":false,"rental_uris":{"android":"levelo://app?vid=f60692a9-19ec-4a66-af36-94731e7a61e2","ios":"levelo://app?vid=f60692a9-19ec-4a66-af36-94731e7a61e2"},"vehicle_type_id":"4","last_reported":1783270467,"current_range_meters":6400,"station_id":"ce4bgj92rcd13ifvqbe0","pricing_plan_id":"cebpf4jnsgd1na2vs0mg"},{"bike_id":"3892050e-cb6a-457e-90e6-5def440715fd","system_id":"levelo_inurba_marseille","lat":43.28704,"lon":5.46683,"is_reserved":false,"is_disabled":false,"rental_uris":{"android":"levelo://app?vid=3892050e-cb6a-457e-90e6-5def440715fd","ios":"levelo://app?vid=3892050e-cb6a-457e-90e6-5def440715fd"},"vehicle_type_id":"4","last_reported":1783270467,"current_range_meters":6400,"station_id":"st_d6tc3vkotcvc738tfjhg","pricing_plan_id":"cebpf4jnsgd1na2vs0mg"},{"bike_id":"66f64495-157d-434d-a3ef-5a17f45e04e3","system_id":"levelo_inurba_marseille","lat":43.24104,"lon":5.40925,"is_reserved":false,"is_disabled":false,"rental_uris":{"android":"levelo://app?vid=66f64495-157d-434d-a3ef-5a17f45e04e3","ios":"levelo://app?vid=66f64495-157d-434d-a3ef-5a17f45e04e3"},"vehicle_type_id":"4","last_reported":1783270467,"current_range_meters":6400,"station_id":"","pricing_plan_id":"cebpf4jnsgd1na2vs0mg"},{"bike_id":"69b899a9-4a02-43d0-85be-0e8d44e32b8e","system_id":"levelo_inurba_marseille","lat":43.27961,"lon":5.38752,"is_reserved":false,"is_disabled":false,"rental_uris":{"android":"levelo://app?vid=69b899a9-4a02-43d0-85be-0e8d44e32b8e","ios":"levelo://app?vid=69b899a9-4a02-43d0-85be-0e8d44e32b8e"},"vehicle_type_id":"4","last_reported":1783270467,"current_range_meters":6400,"station_id":"ce4bhg12rcd13ifvqf80","pricing_plan_id":"cebpf4jnsgd1na2vs0mg"},{"bike_id":"95e2c5d3-ee09-417b-93c0-7f04fa895ada","system_id":"levelo_inurba_marseille","lat":43.31954,"lon":5.37357,"is_reserved":false,"is_disabled":false,"rental_uris":{"android":"levelo://app?vid=95e2c5d3-ee09-417b-93c0-7f04fa895ada","ios":"levelo://app?vid=95e2c5d3-ee09-417b-93c0-7f04fa895ada"},"vehicle_type_id":"4","last_reported":1783270467,"current_range_meters":6400,"station_id":"","pricing_plan_id":"cebpf4jnsgd1na2vs0mg"},{"bike_id":"d230c7da-04b9-477c-ac31-d2650e0427fd","system_id":"levelo_inurba_marseille","lat":43.31138,"lon":5.37753,"is_reserved":false,"is_disabled":true,"rental_uris":{"android":"levelo://app?vid=d230c7da-04b9-477c-ac31-d2650e0427fd","ios":"levelo://app?vid=d230c7da-04b9-477c-ac31-d2650e0427fd"},"vehicle_type_id":"4","last_reported":1783270467,"current_range_meters":6400,"station_id":"ce4bgt92rcd13ifvqcg0","pricing_plan_id":"cebpf4jnsgd1na2vs0mg"},{"bike_id":"7f12e5a2-955f-42a0-87a4-54480f18e191","system_id":"levelo_inurba_marseille","lat":43.289465,"lon":5.363946,"is_reserved":false,"is_disabled":false,"rental_uris":{"android":"levelo://app?vid=7f12e5a2-955f-42a0-87a4-54480f18e191","ios":"levelo://app?vid=7f12e5a2-955f-42a0-87a4-54480f18e191"},"vehicle_type_id":"4","last_reported":1783270467,"current_range_meters":6400,"station_id":"","pricing_plan_id":"cebpf4jnsgd1na2vs0mg"},{"bike_id":"6c83a1d2-0261-4cb8-9609-a9d6494b40a6","system_id":"levelo_inurba_marseille","lat":43.29394,"lon":5.37573,"is_reserved":false,"is_disabled":false,"rental_uris":{"android":"levelo://app?vid=6c83a1d2-0261-4cb8-9609-a9d6494b40a6","ios":"levelo://app?vid=6c83a1d2-0261-4cb8-9609-a9d6494b40a6"},"vehicle_type_id":"4","last_reported":1783270467,"current_range_meters":6400,"station_id":"","pricing_plan_id":"cebpf4jnsgd1na2vs0mg"},{"bike_id":"271ffcb0-4e48-4b79-ba90-b9b02e8bb4d2","system_id":"levelo_inurba_marseille","lat":43.24166,"lon":5.36395,"is_reserved":false,"is_disabled":false,"rental_uris":{"android":"levelo://app?vid=271ffcb0-4e48-4b79-ba90-b9b02e8bb4d2","ios":"levelo://app?vid=271ffcb0-4e48-4b79-ba90-b9b02e8bb4d2"},"vehicle_type_id":"4","last_reported":1783270467,"current_range_meters":6400,"station_id":"cpo36qri1sfpv3e86is0","pricing_plan_id":"cebpf4jnsgd1na2vs0mg"},{"bike_id":"d0c0c075-24a6-4022-bf20-68515e3775b7","system_id":"levelo_inurba_marseille","lat":43.28408,"lon":5.34986,"is_reserved":false,"is_disabled":false,"rental_uris":{"android":"levelo://app?vid=d0c0c075-24a6-4022-bf20-68515e3775b7","ios":"levelo://app?vid=d0c0c075-24a6-4022-bf20-68515e3775b7"},"vehicle_type_id":"4","last_reported":1783270467,"current_range_meters":6800,"station_id":"ce4bhbh2rcd13ifvqepg","pricing_plan_id":"cebpf4jnsgd1na2vs0mg"},{"bike_id":"9715e161-fe0b-4fe6-97bd-4f0e825ea45b","system_id":"levelo_inurba_marseille","lat":43.26222,"lon":5.3742,"is_reserved":false,"is_disabled":false,"rental_uris":{"android":"levelo://app?vid=9715e161-fe0b-4fe6-97bd-4f0e825ea45b","ios":"levelo://app?vid=9715e161-fe0b-4fe6-97bd-4f0e825ea45b"},"vehicle_type_id":"4","last_reported":1783270467,"current_range_meters":6800,"station_id":"","pricing_plan_id":"cebpf4jnsgd1na2vs0mg"},{"bike_id":"08aa9e82-acd5-4c73-9542-29caeaf3b759","system_id":"levelo_inurba_marseille","lat":43.29993,"lon":5.37167,"is_reserved":false,"is_disabled":false,"rental_uris":{"android":"levelo://app?vid=08aa9e82-acd5-4c73-9542-29caeaf3b759","ios":"levelo://app?vid=08aa9e82-acd5-4c73-9542-29caeaf3b759"},"vehicle_type_id":"4","last_reported":1783270467,"current_range_meters":6800,"station_id":"ce4bgr92rcd13ifvqc7g","pricing_plan_id":"cebpf4jnsgd1na2vs0mg"},{"bike_id":"8add3d14-7583-4bbe-a39a-8070d5f4d47a","system_id":"levelo_inurba_marseille","lat":43.32509,"lon":5.38299,"is_reserved":false,"is_disabled":false,"rental_uris":{"android":"levelo://app?vid=8add3d14-7583-4bbe-a39a-8070d5f4d47a","ios":"levelo://app?vid=8add3d14-7583-4bbe-a39a-8070d5f4d47a"},"vehicle_type_id":"4","last_reported":1783270467,"current_range_meters":6800,"station_id":"st_d4asgbiv49dc73anf9m0","pricing_plan_id":"cebpf4jnsgd1na2vs0mg"},{"bike_id":"d1f95cf9-3c50-44e1-afec-1a16e5b009af","system_id":"levelo_inurba_marseille","lat":43.266713,"lon":5.372395,"is_reserved":false,"is_disabled":false,"rental_uris":{"android":"levelo://app?vid=d1f95cf9-3c50-44e1-afec-1a16e5b009af","ios":"levelo://app?vid=d1f95cf9-3c50-44e1-afec-1a16e5b009af"},"vehicle_type_id":"4","last_reported":1783270467,"current_range_meters":6800,"station_id":"","pricing_plan_id":"cebpf4jnsgd1na2vs0mg"},{"bike_id":"e212048e-36e5-4dea-a4dc-4f4603b01b54","system_id":"levelo_inurba_marseille","lat":43.30145,"lon":5.381,"is_reserved":false,"is_disabled":true,"rental_uris":{"android":"levelo://app?vid=e212048e-36e5-4dea-a4dc-4f4603b01b54","ios":"levelo://app?vid=e212048e-36e5-4dea-a4dc-4f4603b01b54"},"vehicle_type_id":"4","last_reported":1783270467,"current_range_meters":6800,"station_id":"ce4bgjp2rcd13ifvqbh0","pricing_plan_id":"cebpf4jnsgd1na2vs0mg"},{"bike_id":"2d3dd4f4-c2be-4315-be3d-f35763bc2c71","system_id":"levelo_inurba_marseille","lat":43.26709,"lon":5.40196,"is_reserved":false,"is_disabled":false,"rental_uris":{"android":"levelo://app?vid=2d3dd4f4-c2be-4315-be3d-f35763bc2c71","ios":"levelo://app?vid=2d3dd4f4-c2be-4315-be3d-f35763bc2c71"},"vehicle_type_id":"4","last_reported":1783270467,"current_range_meters":6800,"station_id":"","pricing_plan_id":"cebpf4jnsgd1na2vs0mg"},{"bike_id":"6988656b-b9bf-42fd-86c6-85441f215ca5","system_id":"levelo_inurba_marseille","lat":43.2121,"lon":5.35042,"is_reserved":false,"is_disabled":false,"rental_uris":{"android":"levelo://app?vid=6988656b-b9bf-42fd-86c6-85441f215ca5","ios":"levelo://app?vid=6988656b-b9bf-42fd-86c6-85441f215ca5"},"vehicle_type_id":"4","last_reported":1783270467,"current_range_meters":6800,"station_id":"st_cvj6sg6p6f1abm77japg","pricing_plan_id":"cebpf4jnsgd1na2vs0mg"},{"bike_id":"73c8701a-5534-4d6e-b634-9acc1e8fe67a","system_id":"levelo_inurba_marseille","lat":43.27483,"lon":5.42469,"is_reserved":false,"is_disabled":false,"rental_uris":{"android":"levelo://app?vid=73c8701a-5534-4d6e-b634-9acc1e8fe67a","ios":"levelo://app?vid=73c8701a-5534-4d6e-b634-9acc1e8fe67a"},"vehicle_type_id":"4","last_reported":1783270467,"current_range_meters":6800,"station_id":"ce4bhn92rcd13ifvqgrg","pricing_plan_id":"cebpf4jnsgd1na2vs0mg"},{"bike_id":"8573ae4c-c9fc-4ff8-a5e9-0df2486e1c40","system_id":"levelo_inurba_marseille","lat":43.26008,"lon":5.37549,"is_reserved":false,"is_disabled":true,"rental_uris":{"android":"levelo://app?vid=8573ae4c-c9fc-4ff8-a5e9-0df2486e1c40","ios":"levelo://app?vid=8573ae4c-c9fc-4ff8-a5e9-0df2486e1c40"},"vehicle_type_id":"4","last_reported":1783270467,"current_range_meters":6800,"station_id":"ce4bhgh2rcd13ifvqfa0","pricing_plan_id":"cebpf4jnsgd1na2vs0mg"},{"bike_id":"8fec6c78-b460-42d7-b78b-be9ed7c2fffd","system_id":"levelo_inurba_marseille","lat":43.28152,"lon":5.42632,"is_reserved":false,"is_disabled":false,"rental_uris":{"android":"levelo://app?vid=8fec6c78-b460-42d7-b78b-be9ed7c2fffd","ios":"levelo://app?vid=8fec6c78-b460-42d7-b78b-be9ed7c2fffd"},"vehicle_type_id":"4","last_reported":1783270467,"current_range_meters":6800,"station_id":"ce4bhnh2rcd13ifvqgug","pricing_plan_id":"cebpf4jnsgd1na2vs0mg"},{"bike_id":"ced74b9f-b178-40c4-b05a-f65c4f2b3f5d","system_id":"levelo_inurba_marseille","lat":43.27948,"lon":5.41039,"is_reserved":false,"is_disabled":true,"rental_uris":{"android":"levelo://app?vid=ced74b9f-b178-40c4-b05a-f65c4f2b3f5d","ios":"levelo://app?vid=ced74b9f-b178-40c4-b05a-f65c4f2b3f5d"},"vehicle_type_id":"4","last_reported":1783270467,"current_range_meters":6800,"station_id":"ce4bhnp2rcd13ifvqh0g","pricing_plan_id":"cebpf4jnsgd1na2vs0mg"},{"bike_id":"1bc69c0e-0bef-4dd0-9c32-f25cac91de35","system_id":"levelo_inurba_marseille","lat":43.26884,"lon":5.36956,"is_reserved":false,"is_disabled":false,"rental_uris":{"android":"levelo://app?vid=1bc69c0e-0bef-4dd0-9c32-f25cac91de35","ios":"levelo://app?vid=1bc69c0e-0bef-4dd0-9c32-f25cac91de35"},"vehicle_type_id":"4","last_reported":1783270467,"current_range_meters":6800,"station_id":"","pricing_plan_id":"cebpf4jnsgd1na2vs0mg"},{"bike_id":"cc738f32-f811-4e3f-b968-0bc0d7c9be0d","system_id":"levelo_inurba_marseille","lat":43.29259,"lon":5.40915,"is_reserved":false,"is_disabled":true,"rental_uris":{"android":"levelo://app?vid=cc738f32-f811-4e3f-b968-0bc0d7c9be0d","ios":"levelo://app?vid=cc738f32-f811-4e3f-b968-0bc0d7c9be0d"},"vehicle_type_id":"4","last_reported":1783270467,"current_range_meters":6800,"station_id":"ce4bh192rcd13ifvqdc0","pricing_plan_id":"cebpf4jnsgd1na2vs0mg"},{"bike_id":"1312c059-2abf-47df-8b50-9a4c760a9972","system_id":"levelo_inurba_marseille","lat":43.29973,"lon":5.37144,"is_reserved":false,"is_disabled":false,"rental_uris":{"android":"levelo://app?vid=1312c059-2abf-47df-8b50-9a4c760a9972","ios":"levelo://app?vid=1312c059-2abf-47df-8b50-9a4c760a9972"},"vehicle_type_id":"4","last_reported":1783270467,"current_range_meters":6800,"station_id":"ce4bgr92rcd13ifvqc7g","pricing_plan_id":"cebpf4jnsgd1na2vs0mg"},{"bike_id":"d542e80b-c621-4744-a175-6c723a1aa866","system_id":"levelo_inurba_marseille","lat":43.29353,"lon":5.44629,"is_reserved":false,"is_disabled":false,"rental_uris":{"android":"levelo://app?vid=d542e80b-c621-4744-a175-6c723a1aa866","ios":"levelo://app?vid=d542e80b-c621-4744-a175-6c723a1aa866"},"vehicle_type_id":"4","last_reported":1783270467,"current_range_meters":6800,"station_id":"","pricing_plan_id":"cebpf4jnsgd1na2vs0mg"},{"bike_id":"ce96bab4-bfc4-4150-8d40-74272b92e348","system_id":"levelo_inurba_marseille","lat":43.23191,"lon":5.35552,"is_reserved":false,"is_disabled":false,"rental_uris":{"android":"levelo://app?vid=ce96bab4-bfc4-4150-8d40-74272b92e348","ios":"levelo://app?vid=ce96bab4-bfc4-4150-8d40-74272b92e348"},"vehicle_type_id":"4","last_reported":1783270467,"current_range_meters":6800,"station_id":"ce4bhu92rcd13ifvqi70","pricing_plan_id":"cebpf4jnsgd1na2vs0mg"},{"bike_id":"83ea9e4a-86e4-412b-a064-234ce27c276c","system_id":"levelo_inurba_marseille","lat":43.29449,"lon":5.39746,"is_reserved":false,"is_disabled":false,"rental_uris":{"android":"levelo://app?vid=83ea9e4a-86e4-412b-a064-234ce27c276c","ios":"levelo://app?vid=83ea9e4a-86e4-412b-a064-234ce27c276c"},"vehicle_type_id":"4","last_reported":1783270467,"current_range_meters":6800,"station_id":"ce4bh3h2rcd13ifvqdo0","pricing_plan_id":"cebpf4jnsgd1na2vs0mg"},{"bike_id":"4ea05420-4688-4f88-ab4d-87e93bd11b74","system_id":"levelo_inurba_marseille","lat":43.29234,"lon":5.40906,"is_reserved":false,"is_disabled":false,"rental_uris":{"android":"levelo://app?vid=4ea05420-4688-4f88-ab4d-87e93bd11b74","ios":"levelo://app?vid=4ea05420-4688-4f88-ab4d-87e93bd11b74"},"vehicle_type_id":"4","last_reported":1783270467,"current_range_meters":6800,"station_id":"ce4bh192rcd13ifvqdc0","pricing_plan_id":"cebpf4jnsgd1na2vs0mg"},{"bike_id":"44ac5658-8402-4afd-a922-7976582b02d3","system_id":"levelo_inurba_marseille","lat":43.31045,"lon":5.37185,"is_reserved":false,"is_disabled":false,"rental_uris":{"android":"levelo://app?vid=44ac5658-8402-4afd-a922-7976582b02d3","ios":"levelo://app?vid=44ac5658-8402-4afd-a922-7976582b02d3"},"vehicle_type_id":"4","last_reported":1783270467,"current_range_meters":6800,"station_id":"st_d4kl2rp97mjs73e7tdfg","pricing_plan_id":"cebpf4jnsgd1na2vs0mg"},{"bike_id":"acb6b183-d4d6-4d8e-974e-924b61f91a80","system_id":"levelo_inurba_marseille","lat":43.3441,"lon":5.42044,"is_reserved":false,"is_disabled":false,"rental_uris":{"android":"levelo://app?vid=acb6b183-d4d6-4d8e-974e-924b61f91a80","ios":"levelo://app?vid=acb6b183-d4d6-4d8e-974e-924b61f91a80"},"vehicle_type_id":"4","last_reported":1783270467,"current_range_meters":6800,"station_id":"","pricing_plan_id":"cebpf4jnsgd1na2vs0mg"},{"bike_id":"fc5d7b22-bed1-4640-a4b2-9379b1406486","system_id":"levelo_inurba_marseille","lat":43.29423,"lon":5.38443,"is_reserved":false,"is_disabled":true,"rental_uris":{"android":"levelo://app?vid=fc5d7b22-bed1-4640-a4b2-9379b1406486","ios":"levelo://app?vid=fc5d7b22-bed1-4640-a4b2-9379b1406486"},"vehicle_type_id":"4","last_reported":1783270467,"current_range_meters":6800,"station_id":"","pricing_plan_id":"cebpf4jnsgd1na2vs0mg"},{"bike_id":"4b306b1b-f9cd-4984-9198-efac61832370","system_id":"levelo_inurba_marseille","lat":43.28622,"lon":5.35111,"is_reserved":false,"is_disabled":false,"rental_uris":{"android":"levelo://app?vid=4b306b1b-f9cd-4984-9198-efac61832370","ios":"levelo://app?vid=4b306b1b-f9cd-4984-9198-efac61832370"},"vehicle_type_id":"4","last_reported":1783270467,"current_range_meters":6800,"station_id":"ce4bhch2rcd13ifvqeug","pricing_plan_id":"cebpf4jnsgd1na2vs0mg"},{"bike_id":"f7826c83-beb8-416f-bc97-d9c1cfbddb0b","system_id":"levelo_inurba_marseille","lat":43.2517,"lon":5.40451,"is_reserved":false,"is_disabled":false,"rental_uris":{"android":"levelo://app?vid=f7826c83-beb8-416f-bc97-d9c1cfbddb0b","ios":"levelo://app?vid=f7826c83-beb8-416f-bc97-d9c1cfbddb0b"},"vehicle_type_id":"4","last_reported":1783270467,"current_range_meters":6800,"station_id":"","pricing_plan_id":"cebpf4jnsgd1na2vs0mg"},{"bike_id":"c0745881-8768-45bb-a45d-2861426a25fc","system_id":"levelo_inurba_marseille","lat":43.25508,"lon":5.37651,"is_reserved":false,"is_disabled":false,"rental_uris":{"android":"levelo://app?vid=c0745881-8768-45bb-a45d-2861426a25fc","ios":"levelo://app?vid=c0745881-8768-45bb-a45d-2861426a25fc"},"vehicle_type_id":"4","last_reported":1783270467,"current_range_meters":6800,"station_id":"ce4bhh12rcd13ifvqff0","pricing_plan_id":"cebpf4jnsgd1na2vs0mg"},{"bike_id":"88755b74-0cb4-457b-a9d7-bb6362416065","system_id":"levelo_inurba_marseille","lat":43.28728,"lon":5.37371,"is_reserved":false,"is_disabled":false,"rental_uris":{"android":"levelo://app?vid=88755b74-0cb4-457b-a9d7-bb6362416065","ios":"levelo://app?vid=88755b74-0cb4-457b-a9d7-bb6362416065"},"vehicle_type_id":"4","last_reported":1783270467,"current_range_meters":6800,"station_id":"ce4bh3p2rcd13ifvqdq0","pricing_plan_id":"cebpf4jnsgd1na2vs0mg"},{"bike_id":"042aa53d-4ec3-477c-b412-9e56cf0ac38d","system_id":"levelo_inurba_marseille","lat":43.31913,"lon":5.36808,"is_reserved":false,"is_disabled":false,"rental_uris":{"android":"levelo://app?vid=042aa53d-4ec3-477c-b412-9e56cf0ac38d","ios":"levelo://app?vid=042aa53d-4ec3-477c-b412-9e56cf0ac38d"},"vehicle_type_id":"4","last_reported":1783270467,"current_range_meters":7200,"station_id":"st_d6o2h0d0559c73evc1b0","pricing_plan_id":"cebpf4jnsgd1na2vs0mg"},{"bike_id":"c9cc1ff6-8ef1-4a6b-b347-055dbee3bd96","system_id":"levelo_inurba_marseille","lat":43.290416,"lon":5.375598,"is_reserved":false,"is_disabled":false,"rental_uris":{"android":"levelo://app?vid=c9cc1ff6-8ef1-4a6b-b347-055dbee3bd96","ios":"levelo://app?vid=c9cc1ff6-8ef1-4a6b-b347-055dbee3bd96"},"vehicle_type_id":"4","last_reported":1783270467,"current_range_meters":7200,"station_id":"ce4bh692rcd13ifvqe90","pricing_plan_id":"cebpf4jnsgd1na2vs0mg"},{"bike_id":"d3cd9571-4983-47b4-bcd2-4b7d6f46304f","system_id":"levelo_inurba_marseille","lat":43.23782,"lon":5.36594,"is_reserved":false,"is_disabled":false,"rental_uris":{"android":"levelo://app?vid=d3cd9571-4983-47b4-bcd2-4b7d6f46304f","ios":"levelo://app?vid=d3cd9571-4983-47b4-bcd2-4b7d6f46304f"},"vehicle_type_id":"4","last_reported":1783270467,"current_range_meters":7200,"station_id":"st_d3nk18o9ro0c73en2l3g","pricing_plan_id":"cebpf4jnsgd1na2vs0mg"},{"bike_id":"f19ac97e-9f1f-4ead-bcd8-93ab9ea02fc4","system_id":"levelo_inurba_marseille","lat":43.28723,"lon":5.36078,"is_reserved":false,"is_disabled":false,"rental_uris":{"android":"levelo://app?vid=f19ac97e-9f1f-4ead-bcd8-93ab9ea02fc4","ios":"levelo://app?vid=f19ac97e-9f1f-4ead-bcd8-93ab9ea02fc4"},"vehicle_type_id":"4","last_reported":1783270467,"current_range_meters":7200,"station_id":"cki0cbj6b192h4jlfktg","pricing_plan_id":"cebpf4jnsgd1na2vs0mg"},{"bike_id":"2f88886a-e90c-4139-b8e8-8df6a6e5203a","system_id":"levelo_inurba_marseille","lat":43.246626,"lon":5.381597,"is_reserved":false,"is_disabled":false,"rental_uris":{"android":"levelo://app?vid=2f88886a-e90c-4139-b8e8-8df6a6e5203a","ios":"levelo://app?vid=2f88886a-e90c-4139-b8e8-8df6a6e5203a"},"vehicle_type_id":"4","last_reported":1783270467,"current_range_meters":7200,"station_id":"ce4bhih2rcd13ifvqfr0","pricing_plan_id":"cebpf4jnsgd1na2vs0mg"},{"bike_id":"1d30d6ff-b1bb-4cfd-b875-5cb3d4cf0306","system_id":"levelo_inurba_marseille","lat":43.29265,"lon":5.38434,"is_reserved":false,"is_disabled":false,"rental_uris":{"android":"levelo://app?vid=1d30d6ff-b1bb-4cfd-b875-5cb3d4cf0306","ios":"levelo://app?vid=1d30d6ff-b1bb-4cfd-b875-5cb3d4cf0306"},"vehicle_type_id":"4","last_reported":1783270467,"current_range_meters":7200,"station_id":"ce4bh692rcd13ifvqea0","pricing_plan_id":"cebpf4jnsgd1na2vs0mg"},{"bike_id":"88a63305-30b1-4ee9-a79e-cc5dc5b7d5d1","system_id":"levelo_inurba_marseille","lat":43.269478,"lon":5.386252,"is_reserved":false,"is_disabled":false,"rental_uris":{"android":"levelo://app?vid=88a63305-30b1-4ee9-a79e-cc5dc5b7d5d1","ios":"levelo://app?vid=88a63305-30b1-4ee9-a79e-cc5dc5b7d5d1"},"vehicle_type_id":"4","last_reported":1783270467,"current_range_meters":7200,"station_id":"ce4bhh92rcd13ifvqfh0","pricing_plan_id":"cebpf4jnsgd1na2vs0mg"},{"bike_id":"12b2d4ce-4735-4507-9fde-29557bacb2eb","system_id":"levelo_inurba_marseille","lat":43.28483,"lon":5.48395,"is_reserved":false,"is_disabled":false,"rental_uris":{"android":"levelo://app?vid=12b2d4ce-4735-4507-9fde-29557bacb2eb","ios":"levelo://app?vid=12b2d4ce-4735-4507-9fde-29557bacb2eb"},"vehicle_type_id":"4","last_reported":1783270467,"current_range_meters":7200,"station_id":"st_d3svhcjqgbts73a3dn0g","pricing_plan_id":"cebpf4jnsgd1na2vs0mg"},{"bike_id":"3fcf6205-f23c-4cee-8363-04389955351d","system_id":"levelo_inurba_marseille","lat":43.22571,"lon":5.4164,"is_reserved":false,"is_disabled":false,"rental_uris":{"android":"levelo://app?vid=3fcf6205-f23c-4cee-8363-04389955351d","ios":"levelo://app?vid=3fcf6205-f23c-4cee-8363-04389955351d"},"vehicle_type_id":"4","last_reported":1783270467,"current_range_meters":7200,"station_id":"st_d2o4gvlbi1j2169b742g","pricing_plan_id":"cebpf4jnsgd1na2vs0mg"},{"bike_id":"e21b25e3-cdbf-4694-9a84-c74b628bddb8","system_id":"levelo_inurba_marseille","lat":43.26066,"lon":5.39395,"is_reserved":false,"is_disabled":false,"rental_uris":{"android":"levelo://app?vid=e21b25e3-cdbf-4694-9a84-c74b628bddb8","ios":"levelo://app?vid=e21b25e3-cdbf-4694-9a84-c74b628bddb8"},"vehicle_type_id":"4","last_reported":1783270467,"current_range_meters":7200,"station_id":"ce4bhh92rcd13ifvqfj0","pricing_plan_id":"cebpf4jnsgd1na2vs0mg"},{"bike_id":"f1fa67ea-70e8-494e-90f1-3cd8a54e2aac","system_id":"levelo_inurba_marseille","lat":43.282779,"lon":5.350631,"is_reserved":false,"is_disabled":true,"rental_uris":{"android":"levelo://app?vid=f1fa67ea-70e8-494e-90f1-3cd8a54e2aac","ios":"levelo://app?vid=f1fa67ea-70e8-494e-90f1-3cd8a54e2aac"},"vehicle_type_id":"4","last_reported":1783270467,"current_range_meters":7200,"station_id":"ce4bhbp2rcd13ifvqerg","pricing_plan_id":"cebpf4jnsgd1na2vs0mg"},{"bike_id":"40e722f2-64dd-416f-9e57-d96111c77e32","system_id":"levelo_inurba_marseille","lat":43.28688,"lon":5.46705,"is_reserved":false,"is_disabled":false,"rental_uris":{"android":"levelo://app?vid=40e722f2-64dd-416f-9e57-d96111c77e32","ios":"levelo://app?vid=40e722f2-64dd-416f-9e57-d96111c77e32"},"vehicle_type_id":"4","last_reported":1783270467,"current_range_meters":7200,"station_id":"st_d6tc3vkotcvc738tfjhg","pricing_plan_id":"cebpf4jnsgd1na2vs0mg"},{"bike_id":"3f710a02-f8be-4a72-b3a0-95c91d6b2d5b","system_id":"levelo_inurba_marseille","lat":43.27922,"lon":5.39579,"is_reserved":false,"is_disabled":false,"rental_uris":{"android":"levelo://app?vid=3f710a02-f8be-4a72-b3a0-95c91d6b2d5b","ios":"levelo://app?vid=3f710a02-f8be-4a72-b3a0-95c91d6b2d5b"},"vehicle_type_id":"4","last_reported":1783270467,"current_range_meters":7200,"station_id":"ce4bhf92rcd13ifvqf40","pricing_plan_id":"cebpf4jnsgd1na2vs0mg"},{"bike_id":"d51d3555-13dc-4b21-8aad-599e9c9970b7","system_id":"levelo_inurba_marseille","lat":43.29353,"lon":5.3786,"is_reserved":false,"is_disabled":false,"rental_uris":{"android":"levelo://app?vid=d51d3555-13dc-4b21-8aad-599e9c9970b7","ios":"levelo://app?vid=d51d3555-13dc-4b21-8aad-599e9c9970b7"},"vehicle_type_id":"4","last_reported":1783270467,"current_range_meters":7200,"station_id":"ce4bgjh2rcd13ifvqbf0","pricing_plan_id":"cebpf4jnsgd1na2vs0mg"},{"bike_id":"f9ec92df-c6af-4639-8edf-653397312b1a","system_id":"levelo_inurba_marseille","lat":43.27376,"lon":5.36253,"is_reserved":false,"is_disabled":false,"rental_uris":{"android":"levelo://app?vid=f9ec92df-c6af-4639-8edf-653397312b1a","ios":"levelo://app?vid=f9ec92df-c6af-4639-8edf-653397312b1a"},"vehicle_type_id":"4","last_reported":1783270467,"current_range_meters":7200,"station_id":"ce4bhbh2rcd13ifvqeo0","pricing_plan_id":"cebpf4jnsgd1na2vs0mg"},{"bike_id":"ebb69cdb-f57c-486a-9d37-3814132e26e5","system_id":"levelo_inurba_marseille","lat":43.28042,"lon":5.36931,"is_reserved":false,"is_disabled":true,"rental_uris":{"android":"levelo://app?vid=ebb69cdb-f57c-486a-9d37-3814132e26e5","ios":"levelo://app?vid=ebb69cdb-f57c-486a-9d37-3814132e26e5"},"vehicle_type_id":"4","last_reported":1783270467,"current_range_meters":7200,"station_id":"ce4bha12rcd13ifvqef0","pricing_plan_id":"cebpf4jnsgd1na2vs0mg"},{"bike_id":"a4f9ee3b-b427-4829-b639-bd7508b29e83","system_id":"levelo_inurba_marseille","lat":43.282675,"lon":5.350586,"is_reserved":false,"is_disabled":true,"rental_uris":{"android":"levelo://app?vid=a4f9ee3b-b427-4829-b639-bd7508b29e83","ios":"levelo://app?vid=a4f9ee3b-b427-4829-b639-bd7508b29e83"},"vehicle_type_id":"4","last_reported":1783270467,"current_range_meters":7200,"station_id":"ce4bhbp2rcd13ifvqerg","pricing_plan_id":"cebpf4jnsgd1na2vs0mg"},{"bike_id":"8bc199c6-fa2d-4c70-9249-7d435dcab9a6","system_id":"levelo_inurba_marseille","lat":43.29263,"lon":5.36828,"is_reserved":false,"is_disabled":true,"rental_uris":{"android":"levelo://app?vid=8bc199c6-fa2d-4c70-9249-7d435dcab9a6","ios":"levelo://app?vid=8bc199c6-fa2d-4c70-9249-7d435dcab9a6"},"vehicle_type_id":"4","last_reported":1783270467,"current_range_meters":7200,"station_id":"ce4bhbp2rcd13ifvqesg","pricing_plan_id":"cebpf4jnsgd1na2vs0mg"},{"bike_id":"8927a17e-8b05-4815-a457-76d4ba26fefd","system_id":"levelo_inurba_marseille","lat":43.290029,"lon":5.356133,"is_reserved":false,"is_disabled":false,"rental_uris":{"android":"levelo://app?vid=8927a17e-8b05-4815-a457-76d4ba26fefd","ios":"levelo://app?vid=8927a17e-8b05-4815-a457-76d4ba26fefd"},"vehicle_type_id":"4","last_reported":1783270467,"current_range_meters":7200,"station_id":"ce4bhb92rcd13ifvqen0","pricing_plan_id":"cebpf4jnsgd1na2vs0mg"},{"bike_id":"f56c5a55-490f-470f-bccd-8a878283165b","system_id":"levelo_inurba_marseille","lat":43.31813,"lon":5.36836,"is_reserved":false,"is_disabled":false,"rental_uris":{"android":"levelo://app?vid=f56c5a55-490f-470f-bccd-8a878283165b","ios":"levelo://app?vid=f56c5a55-490f-470f-bccd-8a878283165b"},"vehicle_type_id":"4","last_reported":1783270467,"current_range_meters":7200,"station_id":"","pricing_plan_id":"cebpf4jnsgd1na2vs0mg"},{"bike_id":"ca803bbb-df34-4e95-a7c2-94aa897ae6b5","system_id":"levelo_inurba_marseille","lat":43.28705,"lon":5.46684,"is_reserved":false,"is_disabled":false,"rental_uris":{"android":"levelo://app?vid=ca803bbb-df34-4e95-a7c2-94aa897ae6b5","ios":"levelo://app?vid=ca803bbb-df34-4e95-a7c2-94aa897ae6b5"},"vehicle_type_id":"4","last_reported":1783270467,"current_range_meters":7200,"station_id":"st_d6tc3vkotcvc738tfjhg","pricing_plan_id":"cebpf4jnsgd1na2vs0mg"},{"bike_id":"75efaf6c-211b-4195-9354-372029404c1d","system_id":"levelo_inurba_marseille","lat":43.25079,"lon":5.39502,"is_reserved":false,"is_disabled":false,"rental_uris":{"android":"levelo://app?vid=75efaf6c-211b-4195-9354-372029404c1d","ios":"levelo://app?vid=75efaf6c-211b-4195-9354-372029404c1d"},"vehicle_type_id":"4","last_reported":1783270467,"current_range_meters":7200,"station_id":"ce4bhm12rcd13ifvqgkg","pricing_plan_id":"cebpf4jnsgd1na2vs0mg"},{"bike_id":"537ca998-8fd3-4dae-915c-356daecbb82f","system_id":"levelo_inurba_marseille","lat":43.29027,"lon":5.38642,"is_reserved":false,"is_disabled":true,"rental_uris":{"android":"levelo://app?vid=537ca998-8fd3-4dae-915c-356daecbb82f","ios":"levelo://app?vid=537ca998-8fd3-4dae-915c-356daecbb82f"},"vehicle_type_id":"4","last_reported":1783270467,"current_range_meters":7200,"station_id":"ce4bh4p2rcd13ifvqe0g","pricing_plan_id":"cebpf4jnsgd1na2vs0mg"},{"bike_id":"2bd79137-03b5-4309-b0d7-20c725d16088","system_id":"levelo_inurba_marseille","lat":43.30921,"lon":5.36817,"is_reserved":false,"is_disabled":false,"rental_uris":{"android":"levelo://app?vid=2bd79137-03b5-4309-b0d7-20c725d16088","ios":"levelo://app?vid=2bd79137-03b5-4309-b0d7-20c725d16088"},"vehicle_type_id":"4","last_reported":1783270467,"current_range_meters":7200,"station_id":"ce4bgn92rcd13ifvqbvg","pricing_plan_id":"cebpf4jnsgd1na2vs0mg"},{"bike_id":"b6aa2529-47a5-48dc-8a53-0cb13d718c83","system_id":"levelo_inurba_marseille","lat":43.23299,"lon":5.4083,"is_reserved":false,"is_disabled":false,"rental_uris":{"android":"levelo://app?vid=b6aa2529-47a5-48dc-8a53-0cb13d718c83","ios":"levelo://app?vid=b6aa2529-47a5-48dc-8a53-0cb13d718c83"},"vehicle_type_id":"4","last_reported":1783270467,"current_range_meters":7200,"station_id":"","pricing_plan_id":"cebpf4jnsgd1na2vs0mg"},{"bike_id":"381c7172-8901-4bcc-a25d-1acd42bbe123","system_id":"levelo_inurba_marseille","lat":43.28417,"lon":5.34979,"is_reserved":false,"is_disabled":false,"rental_uris":{"android":"levelo://app?vid=381c7172-8901-4bcc-a25d-1acd42bbe123","ios":"levelo://app?vid=381c7172-8901-4bcc-a25d-1acd42bbe123"},"vehicle_type_id":"4","last_reported":1783270467,"current_range_meters":7200,"station_id":"ce4bhbh2rcd13ifvqepg","pricing_plan_id":"cebpf4jnsgd1na2vs0mg"},{"bike_id":"c9445652-b236-402b-8ec1-fb5567a22b0f","system_id":"levelo_inurba_marseille","lat":43.24454,"lon":5.40934,"is_reserved":false,"is_disabled":false,"rental_uris":{"android":"levelo://app?vid=c9445652-b236-402b-8ec1-fb5567a22b0f","ios":"levelo://app?vid=c9445652-b236-402b-8ec1-fb5567a22b0f"},"vehicle_type_id":"4","last_reported":1783270467,"current_range_meters":7200,"station_id":"","pricing_plan_id":"cebpf4jnsgd1na2vs0mg"},{"bike_id":"e00d0afb-ac80-42d8-8e53-c3dd7e3d351c","system_id":"levelo_inurba_marseille","lat":43.26181,"lon":5.37516,"is_reserved":false,"is_disabled":false,"rental_uris":{"android":"levelo://app?vid=e00d0afb-ac80-42d8-8e53-c3dd7e3d351c","ios":"levelo://app?vid=e00d0afb-ac80-42d8-8e53-c3dd7e3d351c"},"vehicle_type_id":"4","last_reported":1783270467,"current_range_meters":7200,"station_id":"","pricing_plan_id":"cebpf4jnsgd1na2vs0mg"},{"bike_id":"9905bd4d-06c3-4b78-881b-047358c0d511","system_id":"levelo_inurba_marseille","lat":43.29275,"lon":5.3684,"is_reserved":false,"is_disabled":false,"rental_uris":{"android":"levelo://app?vid=9905bd4d-06c3-4b78-881b-047358c0d511","ios":"levelo://app?vid=9905bd4d-06c3-4b78-881b-047358c0d511"},"vehicle_type_id":"4","last_reported":1783270467,"current_range_meters":7200,"station_id":"ce4bhbp2rcd13ifvqesg","pricing_plan_id":"cebpf4jnsgd1na2vs0mg"},{"bike_id":"1157a392-9fb4-4baa-82a9-43b5970b4ece","system_id":"levelo_inurba_marseille","lat":43.27976,"lon":5.38737,"is_reserved":false,"is_disabled":false,"rental_uris":{"android":"levelo://app?vid=1157a392-9fb4-4baa-82a9-43b5970b4ece","ios":"levelo://app?vid=1157a392-9fb4-4baa-82a9-43b5970b4ece"},"vehicle_type_id":"4","last_reported":1783270467,"current_range_meters":7200,"station_id":"ce4bhg12rcd13ifvqf80","pricing_plan_id":"cebpf4jnsgd1na2vs0mg"},{"bike_id":"c1c88b11-92f5-437b-85af-b745aa920b32","system_id":"levelo_inurba_marseille","lat":43.2667,"lon":5.3873,"is_reserved":false,"is_disabled":false,"rental_uris":{"android":"levelo://app?vid=c1c88b11-92f5-437b-85af-b745aa920b32","ios":"levelo://app?vid=c1c88b11-92f5-437b-85af-b745aa920b32"},"vehicle_type_id":"4","last_reported":1783270467,"current_range_meters":7200,"station_id":"","pricing_plan_id":"cebpf4jnsgd1na2vs0mg"},{"bike_id":"6e28c7de-4432-46c6-8824-5a05812aca65","system_id":"levelo_inurba_marseille","lat":43.22534,"lon":5.3483,"is_reserved":false,"is_disabled":false,"rental_uris":{"android":"levelo://app?vid=6e28c7de-4432-46c6-8824-5a05812aca65","ios":"levelo://app?vid=6e28c7de-4432-46c6-8824-5a05812aca65"},"vehicle_type_id":"4","last_reported":1783270467,"current_range_meters":8000,"station_id":"st_cvj5dfep6f1abm77gieg","pricing_plan_id":"cebpf4jnsgd1na2vs0mg"},{"bike_id":"4e2267fe-2963-4438-b2a4-61f37a3ae96b","system_id":"levelo_inurba_marseille","lat":43.28845,"lon":5.35848,"is_reserved":false,"is_disabled":false,"rental_uris":{"android":"levelo://app?vid=4e2267fe-2963-4438-b2a4-61f37a3ae96b","ios":"levelo://app?vid=4e2267fe-2963-4438-b2a4-61f37a3ae96b"},"vehicle_type_id":"4","last_reported":1783270467,"current_range_meters":8000,"station_id":"ce4bhb12rcd13ifvqem0","pricing_plan_id":"cebpf4jnsgd1na2vs0mg"},{"bike_id":"e87ce516-f6a4-4d55-885b-e13f7bc80259","system_id":"levelo_inurba_marseille","lat":43.2928,"lon":5.36843,"is_reserved":false,"is_disabled":false,"rental_uris":{"android":"levelo://app?vid=e87ce516-f6a4-4d55-885b-e13f7bc80259","ios":"levelo://app?vid=e87ce516-f6a4-4d55-885b-e13f7bc80259"},"vehicle_type_id":"4","last_reported":1783270467,"current_range_meters":8000,"station_id":"ce4bhbp2rcd13ifvqesg","pricing_plan_id":"cebpf4jnsgd1na2vs0mg"},{"bike_id":"ae9653ca-a981-4fa4-848f-da55e76d424c","system_id":"levelo_inurba_marseille","lat":43.27172,"lon":5.40989,"is_reserved":false,"is_disabled":false,"rental_uris":{"android":"levelo://app?vid=ae9653ca-a981-4fa4-848f-da55e76d424c","ios":"levelo://app?vid=ae9653ca-a981-4fa4-848f-da55e76d424c"},"vehicle_type_id":"4","last_reported":1783270467,"current_range_meters":8000,"station_id":"ce4bhl12rcd13ifvqgf0","pricing_plan_id":"cebpf4jnsgd1na2vs0mg"},{"bike_id":"6b703ae7-b021-4d07-a990-ef927f27bcc0","system_id":"levelo_inurba_marseille","lat":43.25439,"lon":5.376,"is_reserved":false,"is_disabled":false,"rental_uris":{"android":"levelo://app?vid=6b703ae7-b021-4d07-a990-ef927f27bcc0","ios":"levelo://app?vid=6b703ae7-b021-4d07-a990-ef927f27bcc0"},"vehicle_type_id":"4","last_reported":1783270467,"current_range_meters":8000,"station_id":"","pricing_plan_id":"cebpf4jnsgd1na2vs0mg"},{"bike_id":"d3445804-aa86-4322-9d7c-8853ed1e9664","system_id":"levelo_inurba_marseille","lat":43.29561,"lon":5.42287,"is_reserved":false,"is_disabled":false,"rental_uris":{"android":"levelo://app?vid=d3445804-aa86-4322-9d7c-8853ed1e9664","ios":"levelo://app?vid=d3445804-aa86-4322-9d7c-8853ed1e9664"},"vehicle_type_id":"4","last_reported":1783270467,"current_range_meters":8000,"station_id":"ce4bhph2rcd13ifvqhdg","pricing_plan_id":"cebpf4jnsgd1na2vs0mg"},{"bike_id":"cb34bd76-9ca2-4b46-8568-b381d63b6f07","system_id":"levelo_inurba_marseille","lat":43.23198,"lon":5.3554,"is_reserved":false,"is_disabled":false,"rental_uris":{"android":"levelo://app?vid=cb34bd76-9ca2-4b46-8568-b381d63b6f07","ios":"levelo://app?vid=cb34bd76-9ca2-4b46-8568-b381d63b6f07"},"vehicle_type_id":"4","last_reported":1783270467,"current_range_meters":8000,"station_id":"","pricing_plan_id":"cebpf4jnsgd1na2vs0mg"},{"bike_id":"c143c18b-ebc4-4bee-ae2c-0d8e1c1f2a8d","system_id":"levelo_inurba_marseille","lat":43.27621,"lon":5.36115,"is_reserved":false,"is_disabled":false,"rental_uris":{"android":"levelo://app?vid=c143c18b-ebc4-4bee-ae2c-0d8e1c1f2a8d","ios":"levelo://app?vid=c143c18b-ebc4-4bee-ae2c-0d8e1c1f2a8d"},"vehicle_type_id":"4","last_reported":1783270467,"current_range_meters":8000,"station_id":"ce4bgj92rcd13ifvqbe0","pricing_plan_id":"cebpf4jnsgd1na2vs0mg"},{"bike_id":"f777c43e-0e8a-4e53-a4b7-edf621a10ea8","system_id":"levelo_inurba_marseille","lat":43.27377,"lon":5.36254,"is_reserved":false,"is_disabled":false,"rental_uris":{"android":"levelo://app?vid=f777c43e-0e8a-4e53-a4b7-edf621a10ea8","ios":"levelo://app?vid=f777c43e-0e8a-4e53-a4b7-edf621a10ea8"},"vehicle_type_id":"4","last_reported":1783270467,"current_range_meters":8000,"station_id":"ce4bhbh2rcd13ifvqeo0","pricing_plan_id":"cebpf4jnsgd1na2vs0mg"},{"bike_id":"6f7a01a8-ee4c-4eed-b676-8bb956e41341","system_id":"levelo_inurba_marseille","lat":43.28976,"lon":5.42471,"is_reserved":false,"is_disabled":false,"rental_uris":{"android":"levelo://app?vid=6f7a01a8-ee4c-4eed-b676-8bb956e41341","ios":"levelo://app?vid=6f7a01a8-ee4c-4eed-b676-8bb956e41341"},"vehicle_type_id":"4","last_reported":1783270467,"current_range_meters":8000,"station_id":"","pricing_plan_id":"cebpf4jnsgd1na2vs0mg"},{"bike_id":"ac45b691-a3e7-4279-bea7-5da2c5afb3c2","system_id":"levelo_inurba_marseille","lat":43.29026,"lon":5.37556,"is_reserved":false,"is_disabled":true,"rental_uris":{"android":"levelo://app?vid=ac45b691-a3e7-4279-bea7-5da2c5afb3c2","ios":"levelo://app?vid=ac45b691-a3e7-4279-bea7-5da2c5afb3c2"},"vehicle_type_id":"4","last_reported":1783270467,"current_range_meters":8000,"station_id":"ce4bh692rcd13ifvqe90","pricing_plan_id":"cebpf4jnsgd1na2vs0mg"},{"bike_id":"10ae8a61-979b-44e3-bc66-abf93e132d3f","system_id":"levelo_inurba_marseille","lat":43.2827,"lon":5.35053,"is_reserved":false,"is_disabled":false,"rental_uris":{"android":"levelo://app?vid=10ae8a61-979b-44e3-bc66-abf93e132d3f","ios":"levelo://app?vid=10ae8a61-979b-44e3-bc66-abf93e132d3f"},"vehicle_type_id":"4","last_reported":1783270467,"current_range_meters":8000,"station_id":"ce4bhbp2rcd13ifvqerg","pricing_plan_id":"cebpf4jnsgd1na2vs0mg"},{"bike_id":"7497093c-a506-4082-b099-daf3b1451e8e","system_id":"levelo_inurba_marseille","lat":43.28616,"lon":5.35101,"is_reserved":false,"is_disabled":false,"rental_uris":{"android":"levelo://app?vid=7497093c-a506-4082-b099-daf3b1451e8e","ios":"levelo://app?vid=7497093c-a506-4082-b099-daf3b1451e8e"},"vehicle_type_id":"4","last_reported":1783270467,"current_range_meters":8000,"station_id":"ce4bhch2rcd13ifvqeug","pricing_plan_id":"cebpf4jnsgd1na2vs0mg"},{"bike_id":"9c12c30a-463e-4048-88ba-53706e1568c1","system_id":"levelo_inurba_marseille","lat":43.261922,"lon":5.374449,"is_reserved":false,"is_disabled":false,"rental_uris":{"android":"levelo://app?vid=9c12c30a-463e-4048-88ba-53706e1568c1","ios":"levelo://app?vid=9c12c30a-463e-4048-88ba-53706e1568c1"},"vehicle_type_id":"4","last_reported":1783270467,"current_range_meters":8000,"station_id":"ce4bhgp2rcd13ifvqfc0","pricing_plan_id":"cebpf4jnsgd1na2vs0mg"},{"bike_id":"b039a727-71b1-4709-945e-51f5aeb9fa7f","system_id":"levelo_inurba_marseille","lat":43.22516,"lon":5.34838,"is_reserved":false,"is_disabled":false,"rental_uris":{"android":"levelo://app?vid=b039a727-71b1-4709-945e-51f5aeb9fa7f","ios":"levelo://app?vid=b039a727-71b1-4709-945e-51f5aeb9fa7f"},"vehicle_type_id":"4","last_reported":1783270467,"current_range_meters":8000,"station_id":"st_cvj5dfep6f1abm77gieg","pricing_plan_id":"cebpf4jnsgd1na2vs0mg"},{"bike_id":"c0403465-9832-4300-8040-74227b8adbf0","system_id":"levelo_inurba_marseille","lat":43.24679,"lon":5.38146,"is_reserved":false,"is_disabled":false,"rental_uris":{"android":"levelo://app?vid=c0403465-9832-4300-8040-74227b8adbf0","ios":"levelo://app?vid=c0403465-9832-4300-8040-74227b8adbf0"},"vehicle_type_id":"4","last_reported":1783270467,"current_range_meters":8000,"station_id":"ce4bhih2rcd13ifvqfr0","pricing_plan_id":"cebpf4jnsgd1na2vs0mg"},{"bike_id":"85706f81-4982-4276-b755-d4181aa895f9","system_id":"levelo_inurba_marseille","lat":43.28401,"lon":5.38448,"is_reserved":false,"is_disabled":false,"rental_uris":{"android":"levelo://app?vid=85706f81-4982-4276-b755-d4181aa895f9","ios":"levelo://app?vid=85706f81-4982-4276-b755-d4181aa895f9"},"vehicle_type_id":"4","last_reported":1783270467,"current_range_meters":8400,"station_id":"ce4bh512rcd13ifvqe3g","pricing_plan_id":"cebpf4jnsgd1na2vs0mg"},{"bike_id":"620ecdae-2a2a-4d24-bbf4-c953fc744dbb","system_id":"levelo_inurba_marseille","lat":43.29779,"lon":5.37896,"is_reserved":false,"is_disabled":false,"rental_uris":{"android":"levelo://app?vid=620ecdae-2a2a-4d24-bbf4-c953fc744dbb","ios":"levelo://app?vid=620ecdae-2a2a-4d24-bbf4-c953fc744dbb"},"vehicle_type_id":"4","last_reported":1783270467,"current_range_meters":8400,"station_id":"","pricing_plan_id":"cebpf4jnsgd1na2vs0mg"},{"bike_id":"138e49e7-8d22-4832-895c-d97d918d2d72","system_id":"levelo_inurba_marseille","lat":43.27823,"lon":5.36449,"is_reserved":false,"is_disabled":false,"rental_uris":{"android":"levelo://app?vid=138e49e7-8d22-4832-895c-d97d918d2d72","ios":"levelo://app?vid=138e49e7-8d22-4832-895c-d97d918d2d72"},"vehicle_type_id":"4","last_reported":1783270467,"current_range_meters":8400,"station_id":"","pricing_plan_id":"cebpf4jnsgd1na2vs0mg"},{"bike_id":"c5df6a94-d2ee-4ba2-b783-ff10d6ca2d0b","system_id":"levelo_inurba_marseille","lat":43.29261,"lon":5.36043,"is_reserved":false,"is_disabled":false,"rental_uris":{"android":"levelo://app?vid=c5df6a94-d2ee-4ba2-b783-ff10d6ca2d0b","ios":"levelo://app?vid=c5df6a94-d2ee-4ba2-b783-ff10d6ca2d0b"},"vehicle_type_id":"4","last_reported":1783270467,"current_range_meters":8400,"station_id":"ce4bhbh2rcd13ifvqeqg","pricing_plan_id":"cebpf4jnsgd1na2vs0mg"},