{"last_updated":1679846890,"ttl":30,"version":"2.2","data":{"bikes":[{"bike_id":"9845b272-b9c5-489b-96cd-6e89f404c66d","system_id":"levelo_inurba_marseille","lat":43.30538,"lon":5.3671,"is_reserved":false,"is_disabled":false,"rental_uris":{"android":"levelo://app?vid=9845b272-b9c5-489b-96cd-6e89f404c66d","ios":"levelo://app?vid=9845b272-b9c5-489b-96cd-6e89f404c66d"},"vehicle_type_id":"4","last_reported":1679846890,"current_range_meters":8800,"station_id":"","pricing_plan_id":"free"},{"bike_id":"5763ee4f-4df3-4c94-90ea-5cdde2ba16ff","system_id":"levelo_inurba_marseille","lat":43.31006,"lon":5.37919,"is_reserved":false,"is_disabled":false,"rental_uris":{"android":"levelo://app?vid=5763ee4f-4df3-4c94-90ea-5cdde2ba16ff","ios":"levelo://app?vid=5763ee4f-4df3-4c94-90ea-5cdde2ba16ff"},"vehicle_type_id":"4","last_reported":1679846890,"current_range_meters":16800,"station_id":"","pricing_plan_id":"free"},{"bike_id":"c2da36fb-c85f-49b0-90ac-aad728f3bed9","system_id":"levelo_inurba_marseille","lat":43.301939,"lon":5.366286,"is_reserved":false,"is_disabled":false,"rental_uris":{"android":"levelo://app?vid=c2da36fb-c85f-49b0-90ac-aad728f3bed9","ios":"levelo://app?vid=c2da36fb-c85f-49b0-90ac-aad728f3bed9"},"vehicle_type_id":"4","last_reported":1679846890,"current_range_meters":0,"station_id":"ce4bgrh2rcd13ifvqc8g","pricing_plan_id":"free"},{"bike_id":"81947be5-c95f-454e-a4af-0b9aacbed1c6","system_id":"levelo_inurba_marseille","lat":43.304606,"lon":5.379026,"is_reserved":false,"is_disabled":false,"rental_uris":{"android":"levelo://app?vid=81947be5-c95f-454e-a4af-0b9aacbed1c6","ios":"levelo://app?vid=81947be5-c95f-454e-a4af-0b9aacbed1c6"},"vehicle_type_id":"4","last_reported":1679846890,"current_range_meters":1600,"station_id":"ce4bgup2rcd13ifvqcn0","pricing_plan_id":"free"},{"bike_id":"054794d8-105c-410d-89a0-e10dc8296555","system_id":"levelo_inurba_marseille","lat":43.30459,"lon":5.37905,"is_reserved":false,"is_disabled":false,"rental_uris":{"android":"levelo://app?vid=054794d8-105c-410d-89a0-e10dc8296555","ios":"levelo://app?vid=054794d8-105c-410d-89a0-e10dc8296555"},"vehicle_type_id":"4","last_reported":1679846890,"current_range_meters":4000,"station_id":"ce4bgup2rcd13ifvqcn0","pricing_plan_id":"free"},{"bike_id":"37f2a977-a107-448f-b0fb-97167a21d0e3","system_id":"levelo_inurba_marseille","lat":43.304606,"lon":5.379026,"is_reserved":false,"is_disabled":false,"rental_uris":{"android":"levelo://app?vid=37f2a977-a107-448f-b0fb-97167a21d0e3","ios":"levelo://app?vid=37f2a977-a107-448f-b0fb-97167a21d0e3"},"vehicle_type_id":"4","last_reported":1679846890,"current_range_meters":1200,"station_id":"ce4bgup2rcd13ifvqcn0","pricing_plan_id":"free"},{"bike_id":"2900ffe4-f96f-401a-ac62-d7466ec1c932","system_id":"levelo_inurba_marseille","lat":43.301429,"lon":5.37413,"is_reserved":false,"is_disabled":false,"rental_uris":{"android":"levelo://app?vid=2900ffe4-f96f-401a-ac62-d7466ec1c932","ios":"levelo://app?vid=2900ffe4-f96f-401a-ac62-d7466ec1c932"},"vehicle_type_id":"4","last_reported":1679846890,"current_range_meters":16800,"station_id":"ce4bgs92rcd13ifvqcc0","pricing_plan_id":"free"},{"bike_id":"7bce4779-f047-4d13-8648-afc22ebe7c43","system_id":"levelo_inurba_marseille","lat":43.29863,"lon":5.36293,"is_reserved":false,"is_disabled":false,"rental_uris":{"android":"levelo://app?vid=7bce4779-f047-4d13-8648-afc22ebe7c43","ios":"levelo://app?vid=7bce4779-f047-4d13-8648-afc22ebe7c43"},"vehicle_type_id":"4","last_reported":1679846890,"current_range_meters":0,"station_id":"ce4bgpp2rcd13ifvqc3g","pricing_plan_id":"free"},{"bike_id":"a7d6bc48-e776-482b-8ad9-8b88fbde9d33","system_id":"levelo_inurba_marseille","lat":43.32598,"lon":5.35896,"is_reserved":false,"is_disabled":false,"rental_uris":{"android":"levelo://app?vid=a7d6bc48-e776-482b-8ad9-8b88fbde9d33","ios":"levelo://app?vid=a7d6bc48-e776-482b-8ad9-8b88fbde9d33"},"vehicle_type_id":"4","last_reported":1679846890,"current_range_meters":0,"station_id":"","pricing_plan_id":"free"},{"bike_id":"eaff4614-c0f3-425a-98f6-2790b3615d73","system_id":"levelo_inurba_marseille","lat":43.298433,"lon":5.362774,"is_reserved":false,"is_disabled":false,"rental_uris":{"android":"levelo://app?vid=eaff4614-c0f3-425a-98f6-2790b3615d73","ios":"levelo://app?vid=eaff4614-c0f3-425a-98f6-2790b3615d73"},"vehicle_type_id":"4","last_reported":1679846890,"current_range_meters":0,"station_id":"ce4bgpp2rcd13ifvqc3g","pricing_plan_id":"free"},{"bike_id":"835f1c56-e6cf-4e60-bd90-dbb6a8d132be","system_id":"levelo_inurba_marseille","lat":43.305364,"lon":5.384119,"is_reserved":false,"is_disabled":false,"rental_uris":{"android":"levelo://app?vid=835f1c56-e6cf-4e60-bd90-dbb6a8d132be","ios":"levelo://app?vid=835f1c56-e6cf-4e60-bd90-dbb6a8d132be"},"vehicle_type_id":"4","last_reported":1679846890,"current_range_meters":2400,"station_id":"ce4bgg92rcd13ifvqb30","pricing_plan_id":"free"},{"bike_id":"50dc6e19-4e11-4b01-ae21-83a7616fab72","system_id":"levelo_inurba_marseille","lat":43.299171,"lon":5.374676,"is_reserved":false,"is_disabled":false,"rental_uris":{"android":"levelo://app?vid=50dc6e19-4e11-4b01-ae21-83a7616fab72","ios":"levelo://app?vid=50dc6e19-4e11-4b01-ae21-83a7616fab72"},"vehicle_type_id":"4","last_reported":1679846890,"current_range_meters":0,"station_id":"","pricing_plan_id":"free"},{"bike_id":"a42088b2-0e59-4dc9-ba39-a0d611a84624","system_id":"levelo_inurba_marseille","lat":43.3283,"lon":5.36689,"is_reserved":false,"is_disabled":false,"rental_uris":{"android":"levelo://app?vid=a42088b2-0e59-4dc9-ba39-a0d611a84624","ios":"levelo://app?vid=a42088b2-0e59-4dc9-ba39-a0d611a84624"},"vehicle_type_id":"4","last_reported":1679846890,"current_range_meters":1200,"station_id":"","pricing_plan_id":"free"},{"bike_id":"bf0bdddd-4307-4586-97bc-1255aa5d7c2f","system_id":"levelo_inurba_marseille","lat":43.296921,"lon":5.376579,"is_reserved":false,"is_disabled":false,"rental_uris":{"android":"levelo://app?vid=bf0bdddd-4307-4586-97bc-1255aa5d7c2f","ios":"levelo://app?vid=bf0bdddd-4307-4586-97bc-1255aa5d7c2f"},"vehicle_type_id":"4","last_reported":1679846890,"current_range_meters":9600,"station_id":"ce4bgkh2rcd13ifvqbl0","pricing_plan_id":"free"},{"bike_id":"4ae9658a-38a3-4ae1-bbfd-f05f36da376e","system_id":"levelo_inurba_marseille","lat":43.309589,"lon":5.390258,"is_reserved":false,"is_disabled":false,"rental_uris":{"android":"levelo://app?vid=4ae9658a-38a3-4ae1-bbfd-f05f36da376e","ios":"levelo://app?vid=4ae9658a-38a3-4ae1-bbfd-f05f36da376e"},"vehicle_type_id":"4","last_reported":1679846890,"current_range_meters":12800,"station_id":"ce4bgup2rcd13ifvqco0","pricing_plan_id":"free"},{"bike_id":"76b3f210-4cbb-4ed1-80ca-e61230344d2d","system_id":"levelo_inurba_marseille","lat":43.298037,"lon":5.381066,"is_reserved":false,"is_disabled":false,"rental_uris":{"android":"levelo://app?vid=76b3f210-4cbb-4ed1-80ca-e61230344d2d","ios":"levelo://app?vid=76b3f210-4cbb-4ed1-80ca-e61230344d2d"},"vehicle_type_id":"4","last_reported":1679846890,"current_range_meters":21600,"station_id":"ce4bgip2rcd13ifvqbb0","pricing_plan_id":"free"},{"bike_id":"62f82fc5-dae5-4f9b-9529-fde0971b3550","system_id":"levelo_inurba_marseille","lat":43.295748,"lon":5.37522,"is_reserved":false,"is_disabled":false,"rental_uris":{"android":"levelo://app?vid=62f82fc5-dae5-4f9b-9529-fde0971b3550","ios":"levelo://app?vid=62f82fc5-dae5-4f9b-9529-fde0971b3550"},"vehicle_type_id":"4","last_reported":1679846890,"current_range_meters":18400,"station_id":"ce4bgh92rcd13ifvqb50","pricing_plan_id":"free"},{"bike_id":"f1f3e5e6-8cf9-4608-9b4b-db463bcc80ac","system_id":"levelo_inurba_marseille","lat":43.295748,"lon":5.37522,"is_reserved":false,"is_disabled":false,"rental_uris":{"android":"levelo://app?vid=f1f3e5e6-8cf9-4608-9b4b-db463bcc80ac","ios":"levelo://app?vid=f1f3e5e6-8cf9-4608-9b4b-db463bcc80ac"},"vehicle_type_id":"4","last_reported":1679846890,"current_range_meters":4000,"station_id":"ce4bgh92rcd13ifvqb50","pricing_plan_id":"free"},{"bike_id":"95a6a6e9-4fb9-48c3-a4a2-da81e699aa5b","system_id":"levelo_inurba_marseille","lat":43.296263,"lon":5.377094,"is_reserved":false,"is_disabled":false,"rental_uris":{"android":"levelo://app?vid=95a6a6e9-4fb9-48c3-a4a2-da81e699aa5b","ios":"levelo://app?vid=95a6a6e9-4fb9-48c3-a4a2-da81e699aa5b"},"vehicle_type_id":"4","last_reported":1679846890,"current_range_meters":19600,"station_id":"ce4bgi92rcd13ifvqb90","pricing_plan_id":"free"},{"bike_id":"b053ff68-ca14-434f-b8a3-46ee140b810f","system_id":"levelo_inurba_marseille","lat":43.296167,"lon":5.377174,"is_reserved":false,"is_disabled":false,"rental_uris":{"android":"levelo://app?vid=b053ff68-ca14-434f-b8a3-46ee140b810f","ios":"levelo://app?vid=b053ff68-ca14-434f-b8a3-46ee140b810f"},"vehicle_type_id":"4","last_reported":1679846890,"current_range_meters":0,"station_id":"","pricing_plan_id":"free"},{"bike_id":"7c18f694-8900-4af8-97cf-3106c38ee7c0","system_id":"levelo_inurba_marseille","lat":43.2954,"lon":5.37524,"is_reserved":false,"is_disabled":false,"rental_uris":{"android":"levelo://app?vid=7c18f694-8900-4af8-97cf-3106c38ee7c0","ios":"levelo://app?vid=7c18f694-8900-4af8-97cf-3106c38ee7c0"},"vehicle_type_id":"4","last_reported":1679846890,"current_range_meters":0,"station_id":"ce4bgkp2rcd13ifvqbmg","pricing_plan_id":"free"},{"bike_id":"2fc73f57-053c-474f-bcfe-e1bc78288772","system_id":"levelo_inurba_marseille","lat":43.305994,"lon":5.393687,"is_reserved":false,"is_disabled":false,"rental_uris":{"android":"levelo://app?vid=2fc73f57-053c-474f-bcfe-e1bc78288772","ios":"levelo://app?vid=2fc73f57-053c-474f-bcfe-e1bc78288772"},"vehicle_type_id":"4","last_reported":1679846890,"current_range_meters":24400,"station_id":"ce4bh0p2rcd13ifvqd80","pricing_plan_id":"free"},{"bike_id":"3306203f-506e-4374-87f5-a0ccd6d0449e","system_id":"levelo_inurba_marseille","lat":43.2936,"lon":5.37835,"is_reserved":false,"is_disabled":false,"rental_uris":{"android":"levelo://app?vid=3306203f-506e-4374-87f5-a0ccd6d0449e","ios":"levelo://app?vid=3306203f-506e-4374-87f5-a0ccd6d0449e"},"vehicle_type_id":"4","last_reported":1679846890,"current_range_meters":31600,"station_id":"ce4bgjh2rcd13ifvqbf0","pricing_plan_id":"free"},{"bike_id":"c28552c4-df4f-4549-8e1a-20919a55235c","system_id":"levelo_inurba_marseille","lat":43.292311,"lon":5.360731,"is_reserved":false,"is_disabled":false,"rental_uris":{"android":"levelo://app?vid=c28552c4-df4f-4549-8e1a-20919a55235c","ios":"levelo://app?vid=c28552c4-df4f-4549-8e1a-20919a55235c"},"vehicle_type_id":"4","last_reported":1679846890,"current_range_meters":14400,"station_id":"ce4bhbh2rcd13ifvqeqg","pricing_plan_id":"free"},{"bike_id":"14d4bc4d-69d7-451f-9679-05c1035bb968","system_id":"levelo_inurba_marseille","lat":43.292311,"lon":5.360731,"is_reserved":false,"is_disabled":false,"rental_uris":{"android":"levelo://app?vid=14d4bc4d-69d7-451f-9679-05c1035bb968","ios":"levelo://app?vid=14d4bc4d-69d7-451f-9679-05c1035bb968"},"vehicle_type_id":"4","last_reported":1679846890,"current_range_meters":0,"station_id":"ce4bhbh2rcd13ifvqeqg","pricing_plan_id":"free"},{"bike_id":"961dd1e5-e5f2-478e-bb1c-0e4b14139524","system_id":"levelo_inurba_marseille","lat":43.292663,"lon":5.376394,"is_reserved":false,"is_disabled":false,"rental_uris":{"android":"levelo://app?vid=961dd1e5-e5f2-478e-bb1c-0e4b14139524","ios":"levelo://app?vid=961dd1e5-e5f2-478e-bb1c-0e4b14139524"},"vehicle_type_id":"4","last_reported":1679846890,"current_range_meters":1600,"station_id":"ce4bgi12rcd13ifvqb80","pricing_plan_id":"free"},{"bike_id":"b12911b7-6e31-44c1-8713-232ce80de58f","system_id":"levelo_inurba_marseille","lat":43.291671,"lon":5.371575,"is_reserved":false,"is_disabled":false,"rental_uris":{"android":"levelo://app?vid=b12911b7-6e31-44c1-8713-232ce80de58f","ios":"levelo://app?vid=b12911b7-6e31-44c1-8713-232ce80de58f"},"vehicle_type_id":"4","last_reported":1679846890,"current_range_meters":28800,"station_id":"ce4bha92rcd13ifvqeh0","pricing_plan_id":"free"},{"bike_id":"98af3398-d2b1-4e54-ba15-32a59cb43488","system_id":"levelo_inurba_marseille","lat":43.294186,"lon":5.386255,"is_reserved":false,"is_disabled":false,"rental_uris":{"android":"levelo://app?vid=98af3398-d2b1-4e54-ba15-32a59cb43488","ios":"levelo://app?vid=98af3398-d2b1-4e54-ba15-32a59cb43488"},"vehicle_type_id":"4","last_reported":1679846890,"current_range_meters":0,"station_id":"","pricing_plan_id":"free"},{"bike_id":"83440258-975a-4061-93e6-870d8a653f9e","system_id":"levelo_inurba_marseille","lat":43.289417,"lon":5.366313,"is_reserved":false,"is_disabled":false,"rental_uris":{"android":"levelo://app?vid=83440258-975a-4061-93e6-870d8a653f9e","ios":"levelo://app?vid=83440258-975a-4061-93e6-870d8a653f9e"},"vehicle_type_id":"4","last_reported":1679846890,"current_range_meters":0,"station_id":"ce4bhap2rcd13ifvqek0","pricing_plan_id":"free"},{"bike_id":"52e28d2b-4aba-4840-b49a-81be7f02dea3","system_id":"levelo_inurba_marseille","lat":43.29049,"lon":5.35579,"is_reserved":false,"is_disabled":false,"rental_uris":{"android":"levelo://app?vid=52e28d2b-4aba-4840-b49a-81be7f02dea3","ios":"levelo://app?vid=52e28d2b-4aba-4840-b49a-81be7f02dea3"},"vehicle_type_id":"4","last_reported":1679846890,"current_range_meters":0,"station_id":"","pricing_plan_id":"free"},{"bike_id":"da52dec2-52ce-4cdf-90ce-91d1ff199548","system_id":"levelo_inurba_marseille","lat":43.290079,"lon":5.35615,"is_reserved":false,"is_disabled":false,"rental_uris":{"android":"levelo://app?vid=da52dec2-52ce-4cdf-90ce-91d1ff199548","ios":"levelo://app?vid=da52dec2-52ce-4cdf-90ce-91d1ff199548"},"vehicle_type_id":"4","last_reported":1679846890,"current_range_meters":14000,"station_id":"","pricing_plan_id":"free"},{"bike_id":"0ab0fe04-6a9a-49b8-9364-a6d8b48df047","system_id":"levelo_inurba_marseille","lat":43.29004,"lon":5.35606,"is_reserved":false,"is_disabled":false,"rental_uris":{"android":"levelo://app?vid=0ab0fe04-6a9a-49b8-9364-a6d8b48df047","ios":"levelo://app?vid=0ab0fe04-6a9a-49b8-9364-a6d8b48df047"},"vehicle_type_id":"4","last_reported":1679846890,"current_range_meters":18000,"station_id":"","pricing_plan_id":"free"},{"bike_id":"1a0a5875-f1b6-4348-a07d-d2ffe6819496","system_id":"levelo_inurba_marseille","lat":43.290995,"lon":5.381361,"is_reserved":false,"is_disabled":false,"rental_uris":{"android":"levelo://app?vid=1a0a5875-f1b6-4348-a07d-d2ffe6819496","ios":"levelo://app?vid=1a0a5875-f1b6-4348-a07d-d2ffe6819496"},"vehicle_type_id":"4","last_reported":1679846890,"current_range_meters":3200,"station_id":"ce4bh512rcd13ifvqe2g","pricing_plan_id":"free"},{"bike_id":"c666cdf4-630e-4171-874c-996ed308764a","system_id":"levelo_inurba_marseille","lat":43.295169,"lon":5.390426,"is_reserved":false,"is_disabled":false,"rental_uris":{"android":"levelo://app?vid=c666cdf4-630e-4171-874c-996ed308764a","ios":"levelo://app?vid=c666cdf4-630e-4171-874c-996ed308764a"},"vehicle_type_id":"4","last_reported":1679846890,"current_range_meters":400,"station_id":"ce4bh3p2rcd13ifvqdp0","pricing_plan_id":"free"},{"bike_id":"d200ffef-906b-41d0-9280-2293a71a12da","system_id":"levelo_inurba_marseille","lat":43.289741,"lon":5.378306,"is_reserved":false,"is_disabled":false,"rental_uris":{"android":"levelo://app?vid=d200ffef-906b-41d0-9280-2293a71a12da","ios":"levelo://app?vid=d200ffef-906b-41d0-9280-2293a71a12da"},"vehicle_type_id":"4","last_reported":1679846890,"current_range_meters":27200,"station_id":"ce4bh9p2rcd13ifvqed0","pricing_plan_id":"free"},{"bike_id":"f9c197e3-0a09-48ea-8fd1-03a9ce6665ea","system_id":"levelo_inurba_marseille","lat":43.29025,"lon":5.38132,"is_reserved":false,"is_disabled":false,"rental_uris":{"android":"levelo://app?vid=f9c197e3-0a09-48ea-8fd1-03a9ce6665ea","ios":"levelo://app?vid=f9c197e3-0a09-48ea-8fd1-03a9ce6665ea"},"vehicle_type_id":"4","last_reported":1679846890,"current_range_meters":9600,"station_id":"","pricing_plan_id":"free"},{"bike_id":"5dbe79cc-8fb2-4919-b431-be73ab496c56","system_id":"levelo_inurba_marseille","lat":43.337479,"lon":5.374673,"is_reserved":false,"is_disabled":false,"rental_uris":{"android":"levelo://app?vid=5dbe79cc-8fb2-4919-b431-be73ab496c56","ios":"levelo://app?vid=5dbe79cc-8fb2-4919-b431-be73ab496c56"},"vehicle_type_id":"4","last_reported":1679846890,"current_range_meters":26800,"station_id":"","pricing_plan_id":"free"},{"bike_id":"d3161b84-3467-4551-8851-c4fbfd72b38a","system_id":"levelo_inurba_marseille","lat":43.289139,"lon":5.381999,"is_reserved":false,"is_disabled":false,"rental_uris":{"android":"levelo://app?vid=d3161b84-3467-4551-8851-c4fbfd72b38a","ios":"levelo://app?vid=d3161b84-3467-4551-8851-c4fbfd72b38a"},"vehicle_type_id":"4","last_reported":1679846890,"current_range_meters":14000,"station_id":"","pricing_plan_id":"free"},{"bike_id":"40aecc13-f641-487d-ab05-82dab0753b16","system_id":"levelo_inurba_marseille","lat":43.286593,"lon":5.363346,"is_reserved":false,"is_disabled":false,"rental_uris":{"android":"levelo://app?vid=40aecc13-f641-487d-ab05-82dab0753b16","ios":"levelo://app?vid=40aecc13-f641-487d-ab05-82dab0753b16"},"vehicle_type_id":"4","last_reported":1679846890,"current_range_meters":18400,"station_id":"ce4bhah2rcd13ifvqej0","pricing_plan_id":"free"},{"bike_id":"5c18588f-a06b-4218-8002-96dff8cc6962","system_id":"levelo_inurba_marseille","lat":43.28665,"lon":5.36351,"is_reserved":false,"is_disabled":false,"rental_uris":{"android":"levelo://app?vid=5c18588f-a06b-4218-8002-96dff8cc6962","ios":"levelo://app?vid=5c18588f-a06b-4218-8002-96dff8cc6962"},"vehicle_type_id":"4","last_reported":1679846890,"current_range_meters":20800,"station_id":"ce4bhah2rcd13ifvqej0","pricing_plan_id":"free"},{"bike_id":"ce70bd09-b4ce-463a-9f46-f7989565c7cb","system_id":"levelo_inurba_marseille","lat":43.295143,"lon":5.394033,"is_reserved":false,"is_disabled":false,"rental_uris":{"android":"levelo://app?vid=ce70bd09-b4ce-463a-9f46-f7989565c7cb","ios":"levelo://app?vid=ce70bd09-b4ce-463a-9f46-f7989565c7cb"},"vehicle_type_id":"4","last_reported":1679846890,"current_range_meters":0,"station_id":"","pricing_plan_id":"free"},{"bike_id":"1346b1ae-80de-4428-a001-0020b95096fc","system_id":"levelo_inurba_marseille","lat":43.302759,"lon":5.400793,"is_reserved":false,"is_disabled":false,"rental_uris":{"android":"levelo://app?vid=1346b1ae-80de-4428-a001-0020b95096fc","ios":"levelo://app?vid=1346b1ae-80de-4428-a001-0020b95096fc"},"vehicle_type_id":"4","last_reported":1679846890,"current_range_meters":800,"station_id":"ce4bgvh2rcd13ifvqcs0","pricing_plan_id":"free"},{"bike_id":"1d191d97-77b6-405a-b9c2-5f5dd1945ecd","system_id":"levelo_inurba_marseille","lat":43.326544,"lon":5.398445,"is_reserved":false,"is_disabled":false,"rental_uris":{"android":"levelo://app?vid=1d191d97-77b6-405a-b9c2-5f5dd1945ecd","ios":"levelo://app?vid=1d191d97-77b6-405a-b9c2-5f5dd1945ecd"},"vehicle_type_id":"4","last_reported":1679846890,"current_range_meters":6000,"station_id":"","pricing_plan_id":"free"},{"bike_id":"d63845d0-9294-45f3-a096-475bdf126983","system_id":"levelo_inurba_marseille","lat":43.286039,"lon":5.370679,"is_reserved":false,"is_disabled":false,"rental_uris":{"android":"levelo://app?vid=d63845d0-9294-45f3-a096-475bdf126983","ios":"levelo://app?vid=d63845d0-9294-45f3-a096-475bdf126983"},"vehicle_type_id":"4","last_reported":1679846890,"current_range_meters":8400,"station_id":"ce4bht12rcd13ifvqi60","pricing_plan_id":"free"},{"bike_id":"e7820790-46f5-478c-9b51-eaee0157722c","system_id":"levelo_inurba_marseille","lat":43.287117,"lon":5.379408,"is_reserved":false,"is_disabled":false,"rental_uris":{"android":"levelo://app?vid=e7820790-46f5-478c-9b51-eaee0157722c","ios":"levelo://app?vid=e7820790-46f5-478c-9b51-eaee0157722c"},"vehicle_type_id":"4","last_reported":1679846890,"current_range_meters":0,"station_id":"","pricing_plan_id":"free"},{"bike_id":"a6a41833-5cbc-4165-a08b-90d39c5b0da1","system_id":"levelo_inurba_marseille","lat":43.30032,"lon":5.40104,"is_reserved":false,"is_disabled":false,"rental_uris":{"android":"levelo://app?vid=a6a41833-5cbc-4165-a08b-90d39c5b0da1","ios":"levelo://app?vid=a6a41833-5cbc-4165-a08b-90d39c5b0da1"},"vehicle_type_id":"4","last_reported":1679846890,"current_range_meters":0,"station_id":"","pricing_plan_id":"free"},{"bike_id":"5907b3a5-cb94-4910-b6b9-cf28ba5cff40","system_id":"levelo_inurba_marseille","lat":43.286595,"lon":5.386795,"is_reserved":false,"is_disabled":false,"rental_uris":{"android":"levelo://app?vid=5907b3a5-cb94-4910-b6b9-cf28ba5cff40","ios":"levelo://app?vid=5907b3a5-cb94-4910-b6b9-cf28ba5cff40"},"vehicle_type_id":"4","last_reported":1679846890,"current_range_meters":16800,"station_id":"ce4bh492rcd13ifvqdug","pricing_plan_id":"free"},{"bike_id":"1935648e-73ca-46cf-aec0-694c76707620","system_id":"levelo_inurba_marseille","lat":43.286595,"lon":5.386795,"is_reserved":false,"is_disabled":false,"rental_uris":{"android":"levelo://app?vid=1935648e-73ca-46cf-aec0-694c76707620","ios":"levelo://app?vid=1935648e-73ca-46cf-aec0-694c76707620"},"vehicle_type_id":"4","last_reported":1679846890,"current_range_meters":23200,"station_id":"ce4bh492rcd13ifvqdug","pricing_plan_id":"free"},{"bike_id":"aacb67f2-47b3-4454-b4eb-54c9fb94ee12","system_id":"levelo_inurba_marseille","lat":43.3339,"lon":5.39632,"is_reserved":false,"is_disabled":false,"rental_uris":{"android":"levelo://app?vid=aacb67f2-47b3-4454-b4eb-54c9fb94ee12","ios":"levelo://app?vid=aacb67f2-47b3-4454-b4eb-54c9fb94ee12"},"vehicle_type_id":"4","last_reported":1679846890,"current_range_meters":6000,"station_id":"","pricing_plan_id":"free"},{"bike_id":"7c4e3fdb-58c7-45b4-adda-b292c138efa4","system_id":"levelo_inurba_marseille","lat":43.30385,"lon":5.40686,"is_reserved":false,"is_disabled":false,"rental_uris":{"android":"levelo://app?vid=7c4e3fdb-58c7-45b4-adda-b292c138efa4","ios":"levelo://app?vid=7c4e3fdb-58c7-45b4-adda-b292c138efa4"},"vehicle_type_id":"4","last_reported":1679846890,"current_range_meters":15200,"station_id":"","pricing_plan_id":"free"},{"bike_id":"e396b5f0-e7cb-45ab-8c10-919543cf37b9","system_id":"levelo_inurba_marseille","lat":43.337202,"lon":5.391848,"is_reserved":false,"is_disabled":false,"rental_uris":{"android":"levelo://app?vid=e396b5f0-e7cb-45ab-8c10-919543cf37b9","ios":"levelo://app?vid=e396b5f0-e7cb-45ab-8c10-919543cf37b9"},"vehicle_type_id":"4","last_reported":1679846890,"current_range_meters":12400,"station_id":"ce4bhr92rcd13ifvqhsg","pricing_plan_id":"free"},{"bike_id":"2976336a-7212-46b0-9413-fb74619cb0be","system_id":"levelo_inurba_marseille","lat":43.32338,"lon":5.40626,"is_reserved":false,"is_disabled":false,"rental_uris":{"android":"levelo://app?vid=2976336a-7212-46b0-9413-fb74619cb0be","ios":"levelo://app?vid=2976336a-7212-46b0-9413-fb74619cb0be"},"vehicle_type_id":"4","last_reported":1679846890,"current_range_meters":6000,"station_id":"ce4bhq92rcd13ifvqhjg","pricing_plan_id":"free"},{"bike_id":"61dc1e2d-4520-4fb1-80ff-8ae91abeb4c7","system_id":"levelo_inurba_marseille","lat":43.323464,"lon":5.406297,"is_reserved":false,"is_disabled":false,"rental_uris":{"android":"levelo://app?vid=61dc1e2d-4520-4fb1-80ff-8ae91abeb4c7","ios":"levelo://app?vid=61dc1e2d-4520-4fb1-80ff-8ae91abeb4c7"},"vehicle_type_id":"4","last_reported":1679846890,"current_range_meters":2400,"station_id":"ce4bhq92rcd13ifvqhjg","pricing_plan_id":"free"},{"bike_id":"60fc5b59-9c72-4ee3-8790-ffa6869d03a3","system_id":"levelo_inurba_marseille","lat":43.323464,"lon":5.406297,"is_reserved":false,"is_disabled":false,"rental_uris":{"android":"levelo://app?vid=60fc5b59-9c72-4ee3-8790-ffa6869d03a3","ios":"levelo://app?vid=60fc5b59-9c72-4ee3-8790-ffa6869d03a3"},"vehicle_type_id":"4","last_reported":1679846890,"current_range_meters":8000,"station_id":"ce4bhq92rcd13ifvqhjg","pricing_plan_id":"free"},{"bike_id":"78b0090b-e816-491e-b5f6-5713937b69c4","system_id":"levelo_inurba_marseille","lat":43.323372,"lon":5.406299,"is_reserved":false,"is_disabled":false,"rental_uris":{"android":"levelo://app?vid=78b0090b-e816-491e-b5f6-5713937b69c4","ios":"levelo://app?vid=78b0090b-e816-491e-b5f6-5713937b69c4"},"vehicle_type_id":"4","last_reported":1679846890,"current_range_meters":5200,"station_id":"","pricing_plan_id":"free"},{"bike_id":"a247da2b-be12-4a47-a934-16048e01bad3","system_id":"levelo_inurba_marseille","lat":43.284783,"lon":5.38409,"is_reserved":false,"is_disabled":false,"rental_uris":{"android":"levelo://app?vid=a247da2b-be12-4a47-a934-16048e01bad3","ios":"levelo://app?vid=a247da2b-be12-4a47-a934-16048e01bad3"},"vehicle_type_id":"4","last_reported":1679846890,"current_range_meters":1600,"station_id":"","pricing_plan_id":"free"},{"bike_id":"b46548af-2d86-4712-83ec-10eb447c3460","system_id":"levelo_inurba_marseille","lat":43.284793,"lon":5.384113,"is_reserved":false,"is_disabled":false,"rental_uris":{"android":"levelo://app?vid=b46548af-2d86-4712-83ec-10eb447c3460","ios":"levelo://app?vid=b46548af-2d86-4712-83ec-10eb447c3460"},"vehicle_type_id":"4","last_reported":1679846890,"current_range_meters":0,"station_id":"ce4bh512rcd13ifvqe3g","pricing_plan_id":"free"},{"bike_id":"53022c2f-a958-417c-8996-fe305b7df7a7","system_id":"levelo_inurba_marseille","lat":43.284793,"lon":5.384113,"is_reserved":false,"is_disabled":false,"rental_uris":{"android":"levelo://app?vid=53022c2f-a958-417c-8996-fe305b7df7a7","ios":"levelo://app?vid=53022c2f-a958-417c-8996-fe305b7df7a7"},"vehicle_type_id":"4","last_reported":1679846890,"current_range_meters":0,"station_id":"ce4bh512rcd13ifvqe3g","pricing_plan_id":"free"},{"bike_id":"3b938809-e7ec-40b0-b2a3-dd8df8443a45","system_id":"levelo_inurba_marseille","lat":43.288501,"lon":5.393087,"is_reserved":false,"is_disabled":false,"rental_uris":{"android":"levelo://app?vid=3b938809-e7ec-40b0-b2a3-dd8df8443a45","ios":"levelo://app?vid=3b938809-e7ec-40b0-b2a3-dd8df8443a45"},"vehicle_type_id":"4","last_reported":1679846890,"current_range_meters":22000,"station_id":"ce4bh2p2rcd13ifvqdi0","pricing_plan_id":"free"},{"bike_id":"20b48afd-8286-4831-9fa0-6ae62af52bf9","system_id":"levelo_inurba_marseille","lat":43.289363,"lon":5.396322,"is_reserved":false,"is_disabled":false,"rental_uris":{"android":"levelo://app?vid=20b48afd-8286-4831-9fa0-6ae62af52bf9","ios":"levelo://app?vid=20b48afd-8286-4831-9fa0-6ae62af52bf9"},"vehicle_type_id":"4","last_reported":1679846890,"current_range_meters":0,"station_id":"ce4bh3h2rcd13ifvqdn0","pricing_plan_id":"free"},{"bike_id":"f15230ed-a790-4c3d-8019-9d9fe866070d","system_id":"levelo_inurba_marseille","lat":43.281044,"lon":5.378308,"is_reserved":false,"is_disabled":false,"rental_uris":{"android":"levelo://app?vid=f15230ed-a790-4c3d-8019-9d9fe866070d","ios":"levelo://app?vid=f15230ed-a790-4c3d-8019-9d9fe866070d"},"vehicle_type_id":"4","last_reported":1679846890,"current_range_meters":4400,"station_id":"ce4bha12rcd13ifvqee0","pricing_plan_id":"free"},{"bike_id":"8f5a8b3a-a7a8-4466-98da-faac01633b09","system_id":"levelo_inurba_marseille","lat":43.281044,"lon":5.378308,"is_reserved":false,"is_disabled":false,"rental_uris":{"android":"levelo://app?vid=8f5a8b3a-a7a8-4466-98da-faac01633b09","ios":"levelo://app?vid=8f5a8b3a-a7a8-4466-98da-faac01633b09"},"vehicle_type_id":"4","last_reported":1679846890,"current_range_meters":18800,"station_id":"ce4bha12rcd13ifvqee0","pricing_plan_id":"free"},{"bike_id":"9670d4eb-26f9-45d6-b303-446c450a7e34","system_id":"levelo_inurba_marseille","lat":43.29041,"lon":5.399634,"is_reserved":false,"is_disabled":false,"rental_uris":{"android":"levelo://app?vid=9670d4eb-26f9-45d6-b303-446c450a7e34","ios":"levelo://app?vid=9670d4eb-26f9-45d6-b303-446c450a7e34"},"vehicle_type_id":"4","last_reported":1679846890,"current_range_meters":400,"station_id":"ce4bh392rcd13ifvqdm0","pricing_plan_id":"free"},{"bike_id":"029b45ec-3871-4af2-9545-9cb48de5940b","system_id":"levelo_inurba_marseille","lat":43.29155,"lon":5.4037,"is_reserved":false,"is_disabled":false,"rental_uris":{"android":"levelo://app?vid=029b45ec-3871-4af2-9545-9cb48de5940b","ios":"levelo://app?vid=029b45ec-3871-4af2-9545-9cb48de5940b"},"vehicle_type_id":"4","last_reported":1679846890,"current_range_meters":0,"station_id":"","pricing_plan_id":"free"},{"bike_id":"788f8297-96fd-4b35-b273-6ae256848bc3","system_id":"levelo_inurba_marseille","lat":43.325715,"lon":5.411213,"is_reserved":false,"is_disabled":false,"rental_uris":{"android":"levelo://app?vid=788f8297-96fd-4b35-b273-6ae256848bc3","ios":"levelo://app?vid=788f8297-96fd-4b35-b273-6ae256848bc3"},"vehicle_type_id":"4","last_reported":1679846890,"current_range_meters":0,"station_id":"","pricing_plan_id":"free"},{"bike_id":"ed0d4825-1325-4262-8de5-107e4a5f82ed","system_id":"levelo_inurba_marseille","lat":43.299579,"lon":5.413255,"is_reserved":false,"is_disabled":false,"rental_uris":{"android":"levelo://app?vid=ed0d4825-1325-4262-8de5-107e4a5f82ed","ios":"levelo://app?vid=ed0d4825-1325-4262-8de5-107e4a5f82ed"},"vehicle_type_id":"4","last_reported":1679846890,"current_range_meters":12400,"station_id":"ce4bhp12rcd13ifvqh9g","pricing_plan_id":"free"},{"bike_id":"58e6003f-c42e-4637-b1cf-0a95e01093bb","system_id":"levelo_inurba_marseille","lat":43.29962,"lon":5.41325,"is_reserved":false,"is_disabled":false,"rental_uris":{"android":"levelo://app?vid=58e6003f-c42e-4637-b1cf-0a95e01093bb","ios":"levelo://app?vid=58e6003f-c42e-4637-b1cf-0a95e01093bb"},"vehicle_type_id":"4","last_reported":1679846890,"current_range_meters":9200,"station_id":"ce4bhp12rcd13ifvqh9g","pricing_plan_id":"free"},{"bike_id":"58b78d7a-3a1a-453b-897b-faa71590e6ee","system_id":"levelo_inurba_marseille","lat":43.292571,"lon":5.409107,"is_reserved":false,"is_disabled":false,"rental_uris":{"android":"levelo://app?vid=58b78d7a-3a1a-453b-897b-faa71590e6ee","ios":"levelo://app?vid=58b78d7a-3a1a-453b-897b-faa71590e6ee"},"vehicle_type_id":"4","last_reported":1679846890,"current_range_meters":23200,"station_id":"ce4bh192rcd13ifvqdc0","pricing_plan_id":"free"},{"bike_id":"13ae4cb8-bb9b-4399-9baa-8af5f1ff9aa0","system_id":"levelo_inurba_marseille","lat":43.32543,"lon":5.41426,"is_reserved":false,"is_disabled":false,"rental_uris":{"android":"levelo://app?vid=13ae4cb8-bb9b-4399-9baa-8af5f1ff9aa0","ios":"levelo://app?vid=13ae4cb8-bb9b-4399-9baa-8af5f1ff9aa0"},"vehicle_type_id":"4","last_reported":1679846890,"current_range_meters":24000,"station_id":"ce4bhq12rcd13ifvqhhg","pricing_plan_id":"free"},{"bike_id":"211d1249-cc99-4d68-8329-fdd54aff78d9","system_id":"levelo_inurba_marseille","lat":43.32547,"lon":5.41427,"is_reserved":false,"is_disabled":false,"rental_uris":{"android":"levelo://app?vid=211d1249-cc99-4d68-8329-fdd54aff78d9","ios":"levelo://app?vid=211d1249-cc99-4d68-8329-fdd54aff78d9"},"vehicle_type_id":"4","last_reported":1679846890,"current_range_meters":14000,"station_id":"","pricing_plan_id":"free"},{"bike_id":"50d9bc96-22ac-426e-823e-7cf1aa38c618","system_id":"levelo_inurba_marseille","lat":43.325415,"lon":5.41433,"is_reserved":false,"is_disabled":false,"rental_uris":{"android":"levelo://app?vid=50d9bc96-22ac-426e-823e-7cf1aa38c618","ios":"levelo://app?vid=50d9bc96-22ac-426e-823e-7cf1aa38c618"},"vehicle_type_id":"4","last_reported":1679846890,"current_range_meters":29200,"station_id":"","pricing_plan_id":"free"},{"bike_id":"14d7d05b-72a1-4532-8d20-3520c415593b","system_id":"levelo_inurba_marseille","lat":43.325233,"lon":5.414318,"is_reserved":false,"is_disabled":false,"rental_uris":{"android":"levelo://app?vid=14d7d05b-72a1-4532-8d20-3520c415593b","ios":"levelo://app?vid=14d7d05b-72a1-4532-8d20-3520c415593b"},"vehicle_type_id":"4","last_reported":1679846890,"current_range_meters":8800,"station_id":"ce4bhq12rcd13ifvqhhg","pricing_plan_id":"free"},{"bike_id":"6466ae2b-86dd-4498-876e-1f7a33f06d25","system_id":"levelo_inurba_marseille","lat":43.325233,"lon":5.414318,"is_reserved":false,"is_disabled":false,"rental_uris":{"android":"levelo://app?vid=6466ae2b-86dd-4498-876e-1f7a33f06d25","ios":"levelo://app?vid=6466ae2b-86dd-4498-876e-1f7a33f06d25"},"vehicle_type_id":"4","last_reported":1679846890,"current_range_meters":16400,"station_id":"ce4bhq12rcd13ifvqhhg","pricing_plan_id":"free"},{"bike_id":"0d43e764-33cd-4142-9797-ce0ca66a943a","system_id":"levelo_inurba_marseille","lat":43.280784,"lon":5.396622,"is_reserved":false,"is_disabled":false,"rental_uris":{"android":"levelo://app?vid=0d43e764-33cd-4142-9797-ce0ca66a943a","ios":"levelo://app?vid=0d43e764-33cd-4142-9797-ce0ca66a943a"},"vehicle_type_id":"4","last_reported":1679846890,"current_range_meters":26000,"station_id":"ce4bho12rcd13ifvqh2g","pricing_plan_id":"free"},{"bike_id":"8ae15dcb-64db-4894-9c47-fc4797251206","system_id":"levelo_inurba_marseille","lat":43.317121,"lon":5.423936,"is_reserved":false,"is_disabled":false,"rental_uris":{"android":"levelo://app?vid=8ae15dcb-64db-4894-9c47-fc4797251206","ios":"levelo://app?vid=8ae15dcb-64db-4894-9c47-fc4797251206"},"vehicle_type_id":"4","last_reported":1679846890,"current_range_meters":30000,"station_id":"ce4bhp92rcd13ifvqhbg","pricing_plan_id":"free"},{"bike_id":"490d2de4-456f-42d7-ae71-2f674faa2fc1","system_id":"levelo_inurba_marseille","lat":43.317121,"lon":5.423936,"is_reserved":false,"is_disabled":false,"rental_uris":{"android":"levelo://app?vid=490d2de4-456f-42d7-ae71-2f674faa2fc1","ios":"levelo://app?vid=490d2de4-456f-42d7-ae71-2f674faa2fc1"},"vehicle_type_id":"4","last_reported":1679846890,"current_range_meters":27600,"station_id":"ce4bhp92rcd13ifvqhbg","pricing_plan_id":"free"},{"bike_id":"6bdc039d-a986-4d12-8348-52e9a010289b","system_id":"levelo_inurba_marseille","lat":43.33094,"lon":5.41971,"is_reserved":false,"is_disabled":false,"rental_uris":{"android":"levelo://app?vid=6bdc039d-a986-4d12-8348-52e9a010289b","ios":"levelo://app?vid=6bdc039d-a986-4d12-8348-52e9a010289b"},"vehicle_type_id":"4","last_reported":1679846890,"current_range_meters":22400,"station_id":"","pricing_plan_id":"free"},{"bike_id":"4e2ae53a-b14d-47da-991d-57179952c98f","system_id":"levelo_inurba_marseille","lat":43.27323,"lon":5.39089,"is_reserved":false,"is_disabled":false,"rental_uris":{"android":"levelo://app?vid=4e2ae53a-b14d-47da-991d-57179952c98f","ios":"levelo://app?vid=4e2ae53a-b14d-47da-991d-57179952c98f"},"vehicle_type_id":"4","last_reported":1679846890,"current_range_meters":0,"station_id":"ce4bhgp2rcd13ifvqfe0","pricing_plan_id":"free"},{"bike_id":"376b26a6-6e2f-4efd-b66d-83d8c8749649","system_id":"levelo_inurba_marseille","lat":43.304096,"lon":5.425385,"is_reserved":false,"is_disabled":false,"rental_uris":{"android":"levelo://app?vid=376b26a6-6e2f-4efd-b66d-83d8c8749649","ios":"levelo://app?vid=376b26a6-6e2f-4efd-b66d-83d8c8749649"},"vehicle_type_id":"4","last_reported":1679846890,"current_range_meters":3200,"station_id":"ce4bhoh2rcd13ifvqh6g","pricing_plan_id":"free"},{"bike_id":"82bb4360-36bd-4397-99b7-846331fea9fa","system_id":"levelo_inurba_marseille","lat":43.272124,"lon":5.391768,"is_reserved":false,"is_disabled":false,"rental_uris":{"android":"levelo://app?vid=82bb4360-36bd-4397-99b7-846331fea9fa","ios":"levelo://app?vid=82bb4360-36bd-4397-99b7-846331fea9fa"},"vehicle_type_id":"4","last_reported":1679846890,"current_range_meters":0,"station_id":"ce4bhhp2rcd13ifvqfm0","pricing_plan_id":"free"},{"bike_id":"6e297e1c-acd5-4876-9269-2b8e475d4fa3","system_id":"levelo_inurba_marseille","lat":43.278128,"lon":5.407195,"is_reserved":false,"is_disabled":false,"rental_uris":{"android":"levelo://app?vid=6e297e1c-acd5-4876-9269-2b8e475d4fa3","ios":"levelo://app?vid=6e297e1c-acd5-4876-9269-2b8e475d4fa3"},"vehicle_type_id":"4","last_reported":1679846890,"current_range_meters":800,"station_id":"ce4bhnh2rcd13ifvqgtg","pricing_plan_id":"free"},{"bike_id":"3c7b2e62-ceb5-41bf-bea9-95e01b2ae089","system_id":"levelo_inurba_marseille","lat":43.269252,"lon":5.389142,"is_reserved":false,"is_disabled":false,"rental_uris":{"android":"levelo://app?vid=3c7b2e62-ceb5-41bf-bea9-95e01b2ae089","ios":"levelo://app?vid=3c7b2e62-ceb5-41bf-bea9-95e01b2ae089"},"vehicle_type_id":"4","last_reported":1679846890,"current_range_meters":22400,"station_id":"","pricing_plan_id":"free"},{"bike_id":"57b68ded-989e-4bc6-b97b-d7e7bf5ed660","system_id":"levelo_inurba_marseille","lat":43.26889,"lon":5.38936,"is_reserved":false,"is_disabled":false,"rental_uris":{"android":"levelo://app?vid=57b68ded-989e-4bc6-b97b-d7e7bf5ed660","ios":"levelo://app?vid=57b68ded-989e-4bc6-b97b-d7e7bf5ed660"},"vehicle_type_id":"4","last_reported":1679846890,"current_range_meters":5600,"station_id":"","pricing_plan_id":"free"},{"bike_id":"a2475168-8836-4c25-b90d-9719bf3344dd","system_id":"levelo_inurba_marseille","lat":43.26558,"lon":5.372835,"is_reserved":false,"is_disabled":false,"rental_uris":{"android":"levelo://app?vid=a2475168-8836-4c25-b90d-9719bf3344dd","ios":"levelo://app?vid=a2475168-8836-4c25-b90d-9719bf3344dd"},"vehicle_type_id":"4","last_reported":1679846890,"current_range_meters":800,"station_id":"","pricing_plan_id":"free"},{"bike_id":"a7939cfa-f03c-4067-bf81-0eedf5e178b6","system_id":"levelo_inurba_marseille","lat":43.265564,"lon":5.372852,"is_reserved":false,"is_disabled":false,"rental_uris":{"android":"levelo://app?vid=a7939cfa-f03c-4067-bf81-0eedf5e178b6","ios":"levelo://app?vid=a7939cfa-f03c-4067-bf81-0eedf5e178b6"},"vehicle_type_id":"4","last_reported":1679846890,"current_range_meters":0,"station_id":"ce4bhg12rcd13ifvqf70","pricing_plan_id":"free"},{"bike_id":"5eb3e4d7-7e31-48f3-81b8-857a35b86266","system_id":"levelo_inurba_marseille","lat":43.26555,"lon":5.37283,"is_reserved":false,"is_disabled":false,"rental_uris":{"android":"levelo://app?vid=5eb3e4d7-7e31-48f3-81b8-857a35b86266","ios":"levelo://app?vid=5eb3e4d7-7e31-48f3-81b8-857a35b86266"},"vehicle_type_id":"4","last_reported":1679846890,"current_range_meters":0,"station_id":"ce4bhg12rcd13ifvqf70","pricing_plan_id":"free"},{"bike_id":"d02269db-9bc7-4b68-a329-23bc4809ceae","system_id":"levelo_inurba_marseille","lat":43.26555,"lon":5.372907,"is_reserved":false,"is_disabled":false,"rental_uris":{"android":"levelo://app?vid=d02269db-9bc7-4b68-a329-23bc4809ceae","ios":"levelo://app?vid=d02269db-9bc7-4b68-a329-23bc4809ceae"},"vehicle_type_id":"4","last_reported":1679846890,"current_range_meters":0,"station_id":"ce4bhg12rcd13ifvqf70","pricing_plan_id":"free"},{"bike_id":"1235e794-8b28-47c9-94e4-d4b352e3f408","system_id":"levelo_inurba_marseille","lat":43.26549,"lon":5.372958,"is_reserved":false,"is_disabled":false,"rental_uris":{"android":"levelo://app?vid=1235e794-8b28-47c9-94e4-d4b352e3f408","ios":"levelo://app?vid=1235e794-8b28-47c9-94e4-d4b352e3f408"},"vehicle_type_id":"4","last_reported":1679846890,"current_range_meters":0,"station_id":"ce4bhg12rcd13ifvqf70","pricing_plan_id":"free"},{"bike_id":"87969eef-1ff0-4525-8820-d5ec4dfc50a1","system_id":"levelo_inurba_marseille","lat":43.338557,"lon":5.425167,"is_reserved":false,"is_disabled":false,"rental_uris":{"android":"levelo://app?vid=87969eef-1ff0-4525-8820-d5ec4dfc50a1","ios":"levelo://app?vid=87969eef-1ff0-4525-8820-d5ec4dfc50a1"},"vehicle_type_id":"4","last_reported":1679846890,"current_range_meters":30400,"station_id":"","pricing_plan_id":"free"},{"bike_id":"f4da5c1e-bb08-42ce-92e5-2768460b386c","system_id":"levelo_inurba_marseille","lat":43.33186,"lon":5.431807,"is_reserved":false,"is_disabled":false,"rental_uris":{"android":"levelo://app?vid=f4da5c1e-bb08-42ce-92e5-2768460b386c","ios":"levelo://app?vid=f4da5c1e-bb08-42ce-92e5-2768460b386c"},"vehicle_type_id":"4","last_reported":1679846890,"current_range_meters":10800,"station_id":"","pricing_plan_id":"free"},{"bike_id":"829c4719-8b65-4122-a8e6-0fa8294c49ae","system_id":"levelo_inurba_marseille","lat":43.261782,"lon":5.374515,"is_reserved":false,"is_disabled":false,"rental_uris":{"android":"levelo://app?vid=829c4719-8b65-4122-a8e6-0fa8294c49ae","ios":"levelo://app?vid=829c4719-8b65-4122-a8e6-0fa8294c49ae"},"vehicle_type_id":"4","last_reported":1679846890,"current_range_meters":0,"station_id":"ce4bhgp2rcd13ifvqfc0","pricing_plan_id":"free"},{"bike_id":"2b5cb157-3f38-4ce9-9e5b-67c8da1ea67d","system_id":"levelo_inurba_marseille","lat":43.26033,"lon":5.3755,"is_reserved":false,"is_disabled":false,"rental_uris":{"android":"levelo://app?vid=2b5cb157-3f38-4ce9-9e5b-67c8da1ea67d","ios":"levelo://app?vid=2b5cb157-3f38-4ce9-9e5b-67c8da1ea67d"},"vehicle_type_id":"4","last_reported":1679846890,"current_range_meters":1600,"station_id":"ce4bhgh2rcd13ifvqfa0","pricing_plan_id":"free"},{"bike_id":"dc2654b7-5c45-4bd1-b98a-8cf5b214024d","system_id":"levelo_inurba_marseille","lat":43.33482,"lon":5.43285,"is_reserved":false,"is_disabled":false,"rental_uris":{"android":"levelo://app?vid=dc2654b7-5c45-4bd1-b98a-8cf5b214024d","ios":"levelo://app?vid=dc2654b7-5c45-4bd1-b98a-8cf5b214024d"},"vehicle_type_id":"4","last_reported":1679846890,"current_range_meters":31600,"station_id":"","pricing_plan_id":"free"},{"bike_id":"b5505fc3-2cf8-4bb9-84fc-38472ac1234d","system_id":"levelo_inurba_marseille","lat":43.270783,"lon":5.422877,"is_reserved":false,"is_disabled":false,"rental_uris":{"android":"levelo://app?vid=b5505fc3-2cf8-4bb9-84fc-38472ac1234d","ios":"levelo://app?vid=b5505fc3-2cf8-4bb9-84fc-38472ac1234d"},"vehicle_type_id":"4","last_reported":1679846890,"current_range_meters":7600,"station_id":"","pricing_plan_id":"free"},{"bike_id":"738d2b9e-c407-41c2-81b2-10d605685f63","system_id":"levelo_inurba_marseille","lat":43.270721,"lon":5.422764,"is_reserved":false,"is_disabled":false,"rental_uris":{"android":"levelo://app?vid=738d2b9e-c407-41c2-81b2-10d605685f63","ios":"levelo://app?vid=738d2b9e-c407-41c2-81b2-10d605685f63"},"vehicle_type_id":"4","last_reported":1679846890,"current_range_meters":25200,"station_id":"ce4bhk92rcd13ifvqgb0","pricing_plan_id":"free"},{"bike_id":"c0cf3127-d37e-40c5-a690-fd5a393ec8f2","system_id":"levelo_inurba_marseille","lat":43.27069,"lon":5.42279,"is_reserved":false,"is_disabled":false,"rental_uris":{"android":"levelo://app?vid=c0cf3127-d37e-40c5-a690-fd5a393ec8f2","ios":"levelo://app?vid=c0cf3127-d37e-40c5-a690-fd5a393ec8f2"},"vehicle_type_id":"4","last_reported":1679846890,"current_range_meters":6800,"station_id":"ce4bhk92rcd13ifvqgb0","pricing_plan_id":"free"},{"bike_id":"9ba8cf39-7d5a-441d-89e2-1c424a41d452","system_id":"levelo_inurba_marseille","lat":43.27392,"lon":5.42723,"is_reserved":false,"is_disabled":false,"rental_uris":{"android":"levelo://app?vid=9ba8cf39-7d5a-441d-89e2-1c424a41d452","ios":"levelo://app?vid=9ba8cf39-7d5a-441d-89e2-1c424a41d452"},"vehicle_type_id":"4","last_reported":1679846890,"current_range_meters":23200,"station_id":"","pricing_plan_id":"free"},{"bike_id":"f0ba5e52-837f-4754-9829-0dac8eb1e4d5","system_id":"levelo_inurba_marseille","lat":43.250009,"lon":5.389195,"is_reserved":false,"is_disabled":false,"rental_uris":{"android":"levelo://app?vid=f0ba5e52-837f-4754-9829-0dac8eb1e4d5","ios":"levelo://app?vid=f0ba5e52-837f-4754-9829-0dac8eb1e4d5"},"vehicle_type_id":"4","last_reported":1679846890,"current_range_meters":0,"station_id":"ce4bhgp2rcd13ifvqfd0","pricing_plan_id":"free"},{"bike_id":"2819a97b-ab62-412f-ba95-92901ce7058e","system_id":"levelo_inurba_marseille","lat":43.250009,"lon":5.389195,"is_reserved":false,"is_disabled":false,"rental_uris":{"android":"levelo://app?vid=2819a97b-ab62-412f-ba95-92901ce7058e","ios":"levelo://app?vid=2819a97b-ab62-412f-ba95-92901ce7058e"},"vehicle_type_id":"4","last_reported":1679846890,"current_range_meters":0,"station_id":"ce4bhgp2rcd13ifvqfd0","pricing_plan_id":"free"},{"bike_id":"dbe43c3f-24c1-4430-a17f-c5cb9bfb1b94","system_id":"levelo_inurba_marseille","lat":43.2479,"lon":5.374457,"is_reserved":false,"is_disabled":false,"rental_uris":{"android":"levelo://app?vid=dbe43c3f-24c1-4430-a17f-c5cb9bfb1b94","ios":"levelo://app?vid=dbe43c3f-24c1-4430-a17f-c5cb9bfb1b94"},"vehicle_type_id":"4","last_reported":1679846890,"current_range_meters":11600,"station_id":"ce4bhgh2rcd13ifvqfb0","pricing_plan_id":"free"},{"bike_id":"c52afe5b-7254-4ff6-a99f-43a057a4719d","system_id":"levelo_inurba_marseille","lat":43.2479,"lon":5.374457,"is_reserved":false,"is_disabled":false,"rental_uris":{"android":"levelo://app?vid=c52afe5b-7254-4ff6-a99f-43a057a4719d","ios":"levelo://app?vid=c52afe5b-7254-4ff6-a99f-43a057a4719d"},"vehicle_type_id":"4","last_reported":1679846890,"current_range_meters":0,"station_id":"ce4bhgh2rcd13ifvqfb0","pricing_plan_id":"free"},{"bike_id":"955b56d8-829f-42d1-a6ad-c437ed3f03fb","system_id":"levelo_inurba_marseille","lat":43.25102,"lon":5.403214,"is_reserved":false,"is_disabled":false,"rental_uris":{"android":"levelo://app?vid=955b56d8-829f-42d1-a6ad-c437ed3f03fb","ios":"levelo://app?vid=955b56d8-829f-42d1-a6ad-c437ed3f03fb"},"vehicle_type_id":"4","last_reported":1679846890,"current_range_meters":0,"station_id":"ce4bhlh2rcd13ifvqgig","pricing_plan_id":"free"},{"bike_id":"3f8d4c1c-7e56-4ad6-9d99-00ae6d2fa790","system_id":"levelo_inurba_marseille","lat":43.25102,"lon":5.403214,"is_reserved":false,"is_disabled":false,"rental_uris":{"android":"levelo://app?vid=3f8d4c1c-7e56-4ad6-9d99-00ae6d2fa790","ios":"levelo://app?vid=3f8d4c1c-7e56-4ad6-9d99-00ae6d2fa790"},"vehicle_type_id":"4","last_reported":1679846890,"current_range_meters":5200,"station_id":"ce4bhlh2rcd13ifvqgig","pricing_plan_id":"free"},{"bike_id":"52c577fc-fc76-4b66-acf3-25ee43ef3997","system_id":"levelo_inurba_marseille","lat":43.24652,"lon":5.388832,"is_reserved":false,"is_disabled":false,"rental_uris":{"android":"levelo://app?vid=52c577fc-fc76-4b66-acf3-25ee43ef3997","ios":"levelo://app?vid=52c577fc-fc76-4b66-acf3-25ee43ef3997"},"vehicle_type_id":"4","last_reported":1679846890,"current_range_meters":0,"station_id":"ce4bhg12rcd13ifvqf60","pricing_plan_id":"free"},{"bike_id":"bad01fc9-5912-4b7e-bc8b-5a2a28cdacad","system_id":"levelo_inurba_marseille","lat":43.24551,"lon":5.39531,"is_reserved":false,"is_disabled":false,"rental_uris":{"android":"levelo://app?vid=bad01fc9-5912-4b7e-bc8b-5a2a28cdacad","ios":"levelo://app?vid=bad01fc9-5912-4b7e-bc8b-5a2a28cdacad"},"vehicle_type_id":"4","last_reported":1679846890,"current_range_meters":17200,"station_id":"","pricing_plan_id":"free"},{"bike_id":"1fde9e1d-5fd5-477c-9d4f-1dd57ba6b1b7","system_id":"levelo_inurba_marseille","lat":43.24076,"lon":5.37759,"is_reserved":false,"is_disabled":false,"rental_uris":{"android":"levelo://app?vid=1fde9e1d-5fd5-477c-9d4f-1dd57ba6b1b7","ios":"levelo://app?vid=1fde9e1d-5fd5-477c-9d4f-1dd57ba6b1b7"},"vehicle_type_id":"4","last_reported":1679846890,"current_range_meters":30800,"station_id":"ce4bhnp2rcd13ifvqgvg","pricing_plan_id":"free"},{"bike_id":"5e3ad079-aeb8-4a5f-844e-a938f67b5f37","system_id":"levelo_inurba_marseille","lat":43.24075,"lon":5.37762,"is_reserved":false,"is_disabled":false,"rental_uris":{"android":"levelo://app?vid=5e3ad079-aeb8-4a5f-844e-a938f67b5f37","ios":"levelo://app?vid=5e3ad079-aeb8-4a5f-844e-a938f67b5f37"},"vehicle_type_id":"4","last_reported":1679846890,"current_range_meters":31600,"station_id":"ce4bhnp2rcd13ifvqgvg","pricing_plan_id":"free"},{"bike_id":"6d046d06-62d6-4a09-a143-d3fac3e48213","system_id":"levelo_inurba_marseille","lat":43.240623,"lon":5.377642,"is_reserved":false,"is_disabled":false,"rental_uris":{"android":"levelo://app?vid=6d046d06-62d6-4a09-a143-d3fac3e48213","ios":"levelo://app?vid=6d046d06-62d6-4a09-a143-d3fac3e48213"},"vehicle_type_id":"4","last_reported":1679846890,"current_range_meters":14800,"station_id":"ce4bhnp2rcd13ifvqgvg","pricing_plan_id":"free"},{"bike_id":"e9a6e392-5c68-43d5-9015-46f0022a233c","system_id":"levelo_inurba_marseille","lat":43.240623,"lon":5.377642,"is_reserved":false,"is_disabled":false,"rental_uris":{"android":"levelo://app?vid=e9a6e392-5c68-43d5-9015-46f0022a233c","ios":"levelo://app?vid=e9a6e392-5c68-43d5-9015-46f0022a233c"},"vehicle_type_id":"4","last_reported":1679846890,"current_range_meters":0,"station_id":"ce4bhnp2rcd13ifvqgvg","pricing_plan_id":"free"},{"bike_id":"de96e591-eedd-476d-b6c6-74cfcb8d6d42","system_id":"levelo_inurba_marseille","lat":43.24068,"lon":5.37758,"is_reserved":false,"is_disabled":false,"rental_uris":{"android":"levelo://app?vid=de96e591-eedd-476d-b6c6-74cfcb8d6d42","ios":"levelo://app?vid=de96e591-eedd-476d-b6c6-74cfcb8d6d42"},"vehicle_type_id":"4","last_reported":1679846890,"current_range_meters":17200,"station_id":"ce4bhnp2rcd13ifvqgvg","pricing_plan_id":"free"},{"bike_id":"b1f84bde-25f1-4da4-9a11-60e8b88b733c","system_id":"levelo_inurba_marseille","lat":43.240623,"lon":5.377642,"is_reserved":false,"is_disabled":false,"rental_uris":{"android":"levelo://app?vid=b1f84bde-25f1-4da4-9a11-60e8b88b733c","ios":"levelo://app?vid=b1f84bde-25f1-4da4-9a11-60e8b88b733c"},"vehicle_type_id":"4","last_reported":1679846890,"current_range_meters":8000,"station_id":"ce4bhnp2rcd13ifvqgvg","pricing_plan_id":"free"},{"bike_id":"99ec9591-689f-43c6-b4f0-94293b068ab3","system_id":"levelo_inurba_marseille","lat":43.2438,"lon":5.403074,"is_reserved":false,"is_disabled":false,"rental_uris":{"android":"levelo://app?vid=99ec9591-689f-43c6-b4f0-94293b068ab3","ios":"levelo://app?vid=99ec9591-689f-43c6-b4f0-94293b068ab3"},"vehicle_type_id":"4","last_reported":1679846890,"current_range_meters":12400,"station_id":"","pricing_plan_id":"free"},{"bike_id":"e8c42f73-3658-42b9-a53c-74ad87c53246","system_id":"levelo_inurba_marseille","lat":43.231923,"lon":5.355545,"is_reserved":false,"is_disabled":false,"rental_uris":{"android":"levelo://app?vid=e8c42f73-3658-42b9-a53c-74ad87c53246","ios":"levelo://app?vid=e8c42f73-3658-42b9-a53c-74ad87c53246"},"vehicle_type_id":"4","last_reported":1679846890,"current_range_meters":7600,"station_id":"ce4bhu92rcd13ifvqi70","pricing_plan_id":"free"},{"bike_id":"316530a1-f853-43ff-a8a2-130124e37bf1","system_id":"levelo_inurba_marseille","lat":43.231923,"lon":5.355545,"is_reserved":false,"is_disabled":false,"rental_uris":{"android":"levelo://app?vid=316530a1-f853-43ff-a8a2-130124e37bf1","ios":"levelo://app?vid=316530a1-f853-43ff-a8a2-130124e37bf1"},"vehicle_type_id":"4","last_reported":1679846890,"current_range_meters":4000,"station_id":"ce4bhu92rcd13ifvqi70","pricing_plan_id":"free"},{"bike_id":"b2afc0c6-3bdb-483e-8b09-d1b9ef0cdda7","system_id":"levelo_inurba_marseille","lat":43.231923,"lon":5.355545,"is_reserved":false,"is_disabled":false,"rental_uris":{"android":"levelo://app?vid=b2afc0c6-3bdb-483e-8b09-d1b9ef0cdda7","ios":"levelo://app?vid=b2afc0c6-3bdb-483e-8b09-d1b9ef0cdda7"},"vehicle_type_id":"4","last_reported":1679846890,"current_range_meters":16400,"station_id":"ce4bhu92rcd13ifvqi70","pricing_plan_id":"free"},{"bike_id":"34f32916-4ae1-488e-8761-9a7c624c8cd6","system_id":"levelo_inurba_marseille","lat":43.231919,"lon":5.355532,"is_reserved":false,"is_disabled":false,"rental_uris":{"android":"levelo://app?vid=34f32916-4ae1-488e-8761-9a7c624c8cd6","ios":"levelo://app?vid=34f32916-4ae1-488e-8761-9a7c624c8cd6"},"vehicle_type_id":"4","last_reported":1679846890,"current_range_meters":13600,"station_id":"ce4bhu92rcd13ifvqi70","pricing_plan_id":"free"},{"bike_id":"12b9e0b7-199c-45f2-8c4f-e74fdb124d69","system_id":"levelo_inurba_marseille","lat":43.28463,"lon":5.48688,"is_reserved":false,"is_disabled":false,"rental_uris":{"android":"levelo://app?vid=12b9e0b7-199c-45f2-8c4f-e74fdb124d69","ios":"levelo://app?vid=12b9e0b7-199c-45f2-8c4f-e74fdb124d69"},"vehicle_type_id":"4","last_reported":1679846890,"current_range_meters":9200,"station_id":"","pricing_plan_id":"free"}]}}