{"last_updated":1749924800,"ttl":60,"version":"2.2","data":{"bikes":[{"bike_id":"b31f0139-170f-4194-984f-4386218a1e9d","system_id":"levelo_inurba_marseille","lat":43.33771,"lon":5.37424,"is_reserved":false,"is_disabled":true,"rental_uris":{"android":"levelo://app?vid=b31f0139-170f-4194-984f-4386218a1e9d","ios":"levelo://app?vid=b31f0139-170f-4194-984f-4386218a1e9d"},"vehicle_type_id":"4","last_reported":1749924801,"current_range_meters":0,"station_id":"","pricing_plan_id":"cebpf4jnsgd1na2vs0mg"},{"bike_id":"1acfb620-cad7-48c0-8901-d7a5b74a5b65","system_id":"levelo_inurba_marseille","lat":43.33751,"lon":5.37456,"is_reserved":false,"is_disabled":true,"rental_uris":{"android":"levelo://app?vid=1acfb620-cad7-48c0-8901-d7a5b74a5b65","ios":"levelo://app?vid=1acfb620-cad7-48c0-8901-d7a5b74a5b65"},"vehicle_type_id":"4","last_reported":1749924801,"current_range_meters":0,"station_id":"","pricing_plan_id":"cebpf4jnsgd1na2vs0mg"},{"bike_id":"d4e945a2-cdff-43e0-b8ee-d2b4e1159842","system_id":"levelo_inurba_marseille","lat":43.2996,"lon":5.38503,"is_reserved":false,"is_disabled":true,"rental_uris":{"android":"levelo://app?vid=d4e945a2-cdff-43e0-b8ee-d2b4e1159842","ios":"levelo://app?vid=d4e945a2-cdff-43e0-b8ee-d2b4e1159842"},"vehicle_type_id":"4","last_reported":1749924801,"current_range_meters":0,"station_id":"","pricing_plan_id":"cebpf4jnsgd1na2vs0mg"},{"bike_id":"bf89d78c-eb96-40d5-beb0-f402ef102cc1","system_id":"levelo_inurba_marseille","lat":43.337444,"lon":5.374475,"is_reserved":false,"is_disabled":true,"rental_uris":{"android":"levelo://app?vid=bf89d78c-eb96-40d5-beb0-f402ef102cc1","ios":"levelo://app?vid=bf89d78c-eb96-40d5-beb0-f402ef102cc1"},"vehicle_type_id":"4","last_reported":1749924801,"current_range_meters":0,"station_id":"","pricing_plan_id":"cebpf4jnsgd1na2vs0mg"},{"bike_id":"5077581b-cebb-46fc-ba69-4fa8272d4810","system_id":"levelo_inurba_marseille","lat":43.21376,"lon":5.35513,"is_reserved":false,"is_disabled":true,"rental_uris":{"android":"levelo://app?vid=5077581b-cebb-46fc-ba69-4fa8272d4810","ios":"levelo://app?vid=5077581b-cebb-46fc-ba69-4fa8272d4810"},"vehicle_type_id":"4","last_reported":1749924801,"current_range_meters":0,"station_id":"","pricing_plan_id":"cebpf4jnsgd1na2vs0mg"},{"bike_id":"4143cc30-b9c6-44c6-90dc-390edfc591d1","system_id":"levelo_inurba_marseille","lat":43.29966,"lon":5.38497,"is_reserved":false,"is_disabled":true,"rental_uris":{"android":"levelo://app?vid=4143cc30-b9c6-44c6-90dc-390edfc591d1","ios":"levelo://app?vid=4143cc30-b9c6-44c6-90dc-390edfc591d1"},"vehicle_type_id":"4","last_reported":1749924801,"current_range_meters":0,"station_id":"","pricing_plan_id":"cebpf4jnsgd1na2vs0mg"},{"bike_id":"718908ad-5540-4930-b134-cec6229c8d1c","system_id":"levelo_inurba_marseille","lat":43.265529,"lon":5.372828,"is_reserved":false,"is_disabled":true,"rental_uris":{"android":"levelo://app?vid=718908ad-5540-4930-b134-cec6229c8d1c","ios":"levelo://app?vid=718908ad-5540-4930-b134-cec6229c8d1c"},"vehicle_type_id":"4","last_reported":1749924801,"current_range_meters":0,"station_id":"","pricing_plan_id":"cebpf4jnsgd1na2vs0mg"},{"bike_id":"ebf89cec-3e1a-4275-9cd0-a3d19d69b5cf","system_id":"levelo_inurba_marseille","lat":43.27981,"lon":5.38453,"is_reserved":false,"is_disabled":true,"rental_uris":{"android":"levelo://app?vid=ebf89cec-3e1a-4275-9cd0-a3d19d69b5cf","ios":"levelo://app?vid=ebf89cec-3e1a-4275-9cd0-a3d19d69b5cf"},"vehicle_type_id":"4","last_reported":1749924801,"current_range_meters":0,"station_id":"","pricing_plan_id":"cebpf4jnsgd1na2vs0mg"},{"bike_id":"492f4bbd-1190-4ef2-b66a-479ffe91b09b","system_id":"levelo_inurba_marseille","lat":43.337444,"lon":5.374475,"is_reserved":false,"is_disabled":true,"rental_uris":{"android":"levelo://app?vid=492f4bbd-1190-4ef2-b66a-479ffe91b09b","ios":"levelo://app?vid=492f4bbd-1190-4ef2-b66a-479ffe91b09b"},"vehicle_type_id":"4","last_reported":1749924801,"current_range_meters":0,"station_id":"","pricing_plan_id":"cebpf4jnsgd1na2vs0mg"},{"bike_id":"ff394bc4-54bf-403d-942c-07a5fd9d0d37","system_id":"levelo_inurba_marseille","lat":43.26321,"lon":5.3786,"is_reserved":false,"is_disabled":true,"rental_uris":{"android":"levelo://app?vid=ff394bc4-54bf-403d-942c-07a5fd9d0d37","ios":"levelo://app?vid=ff394bc4-54bf-403d-942c-07a5fd9d0d37"},"vehicle_type_id":"4","last_reported":1749924801,"current_range_meters":0,"station_id":"","pricing_plan_id":"cebpf4jnsgd1na2vs0mg"},{"bike_id":"04076281-604c-4d0c-8e3d-82151e92dbd5","system_id":"levelo_inurba_marseille","lat":43.30821,"lon":5.36966,"is_reserved":false,"is_disabled":true,"rental_uris":{"android":"levelo://app?vid=04076281-604c-4d0c-8e3d-82151e92dbd5","ios":"levelo://app?vid=04076281-604c-4d0c-8e3d-82151e92dbd5"},"vehicle_type_id":"4","last_reported":1749924801,"current_range_meters":0,"station_id":"","pricing_plan_id":"cebpf4jnsgd1na2vs0mg"},{"bike_id":"a9b6bf99-4070-4437-bb20-72962ae30b90","system_id":"levelo_inurba_marseille","lat":43.27461,"lon":5.36382,"is_reserved":false,"is_disabled":true,"rental_uris":{"android":"levelo://app?vid=a9b6bf99-4070-4437-bb20-72962ae30b90","ios":"levelo://app?vid=a9b6bf99-4070-4437-bb20-72962ae30b90"},"vehicle_type_id":"4","last_reported":1749924801,"current_range_meters":0,"station_id":"","pricing_plan_id":"cebpf4jnsgd1na2vs0mg"},{"bike_id":"b9c98c8c-22c0-494e-9c1d-28e19511d586","system_id":"levelo_inurba_marseille","lat":43.29298,"lon":5.37454,"is_reserved":false,"is_disabled":true,"rental_uris":{"android":"levelo://app?vid=b9c98c8c-22c0-494e-9c1d-28e19511d586","ios":"levelo://app?vid=b9c98c8c-22c0-494e-9c1d-28e19511d586"},"vehicle_type_id":"4","last_reported":1749924801,"current_range_meters":0,"station_id":"ce4bgi12rcd13ifvqb70","pricing_plan_id":"cebpf4jnsgd1na2vs0mg"},{"bike_id":"f9e861f4-16d9-40ac-8270-901434dbcb34","system_id":"levelo_inurba_marseille","lat":43.29969,"lon":5.38499,"is_reserved":false,"is_disabled":true,"rental_uris":{"android":"levelo://app?vid=f9e861f4-16d9-40ac-8270-901434dbcb34","ios":"levelo://app?vid=f9e861f4-16d9-40ac-8270-901434dbcb34"},"vehicle_type_id":"4","last_reported":1749924801,"current_range_meters":0,"station_id":"ce4bgj92rcd13ifvqbd0","pricing_plan_id":"cebpf4jnsgd1na2vs0mg"},{"bike_id":"f8766935-88a5-41d2-acb9-e75fda6a64e0","system_id":"levelo_inurba_marseille","lat":43.299603,"lon":5.385001,"is_reserved":false,"is_disabled":true,"rental_uris":{"android":"levelo://app?vid=f8766935-88a5-41d2-acb9-e75fda6a64e0","ios":"levelo://app?vid=f8766935-88a5-41d2-acb9-e75fda6a64e0"},"vehicle_type_id":"4","last_reported":1749924801,"current_range_meters":0,"station_id":"ce4bgj92rcd13ifvqbd0","pricing_plan_id":"cebpf4jnsgd1na2vs0mg"},{"bike_id":"b8352bf9-62a7-408b-b979-cc5fa4d3c6d0","system_id":"levelo_inurba_marseille","lat":43.2995,"lon":5.38513,"is_reserved":false,"is_disabled":true,"rental_uris":{"android":"levelo://app?vid=b8352bf9-62a7-408b-b979-cc5fa4d3c6d0","ios":"levelo://app?vid=b8352bf9-62a7-408b-b979-cc5fa4d3c6d0"},"vehicle_type_id":"4","last_reported":1749924801,"current_range_meters":0,"station_id":"ce4bgj92rcd13ifvqbd0","pricing_plan_id":"cebpf4jnsgd1na2vs0mg"},{"bike_id":"fe909eec-57cb-4f6d-9797-191bc789bd7d","system_id":"levelo_inurba_marseille","lat":43.31182,"lon":5.3687,"is_reserved":false,"is_disabled":true,"rental_uris":{"android":"levelo://app?vid=fe909eec-57cb-4f6d-9797-191bc789bd7d","ios":"levelo://app?vid=fe909eec-57cb-4f6d-9797-191bc789bd7d"},"vehicle_type_id":"4","last_reported":1749924801,"current_range_meters":0,"station_id":"ce4bgl92rcd13ifvqbq0","pricing_plan_id":"cebpf4jnsgd1na2vs0mg"},{"bike_id":"207d5581-e8db-4526-b43c-9ed6efab7d3c","system_id":"levelo_inurba_marseille","lat":43.30807,"lon":5.38152,"is_reserved":false,"is_disabled":true,"rental_uris":{"android":"levelo://app?vid=207d5581-e8db-4526-b43c-9ed6efab7d3c","ios":"levelo://app?vid=207d5581-e8db-4526-b43c-9ed6efab7d3c"},"vehicle_type_id":"4","last_reported":1749924801,"current_range_meters":0,"station_id":"ce4bgt12rcd13ifvqce0","pricing_plan_id":"cebpf4jnsgd1na2vs0mg"},{"bike_id":"ec2d6170-44cf-4251-95eb-29b26e96a6e8","system_id":"levelo_inurba_marseille","lat":43.29505,"lon":5.39028,"is_reserved":false,"is_disabled":true,"rental_uris":{"android":"levelo://app?vid=ec2d6170-44cf-4251-95eb-29b26e96a6e8","ios":"levelo://app?vid=ec2d6170-44cf-4251-95eb-29b26e96a6e8"},"vehicle_type_id":"4","last_reported":1749924801,"current_range_meters":0,"station_id":"ce4bh3p2rcd13ifvqdp0","pricing_plan_id":"cebpf4jnsgd1na2vs0mg"},{"bike_id":"4a6bf67a-c91b-4b4f-8dfc-5f6f5cdacaaa","system_id":"levelo_inurba_marseille","lat":43.28488,"lon":5.38414,"is_reserved":false,"is_disabled":true,"rental_uris":{"android":"levelo://app?vid=4a6bf67a-c91b-4b4f-8dfc-5f6f5cdacaaa","ios":"levelo://app?vid=4a6bf67a-c91b-4b4f-8dfc-5f6f5cdacaaa"},"vehicle_type_id":"4","last_reported":1749924801,"current_range_meters":0,"station_id":"ce4bh512rcd13ifvqe3g","pricing_plan_id":"cebpf4jnsgd1na2vs0mg"},{"bike_id":"02d40cf4-a627-4e77-b30e-cbf294009169","system_id":"levelo_inurba_marseille","lat":43.28941,"lon":5.36635,"is_reserved":false,"is_disabled":true,"rental_uris":{"android":"levelo://app?vid=02d40cf4-a627-4e77-b30e-cbf294009169","ios":"levelo://app?vid=02d40cf4-a627-4e77-b30e-cbf294009169"},"vehicle_type_id":"4","last_reported":1749924801,"current_range_meters":0,"station_id":"ce4bhap2rcd13ifvqek0","pricing_plan_id":"cebpf4jnsgd1na2vs0mg"},{"bike_id":"f7f70677-7fdb-4bc9-a1bd-bb5ad9aa54e9","system_id":"levelo_inurba_marseille","lat":43.29002,"lon":5.3562,"is_reserved":false,"is_disabled":false,"rental_uris":{"android":"levelo://app?vid=f7f70677-7fdb-4bc9-a1bd-bb5ad9aa54e9","ios":"levelo://app?vid=f7f70677-7fdb-4bc9-a1bd-bb5ad9aa54e9"},"vehicle_type_id":"4","last_reported":1749924801,"current_range_meters":0,"station_id":"ce4bhb92rcd13ifvqen0","pricing_plan_id":"cebpf4jnsgd1na2vs0mg"},{"bike_id":"69f1b467-6737-4af7-8f51-2f07fc1d76d1","system_id":"levelo_inurba_marseille","lat":43.2902,"lon":5.35606,"is_reserved":false,"is_disabled":true,"rental_uris":{"android":"levelo://app?vid=69f1b467-6737-4af7-8f51-2f07fc1d76d1","ios":"levelo://app?vid=69f1b467-6737-4af7-8f51-2f07fc1d76d1"},"vehicle_type_id":"4","last_reported":1749924801,"current_range_meters":0,"station_id":"ce4bhb92rcd13ifvqen0","pricing_plan_id":"cebpf4jnsgd1na2vs0mg"},{"bike_id":"aa1742ce-e401-40a0-8f9e-0e99f8341247","system_id":"levelo_inurba_marseille","lat":43.29234,"lon":5.36071,"is_reserved":false,"is_disabled":true,"rental_uris":{"android":"levelo://app?vid=aa1742ce-e401-40a0-8f9e-0e99f8341247","ios":"levelo://app?vid=aa1742ce-e401-40a0-8f9e-0e99f8341247"},"vehicle_type_id":"4","last_reported":1749924801,"current_range_meters":0,"station_id":"ce4bhbh2rcd13ifvqeqg","pricing_plan_id":"cebpf4jnsgd1na2vs0mg"},{"bike_id":"37c172cd-a4e1-43d8-9e18-8cca8db746e6","system_id":"levelo_inurba_marseille","lat":43.28618,"lon":5.35104,"is_reserved":false,"is_disabled":true,"rental_uris":{"android":"levelo://app?vid=37c172cd-a4e1-43d8-9e18-8cca8db746e6","ios":"levelo://app?vid=37c172cd-a4e1-43d8-9e18-8cca8db746e6"},"vehicle_type_id":"4","last_reported":1749924801,"current_range_meters":0,"station_id":"ce4bhch2rcd13ifvqeug","pricing_plan_id":"cebpf4jnsgd1na2vs0mg"},{"bike_id":"ead5261f-b68a-4974-af02-88f278515049","system_id":"levelo_inurba_marseille","lat":43.26558,"lon":5.37284,"is_reserved":false,"is_disabled":true,"rental_uris":{"android":"levelo://app?vid=ead5261f-b68a-4974-af02-88f278515049","ios":"levelo://app?vid=ead5261f-b68a-4974-af02-88f278515049"},"vehicle_type_id":"4","last_reported":1749924801,"current_range_meters":0,"station_id":"ce4bhg12rcd13ifvqf70","pricing_plan_id":"cebpf4jnsgd1na2vs0mg"},{"bike_id":"685766f3-dbd9-4ab1-aef0-2122149a4c10","system_id":"levelo_inurba_marseille","lat":43.26694,"lon":5.38266,"is_reserved":false,"is_disabled":true,"rental_uris":{"android":"levelo://app?vid=685766f3-dbd9-4ab1-aef0-2122149a4c10","ios":"levelo://app?vid=685766f3-dbd9-4ab1-aef0-2122149a4c10"},"vehicle_type_id":"4","last_reported":1749924801,"current_range_meters":0,"station_id":"ce4bhg92rcd13ifvqf90","pricing_plan_id":"cebpf4jnsgd1na2vs0mg"},{"bike_id":"af19a4da-4221-4f45-9f2f-268ad0119bc5","system_id":"levelo_inurba_marseille","lat":43.25871,"lon":5.3988,"is_reserved":false,"is_disabled":true,"rental_uris":{"android":"levelo://app?vid=af19a4da-4221-4f45-9f2f-268ad0119bc5","ios":"levelo://app?vid=af19a4da-4221-4f45-9f2f-268ad0119bc5"},"vehicle_type_id":"4","last_reported":1749924801,"current_range_meters":0,"station_id":"ce4bhl92rcd13ifvqghg","pricing_plan_id":"cebpf4jnsgd1na2vs0mg"},{"bike_id":"e55db529-d8f0-4d2f-bc7a-0e2f2ae0f7ff","system_id":"levelo_inurba_marseille","lat":43.32105,"lon":5.36765,"is_reserved":false,"is_disabled":true,"rental_uris":{"android":"levelo://app?vid=e55db529-d8f0-4d2f-bc7a-0e2f2ae0f7ff","ios":"levelo://app?vid=e55db529-d8f0-4d2f-bc7a-0e2f2ae0f7ff"},"vehicle_type_id":"4","last_reported":1749924801,"current_range_meters":0,"station_id":"ce4bhrh2rcd13ifvqhug","pricing_plan_id":"cebpf4jnsgd1na2vs0mg"},{"bike_id":"1e770773-1443-4e4b-86e4-7e3e937ac357","system_id":"levelo_inurba_marseille","lat":43.32103,"lon":5.36771,"is_reserved":false,"is_disabled":true,"rental_uris":{"android":"levelo://app?vid=1e770773-1443-4e4b-86e4-7e3e937ac357","ios":"levelo://app?vid=1e770773-1443-4e4b-86e4-7e3e937ac357"},"vehicle_type_id":"4","last_reported":1749924801,"current_range_meters":0,"station_id":"ce4bhrh2rcd13ifvqhug","pricing_plan_id":"cebpf4jnsgd1na2vs0mg"},{"bike_id":"decb9266-83c3-47b3-a7fc-a36ac1347761","system_id":"levelo_inurba_marseille","lat":43.32482,"lon":5.36557,"is_reserved":false,"is_disabled":true,"rental_uris":{"android":"levelo://app?vid=decb9266-83c3-47b3-a7fc-a36ac1347761","ios":"levelo://app?vid=decb9266-83c3-47b3-a7fc-a36ac1347761"},"vehicle_type_id":"4","last_reported":1749924801,"current_range_meters":0,"station_id":"ce4bhs12rcd13ifvqhvg","pricing_plan_id":"cebpf4jnsgd1na2vs0mg"},{"bike_id":"0f50c2eb-d288-4d90-a9a3-cd0743222590","system_id":"levelo_inurba_marseille","lat":43.22503,"lon":5.34779,"is_reserved":false,"is_disabled":true,"rental_uris":{"android":"levelo://app?vid=0f50c2eb-d288-4d90-a9a3-cd0743222590","ios":"levelo://app?vid=0f50c2eb-d288-4d90-a9a3-cd0743222590"},"vehicle_type_id":"4","last_reported":1749924801,"current_range_meters":0,"station_id":"st_cvj5dfep6f1abm77gieg","pricing_plan_id":"cebpf4jnsgd1na2vs0mg"},{"bike_id":"77e1b72a-e412-4bf7-b26d-9074f78abf68","system_id":"levelo_inurba_marseille","lat":43.22528,"lon":5.34774,"is_reserved":false,"is_disabled":true,"rental_uris":{"android":"levelo://app?vid=77e1b72a-e412-4bf7-b26d-9074f78abf68","ios":"levelo://app?vid=77e1b72a-e412-4bf7-b26d-9074f78abf68"},"vehicle_type_id":"4","last_reported":1749924801,"current_range_meters":0,"station_id":"st_cvj5dfep6f1abm77gieg","pricing_plan_id":"cebpf4jnsgd1na2vs0mg"},{"bike_id":"fe5a9aaf-2d36-4b9d-abdd-dc360a59de38","system_id":"levelo_inurba_marseille","lat":43.2174,"lon":5.34604,"is_reserved":false,"is_disabled":true,"rental_uris":{"android":"levelo://app?vid=fe5a9aaf-2d36-4b9d-abdd-dc360a59de38","ios":"levelo://app?vid=fe5a9aaf-2d36-4b9d-abdd-dc360a59de38"},"vehicle_type_id":"4","last_reported":1749924801,"current_range_meters":0,"station_id":"st_cvj6r9ubvosntc0bgbag","pricing_plan_id":"cebpf4jnsgd1na2vs0mg"},{"bike_id":"ceed8e49-424f-4eba-95a3-d0aed3600067","system_id":"levelo_inurba_marseille","lat":43.21196,"lon":5.3507,"is_reserved":false,"is_disabled":true,"rental_uris":{"android":"levelo://app?vid=ceed8e49-424f-4eba-95a3-d0aed3600067","ios":"levelo://app?vid=ceed8e49-424f-4eba-95a3-d0aed3600067"},"vehicle_type_id":"4","last_reported":1749924801,"current_range_meters":0,"station_id":"st_cvj6sg6p6f1abm77japg","pricing_plan_id":"cebpf4jnsgd1na2vs0mg"},{"bike_id":"22e3052f-4d0e-4c5d-8449-17615ab2de52","system_id":"levelo_inurba_marseille","lat":43.29306,"lon":5.371693,"is_reserved":false,"is_disabled":true,"rental_uris":{"android":"levelo://app?vid=22e3052f-4d0e-4c5d-8449-17615ab2de52","ios":"levelo://app?vid=22e3052f-4d0e-4c5d-8449-17615ab2de52"},"vehicle_type_id":"4","last_reported":1749924801,"current_range_meters":400,"station_id":"ce4bgh92rcd13ifvqb40","pricing_plan_id":"cebpf4jnsgd1na2vs0mg"},{"bike_id":"d54d31b5-e2db-4fc9-931d-9af2a90eeb91","system_id":"levelo_inurba_marseille","lat":43.29747,"lon":5.37693,"is_reserved":false,"is_disabled":true,"rental_uris":{"android":"levelo://app?vid=d54d31b5-e2db-4fc9-931d-9af2a90eeb91","ios":"levelo://app?vid=d54d31b5-e2db-4fc9-931d-9af2a90eeb91"},"vehicle_type_id":"4","last_reported":1749924801,"current_range_meters":400,"station_id":"ce4bgkh2rcd13ifvqbl0","pricing_plan_id":"cebpf4jnsgd1na2vs0mg"},{"bike_id":"b68a491c-c3dd-41c8-9831-20fa417a7974","system_id":"levelo_inurba_marseille","lat":43.29035,"lon":5.38656,"is_reserved":false,"is_disabled":true,"rental_uris":{"android":"levelo://app?vid=b68a491c-c3dd-41c8-9831-20fa417a7974","ios":"levelo://app?vid=b68a491c-c3dd-41c8-9831-20fa417a7974"},"vehicle_type_id":"4","last_reported":1749924801,"current_range_meters":400,"station_id":"ce4bh4p2rcd13ifvqe0g","pricing_plan_id":"cebpf4jnsgd1na2vs0mg"},{"bike_id":"712090a9-fe90-494b-834c-cd44c355641f","system_id":"levelo_inurba_marseille","lat":43.26681,"lon":5.38269,"is_reserved":false,"is_disabled":true,"rental_uris":{"android":"levelo://app?vid=712090a9-fe90-494b-834c-cd44c355641f","ios":"levelo://app?vid=712090a9-fe90-494b-834c-cd44c355641f"},"vehicle_type_id":"4","last_reported":1749924801,"current_range_meters":400,"station_id":"ce4bhg92rcd13ifvqf90","pricing_plan_id":"cebpf4jnsgd1na2vs0mg"},{"bike_id":"c3144f05-5808-4272-be4f-743b3aae7d2a","system_id":"levelo_inurba_marseille","lat":43.23953,"lon":5.36651,"is_reserved":false,"is_disabled":true,"rental_uris":{"android":"levelo://app?vid=c3144f05-5808-4272-be4f-743b3aae7d2a","ios":"levelo://app?vid=c3144f05-5808-4272-be4f-743b3aae7d2a"},"vehicle_type_id":"4","last_reported":1749924801,"current_range_meters":400,"station_id":"ce4bhi12rcd13ifvqfp0","pricing_plan_id":"cebpf4jnsgd1na2vs0mg"},{"bike_id":"f9390b22-62dd-4c3e-b3ef-262f5cb0ce97","system_id":"levelo_inurba_marseille","lat":43.27064,"lon":5.40247,"is_reserved":false,"is_disabled":true,"rental_uris":{"android":"levelo://app?vid=f9390b22-62dd-4c3e-b3ef-262f5cb0ce97","ios":"levelo://app?vid=f9390b22-62dd-4c3e-b3ef-262f5cb0ce97"},"vehicle_type_id":"4","last_reported":1749924801,"current_range_meters":400,"station_id":"ce4bhk92rcd13ifvqgc0","pricing_plan_id":"cebpf4jnsgd1na2vs0mg"},{"bike_id":"ad8e7e7d-200f-4ae2-9917-291923de1beb","system_id":"levelo_inurba_marseille","lat":43.281576,"lon":5.426423,"is_reserved":false,"is_disabled":true,"rental_uris":{"android":"levelo://app?vid=ad8e7e7d-200f-4ae2-9917-291923de1beb","ios":"levelo://app?vid=ad8e7e7d-200f-4ae2-9917-291923de1beb"},"vehicle_type_id":"4","last_reported":1749924801,"current_range_meters":400,"station_id":"ce4bhnh2rcd13ifvqgug","pricing_plan_id":"cebpf4jnsgd1na2vs0mg"},{"bike_id":"04005531-52ef-4a8c-a6d8-546a39325ee5","system_id":"levelo_inurba_marseille","lat":43.22503,"lon":5.34788,"is_reserved":false,"is_disabled":true,"rental_uris":{"android":"levelo://app?vid=04005531-52ef-4a8c-a6d8-546a39325ee5","ios":"levelo://app?vid=04005531-52ef-4a8c-a6d8-546a39325ee5"},"vehicle_type_id":"4","last_reported":1749924801,"current_range_meters":400,"station_id":"st_cvj5dfep6f1abm77gieg","pricing_plan_id":"cebpf4jnsgd1na2vs0mg"},{"bike_id":"4fdba082-31cf-48ee-9ca6-8ad0e5aa1735","system_id":"levelo_inurba_marseille","lat":43.292293,"lon":5.368113,"is_reserved":false,"is_disabled":true,"rental_uris":{"android":"levelo://app?vid=4fdba082-31cf-48ee-9ca6-8ad0e5aa1735","ios":"levelo://app?vid=4fdba082-31cf-48ee-9ca6-8ad0e5aa1735"},"vehicle_type_id":"4","last_reported":1749924801,"current_range_meters":800,"station_id":"","pricing_plan_id":"cebpf4jnsgd1na2vs0mg"},{"bike_id":"8d60347d-541c-40fb-90ca-203bf6bd520a","system_id":"levelo_inurba_marseille","lat":43.27134,"lon":5.36412,"is_reserved":false,"is_disabled":true,"rental_uris":{"android":"levelo://app?vid=8d60347d-541c-40fb-90ca-203bf6bd520a","ios":"levelo://app?vid=8d60347d-541c-40fb-90ca-203bf6bd520a"},"vehicle_type_id":"4","last_reported":1749924801,"current_range_meters":800,"station_id":"","pricing_plan_id":"cebpf4jnsgd1na2vs0mg"},{"bike_id":"d3ebb6ec-86aa-4f70-bf23-3de8316d3135","system_id":"levelo_inurba_marseille","lat":43.30555,"lon":5.3653,"is_reserved":false,"is_disabled":true,"rental_uris":{"android":"levelo://app?vid=d3ebb6ec-86aa-4f70-bf23-3de8316d3135","ios":"levelo://app?vid=d3ebb6ec-86aa-4f70-bf23-3de8316d3135"},"vehicle_type_id":"4","last_reported":1749924801,"current_range_meters":800,"station_id":"ce4bgs12rcd13ifvqcag","pricing_plan_id":"cebpf4jnsgd1na2vs0mg"},{"bike_id":"038ba639-649f-4697-ac36-6533c3e52a06","system_id":"levelo_inurba_marseille","lat":43.27373,"lon":5.36258,"is_reserved":false,"is_disabled":true,"rental_uris":{"android":"levelo://app?vid=038ba639-649f-4697-ac36-6533c3e52a06","ios":"levelo://app?vid=038ba639-649f-4697-ac36-6533c3e52a06"},"vehicle_type_id":"4","last_reported":1749924801,"current_range_meters":800,"station_id":"ce4bhbh2rcd13ifvqeo0","pricing_plan_id":"cebpf4jnsgd1na2vs0mg"},{"bike_id":"9f187787-2c1d-45cf-bfe6-3396cba511a5","system_id":"levelo_inurba_marseille","lat":43.26357,"lon":5.37815,"is_reserved":false,"is_disabled":true,"rental_uris":{"android":"levelo://app?vid=9f187787-2c1d-45cf-bfe6-3396cba511a5","ios":"levelo://app?vid=9f187787-2c1d-45cf-bfe6-3396cba511a5"},"vehicle_type_id":"4","last_reported":1749924801,"current_range_meters":800,"station_id":"st_d163nis0mtpqnht9uue0","pricing_plan_id":"cebpf4jnsgd1na2vs0mg"},{"bike_id":"3fdc4d5f-2c8e-4479-8ccf-382eed1600ea","system_id":"levelo_inurba_marseille","lat":43.29186,"lon":5.39331,"is_reserved":false,"is_disabled":true,"rental_uris":{"android":"levelo://app?vid=3fdc4d5f-2c8e-4479-8ccf-382eed1600ea","ios":"levelo://app?vid=3fdc4d5f-2c8e-4479-8ccf-382eed1600ea"},"vehicle_type_id":"4","last_reported":1749924801,"current_range_meters":1200,"station_id":"ce4bh192rcd13ifvqdd0","pricing_plan_id":"cebpf4jnsgd1na2vs0mg"},{"bike_id":"ae06ba71-f05b-480e-b3a1-01f76c4194a7","system_id":"levelo_inurba_marseille","lat":43.291,"lon":5.38126,"is_reserved":false,"is_disabled":true,"rental_uris":{"android":"levelo://app?vid=ae06ba71-f05b-480e-b3a1-01f76c4194a7","ios":"levelo://app?vid=ae06ba71-f05b-480e-b3a1-01f76c4194a7"},"vehicle_type_id":"4","last_reported":1749924801,"current_range_meters":1200,"station_id":"ce4bh512rcd13ifvqe2g","pricing_plan_id":"cebpf4jnsgd1na2vs0mg"},{"bike_id":"aa7d71c6-cbc7-4e17-adef-91216fd157cf","system_id":"levelo_inurba_marseille","lat":43.26212,"lon":5.37438,"is_reserved":false,"is_disabled":true,"rental_uris":{"android":"levelo://app?vid=aa7d71c6-cbc7-4e17-adef-91216fd157cf","ios":"levelo://app?vid=aa7d71c6-cbc7-4e17-adef-91216fd157cf"},"vehicle_type_id":"4","last_reported":1749924801,"current_range_meters":1200,"station_id":"ce4bhgp2rcd13ifvqfc0","pricing_plan_id":"cebpf4jnsgd1na2vs0mg"},{"bike_id":"0e3ea83e-e73d-40ce-9112-b17acaf390ef","system_id":"levelo_inurba_marseille","lat":43.26367,"lon":5.37806,"is_reserved":false,"is_disabled":true,"rental_uris":{"android":"levelo://app?vid=0e3ea83e-e73d-40ce-9112-b17acaf390ef","ios":"levelo://app?vid=0e3ea83e-e73d-40ce-9112-b17acaf390ef"},"vehicle_type_id":"4","last_reported":1749924801,"current_range_meters":1200,"station_id":"st_d163nis0mtpqnht9uue0","pricing_plan_id":"cebpf4jnsgd1na2vs0mg"},{"bike_id":"3e20fb88-01fa-46e1-9669-e14c926f4baa","system_id":"levelo_inurba_marseille","lat":43.30168,"lon":5.38071,"is_reserved":false,"is_disabled":true,"rental_uris":{"android":"levelo://app?vid=3e20fb88-01fa-46e1-9669-e14c926f4baa","ios":"levelo://app?vid=3e20fb88-01fa-46e1-9669-e14c926f4baa"},"vehicle_type_id":"4","last_reported":1749924801,"current_range_meters":1600,"station_id":"ce4bgjp2rcd13ifvqbh0","pricing_plan_id":"cebpf4jnsgd1na2vs0mg"},{"bike_id":"609db677-a0e7-4d55-b93c-d09aed77ff81","system_id":"levelo_inurba_marseille","lat":43.30134,"lon":5.39863,"is_reserved":false,"is_disabled":true,"rental_uris":{"android":"levelo://app?vid=609db677-a0e7-4d55-b93c-d09aed77ff81","ios":"levelo://app?vid=609db677-a0e7-4d55-b93c-d09aed77ff81"},"vehicle_type_id":"4","last_reported":1749924801,"current_range_meters":1600,"station_id":"ce4bh0h2rcd13ifvqd40","pricing_plan_id":"cebpf4jnsgd1na2vs0mg"},{"bike_id":"756cb489-3bb5-4b49-a21a-263fc89b618d","system_id":"levelo_inurba_marseille","lat":43.28857,"lon":5.3584,"is_reserved":false,"is_disabled":true,"rental_uris":{"android":"levelo://app?vid=756cb489-3bb5-4b49-a21a-263fc89b618d","ios":"levelo://app?vid=756cb489-3bb5-4b49-a21a-263fc89b618d"},"vehicle_type_id":"4","last_reported":1749924801,"current_range_meters":1600,"station_id":"ce4bhb12rcd13ifvqem0","pricing_plan_id":"cebpf4jnsgd1na2vs0mg"},{"bike_id":"4739fd10-ac0c-4a7f-8b94-d21a541aa9e1","system_id":"levelo_inurba_marseille","lat":43.27369,"lon":5.36247,"is_reserved":false,"is_disabled":true,"rental_uris":{"android":"levelo://app?vid=4739fd10-ac0c-4a7f-8b94-d21a541aa9e1","ios":"levelo://app?vid=4739fd10-ac0c-4a7f-8b94-d21a541aa9e1"},"vehicle_type_id":"4","last_reported":1749924801,"current_range_meters":1600,"station_id":"ce4bhbh2rcd13ifvqeo0","pricing_plan_id":"cebpf4jnsgd1na2vs0mg"},{"bike_id":"848b9dbc-7e27-4c87-8c25-ffe82de6b7e9","system_id":"levelo_inurba_marseille","lat":43.292725,"lon":5.368442,"is_reserved":false,"is_disabled":true,"rental_uris":{"android":"levelo://app?vid=848b9dbc-7e27-4c87-8c25-ffe82de6b7e9","ios":"levelo://app?vid=848b9dbc-7e27-4c87-8c25-ffe82de6b7e9"},"vehicle_type_id":"4","last_reported":1749924801,"current_range_meters":1600,"station_id":"ce4bhbp2rcd13ifvqesg","pricing_plan_id":"cebpf4jnsgd1na2vs0mg"},{"bike_id":"935a70db-1975-4ef9-b44e-f58671276cf4","system_id":"levelo_inurba_marseille","lat":43.284899,"lon":5.385234,"is_reserved":false,"is_disabled":true,"rental_uris":{"android":"levelo://app?vid=935a70db-1975-4ef9-b44e-f58671276cf4","ios":"levelo://app?vid=935a70db-1975-4ef9-b44e-f58671276cf4"},"vehicle_type_id":"4","last_reported":1749924801,"current_range_meters":2000,"station_id":"ce4bh492rcd13ifvqdvg","pricing_plan_id":"cebpf4jnsgd1na2vs0mg"},{"bike_id":"1dfeb354-2d21-4ac5-a28b-d907215afbcf","system_id":"levelo_inurba_marseille","lat":43.26563,"lon":5.37278,"is_reserved":false,"is_disabled":true,"rental_uris":{"android":"levelo://app?vid=1dfeb354-2d21-4ac5-a28b-d907215afbcf","ios":"levelo://app?vid=1dfeb354-2d21-4ac5-a28b-d907215afbcf"},"vehicle_type_id":"4","last_reported":1749924801,"current_range_meters":2000,"station_id":"ce4bhg12rcd13ifvqf70","pricing_plan_id":"cebpf4jnsgd1na2vs0mg"},{"bike_id":"18863b1c-6ecc-4fcd-8add-d4e29034b7df","system_id":"levelo_inurba_marseille","lat":43.26924,"lon":5.388897,"is_reserved":false,"is_disabled":true,"rental_uris":{"android":"levelo://app?vid=18863b1c-6ecc-4fcd-8add-d4e29034b7df","ios":"levelo://app?vid=18863b1c-6ecc-4fcd-8add-d4e29034b7df"},"vehicle_type_id":"4","last_reported":1749924801,"current_range_meters":2000,"station_id":"ce4bhhh2rcd13ifvqfl0","pricing_plan_id":"cebpf4jnsgd1na2vs0mg"},{"bike_id":"ebd93357-9bde-4bca-94d4-5325cf80feeb","system_id":"levelo_inurba_marseille","lat":43.28157,"lon":5.42654,"is_reserved":false,"is_disabled":true,"rental_uris":{"android":"levelo://app?vid=ebd93357-9bde-4bca-94d4-5325cf80feeb","ios":"levelo://app?vid=ebd93357-9bde-4bca-94d4-5325cf80feeb"},"vehicle_type_id":"4","last_reported":1749924801,"current_range_meters":2000,"station_id":"ce4bhnh2rcd13ifvqgug","pricing_plan_id":"cebpf4jnsgd1na2vs0mg"},{"bike_id":"9d1972fa-6dbb-497a-bcd4-3c0c521e9081","system_id":"levelo_inurba_marseille","lat":43.26827,"lon":5.40253,"is_reserved":false,"is_disabled":true,"rental_uris":{"android":"levelo://app?vid=9d1972fa-6dbb-497a-bcd4-3c0c521e9081","ios":"levelo://app?vid=9d1972fa-6dbb-497a-bcd4-3c0c521e9081"},"vehicle_type_id":"4","last_reported":1749924801,"current_range_meters":2000,"station_id":"ce501612rcd8frsf0b60","pricing_plan_id":"cebpf4jnsgd1na2vs0mg"},{"bike_id":"0fd9e828-e6c3-49a3-9f9d-7c850428d9d5","system_id":"levelo_inurba_marseille","lat":43.30951,"lon":5.39031,"is_reserved":false,"is_disabled":false,"rental_uris":{"android":"levelo://app?vid=0fd9e828-e6c3-49a3-9f9d-7c850428d9d5","ios":"levelo://app?vid=0fd9e828-e6c3-49a3-9f9d-7c850428d9d5"},"vehicle_type_id":"4","last_reported":1749924801,"current_range_meters":2800,"station_id":"ce4bgup2rcd13ifvqco0","pricing_plan_id":"cebpf4jnsgd1na2vs0mg"},{"bike_id":"3a2c7483-084d-48bc-bacb-c7257d506eca","system_id":"levelo_inurba_marseille","lat":43.28113,"lon":5.37832,"is_reserved":false,"is_disabled":false,"rental_uris":{"android":"levelo://app?vid=3a2c7483-084d-48bc-bacb-c7257d506eca","ios":"levelo://app?vid=3a2c7483-084d-48bc-bacb-c7257d506eca"},"vehicle_type_id":"4","last_reported":1749924801,"current_range_meters":2800,"station_id":"ce4bha12rcd13ifvqee0","pricing_plan_id":"cebpf4jnsgd1na2vs0mg"},{"bike_id":"db5bf899-dee1-427f-afc5-18c69f43112c","system_id":"levelo_inurba_marseille","lat":43.25875,"lon":5.39893,"is_reserved":false,"is_disabled":false,"rental_uris":{"android":"levelo://app?vid=db5bf899-dee1-427f-afc5-18c69f43112c","ios":"levelo://app?vid=db5bf899-dee1-427f-afc5-18c69f43112c"},"vehicle_type_id":"4","last_reported":1749924801,"current_range_meters":2800,"station_id":"ce4bhl92rcd13ifvqghg","pricing_plan_id":"cebpf4jnsgd1na2vs0mg"},{"bike_id":"f4fa6d92-5a22-4bbf-97cd-b215708fc6f8","system_id":"levelo_inurba_marseille","lat":43.24176,"lon":5.39728,"is_reserved":false,"is_disabled":false,"rental_uris":{"android":"levelo://app?vid=f4fa6d92-5a22-4bbf-97cd-b215708fc6f8","ios":"levelo://app?vid=f4fa6d92-5a22-4bbf-97cd-b215708fc6f8"},"vehicle_type_id":"4","last_reported":1749924801,"current_range_meters":2800,"station_id":"ce4bhn12rcd13ifvqgpg","pricing_plan_id":"cebpf4jnsgd1na2vs0mg"},{"bike_id":"97421c04-2630-4fc1-9da9-b17d88602c5f","system_id":"levelo_inurba_marseille","lat":43.337682,"lon":5.374519,"is_reserved":false,"is_disabled":false,"rental_uris":{"android":"levelo://app?vid=97421c04-2630-4fc1-9da9-b17d88602c5f","ios":"levelo://app?vid=97421c04-2630-4fc1-9da9-b17d88602c5f"},"vehicle_type_id":"4","last_reported":1749924801,"current_range_meters":3200,"station_id":"","pricing_plan_id":"cebpf4jnsgd1na2vs0mg"},{"bike_id":"f316f460-ca28-45f2-8a71-9e9b3a9322b8","system_id":"levelo_inurba_marseille","lat":43.29955,"lon":5.37163,"is_reserved":false,"is_disabled":false,"rental_uris":{"android":"levelo://app?vid=f316f460-ca28-45f2-8a71-9e9b3a9322b8","ios":"levelo://app?vid=f316f460-ca28-45f2-8a71-9e9b3a9322b8"},"vehicle_type_id":"4","last_reported":1749924801,"current_range_meters":3200,"station_id":"ce4bgr92rcd13ifvqc7g","pricing_plan_id":"cebpf4jnsgd1na2vs0mg"},{"bike_id":"ddcea3a7-7793-4a9f-a0d5-972c8ef9b614","system_id":"levelo_inurba_marseille","lat":43.29271,"lon":5.3845,"is_reserved":false,"is_disabled":false,"rental_uris":{"android":"levelo://app?vid=ddcea3a7-7793-4a9f-a0d5-972c8ef9b614","ios":"levelo://app?vid=ddcea3a7-7793-4a9f-a0d5-972c8ef9b614"},"vehicle_type_id":"4","last_reported":1749924801,"current_range_meters":3200,"station_id":"ce4bh692rcd13ifvqea0","pricing_plan_id":"cebpf4jnsgd1na2vs0mg"},{"bike_id":"b8403b2d-0baf-4f80-9aec-de8a749929bc","system_id":"levelo_inurba_marseille","lat":43.28456,"lon":5.35887,"is_reserved":false,"is_disabled":false,"rental_uris":{"android":"levelo://app?vid=b8403b2d-0baf-4f80-9aec-de8a749929bc","ios":"levelo://app?vid=b8403b2d-0baf-4f80-9aec-de8a749929bc"},"vehicle_type_id":"4","last_reported":1749924801,"current_range_meters":3200,"station_id":"ce4bhah2rcd13ifvqei0","pricing_plan_id":"cebpf4jnsgd1na2vs0mg"},{"bike_id":"4a016508-e124-41bf-a6da-694be8658de9","system_id":"levelo_inurba_marseille","lat":43.26556,"lon":5.37283,"is_reserved":false,"is_disabled":false,"rental_uris":{"android":"levelo://app?vid=4a016508-e124-41bf-a6da-694be8658de9","ios":"levelo://app?vid=4a016508-e124-41bf-a6da-694be8658de9"},"vehicle_type_id":"4","last_reported":1749924801,"current_range_meters":3200,"station_id":"ce4bhg12rcd13ifvqf70","pricing_plan_id":"cebpf4jnsgd1na2vs0mg"},{"bike_id":"fbc50c25-fcb5-4c1d-8adf-6b5003671706","system_id":"levelo_inurba_marseille","lat":43.26213,"lon":5.37454,"is_reserved":false,"is_disabled":false,"rental_uris":{"android":"levelo://app?vid=fbc50c25-fcb5-4c1d-8adf-6b5003671706","ios":"levelo://app?vid=fbc50c25-fcb5-4c1d-8adf-6b5003671706"},"vehicle_type_id":"4","last_reported":1749924801,"current_range_meters":3200,"station_id":"ce4bhgp2rcd13ifvqfc0","pricing_plan_id":"cebpf4jnsgd1na2vs0mg"},{"bike_id":"2977e800-ade2-4461-bdc5-dc4f2c7f493f","system_id":"levelo_inurba_marseille","lat":43.25492,"lon":5.37646,"is_reserved":false,"is_disabled":false,"rental_uris":{"android":"levelo://app?vid=2977e800-ade2-4461-bdc5-dc4f2c7f493f","ios":"levelo://app?vid=2977e800-ade2-4461-bdc5-dc4f2c7f493f"},"vehicle_type_id":"4","last_reported":1749924801,"current_range_meters":3200,"station_id":"ce4bhh12rcd13ifvqff0","pricing_plan_id":"cebpf4jnsgd1na2vs0mg"},{"bike_id":"b7d701f0-f66a-46aa-999e-1f1adcb68804","system_id":"levelo_inurba_marseille","lat":43.23959,"lon":5.36637,"is_reserved":false,"is_disabled":false,"rental_uris":{"android":"levelo://app?vid=b7d701f0-f66a-46aa-999e-1f1adcb68804","ios":"levelo://app?vid=b7d701f0-f66a-46aa-999e-1f1adcb68804"},"vehicle_type_id":"4","last_reported":1749924801,"current_range_meters":3200,"station_id":"ce4bhi12rcd13ifvqfp0","pricing_plan_id":"cebpf4jnsgd1na2vs0mg"},{"bike_id":"9bf9b16e-99e1-4b2d-a97f-94b6121ce170","system_id":"levelo_inurba_marseille","lat":43.32288,"lon":5.3827,"is_reserved":false,"is_disabled":false,"rental_uris":{"android":"levelo://app?vid=9bf9b16e-99e1-4b2d-a97f-94b6121ce170","ios":"levelo://app?vid=9bf9b16e-99e1-4b2d-a97f-94b6121ce170"},"vehicle_type_id":"4","last_reported":1749924801,"current_range_meters":3200,"station_id":"ce4bhr12rcd13ifvqhqg","pricing_plan_id":"cebpf4jnsgd1na2vs0mg"},{"bike_id":"9e8bf452-55b1-4544-82d6-1d327ab605dd","system_id":"levelo_inurba_marseille","lat":43.292236,"lon":5.360718,"is_reserved":false,"is_disabled":false,"rental_uris":{"android":"levelo://app?vid=9e8bf452-55b1-4544-82d6-1d327ab605dd","ios":"levelo://app?vid=9e8bf452-55b1-4544-82d6-1d327ab605dd"},"vehicle_type_id":"4","last_reported":1749924801,"current_range_meters":3600,"station_id":"","pricing_plan_id":"cebpf4jnsgd1na2vs0mg"},{"bike_id":"04065a7a-6492-4d06-90a3-ef581aa6f3ed","system_id":"levelo_inurba_marseille","lat":43.30794,"lon":5.3814,"is_reserved":false,"is_disabled":false,"rental_uris":{"android":"levelo://app?vid=04065a7a-6492-4d06-90a3-ef581aa6f3ed","ios":"levelo://app?vid=04065a7a-6492-4d06-90a3-ef581aa6f3ed"},"vehicle_type_id":"4","last_reported":1749924801,"current_range_meters":3600,"station_id":"ce4bgt12rcd13ifvqce0","pricing_plan_id":"cebpf4jnsgd1na2vs0mg"},{"bike_id":"fa39ec2f-7bba-42d7-bc97-69adcfde70c4","system_id":"levelo_inurba_marseille","lat":43.23179,"lon":5.39989,"is_reserved":false,"is_disabled":false,"rental_uris":{"android":"levelo://app?vid=fa39ec2f-7bba-42d7-bc97-69adcfde70c4","ios":"levelo://app?vid=fa39ec2f-7bba-42d7-bc97-69adcfde70c4"},"vehicle_type_id":"4","last_reported":1749924801,"current_range_meters":3600,"station_id":"ce4bhn12rcd13ifvqgqg","pricing_plan_id":"cebpf4jnsgd1na2vs0mg"},{"bike_id":"12c008fe-ee3a-430b-9df1-2a2e1019442e","system_id":"levelo_inurba_marseille","lat":43.23189,"lon":5.3999,"is_reserved":false,"is_disabled":false,"rental_uris":{"android":"levelo://app?vid=12c008fe-ee3a-430b-9df1-2a2e1019442e","ios":"levelo://app?vid=12c008fe-ee3a-430b-9df1-2a2e1019442e"},"vehicle_type_id":"4","last_reported":1749924801,"current_range_meters":3600,"station_id":"ce4bhn12rcd13ifvqgqg","pricing_plan_id":"cebpf4jnsgd1na2vs0mg"},{"bike_id":"07f34096-7f85-4160-b7bc-7b35fbc3de07","system_id":"levelo_inurba_marseille","lat":43.26684,"lon":5.38279,"is_reserved":false,"is_disabled":false,"rental_uris":{"android":"levelo://app?vid=07f34096-7f85-4160-b7bc-7b35fbc3de07","ios":"levelo://app?vid=07f34096-7f85-4160-b7bc-7b35fbc3de07"},"vehicle_type_id":"4","last_reported":1749924801,"current_range_meters":4000,"station_id":"ce4bhg92rcd13ifvqf90","pricing_plan_id":"cebpf4jnsgd1na2vs0mg"},{"bike_id":"38def5dd-d809-4adb-bd1d-955356d73dea","system_id":"levelo_inurba_marseille","lat":43.23956,"lon":5.36635,"is_reserved":false,"is_disabled":false,"rental_uris":{"android":"levelo://app?vid=38def5dd-d809-4adb-bd1d-955356d73dea","ios":"levelo://app?vid=38def5dd-d809-4adb-bd1d-955356d73dea"},"vehicle_type_id":"4","last_reported":1749924801,"current_range_meters":4000,"station_id":"ce4bhi12rcd13ifvqfp0","pricing_plan_id":"cebpf4jnsgd1na2vs0mg"},{"bike_id":"39ffc87e-dd04-47c4-8db4-f50b35cec72b","system_id":"levelo_inurba_marseille","lat":43.28444,"lon":5.39204,"is_reserved":false,"is_disabled":false,"rental_uris":{"android":"levelo://app?vid=39ffc87e-dd04-47c4-8db4-f50b35cec72b","ios":"levelo://app?vid=39ffc87e-dd04-47c4-8db4-f50b35cec72b"},"vehicle_type_id":"4","last_reported":1749924801,"current_range_meters":4000,"station_id":"ce4bhoh2rcd13ifvqh5g","pricing_plan_id":"cebpf4jnsgd1na2vs0mg"},{"bike_id":"7b4b12ec-07bc-4883-9bd1-d93d72d88a14","system_id":"levelo_inurba_marseille","lat":43.29172,"lon":5.37151,"is_reserved":false,"is_disabled":false,"rental_uris":{"android":"levelo://app?vid=7b4b12ec-07bc-4883-9bd1-d93d72d88a14","ios":"levelo://app?vid=7b4b12ec-07bc-4883-9bd1-d93d72d88a14"},"vehicle_type_id":"4","last_reported":1749924801,"current_range_meters":4400,"station_id":"ce4bha92rcd13ifvqeh0","pricing_plan_id":"cebpf4jnsgd1na2vs0mg"},{"bike_id":"f23ceec5-1ef2-4620-ac5f-4a1176e8b471","system_id":"levelo_inurba_marseille","lat":43.26692,"lon":5.38253,"is_reserved":false,"is_disabled":false,"rental_uris":{"android":"levelo://app?vid=f23ceec5-1ef2-4620-ac5f-4a1176e8b471","ios":"levelo://app?vid=f23ceec5-1ef2-4620-ac5f-4a1176e8b471"},"vehicle_type_id":"4","last_reported":1749924801,"current_range_meters":4400,"station_id":"ce4bhg92rcd13ifvqf90","pricing_plan_id":"cebpf4jnsgd1na2vs0mg"},{"bike_id":"f5b2ffae-c086-4e1b-b0fd-043d6026a577","system_id":"levelo_inurba_marseille","lat":43.33711,"lon":5.3917,"is_reserved":false,"is_disabled":false,"rental_uris":{"android":"levelo://app?vid=f5b2ffae-c086-4e1b-b0fd-043d6026a577","ios":"levelo://app?vid=f5b2ffae-c086-4e1b-b0fd-043d6026a577"},"vehicle_type_id":"4","last_reported":1749924801,"current_range_meters":4400,"station_id":"ce4bhr92rcd13ifvqhsg","pricing_plan_id":"cebpf4jnsgd1na2vs0mg"},{"bike_id":"fdf9ba6a-d144-49cc-83a9-1704e11a3f90","system_id":"levelo_inurba_marseille","lat":43.23041,"lon":5.3551,"is_reserved":false,"is_disabled":false,"rental_uris":{"android":"levelo://app?vid=fdf9ba6a-d144-49cc-83a9-1704e11a3f90","ios":"levelo://app?vid=fdf9ba6a-d144-49cc-83a9-1704e11a3f90"},"vehicle_type_id":"4","last_reported":1749924801,"current_range_meters":4400,"station_id":"cpo3342slgdg3j2ifvpg","pricing_plan_id":"cebpf4jnsgd1na2vs0mg"},{"bike_id":"90b974bb-1975-49f9-8789-3499ad4d8f91","system_id":"levelo_inurba_marseille","lat":43.24167,"lon":5.36388,"is_reserved":false,"is_disabled":false,"rental_uris":{"android":"levelo://app?vid=90b974bb-1975-49f9-8789-3499ad4d8f91","ios":"levelo://app?vid=90b974bb-1975-49f9-8789-3499ad4d8f91"},"vehicle_type_id":"4","last_reported":1749924801,"current_range_meters":4400,"station_id":"cpo36qri1sfpv3e86is0","pricing_plan_id":"cebpf4jnsgd1na2vs0mg"},{"bike_id":"b1064ed7-c4e6-471c-85c3-7d0dd2bd896b","system_id":"levelo_inurba_marseille","lat":43.26682,"lon":5.3827,"is_reserved":false,"is_disabled":false,"rental_uris":{"android":"levelo://app?vid=b1064ed7-c4e6-471c-85c3-7d0dd2bd896b","ios":"levelo://app?vid=b1064ed7-c4e6-471c-85c3-7d0dd2bd896b"},"vehicle_type_id":"4","last_reported":1749924801,"current_range_meters":4800,"station_id":"ce4bhg92rcd13ifvqf90","pricing_plan_id":"cebpf4jnsgd1na2vs0mg"},{"bike_id":"0e423339-486a-4383-b618-64dd06b96e1b","system_id":"levelo_inurba_marseille","lat":43.25493,"lon":5.37652,"is_reserved":false,"is_disabled":false,"rental_uris":{"android":"levelo://app?vid=0e423339-486a-4383-b618-64dd06b96e1b","ios":"levelo://app?vid=0e423339-486a-4383-b618-64dd06b96e1b"},"vehicle_type_id":"4","last_reported":1749924801,"current_range_meters":4800,"station_id":"ce4bhh12rcd13ifvqff0","pricing_plan_id":"cebpf4jnsgd1na2vs0mg"},{"bike_id":"a1a9565d-bb17-41c9-b605-d1fc00160b70","system_id":"levelo_inurba_marseille","lat":43.25499,"lon":5.37649,"is_reserved":false,"is_disabled":false,"rental_uris":{"android":"levelo://app?vid=a1a9565d-bb17-41c9-b605-d1fc00160b70","ios":"levelo://app?vid=a1a9565d-bb17-41c9-b605-d1fc00160b70"},"vehicle_type_id":"4","last_reported":1749924801,"current_range_meters":4800,"station_id":"ce4bhh12rcd13ifvqff0","pricing_plan_id":"cebpf4jnsgd1na2vs0mg"},{"bike_id":"75abf1fa-9b30-4332-b263-9505e8d9ed4b","system_id":"levelo_inurba_marseille","lat":43.23966,"lon":5.36625,"is_reserved":false,"is_disabled":false,"rental_uris":{"android":"levelo://app?vid=75abf1fa-9b30-4332-b263-9505e8d9ed4b","ios":"levelo://app?vid=75abf1fa-9b30-4332-b263-9505e8d9ed4b"},"vehicle_type_id":"4","last_reported":1749924801,"current_range_meters":4800,"station_id":"ce4bhi12rcd13ifvqfp0","pricing_plan_id":"cebpf4jnsgd1na2vs0mg"},{"bike_id":"f053ee2f-b0a9-4944-9983-ac7f640159db","system_id":"levelo_inurba_marseille","lat":43.26744,"lon":5.42742,"is_reserved":false,"is_disabled":false,"rental_uris":{"android":"levelo://app?vid=f053ee2f-b0a9-4944-9983-ac7f640159db","ios":"levelo://app?vid=f053ee2f-b0a9-4944-9983-ac7f640159db"},"vehicle_type_id":"4","last_reported":1749924801,"current_range_meters":5600,"station_id":"","pricing_plan_id":"cebpf4jnsgd1na2vs0mg"},{"bike_id":"16d8d838-889b-4912-997a-48cbb047b04b","system_id":"levelo_inurba_marseille","lat":43.33156,"lon":5.38166,"is_reserved":false,"is_disabled":false,"rental_uris":{"android":"levelo://app?vid=16d8d838-889b-4912-997a-48cbb047b04b","ios":"levelo://app?vid=16d8d838-889b-4912-997a-48cbb047b04b"},"vehicle_type_id":"4","last_reported":1749924801,"current_range_meters":5600,"station_id":"","pricing_plan_id":"cebpf4jnsgd1na2vs0mg"},{"bike_id":"437d33e0-90dd-47de-b612-d7425d7add29","system_id":"levelo_inurba_marseille","lat":43.29545,"lon":5.37502,"is_reserved":false,"is_disabled":false,"rental_uris":{"android":"levelo://app?vid=437d33e0-90dd-47de-b612-d7425d7add29","ios":"levelo://app?vid=437d33e0-90dd-47de-b612-d7425d7add29"},"vehicle_type_id":"4","last_reported":1749924801,"current_range_meters":5600,"station_id":"ce4bgkp2rcd13ifvqbmg","pricing_plan_id":"cebpf4jnsgd1na2vs0mg"},{"bike_id":"a0f036df-1928-4e01-b820-4f750a2d162e","system_id":"levelo_inurba_marseille","lat":43.30124,"lon":5.39861,"is_reserved":false,"is_disabled":false,"rental_uris":{"android":"levelo://app?vid=a0f036df-1928-4e01-b820-4f750a2d162e","ios":"levelo://app?vid=a0f036df-1928-4e01-b820-4f750a2d162e"},"vehicle_type_id":"4","last_reported":1749924801,"current_range_meters":5600,"station_id":"ce4bh0h2rcd13ifvqd40","pricing_plan_id":"cebpf4jnsgd1na2vs0mg"},{"bike_id":"aefdca1a-20e1-4608-91c0-36e99dd6d4ea","system_id":"levelo_inurba_marseille","lat":43.26676,"lon":5.38286,"is_reserved":false,"is_disabled":false,"rental_uris":{"android":"levelo://app?vid=aefdca1a-20e1-4608-91c0-36e99dd6d4ea","ios":"levelo://app?vid=aefdca1a-20e1-4608-91c0-36e99dd6d4ea"},"vehicle_type_id":"4","last_reported":1749924801,"current_range_meters":6000,"station_id":"ce4bhg92rcd13ifvqf90","pricing_plan_id":"cebpf4jnsgd1na2vs0mg"},{"bike_id":"4fba3df0-926f-490c-8ed5-e56bbc688fdf","system_id":"levelo_inurba_marseille","lat":43.31711,"lon":5.43706,"is_reserved":false,"is_disabled":false,"rental_uris":{"android":"levelo://app?vid=4fba3df0-926f-490c-8ed5-e56bbc688fdf","ios":"levelo://app?vid=4fba3df0-926f-490c-8ed5-e56bbc688fdf"},"vehicle_type_id":"4","last_reported":1749924801,"current_range_meters":6000,"station_id":"ce4bhp92rcd13ifvqhcg","pricing_plan_id":"cebpf4jnsgd1na2vs0mg"},{"bike_id":"a6ad01d0-efb1-4f14-a5fd-e22386289e67","system_id":"levelo_inurba_marseille","lat":43.32356,"lon":5.36728,"is_reserved":false,"is_disabled":false,"rental_uris":{"android":"levelo://app?vid=a6ad01d0-efb1-4f14-a5fd-e22386289e67","ios":"levelo://app?vid=a6ad01d0-efb1-4f14-a5fd-e22386289e67"},"vehicle_type_id":"4","last_reported":1749924801,"current_range_meters":6000,"station_id":"ce4bhsh2rcd13ifvqi2g","pricing_plan_id":"cebpf4jnsgd1na2vs0mg"},{"bike_id":"d08ceb6e-bb09-4d96-a815-acf4b6b23ab7","system_id":"levelo_inurba_marseille","lat":43.26364,"lon":5.37807,"is_reserved":false,"is_disabled":false,"rental_uris":{"android":"levelo://app?vid=d08ceb6e-bb09-4d96-a815-acf4b6b23ab7","ios":"levelo://app?vid=d08ceb6e-bb09-4d96-a815-acf4b6b23ab7"},"vehicle_type_id":"4","last_reported":1749924801,"current_range_meters":6000,"station_id":"st_d163nis0mtpqnht9uue0","pricing_plan_id":"cebpf4jnsgd1na2vs0mg"},{"bike_id":"5ec91d57-30fd-4d4e-b78e-19e3e2944e5f","system_id":"levelo_inurba_marseille","lat":43.29799,"lon":5.40402,"is_reserved":false,"is_disabled":false,"rental_uris":{"android":"levelo://app?vid=5ec91d57-30fd-4d4e-b78e-19e3e2944e5f","ios":"levelo://app?vid=5ec91d57-30fd-4d4e-b78e-19e3e2944e5f"},"vehicle_type_id":"4","last_reported":1749924801,"current_range_meters":6400,"station_id":"ce4bh112rcd13ifvqd90","pricing_plan_id":"cebpf4jnsgd1na2vs0mg"},{"bike_id":"8e69b3ab-400a-4f50-b149-314b3effe16b","system_id":"levelo_inurba_marseille","lat":43.24806,"lon":5.3745,"is_reserved":false,"is_disabled":false,"rental_uris":{"android":"levelo://app?vid=8e69b3ab-400a-4f50-b149-314b3effe16b","ios":"levelo://app?vid=8e69b3ab-400a-4f50-b149-314b3effe16b"},"vehicle_type_id":"4","last_reported":1749924801,"current_range_meters":6400,"station_id":"ce4bhgh2rcd13ifvqfb0","pricing_plan_id":"cebpf4jnsgd1na2vs0mg"},{"bike_id":"cf6b2cb5-9a50-4afe-971b-619c006f2f31","system_id":"levelo_inurba_marseille","lat":43.26073,"lon":5.39386,"is_reserved":false,"is_disabled":false,"rental_uris":{"android":"levelo://app?vid=cf6b2cb5-9a50-4afe-971b-619c006f2f31","ios":"levelo://app?vid=cf6b2cb5-9a50-4afe-971b-619c006f2f31"},"vehicle_type_id":"4","last_reported":1749924801,"current_range_meters":6400,"station_id":"ce4bhh92rcd13ifvqfj0","pricing_plan_id":"cebpf4jnsgd1na2vs0mg"},{"bike_id":"bf2a0de8-d8a6-480e-9f57-a7e99ad127f2","system_id":"levelo_inurba_marseille","lat":43.24167,"lon":5.36391,"is_reserved":false,"is_disabled":false,"rental_uris":{"android":"levelo://app?vid=bf2a0de8-d8a6-480e-9f57-a7e99ad127f2","ios":"levelo://app?vid=bf2a0de8-d8a6-480e-9f57-a7e99ad127f2"},"vehicle_type_id":"4","last_reported":1749924801,"current_range_meters":6400,"station_id":"cpo36qri1sfpv3e86is0","pricing_plan_id":"cebpf4jnsgd1na2vs0mg"},{"bike_id":"a6434323-32b4-4eee-bb84-9f780b51309d","system_id":"levelo_inurba_marseille","lat":43.29543,"lon":5.37504,"is_reserved":false,"is_disabled":false,"rental_uris":{"android":"levelo://app?vid=a6434323-32b4-4eee-bb84-9f780b51309d","ios":"levelo://app?vid=a6434323-32b4-4eee-bb84-9f780b51309d"},"vehicle_type_id":"4","last_reported":1749924801,"current_range_meters":6800,"station_id":"ce4bgkp2rcd13ifvqbmg","pricing_plan_id":"cebpf4jnsgd1na2vs0mg"},{"bike_id":"7482cb72-a729-4258-b284-6bb6c00908c5","system_id":"levelo_inurba_marseille","lat":43.31712,"lon":5.37745,"is_reserved":false,"is_disabled":false,"rental_uris":{"android":"levelo://app?vid=7482cb72-a729-4258-b284-6bb6c00908c5","ios":"levelo://app?vid=7482cb72-a729-4258-b284-6bb6c00908c5"},"vehicle_type_id":"4","last_reported":1749924801,"current_range_meters":6800,"station_id":"ce4bgth2rcd13ifvqch0","pricing_plan_id":"cebpf4jnsgd1na2vs0mg"},{"bike_id":"85d7f41a-a56f-419c-aea6-74708c17df18","system_id":"levelo_inurba_marseille","lat":43.302593,"lon":5.400656,"is_reserved":false,"is_disabled":false,"rental_uris":{"android":"levelo://app?vid=85d7f41a-a56f-419c-aea6-74708c17df18","ios":"levelo://app?vid=85d7f41a-a56f-419c-aea6-74708c17df18"},"vehicle_type_id":"4","last_reported":1749924801,"current_range_meters":6800,"station_id":"ce4bgvh2rcd13ifvqcs0","pricing_plan_id":"cebpf4jnsgd1na2vs0mg"},{"bike_id":"7a194d7b-0f5f-414d-bf19-11411fb7f751","system_id":"levelo_inurba_marseille","lat":43.28495,"lon":5.38554,"is_reserved":false,"is_disabled":false,"rental_uris":{"android":"levelo://app?vid=7a194d7b-0f5f-414d-bf19-11411fb7f751","ios":"levelo://app?vid=7a194d7b-0f5f-414d-bf19-11411fb7f751"},"vehicle_type_id":"4","last_reported":1749924801,"current_range_meters":6800,"station_id":"ce4bh8p2rcd13ifvqeb0","pricing_plan_id":"cebpf4jnsgd1na2vs0mg"},{"bike_id":"f63fb828-7d2f-4723-8254-2cd9d3832f75","system_id":"levelo_inurba_marseille","lat":43.289825,"lon":5.378411,"is_reserved":false,"is_disabled":false,"rental_uris":{"android":"levelo://app?vid=f63fb828-7d2f-4723-8254-2cd9d3832f75","ios":"levelo://app?vid=f63fb828-7d2f-4723-8254-2cd9d3832f75"},"vehicle_type_id":"4","last_reported":1749924801,"current_range_meters":6800,"station_id":"ce4bh9p2rcd13ifvqed0","pricing_plan_id":"cebpf4jnsgd1na2vs0mg"},{"bike_id":"3ebcb526-9195-4257-ae10-ca7e45e1829a","system_id":"levelo_inurba_marseille","lat":43.23192,"lon":5.39994,"is_reserved":false,"is_disabled":false,"rental_uris":{"android":"levelo://app?vid=3ebcb526-9195-4257-ae10-ca7e45e1829a","ios":"levelo://app?vid=3ebcb526-9195-4257-ae10-ca7e45e1829a"},"vehicle_type_id":"4","last_reported":1749924801,"current_range_meters":6800,"station_id":"ce4bhn12rcd13ifvqgqg","pricing_plan_id":"cebpf4jnsgd1na2vs0mg"},{"bike_id":"0da3bc98-5ece-43ad-af57-6d08de3ab305","system_id":"levelo_inurba_marseille","lat":43.29852,"lon":5.36282,"is_reserved":false,"is_disabled":false,"rental_uris":{"android":"levelo://app?vid=0da3bc98-5ece-43ad-af57-6d08de3ab305","ios":"levelo://app?vid=0da3bc98-5ece-43ad-af57-6d08de3ab305"},"vehicle_type_id":"4","last_reported":1749924801,"current_range_meters":7200,"station_id":"ce4bgpp2rcd13ifvqc3g","pricing_plan_id":"cebpf4jnsgd1na2vs0mg"},{"bike_id":"c5780b9f-31d3-4bc4-a968-6224bbca89c1","system_id":"levelo_inurba_marseille","lat":43.28936,"lon":5.36627,"is_reserved":false,"is_disabled":false,"rental_uris":{"android":"levelo://app?vid=c5780b9f-31d3-4bc4-a968-6224bbca89c1","ios":"levelo://app?vid=c5780b9f-31d3-4bc4-a968-6224bbca89c1"},"vehicle_type_id":"4","last_reported":1749924801,"current_range_meters":7200,"station_id":"ce4bhap2rcd13ifvqek0","pricing_plan_id":"cebpf4jnsgd1na2vs0mg"},{"bike_id":"6044def8-9e57-487e-b611-8b9f9f784e83","system_id":"levelo_inurba_marseille","lat":43.26213,"lon":5.37441,"is_reserved":false,"is_disabled":false,"rental_uris":{"android":"levelo://app?vid=6044def8-9e57-487e-b611-8b9f9f784e83","ios":"levelo://app?vid=6044def8-9e57-487e-b611-8b9f9f784e83"},"vehicle_type_id":"4","last_reported":1749924801,"current_range_meters":7200,"station_id":"ce4bhgp2rcd13ifvqfc0","pricing_plan_id":"cebpf4jnsgd1na2vs0mg"},{"bike_id":"4bd30392-76d0-4340-b4d8-6061a52637b2","system_id":"levelo_inurba_marseille","lat":43.30354,"lon":5.4187,"is_reserved":false,"is_disabled":false,"rental_uris":{"android":"levelo://app?vid=4bd30392-76d0-4340-b4d8-6061a52637b2","ios":"levelo://app?vid=4bd30392-76d0-4340-b4d8-6061a52637b2"},"vehicle_type_id":"4","last_reported":1749924801,"current_range_meters":7200,"station_id":"ce4bhop2rcd13ifvqh7g","pricing_plan_id":"cebpf4jnsgd1na2vs0mg"},{"bike_id":"8b9f60b0-922c-424e-807d-31276e0bfa7c","system_id":"levelo_inurba_marseille","lat":43.29715,"lon":5.36598,"is_reserved":false,"is_disabled":false,"rental_uris":{"android":"levelo://app?vid=8b9f60b0-922c-424e-807d-31276e0bfa7c","ios":"levelo://app?vid=8b9f60b0-922c-424e-807d-31276e0bfa7c"},"vehicle_type_id":"4","last_reported":1749924801,"current_range_meters":8000,"station_id":"ce4bgn12rcd13ifvqbt0","pricing_plan_id":"cebpf4jnsgd1na2vs0mg"},{"bike_id":"a5e6eee0-e2a3-472e-8dea-89d70e72625a","system_id":"levelo_inurba_marseille","lat":43.26683,"lon":5.38268,"is_reserved":false,"is_disabled":false,"rental_uris":{"android":"levelo://app?vid=a5e6eee0-e2a3-472e-8dea-89d70e72625a","ios":"levelo://app?vid=a5e6eee0-e2a3-472e-8dea-89d70e72625a"},"vehicle_type_id":"4","last_reported":1749924801,"current_range_meters":8000,"station_id":"ce4bhg92rcd13ifvqf90","pricing_plan_id":"cebpf4jnsgd1na2vs0mg"},{"bike_id":"9a760d42-241e-4de8-a875-dd66481d0aa9","system_id":"levelo_inurba_marseille","lat":43.25498,"lon":5.3765,"is_reserved":false,"is_disabled":false,"rental_uris":{"android":"levelo://app?vid=9a760d42-241e-4de8-a875-dd66481d0aa9","ios":"levelo://app?vid=9a760d42-241e-4de8-a875-dd66481d0aa9"},"vehicle_type_id":"4","last_reported":1749924801,"current_range_meters":8000,"station_id":"ce4bhh12rcd13ifvqff0","pricing_plan_id":"cebpf4jnsgd1na2vs0mg"},{"bike_id":"ee68f372-9aae-45db-b379-859deda6345c","system_id":"levelo_inurba_marseille","lat":43.279958,"lon":5.400096,"is_reserved":false,"is_disabled":false,"rental_uris":{"android":"levelo://app?vid=ee68f372-9aae-45db-b379-859deda6345c","ios":"levelo://app?vid=ee68f372-9aae-45db-b379-859deda6345c"},"vehicle_type_id":"4","last_reported":1749924801,"current_range_meters":8000,"station_id":"ce4bho92rcd13ifvqh4g","pricing_plan_id":"cebpf4jnsgd1na2vs0mg"},{"bike_id":"2e288adf-c036-4cfb-b57d-24c2ec1ff4c3","system_id":"levelo_inurba_marseille","lat":43.32112,"lon":5.36767,"is_reserved":false,"is_disabled":false,"rental_uris":{"android":"levelo://app?vid=2e288adf-c036-4cfb-b57d-24c2ec1ff4c3","ios":"levelo://app?vid=2e288adf-c036-4cfb-b57d-24c2ec1ff4c3"},"vehicle_type_id":"4","last_reported":1749924801,"current_range_meters":8000,"station_id":"ce4bhrh2rcd13ifvqhug","pricing_plan_id":"cebpf4jnsgd1na2vs0mg"},{"bike_id":"31a39ac5-1651-4078-9091-541c5b46a6d8","system_id":"levelo_inurba_marseille","lat":43.32108,"lon":5.367717,"is_reserved":false,"is_disabled":false,"rental_uris":{"android":"levelo://app?vid=31a39ac5-1651-4078-9091-541c5b46a6d8","ios":"levelo://app?vid=31a39ac5-1651-4078-9091-541c5b46a6d8"},"vehicle_type_id":"4","last_reported":1749924801,"current_range_meters":8000,"station_id":"ce4bhrh2rcd13ifvqhug","pricing_plan_id":"cebpf4jnsgd1na2vs0mg"},{"bike_id":"1b62e36f-88d5-443f-9b78-b3b2695adfde","system_id":"levelo_inurba_marseille","lat":43.32358,"lon":5.36757,"is_reserved":false,"is_disabled":false,"rental_uris":{"android":"levelo://app?vid=1b62e36f-88d5-443f-9b78-b3b2695adfde","ios":"levelo://app?vid=1b62e36f-88d5-443f-9b78-b3b2695adfde"},"vehicle_type_id":"4","last_reported":1749924801,"current_range_meters":8000,"station_id":"ce4bhsh2rcd13ifvqi2g","pricing_plan_id":"cebpf4jnsgd1na2vs0mg"},{"bike_id":"efc062d1-a836-4b4c-a4c0-f7c5b417cf67","system_id":"levelo_inurba_marseille","lat":43.215759,"lon":5.347347,"is_reserved":false,"is_disabled":false,"rental_uris":{"android":"levelo://app?vid=efc062d1-a836-4b4c-a4c0-f7c5b417cf67","ios":"levelo://app?vid=efc062d1-a836-4b4c-a4c0-f7c5b417cf67"},"vehicle_type_id":"4","last_reported":1749924801,"current_range_meters":8000,"station_id":"cpo3342slgdg3j2ifvpg","pricing_plan_id":"cebpf4jnsgd1na2vs0mg"},{"bike_id":"d7e2c4dd-2c44-4d42-ace6-0e308fe43af4","system_id":"levelo_inurba_marseille","lat":43.30306,"lon":5.36863,"is_reserved":false,"is_disabled":false,"rental_uris":{"android":"levelo://app?vid=d7e2c4dd-2c44-4d42-ace6-0e308fe43af4","ios":"levelo://app?vid=d7e2c4dd-2c44-4d42-ace6-0e308fe43af4"},"vehicle_type_id":"4","last_reported":1749924801,"current_range_meters":8400,"station_id":"ce4bgqh2rcd13ifvqc5g","pricing_plan_id":"cebpf4jnsgd1na2vs0mg"},{"bike_id":"7fcb9d3f-4664-4887-82d0-036ba4e6dbdc","system_id":"levelo_inurba_marseille","lat":43.26218,"lon":5.37454,"is_reserved":false,"is_disabled":false,"rental_uris":{"android":"levelo://app?vid=7fcb9d3f-4664-4887-82d0-036ba4e6dbdc","ios":"levelo://app?vid=7fcb9d3f-4664-4887-82d0-036ba4e6dbdc"},"vehicle_type_id":"4","last_reported":1749924801,"current_range_meters":8400,"station_id":"ce4bhgp2rcd13ifvqfc0","pricing_plan_id":"cebpf4jnsgd1na2vs0mg"},{"bike_id":"30ea247e-09fb-4fdd-8584-ff23c02a9f04","system_id":"levelo_inurba_marseille","lat":43.26207,"lon":5.37444,"is_reserved":false,"is_disabled":false,"rental_uris":{"android":"levelo://app?vid=30ea247e-09fb-4fdd-8584-ff23c02a9f04","ios":"levelo://app?vid=30ea247e-09fb-4fdd-8584-ff23c02a9f04"},"vehicle_type_id":"4","last_reported":1749924801,"current_range_meters":8400,"station_id":"ce4bhgp2rcd13ifvqfc0","pricing_plan_id":"cebpf4jnsgd1na2vs0mg"},{"bike_id":"7fac249e-5fa7-415b-8589-32fcf7ced13d","system_id":"levelo_inurba_marseille","lat":43.2396,"lon":5.36632,"is_reserved":false,"is_disabled":false,"rental_uris":{"android":"levelo://app?vid=7fac249e-5fa7-415b-8589-32fcf7ced13d","ios":"levelo://app?vid=7fac249e-5fa7-415b-8589-32fcf7ced13d"},"vehicle_type_id":"4","last_reported":1749924801,"current_range_meters":8400,"station_id":"ce4bhi12rcd13ifvqfp0","pricing_plan_id":"cebpf4jnsgd1na2vs0mg"},{"bike_id":"6f339361-4c0a-4a71-b4b9-85357bd2a22b","system_id":"levelo_inurba_marseille","lat":43.25727,"lon":5.41107,"is_reserved":false,"is_disabled":false,"rental_uris":{"android":"levelo://app?vid=6f339361-4c0a-4a71-b4b9-85357bd2a22b","ios":"levelo://app?vid=6f339361-4c0a-4a71-b4b9-85357bd2a22b"},"vehicle_type_id":"4","last_reported":1749924801,"current_range_meters":8400,"station_id":"ce4bhkp2rcd13ifvqgd0","pricing_plan_id":"cebpf4jnsgd1na2vs0mg"},{"bike_id":"2fdc72fd-a8fb-447d-b5b9-02a7038654e3","system_id":"levelo_inurba_marseille","lat":43.269378,"lon":5.402563,"is_reserved":false,"is_disabled":false,"rental_uris":{"android":"levelo://app?vid=2fdc72fd-a8fb-447d-b5b9-02a7038654e3","ios":"levelo://app?vid=2fdc72fd-a8fb-447d-b5b9-02a7038654e3"},"vehicle_type_id":"4","last_reported":1749924801,"current_range_meters":8400,"station_id":"cjm6bp8fraef2m0cb0m0","pricing_plan_id":"cebpf4jnsgd1na2vs0mg"},{"bike_id":"25b06ce6-2202-4202-a43d-67c72a6d3bb3","system_id":"levelo_inurba_marseille","lat":43.29261,"lon":5.37628,"is_reserved":false,"is_disabled":false,"rental_uris":{"android":"levelo://app?vid=25b06ce6-2202-4202-a43d-67c72a6d3bb3","ios":"levelo://app?vid=25b06ce6-2202-4202-a43d-67c72a6d3bb3"},"vehicle_type_id":"4","last_reported":1749924801,"current_range_meters":8800,"station_id":"ce4bgi12rcd13ifvqb80","pricing_plan_id":"cebpf4jnsgd1na2vs0mg"},{"bike_id":"8dbf0d48-f712-4dfb-87df-f09d0ce609b2","system_id":"levelo_inurba_marseille","lat":43.29259,"lon":5.409,"is_reserved":false,"is_disabled":false,"rental_uris":{"android":"levelo://app?vid=8dbf0d48-f712-4dfb-87df-f09d0ce609b2","ios":"levelo://app?vid=8dbf0d48-f712-4dfb-87df-f09d0ce609b2"},"vehicle_type_id":"4","last_reported":1749924801,"current_range_meters":8800,"station_id":"ce4bh192rcd13ifvqdc0","pricing_plan_id":"cebpf4jnsgd1na2vs0mg"},{"bike_id":"8c4926b3-f68a-4388-912f-6b42d70f8c28","system_id":"levelo_inurba_marseille","lat":43.29038,"lon":5.39964,"is_reserved":false,"is_disabled":false,"rental_uris":{"android":"levelo://app?vid=8c4926b3-f68a-4388-912f-6b42d70f8c28","ios":"levelo://app?vid=8c4926b3-f68a-4388-912f-6b42d70f8c28"},"vehicle_type_id":"4","last_reported":1749924801,"current_range_meters":8800,"station_id":"ce4bh392rcd13ifvqdm0","pricing_plan_id":"cebpf4jnsgd1na2vs0mg"},{"bike_id":"5bcfdbbf-8d61-4898-8c5a-43f44df94bb8","system_id":"levelo_inurba_marseille","lat":43.27942,"lon":5.41046,"is_reserved":false,"is_disabled":false,"rental_uris":{"android":"levelo://app?vid=5bcfdbbf-8d61-4898-8c5a-43f44df94bb8","ios":"levelo://app?vid=5bcfdbbf-8d61-4898-8c5a-43f44df94bb8"},"vehicle_type_id":"4","last_reported":1749924801,"current_range_meters":8800,"station_id":"ce4bhnp2rcd13ifvqh0g","pricing_plan_id":"cebpf4jnsgd1na2vs0mg"},{"bike_id":"c27a0f47-a888-46e2-8aa5-941054a5f8bc","system_id":"levelo_inurba_marseille","lat":43.2293,"lon":5.35372,"is_reserved":false,"is_disabled":false,"rental_uris":{"android":"levelo://app?vid=c27a0f47-a888-46e2-8aa5-941054a5f8bc","ios":"levelo://app?vid=c27a0f47-a888-46e2-8aa5-941054a5f8bc"},"vehicle_type_id":"4","last_reported":1749924801,"current_range_meters":8800,"station_id":"cpo3532slgdg3j2ikp40","pricing_plan_id":"cebpf4jnsgd1na2vs0mg"},{"bike_id":"f0ab1549-e125-4b30-b615-c4166748efdf","system_id":"levelo_inurba_marseille","lat":43.26223,"lon":5.37446,"is_reserved":false,"is_disabled":false,"rental_uris":{"android":"levelo://app?vid=f0ab1549-e125-4b30-b615-c4166748efdf","ios":"levelo://app?vid=f0ab1549-e125-4b30-b615-c4166748efdf"},"vehicle_type_id":"4","last_reported":1749924801,"current_range_meters":9200,"station_id":"","pricing_plan_id":"cebpf4jnsgd1na2vs0mg"},{"bike_id":"ea0476eb-9e19-43e2-9e5b-280c42bcd154","system_id":"levelo_inurba_marseille","lat":43.30136,"lon":5.3984,"is_reserved":false,"is_disabled":false,"rental_uris":{"android":"levelo://app?vid=ea0476eb-9e19-43e2-9e5b-280c42bcd154","ios":"levelo://app?vid=ea0476eb-9e19-43e2-9e5b-280c42bcd154"},"vehicle_type_id":"4","last_reported":1749924801,"current_range_meters":9200,"station_id":"ce4bh0h2rcd13ifvqd40","pricing_plan_id":"cebpf4jnsgd1na2vs0mg"},{"bike_id":"5bb114d8-e277-48ba-9ef8-ad864c209510","system_id":"levelo_inurba_marseille","lat":43.24388,"lon":5.37062,"is_reserved":false,"is_disabled":false,"rental_uris":{"android":"levelo://app?vid=5bb114d8-e277-48ba-9ef8-ad864c209510","ios":"levelo://app?vid=5bb114d8-e277-48ba-9ef8-ad864c209510"},"vehicle_type_id":"4","last_reported":1749924801,"current_range_meters":9200,"station_id":"ce4bhhh2rcd13ifvqfk0","pricing_plan_id":"cebpf4jnsgd1na2vs0mg"},{"bike_id":"2ab31527-f915-4286-b3a0-0beafd2cdd50","system_id":"levelo_inurba_marseille","lat":43.30027,"lon":5.37009,"is_reserved":false,"is_disabled":false,"rental_uris":{"android":"levelo://app?vid=2ab31527-f915-4286-b3a0-0beafd2cdd50","ios":"levelo://app?vid=2ab31527-f915-4286-b3a0-0beafd2cdd50"},"vehicle_type_id":"4","last_reported":1749924801,"current_range_meters":9600,"station_id":"","pricing_plan_id":"cebpf4jnsgd1na2vs0mg"},{"bike_id":"87c270dc-4fcf-4263-8f57-a07ca944f869","system_id":"levelo_inurba_marseille","lat":43.31248,"lon":5.3949,"is_reserved":false,"is_disabled":false,"rental_uris":{"android":"levelo://app?vid=87c270dc-4fcf-4263-8f57-a07ca944f869","ios":"levelo://app?vid=87c270dc-4fcf-4263-8f57-a07ca944f869"},"vehicle_type_id":"4","last_reported":1749924801,"current_range_meters":9600,"station_id":"","pricing_plan_id":"cebpf4jnsgd1na2vs0mg"},{"bike_id":"36c584e9-90e5-436d-aaa5-05e18a82d0ef","system_id":"levelo_inurba_marseille","lat":43.31703,"lon":5.40456,"is_reserved":false,"is_disabled":false,"rental_uris":{"android":"levelo://app?vid=36c584e9-90e5-436d-aaa5-05e18a82d0ef","ios":"levelo://app?vid=36c584e9-90e5-436d-aaa5-05e18a82d0ef"},"vehicle_type_id":"4","last_reported":1749924801,"current_range_meters":9600,"station_id":"ce4bh012rcd13ifvqd00","pricing_plan_id":"cebpf4jnsgd1na2vs0mg"},{"bike_id":"8712911d-c186-4974-911c-556ff2b605ba","system_id":"levelo_inurba_marseille","lat":43.24068,"lon":5.37762,"is_reserved":false,"is_disabled":false,"rental_uris":{"android":"levelo://app?vid=8712911d-c186-4974-911c-556ff2b605ba","ios":"levelo://app?vid=8712911d-c186-4974-911c-556ff2b605ba"},"vehicle_type_id":"4","last_reported":1749924801,"current_range_meters":9600,"station_id":"ce4bhnp2rcd13ifvqgvg","pricing_plan_id":"cebpf4jnsgd1na2vs0mg"},{"bike_id":"0a176c0c-78a3-474b-b917-3fc9a4ed2ff7","system_id":"levelo_inurba_marseille","lat":43.25594,"lon":5.38239,"is_reserved":false,"is_disabled":false,"rental_uris":{"android":"levelo://app?vid=0a176c0c-78a3-474b-b917-3fc9a4ed2ff7","ios":"levelo://app?vid=0a176c0c-78a3-474b-b917-3fc9a4ed2ff7"},"vehicle_type_id":"4","last_reported":1749924801,"current_range_meters":10000,"station_id":"ce4bhih2rcd13ifvqfs0","pricing_plan_id":"cebpf4jnsgd1na2vs0mg"},{"bike_id":"a2f36015-21f2-481d-bdf5-2ff7bc0351b0","system_id":"levelo_inurba_marseille","lat":43.26796,"lon":5.40273,"is_reserved":false,"is_disabled":false,"rental_uris":{"android":"levelo://app?vid=a2f36015-21f2-481d-bdf5-2ff7bc0351b0","ios":"levelo://app?vid=a2f36015-21f2-481d-bdf5-2ff7bc0351b0"},"vehicle_type_id":"4","last_reported":1749924801,"current_range_meters":10000,"station_id":"ce501612rcd8frsf0b60","pricing_plan_id":"cebpf4jnsgd1na2vs0mg"},{"bike_id":"a371ce16-977e-4e87-960c-b3d6efcae42a","system_id":"levelo_inurba_marseille","lat":43.30132,"lon":5.39862,"is_reserved":false,"is_disabled":false,"rental_uris":{"android":"levelo://app?vid=a371ce16-977e-4e87-960c-b3d6efcae42a","ios":"levelo://app?vid=a371ce16-977e-4e87-960c-b3d6efcae42a"},"vehicle_type_id":"4","last_reported":1749924801,"current_range_meters":10800,"station_id":"ce4bh0h2rcd13ifvqd40","pricing_plan_id":"cebpf4jnsgd1na2vs0mg"},{"bike_id":"c790b234-0939-44e4-bcd1-48b4f6a943a7","system_id":"levelo_inurba_marseille","lat":43.25494,"lon":5.37648,"is_reserved":false,"is_disabled":false,"rental_uris":{"android":"levelo://app?vid=c790b234-0939-44e4-bcd1-48b4f6a943a7","ios":"levelo://app?vid=c790b234-0939-44e4-bcd1-48b4f6a943a7"},"vehicle_type_id":"4","last_reported":1749924801,"current_range_meters":10800,"station_id":"ce4bhh12rcd13ifvqff0","pricing_plan_id":"cebpf4jnsgd1na2vs0mg"},{"bike_id":"45b37f3d-9742-4d73-bc5c-87dc7fdfe753","system_id":"levelo_inurba_marseille","lat":43.25725,"lon":5.41106,"is_reserved":false,"is_disabled":false,"rental_uris":{"android":"levelo://app?vid=45b37f3d-9742-4d73-bc5c-87dc7fdfe753","ios":"levelo://app?vid=45b37f3d-9742-4d73-bc5c-87dc7fdfe753"},"vehicle_type_id":"4","last_reported":1749924801,"current_range_meters":10800,"station_id":"ce4bhkp2rcd13ifvqgd0","pricing_plan_id":"cebpf4jnsgd1na2vs0mg"},{"bike_id":"e6b0b40d-4027-43af-9d9c-4538e9417958","system_id":"levelo_inurba_marseille","lat":43.263627,"lon":5.378153,"is_reserved":false,"is_disabled":false,"rental_uris":{"android":"levelo://app?vid=e6b0b40d-4027-43af-9d9c-4538e9417958","ios":"levelo://app?vid=e6b0b40d-4027-43af-9d9c-4538e9417958"},"vehicle_type_id":"4","last_reported":1749924801,"current_range_meters":10800,"station_id":"st_d163nis0mtpqnht9uue0","pricing_plan_id":"cebpf4jnsgd1na2vs0mg"},{"bike_id":"9eb2b243-ef6a-41b1-aa4f-28b132c27f01","system_id":"levelo_inurba_marseille","lat":43.22936,"lon":5.35382,"is_reserved":false,"is_disabled":false,"rental_uris":{"android":"levelo://app?vid=9eb2b243-ef6a-41b1-aa4f-28b132c27f01","ios":"levelo://app?vid=9eb2b243-ef6a-41b1-aa4f-28b132c27f01"},"vehicle_type_id":"4","last_reported":1749924801,"current_range_meters":11200,"station_id":"cpo3532slgdg3j2ikp40","pricing_plan_id":"cebpf4jnsgd1na2vs0mg"},{"bike_id":"36aaa3d2-7e79-4b8a-bd67-c4f42f7d727d","system_id":"levelo_inurba_marseille","lat":43.2636,"lon":5.37805,"is_reserved":false,"is_disabled":false,"rental_uris":{"android":"levelo://app?vid=36aaa3d2-7e79-4b8a-bd67-c4f42f7d727d","ios":"levelo://app?vid=36aaa3d2-7e79-4b8a-bd67-c4f42f7d727d"},"vehicle_type_id":"4","last_reported":1749924801,"current_range_meters":11200,"station_id":"st_d163nis0mtpqnht9uue0","pricing_plan_id":"cebpf4jnsgd1na2vs0mg"},{"bike_id":"e3bcc917-eefc-4707-958f-74536cb7b62c","system_id":"levelo_inurba_marseille","lat":43.30923,"lon":5.40136,"is_reserved":false,"is_disabled":false,"rental_uris":{"android":"levelo://app?vid=e3bcc917-eefc-4707-958f-74536cb7b62c","ios":"levelo://app?vid=e3bcc917-eefc-4707-958f-74536cb7b62c"},"vehicle_type_id":"4","last_reported":1749924801,"current_range_meters":11600,"station_id":"ce4bgvp2rcd13ifvqct0","pricing_plan_id":"cebpf4jnsgd1na2vs0mg"},{"bike_id":"565ec19a-213a-4d7b-88cf-98c4cfca4588","system_id":"levelo_inurba_marseille","lat":43.31325,"lon":5.397,"is_reserved":false,"is_disabled":false,"rental_uris":{"android":"levelo://app?vid=565ec19a-213a-4d7b-88cf-98c4cfca4588","ios":"levelo://app?vid=565ec19a-213a-4d7b-88cf-98c4cfca4588"},"vehicle_type_id":"4","last_reported":1749924801,"current_range_meters":11600,"station_id":"ce4bgvp2rcd13ifvqcu0","pricing_plan_id":"cebpf4jnsgd1na2vs0mg"},{"bike_id":"90369988-8695-4285-9605-85348dc16c40","system_id":"levelo_inurba_marseille","lat":43.24666,"lon":5.38163,"is_reserved":false,"is_disabled":false,"rental_uris":{"android":"levelo://app?vid=90369988-8695-4285-9605-85348dc16c40","ios":"levelo://app?vid=90369988-8695-4285-9605-85348dc16c40"},"vehicle_type_id":"4","last_reported":1749924801,"current_range_meters":11600,"station_id":"ce4bhih2rcd13ifvqfr0","pricing_plan_id":"cebpf4jnsgd1na2vs0mg"},{"bike_id":"33a5ae76-fedf-41f8-94fe-0f03745d1877","system_id":"levelo_inurba_marseille","lat":43.2559,"lon":5.3825,"is_reserved":false,"is_disabled":false,"rental_uris":{"android":"levelo://app?vid=33a5ae76-fedf-41f8-94fe-0f03745d1877","ios":"levelo://app?vid=33a5ae76-fedf-41f8-94fe-0f03745d1877"},"vehicle_type_id":"4","last_reported":1749924801,"current_range_meters":11600,"station_id":"ce4bhih2rcd13ifvqfs0","pricing_plan_id":"cebpf4jnsgd1na2vs0mg"},{"bike_id":"061b51dc-6943-4523-8eed-b536ad391319","system_id":"levelo_inurba_marseille","lat":43.26379,"lon":5.37796,"is_reserved":false,"is_disabled":false,"rental_uris":{"android":"levelo://app?vid=061b51dc-6943-4523-8eed-b536ad391319","ios":"levelo://app?vid=061b51dc-6943-4523-8eed-b536ad391319"},"vehicle_type_id":"4","last_reported":1749924801,"current_range_meters":11600,"station_id":"st_d163nis0mtpqnht9uue0","pricing_plan_id":"cebpf4jnsgd1na2vs0mg"},{"bike_id":"2f0c6462-fbb1-4d3d-94cc-77e53667d1e9","system_id":"levelo_inurba_marseille","lat":43.26362,"lon":5.37829,"is_reserved":false,"is_disabled":false,"rental_uris":{"android":"levelo://app?vid=2f0c6462-fbb1-4d3d-94cc-77e53667d1e9","ios":"levelo://app?vid=2f0c6462-fbb1-4d3d-94cc-77e53667d1e9"},"vehicle_type_id":"4","last_reported":1749924801,"current_range_meters":11600,"station_id":"st_d163nis0mtpqnht9uue0","pricing_plan_id":"cebpf4jnsgd1na2vs0mg"},{"bike_id":"30b8e4f4-0cf1-40d8-9e5e-de65a58a713d","system_id":"levelo_inurba_marseille","lat":43.26353,"lon":5.37812,"is_reserved":false,"is_disabled":false,"rental_uris":{"android":"levelo://app?vid=30b8e4f4-0cf1-40d8-9e5e-de65a58a713d","ios":"levelo://app?vid=30b8e4f4-0cf1-40d8-9e5e-de65a58a713d"},"vehicle_type_id":"4","last_reported":1749924801,"current_range_meters":11600,"station_id":"st_d163nis0mtpqnht9uue0","pricing_plan_id":"cebpf4jnsgd1na2vs0mg"},{"bike_id":"2eb2516b-5f9f-4f58-8493-07049b393727","system_id":"levelo_inurba_marseille","lat":43.33728,"lon":5.39178,"is_reserved":false,"is_disabled":false,"rental_uris":{"android":"levelo://app?vid=2eb2516b-5f9f-4f58-8493-07049b393727","ios":"levelo://app?vid=2eb2516b-5f9f-4f58-8493-07049b393727"},"vehicle_type_id":"4","last_reported":1749924801,"current_range_meters":12000,"station_id":"ce4bhr92rcd13ifvqhsg","pricing_plan_id":"cebpf4jnsgd1na2vs0mg"},{"bike_id":"246e7541-ed6c-4735-a358-ba02ecebe34a","system_id":"levelo_inurba_marseille","lat":43.30903,"lon":5.37181,"is_reserved":false,"is_disabled":false,"rental_uris":{"android":"levelo://app?vid=246e7541-ed6c-4735-a358-ba02ecebe34a","ios":"levelo://app?vid=246e7541-ed6c-4735-a358-ba02ecebe34a"},"vehicle_type_id":"4","last_reported":1749924801,"current_range_meters":12400,"station_id":"ce4bguh2rcd13ifvqckg","pricing_plan_id":"cebpf4jnsgd1na2vs0mg"},{"bike_id":"9f79fe81-0390-46e6-99de-7e3931398bb9","system_id":"levelo_inurba_marseille","lat":43.28461,"lon":5.35887,"is_reserved":false,"is_disabled":false,"rental_uris":{"android":"levelo://app?vid=9f79fe81-0390-46e6-99de-7e3931398bb9","ios":"levelo://app?vid=9f79fe81-0390-46e6-99de-7e3931398bb9"},"vehicle_type_id":"4","last_reported":1749924801,"current_range_meters":12400,"station_id":"ce4bhah2rcd13ifvqei0","pricing_plan_id":"cebpf4jnsgd1na2vs0mg"},{"bike_id":"577be48d-70a1-4c28-b398-3a7243b2e80c","system_id":"levelo_inurba_marseille","lat":43.27175,"lon":5.40989,"is_reserved":false,"is_disabled":false,"rental_uris":{"android":"levelo://app?vid=577be48d-70a1-4c28-b398-3a7243b2e80c","ios":"levelo://app?vid=577be48d-70a1-4c28-b398-3a7243b2e80c"},"vehicle_type_id":"4","last_reported":1749924801,"current_range_meters":12400,"station_id":"ce4bhl12rcd13ifvqgf0","pricing_plan_id":"cebpf4jnsgd1na2vs0mg"},{"bike_id":"0e46cc7b-2ba3-4bff-bd90-00d41cc2d25a","system_id":"levelo_inurba_marseille","lat":43.26356,"lon":5.37812,"is_reserved":false,"is_disabled":false,"rental_uris":{"android":"levelo://app?vid=0e46cc7b-2ba3-4bff-bd90-00d41cc2d25a","ios":"levelo://app?vid=0e46cc7b-2ba3-4bff-bd90-00d41cc2d25a"},"vehicle_type_id":"4","last_reported":1749924801,"current_range_meters":12400,"station_id":"st_d163nis0mtpqnht9uue0","pricing_plan_id":"cebpf4jnsgd1na2vs0mg"},{"bike_id":"38f69d32-c07d-4e5d-b2be-a045ca5ffeb4","system_id":"levelo_inurba_marseille","lat":43.2501,"lon":5.38944,"is_reserved":false,"is_disabled":false,"rental_uris":{"android":"levelo://app?vid=38f69d32-c07d-4e5d-b2be-a045ca5ffeb4","ios":"levelo://app?vid=38f69d32-c07d-4e5d-b2be-a045ca5ffeb4"},"vehicle_type_id":"4","last_reported":1749924801,"current_range_meters":12800,"station_id":"ce4bhgp2rcd13ifvqfd0","pricing_plan_id":"cebpf4jnsgd1na2vs0mg"},{"bike_id":"973fdd74-de9f-4412-8d5e-97b29be5dfc7","system_id":"levelo_inurba_marseille","lat":43.26056,"lon":5.39395,"is_reserved":false,"is_disabled":false,"rental_uris":{"android":"levelo://app?vid=973fdd74-de9f-4412-8d5e-97b29be5dfc7","ios":"levelo://app?vid=973fdd74-de9f-4412-8d5e-97b29be5dfc7"},"vehicle_type_id":"4","last_reported":1749924801,"current_range_meters":12800,"station_id":"ce4bhh92rcd13ifvqfj0","pricing_plan_id":"cebpf4jnsgd1na2vs0mg"},{"bike_id":"dc1e1319-b0f9-4bfb-9dd0-07f4d0186ec2","system_id":"levelo_inurba_marseille","lat":43.26225,"lon":5.40445,"is_reserved":false,"is_disabled":false,"rental_uris":{"android":"levelo://app?vid=dc1e1319-b0f9-4bfb-9dd0-07f4d0186ec2","ios":"levelo://app?vid=dc1e1319-b0f9-4bfb-9dd0-07f4d0186ec2"},"vehicle_type_id":"4","last_reported":1749924801,"current_range_meters":12800,"station_id":"ce4bhmh2rcd13ifvqgmg","pricing_plan_id":"cebpf4jnsgd1na2vs0mg"},{"bike_id":"5a21e497-33bb-4066-baf7-e010c7ab35fe","system_id":"levelo_inurba_marseille","lat":43.24074,"lon":5.37771,"is_reserved":false,"is_disabled":false,"rental_uris":{"android":"levelo://app?vid=5a21e497-33bb-4066-baf7-e010c7ab35fe","ios":"levelo://app?vid=5a21e497-33bb-4066-baf7-e010c7ab35fe"},"vehicle_type_id":"4","last_reported":1749924801,"current_range_meters":12800,"station_id":"ce4bhnp2rcd13ifvqgvg","pricing_plan_id":"cebpf4jnsgd1na2vs0mg"},{"bike_id":"e48cb598-c4f6-4d4f-875a-699d03cd8bb4","system_id":"levelo_inurba_marseille","lat":43.26939,"lon":5.4025,"is_reserved":false,"is_disabled":false,"rental_uris":{"android":"levelo://app?vid=e48cb598-c4f6-4d4f-875a-699d03cd8bb4","ios":"levelo://app?vid=e48cb598-c4f6-4d4f-875a-699d03cd8bb4"},"vehicle_type_id":"4","last_reported":1749924801,"current_range_meters":12800,"station_id":"cjm6bp8fraef2m0cb0m0","pricing_plan_id":"cebpf4jnsgd1na2vs0mg"},{"bike_id":"7afac99f-c8c4-495c-8e8b-7988d3d73e66","system_id":"levelo_inurba_marseille","lat":43.26372,"lon":5.37811,"is_reserved":false,"is_disabled":false,"rental_uris":{"android":"levelo://app?vid=7afac99f-c8c4-495c-8e8b-7988d3d73e66","ios":"levelo://app?vid=7afac99f-c8c4-495c-8e8b-7988d3d73e66"},"vehicle_type_id":"4","last_reported":1749924801,"current_range_meters":12800,"station_id":"st_d163nis0mtpqnht9uue0","pricing_plan_id":"cebpf4jnsgd1na2vs0mg"},{"bike_id":"665fc9af-29bf-4b29-89d8-0ec0f2456477","system_id":"levelo_inurba_marseille","lat":43.287,"lon":5.3998,"is_reserved":false,"is_disabled":false,"rental_uris":{"android":"levelo://app?vid=665fc9af-29bf-4b29-89d8-0ec0f2456477","ios":"levelo://app?vid=665fc9af-29bf-4b29-89d8-0ec0f2456477"},"vehicle_type_id":"4","last_reported":1749924801,"current_range_meters":13600,"station_id":"ce4bho92rcd13ifvqh3g","pricing_plan_id":"cebpf4jnsgd1na2vs0mg"},{"bike_id":"62132a0a-ca03-4421-b805-1ac0c0248c03","system_id":"levelo_inurba_marseille","lat":43.23156,"lon":5.35554,"is_reserved":false,"is_disabled":false,"rental_uris":{"android":"levelo://app?vid=62132a0a-ca03-4421-b805-1ac0c0248c03","ios":"levelo://app?vid=62132a0a-ca03-4421-b805-1ac0c0248c03"},"vehicle_type_id":"4","last_reported":1749924801,"current_range_meters":13600,"station_id":"ce4bhu92rcd13ifvqi70","pricing_plan_id":"cebpf4jnsgd1na2vs0mg"},{"bike_id":"d2729172-f4bf-4eb8-9964-c217269a3492","system_id":"levelo_inurba_marseille","lat":43.21195,"lon":5.35083,"is_reserved":false,"is_disabled":false,"rental_uris":{"android":"levelo://app?vid=d2729172-f4bf-4eb8-9964-c217269a3492","ios":"levelo://app?vid=d2729172-f4bf-4eb8-9964-c217269a3492"},"vehicle_type_id":"4","last_reported":1749924801,"current_range_meters":13600,"station_id":"st_cvj6sg6p6f1abm77japg","pricing_plan_id":"cebpf4jnsgd1na2vs0mg"},{"bike_id":"f2d1965e-8b9e-4ab5-a9eb-9dfbe41122f5","system_id":"levelo_inurba_marseille","lat":43.28468,"lon":5.35884,"is_reserved":false,"is_disabled":false,"rental_uris":{"android":"levelo://app?vid=f2d1965e-8b9e-4ab5-a9eb-9dfbe41122f5","ios":"levelo://app?vid=f2d1965e-8b9e-4ab5-a9eb-9dfbe41122f5"},"vehicle_type_id":"4","last_reported":1749924801,"current_range_meters":14000,"station_id":"ce4bhah2rcd13ifvqei0","pricing_plan_id":"cebpf4jnsgd1na2vs0mg"},{"bike_id":"bd081d41-5eed-4495-82ed-9e27cd112239","system_id":"levelo_inurba_marseille","lat":43.249488,"lon":5.396613,"is_reserved":false,"is_disabled":false,"rental_uris":{"android":"levelo://app?vid=bd081d41-5eed-4495-82ed-9e27cd112239","ios":"levelo://app?vid=bd081d41-5eed-4495-82ed-9e27cd112239"},"vehicle_type_id":"4","last_reported":1749924801,"current_range_meters":14400,"station_id":"","pricing_plan_id":"cebpf4jnsgd1na2vs0mg"},{"bike_id":"6e498dc0-d138-4a7b-92dc-0df2da784a17","system_id":"levelo_inurba_marseille","lat":43.25089,"lon":5.39518,"is_reserved":false,"is_disabled":false,"rental_uris":{"android":"levelo://app?vid=6e498dc0-d138-4a7b-92dc-0df2da784a17","ios":"levelo://app?vid=6e498dc0-d138-4a7b-92dc-0df2da784a17"},"vehicle_type_id":"4","last_reported":1749924801,"current_range_meters":14400,"station_id":"ce4bhm12rcd13ifvqgkg","pricing_plan_id":"cebpf4jnsgd1na2vs0mg"},{"bike_id":"0c20dca2-0d45-4fbd-a595-ff4031178d76","system_id":"levelo_inurba_marseille","lat":43.28001,"lon":5.41665,"is_reserved":false,"is_disabled":false,"rental_uris":{"android":"levelo://app?vid=0c20dca2-0d45-4fbd-a595-ff4031178d76","ios":"levelo://app?vid=0c20dca2-0d45-4fbd-a595-ff4031178d76"},"vehicle_type_id":"4","last_reported":1749924801,"current_range_meters":14400,"station_id":"ce4bho12rcd13ifvqh1g","pricing_plan_id":"cebpf4jnsgd1na2vs0mg"},{"bike_id":"df1254ac-0833-4d4e-87e1-bdd09ea2bd36","system_id":"levelo_inurba_marseille","lat":43.29528,"lon":5.38442,"is_reserved":false,"is_disabled":false,"rental_uris":{"android":"levelo://app?vid=df1254ac-0833-4d4e-87e1-bdd09ea2bd36","ios":"levelo://app?vid=df1254ac-0833-4d4e-87e1-bdd09ea2bd36"},"vehicle_type_id":"4","last_reported":1749924801,"current_range_meters":14800,"station_id":"","pricing_plan_id":"cebpf4jnsgd1na2vs0mg"},{"bike_id":"c1e8aa52-2d61-4ad0-995a-8b20f8cbd1f5","system_id":"levelo_inurba_marseille","lat":43.26216,"lon":5.37435,"is_reserved":false,"is_disabled":false,"rental_uris":{"android":"levelo://app?vid=c1e8aa52-2d61-4ad0-995a-8b20f8cbd1f5","ios":"levelo://app?vid=c1e8aa52-2d61-4ad0-995a-8b20f8cbd1f5"},"vehicle_type_id":"4","last_reported":1749924801,"current_range_meters":14800,"station_id":"ce4bhgp2rcd13ifvqfc0","pricing_plan_id":"cebpf4jnsgd1na2vs0mg"},{"bike_id":"3ba53083-f560-4fb5-b3cc-01a71156c6ba","system_id":"levelo_inurba_marseille","lat":43.23193,"lon":5.35559,"is_reserved":false,"is_disabled":false,"rental_uris":{"android":"levelo://app?vid=3ba53083-f560-4fb5-b3cc-01a71156c6ba","ios":"levelo://app?vid=3ba53083-f560-4fb5-b3cc-01a71156c6ba"},"vehicle_type_id":"4","last_reported":1749924801,"current_range_meters":14800,"station_id":"ce4bhu92rcd13ifvqi70","pricing_plan_id":"cebpf4jnsgd1na2vs0mg"},{"bike_id":"51c5518e-76de-4264-b70a-dd60046df65b","system_id":"levelo_inurba_marseille","lat":43.2637,"lon":5.37803,"is_reserved":false,"is_disabled":false,"rental_uris":{"android":"levelo://app?vid=51c5518e-76de-4264-b70a-dd60046df65b","ios":"levelo://app?vid=51c5518e-76de-4264-b70a-dd60046df65b"},"vehicle_type_id":"4","last_reported":1749924801,"current_range_meters":14800,"station_id":"st_d163nis0mtpqnht9uue0","pricing_plan_id":"cebpf4jnsgd1na2vs0mg"},{"bike_id":"b2a39d69-7123-480f-b5f0-3477ae80b9dc","system_id":"levelo_inurba_marseille","lat":43.23059,"lon":5.35491,"is_reserved":false,"is_disabled":false,"rental_uris":{"android":"levelo://app?vid=b2a39d69-7123-480f-b5f0-3477ae80b9dc","ios":"levelo://app?vid=b2a39d69-7123-480f-b5f0-3477ae80b9dc"},"vehicle_type_id":"4","last_reported":1749924801,"current_range_meters":15200,"station_id":"cpo3342slgdg3j2ifvpg","pricing_plan_id":"cebpf4jnsgd1na2vs0mg"},{"bike_id":"a8283606-6fdf-49b2-991a-62bc6fc9988a","system_id":"levelo_inurba_marseille","lat":43.22511,"lon":5.34812,"is_reserved":false,"is_disabled":false,"rental_uris":{"android":"levelo://app?vid=a8283606-6fdf-49b2-991a-62bc6fc9988a","ios":"levelo://app?vid=a8283606-6fdf-49b2-991a-62bc6fc9988a"},"vehicle_type_id":"4","last_reported":1749924801,"current_range_meters":15200,"station_id":"st_cvj5dfep6f1abm77gieg","pricing_plan_id":"cebpf4jnsgd1na2vs0mg"},{"bike_id":"7240a984-bb6d-4c3b-ab8d-aef55ac0bce8","system_id":"levelo_inurba_marseille","lat":43.21199,"lon":5.35055,"is_reserved":false,"is_disabled":false,"rental_uris":{"android":"levelo://app?vid=7240a984-bb6d-4c3b-ab8d-aef55ac0bce8","ios":"levelo://app?vid=7240a984-bb6d-4c3b-ab8d-aef55ac0bce8"},"vehicle_type_id":"4","last_reported":1749924801,"current_range_meters":15200,"station_id":"st_cvj6sg6p6f1abm77japg","pricing_plan_id":"cebpf4jnsgd1na2vs0mg"},{"bike_id":"d3a62b68-6a0f-4958-8cf8-26f1477d09a4","system_id":"levelo_inurba_marseille","lat":43.33033,"lon":5.3905,"is_reserved":false,"is_disabled":false,"rental_uris":{"android":"levelo://app?vid=d3a62b68-6a0f-4958-8cf8-26f1477d09a4","ios":"levelo://app?vid=d3a62b68-6a0f-4958-8cf8-26f1477d09a4"},"vehicle_type_id":"4","last_reported":1749924801,"current_range_meters":16000,"station_id":"ce4bhr92rcd13ifvqhrg","pricing_plan_id":"cebpf4jnsgd1na2vs0mg"},{"bike_id":"ca345dc9-fdcd-4cd0-9db5-3a56151bb4ad","system_id":"levelo_inurba_marseille","lat":43.26372,"lon":5.37818,"is_reserved":false,"is_disabled":false,"rental_uris":{"android":"levelo://app?vid=ca345dc9-fdcd-4cd0-9db5-3a56151bb4ad","ios":"levelo://app?vid=ca345dc9-fdcd-4cd0-9db5-3a56151bb4ad"},"vehicle_type_id":"4","last_reported":1749924801,"current_range_meters":16000,"station_id":"st_d163nis0mtpqnht9uue0","pricing_plan_id":"cebpf4jnsgd1na2vs0mg"},{"bike_id":"bd6a90a9-ff3b-478b-823e-14d0ad3ee7ed","system_id":"levelo_inurba_marseille","lat":43.26681,"lon":5.3826,"is_reserved":false,"is_disabled":false,"rental_uris":{"android":"levelo://app?vid=bd6a90a9-ff3b-478b-823e-14d0ad3ee7ed","ios":"levelo://app?vid=bd6a90a9-ff3b-478b-823e-14d0ad3ee7ed"},"vehicle_type_id":"4","last_reported":1749924801,"current_range_meters":16400,"station_id":"ce4bhg92rcd13ifvqf90","pricing_plan_id":"cebpf4jnsgd1na2vs0mg"},{"bike_id":"d952ea89-11d9-4b8e-8f3d-bbf0f2240e86","system_id":"levelo_inurba_marseille","lat":43.2606,"lon":5.39395,"is_reserved":false,"is_disabled":false,"rental_uris":{"android":"levelo://app?vid=d952ea89-11d9-4b8e-8f3d-bbf0f2240e86","ios":"levelo://app?vid=d952ea89-11d9-4b8e-8f3d-bbf0f2240e86"},"vehicle_type_id":"4","last_reported":1749924801,"current_range_meters":16400,"station_id":"ce4bhh92rcd13ifvqfj0","pricing_plan_id":"cebpf4jnsgd1na2vs0mg"},{"bike_id":"bd1a4c12-c161-4a90-85a2-b25d52e4e6df","system_id":"levelo_inurba_marseille","lat":43.281487,"lon":5.426434,"is_reserved":false,"is_disabled":false,"rental_uris":{"android":"levelo://app?vid=bd1a4c12-c161-4a90-85a2-b25d52e4e6df","ios":"levelo://app?vid=bd1a4c12-c161-4a90-85a2-b25d52e4e6df"},"vehicle_type_id":"4","last_reported":1749924801,"current_range_meters":16400,"station_id":"ce4bhnh2rcd13ifvqgug","pricing_plan_id":"cebpf4jnsgd1na2vs0mg"},{"bike_id":"decbbf6a-5803-4b9b-8dba-489f5abb76c8","system_id":"levelo_inurba_marseille","lat":43.26371,"lon":5.37825,"is_reserved":false,"is_disabled":false,"rental_uris":{"android":"levelo://app?vid=decbbf6a-5803-4b9b-8dba-489f5abb76c8","ios":"levelo://app?vid=decbbf6a-5803-4b9b-8dba-489f5abb76c8"},"vehicle_type_id":"4","last_reported":1749924801,"current_range_meters":16400,"station_id":"st_d163nis0mtpqnht9uue0","pricing_plan_id":"cebpf4jnsgd1na2vs0mg"},{"bike_id":"a5ee4afe-a8c2-43ea-a8c6-a0a152038509","system_id":"levelo_inurba_marseille","lat":43.26023,"lon":5.37556,"is_reserved":false,"is_disabled":false,"rental_uris":{"android":"levelo://app?vid=a5ee4afe-a8c2-43ea-a8c6-a0a152038509","ios":"levelo://app?vid=a5ee4afe-a8c2-43ea-a8c6-a0a152038509"},"vehicle_type_id":"4","last_reported":1749924801,"current_range_meters":16800,"station_id":"ce4bhgh2rcd13ifvqfa0","pricing_plan_id":"cebpf4jnsgd1na2vs0mg"},{"bike_id":"e5b62466-ff9e-49e2-bd3e-be88bf15cda8","system_id":"levelo_inurba_marseille","lat":43.21208,"lon":5.35057,"is_reserved":false,"is_disabled":false,"rental_uris":{"android":"levelo://app?vid=e5b62466-ff9e-49e2-bd3e-be88bf15cda8","ios":"levelo://app?vid=e5b62466-ff9e-49e2-bd3e-be88bf15cda8"},"vehicle_type_id":"4","last_reported":1749924801,"current_range_meters":16800,"station_id":"st_cvj6sg6p6f1abm77japg","pricing_plan_id":"cebpf4jnsgd1na2vs0mg"},{"bike_id":"a123e9fa-df7d-41fb-b2d5-2e4e345456f9","system_id":"levelo_inurba_marseille","lat":43.25312,"lon":5.37474,"is_reserved":false,"is_disabled":false,"rental_uris":{"android":"levelo://app?vid=a123e9fa-df7d-41fb-b2d5-2e4e345456f9","ios":"levelo://app?vid=a123e9fa-df7d-41fb-b2d5-2e4e345456f9"},"vehicle_type_id":"4","last_reported":1749924801,"current_range_meters":17200,"station_id":"","pricing_plan_id":"cebpf4jnsgd1na2vs0mg"},{"bike_id":"b7df048f-77f9-4fc0-80ed-9c5e8e73fdb5","system_id":"levelo_inurba_marseille","lat":43.291695,"lon":5.371652,"is_reserved":false,"is_disabled":false,"rental_uris":{"android":"levelo://app?vid=b7df048f-77f9-4fc0-80ed-9c5e8e73fdb5","ios":"levelo://app?vid=b7df048f-77f9-4fc0-80ed-9c5e8e73fdb5"},"vehicle_type_id":"4","last_reported":1749924801,"current_range_meters":17200,"station_id":"ce4bha92rcd13ifvqeh0","pricing_plan_id":"cebpf4jnsgd1na2vs0mg"},{"bike_id":"2663f9b7-6adb-4370-b021-1706a4f29321","system_id":"levelo_inurba_marseille","lat":43.2668,"lon":5.38268,"is_reserved":false,"is_disabled":false,"rental_uris":{"android":"levelo://app?vid=2663f9b7-6adb-4370-b021-1706a4f29321","ios":"levelo://app?vid=2663f9b7-6adb-4370-b021-1706a4f29321"},"vehicle_type_id":"4","last_reported":1749924801,"current_range_meters":17200,"station_id":"ce4bhg92rcd13ifvqf90","pricing_plan_id":"cebpf4jnsgd1na2vs0mg"},{"bike_id":"529d1f7c-b5c5-40bf-9472-1ac2b9f75ca0","system_id":"levelo_inurba_marseille","lat":43.25013,"lon":5.38914,"is_reserved":false,"is_disabled":false,"rental_uris":{"android":"levelo://app?vid=529d1f7c-b5c5-40bf-9472-1ac2b9f75ca0","ios":"levelo://app?vid=529d1f7c-b5c5-40bf-9472-1ac2b9f75ca0"},"vehicle_type_id":"4","last_reported":1749924801,"current_range_meters":17200,"station_id":"ce4bhgp2rcd13ifvqfd0","pricing_plan_id":"cebpf4jnsgd1na2vs0mg"},{"bike_id":"4101138a-9cbb-40b9-a7e7-ed70ed85abc3","system_id":"levelo_inurba_marseille","lat":43.23958,"lon":5.3664,"is_reserved":false,"is_disabled":false,"rental_uris":{"android":"levelo://app?vid=4101138a-9cbb-40b9-a7e7-ed70ed85abc3","ios":"levelo://app?vid=4101138a-9cbb-40b9-a7e7-ed70ed85abc3"},"vehicle_type_id":"4","last_reported":1749924801,"current_range_meters":17200,"station_id":"ce4bhi12rcd13ifvqfp0","pricing_plan_id":"cebpf4jnsgd1na2vs0mg"},{"bike_id":"2c7ba036-532a-4552-b7f1-5cd9cc98ab0b","system_id":"levelo_inurba_marseille","lat":43.26367,"lon":5.37809,"is_reserved":false,"is_disabled":false,"rental_uris":{"android":"levelo://app?vid=2c7ba036-532a-4552-b7f1-5cd9cc98ab0b","ios":"levelo://app?vid=2c7ba036-532a-4552-b7f1-5cd9cc98ab0b"},"vehicle_type_id":"4","last_reported":1749924801,"current_range_meters":17200,"station_id":"st_d163nis0mtpqnht9uue0","pricing_plan_id":"cebpf4jnsgd1na2vs0mg"},{"bike_id":"3e6f2718-0791-4969-9407-b82d1d8a8b0b","system_id":"levelo_inurba_marseille","lat":43.21756,"lon":5.3462,"is_reserved":false,"is_disabled":false,"rental_uris":{"android":"levelo://app?vid=3e6f2718-0791-4969-9407-b82d1d8a8b0b","ios":"levelo://app?vid=3e6f2718-0791-4969-9407-b82d1d8a8b0b"},"vehicle_type_id":"4","last_reported":1749924801,"current_range_meters":17600,"station_id":"","pricing_plan_id":"cebpf4jnsgd1na2vs0mg"},{"bike_id":"53439750-2f55-40ad-b103-7f195bfed790","system_id":"levelo_inurba_marseille","lat":43.25019,"lon":5.38916,"is_reserved":false,"is_disabled":false,"rental_uris":{"android":"levelo://app?vid=53439750-2f55-40ad-b103-7f195bfed790","ios":"levelo://app?vid=53439750-2f55-40ad-b103-7f195bfed790"},"vehicle_type_id":"4","last_reported":1749924801,"current_range_meters":17600,"station_id":"ce4bhgp2rcd13ifvqfd0","pricing_plan_id":"cebpf4jnsgd1na2vs0mg"},{"bike_id":"3e232180-096e-45c2-8101-145150acb1d5","system_id":"levelo_inurba_marseille","lat":43.21194,"lon":5.35076,"is_reserved":false,"is_disabled":false,"rental_uris":{"android":"levelo://app?vid=3e232180-096e-45c2-8101-145150acb1d5","ios":"levelo://app?vid=3e232180-096e-45c2-8101-145150acb1d5"},"vehicle_type_id":"4","last_reported":1749924801,"current_range_meters":17600,"station_id":"st_cvj6sg6p6f1abm77japg","pricing_plan_id":"cebpf4jnsgd1na2vs0mg"},{"bike_id":"bcf8c37a-3b2c-4b4b-a33b-3ca9193b3a10","system_id":"levelo_inurba_marseille","lat":43.26384,"lon":5.37809,"is_reserved":false,"is_disabled":false,"rental_uris":{"android":"levelo://app?vid=bcf8c37a-3b2c-4b4b-a33b-3ca9193b3a10","ios":"levelo://app?vid=bcf8c37a-3b2c-4b4b-a33b-3ca9193b3a10"},"vehicle_type_id":"4","last_reported":1749924801,"current_range_meters":17600,"station_id":"st_d163nis0mtpqnht9uue0","pricing_plan_id":"cebpf4jnsgd1na2vs0mg"},{"bike_id":"5e7b60df-e8be-4a9e-806b-ffe82e954588","system_id":"levelo_inurba_marseille","lat":43.26367,"lon":5.37829,"is_reserved":false,"is_disabled":false,"rental_uris":{"android":"levelo://app?vid=5e7b60df-e8be-4a9e-806b-ffe82e954588","ios":"levelo://app?vid=5e7b60df-e8be-4a9e-806b-ffe82e954588"},"vehicle_type_id":"4","last_reported":1749924801,"current_range_meters":17600,"station_id":"st_d163nis0mtpqnht9uue0","pricing_plan_id":"cebpf4jnsgd1na2vs0mg"},{"bike_id":"c78d3428-9a54-4158-bcde-576d5f82207f","system_id":"levelo_inurba_marseille","lat":43.26369,"lon":5.37812,"is_reserved":false,"is_disabled":false,"rental_uris":{"android":"levelo://app?vid=c78d3428-9a54-4158-bcde-576d5f82207f","ios":"levelo://app?vid=c78d3428-9a54-4158-bcde-576d5f82207f"},"vehicle_type_id":"4","last_reported":1749924801,"current_range_meters":17600,"station_id":"st_d163nis0mtpqnht9uue0","pricing_plan_id":"cebpf4jnsgd1na2vs0mg"},{"bike_id":"3b98ea2c-81c6-4e60-9a2a-cafb0f3fcdc4","system_id":"levelo_inurba_marseille","lat":43.26361,"lon":5.37816,"is_reserved":false,"is_disabled":false,"rental_uris":{"android":"levelo://app?vid=3b98ea2c-81c6-4e60-9a2a-cafb0f3fcdc4","ios":"levelo://app?vid=3b98ea2c-81c6-4e60-9a2a-cafb0f3fcdc4"},"vehicle_type_id":"4","last_reported":1749924801,"current_range_meters":17600,"station_id":"st_d163nis0mtpqnht9uue0","pricing_plan_id":"cebpf4jnsgd1na2vs0mg"},{"bike_id":"d0ebfe61-7cfd-4ed0-925e-a7c041ecd597","system_id":"levelo_inurba_marseille","lat":43.26361,"lon":5.37825,"is_reserved":false,"is_disabled":false,"rental_uris":{"android":"levelo://app?vid=d0ebfe61-7cfd-4ed0-925e-a7c041ecd597","ios":"levelo://app?vid=d0ebfe61-7cfd-4ed0-925e-a7c041ecd597"},"vehicle_type_id":"4","last_reported":1749924801,"current_range_meters":17600,"station_id":"st_d163nis0mtpqnht9uue0","pricing_plan_id":"cebpf4jnsgd1na2vs0mg"},{"bike_id":"5d32a5ab-bdfa-4606-b9ac-4567794954e9","system_id":"levelo_inurba_marseille","lat":43.27809,"lon":5.4071,"is_reserved":false,"is_disabled":false,"rental_uris":{"android":"levelo://app?vid=5d32a5ab-bdfa-4606-b9ac-4567794954e9","ios":"levelo://app?vid=5d32a5ab-bdfa-4606-b9ac-4567794954e9"},"vehicle_type_id":"4","last_reported":1749924801,"current_range_meters":18000,"station_id":"ce4bhnh2rcd13ifvqgtg","pricing_plan_id":"cebpf4jnsgd1na2vs0mg"},{"bike_id":"af54e57f-f161-4317-9bd4-1d43f8702955","system_id":"levelo_inurba_marseille","lat":43.23193,"lon":5.3555,"is_reserved":false,"is_disabled":false,"rental_uris":{"android":"levelo://app?vid=af54e57f-f161-4317-9bd4-1d43f8702955","ios":"levelo://app?vid=af54e57f-f161-4317-9bd4-1d43f8702955"},"vehicle_type_id":"4","last_reported":1749924801,"current_range_meters":18000,"station_id":"ce4bhu92rcd13ifvqi70","pricing_plan_id":"cebpf4jnsgd1na2vs0mg"},{"bike_id":"280c5dcd-d5db-4fa5-917d-5c3430c8f79f","system_id":"levelo_inurba_marseille","lat":43.22943,"lon":5.35382,"is_reserved":false,"is_disabled":false,"rental_uris":{"android":"levelo://app?vid=280c5dcd-d5db-4fa5-917d-5c3430c8f79f","ios":"levelo://app?vid=280c5dcd-d5db-4fa5-917d-5c3430c8f79f"},"vehicle_type_id":"4","last_reported":1749924801,"current_range_meters":18000,"station_id":"cpo3532slgdg3j2ikp40","pricing_plan_id":"cebpf4jnsgd1na2vs0mg"},{"bike_id":"3f96fac2-85e8-4f01-be6f-bf8bd1d9101a","system_id":"levelo_inurba_marseille","lat":43.26378,"lon":5.37809,"is_reserved":false,"is_disabled":false,"rental_uris":{"android":"levelo://app?vid=3f96fac2-85e8-4f01-be6f-bf8bd1d9101a","ios":"levelo://app?vid=3f96fac2-85e8-4f01-be6f-bf8bd1d9101a"},"vehicle_type_id":"4","last_reported":1749924801,"current_range_meters":18000,"station_id":"st_d163nis0mtpqnht9uue0","pricing_plan_id":"cebpf4jnsgd1na2vs0mg"},{"bike_id":"0b5f4564-1867-461b-85ee-6882d0d9f1fa","system_id":"levelo_inurba_marseille","lat":43.26353,"lon":5.37829,"is_reserved":false,"is_disabled":false,"rental_uris":{"android":"levelo://app?vid=0b5f4564-1867-461b-85ee-6882d0d9f1fa","ios":"levelo://app?vid=0b5f4564-1867-461b-85ee-6882d0d9f1fa"},"vehicle_type_id":"4","last_reported":1749924801,"current_range_meters":18000,"station_id":"st_d163nis0mtpqnht9uue0","pricing_plan_id":"cebpf4jnsgd1na2vs0mg"},{"bike_id":"83c0c99d-9206-4f6f-8bd2-edceb1772c91","system_id":"levelo_inurba_marseille","lat":43.26682,"lon":5.38263,"is_reserved":false,"is_disabled":false,"rental_uris":{"android":"levelo://app?vid=83c0c99d-9206-4f6f-8bd2-edceb1772c91","ios":"levelo://app?vid=83c0c99d-9206-4f6f-8bd2-edceb1772c91"},"vehicle_type_id":"4","last_reported":1749924801,"current_range_meters":18800,"station_id":"ce4bhg92rcd13ifvqf90","pricing_plan_id":"cebpf4jnsgd1na2vs0mg"},{"bike_id":"a7238f97-a6a1-4cdb-a5a7-452b50c4905d","system_id":"levelo_inurba_marseille","lat":43.25579,"lon":5.38225,"is_reserved":false,"is_disabled":false,"rental_uris":{"android":"levelo://app?vid=a7238f97-a6a1-4cdb-a5a7-452b50c4905d","ios":"levelo://app?vid=a7238f97-a6a1-4cdb-a5a7-452b50c4905d"},"vehicle_type_id":"4","last_reported":1749924801,"current_range_meters":18800,"station_id":"ce4bhih2rcd13ifvqfs0","pricing_plan_id":"cebpf4jnsgd1na2vs0mg"},{"bike_id":"15ca4f83-8df1-4b73-bad2-b0f1f9fd9e02","system_id":"levelo_inurba_marseille","lat":43.23052,"lon":5.35489,"is_reserved":false,"is_disabled":false,"rental_uris":{"android":"levelo://app?vid=15ca4f83-8df1-4b73-bad2-b0f1f9fd9e02","ios":"levelo://app?vid=15ca4f83-8df1-4b73-bad2-b0f1f9fd9e02"},"vehicle_type_id":"4","last_reported":1749924801,"current_range_meters":18800,"station_id":"cpo3342slgdg3j2ifvpg","pricing_plan_id":"cebpf4jnsgd1na2vs0mg"},{"bike_id":"cd5c9bbc-a19b-4f68-b01c-4d04bac795f6","system_id":"levelo_inurba_marseille","lat":43.21187,"lon":5.35073,"is_reserved":false,"is_disabled":false,"rental_uris":{"android":"levelo://app?vid=cd5c9bbc-a19b-4f68-b01c-4d04bac795f6","ios":"levelo://app?vid=cd5c9bbc-a19b-4f68-b01c-4d04bac795f6"},"vehicle_type_id":"4","last_reported":1749924801,"current_range_meters":18800,"station_id":"st_cvj6sg6p6f1abm77japg","pricing_plan_id":"cebpf4jnsgd1na2vs0mg"},{"bike_id":"2526c19e-ecff-490d-8152-01d927713748","system_id":"levelo_inurba_marseille","lat":43.26368,"lon":5.37813,"is_reserved":false,"is_disabled":false,"rental_uris":{"android":"levelo://app?vid=2526c19e-ecff-490d-8152-01d927713748","ios":"levelo://app?vid=2526c19e-ecff-490d-8152-01d927713748"},"vehicle_type_id":"4","last_reported":1749924801,"current_range_meters":18800,"station_id":"st_d163nis0mtpqnht9uue0","pricing_plan_id":"cebpf4jnsgd1na2vs0mg"},{"bike_id":"a6883894-8f8e-47c4-805b-9835904847e6","system_id":"levelo_inurba_marseille","lat":43.2635,"lon":5.37815,"is_reserved":false,"is_disabled":false,"rental_uris":{"android":"levelo://app?vid=a6883894-8f8e-47c4-805b-9835904847e6","ios":"levelo://app?vid=a6883894-8f8e-47c4-805b-9835904847e6"},"vehicle_type_id":"4","last_reported":1749924801,"current_range_meters":18800,"station_id":"st_d163nis0mtpqnht9uue0","pricing_plan_id":"cebpf4jnsgd1na2vs0mg"},{"bike_id":"899fd811-d1bc-4d8d-b268-e01dd9f545bf","system_id":"levelo_inurba_marseille","lat":43.26355,"lon":5.37811,"is_reserved":false,"is_disabled":false,"rental_uris":{"android":"levelo://app?vid=899fd811-d1bc-4d8d-b268-e01dd9f545bf","ios":"levelo://app?vid=899fd811-d1bc-4d8d-b268-e01dd9f545bf"},"vehicle_type_id":"4","last_reported":1749924801,"current_range_meters":18800,"station_id":"st_d163nis0mtpqnht9uue0","pricing_plan_id":"cebpf4jnsgd1na2vs0mg"},{"bike_id":"cc5f61c5-1108-4e3e-b390-c8992bad5674","system_id":"levelo_inurba_marseille","lat":43.313156,"lon":5.375252,"is_reserved":false,"is_disabled":false,"rental_uris":{"android":"levelo://app?vid=cc5f61c5-1108-4e3e-b390-c8992bad5674","ios":"levelo://app?vid=cc5f61c5-1108-4e3e-b390-c8992bad5674"},"vehicle_type_id":"4","last_reported":1749924801,"current_range_meters":19200,"station_id":"ce4bgt12rcd13ifvqcd0","pricing_plan_id":"cebpf4jnsgd1na2vs0mg"},{"bike_id":"e67291d5-9c2a-43d6-a856-806c29fee7fd","system_id":"levelo_inurba_marseille","lat":43.25702,"lon":5.41055,"is_reserved":false,"is_disabled":false,"rental_uris":{"android":"levelo://app?vid=e67291d5-9c2a-43d6-a856-806c29fee7fd","ios":"levelo://app?vid=e67291d5-9c2a-43d6-a856-806c29fee7fd"},"vehicle_type_id":"4","last_reported":1749924801,"current_range_meters":19200,"station_id":"ce4bhkp2rcd13ifvqgd0","pricing_plan_id":"cebpf4jnsgd1na2vs0mg"},{"bike_id":"490b7a49-7d58-4595-a928-35ceabd36dff","system_id":"levelo_inurba_marseille","lat":43.2406,"lon":5.37738,"is_reserved":false,"is_disabled":false,"rental_uris":{"android":"levelo://app?vid=490b7a49-7d58-4595-a928-35ceabd36dff","ios":"levelo://app?vid=490b7a49-7d58-4595-a928-35ceabd36dff"},"vehicle_type_id":"4","last_reported":1749924801,"current_range_meters":19200,"station_id":"ce4bhnp2rcd13ifvqgvg","pricing_plan_id":"cebpf4jnsgd1na2vs0mg"},{"bike_id":"0ae89325-9f46-48d2-809a-b5e133aa18de","system_id":"levelo_inurba_marseille","lat":43.21194,"lon":5.35066,"is_reserved":false,"is_disabled":false,"rental_uris":{"android":"levelo://app?vid=0ae89325-9f46-48d2-809a-b5e133aa18de","ios":"levelo://app?vid=0ae89325-9f46-48d2-809a-b5e133aa18de"},"vehicle_type_id":"4","last_reported":1749924801,"current_range_meters":19200,"station_id":"st_cvj6sg6p6f1abm77japg","pricing_plan_id":"cebpf4jnsgd1na2vs0mg"},{"bike_id":"f8662bb8-e159-47b5-ac6a-e710cc82cfe1","system_id":"levelo_inurba_marseille","lat":43.30427,"lon":5.3889,"is_reserved":false,"is_disabled":false,"rental_uris":{"android":"levelo://app?vid=f8662bb8-e159-47b5-ac6a-e710cc82cfe1","ios":"levelo://app?vid=f8662bb8-e159-47b5-ac6a-e710cc82cfe1"},"vehicle_type_id":"4","last_reported":1749924801,"current_range_meters":19600,"station_id":"ce4bgk12rcd13ifvqbi0","pricing_plan_id":"cebpf4jnsgd1na2vs0mg"},{"bike_id":"5b649615-1f08-42bd-9b3c-9a13a3337a78","system_id":"levelo_inurba_marseille","lat":43.31885,"lon":5.4074,"is_reserved":false,"is_disabled":false,"rental_uris":{"android":"levelo://app?vid=5b649615-1f08-42bd-9b3c-9a13a3337a78","ios":"levelo://app?vid=5b649615-1f08-42bd-9b3c-9a13a3337a78"},"vehicle_type_id":"4","last_reported":1749924801,"current_range_meters":19600,"station_id":"ce4bhq12rcd13ifvqhig","pricing_plan_id":"cebpf4jnsgd1na2vs0mg"},{"bike_id":"0b2ee1f9-abd4-4b22-a42f-952f3d444257","system_id":"levelo_inurba_marseille","lat":43.26953,"lon":5.40269,"is_reserved":false,"is_disabled":false,"rental_uris":{"android":"levelo://app?vid=0b2ee1f9-abd4-4b22-a42f-952f3d444257","ios":"levelo://app?vid=0b2ee1f9-abd4-4b22-a42f-952f3d444257"},"vehicle_type_id":"4","last_reported":1749924801,"current_range_meters":19600,"station_id":"cjm6bp8fraef2m0cb0m0","pricing_plan_id":"cebpf4jnsgd1na2vs0mg"},