{"last_updated":1712869614,"ttl":30,"version":"2.2","data":{"bikes":[{"bike_id":"3955bec1-1476-4d93-9867-a98f58215b1e","system_id":"levelo_inurba_marseille","lat":43.313391,"lon":5.36706,"is_reserved":false,"is_disabled":false,"rental_uris":{"android":"levelo://app?vid=3955bec1-1476-4d93-9867-a98f58215b1e","ios":"levelo://app?vid=3955bec1-1476-4d93-9867-a98f58215b1e"},"vehicle_type_id":"4","last_reported":1712869614,"current_range_meters":19600,"station_id":"ce4bgr92rcd13ifvqc6g","pricing_plan_id":"cebpf4jnsgd1na2vs0mg"},{"bike_id":"b8a59ad0-a7eb-4303-b5ff-2e730ee565b8","system_id":"levelo_inurba_marseille","lat":43.313391,"lon":5.36706,"is_reserved":false,"is_disabled":false,"rental_uris":{"android":"levelo://app?vid=b8a59ad0-a7eb-4303-b5ff-2e730ee565b8","ios":"levelo://app?vid=b8a59ad0-a7eb-4303-b5ff-2e730ee565b8"},"vehicle_type_id":"4","last_reported":1712869614,"current_range_meters":10800,"station_id":"ce4bgr92rcd13ifvqc6g","pricing_plan_id":"cebpf4jnsgd1na2vs0mg"},{"bike_id":"cd40a2a7-6d97-4be1-89f0-3f93a707a9c6","system_id":"levelo_inurba_marseille","lat":43.313391,"lon":5.36706,"is_reserved":false,"is_disabled":false,"rental_uris":{"android":"levelo://app?vid=cd40a2a7-6d97-4be1-89f0-3f93a707a9c6","ios":"levelo://app?vid=cd40a2a7-6d97-4be1-89f0-3f93a707a9c6"},"vehicle_type_id":"4","last_reported":1712869614,"current_range_meters":16400,"station_id":"ce4bgr92rcd13ifvqc6g","pricing_plan_id":"cebpf4jnsgd1na2vs0mg"},{"bike_id":"7e63b10c-3c76-4753-a57a-a34350cfca4f","system_id":"levelo_inurba_marseille","lat":43.31218,"lon":5.36859,"is_reserved":false,"is_disabled":false,"rental_uris":{"android":"levelo://app?vid=7e63b10c-3c76-4753-a57a-a34350cfca4f","ios":"levelo://app?vid=7e63b10c-3c76-4753-a57a-a34350cfca4f"},"vehicle_type_id":"4","last_reported":1712869614,"current_range_meters":4400,"station_id":"ce4bgl92rcd13ifvqbq0","pricing_plan_id":"cebpf4jnsgd1na2vs0mg"},{"bike_id":"d7a6aed1-e15f-4d00-b909-0b80a12354e2","system_id":"levelo_inurba_marseille","lat":43.312239,"lon":5.368562,"is_reserved":false,"is_disabled":false,"rental_uris":{"android":"levelo://app?vid=d7a6aed1-e15f-4d00-b909-0b80a12354e2","ios":"levelo://app?vid=d7a6aed1-e15f-4d00-b909-0b80a12354e2"},"vehicle_type_id":"4","last_reported":1712869614,"current_range_meters":2000,"station_id":"ce4bgl92rcd13ifvqbq0","pricing_plan_id":"cebpf4jnsgd1na2vs0mg"},{"bike_id":"28f1144e-79af-4957-ac9a-69946c799a2d","system_id":"levelo_inurba_marseille","lat":43.312239,"lon":5.368562,"is_reserved":false,"is_disabled":false,"rental_uris":{"android":"levelo://app?vid=28f1144e-79af-4957-ac9a-69946c799a2d","ios":"levelo://app?vid=28f1144e-79af-4957-ac9a-69946c799a2d"},"vehicle_type_id":"4","last_reported":1712869614,"current_range_meters":17200,"station_id":"ce4bgl92rcd13ifvqbq0","pricing_plan_id":"cebpf4jnsgd1na2vs0mg"},{"bike_id":"4970f656-f811-4f82-add5-e8bca54909ab","system_id":"levelo_inurba_marseille","lat":43.309076,"lon":5.368465,"is_reserved":false,"is_disabled":false,"rental_uris":{"android":"levelo://app?vid=4970f656-f811-4f82-add5-e8bca54909ab","ios":"levelo://app?vid=4970f656-f811-4f82-add5-e8bca54909ab"},"vehicle_type_id":"4","last_reported":1712869614,"current_range_meters":20000,"station_id":"ce4bgn92rcd13ifvqbvg","pricing_plan_id":"cebpf4jnsgd1na2vs0mg"},{"bike_id":"97c305c5-8435-4b15-ae4a-fad64f5206a4","system_id":"levelo_inurba_marseille","lat":43.309076,"lon":5.368465,"is_reserved":false,"is_disabled":false,"rental_uris":{"android":"levelo://app?vid=97c305c5-8435-4b15-ae4a-fad64f5206a4","ios":"levelo://app?vid=97c305c5-8435-4b15-ae4a-fad64f5206a4"},"vehicle_type_id":"4","last_reported":1712869614,"current_range_meters":0,"station_id":"ce4bgn92rcd13ifvqbvg","pricing_plan_id":"cebpf4jnsgd1na2vs0mg"},{"bike_id":"1eb69a2c-9f72-488f-9b04-13cf7149fd6d","system_id":"levelo_inurba_marseille","lat":43.311125,"lon":5.377624,"is_reserved":false,"is_disabled":false,"rental_uris":{"android":"levelo://app?vid=1eb69a2c-9f72-488f-9b04-13cf7149fd6d","ios":"levelo://app?vid=1eb69a2c-9f72-488f-9b04-13cf7149fd6d"},"vehicle_type_id":"4","last_reported":1712869614,"current_range_meters":800,"station_id":"ce4bgt92rcd13ifvqcg0","pricing_plan_id":"cebpf4jnsgd1na2vs0mg"},{"bike_id":"2f2d0939-cb75-4dad-baf0-0f1b5a342d2f","system_id":"levelo_inurba_marseille","lat":43.314811,"lon":5.373103,"is_reserved":false,"is_disabled":false,"rental_uris":{"android":"levelo://app?vid=2f2d0939-cb75-4dad-baf0-0f1b5a342d2f","ios":"levelo://app?vid=2f2d0939-cb75-4dad-baf0-0f1b5a342d2f"},"vehicle_type_id":"4","last_reported":1712869614,"current_range_meters":8400,"station_id":"ce4bgt12rcd13ifvqcd0","pricing_plan_id":"cebpf4jnsgd1na2vs0mg"},{"bike_id":"35637b8a-256a-4ced-9363-6878f2304db5","system_id":"levelo_inurba_marseille","lat":43.314811,"lon":5.373103,"is_reserved":false,"is_disabled":false,"rental_uris":{"android":"levelo://app?vid=35637b8a-256a-4ced-9363-6878f2304db5","ios":"levelo://app?vid=35637b8a-256a-4ced-9363-6878f2304db5"},"vehicle_type_id":"4","last_reported":1712869614,"current_range_meters":0,"station_id":"ce4bgt12rcd13ifvqcd0","pricing_plan_id":"cebpf4jnsgd1na2vs0mg"},{"bike_id":"f68ff566-04a0-4ce9-a14e-c753b388bbee","system_id":"levelo_inurba_marseille","lat":43.314811,"lon":5.373104,"is_reserved":false,"is_disabled":false,"rental_uris":{"android":"levelo://app?vid=f68ff566-04a0-4ce9-a14e-c753b388bbee","ios":"levelo://app?vid=f68ff566-04a0-4ce9-a14e-c753b388bbee"},"vehicle_type_id":"4","last_reported":1712869614,"current_range_meters":6400,"station_id":"ce4bgt12rcd13ifvqcd0","pricing_plan_id":"cebpf4jnsgd1na2vs0mg"},{"bike_id":"ba505c9b-f8ce-41cc-b4ff-3ef21e355fb1","system_id":"levelo_inurba_marseille","lat":43.314811,"lon":5.373103,"is_reserved":false,"is_disabled":false,"rental_uris":{"android":"levelo://app?vid=ba505c9b-f8ce-41cc-b4ff-3ef21e355fb1","ios":"levelo://app?vid=ba505c9b-f8ce-41cc-b4ff-3ef21e355fb1"},"vehicle_type_id":"4","last_reported":1712869614,"current_range_meters":2400,"station_id":"ce4bgt12rcd13ifvqcd0","pricing_plan_id":"cebpf4jnsgd1na2vs0mg"},{"bike_id":"14181a96-a381-46a3-bf8e-9275e5d5f84a","system_id":"levelo_inurba_marseille","lat":43.314811,"lon":5.373103,"is_reserved":false,"is_disabled":false,"rental_uris":{"android":"levelo://app?vid=14181a96-a381-46a3-bf8e-9275e5d5f84a","ios":"levelo://app?vid=14181a96-a381-46a3-bf8e-9275e5d5f84a"},"vehicle_type_id":"4","last_reported":1712869614,"current_range_meters":17600,"station_id":"ce4bgt12rcd13ifvqcd0","pricing_plan_id":"cebpf4jnsgd1na2vs0mg"},{"bike_id":"a7cf2af1-e361-4ff0-ba76-d833644e7de4","system_id":"levelo_inurba_marseille","lat":43.309039,"lon":5.371797,"is_reserved":false,"is_disabled":false,"rental_uris":{"android":"levelo://app?vid=a7cf2af1-e361-4ff0-ba76-d833644e7de4","ios":"levelo://app?vid=a7cf2af1-e361-4ff0-ba76-d833644e7de4"},"vehicle_type_id":"4","last_reported":1712869614,"current_range_meters":10000,"station_id":"ce4bguh2rcd13ifvqckg","pricing_plan_id":"cebpf4jnsgd1na2vs0mg"},{"bike_id":"b256c11d-4620-40d5-9fa7-dafc355e14b8","system_id":"levelo_inurba_marseille","lat":43.309039,"lon":5.371797,"is_reserved":false,"is_disabled":false,"rental_uris":{"android":"levelo://app?vid=b256c11d-4620-40d5-9fa7-dafc355e14b8","ios":"levelo://app?vid=b256c11d-4620-40d5-9fa7-dafc355e14b8"},"vehicle_type_id":"4","last_reported":1712869614,"current_range_meters":0,"station_id":"ce4bguh2rcd13ifvqckg","pricing_plan_id":"cebpf4jnsgd1na2vs0mg"},{"bike_id":"8eeb49ca-d219-4aba-bba3-82b8dfb1c94f","system_id":"levelo_inurba_marseille","lat":43.309039,"lon":5.371797,"is_reserved":false,"is_disabled":false,"rental_uris":{"android":"levelo://app?vid=8eeb49ca-d219-4aba-bba3-82b8dfb1c94f","ios":"levelo://app?vid=8eeb49ca-d219-4aba-bba3-82b8dfb1c94f"},"vehicle_type_id":"4","last_reported":1712869614,"current_range_meters":12400,"station_id":"ce4bguh2rcd13ifvqckg","pricing_plan_id":"cebpf4jnsgd1na2vs0mg"},{"bike_id":"10aa9f14-8d17-4b34-89b3-8c813aaacfec","system_id":"levelo_inurba_marseille","lat":43.309034,"lon":5.371783,"is_reserved":false,"is_disabled":false,"rental_uris":{"android":"levelo://app?vid=10aa9f14-8d17-4b34-89b3-8c813aaacfec","ios":"levelo://app?vid=10aa9f14-8d17-4b34-89b3-8c813aaacfec"},"vehicle_type_id":"4","last_reported":1712869614,"current_range_meters":6800,"station_id":"ce4bguh2rcd13ifvqckg","pricing_plan_id":"cebpf4jnsgd1na2vs0mg"},{"bike_id":"074900de-e605-458e-85ed-26dd1af25a10","system_id":"levelo_inurba_marseille","lat":43.309034,"lon":5.371783,"is_reserved":false,"is_disabled":false,"rental_uris":{"android":"levelo://app?vid=074900de-e605-458e-85ed-26dd1af25a10","ios":"levelo://app?vid=074900de-e605-458e-85ed-26dd1af25a10"},"vehicle_type_id":"4","last_reported":1712869614,"current_range_meters":19600,"station_id":"ce4bguh2rcd13ifvqckg","pricing_plan_id":"cebpf4jnsgd1na2vs0mg"},{"bike_id":"150a577b-d3eb-4be1-b3d6-278f581c7d71","system_id":"levelo_inurba_marseille","lat":43.30546,"lon":5.36554,"is_reserved":false,"is_disabled":false,"rental_uris":{"android":"levelo://app?vid=150a577b-d3eb-4be1-b3d6-278f581c7d71","ios":"levelo://app?vid=150a577b-d3eb-4be1-b3d6-278f581c7d71"},"vehicle_type_id":"4","last_reported":1712869614,"current_range_meters":0,"station_id":"ce4bgs12rcd13ifvqcag","pricing_plan_id":"cebpf4jnsgd1na2vs0mg"},{"bike_id":"1706376d-5de7-422a-956e-8fcdbec7abe9","system_id":"levelo_inurba_marseille","lat":43.307218,"lon":5.37375,"is_reserved":false,"is_disabled":false,"rental_uris":{"android":"levelo://app?vid=1706376d-5de7-422a-956e-8fcdbec7abe9","ios":"levelo://app?vid=1706376d-5de7-422a-956e-8fcdbec7abe9"},"vehicle_type_id":"4","last_reported":1712869614,"current_range_meters":0,"station_id":"","pricing_plan_id":"cebpf4jnsgd1na2vs0mg"},{"bike_id":"d86c5d88-8f1e-42f6-acf2-5ef0166d00df","system_id":"levelo_inurba_marseille","lat":43.305955,"lon":5.372235,"is_reserved":false,"is_disabled":false,"rental_uris":{"android":"levelo://app?vid=d86c5d88-8f1e-42f6-acf2-5ef0166d00df","ios":"levelo://app?vid=d86c5d88-8f1e-42f6-acf2-5ef0166d00df"},"vehicle_type_id":"4","last_reported":1712869614,"current_range_meters":0,"station_id":"ce4bgqh2rcd13ifvqc4g","pricing_plan_id":"cebpf4jnsgd1na2vs0mg"},{"bike_id":"b464a47c-be07-4068-b9bd-bcbb93a43e5f","system_id":"levelo_inurba_marseille","lat":43.307945,"lon":5.376487,"is_reserved":false,"is_disabled":false,"rental_uris":{"android":"levelo://app?vid=b464a47c-be07-4068-b9bd-bcbb93a43e5f","ios":"levelo://app?vid=b464a47c-be07-4068-b9bd-bcbb93a43e5f"},"vehicle_type_id":"4","last_reported":1712869614,"current_range_meters":5200,"station_id":"ce4bgv92rcd13ifvqcq0","pricing_plan_id":"cebpf4jnsgd1na2vs0mg"},{"bike_id":"13d78e9d-2ec2-49f6-966a-c876fb74f3f1","system_id":"levelo_inurba_marseille","lat":43.307945,"lon":5.376487,"is_reserved":false,"is_disabled":false,"rental_uris":{"android":"levelo://app?vid=13d78e9d-2ec2-49f6-966a-c876fb74f3f1","ios":"levelo://app?vid=13d78e9d-2ec2-49f6-966a-c876fb74f3f1"},"vehicle_type_id":"4","last_reported":1712869614,"current_range_meters":6400,"station_id":"ce4bgv92rcd13ifvqcq0","pricing_plan_id":"cebpf4jnsgd1na2vs0mg"},{"bike_id":"fd3b452d-cf2d-4a16-baaa-cc608d3ed4e2","system_id":"levelo_inurba_marseille","lat":43.307945,"lon":5.376487,"is_reserved":false,"is_disabled":false,"rental_uris":{"android":"levelo://app?vid=fd3b452d-cf2d-4a16-baaa-cc608d3ed4e2","ios":"levelo://app?vid=fd3b452d-cf2d-4a16-baaa-cc608d3ed4e2"},"vehicle_type_id":"4","last_reported":1712869614,"current_range_meters":31200,"station_id":"ce4bgv92rcd13ifvqcq0","pricing_plan_id":"cebpf4jnsgd1na2vs0mg"},{"bike_id":"a23d0065-845d-4eea-b407-01a5985dab9b","system_id":"levelo_inurba_marseille","lat":43.307945,"lon":5.376487,"is_reserved":false,"is_disabled":false,"rental_uris":{"android":"levelo://app?vid=a23d0065-845d-4eea-b407-01a5985dab9b","ios":"levelo://app?vid=a23d0065-845d-4eea-b407-01a5985dab9b"},"vehicle_type_id":"4","last_reported":1712869614,"current_range_meters":5600,"station_id":"ce4bgv92rcd13ifvqcq0","pricing_plan_id":"cebpf4jnsgd1na2vs0mg"},{"bike_id":"e5e98c28-af59-480d-8c15-be13119a53e1","system_id":"levelo_inurba_marseille","lat":43.307945,"lon":5.376487,"is_reserved":false,"is_disabled":false,"rental_uris":{"android":"levelo://app?vid=e5e98c28-af59-480d-8c15-be13119a53e1","ios":"levelo://app?vid=e5e98c28-af59-480d-8c15-be13119a53e1"},"vehicle_type_id":"4","last_reported":1712869614,"current_range_meters":3200,"station_id":"ce4bgv92rcd13ifvqcq0","pricing_plan_id":"cebpf4jnsgd1na2vs0mg"},{"bike_id":"e0e62251-90ff-4014-b33e-4ab0f51b8199","system_id":"levelo_inurba_marseille","lat":43.307945,"lon":5.376487,"is_reserved":false,"is_disabled":false,"rental_uris":{"android":"levelo://app?vid=e0e62251-90ff-4014-b33e-4ab0f51b8199","ios":"levelo://app?vid=e0e62251-90ff-4014-b33e-4ab0f51b8199"},"vehicle_type_id":"4","last_reported":1712869614,"current_range_meters":3600,"station_id":"ce4bgv92rcd13ifvqcq0","pricing_plan_id":"cebpf4jnsgd1na2vs0mg"},{"bike_id":"18b6f759-3cb1-41ed-b872-2d4c06bb4be3","system_id":"levelo_inurba_marseille","lat":43.307945,"lon":5.376487,"is_reserved":false,"is_disabled":false,"rental_uris":{"android":"levelo://app?vid=18b6f759-3cb1-41ed-b872-2d4c06bb4be3","ios":"levelo://app?vid=18b6f759-3cb1-41ed-b872-2d4c06bb4be3"},"vehicle_type_id":"4","last_reported":1712869614,"current_range_meters":17600,"station_id":"ce4bgv92rcd13ifvqcq0","pricing_plan_id":"cebpf4jnsgd1na2vs0mg"},{"bike_id":"9a4b4ec2-88e8-4bd3-91a8-c4a7b41d1af0","system_id":"levelo_inurba_marseille","lat":43.307945,"lon":5.376487,"is_reserved":false,"is_disabled":false,"rental_uris":{"android":"levelo://app?vid=9a4b4ec2-88e8-4bd3-91a8-c4a7b41d1af0","ios":"levelo://app?vid=9a4b4ec2-88e8-4bd3-91a8-c4a7b41d1af0"},"vehicle_type_id":"4","last_reported":1712869614,"current_range_meters":21200,"station_id":"ce4bgv92rcd13ifvqcq0","pricing_plan_id":"cebpf4jnsgd1na2vs0mg"},{"bike_id":"255501e2-7311-49de-a2a8-070a143bc069","system_id":"levelo_inurba_marseille","lat":43.303102,"lon":5.368927,"is_reserved":false,"is_disabled":false,"rental_uris":{"android":"levelo://app?vid=255501e2-7311-49de-a2a8-070a143bc069","ios":"levelo://app?vid=255501e2-7311-49de-a2a8-070a143bc069"},"vehicle_type_id":"4","last_reported":1712869614,"current_range_meters":5600,"station_id":"ce4bgqh2rcd13ifvqc5g","pricing_plan_id":"cebpf4jnsgd1na2vs0mg"},{"bike_id":"dc6202ec-9190-42f6-b469-e084e093cb45","system_id":"levelo_inurba_marseille","lat":43.303046,"lon":5.368981,"is_reserved":false,"is_disabled":false,"rental_uris":{"android":"levelo://app?vid=dc6202ec-9190-42f6-b469-e084e093cb45","ios":"levelo://app?vid=dc6202ec-9190-42f6-b469-e084e093cb45"},"vehicle_type_id":"4","last_reported":1712869614,"current_range_meters":4800,"station_id":"ce4bgqh2rcd13ifvqc5g","pricing_plan_id":"cebpf4jnsgd1na2vs0mg"},{"bike_id":"4bf3e8e1-ad0e-4232-97ee-7ec98c8f7b1a","system_id":"levelo_inurba_marseille","lat":43.315358,"lon":5.380256,"is_reserved":false,"is_disabled":false,"rental_uris":{"android":"levelo://app?vid=4bf3e8e1-ad0e-4232-97ee-7ec98c8f7b1a","ios":"levelo://app?vid=4bf3e8e1-ad0e-4232-97ee-7ec98c8f7b1a"},"vehicle_type_id":"4","last_reported":1712869614,"current_range_meters":0,"station_id":"ce4bhsp2rcd13ifvqi50","pricing_plan_id":"cebpf4jnsgd1na2vs0mg"},{"bike_id":"ce62469d-08a8-463e-ac9c-61aa6dc490b2","system_id":"levelo_inurba_marseille","lat":43.315293,"lon":5.380349,"is_reserved":false,"is_disabled":false,"rental_uris":{"android":"levelo://app?vid=ce62469d-08a8-463e-ac9c-61aa6dc490b2","ios":"levelo://app?vid=ce62469d-08a8-463e-ac9c-61aa6dc490b2"},"vehicle_type_id":"4","last_reported":1712869614,"current_range_meters":13600,"station_id":"ce4bhsp2rcd13ifvqi50","pricing_plan_id":"cebpf4jnsgd1na2vs0mg"},{"bike_id":"d4a84b86-ab3c-427c-beb1-ac9a45890467","system_id":"levelo_inurba_marseille","lat":43.315293,"lon":5.380349,"is_reserved":false,"is_disabled":false,"rental_uris":{"android":"levelo://app?vid=d4a84b86-ab3c-427c-beb1-ac9a45890467","ios":"levelo://app?vid=d4a84b86-ab3c-427c-beb1-ac9a45890467"},"vehicle_type_id":"4","last_reported":1712869614,"current_range_meters":21600,"station_id":"ce4bhsp2rcd13ifvqi50","pricing_plan_id":"cebpf4jnsgd1na2vs0mg"},{"bike_id":"d5e44ba8-702d-444f-9298-014442af7870","system_id":"levelo_inurba_marseille","lat":43.315293,"lon":5.380349,"is_reserved":false,"is_disabled":false,"rental_uris":{"android":"levelo://app?vid=d5e44ba8-702d-444f-9298-014442af7870","ios":"levelo://app?vid=d5e44ba8-702d-444f-9298-014442af7870"},"vehicle_type_id":"4","last_reported":1712869614,"current_range_meters":16800,"station_id":"ce4bhsp2rcd13ifvqi50","pricing_plan_id":"cebpf4jnsgd1na2vs0mg"},{"bike_id":"603fa77f-0eba-4a52-b353-54050b497b03","system_id":"levelo_inurba_marseille","lat":43.30193,"lon":5.36616,"is_reserved":false,"is_disabled":false,"rental_uris":{"android":"levelo://app?vid=603fa77f-0eba-4a52-b353-54050b497b03","ios":"levelo://app?vid=603fa77f-0eba-4a52-b353-54050b497b03"},"vehicle_type_id":"4","last_reported":1712869614,"current_range_meters":0,"station_id":"ce4bgrh2rcd13ifvqc8g","pricing_plan_id":"cebpf4jnsgd1na2vs0mg"},{"bike_id":"108074b1-439c-4705-ac57-9ed85b2bda57","system_id":"levelo_inurba_marseille","lat":43.30793,"lon":5.38136,"is_reserved":false,"is_disabled":false,"rental_uris":{"android":"levelo://app?vid=108074b1-439c-4705-ac57-9ed85b2bda57","ios":"levelo://app?vid=108074b1-439c-4705-ac57-9ed85b2bda57"},"vehicle_type_id":"4","last_reported":1712869614,"current_range_meters":7200,"station_id":"ce4bgt12rcd13ifvqce0","pricing_plan_id":"cebpf4jnsgd1na2vs0mg"},{"bike_id":"4e32a85a-a798-421d-b1ee-b70eb4f44e68","system_id":"levelo_inurba_marseille","lat":43.308012,"lon":5.381511,"is_reserved":false,"is_disabled":false,"rental_uris":{"android":"levelo://app?vid=4e32a85a-a798-421d-b1ee-b70eb4f44e68","ios":"levelo://app?vid=4e32a85a-a798-421d-b1ee-b70eb4f44e68"},"vehicle_type_id":"4","last_reported":1712869614,"current_range_meters":15600,"station_id":"ce4bgt12rcd13ifvqce0","pricing_plan_id":"cebpf4jnsgd1na2vs0mg"},{"bike_id":"76b05a5c-13ae-4638-bbe8-c95320a18bab","system_id":"levelo_inurba_marseille","lat":43.308012,"lon":5.381511,"is_reserved":false,"is_disabled":false,"rental_uris":{"android":"levelo://app?vid=76b05a5c-13ae-4638-bbe8-c95320a18bab","ios":"levelo://app?vid=76b05a5c-13ae-4638-bbe8-c95320a18bab"},"vehicle_type_id":"4","last_reported":1712869614,"current_range_meters":28000,"station_id":"ce4bgt12rcd13ifvqce0","pricing_plan_id":"cebpf4jnsgd1na2vs0mg"},{"bike_id":"b59f41db-90cd-4558-b47a-5af60abec512","system_id":"levelo_inurba_marseille","lat":43.30434,"lon":5.37809,"is_reserved":false,"is_disabled":false,"rental_uris":{"android":"levelo://app?vid=b59f41db-90cd-4558-b47a-5af60abec512","ios":"levelo://app?vid=b59f41db-90cd-4558-b47a-5af60abec512"},"vehicle_type_id":"4","last_reported":1712869614,"current_range_meters":0,"station_id":"","pricing_plan_id":"cebpf4jnsgd1na2vs0mg"},{"bike_id":"f932846e-d126-4174-8e5c-eae823c6d514","system_id":"levelo_inurba_marseille","lat":43.30791,"lon":5.38187,"is_reserved":false,"is_disabled":false,"rental_uris":{"android":"levelo://app?vid=f932846e-d126-4174-8e5c-eae823c6d514","ios":"levelo://app?vid=f932846e-d126-4174-8e5c-eae823c6d514"},"vehicle_type_id":"4","last_reported":1712869614,"current_range_meters":0,"station_id":"ce4bgt12rcd13ifvqce0","pricing_plan_id":"cebpf4jnsgd1na2vs0mg"},{"bike_id":"27e1de5e-5ed7-4772-bf00-1cdf17500280","system_id":"levelo_inurba_marseille","lat":43.32476,"lon":5.36548,"is_reserved":false,"is_disabled":false,"rental_uris":{"android":"levelo://app?vid=27e1de5e-5ed7-4772-bf00-1cdf17500280","ios":"levelo://app?vid=27e1de5e-5ed7-4772-bf00-1cdf17500280"},"vehicle_type_id":"4","last_reported":1712869614,"current_range_meters":0,"station_id":"ce4bhs12rcd13ifvqhvg","pricing_plan_id":"cebpf4jnsgd1na2vs0mg"},{"bike_id":"bbd00ad1-8f33-41d2-8982-061070b68544","system_id":"levelo_inurba_marseille","lat":43.32478,"lon":5.36551,"is_reserved":false,"is_disabled":false,"rental_uris":{"android":"levelo://app?vid=bbd00ad1-8f33-41d2-8982-061070b68544","ios":"levelo://app?vid=bbd00ad1-8f33-41d2-8982-061070b68544"},"vehicle_type_id":"4","last_reported":1712869614,"current_range_meters":3600,"station_id":"ce4bhs12rcd13ifvqhvg","pricing_plan_id":"cebpf4jnsgd1na2vs0mg"},{"bike_id":"40ba577e-105f-4c10-aea8-b47ce82dcf5d","system_id":"levelo_inurba_marseille","lat":43.324771,"lon":5.36557,"is_reserved":false,"is_disabled":false,"rental_uris":{"android":"levelo://app?vid=40ba577e-105f-4c10-aea8-b47ce82dcf5d","ios":"levelo://app?vid=40ba577e-105f-4c10-aea8-b47ce82dcf5d"},"vehicle_type_id":"4","last_reported":1712869614,"current_range_meters":4000,"station_id":"ce4bhs12rcd13ifvqhvg","pricing_plan_id":"cebpf4jnsgd1na2vs0mg"},{"bike_id":"c92ff043-d5a7-42bc-835b-987cc7ba50fc","system_id":"levelo_inurba_marseille","lat":43.324771,"lon":5.36557,"is_reserved":false,"is_disabled":false,"rental_uris":{"android":"levelo://app?vid=c92ff043-d5a7-42bc-835b-987cc7ba50fc","ios":"levelo://app?vid=c92ff043-d5a7-42bc-835b-987cc7ba50fc"},"vehicle_type_id":"4","last_reported":1712869614,"current_range_meters":0,"station_id":"ce4bhs12rcd13ifvqhvg","pricing_plan_id":"cebpf4jnsgd1na2vs0mg"},{"bike_id":"4001667e-2a4e-43ce-84d2-2dd044675a28","system_id":"levelo_inurba_marseille","lat":43.324771,"lon":5.36557,"is_reserved":false,"is_disabled":false,"rental_uris":{"android":"levelo://app?vid=4001667e-2a4e-43ce-84d2-2dd044675a28","ios":"levelo://app?vid=4001667e-2a4e-43ce-84d2-2dd044675a28"},"vehicle_type_id":"4","last_reported":1712869614,"current_range_meters":0,"station_id":"ce4bhs12rcd13ifvqhvg","pricing_plan_id":"cebpf4jnsgd1na2vs0mg"},{"bike_id":"86c1a056-492d-47b3-b546-0868b352d77f","system_id":"levelo_inurba_marseille","lat":43.302784,"lon":5.377158,"is_reserved":false,"is_disabled":false,"rental_uris":{"android":"levelo://app?vid=86c1a056-492d-47b3-b546-0868b352d77f","ios":"levelo://app?vid=86c1a056-492d-47b3-b546-0868b352d77f"},"vehicle_type_id":"4","last_reported":1712869614,"current_range_meters":13600,"station_id":"ce4bguh2rcd13ifvqcj0","pricing_plan_id":"cebpf4jnsgd1na2vs0mg"},{"bike_id":"81126b7f-0253-40e3-b8d7-38b45133c0a8","system_id":"levelo_inurba_marseille","lat":43.302784,"lon":5.377158,"is_reserved":false,"is_disabled":false,"rental_uris":{"android":"levelo://app?vid=81126b7f-0253-40e3-b8d7-38b45133c0a8","ios":"levelo://app?vid=81126b7f-0253-40e3-b8d7-38b45133c0a8"},"vehicle_type_id":"4","last_reported":1712869614,"current_range_meters":14000,"station_id":"ce4bguh2rcd13ifvqcj0","pricing_plan_id":"cebpf4jnsgd1na2vs0mg"},{"bike_id":"01ba0d16-4062-4368-bd8a-a5ab812a94d4","system_id":"levelo_inurba_marseille","lat":43.30143,"lon":5.37406,"is_reserved":false,"is_disabled":false,"rental_uris":{"android":"levelo://app?vid=01ba0d16-4062-4368-bd8a-a5ab812a94d4","ios":"levelo://app?vid=01ba0d16-4062-4368-bd8a-a5ab812a94d4"},"vehicle_type_id":"4","last_reported":1712869614,"current_range_meters":7200,"station_id":"ce4bgs92rcd13ifvqcc0","pricing_plan_id":"cebpf4jnsgd1na2vs0mg"},{"bike_id":"689804b0-6821-4d98-9685-9f55e6cbf693","system_id":"levelo_inurba_marseille","lat":43.30144,"lon":5.374121,"is_reserved":false,"is_disabled":false,"rental_uris":{"android":"levelo://app?vid=689804b0-6821-4d98-9685-9f55e6cbf693","ios":"levelo://app?vid=689804b0-6821-4d98-9685-9f55e6cbf693"},"vehicle_type_id":"4","last_reported":1712869614,"current_range_meters":0,"station_id":"ce4bgs92rcd13ifvqcc0","pricing_plan_id":"cebpf4jnsgd1na2vs0mg"},{"bike_id":"fe7d6adf-41ae-4da5-be13-b41af0b20ec9","system_id":"levelo_inurba_marseille","lat":43.30143,"lon":5.37413,"is_reserved":false,"is_disabled":false,"rental_uris":{"android":"levelo://app?vid=fe7d6adf-41ae-4da5-be13-b41af0b20ec9","ios":"levelo://app?vid=fe7d6adf-41ae-4da5-be13-b41af0b20ec9"},"vehicle_type_id":"4","last_reported":1712869614,"current_range_meters":28000,"station_id":"ce4bgs92rcd13ifvqcc0","pricing_plan_id":"cebpf4jnsgd1na2vs0mg"},{"bike_id":"596553fb-24ee-4d72-8975-4d8e35d38290","system_id":"levelo_inurba_marseille","lat":43.301429,"lon":5.37413,"is_reserved":false,"is_disabled":false,"rental_uris":{"android":"levelo://app?vid=596553fb-24ee-4d72-8975-4d8e35d38290","ios":"levelo://app?vid=596553fb-24ee-4d72-8975-4d8e35d38290"},"vehicle_type_id":"4","last_reported":1712869614,"current_range_meters":6400,"station_id":"ce4bgs92rcd13ifvqcc0","pricing_plan_id":"cebpf4jnsgd1na2vs0mg"},{"bike_id":"d38612d1-2607-49c4-947c-85f3c96fc0d8","system_id":"levelo_inurba_marseille","lat":43.30136,"lon":5.37411,"is_reserved":false,"is_disabled":false,"rental_uris":{"android":"levelo://app?vid=d38612d1-2607-49c4-947c-85f3c96fc0d8","ios":"levelo://app?vid=d38612d1-2607-49c4-947c-85f3c96fc0d8"},"vehicle_type_id":"4","last_reported":1712869614,"current_range_meters":10800,"station_id":"ce4bgs92rcd13ifvqcc0","pricing_plan_id":"cebpf4jnsgd1na2vs0mg"},{"bike_id":"5a4b3c6f-ce9f-4b0c-9547-e7e8c6bc5d12","system_id":"levelo_inurba_marseille","lat":43.301429,"lon":5.37413,"is_reserved":false,"is_disabled":false,"rental_uris":{"android":"levelo://app?vid=5a4b3c6f-ce9f-4b0c-9547-e7e8c6bc5d12","ios":"levelo://app?vid=5a4b3c6f-ce9f-4b0c-9547-e7e8c6bc5d12"},"vehicle_type_id":"4","last_reported":1712869614,"current_range_meters":13200,"station_id":"ce4bgs92rcd13ifvqcc0","pricing_plan_id":"cebpf4jnsgd1na2vs0mg"},{"bike_id":"0353eeb9-ab99-444b-89b1-127978c70357","system_id":"levelo_inurba_marseille","lat":43.301429,"lon":5.37413,"is_reserved":false,"is_disabled":false,"rental_uris":{"android":"levelo://app?vid=0353eeb9-ab99-444b-89b1-127978c70357","ios":"levelo://app?vid=0353eeb9-ab99-444b-89b1-127978c70357"},"vehicle_type_id":"4","last_reported":1712869614,"current_range_meters":4400,"station_id":"ce4bgs92rcd13ifvqcc0","pricing_plan_id":"cebpf4jnsgd1na2vs0mg"},{"bike_id":"9a5eb2ac-783c-43c2-b41b-3e0b8b30b517","system_id":"levelo_inurba_marseille","lat":43.30052,"lon":5.37119,"is_reserved":false,"is_disabled":false,"rental_uris":{"android":"levelo://app?vid=9a5eb2ac-783c-43c2-b41b-3e0b8b30b517","ios":"levelo://app?vid=9a5eb2ac-783c-43c2-b41b-3e0b8b30b517"},"vehicle_type_id":"4","last_reported":1712869614,"current_range_meters":14800,"station_id":"","pricing_plan_id":"cebpf4jnsgd1na2vs0mg"},{"bike_id":"5466d766-c505-42ec-bbe1-d68f5bff0ef5","system_id":"levelo_inurba_marseille","lat":43.317075,"lon":5.377367,"is_reserved":false,"is_disabled":false,"rental_uris":{"android":"levelo://app?vid=5466d766-c505-42ec-bbe1-d68f5bff0ef5","ios":"levelo://app?vid=5466d766-c505-42ec-bbe1-d68f5bff0ef5"},"vehicle_type_id":"4","last_reported":1712869614,"current_range_meters":4800,"station_id":"ce4bgth2rcd13ifvqch0","pricing_plan_id":"cebpf4jnsgd1na2vs0mg"},{"bike_id":"2cff9093-d1ab-4d1e-816e-36d18748eeac","system_id":"levelo_inurba_marseille","lat":43.319935,"lon":5.381699,"is_reserved":false,"is_disabled":false,"rental_uris":{"android":"levelo://app?vid=2cff9093-d1ab-4d1e-816e-36d18748eeac","ios":"levelo://app?vid=2cff9093-d1ab-4d1e-816e-36d18748eeac"},"vehicle_type_id":"4","last_reported":1712869614,"current_range_meters":0,"station_id":"ce4bhr12rcd13ifvqhpg","pricing_plan_id":"cebpf4jnsgd1na2vs0mg"},{"bike_id":"55e39ee5-ccc8-4659-b011-2a6fa20dfadf","system_id":"levelo_inurba_marseille","lat":43.319935,"lon":5.381699,"is_reserved":false,"is_disabled":false,"rental_uris":{"android":"levelo://app?vid=55e39ee5-ccc8-4659-b011-2a6fa20dfadf","ios":"levelo://app?vid=55e39ee5-ccc8-4659-b011-2a6fa20dfadf"},"vehicle_type_id":"4","last_reported":1712869614,"current_range_meters":0,"station_id":"ce4bhr12rcd13ifvqhpg","pricing_plan_id":"cebpf4jnsgd1na2vs0mg"},{"bike_id":"ea3394c5-4b21-4ca4-a63d-39e54eff6e7c","system_id":"levelo_inurba_marseille","lat":43.319935,"lon":5.381699,"is_reserved":false,"is_disabled":false,"rental_uris":{"android":"levelo://app?vid=ea3394c5-4b21-4ca4-a63d-39e54eff6e7c","ios":"levelo://app?vid=ea3394c5-4b21-4ca4-a63d-39e54eff6e7c"},"vehicle_type_id":"4","last_reported":1712869614,"current_range_meters":800,"station_id":"ce4bhr12rcd13ifvqhpg","pricing_plan_id":"cebpf4jnsgd1na2vs0mg"},{"bike_id":"9431d4c5-89ca-4ee3-ba2e-cdae09eba656","system_id":"levelo_inurba_marseille","lat":43.313571,"lon":5.384829,"is_reserved":false,"is_disabled":false,"rental_uris":{"android":"levelo://app?vid=9431d4c5-89ca-4ee3-ba2e-cdae09eba656","ios":"levelo://app?vid=9431d4c5-89ca-4ee3-ba2e-cdae09eba656"},"vehicle_type_id":"4","last_reported":1712869614,"current_range_meters":8800,"station_id":"ce4bgt92rcd13ifvqcf0","pricing_plan_id":"cebpf4jnsgd1na2vs0mg"},{"bike_id":"612a98c0-307d-4cb1-856b-53fa7f20dae9","system_id":"levelo_inurba_marseille","lat":43.313571,"lon":5.384829,"is_reserved":false,"is_disabled":false,"rental_uris":{"android":"levelo://app?vid=612a98c0-307d-4cb1-856b-53fa7f20dae9","ios":"levelo://app?vid=612a98c0-307d-4cb1-856b-53fa7f20dae9"},"vehicle_type_id":"4","last_reported":1712869614,"current_range_meters":2800,"station_id":"ce4bgt92rcd13ifvqcf0","pricing_plan_id":"cebpf4jnsgd1na2vs0mg"},{"bike_id":"558f002d-85a6-4a20-b9f9-3e511300bfbf","system_id":"levelo_inurba_marseille","lat":43.313571,"lon":5.384829,"is_reserved":false,"is_disabled":false,"rental_uris":{"android":"levelo://app?vid=558f002d-85a6-4a20-b9f9-3e511300bfbf","ios":"levelo://app?vid=558f002d-85a6-4a20-b9f9-3e511300bfbf"},"vehicle_type_id":"4","last_reported":1712869614,"current_range_meters":16400,"station_id":"ce4bgt92rcd13ifvqcf0","pricing_plan_id":"cebpf4jnsgd1na2vs0mg"},{"bike_id":"48b57d22-4f6d-4cb6-b627-5a5a80aeaecd","system_id":"levelo_inurba_marseille","lat":43.313571,"lon":5.384829,"is_reserved":false,"is_disabled":false,"rental_uris":{"android":"levelo://app?vid=48b57d22-4f6d-4cb6-b627-5a5a80aeaecd","ios":"levelo://app?vid=48b57d22-4f6d-4cb6-b627-5a5a80aeaecd"},"vehicle_type_id":"4","last_reported":1712869614,"current_range_meters":0,"station_id":"ce4bgt92rcd13ifvqcf0","pricing_plan_id":"cebpf4jnsgd1na2vs0mg"},{"bike_id":"fed516fa-a190-4020-af22-e4b2cfacad6e","system_id":"levelo_inurba_marseille","lat":43.313571,"lon":5.384829,"is_reserved":false,"is_disabled":false,"rental_uris":{"android":"levelo://app?vid=fed516fa-a190-4020-af22-e4b2cfacad6e","ios":"levelo://app?vid=fed516fa-a190-4020-af22-e4b2cfacad6e"},"vehicle_type_id":"4","last_reported":1712869614,"current_range_meters":3200,"station_id":"ce4bgt92rcd13ifvqcf0","pricing_plan_id":"cebpf4jnsgd1na2vs0mg"},{"bike_id":"dc502345-cae5-458d-97c3-f2624f3f881f","system_id":"levelo_inurba_marseille","lat":43.313571,"lon":5.384829,"is_reserved":false,"is_disabled":false,"rental_uris":{"android":"levelo://app?vid=dc502345-cae5-458d-97c3-f2624f3f881f","ios":"levelo://app?vid=dc502345-cae5-458d-97c3-f2624f3f881f"},"vehicle_type_id":"4","last_reported":1712869614,"current_range_meters":21200,"station_id":"ce4bgt92rcd13ifvqcf0","pricing_plan_id":"cebpf4jnsgd1na2vs0mg"},{"bike_id":"3e1813a8-f05b-4b00-b13c-da64846d3302","system_id":"levelo_inurba_marseille","lat":43.313571,"lon":5.384829,"is_reserved":false,"is_disabled":false,"rental_uris":{"android":"levelo://app?vid=3e1813a8-f05b-4b00-b13c-da64846d3302","ios":"levelo://app?vid=3e1813a8-f05b-4b00-b13c-da64846d3302"},"vehicle_type_id":"4","last_reported":1712869614,"current_range_meters":29200,"station_id":"ce4bgt92rcd13ifvqcf0","pricing_plan_id":"cebpf4jnsgd1na2vs0mg"},{"bike_id":"61070cdd-412c-4075-b15e-3c42430c64c4","system_id":"levelo_inurba_marseille","lat":43.29946,"lon":5.3653,"is_reserved":false,"is_disabled":false,"rental_uris":{"android":"levelo://app?vid=61070cdd-412c-4075-b15e-3c42430c64c4","ios":"levelo://app?vid=61070cdd-412c-4075-b15e-3c42430c64c4"},"vehicle_type_id":"4","last_reported":1712869614,"current_range_meters":0,"station_id":"","pricing_plan_id":"cebpf4jnsgd1na2vs0mg"},{"bike_id":"4c950486-5289-4e0a-9066-60c00d120359","system_id":"levelo_inurba_marseille","lat":43.29968,"lon":5.37148,"is_reserved":false,"is_disabled":false,"rental_uris":{"android":"levelo://app?vid=4c950486-5289-4e0a-9066-60c00d120359","ios":"levelo://app?vid=4c950486-5289-4e0a-9066-60c00d120359"},"vehicle_type_id":"4","last_reported":1712869614,"current_range_meters":0,"station_id":"ce4bgr92rcd13ifvqc7g","pricing_plan_id":"cebpf4jnsgd1na2vs0mg"},{"bike_id":"32353937-d2ce-4c62-959d-95fd86a00331","system_id":"levelo_inurba_marseille","lat":43.299222,"lon":5.365554,"is_reserved":false,"is_disabled":false,"rental_uris":{"android":"levelo://app?vid=32353937-d2ce-4c62-959d-95fd86a00331","ios":"levelo://app?vid=32353937-d2ce-4c62-959d-95fd86a00331"},"vehicle_type_id":"4","last_reported":1712869614,"current_range_meters":21600,"station_id":"ce4bgm92rcd13ifvqbr0","pricing_plan_id":"cebpf4jnsgd1na2vs0mg"},{"bike_id":"66197c38-c8df-457a-98b4-35665970eca2","system_id":"levelo_inurba_marseille","lat":43.299724,"lon":5.371829,"is_reserved":false,"is_disabled":false,"rental_uris":{"android":"levelo://app?vid=66197c38-c8df-457a-98b4-35665970eca2","ios":"levelo://app?vid=66197c38-c8df-457a-98b4-35665970eca2"},"vehicle_type_id":"4","last_reported":1712869614,"current_range_meters":0,"station_id":"ce4bgr92rcd13ifvqc7g","pricing_plan_id":"cebpf4jnsgd1na2vs0mg"},{"bike_id":"b2feceda-1ed4-44b8-944b-061f43867694","system_id":"levelo_inurba_marseille","lat":43.299724,"lon":5.371829,"is_reserved":false,"is_disabled":false,"rental_uris":{"android":"levelo://app?vid=b2feceda-1ed4-44b8-944b-061f43867694","ios":"levelo://app?vid=b2feceda-1ed4-44b8-944b-061f43867694"},"vehicle_type_id":"4","last_reported":1712869614,"current_range_meters":0,"station_id":"ce4bgr92rcd13ifvqc7g","pricing_plan_id":"cebpf4jnsgd1na2vs0mg"},{"bike_id":"462c37b6-89a3-472c-b7fe-509d52c14d03","system_id":"levelo_inurba_marseille","lat":43.305364,"lon":5.384119,"is_reserved":false,"is_disabled":false,"rental_uris":{"android":"levelo://app?vid=462c37b6-89a3-472c-b7fe-509d52c14d03","ios":"levelo://app?vid=462c37b6-89a3-472c-b7fe-509d52c14d03"},"vehicle_type_id":"4","last_reported":1712869614,"current_range_meters":17600,"station_id":"ce4bgg92rcd13ifvqb30","pricing_plan_id":"cebpf4jnsgd1na2vs0mg"},{"bike_id":"2b5cb94f-3ab6-4a68-a382-2821f6e01859","system_id":"levelo_inurba_marseille","lat":43.29852,"lon":5.36285,"is_reserved":false,"is_disabled":false,"rental_uris":{"android":"levelo://app?vid=2b5cb94f-3ab6-4a68-a382-2821f6e01859","ios":"levelo://app?vid=2b5cb94f-3ab6-4a68-a382-2821f6e01859"},"vehicle_type_id":"4","last_reported":1712869614,"current_range_meters":0,"station_id":"ce4bgpp2rcd13ifvqc3g","pricing_plan_id":"cebpf4jnsgd1na2vs0mg"},{"bike_id":"d9712621-3f1d-486b-ba10-d043c77afebe","system_id":"levelo_inurba_marseille","lat":43.305364,"lon":5.384119,"is_reserved":false,"is_disabled":false,"rental_uris":{"android":"levelo://app?vid=d9712621-3f1d-486b-ba10-d043c77afebe","ios":"levelo://app?vid=d9712621-3f1d-486b-ba10-d043c77afebe"},"vehicle_type_id":"4","last_reported":1712869614,"current_range_meters":0,"station_id":"ce4bgg92rcd13ifvqb30","pricing_plan_id":"cebpf4jnsgd1na2vs0mg"},{"bike_id":"16ed7209-4537-4191-b3e6-f255013a19b3","system_id":"levelo_inurba_marseille","lat":43.298433,"lon":5.362774,"is_reserved":false,"is_disabled":false,"rental_uris":{"android":"levelo://app?vid=16ed7209-4537-4191-b3e6-f255013a19b3","ios":"levelo://app?vid=16ed7209-4537-4191-b3e6-f255013a19b3"},"vehicle_type_id":"4","last_reported":1712869614,"current_range_meters":9600,"station_id":"ce4bgpp2rcd13ifvqc3g","pricing_plan_id":"cebpf4jnsgd1na2vs0mg"},{"bike_id":"d2f09489-43c6-4b2a-aa84-3aca98841309","system_id":"levelo_inurba_marseille","lat":43.299243,"lon":5.374807,"is_reserved":false,"is_disabled":false,"rental_uris":{"android":"levelo://app?vid=d2f09489-43c6-4b2a-aa84-3aca98841309","ios":"levelo://app?vid=d2f09489-43c6-4b2a-aa84-3aca98841309"},"vehicle_type_id":"4","last_reported":1712869614,"current_range_meters":0,"station_id":"ce4bgjh2rcd13ifvqbg0","pricing_plan_id":"cebpf4jnsgd1na2vs0mg"},{"bike_id":"ccfe2423-fa88-4e18-97fd-984226aab60a","system_id":"levelo_inurba_marseille","lat":43.298433,"lon":5.362774,"is_reserved":false,"is_disabled":false,"rental_uris":{"android":"levelo://app?vid=ccfe2423-fa88-4e18-97fd-984226aab60a","ios":"levelo://app?vid=ccfe2423-fa88-4e18-97fd-984226aab60a"},"vehicle_type_id":"4","last_reported":1712869614,"current_range_meters":0,"station_id":"ce4bgpp2rcd13ifvqc3g","pricing_plan_id":"cebpf4jnsgd1na2vs0mg"},{"bike_id":"9c1ccbdd-0d7a-463b-8cf8-5f3759fbcdda","system_id":"levelo_inurba_marseille","lat":43.305364,"lon":5.384119,"is_reserved":false,"is_disabled":false,"rental_uris":{"android":"levelo://app?vid=9c1ccbdd-0d7a-463b-8cf8-5f3759fbcdda","ios":"levelo://app?vid=9c1ccbdd-0d7a-463b-8cf8-5f3759fbcdda"},"vehicle_type_id":"4","last_reported":1712869614,"current_range_meters":3600,"station_id":"ce4bgg92rcd13ifvqb30","pricing_plan_id":"cebpf4jnsgd1na2vs0mg"},{"bike_id":"c6356a52-6184-4f57-a96c-fedd16df8b07","system_id":"levelo_inurba_marseille","lat":43.305364,"lon":5.384119,"is_reserved":false,"is_disabled":false,"rental_uris":{"android":"levelo://app?vid=c6356a52-6184-4f57-a96c-fedd16df8b07","ios":"levelo://app?vid=c6356a52-6184-4f57-a96c-fedd16df8b07"},"vehicle_type_id":"4","last_reported":1712869614,"current_range_meters":12000,"station_id":"ce4bgg92rcd13ifvqb30","pricing_plan_id":"cebpf4jnsgd1na2vs0mg"},{"bike_id":"124fef73-bff0-405a-8341-6700b36a03a2","system_id":"levelo_inurba_marseille","lat":43.2992,"lon":5.37484,"is_reserved":false,"is_disabled":false,"rental_uris":{"android":"levelo://app?vid=124fef73-bff0-405a-8341-6700b36a03a2","ios":"levelo://app?vid=124fef73-bff0-405a-8341-6700b36a03a2"},"vehicle_type_id":"4","last_reported":1712869614,"current_range_meters":0,"station_id":"ce4bgjh2rcd13ifvqbg0","pricing_plan_id":"cebpf4jnsgd1na2vs0mg"},{"bike_id":"24f052bf-cdc9-42f3-9714-7ec94cc13d34","system_id":"levelo_inurba_marseille","lat":43.299243,"lon":5.374807,"is_reserved":false,"is_disabled":false,"rental_uris":{"android":"levelo://app?vid=24f052bf-cdc9-42f3-9714-7ec94cc13d34","ios":"levelo://app?vid=24f052bf-cdc9-42f3-9714-7ec94cc13d34"},"vehicle_type_id":"4","last_reported":1712869614,"current_range_meters":4400,"station_id":"ce4bgjh2rcd13ifvqbg0","pricing_plan_id":"cebpf4jnsgd1na2vs0mg"},{"bike_id":"2bc8c0e8-e759-4b9d-b712-c98309acca23","system_id":"levelo_inurba_marseille","lat":43.311722,"lon":5.387247,"is_reserved":false,"is_disabled":false,"rental_uris":{"android":"levelo://app?vid=2bc8c0e8-e759-4b9d-b712-c98309acca23","ios":"levelo://app?vid=2bc8c0e8-e759-4b9d-b712-c98309acca23"},"vehicle_type_id":"4","last_reported":1712869614,"current_range_meters":22000,"station_id":"ce4bgv12rcd13ifvqcp0","pricing_plan_id":"cebpf4jnsgd1na2vs0mg"},{"bike_id":"22cda53f-70f2-40a7-ae8d-233ce7d710a1","system_id":"levelo_inurba_marseille","lat":43.299114,"lon":5.374724,"is_reserved":false,"is_disabled":false,"rental_uris":{"android":"levelo://app?vid=22cda53f-70f2-40a7-ae8d-233ce7d710a1","ios":"levelo://app?vid=22cda53f-70f2-40a7-ae8d-233ce7d710a1"},"vehicle_type_id":"4","last_reported":1712869614,"current_range_meters":1600,"station_id":"ce4bgjh2rcd13ifvqbg0","pricing_plan_id":"cebpf4jnsgd1na2vs0mg"},{"bike_id":"902351cd-616b-487e-a065-a34f8ba0e215","system_id":"levelo_inurba_marseille","lat":43.311722,"lon":5.387247,"is_reserved":false,"is_disabled":false,"rental_uris":{"android":"levelo://app?vid=902351cd-616b-487e-a065-a34f8ba0e215","ios":"levelo://app?vid=902351cd-616b-487e-a065-a34f8ba0e215"},"vehicle_type_id":"4","last_reported":1712869614,"current_range_meters":17600,"station_id":"ce4bgv12rcd13ifvqcp0","pricing_plan_id":"cebpf4jnsgd1na2vs0mg"},{"bike_id":"622889ea-8ffc-4dcb-8d4f-a257ac52e57c","system_id":"levelo_inurba_marseille","lat":43.322872,"lon":5.382756,"is_reserved":false,"is_disabled":false,"rental_uris":{"android":"levelo://app?vid=622889ea-8ffc-4dcb-8d4f-a257ac52e57c","ios":"levelo://app?vid=622889ea-8ffc-4dcb-8d4f-a257ac52e57c"},"vehicle_type_id":"4","last_reported":1712869614,"current_range_meters":6400,"station_id":"ce4bhr12rcd13ifvqhqg","pricing_plan_id":"cebpf4jnsgd1na2vs0mg"},{"bike_id":"419ecc75-d9b1-411a-8326-108c7f7dc838","system_id":"levelo_inurba_marseille","lat":43.322837,"lon":5.382697,"is_reserved":false,"is_disabled":false,"rental_uris":{"android":"levelo://app?vid=419ecc75-d9b1-411a-8326-108c7f7dc838","ios":"levelo://app?vid=419ecc75-d9b1-411a-8326-108c7f7dc838"},"vehicle_type_id":"4","last_reported":1712869614,"current_range_meters":27200,"station_id":"ce4bhr12rcd13ifvqhqg","pricing_plan_id":"cebpf4jnsgd1na2vs0mg"},{"bike_id":"36545365-144a-48c7-bdac-af604db588ce","system_id":"levelo_inurba_marseille","lat":43.297774,"lon":5.370875,"is_reserved":false,"is_disabled":false,"rental_uris":{"android":"levelo://app?vid=36545365-144a-48c7-bdac-af604db588ce","ios":"levelo://app?vid=36545365-144a-48c7-bdac-af604db588ce"},"vehicle_type_id":"4","last_reported":1712869614,"current_range_meters":14400,"station_id":"ce4bgop2rcd13ifvqc1g","pricing_plan_id":"cebpf4jnsgd1na2vs0mg"},{"bike_id":"b5fc91e6-7f3c-4ead-b7fe-59a0889e71dd","system_id":"levelo_inurba_marseille","lat":43.297794,"lon":5.370888,"is_reserved":false,"is_disabled":false,"rental_uris":{"android":"levelo://app?vid=b5fc91e6-7f3c-4ead-b7fe-59a0889e71dd","ios":"levelo://app?vid=b5fc91e6-7f3c-4ead-b7fe-59a0889e71dd"},"vehicle_type_id":"4","last_reported":1712869614,"current_range_meters":4800,"station_id":"ce4bgop2rcd13ifvqc1g","pricing_plan_id":"cebpf4jnsgd1na2vs0mg"},{"bike_id":"df83776a-bfc5-47e7-9b22-6f070ff90bc4","system_id":"levelo_inurba_marseille","lat":43.322872,"lon":5.382756,"is_reserved":false,"is_disabled":false,"rental_uris":{"android":"levelo://app?vid=df83776a-bfc5-47e7-9b22-6f070ff90bc4","ios":"levelo://app?vid=df83776a-bfc5-47e7-9b22-6f070ff90bc4"},"vehicle_type_id":"4","last_reported":1712869614,"current_range_meters":31200,"station_id":"ce4bhr12rcd13ifvqhqg","pricing_plan_id":"cebpf4jnsgd1na2vs0mg"},{"bike_id":"0e73c717-7d72-4151-8b9a-6405cfc2f068","system_id":"levelo_inurba_marseille","lat":43.322872,"lon":5.382756,"is_reserved":false,"is_disabled":false,"rental_uris":{"android":"levelo://app?vid=0e73c717-7d72-4151-8b9a-6405cfc2f068","ios":"levelo://app?vid=0e73c717-7d72-4151-8b9a-6405cfc2f068"},"vehicle_type_id":"4","last_reported":1712869614,"current_range_meters":30000,"station_id":"ce4bhr12rcd13ifvqhqg","pricing_plan_id":"cebpf4jnsgd1na2vs0mg"},{"bike_id":"d0797568-160f-4103-bc8b-b49425a45daa","system_id":"levelo_inurba_marseille","lat":43.322872,"lon":5.382756,"is_reserved":false,"is_disabled":false,"rental_uris":{"android":"levelo://app?vid=d0797568-160f-4103-bc8b-b49425a45daa","ios":"levelo://app?vid=d0797568-160f-4103-bc8b-b49425a45daa"},"vehicle_type_id":"4","last_reported":1712869614,"current_range_meters":18400,"station_id":"ce4bhr12rcd13ifvqhqg","pricing_plan_id":"cebpf4jnsgd1na2vs0mg"},{"bike_id":"7ae5690d-298b-476f-a628-d731bf17fbc8","system_id":"levelo_inurba_marseille","lat":43.297163,"lon":5.365866,"is_reserved":false,"is_disabled":false,"rental_uris":{"android":"levelo://app?vid=7ae5690d-298b-476f-a628-d731bf17fbc8","ios":"levelo://app?vid=7ae5690d-298b-476f-a628-d731bf17fbc8"},"vehicle_type_id":"4","last_reported":1712869614,"current_range_meters":2800,"station_id":"ce4bgn12rcd13ifvqbt0","pricing_plan_id":"cebpf4jnsgd1na2vs0mg"},{"bike_id":"da119ec7-534c-4cfe-9135-7663bcb06155","system_id":"levelo_inurba_marseille","lat":43.297163,"lon":5.365866,"is_reserved":false,"is_disabled":false,"rental_uris":{"android":"levelo://app?vid=da119ec7-534c-4cfe-9135-7663bcb06155","ios":"levelo://app?vid=da119ec7-534c-4cfe-9135-7663bcb06155"},"vehicle_type_id":"4","last_reported":1712869614,"current_range_meters":3200,"station_id":"ce4bgn12rcd13ifvqbt0","pricing_plan_id":"cebpf4jnsgd1na2vs0mg"},{"bike_id":"17834694-f56a-4fa8-bd9d-b85365d042f8","system_id":"levelo_inurba_marseille","lat":43.297163,"lon":5.365866,"is_reserved":false,"is_disabled":false,"rental_uris":{"android":"levelo://app?vid=17834694-f56a-4fa8-bd9d-b85365d042f8","ios":"levelo://app?vid=17834694-f56a-4fa8-bd9d-b85365d042f8"},"vehicle_type_id":"4","last_reported":1712869614,"current_range_meters":30000,"station_id":"ce4bgn12rcd13ifvqbt0","pricing_plan_id":"cebpf4jnsgd1na2vs0mg"},{"bike_id":"4dbf3730-1c08-4df3-8914-c53df16f9be7","system_id":"levelo_inurba_marseille","lat":43.297163,"lon":5.365866,"is_reserved":false,"is_disabled":false,"rental_uris":{"android":"levelo://app?vid=4dbf3730-1c08-4df3-8914-c53df16f9be7","ios":"levelo://app?vid=4dbf3730-1c08-4df3-8914-c53df16f9be7"},"vehicle_type_id":"4","last_reported":1712869614,"current_range_meters":6400,"station_id":"ce4bgn12rcd13ifvqbt0","pricing_plan_id":"cebpf4jnsgd1na2vs0mg"},{"bike_id":"ffc87260-73df-4fc2-a50a-e4de23361940","system_id":"levelo_inurba_marseille","lat":43.297163,"lon":5.365866,"is_reserved":false,"is_disabled":false,"rental_uris":{"android":"levelo://app?vid=ffc87260-73df-4fc2-a50a-e4de23361940","ios":"levelo://app?vid=ffc87260-73df-4fc2-a50a-e4de23361940"},"vehicle_type_id":"4","last_reported":1712869614,"current_range_meters":2000,"station_id":"ce4bgn12rcd13ifvqbt0","pricing_plan_id":"cebpf4jnsgd1na2vs0mg"},{"bike_id":"9424f6dd-ede3-47a3-af09-99d281b159c7","system_id":"levelo_inurba_marseille","lat":43.31753,"lon":5.38822,"is_reserved":false,"is_disabled":false,"rental_uris":{"android":"levelo://app?vid=9424f6dd-ede3-47a3-af09-99d281b159c7","ios":"levelo://app?vid=9424f6dd-ede3-47a3-af09-99d281b159c7"},"vehicle_type_id":"4","last_reported":1712869614,"current_range_meters":29600,"station_id":"","pricing_plan_id":"cebpf4jnsgd1na2vs0mg"},{"bike_id":"9a3b8136-6cf8-4b10-959a-6e6cf3660c20","system_id":"levelo_inurba_marseille","lat":43.2968,"lon":5.37291,"is_reserved":false,"is_disabled":false,"rental_uris":{"android":"levelo://app?vid=9a3b8136-6cf8-4b10-959a-6e6cf3660c20","ios":"levelo://app?vid=9a3b8136-6cf8-4b10-959a-6e6cf3660c20"},"vehicle_type_id":"4","last_reported":1712869614,"current_range_meters":20000,"station_id":"ce4bgk12rcd13ifvqbj0","pricing_plan_id":"cebpf4jnsgd1na2vs0mg"},{"bike_id":"c1cedd02-a4b9-4d67-a4c9-3f381e3d22a1","system_id":"levelo_inurba_marseille","lat":43.31757,"lon":5.38939,"is_reserved":false,"is_disabled":false,"rental_uris":{"android":"levelo://app?vid=c1cedd02-a4b9-4d67-a4c9-3f381e3d22a1","ios":"levelo://app?vid=c1cedd02-a4b9-4d67-a4c9-3f381e3d22a1"},"vehicle_type_id":"4","last_reported":1712869614,"current_range_meters":6000,"station_id":"ce4bhqp2rcd13ifvqhng","pricing_plan_id":"cebpf4jnsgd1na2vs0mg"},{"bike_id":"2c1e07b0-b07c-47b1-87ea-cdc088f96522","system_id":"levelo_inurba_marseille","lat":43.299028,"lon":5.381509,"is_reserved":false,"is_disabled":false,"rental_uris":{"android":"levelo://app?vid=2c1e07b0-b07c-47b1-87ea-cdc088f96522","ios":"levelo://app?vid=2c1e07b0-b07c-47b1-87ea-cdc088f96522"},"vehicle_type_id":"4","last_reported":1712869614,"current_range_meters":2000,"station_id":"ce4bgj12rcd13ifvqbc0","pricing_plan_id":"cebpf4jnsgd1na2vs0mg"},{"bike_id":"29d3543d-f6aa-4e94-b1fe-4dade84db003","system_id":"levelo_inurba_marseille","lat":43.299028,"lon":5.381509,"is_reserved":false,"is_disabled":false,"rental_uris":{"android":"levelo://app?vid=29d3543d-f6aa-4e94-b1fe-4dade84db003","ios":"levelo://app?vid=29d3543d-f6aa-4e94-b1fe-4dade84db003"},"vehicle_type_id":"4","last_reported":1712869614,"current_range_meters":6800,"station_id":"ce4bgj12rcd13ifvqbc0","pricing_plan_id":"cebpf4jnsgd1na2vs0mg"},{"bike_id":"4909b3de-d668-4a17-81d1-98118a9d71d6","system_id":"levelo_inurba_marseille","lat":43.299028,"lon":5.381509,"is_reserved":false,"is_disabled":false,"rental_uris":{"android":"levelo://app?vid=4909b3de-d668-4a17-81d1-98118a9d71d6","ios":"levelo://app?vid=4909b3de-d668-4a17-81d1-98118a9d71d6"},"vehicle_type_id":"4","last_reported":1712869614,"current_range_meters":2800,"station_id":"ce4bgj12rcd13ifvqbc0","pricing_plan_id":"cebpf4jnsgd1na2vs0mg"},{"bike_id":"903946ca-7659-4320-8600-95aad837e1f2","system_id":"levelo_inurba_marseille","lat":43.309589,"lon":5.390258,"is_reserved":false,"is_disabled":false,"rental_uris":{"android":"levelo://app?vid=903946ca-7659-4320-8600-95aad837e1f2","ios":"levelo://app?vid=903946ca-7659-4320-8600-95aad837e1f2"},"vehicle_type_id":"4","last_reported":1712869614,"current_range_meters":5600,"station_id":"ce4bgup2rcd13ifvqco0","pricing_plan_id":"cebpf4jnsgd1na2vs0mg"},{"bike_id":"afe42556-cef0-4e3d-a5b2-6271a3ad3ff5","system_id":"levelo_inurba_marseille","lat":43.30951,"lon":5.39024,"is_reserved":false,"is_disabled":false,"rental_uris":{"android":"levelo://app?vid=afe42556-cef0-4e3d-a5b2-6271a3ad3ff5","ios":"levelo://app?vid=afe42556-cef0-4e3d-a5b2-6271a3ad3ff5"},"vehicle_type_id":"4","last_reported":1712869614,"current_range_meters":0,"station_id":"ce4bgup2rcd13ifvqco0","pricing_plan_id":"cebpf4jnsgd1na2vs0mg"},{"bike_id":"badd21cf-e513-4936-aa72-405deb8a2a2a","system_id":"levelo_inurba_marseille","lat":43.299028,"lon":5.381509,"is_reserved":false,"is_disabled":false,"rental_uris":{"android":"levelo://app?vid=badd21cf-e513-4936-aa72-405deb8a2a2a","ios":"levelo://app?vid=badd21cf-e513-4936-aa72-405deb8a2a2a"},"vehicle_type_id":"4","last_reported":1712869614,"current_range_meters":0,"station_id":"ce4bgj12rcd13ifvqbc0","pricing_plan_id":"cebpf4jnsgd1na2vs0mg"},{"bike_id":"2589d3f7-85e3-44eb-8532-e8e61cbdf6c2","system_id":"levelo_inurba_marseille","lat":43.299028,"lon":5.381509,"is_reserved":false,"is_disabled":false,"rental_uris":{"android":"levelo://app?vid=2589d3f7-85e3-44eb-8532-e8e61cbdf6c2","ios":"levelo://app?vid=2589d3f7-85e3-44eb-8532-e8e61cbdf6c2"},"vehicle_type_id":"4","last_reported":1712869614,"current_range_meters":12000,"station_id":"ce4bgj12rcd13ifvqbc0","pricing_plan_id":"cebpf4jnsgd1na2vs0mg"},{"bike_id":"6260c984-fb10-4821-802c-cc4fdd0f15b7","system_id":"levelo_inurba_marseille","lat":43.299028,"lon":5.381509,"is_reserved":false,"is_disabled":false,"rental_uris":{"android":"levelo://app?vid=6260c984-fb10-4821-802c-cc4fdd0f15b7","ios":"levelo://app?vid=6260c984-fb10-4821-802c-cc4fdd0f15b7"},"vehicle_type_id":"4","last_reported":1712869614,"current_range_meters":24400,"station_id":"ce4bgj12rcd13ifvqbc0","pricing_plan_id":"cebpf4jnsgd1na2vs0mg"},{"bike_id":"bb171d16-60fe-47a4-a636-0b4cacea4cb6","system_id":"levelo_inurba_marseille","lat":43.317573,"lon":5.390135,"is_reserved":false,"is_disabled":false,"rental_uris":{"android":"levelo://app?vid=bb171d16-60fe-47a4-a636-0b4cacea4cb6","ios":"levelo://app?vid=bb171d16-60fe-47a4-a636-0b4cacea4cb6"},"vehicle_type_id":"4","last_reported":1712869614,"current_range_meters":8800,"station_id":"ce4bhqp2rcd13ifvqhng","pricing_plan_id":"cebpf4jnsgd1na2vs0mg"},{"bike_id":"7fee823b-f451-4dd9-89d2-ef11e12aef1d","system_id":"levelo_inurba_marseille","lat":43.31749,"lon":5.39018,"is_reserved":false,"is_disabled":false,"rental_uris":{"android":"levelo://app?vid=7fee823b-f451-4dd9-89d2-ef11e12aef1d","ios":"levelo://app?vid=7fee823b-f451-4dd9-89d2-ef11e12aef1d"},"vehicle_type_id":"4","last_reported":1712869614,"current_range_meters":0,"station_id":"ce4bhqp2rcd13ifvqhng","pricing_plan_id":"cebpf4jnsgd1na2vs0mg"},{"bike_id":"b1e9bc9c-7e2b-4c98-a5dd-41bfeb7de068","system_id":"levelo_inurba_marseille","lat":43.29796,"lon":5.38087,"is_reserved":false,"is_disabled":false,"rental_uris":{"android":"levelo://app?vid=b1e9bc9c-7e2b-4c98-a5dd-41bfeb7de068","ios":"levelo://app?vid=b1e9bc9c-7e2b-4c98-a5dd-41bfeb7de068"},"vehicle_type_id":"4","last_reported":1712869614,"current_range_meters":21600,"station_id":"","pricing_plan_id":"cebpf4jnsgd1na2vs0mg"},{"bike_id":"eccfc318-2892-425b-8f45-eb1f62aace66","system_id":"levelo_inurba_marseille","lat":43.319179,"lon":5.407725,"is_reserved":false,"is_disabled":false,"rental_uris":{"android":"levelo://app?vid=eccfc318-2892-425b-8f45-eb1f62aace66","ios":"levelo://app?vid=eccfc318-2892-425b-8f45-eb1f62aace66"},"vehicle_type_id":"4","last_reported":1712869614,"current_range_meters":0,"station_id":"ce4bhq12rcd13ifvqhig","pricing_plan_id":"cebpf4jnsgd1na2vs0mg"},{"bike_id":"d5ec14ea-dae7-4841-96e3-230bb7d03894","system_id":"levelo_inurba_marseille","lat":43.304278,"lon":5.388868,"is_reserved":false,"is_disabled":false,"rental_uris":{"android":"levelo://app?vid=d5ec14ea-dae7-4841-96e3-230bb7d03894","ios":"levelo://app?vid=d5ec14ea-dae7-4841-96e3-230bb7d03894"},"vehicle_type_id":"4","last_reported":1712869614,"current_range_meters":5200,"station_id":"ce4bgk12rcd13ifvqbi0","pricing_plan_id":"cebpf4jnsgd1na2vs0mg"},{"bike_id":"4e15dbef-a013-4377-8d9f-549847c889f4","system_id":"levelo_inurba_marseille","lat":43.3043,"lon":5.38885,"is_reserved":false,"is_disabled":false,"rental_uris":{"android":"levelo://app?vid=4e15dbef-a013-4377-8d9f-549847c889f4","ios":"levelo://app?vid=4e15dbef-a013-4377-8d9f-549847c889f4"},"vehicle_type_id":"4","last_reported":1712869614,"current_range_meters":0,"station_id":"ce4bgk12rcd13ifvqbi0","pricing_plan_id":"cebpf4jnsgd1na2vs0mg"},{"bike_id":"e20c3a7e-b506-4b59-93fc-e6481e8f8d67","system_id":"levelo_inurba_marseille","lat":43.304278,"lon":5.388868,"is_reserved":false,"is_disabled":false,"rental_uris":{"android":"levelo://app?vid=e20c3a7e-b506-4b59-93fc-e6481e8f8d67","ios":"levelo://app?vid=e20c3a7e-b506-4b59-93fc-e6481e8f8d67"},"vehicle_type_id":"4","last_reported":1712869614,"current_range_meters":8000,"station_id":"ce4bgk12rcd13ifvqbi0","pricing_plan_id":"cebpf4jnsgd1na2vs0mg"},{"bike_id":"eda13ee3-e911-480c-a073-94af1e0db579","system_id":"levelo_inurba_marseille","lat":43.304278,"lon":5.388868,"is_reserved":false,"is_disabled":false,"rental_uris":{"android":"levelo://app?vid=eda13ee3-e911-480c-a073-94af1e0db579","ios":"levelo://app?vid=eda13ee3-e911-480c-a073-94af1e0db579"},"vehicle_type_id":"4","last_reported":1712869614,"current_range_meters":400,"station_id":"ce4bgk12rcd13ifvqbi0","pricing_plan_id":"cebpf4jnsgd1na2vs0mg"},{"bike_id":"c4f910e0-e242-41ee-b6c4-52dfa6ef8f74","system_id":"levelo_inurba_marseille","lat":43.298037,"lon":5.381066,"is_reserved":false,"is_disabled":false,"rental_uris":{"android":"levelo://app?vid=c4f910e0-e242-41ee-b6c4-52dfa6ef8f74","ios":"levelo://app?vid=c4f910e0-e242-41ee-b6c4-52dfa6ef8f74"},"vehicle_type_id":"4","last_reported":1712869614,"current_range_meters":24800,"station_id":"ce4bgip2rcd13ifvqbb0","pricing_plan_id":"cebpf4jnsgd1na2vs0mg"},{"bike_id":"27943d4c-637d-404c-9afd-626851b7fd1b","system_id":"levelo_inurba_marseille","lat":43.304274,"lon":5.388873,"is_reserved":false,"is_disabled":false,"rental_uris":{"android":"levelo://app?vid=27943d4c-637d-404c-9afd-626851b7fd1b","ios":"levelo://app?vid=27943d4c-637d-404c-9afd-626851b7fd1b"},"vehicle_type_id":"4","last_reported":1712869614,"current_range_meters":8800,"station_id":"ce4bgk12rcd13ifvqbi0","pricing_plan_id":"cebpf4jnsgd1na2vs0mg"},{"bike_id":"250bc681-b8cc-420e-a9f6-5f786bae0adb","system_id":"levelo_inurba_marseille","lat":43.304278,"lon":5.388868,"is_reserved":false,"is_disabled":false,"rental_uris":{"android":"levelo://app?vid=250bc681-b8cc-420e-a9f6-5f786bae0adb","ios":"levelo://app?vid=250bc681-b8cc-420e-a9f6-5f786bae0adb"},"vehicle_type_id":"4","last_reported":1712869614,"current_range_meters":4400,"station_id":"ce4bgk12rcd13ifvqbi0","pricing_plan_id":"cebpf4jnsgd1na2vs0mg"},{"bike_id":"73660b12-9fb0-4b68-bee1-fc4ecfa309e7","system_id":"levelo_inurba_marseille","lat":43.304193,"lon":5.388923,"is_reserved":false,"is_disabled":false,"rental_uris":{"android":"levelo://app?vid=73660b12-9fb0-4b68-bee1-fc4ecfa309e7","ios":"levelo://app?vid=73660b12-9fb0-4b68-bee1-fc4ecfa309e7"},"vehicle_type_id":"4","last_reported":1712869614,"current_range_meters":1600,"station_id":"ce4bgk12rcd13ifvqbi0","pricing_plan_id":"cebpf4jnsgd1na2vs0mg"},{"bike_id":"c452cb63-d40f-4250-b49f-466406e405ed","system_id":"levelo_inurba_marseille","lat":43.295748,"lon":5.37522,"is_reserved":false,"is_disabled":false,"rental_uris":{"android":"levelo://app?vid=c452cb63-d40f-4250-b49f-466406e405ed","ios":"levelo://app?vid=c452cb63-d40f-4250-b49f-466406e405ed"},"vehicle_type_id":"4","last_reported":1712869614,"current_range_meters":0,"station_id":"ce4bgh92rcd13ifvqb50","pricing_plan_id":"cebpf4jnsgd1na2vs0mg"},{"bike_id":"5ff5cc05-0d4d-40cb-b0d3-08e1b16afe3b","system_id":"levelo_inurba_marseille","lat":43.296263,"lon":5.377094,"is_reserved":false,"is_disabled":false,"rental_uris":{"android":"levelo://app?vid=5ff5cc05-0d4d-40cb-b0d3-08e1b16afe3b","ios":"levelo://app?vid=5ff5cc05-0d4d-40cb-b0d3-08e1b16afe3b"},"vehicle_type_id":"4","last_reported":1712869614,"current_range_meters":24800,"station_id":"ce4bgi92rcd13ifvqb90","pricing_plan_id":"cebpf4jnsgd1na2vs0mg"},{"bike_id":"d5e805f2-a17d-4b14-a40c-4d74b5c04414","system_id":"levelo_inurba_marseille","lat":43.29974,"lon":5.3848,"is_reserved":false,"is_disabled":false,"rental_uris":{"android":"levelo://app?vid=d5e805f2-a17d-4b14-a40c-4d74b5c04414","ios":"levelo://app?vid=d5e805f2-a17d-4b14-a40c-4d74b5c04414"},"vehicle_type_id":"4","last_reported":1712869614,"current_range_meters":31200,"station_id":"ce4bgj92rcd13ifvqbd0","pricing_plan_id":"cebpf4jnsgd1na2vs0mg"},{"bike_id":"789c2eb2-8714-4a39-81c8-8f3eed95deae","system_id":"levelo_inurba_marseille","lat":43.319179,"lon":5.407725,"is_reserved":false,"is_disabled":false,"rental_uris":{"android":"levelo://app?vid=789c2eb2-8714-4a39-81c8-8f3eed95deae","ios":"levelo://app?vid=789c2eb2-8714-4a39-81c8-8f3eed95deae"},"vehicle_type_id":"4","last_reported":1712869614,"current_range_meters":0,"station_id":"ce4bhq12rcd13ifvqhig","pricing_plan_id":"cebpf4jnsgd1na2vs0mg"},{"bike_id":"01c8dfc9-e55f-4f32-9bc1-b8c5b2f43797","system_id":"levelo_inurba_marseille","lat":43.29975,"lon":5.38487,"is_reserved":false,"is_disabled":false,"rental_uris":{"android":"levelo://app?vid=01c8dfc9-e55f-4f32-9bc1-b8c5b2f43797","ios":"levelo://app?vid=01c8dfc9-e55f-4f32-9bc1-b8c5b2f43797"},"vehicle_type_id":"4","last_reported":1712869614,"current_range_meters":29200,"station_id":"ce4bgj92rcd13ifvqbd0","pricing_plan_id":"cebpf4jnsgd1na2vs0mg"},{"bike_id":"0e301c03-8acc-4090-a435-daf090b7a333","system_id":"levelo_inurba_marseille","lat":43.29973,"lon":5.38485,"is_reserved":false,"is_disabled":false,"rental_uris":{"android":"levelo://app?vid=0e301c03-8acc-4090-a435-daf090b7a333","ios":"levelo://app?vid=0e301c03-8acc-4090-a435-daf090b7a333"},"vehicle_type_id":"4","last_reported":1712869614,"current_range_meters":31200,"station_id":"ce4bgj92rcd13ifvqbd0","pricing_plan_id":"cebpf4jnsgd1na2vs0mg"},{"bike_id":"b9444509-31ff-4163-bb5d-5361d1664db3","system_id":"levelo_inurba_marseille","lat":43.295279,"lon":5.375048,"is_reserved":false,"is_disabled":false,"rental_uris":{"android":"levelo://app?vid=b9444509-31ff-4163-bb5d-5361d1664db3","ios":"levelo://app?vid=b9444509-31ff-4163-bb5d-5361d1664db3"},"vehicle_type_id":"4","last_reported":1712869614,"current_range_meters":0,"station_id":"ce4bgkp2rcd13ifvqbmg","pricing_plan_id":"cebpf4jnsgd1na2vs0mg"},{"bike_id":"f997d392-e82b-4554-bfbb-a48b75a3c91d","system_id":"levelo_inurba_marseille","lat":43.29967,"lon":5.38481,"is_reserved":false,"is_disabled":false,"rental_uris":{"android":"levelo://app?vid=f997d392-e82b-4554-bfbb-a48b75a3c91d","ios":"levelo://app?vid=f997d392-e82b-4554-bfbb-a48b75a3c91d"},"vehicle_type_id":"4","last_reported":1712869614,"current_range_meters":25600,"station_id":"ce4bgj92rcd13ifvqbd0","pricing_plan_id":"cebpf4jnsgd1na2vs0mg"},{"bike_id":"932917b6-430f-46d5-be25-58b94a660858","system_id":"levelo_inurba_marseille","lat":43.295234,"lon":5.374911,"is_reserved":false,"is_disabled":false,"rental_uris":{"android":"levelo://app?vid=932917b6-430f-46d5-be25-58b94a660858","ios":"levelo://app?vid=932917b6-430f-46d5-be25-58b94a660858"},"vehicle_type_id":"4","last_reported":1712869614,"current_range_meters":0,"station_id":"ce4bgkp2rcd13ifvqbmg","pricing_plan_id":"cebpf4jnsgd1na2vs0mg"},{"bike_id":"3efd4f10-68a7-485e-8df5-ebc651ae6273","system_id":"levelo_inurba_marseille","lat":43.295279,"lon":5.375048,"is_reserved":false,"is_disabled":false,"rental_uris":{"android":"levelo://app?vid=3efd4f10-68a7-485e-8df5-ebc651ae6273","ios":"levelo://app?vid=3efd4f10-68a7-485e-8df5-ebc651ae6273"},"vehicle_type_id":"4","last_reported":1712869614,"current_range_meters":0,"station_id":"ce4bgkp2rcd13ifvqbmg","pricing_plan_id":"cebpf4jnsgd1na2vs0mg"},{"bike_id":"1486c876-c9ee-43e5-a13f-a4f73a1027a9","system_id":"levelo_inurba_marseille","lat":43.29971,"lon":5.38492,"is_reserved":false,"is_disabled":false,"rental_uris":{"android":"levelo://app?vid=1486c876-c9ee-43e5-a13f-a4f73a1027a9","ios":"levelo://app?vid=1486c876-c9ee-43e5-a13f-a4f73a1027a9"},"vehicle_type_id":"4","last_reported":1712869614,"current_range_meters":3200,"station_id":"ce4bgj92rcd13ifvqbd0","pricing_plan_id":"cebpf4jnsgd1na2vs0mg"},{"bike_id":"f8dc7e21-d77b-477c-ba12-2a20b255d4fc","system_id":"levelo_inurba_marseille","lat":43.29969,"lon":5.3849,"is_reserved":false,"is_disabled":false,"rental_uris":{"android":"levelo://app?vid=f8dc7e21-d77b-477c-ba12-2a20b255d4fc","ios":"levelo://app?vid=f8dc7e21-d77b-477c-ba12-2a20b255d4fc"},"vehicle_type_id":"4","last_reported":1712869614,"current_range_meters":4000,"station_id":"ce4bgj92rcd13ifvqbd0","pricing_plan_id":"cebpf4jnsgd1na2vs0mg"},{"bike_id":"c91f204d-591b-40e5-af1e-82cf59529e1a","system_id":"levelo_inurba_marseille","lat":43.299717,"lon":5.384845,"is_reserved":false,"is_disabled":false,"rental_uris":{"android":"levelo://app?vid=c91f204d-591b-40e5-af1e-82cf59529e1a","ios":"levelo://app?vid=c91f204d-591b-40e5-af1e-82cf59529e1a"},"vehicle_type_id":"4","last_reported":1712869614,"current_range_meters":12400,"station_id":"ce4bgj92rcd13ifvqbd0","pricing_plan_id":"cebpf4jnsgd1na2vs0mg"},{"bike_id":"afe57054-1ff1-4cba-82d3-1ec5632bce5e","system_id":"levelo_inurba_marseille","lat":43.299724,"lon":5.384848,"is_reserved":false,"is_disabled":false,"rental_uris":{"android":"levelo://app?vid=afe57054-1ff1-4cba-82d3-1ec5632bce5e","ios":"levelo://app?vid=afe57054-1ff1-4cba-82d3-1ec5632bce5e"},"vehicle_type_id":"4","last_reported":1712869614,"current_range_meters":13600,"station_id":"ce4bgj92rcd13ifvqbd0","pricing_plan_id":"cebpf4jnsgd1na2vs0mg"},{"bike_id":"fc5cbf16-ea4c-49c2-a365-cbd103ca1040","system_id":"levelo_inurba_marseille","lat":43.3236,"lon":5.38869,"is_reserved":false,"is_disabled":false,"rental_uris":{"android":"levelo://app?vid=fc5cbf16-ea4c-49c2-a365-cbd103ca1040","ios":"levelo://app?vid=fc5cbf16-ea4c-49c2-a365-cbd103ca1040"},"vehicle_type_id":"4","last_reported":1712869614,"current_range_meters":6000,"station_id":"ce4bhqp2rcd13ifvqhog","pricing_plan_id":"cebpf4jnsgd1na2vs0mg"},{"bike_id":"1d5a3237-552f-4176-a474-2cfb55f167c7","system_id":"levelo_inurba_marseille","lat":43.32367,"lon":5.38868,"is_reserved":false,"is_disabled":false,"rental_uris":{"android":"levelo://app?vid=1d5a3237-552f-4176-a474-2cfb55f167c7","ios":"levelo://app?vid=1d5a3237-552f-4176-a474-2cfb55f167c7"},"vehicle_type_id":"4","last_reported":1712869614,"current_range_meters":0,"station_id":"ce4bhqp2rcd13ifvqhog","pricing_plan_id":"cebpf4jnsgd1na2vs0mg"},{"bike_id":"d38449fc-bc1f-4d55-81c1-82379281d6a7","system_id":"levelo_inurba_marseille","lat":43.32367,"lon":5.38874,"is_reserved":false,"is_disabled":false,"rental_uris":{"android":"levelo://app?vid=d38449fc-bc1f-4d55-81c1-82379281d6a7","ios":"levelo://app?vid=d38449fc-bc1f-4d55-81c1-82379281d6a7"},"vehicle_type_id":"4","last_reported":1712869614,"current_range_meters":0,"station_id":"ce4bhqp2rcd13ifvqhog","pricing_plan_id":"cebpf4jnsgd1na2vs0mg"},{"bike_id":"0031ce53-b770-4bde-b8fc-835eff80d941","system_id":"levelo_inurba_marseille","lat":43.32362,"lon":5.38879,"is_reserved":false,"is_disabled":false,"rental_uris":{"android":"levelo://app?vid=0031ce53-b770-4bde-b8fc-835eff80d941","ios":"levelo://app?vid=0031ce53-b770-4bde-b8fc-835eff80d941"},"vehicle_type_id":"4","last_reported":1712869614,"current_range_meters":7200,"station_id":"ce4bhqp2rcd13ifvqhog","pricing_plan_id":"cebpf4jnsgd1na2vs0mg"},{"bike_id":"80442433-8126-474a-954b-db6709f3d1da","system_id":"levelo_inurba_marseille","lat":43.32367,"lon":5.388836,"is_reserved":false,"is_disabled":false,"rental_uris":{"android":"levelo://app?vid=80442433-8126-474a-954b-db6709f3d1da","ios":"levelo://app?vid=80442433-8126-474a-954b-db6709f3d1da"},"vehicle_type_id":"4","last_reported":1712869614,"current_range_meters":1600,"station_id":"ce4bhqp2rcd13ifvqhog","pricing_plan_id":"cebpf4jnsgd1na2vs0mg"},{"bike_id":"b199f715-bae1-4d7a-87ff-8ee848f368db","system_id":"levelo_inurba_marseille","lat":43.32367,"lon":5.388836,"is_reserved":false,"is_disabled":false,"rental_uris":{"android":"levelo://app?vid=b199f715-bae1-4d7a-87ff-8ee848f368db","ios":"levelo://app?vid=b199f715-bae1-4d7a-87ff-8ee848f368db"},"vehicle_type_id":"4","last_reported":1712869614,"current_range_meters":19600,"station_id":"ce4bhqp2rcd13ifvqhog","pricing_plan_id":"cebpf4jnsgd1na2vs0mg"},{"bike_id":"4ecca596-7e76-4381-968e-fa8e6b1737ca","system_id":"levelo_inurba_marseille","lat":43.32364,"lon":5.38884,"is_reserved":false,"is_disabled":false,"rental_uris":{"android":"levelo://app?vid=4ecca596-7e76-4381-968e-fa8e6b1737ca","ios":"levelo://app?vid=4ecca596-7e76-4381-968e-fa8e6b1737ca"},"vehicle_type_id":"4","last_reported":1712869614,"current_range_meters":0,"station_id":"ce4bhqp2rcd13ifvqhog","pricing_plan_id":"cebpf4jnsgd1na2vs0mg"},{"bike_id":"5628f1e9-00d6-47d8-a13a-69b7bee1a078","system_id":"levelo_inurba_marseille","lat":43.32367,"lon":5.388836,"is_reserved":false,"is_disabled":false,"rental_uris":{"android":"levelo://app?vid=5628f1e9-00d6-47d8-a13a-69b7bee1a078","ios":"levelo://app?vid=5628f1e9-00d6-47d8-a13a-69b7bee1a078"},"vehicle_type_id":"4","last_reported":1712869614,"current_range_meters":13600,"station_id":"ce4bhqp2rcd13ifvqhog","pricing_plan_id":"cebpf4jnsgd1na2vs0mg"},{"bike_id":"f3499799-b16a-4f95-8194-b91c4c906a81","system_id":"levelo_inurba_marseille","lat":43.32367,"lon":5.388836,"is_reserved":false,"is_disabled":false,"rental_uris":{"android":"levelo://app?vid=f3499799-b16a-4f95-8194-b91c4c906a81","ios":"levelo://app?vid=f3499799-b16a-4f95-8194-b91c4c906a81"},"vehicle_type_id":"4","last_reported":1712869614,"current_range_meters":1200,"station_id":"ce4bhqp2rcd13ifvqhog","pricing_plan_id":"cebpf4jnsgd1na2vs0mg"},{"bike_id":"f4111c77-06a3-4494-818c-995adc7c2c3d","system_id":"levelo_inurba_marseille","lat":43.32367,"lon":5.388836,"is_reserved":false,"is_disabled":false,"rental_uris":{"android":"levelo://app?vid=f4111c77-06a3-4494-818c-995adc7c2c3d","ios":"levelo://app?vid=f4111c77-06a3-4494-818c-995adc7c2c3d"},"vehicle_type_id":"4","last_reported":1712869614,"current_range_meters":0,"station_id":"ce4bhqp2rcd13ifvqhog","pricing_plan_id":"cebpf4jnsgd1na2vs0mg"},{"bike_id":"f2cbd874-367e-4cb4-ae63-94cb359c6ffa","system_id":"levelo_inurba_marseille","lat":43.29278,"lon":5.36847,"is_reserved":false,"is_disabled":false,"rental_uris":{"android":"levelo://app?vid=f2cbd874-367e-4cb4-ae63-94cb359c6ffa","ios":"levelo://app?vid=f2cbd874-367e-4cb4-ae63-94cb359c6ffa"},"vehicle_type_id":"4","last_reported":1712869614,"current_range_meters":0,"station_id":"ce4bhbp2rcd13ifvqesg","pricing_plan_id":"cebpf4jnsgd1na2vs0mg"},{"bike_id":"5cfe6278-1034-45a5-b462-ec08fe3a241c","system_id":"levelo_inurba_marseille","lat":43.295447,"lon":5.38145,"is_reserved":false,"is_disabled":false,"rental_uris":{"android":"levelo://app?vid=5cfe6278-1034-45a5-b462-ec08fe3a241c","ios":"levelo://app?vid=5cfe6278-1034-45a5-b462-ec08fe3a241c"},"vehicle_type_id":"4","last_reported":1712869614,"current_range_meters":0,"station_id":"","pricing_plan_id":"cebpf4jnsgd1na2vs0mg"},{"bike_id":"ee44a453-d06a-4f3c-b38a-45596b7627e5","system_id":"levelo_inurba_marseille","lat":43.305994,"lon":5.393687,"is_reserved":false,"is_disabled":false,"rental_uris":{"android":"levelo://app?vid=ee44a453-d06a-4f3c-b38a-45596b7627e5","ios":"levelo://app?vid=ee44a453-d06a-4f3c-b38a-45596b7627e5"},"vehicle_type_id":"4","last_reported":1712869614,"current_range_meters":27600,"station_id":"ce4bh0p2rcd13ifvqd80","pricing_plan_id":"cebpf4jnsgd1na2vs0mg"},{"bike_id":"60ba29af-b303-41ea-8fb7-9e46312623ec","system_id":"levelo_inurba_marseille","lat":43.302992,"lon":5.392136,"is_reserved":false,"is_disabled":false,"rental_uris":{"android":"levelo://app?vid=60ba29af-b303-41ea-8fb7-9e46312623ec","ios":"levelo://app?vid=60ba29af-b303-41ea-8fb7-9e46312623ec"},"vehicle_type_id":"4","last_reported":1712869614,"current_range_meters":0,"station_id":"ce4bgkh2rcd13ifvqbk0","pricing_plan_id":"cebpf4jnsgd1na2vs0mg"},{"bike_id":"5283d93d-661d-481b-bd2a-2f62790fdfc8","system_id":"levelo_inurba_marseille","lat":43.284462,"lon":5.392121,"is_reserved":false,"is_disabled":false,"rental_uris":{"android":"levelo://app?vid=5283d93d-661d-481b-bd2a-2f62790fdfc8","ios":"levelo://app?vid=5283d93d-661d-481b-bd2a-2f62790fdfc8"},"vehicle_type_id":"4","last_reported":1712869614,"current_range_meters":12000,"station_id":"ce4bhoh2rcd13ifvqh5g","pricing_plan_id":"cebpf4jnsgd1na2vs0mg"},{"bike_id":"3998e531-d876-4965-be71-541b7d1f0deb","system_id":"levelo_inurba_marseille","lat":43.302992,"lon":5.392136,"is_reserved":false,"is_disabled":false,"rental_uris":{"android":"levelo://app?vid=3998e531-d876-4965-be71-541b7d1f0deb","ios":"levelo://app?vid=3998e531-d876-4965-be71-541b7d1f0deb"},"vehicle_type_id":"4","last_reported":1712869614,"current_range_meters":0,"station_id":"ce4bgkh2rcd13ifvqbk0","pricing_plan_id":"cebpf4jnsgd1na2vs0mg"},{"bike_id":"eb07bfa5-3b06-4716-83d5-30ba1b31e921","system_id":"levelo_inurba_marseille","lat":43.30299,"lon":5.39212,"is_reserved":false,"is_disabled":false,"rental_uris":{"android":"levelo://app?vid=eb07bfa5-3b06-4716-83d5-30ba1b31e921","ios":"levelo://app?vid=eb07bfa5-3b06-4716-83d5-30ba1b31e921"},"vehicle_type_id":"4","last_reported":1712869614,"current_range_meters":0,"station_id":"ce4bgkh2rcd13ifvqbk0","pricing_plan_id":"cebpf4jnsgd1na2vs0mg"},{"bike_id":"ff7fd6e2-9a8c-4bf7-af81-1abdc561d76c","system_id":"levelo_inurba_marseille","lat":43.292311,"lon":5.360731,"is_reserved":false,"is_disabled":false,"rental_uris":{"android":"levelo://app?vid=ff7fd6e2-9a8c-4bf7-af81-1abdc561d76c","ios":"levelo://app?vid=ff7fd6e2-9a8c-4bf7-af81-1abdc561d76c"},"vehicle_type_id":"4","last_reported":1712869614,"current_range_meters":2000,"station_id":"ce4bhbh2rcd13ifvqeqg","pricing_plan_id":"cebpf4jnsgd1na2vs0mg"},{"bike_id":"038e5bd1-7a72-4808-bf91-9972d61c3bf8","system_id":"levelo_inurba_marseille","lat":43.30085,"lon":5.390856,"is_reserved":false,"is_disabled":false,"rental_uris":{"android":"levelo://app?vid=038e5bd1-7a72-4808-bf91-9972d61c3bf8","ios":"levelo://app?vid=038e5bd1-7a72-4808-bf91-9972d61c3bf8"},"vehicle_type_id":"4","last_reported":1712869614,"current_range_meters":7200,"station_id":"ce4bh192rcd13ifvqdb0","pricing_plan_id":"cebpf4jnsgd1na2vs0mg"},{"bike_id":"f73c0cff-9605-47bd-ba71-90152932f80e","system_id":"levelo_inurba_marseille","lat":43.294953,"lon":5.38292,"is_reserved":false,"is_disabled":false,"rental_uris":{"android":"levelo://app?vid=f73c0cff-9605-47bd-ba71-90152932f80e","ios":"levelo://app?vid=f73c0cff-9605-47bd-ba71-90152932f80e"},"vehicle_type_id":"4","last_reported":1712869614,"current_range_meters":24400,"station_id":"","pricing_plan_id":"cebpf4jnsgd1na2vs0mg"},{"bike_id":"952aeb1e-d060-41ff-aedb-ea7202d7dee5","system_id":"levelo_inurba_marseille","lat":43.298764,"lon":5.388973,"is_reserved":false,"is_disabled":false,"rental_uris":{"android":"levelo://app?vid=952aeb1e-d060-41ff-aedb-ea7202d7dee5","ios":"levelo://app?vid=952aeb1e-d060-41ff-aedb-ea7202d7dee5"},"vehicle_type_id":"4","last_reported":1712869614,"current_range_meters":13200,"station_id":"ce4bh392rcd13ifvqdl0","pricing_plan_id":"cebpf4jnsgd1na2vs0mg"},{"bike_id":"e4f57154-483e-4692-9fe3-52c400679fef","system_id":"levelo_inurba_marseille","lat":43.29868,"lon":5.38906,"is_reserved":false,"is_disabled":false,"rental_uris":{"android":"levelo://app?vid=e4f57154-483e-4692-9fe3-52c400679fef","ios":"levelo://app?vid=e4f57154-483e-4692-9fe3-52c400679fef"},"vehicle_type_id":"4","last_reported":1712869614,"current_range_meters":0,"station_id":"ce4bh392rcd13ifvqdl0","pricing_plan_id":"cebpf4jnsgd1na2vs0mg"},{"bike_id":"2024eed6-687d-4956-9d74-09bb76457a72","system_id":"levelo_inurba_marseille","lat":43.298764,"lon":5.388973,"is_reserved":false,"is_disabled":false,"rental_uris":{"android":"levelo://app?vid=2024eed6-687d-4956-9d74-09bb76457a72","ios":"levelo://app?vid=2024eed6-687d-4956-9d74-09bb76457a72"},"vehicle_type_id":"4","last_reported":1712869614,"current_range_meters":31200,"station_id":"ce4bh392rcd13ifvqdl0","pricing_plan_id":"cebpf4jnsgd1na2vs0mg"},{"bike_id":"43e78784-44cf-4d53-85d5-6b035bb38030","system_id":"levelo_inurba_marseille","lat":43.305364,"lon":5.384119,"is_reserved":false,"is_disabled":false,"rental_uris":{"android":"levelo://app?vid=43e78784-44cf-4d53-85d5-6b035bb38030","ios":"levelo://app?vid=43e78784-44cf-4d53-85d5-6b035bb38030"},"vehicle_type_id":"4","last_reported":1712869614,"current_range_meters":1200,"station_id":"ce4bgg92rcd13ifvqb30","pricing_plan_id":"cebpf4jnsgd1na2vs0mg"},{"bike_id":"fb4868a4-1358-45bc-b6aa-10cc91e4d5ee","system_id":"levelo_inurba_marseille","lat":43.31331,"lon":5.39686,"is_reserved":false,"is_disabled":false,"rental_uris":{"android":"levelo://app?vid=fb4868a4-1358-45bc-b6aa-10cc91e4d5ee","ios":"levelo://app?vid=fb4868a4-1358-45bc-b6aa-10cc91e4d5ee"},"vehicle_type_id":"4","last_reported":1712869614,"current_range_meters":15200,"station_id":"ce4bgvp2rcd13ifvqcu0","pricing_plan_id":"cebpf4jnsgd1na2vs0mg"},{"bike_id":"9e53f30a-96fd-464a-8d52-c44face562c5","system_id":"levelo_inurba_marseille","lat":43.31326,"lon":5.3969,"is_reserved":false,"is_disabled":false,"rental_uris":{"android":"levelo://app?vid=9e53f30a-96fd-464a-8d52-c44face562c5","ios":"levelo://app?vid=9e53f30a-96fd-464a-8d52-c44face562c5"},"vehicle_type_id":"4","last_reported":1712869614,"current_range_meters":26400,"station_id":"ce4bgvp2rcd13ifvqcu0","pricing_plan_id":"cebpf4jnsgd1na2vs0mg"},{"bike_id":"025580c1-4405-45a4-84e1-a36489cd0461","system_id":"levelo_inurba_marseille","lat":43.313291,"lon":5.396838,"is_reserved":false,"is_disabled":false,"rental_uris":{"android":"levelo://app?vid=025580c1-4405-45a4-84e1-a36489cd0461","ios":"levelo://app?vid=025580c1-4405-45a4-84e1-a36489cd0461"},"vehicle_type_id":"4","last_reported":1712869614,"current_range_meters":0,"station_id":"ce4bgvp2rcd13ifvqcu0","pricing_plan_id":"cebpf4jnsgd1na2vs0mg"},{"bike_id":"5fc9c94c-9182-4b1e-b158-19f7280b4025","system_id":"levelo_inurba_marseille","lat":43.31328,"lon":5.39692,"is_reserved":false,"is_disabled":false,"rental_uris":{"android":"levelo://app?vid=5fc9c94c-9182-4b1e-b158-19f7280b4025","ios":"levelo://app?vid=5fc9c94c-9182-4b1e-b158-19f7280b4025"},"vehicle_type_id":"4","last_reported":1712869614,"current_range_meters":20800,"station_id":"ce4bgvp2rcd13ifvqcu0","pricing_plan_id":"cebpf4jnsgd1na2vs0mg"},{"bike_id":"66bde97c-e4ca-4090-a541-b62a937fddc0","system_id":"levelo_inurba_marseille","lat":43.313291,"lon":5.396838,"is_reserved":false,"is_disabled":false,"rental_uris":{"android":"levelo://app?vid=66bde97c-e4ca-4090-a541-b62a937fddc0","ios":"levelo://app?vid=66bde97c-e4ca-4090-a541-b62a937fddc0"},"vehicle_type_id":"4","last_reported":1712869614,"current_range_meters":5200,"station_id":"ce4bgvp2rcd13ifvqcu0","pricing_plan_id":"cebpf4jnsgd1na2vs0mg"},{"bike_id":"4cd6f8c2-191d-4aac-a57d-ad6f57defdcb","system_id":"levelo_inurba_marseille","lat":43.3133,"lon":5.39699,"is_reserved":false,"is_disabled":false,"rental_uris":{"android":"levelo://app?vid=4cd6f8c2-191d-4aac-a57d-ad6f57defdcb","ios":"levelo://app?vid=4cd6f8c2-191d-4aac-a57d-ad6f57defdcb"},"vehicle_type_id":"4","last_reported":1712869614,"current_range_meters":0,"station_id":"ce4bgvp2rcd13ifvqcu0","pricing_plan_id":"cebpf4jnsgd1na2vs0mg"},{"bike_id":"f296fe17-41d0-4ea9-abb1-0395de8fe112","system_id":"levelo_inurba_marseille","lat":43.31326,"lon":5.39703,"is_reserved":false,"is_disabled":false,"rental_uris":{"android":"levelo://app?vid=f296fe17-41d0-4ea9-abb1-0395de8fe112","ios":"levelo://app?vid=f296fe17-41d0-4ea9-abb1-0395de8fe112"},"vehicle_type_id":"4","last_reported":1712869614,"current_range_meters":0,"station_id":"ce4bgvp2rcd13ifvqcu0","pricing_plan_id":"cebpf4jnsgd1na2vs0mg"},{"bike_id":"a8a727ce-b77f-48fe-8e2b-df2391838983","system_id":"levelo_inurba_marseille","lat":43.29529,"lon":5.385581,"is_reserved":false,"is_disabled":false,"rental_uris":{"android":"levelo://app?vid=a8a727ce-b77f-48fe-8e2b-df2391838983","ios":"levelo://app?vid=a8a727ce-b77f-48fe-8e2b-df2391838983"},"vehicle_type_id":"4","last_reported":1712869614,"current_range_meters":0,"station_id":"ce4bgih2rcd13ifvqba0","pricing_plan_id":"cebpf4jnsgd1na2vs0mg"},{"bike_id":"8d195de5-d68c-4724-858f-141c9f16deac","system_id":"levelo_inurba_marseille","lat":43.313291,"lon":5.396838,"is_reserved":false,"is_disabled":false,"rental_uris":{"android":"levelo://app?vid=8d195de5-d68c-4724-858f-141c9f16deac","ios":"levelo://app?vid=8d195de5-d68c-4724-858f-141c9f16deac"},"vehicle_type_id":"4","last_reported":1712869614,"current_range_meters":800,"station_id":"ce4bgvp2rcd13ifvqcu0","pricing_plan_id":"cebpf4jnsgd1na2vs0mg"},{"bike_id":"00c1ab39-0908-44fd-874e-a0ad2353f8b0","system_id":"levelo_inurba_marseille","lat":43.29529,"lon":5.385581,"is_reserved":false,"is_disabled":false,"rental_uris":{"android":"levelo://app?vid=00c1ab39-0908-44fd-874e-a0ad2353f8b0","ios":"levelo://app?vid=00c1ab39-0908-44fd-874e-a0ad2353f8b0"},"vehicle_type_id":"4","last_reported":1712869614,"current_range_meters":5200,"station_id":"ce4bgih2rcd13ifvqba0","pricing_plan_id":"cebpf4jnsgd1na2vs0mg"},{"bike_id":"56c9b7d7-6323-42e6-937e-d62a46a4e5e2","system_id":"levelo_inurba_marseille","lat":43.29529,"lon":5.385581,"is_reserved":false,"is_disabled":false,"rental_uris":{"android":"levelo://app?vid=56c9b7d7-6323-42e6-937e-d62a46a4e5e2","ios":"levelo://app?vid=56c9b7d7-6323-42e6-937e-d62a46a4e5e2"},"vehicle_type_id":"4","last_reported":1712869614,"current_range_meters":16400,"station_id":"ce4bgih2rcd13ifvqba0","pricing_plan_id":"cebpf4jnsgd1na2vs0mg"},{"bike_id":"899c62b1-90f8-4e1c-9965-7434ccd0ef16","system_id":"levelo_inurba_marseille","lat":43.29529,"lon":5.385581,"is_reserved":false,"is_disabled":false,"rental_uris":{"android":"levelo://app?vid=899c62b1-90f8-4e1c-9965-7434ccd0ef16","ios":"levelo://app?vid=899c62b1-90f8-4e1c-9965-7434ccd0ef16"},"vehicle_type_id":"4","last_reported":1712869614,"current_range_meters":16400,"station_id":"ce4bgih2rcd13ifvqba0","pricing_plan_id":"cebpf4jnsgd1na2vs0mg"},{"bike_id":"34e4f819-02fe-43a8-886a-715fd02260f6","system_id":"levelo_inurba_marseille","lat":43.29529,"lon":5.385581,"is_reserved":false,"is_disabled":false,"rental_uris":{"android":"levelo://app?vid=34e4f819-02fe-43a8-886a-715fd02260f6","ios":"levelo://app?vid=34e4f819-02fe-43a8-886a-715fd02260f6"},"vehicle_type_id":"4","last_reported":1712869614,"current_range_meters":10400,"station_id":"ce4bgih2rcd13ifvqba0","pricing_plan_id":"cebpf4jnsgd1na2vs0mg"},{"bike_id":"7c8bcf28-0a2b-4938-9d77-d5f04c451ff7","system_id":"levelo_inurba_marseille","lat":43.29529,"lon":5.385581,"is_reserved":false,"is_disabled":false,"rental_uris":{"android":"levelo://app?vid=7c8bcf28-0a2b-4938-9d77-d5f04c451ff7","ios":"levelo://app?vid=7c8bcf28-0a2b-4938-9d77-d5f04c451ff7"},"vehicle_type_id":"4","last_reported":1712869614,"current_range_meters":14800,"station_id":"ce4bgih2rcd13ifvqba0","pricing_plan_id":"cebpf4jnsgd1na2vs0mg"},{"bike_id":"240c4127-8aab-4ed0-9ea4-8a055e55f0ec","system_id":"levelo_inurba_marseille","lat":43.29529,"lon":5.385581,"is_reserved":false,"is_disabled":false,"rental_uris":{"android":"levelo://app?vid=240c4127-8aab-4ed0-9ea4-8a055e55f0ec","ios":"levelo://app?vid=240c4127-8aab-4ed0-9ea4-8a055e55f0ec"},"vehicle_type_id":"4","last_reported":1712869614,"current_range_meters":7600,"station_id":"ce4bgih2rcd13ifvqba0","pricing_plan_id":"cebpf4jnsgd1na2vs0mg"},{"bike_id":"abfcbf7f-1c16-4fef-aac2-93cca8ce68b3","system_id":"levelo_inurba_marseille","lat":43.29529,"lon":5.385581,"is_reserved":false,"is_disabled":false,"rental_uris":{"android":"levelo://app?vid=abfcbf7f-1c16-4fef-aac2-93cca8ce68b3","ios":"levelo://app?vid=abfcbf7f-1c16-4fef-aac2-93cca8ce68b3"},"vehicle_type_id":"4","last_reported":1712869614,"current_range_meters":2800,"station_id":"ce4bgih2rcd13ifvqba0","pricing_plan_id":"cebpf4jnsgd1na2vs0mg"},{"bike_id":"a1d1efd4-f528-42b1-a52c-8b1c18e707ea","system_id":"levelo_inurba_marseille","lat":43.29529,"lon":5.385581,"is_reserved":false,"is_disabled":false,"rental_uris":{"android":"levelo://app?vid=a1d1efd4-f528-42b1-a52c-8b1c18e707ea","ios":"levelo://app?vid=a1d1efd4-f528-42b1-a52c-8b1c18e707ea"},"vehicle_type_id":"4","last_reported":1712869614,"current_range_meters":12400,"station_id":"ce4bgih2rcd13ifvqba0","pricing_plan_id":"cebpf4jnsgd1na2vs0mg"},{"bike_id":"b82f5e8f-a955-48c6-8992-693c880ecdc1","system_id":"levelo_inurba_marseille","lat":43.2953,"lon":5.38538,"is_reserved":false,"is_disabled":false,"rental_uris":{"android":"levelo://app?vid=b82f5e8f-a955-48c6-8992-693c880ecdc1","ios":"levelo://app?vid=b82f5e8f-a955-48c6-8992-693c880ecdc1"},"vehicle_type_id":"4","last_reported":1712869614,"current_range_meters":0,"station_id":"ce4bgih2rcd13ifvqba0","pricing_plan_id":"cebpf4jnsgd1na2vs0mg"},{"bike_id":"3cb3e1fe-c811-411a-829a-740f746c26e3","system_id":"levelo_inurba_marseille","lat":43.29529,"lon":5.385581,"is_reserved":false,"is_disabled":false,"rental_uris":{"android":"levelo://app?vid=3cb3e1fe-c811-411a-829a-740f746c26e3","ios":"levelo://app?vid=3cb3e1fe-c811-411a-829a-740f746c26e3"},"vehicle_type_id":"4","last_reported":1712869614,"current_range_meters":3200,"station_id":"ce4bgih2rcd13ifvqba0","pricing_plan_id":"cebpf4jnsgd1na2vs0mg"},{"bike_id":"beaf7c00-7e62-4992-970f-afc9f377bb98","system_id":"levelo_inurba_marseille","lat":43.29529,"lon":5.385581,"is_reserved":false,"is_disabled":false,"rental_uris":{"android":"levelo://app?vid=beaf7c00-7e62-4992-970f-afc9f377bb98","ios":"levelo://app?vid=beaf7c00-7e62-4992-970f-afc9f377bb98"},"vehicle_type_id":"4","last_reported":1712869614,"current_range_meters":2000,"station_id":"ce4bgih2rcd13ifvqba0","pricing_plan_id":"cebpf4jnsgd1na2vs0mg"},{"bike_id":"13901437-8493-4ebe-b826-f1dfe73314df","system_id":"levelo_inurba_marseille","lat":43.29529,"lon":5.385581,"is_reserved":false,"is_disabled":false,"rental_uris":{"android":"levelo://app?vid=13901437-8493-4ebe-b826-f1dfe73314df","ios":"levelo://app?vid=13901437-8493-4ebe-b826-f1dfe73314df"},"vehicle_type_id":"4","last_reported":1712869614,"current_range_meters":0,"station_id":"ce4bgih2rcd13ifvqba0","pricing_plan_id":"cebpf4jnsgd1na2vs0mg"},{"bike_id":"774140e0-f26b-4179-9693-49e38024f55a","system_id":"levelo_inurba_marseille","lat":43.29529,"lon":5.385581,"is_reserved":false,"is_disabled":false,"rental_uris":{"android":"levelo://app?vid=774140e0-f26b-4179-9693-49e38024f55a","ios":"levelo://app?vid=774140e0-f26b-4179-9693-49e38024f55a"},"vehicle_type_id":"4","last_reported":1712869614,"current_range_meters":6000,"station_id":"ce4bgih2rcd13ifvqba0","pricing_plan_id":"cebpf4jnsgd1na2vs0mg"},{"bike_id":"a7bb70f3-3579-46c5-87cd-59c712d14019","system_id":"levelo_inurba_marseille","lat":43.29529,"lon":5.385581,"is_reserved":false,"is_disabled":false,"rental_uris":{"android":"levelo://app?vid=a7bb70f3-3579-46c5-87cd-59c712d14019","ios":"levelo://app?vid=a7bb70f3-3579-46c5-87cd-59c712d14019"},"vehicle_type_id":"4","last_reported":1712869614,"current_range_meters":9600,"station_id":"ce4bgih2rcd13ifvqba0","pricing_plan_id":"cebpf4jnsgd1na2vs0mg"},{"bike_id":"a5dd6103-8ca2-4e74-bc5b-2240a3357e28","system_id":"levelo_inurba_marseille","lat":43.29529,"lon":5.385581,"is_reserved":false,"is_disabled":false,"rental_uris":{"android":"levelo://app?vid=a5dd6103-8ca2-4e74-bc5b-2240a3357e28","ios":"levelo://app?vid=a5dd6103-8ca2-4e74-bc5b-2240a3357e28"},"vehicle_type_id":"4","last_reported":1712869614,"current_range_meters":4800,"station_id":"ce4bgih2rcd13ifvqba0","pricing_plan_id":"cebpf4jnsgd1na2vs0mg"},{"bike_id":"40289d88-f10a-497d-9b8d-1ce81b3b88b2","system_id":"levelo_inurba_marseille","lat":43.29529,"lon":5.385581,"is_reserved":false,"is_disabled":false,"rental_uris":{"android":"levelo://app?vid=40289d88-f10a-497d-9b8d-1ce81b3b88b2","ios":"levelo://app?vid=40289d88-f10a-497d-9b8d-1ce81b3b88b2"},"vehicle_type_id":"4","last_reported":1712869614,"current_range_meters":10800,"station_id":"ce4bgih2rcd13ifvqba0","pricing_plan_id":"cebpf4jnsgd1na2vs0mg"},{"bike_id":"f7a14e1e-623f-4ed2-9356-103ed23979b8","system_id":"levelo_inurba_marseille","lat":43.2953,"lon":5.38547,"is_reserved":false,"is_disabled":false,"rental_uris":{"android":"levelo://app?vid=f7a14e1e-623f-4ed2-9356-103ed23979b8","ios":"levelo://app?vid=f7a14e1e-623f-4ed2-9356-103ed23979b8"},"vehicle_type_id":"4","last_reported":1712869614,"current_range_meters":0,"station_id":"ce4bgih2rcd13ifvqba0","pricing_plan_id":"cebpf4jnsgd1na2vs0mg"},{"bike_id":"9388ad48-ce4a-4732-a8ff-f40100949b82","system_id":"levelo_inurba_marseille","lat":43.29529,"lon":5.385581,"is_reserved":false,"is_disabled":false,"rental_uris":{"android":"levelo://app?vid=9388ad48-ce4a-4732-a8ff-f40100949b82","ios":"levelo://app?vid=9388ad48-ce4a-4732-a8ff-f40100949b82"},"vehicle_type_id":"4","last_reported":1712869614,"current_range_meters":9200,"station_id":"ce4bgih2rcd13ifvqba0","pricing_plan_id":"cebpf4jnsgd1na2vs0mg"},{"bike_id":"d5b12369-7cf3-4e0c-adbd-bd5595084b8d","system_id":"levelo_inurba_marseille","lat":43.29527,"lon":5.38544,"is_reserved":false,"is_disabled":false,"rental_uris":{"android":"levelo://app?vid=d5b12369-7cf3-4e0c-adbd-bd5595084b8d","ios":"levelo://app?vid=d5b12369-7cf3-4e0c-adbd-bd5595084b8d"},"vehicle_type_id":"4","last_reported":1712869614,"current_range_meters":0,"station_id":"ce4bgih2rcd13ifvqba0","pricing_plan_id":"cebpf4jnsgd1na2vs0mg"},{"bike_id":"acd2d180-2426-4e6c-a6f7-ef9e5032407c","system_id":"levelo_inurba_marseille","lat":43.29529,"lon":5.385581,"is_reserved":false,"is_disabled":false,"rental_uris":{"android":"levelo://app?vid=acd2d180-2426-4e6c-a6f7-ef9e5032407c","ios":"levelo://app?vid=acd2d180-2426-4e6c-a6f7-ef9e5032407c"},"vehicle_type_id":"4","last_reported":1712869614,"current_range_meters":20000,"station_id":"ce4bgih2rcd13ifvqba0","pricing_plan_id":"cebpf4jnsgd1na2vs0mg"},{"bike_id":"6af17f64-d0c9-4b8f-bcb4-b6b0ca37f3b8","system_id":"levelo_inurba_marseille","lat":43.29529,"lon":5.385581,"is_reserved":false,"is_disabled":false,"rental_uris":{"android":"levelo://app?vid=6af17f64-d0c9-4b8f-bcb4-b6b0ca37f3b8","ios":"levelo://app?vid=6af17f64-d0c9-4b8f-bcb4-b6b0ca37f3b8"},"vehicle_type_id":"4","last_reported":1712869614,"current_range_meters":0,"station_id":"ce4bgih2rcd13ifvqba0","pricing_plan_id":"cebpf4jnsgd1na2vs0mg"},{"bike_id":"48b229c0-2788-4885-b602-93e179876419","system_id":"levelo_inurba_marseille","lat":43.29527,"lon":5.38554,"is_reserved":false,"is_disabled":false,"rental_uris":{"android":"levelo://app?vid=48b229c0-2788-4885-b602-93e179876419","ios":"levelo://app?vid=48b229c0-2788-4885-b602-93e179876419"},"vehicle_type_id":"4","last_reported":1712869614,"current_range_meters":0,"station_id":"ce4bgih2rcd13ifvqba0","pricing_plan_id":"cebpf4jnsgd1na2vs0mg"},{"bike_id":"6984b3b6-a7c1-44ac-89a3-7ff62f5df9f5","system_id":"levelo_inurba_marseille","lat":43.285856,"lon":5.350771,"is_reserved":false,"is_disabled":false,"rental_uris":{"android":"levelo://app?vid=6984b3b6-a7c1-44ac-89a3-7ff62f5df9f5","ios":"levelo://app?vid=6984b3b6-a7c1-44ac-89a3-7ff62f5df9f5"},"vehicle_type_id":"4","last_reported":1712869614,"current_range_meters":1600,"station_id":"ce4bhch2rcd13ifvqeug","pricing_plan_id":"cebpf4jnsgd1na2vs0mg"},{"bike_id":"d46d89b9-7726-4c37-8efb-baacd128f4d5","system_id":"levelo_inurba_marseille","lat":43.290497,"lon":5.371563,"is_reserved":false,"is_disabled":false,"rental_uris":{"android":"levelo://app?vid=d46d89b9-7726-4c37-8efb-baacd128f4d5","ios":"levelo://app?vid=d46d89b9-7726-4c37-8efb-baacd128f4d5"},"vehicle_type_id":"4","last_reported":1712869614,"current_range_meters":0,"station_id":"ce4bh5p2rcd13ifvqe4g","pricing_plan_id":"cebpf4jnsgd1na2vs0mg"},{"bike_id":"65eb8fb4-0122-42d0-98dc-6bc7085e193e","system_id":"levelo_inurba_marseille","lat":43.29048,"lon":5.37168,"is_reserved":false,"is_disabled":false,"rental_uris":{"android":"levelo://app?vid=65eb8fb4-0122-42d0-98dc-6bc7085e193e","ios":"levelo://app?vid=65eb8fb4-0122-42d0-98dc-6bc7085e193e"},"vehicle_type_id":"4","last_reported":1712869614,"current_range_meters":0,"station_id":"ce4bh5p2rcd13ifvqe4g","pricing_plan_id":"cebpf4jnsgd1na2vs0mg"},{"bike_id":"156418ca-8eee-43d4-9395-7c393a8b3b2d","system_id":"levelo_inurba_marseille","lat":43.3021,"lon":5.39459,"is_reserved":false,"is_disabled":false,"rental_uris":{"android":"levelo://app?vid=156418ca-8eee-43d4-9395-7c393a8b3b2d","ios":"levelo://app?vid=156418ca-8eee-43d4-9395-7c393a8b3b2d"},"vehicle_type_id":"4","last_reported":1712869614,"current_range_meters":0,"station_id":"ce4bh0p2rcd13ifvqd70","pricing_plan_id":"cebpf4jnsgd1na2vs0mg"},{"bike_id":"dddc76c6-a79e-4392-b88a-cd723faebc81","system_id":"levelo_inurba_marseille","lat":43.290624,"lon":5.359245,"is_reserved":false,"is_disabled":false,"rental_uris":{"android":"levelo://app?vid=dddc76c6-a79e-4392-b88a-cd723faebc81","ios":"levelo://app?vid=dddc76c6-a79e-4392-b88a-cd723faebc81"},"vehicle_type_id":"4","last_reported":1712869614,"current_range_meters":22800,"station_id":"ce4bha92rcd13ifvqeg0","pricing_plan_id":"cebpf4jnsgd1na2vs0mg"},{"bike_id":"c63baf08-9cc4-4781-bc86-07d38a6238d0","system_id":"levelo_inurba_marseille","lat":43.290624,"lon":5.359245,"is_reserved":false,"is_disabled":false,"rental_uris":{"android":"levelo://app?vid=c63baf08-9cc4-4781-bc86-07d38a6238d0","ios":"levelo://app?vid=c63baf08-9cc4-4781-bc86-07d38a6238d0"},"vehicle_type_id":"4","last_reported":1712869614,"current_range_meters":19600,"station_id":"ce4bha92rcd13ifvqeg0","pricing_plan_id":"cebpf4jnsgd1na2vs0mg"},{"bike_id":"ac9e26cc-bc17-42fd-bdb1-8913b4dc7e38","system_id":"levelo_inurba_marseille","lat":43.290624,"lon":5.359245,"is_reserved":false,"is_disabled":false,"rental_uris":{"android":"levelo://app?vid=ac9e26cc-bc17-42fd-bdb1-8913b4dc7e38","ios":"levelo://app?vid=ac9e26cc-bc17-42fd-bdb1-8913b4dc7e38"},"vehicle_type_id":"4","last_reported":1712869614,"current_range_meters":6400,"station_id":"ce4bha92rcd13ifvqeg0","pricing_plan_id":"cebpf4jnsgd1na2vs0mg"},{"bike_id":"17f069cb-20ee-451d-b509-2a8fab51cf3b","system_id":"levelo_inurba_marseille","lat":43.29419,"lon":5.38621,"is_reserved":false,"is_disabled":false,"rental_uris":{"android":"levelo://app?vid=17f069cb-20ee-451d-b509-2a8fab51cf3b","ios":"levelo://app?vid=17f069cb-20ee-451d-b509-2a8fab51cf3b"},"vehicle_type_id":"4","last_reported":1712869614,"current_range_meters":0,"station_id":"ce4bh2h2rcd13ifvqdh0","pricing_plan_id":"cebpf4jnsgd1na2vs0mg"},{"bike_id":"1c082c1e-7aaa-42ec-861b-2d1e351a0acb","system_id":"levelo_inurba_marseille","lat":43.29417,"lon":5.38618,"is_reserved":false,"is_disabled":false,"rental_uris":{"android":"levelo://app?vid=1c082c1e-7aaa-42ec-861b-2d1e351a0acb","ios":"levelo://app?vid=1c082c1e-7aaa-42ec-861b-2d1e351a0acb"},"vehicle_type_id":"4","last_reported":1712869614,"current_range_meters":0,"station_id":"ce4bh2h2rcd13ifvqdh0","pricing_plan_id":"cebpf4jnsgd1na2vs0mg"},{"bike_id":"fb2b0c56-2c00-48f0-b803-7ed3b97cd612","system_id":"levelo_inurba_marseille","lat":43.29413,"lon":5.38614,"is_reserved":false,"is_disabled":false,"rental_uris":{"android":"levelo://app?vid=fb2b0c56-2c00-48f0-b803-7ed3b97cd612","ios":"levelo://app?vid=fb2b0c56-2c00-48f0-b803-7ed3b97cd612"},"vehicle_type_id":"4","last_reported":1712869614,"current_range_meters":10000,"station_id":"ce4bh2h2rcd13ifvqdh0","pricing_plan_id":"cebpf4jnsgd1na2vs0mg"},{"bike_id":"297b5d24-0cf0-4f16-aeb2-5a4280c1b837","system_id":"levelo_inurba_marseille","lat":43.29417,"lon":5.38624,"is_reserved":false,"is_disabled":false,"rental_uris":{"android":"levelo://app?vid=297b5d24-0cf0-4f16-aeb2-5a4280c1b837","ios":"levelo://app?vid=297b5d24-0cf0-4f16-aeb2-5a4280c1b837"},"vehicle_type_id":"4","last_reported":1712869614,"current_range_meters":0,"station_id":"ce4bh2h2rcd13ifvqdh0","pricing_plan_id":"cebpf4jnsgd1na2vs0mg"},{"bike_id":"e7b1659b-e7c8-42e7-819a-e8ff9946d7c9","system_id":"levelo_inurba_marseille","lat":43.29414,"lon":5.3862,"is_reserved":false,"is_disabled":false,"rental_uris":{"android":"levelo://app?vid=e7b1659b-e7c8-42e7-819a-e8ff9946d7c9","ios":"levelo://app?vid=e7b1659b-e7c8-42e7-819a-e8ff9946d7c9"},"vehicle_type_id":"4","last_reported":1712869614,"current_range_meters":7600,"station_id":"ce4bh2h2rcd13ifvqdh0","pricing_plan_id":"cebpf4jnsgd1na2vs0mg"},{"bike_id":"e3372a9b-34ee-4b43-b5ec-2102291a805c","system_id":"levelo_inurba_marseille","lat":43.290319,"lon":5.375732,"is_reserved":false,"is_disabled":false,"rental_uris":{"android":"levelo://app?vid=e3372a9b-34ee-4b43-b5ec-2102291a805c","ios":"levelo://app?vid=e3372a9b-34ee-4b43-b5ec-2102291a805c"},"vehicle_type_id":"4","last_reported":1712869614,"current_range_meters":2800,"station_id":"ce4bh692rcd13ifvqe90","pricing_plan_id":"cebpf4jnsgd1na2vs0mg"},{"bike_id":"4e8c8df9-17a6-40d1-9ed1-a4490046ed65","system_id":"levelo_inurba_marseille","lat":43.29416,"lon":5.38626,"is_reserved":false,"is_disabled":false,"rental_uris":{"android":"levelo://app?vid=4e8c8df9-17a6-40d1-9ed1-a4490046ed65","ios":"levelo://app?vid=4e8c8df9-17a6-40d1-9ed1-a4490046ed65"},"vehicle_type_id":"4","last_reported":1712869614,"current_range_meters":0,"station_id":"ce4bh2h2rcd13ifvqdh0","pricing_plan_id":"cebpf4jnsgd1na2vs0mg"},{"bike_id":"38ec2b6b-d605-4223-a014-151dbc376620","system_id":"levelo_inurba_marseille","lat":43.29413,"lon":5.38621,"is_reserved":false,"is_disabled":false,"rental_uris":{"android":"levelo://app?vid=38ec2b6b-d605-4223-a014-151dbc376620","ios":"levelo://app?vid=38ec2b6b-d605-4223-a014-151dbc376620"},"vehicle_type_id":"4","last_reported":1712869614,"current_range_meters":0,"station_id":"ce4bh2h2rcd13ifvqdh0","pricing_plan_id":"cebpf4jnsgd1na2vs0mg"},{"bike_id":"d9a8e0f9-a4d1-44a6-bc47-96433daa8c86","system_id":"levelo_inurba_marseille","lat":43.29414,"lon":5.38623,"is_reserved":false,"is_disabled":false,"rental_uris":{"android":"levelo://app?vid=d9a8e0f9-a4d1-44a6-bc47-96433daa8c86","ios":"levelo://app?vid=d9a8e0f9-a4d1-44a6-bc47-96433daa8c86"},"vehicle_type_id":"4","last_reported":1712869614,"current_range_meters":2000,"station_id":"ce4bh2h2rcd13ifvqdh0","pricing_plan_id":"cebpf4jnsgd1na2vs0mg"},{"bike_id":"c6fb9ec6-44db-4fa8-8e5a-886e0e69e1de","system_id":"levelo_inurba_marseille","lat":43.29414,"lon":5.38624,"is_reserved":false,"is_disabled":false,"rental_uris":{"android":"levelo://app?vid=c6fb9ec6-44db-4fa8-8e5a-886e0e69e1de","ios":"levelo://app?vid=c6fb9ec6-44db-4fa8-8e5a-886e0e69e1de"},"vehicle_type_id":"4","last_reported":1712869614,"current_range_meters":14000,"station_id":"ce4bh2h2rcd13ifvqdh0","pricing_plan_id":"cebpf4jnsgd1na2vs0mg"},{"bike_id":"14a17d2d-64be-454f-91a1-b9d60ca7be27","system_id":"levelo_inurba_marseille","lat":43.29415,"lon":5.38626,"is_reserved":false,"is_disabled":false,"rental_uris":{"android":"levelo://app?vid=14a17d2d-64be-454f-91a1-b9d60ca7be27","ios":"levelo://app?vid=14a17d2d-64be-454f-91a1-b9d60ca7be27"},"vehicle_type_id":"4","last_reported":1712869614,"current_range_meters":16800,"station_id":"ce4bh492rcd13ifvqdug","pricing_plan_id":"cebpf4jnsgd1na2vs0mg"},{"bike_id":"6fec50cc-fafc-4294-ad09-2cab5b14283d","system_id":"levelo_inurba_marseille","lat":43.29411,"lon":5.38625,"is_reserved":false,"is_disabled":false,"rental_uris":{"android":"levelo://app?vid=6fec50cc-fafc-4294-ad09-2cab5b14283d","ios":"levelo://app?vid=6fec50cc-fafc-4294-ad09-2cab5b14283d"},"vehicle_type_id":"4","last_reported":1712869614,"current_range_meters":12400,"station_id":"ce4bh2h2rcd13ifvqdh0","pricing_plan_id":"cebpf4jnsgd1na2vs0mg"},{"bike_id":"8950a0fe-5aee-4f2d-bba8-49930956b851","system_id":"levelo_inurba_marseille","lat":43.30085,"lon":5.390856,"is_reserved":false,"is_disabled":false,"rental_uris":{"android":"levelo://app?vid=8950a0fe-5aee-4f2d-bba8-49930956b851","ios":"levelo://app?vid=8950a0fe-5aee-4f2d-bba8-49930956b851"},"vehicle_type_id":"4","last_reported":1712869614,"current_range_meters":10000,"station_id":"ce4bh192rcd13ifvqdb0","pricing_plan_id":"cebpf4jnsgd1na2vs0mg"},{"bike_id":"04899ebd-83f2-4f89-b626-cf84649429f1","system_id":"levelo_inurba_marseille","lat":43.29414,"lon":5.38631,"is_reserved":false,"is_disabled":false,"rental_uris":{"android":"levelo://app?vid=04899ebd-83f2-4f89-b626-cf84649429f1","ios":"levelo://app?vid=04899ebd-83f2-4f89-b626-cf84649429f1"},"vehicle_type_id":"4","last_reported":1712869614,"current_range_meters":16000,"station_id":"ce4bh2h2rcd13ifvqdh0","pricing_plan_id":"cebpf4jnsgd1na2vs0mg"},{"bike_id":"9ebfbeee-f36c-4a28-85b8-630e084b2692","system_id":"levelo_inurba_marseille","lat":43.29413,"lon":5.38631,"is_reserved":false,"is_disabled":false,"rental_uris":{"android":"levelo://app?vid=9ebfbeee-f36c-4a28-85b8-630e084b2692","ios":"levelo://app?vid=9ebfbeee-f36c-4a28-85b8-630e084b2692"},"vehicle_type_id":"4","last_reported":1712869614,"current_range_meters":31200,"station_id":"ce4bh2h2rcd13ifvqdh0","pricing_plan_id":"cebpf4jnsgd1na2vs0mg"},{"bike_id":"dd22b7e0-8293-4b52-8fc4-730cd6509d6f","system_id":"levelo_inurba_marseille","lat":43.294067,"lon":5.3862,"is_reserved":false,"is_disabled":false,"rental_uris":{"android":"levelo://app?vid=dd22b7e0-8293-4b52-8fc4-730cd6509d6f","ios":"levelo://app?vid=dd22b7e0-8293-4b52-8fc4-730cd6509d6f"},"vehicle_type_id":"4","last_reported":1712869614,"current_range_meters":2400,"station_id":"ce4bh2h2rcd13ifvqdh0","pricing_plan_id":"cebpf4jnsgd1na2vs0mg"},{"bike_id":"6232533b-4043-4c95-a76b-3fe266cebe14","system_id":"levelo_inurba_marseille","lat":43.29413,"lon":5.38634,"is_reserved":false,"is_disabled":false,"rental_uris":{"android":"levelo://app?vid=6232533b-4043-4c95-a76b-3fe266cebe14","ios":"levelo://app?vid=6232533b-4043-4c95-a76b-3fe266cebe14"},"vehicle_type_id":"4","last_reported":1712869614,"current_range_meters":28800,"station_id":"ce4bh2h2rcd13ifvqdh0","pricing_plan_id":"cebpf4jnsgd1na2vs0mg"},{"bike_id":"8a037b0b-fd7c-4930-8e5f-36d231f85581","system_id":"levelo_inurba_marseille","lat":43.289184,"lon":5.366408,"is_reserved":false,"is_disabled":false,"rental_uris":{"android":"levelo://app?vid=8a037b0b-fd7c-4930-8e5f-36d231f85581","ios":"levelo://app?vid=8a037b0b-fd7c-4930-8e5f-36d231f85581"},"vehicle_type_id":"4","last_reported":1712869614,"current_range_meters":800,"station_id":"ce4bhap2rcd13ifvqek0","pricing_plan_id":"cebpf4jnsgd1na2vs0mg"},{"bike_id":"54fe1b5a-27fd-4298-b9fb-7665e2c6143a","system_id":"levelo_inurba_marseille","lat":43.29413,"lon":5.38636,"is_reserved":false,"is_disabled":false,"rental_uris":{"android":"levelo://app?vid=54fe1b5a-27fd-4298-b9fb-7665e2c6143a","ios":"levelo://app?vid=54fe1b5a-27fd-4298-b9fb-7665e2c6143a"},"vehicle_type_id":"4","last_reported":1712869614,"current_range_meters":0,"station_id":"ce4bh2h2rcd13ifvqdh0","pricing_plan_id":"cebpf4jnsgd1na2vs0mg"},{"bike_id":"7ffa6386-1499-49cb-89e1-201437953b79","system_id":"levelo_inurba_marseille","lat":43.294076,"lon":5.386295,"is_reserved":false,"is_disabled":false,"rental_uris":{"android":"levelo://app?vid=7ffa6386-1499-49cb-89e1-201437953b79","ios":"levelo://app?vid=7ffa6386-1499-49cb-89e1-201437953b79"},"vehicle_type_id":"4","last_reported":1712869614,"current_range_meters":16400,"station_id":"ce4bh2h2rcd13ifvqdh0","pricing_plan_id":"cebpf4jnsgd1na2vs0mg"},{"bike_id":"696479d9-f0d4-4aa1-8725-35c5818e8b33","system_id":"levelo_inurba_marseille","lat":43.290327,"lon":5.375711,"is_reserved":false,"is_disabled":false,"rental_uris":{"android":"levelo://app?vid=696479d9-f0d4-4aa1-8725-35c5818e8b33","ios":"levelo://app?vid=696479d9-f0d4-4aa1-8725-35c5818e8b33"},"vehicle_type_id":"4","last_reported":1712869614,"current_range_meters":0,"station_id":"ce4bh692rcd13ifvqe90","pricing_plan_id":"cebpf4jnsgd1na2vs0mg"},{"bike_id":"fe683a10-edb5-47cb-aba0-c01cfc2ff694","system_id":"levelo_inurba_marseille","lat":43.28942,"lon":5.36404,"is_reserved":false,"is_disabled":false,"rental_uris":{"android":"levelo://app?vid=fe683a10-edb5-47cb-aba0-c01cfc2ff694","ios":"levelo://app?vid=fe683a10-edb5-47cb-aba0-c01cfc2ff694"},"vehicle_type_id":"4","last_reported":1712869614,"current_range_meters":0,"station_id":"ce4bhc92rcd13ifvqetg","pricing_plan_id":"cebpf4jnsgd1na2vs0mg"},