{"last_updated":1749636737,"ttl":60,"version":"2.2","data":{"bikes":[{"bike_id":"01a75591-6700-4a8d-b070-044f8cbcbeab","system_id":"levelo_inurba_marseille","lat":43.23149,"lon":5.43708,"is_reserved":false,"is_disabled":false,"rental_uris":{"android":"levelo://app?vid=01a75591-6700-4a8d-b070-044f8cbcbeab","ios":"levelo://app?vid=01a75591-6700-4a8d-b070-044f8cbcbeab"},"vehicle_type_id":"4","last_reported":1749636737,"current_range_meters":2800,"station_id":"ce4bhmp2rcd13ifvqgog","pricing_plan_id":"cebpf4jnsgd1na2vs0mg"},{"bike_id":"88113087-f0bb-4133-ab2a-bbfce1f3d99a","system_id":"levelo_inurba_marseille","lat":43.31715,"lon":5.40462,"is_reserved":false,"is_disabled":true,"rental_uris":{"android":"levelo://app?vid=88113087-f0bb-4133-ab2a-bbfce1f3d99a","ios":"levelo://app?vid=88113087-f0bb-4133-ab2a-bbfce1f3d99a"},"vehicle_type_id":"4","last_reported":1749636737,"current_range_meters":3200,"station_id":"ce4bh012rcd13ifvqd00","pricing_plan_id":"cebpf4jnsgd1na2vs0mg"},{"bike_id":"1c284be8-9952-496a-8271-5e6456b50c28","system_id":"levelo_inurba_marseille","lat":43.28261,"lon":5.35063,"is_reserved":false,"is_disabled":false,"rental_uris":{"android":"levelo://app?vid=1c284be8-9952-496a-8271-5e6456b50c28","ios":"levelo://app?vid=1c284be8-9952-496a-8271-5e6456b50c28"},"vehicle_type_id":"4","last_reported":1749636737,"current_range_meters":3600,"station_id":"ce4bhbp2rcd13ifvqerg","pricing_plan_id":"cebpf4jnsgd1na2vs0mg"},{"bike_id":"a93d9cb2-223b-4eaa-8991-9895ec0702cc","system_id":"levelo_inurba_marseille","lat":43.292297,"lon":5.360743,"is_reserved":false,"is_disabled":false,"rental_uris":{"android":"levelo://app?vid=a93d9cb2-223b-4eaa-8991-9895ec0702cc","ios":"levelo://app?vid=a93d9cb2-223b-4eaa-8991-9895ec0702cc"},"vehicle_type_id":"4","last_reported":1749636737,"current_range_meters":3600,"station_id":"ce4bhbh2rcd13ifvqeqg","pricing_plan_id":"cebpf4jnsgd1na2vs0mg"},{"bike_id":"44aae613-18ef-4f06-940f-bbcbba8ceb61","system_id":"levelo_inurba_marseille","lat":43.27192,"lon":5.40981,"is_reserved":false,"is_disabled":false,"rental_uris":{"android":"levelo://app?vid=44aae613-18ef-4f06-940f-bbcbba8ceb61","ios":"levelo://app?vid=44aae613-18ef-4f06-940f-bbcbba8ceb61"},"vehicle_type_id":"4","last_reported":1749636737,"current_range_meters":4400,"station_id":"ce4bhl12rcd13ifvqgf0","pricing_plan_id":"cebpf4jnsgd1na2vs0mg"},{"bike_id":"603136b7-d999-4bbb-95da-5697c5535b59","system_id":"levelo_inurba_marseille","lat":43.299072,"lon":5.381524,"is_reserved":false,"is_disabled":false,"rental_uris":{"android":"levelo://app?vid=603136b7-d999-4bbb-95da-5697c5535b59","ios":"levelo://app?vid=603136b7-d999-4bbb-95da-5697c5535b59"},"vehicle_type_id":"4","last_reported":1749636737,"current_range_meters":5600,"station_id":"ce4bgj12rcd13ifvqbc0","pricing_plan_id":"cebpf4jnsgd1na2vs0mg"},{"bike_id":"499844e9-6f3f-4c9c-9a93-60e580fc15b2","system_id":"levelo_inurba_marseille","lat":43.28272,"lon":5.35068,"is_reserved":false,"is_disabled":false,"rental_uris":{"android":"levelo://app?vid=499844e9-6f3f-4c9c-9a93-60e580fc15b2","ios":"levelo://app?vid=499844e9-6f3f-4c9c-9a93-60e580fc15b2"},"vehicle_type_id":"4","last_reported":1749636737,"current_range_meters":6000,"station_id":"ce4bhbp2rcd13ifvqerg","pricing_plan_id":"cebpf4jnsgd1na2vs0mg"},{"bike_id":"e5dc3ff0-e59b-4327-8652-626fb68800b0","system_id":"levelo_inurba_marseille","lat":43.26803,"lon":5.40267,"is_reserved":false,"is_disabled":false,"rental_uris":{"android":"levelo://app?vid=e5dc3ff0-e59b-4327-8652-626fb68800b0","ios":"levelo://app?vid=e5dc3ff0-e59b-4327-8652-626fb68800b0"},"vehicle_type_id":"4","last_reported":1749636737,"current_range_meters":6400,"station_id":"ce501612rcd8frsf0b60","pricing_plan_id":"cebpf4jnsgd1na2vs0mg"},{"bike_id":"3d59d2ec-b59a-43e8-abae-40ac02fdcdb8","system_id":"levelo_inurba_marseille","lat":43.2954,"lon":5.42323,"is_reserved":false,"is_disabled":false,"rental_uris":{"android":"levelo://app?vid=3d59d2ec-b59a-43e8-abae-40ac02fdcdb8","ios":"levelo://app?vid=3d59d2ec-b59a-43e8-abae-40ac02fdcdb8"},"vehicle_type_id":"4","last_reported":1749636737,"current_range_meters":6800,"station_id":"ce4bhph2rcd13ifvqhdg","pricing_plan_id":"cebpf4jnsgd1na2vs0mg"},{"bike_id":"9ac0d8e3-3fb2-448b-828f-8994e7f06d3f","system_id":"levelo_inurba_marseille","lat":43.28421,"lon":5.37512,"is_reserved":false,"is_disabled":false,"rental_uris":{"android":"levelo://app?vid=9ac0d8e3-3fb2-448b-828f-8994e7f06d3f","ios":"levelo://app?vid=9ac0d8e3-3fb2-448b-828f-8994e7f06d3f"},"vehicle_type_id":"4","last_reported":1749636737,"current_range_meters":6800,"station_id":"ce4bh412rcd13ifvqds0","pricing_plan_id":"cebpf4jnsgd1na2vs0mg"},{"bike_id":"ecdb5717-0a46-4404-b251-f94afc3fa304","system_id":"levelo_inurba_marseille","lat":43.29273,"lon":5.36834,"is_reserved":false,"is_disabled":false,"rental_uris":{"android":"levelo://app?vid=ecdb5717-0a46-4404-b251-f94afc3fa304","ios":"levelo://app?vid=ecdb5717-0a46-4404-b251-f94afc3fa304"},"vehicle_type_id":"4","last_reported":1749636737,"current_range_meters":6800,"station_id":"ce4bhbp2rcd13ifvqesg","pricing_plan_id":"cebpf4jnsgd1na2vs0mg"},{"bike_id":"39d32260-51d5-455a-ba53-6471389bd255","system_id":"levelo_inurba_marseille","lat":43.31962,"lon":5.37605,"is_reserved":false,"is_disabled":false,"rental_uris":{"android":"levelo://app?vid=39d32260-51d5-455a-ba53-6471389bd255","ios":"levelo://app?vid=39d32260-51d5-455a-ba53-6471389bd255"},"vehicle_type_id":"4","last_reported":1749636737,"current_range_meters":6800,"station_id":"","pricing_plan_id":"cebpf4jnsgd1na2vs0mg"},{"bike_id":"74ca7513-09a8-4a66-a8df-9699a60305b2","system_id":"levelo_inurba_marseille","lat":43.26585,"lon":5.39025,"is_reserved":false,"is_disabled":false,"rental_uris":{"android":"levelo://app?vid=74ca7513-09a8-4a66-a8df-9699a60305b2","ios":"levelo://app?vid=74ca7513-09a8-4a66-a8df-9699a60305b2"},"vehicle_type_id":"4","last_reported":1749636737,"current_range_meters":6800,"station_id":"ce4bhe12rcd13ifvqf30","pricing_plan_id":"cebpf4jnsgd1na2vs0mg"},{"bike_id":"b87310d6-2b4c-4a35-bade-ca3ade375058","system_id":"levelo_inurba_marseille","lat":43.28422,"lon":5.34982,"is_reserved":false,"is_disabled":false,"rental_uris":{"android":"levelo://app?vid=b87310d6-2b4c-4a35-bade-ca3ade375058","ios":"levelo://app?vid=b87310d6-2b4c-4a35-bade-ca3ade375058"},"vehicle_type_id":"4","last_reported":1749636737,"current_range_meters":7200,"station_id":"ce4bhbh2rcd13ifvqepg","pricing_plan_id":"cebpf4jnsgd1na2vs0mg"},{"bike_id":"325adbf7-3210-4f42-9fa3-23c5b94ad930","system_id":"levelo_inurba_marseille","lat":43.29619,"lon":5.371599,"is_reserved":false,"is_disabled":false,"rental_uris":{"android":"levelo://app?vid=325adbf7-3210-4f42-9fa3-23c5b94ad930","ios":"levelo://app?vid=325adbf7-3210-4f42-9fa3-23c5b94ad930"},"vehicle_type_id":"4","last_reported":1749636737,"current_range_meters":7200,"station_id":"","pricing_plan_id":"cebpf4jnsgd1na2vs0mg"},{"bike_id":"e523f706-8c3e-4c14-b599-8e03c9d72beb","system_id":"levelo_inurba_marseille","lat":43.31699,"lon":5.40464,"is_reserved":false,"is_disabled":false,"rental_uris":{"android":"levelo://app?vid=e523f706-8c3e-4c14-b599-8e03c9d72beb","ios":"levelo://app?vid=e523f706-8c3e-4c14-b599-8e03c9d72beb"},"vehicle_type_id":"4","last_reported":1749636737,"current_range_meters":7200,"station_id":"ce4bh012rcd13ifvqd00","pricing_plan_id":"cebpf4jnsgd1na2vs0mg"},{"bike_id":"ab6f20fc-bd2e-4bfa-9dd7-5b74c4d5811f","system_id":"levelo_inurba_marseille","lat":43.29148,"lon":5.39943,"is_reserved":false,"is_disabled":true,"rental_uris":{"android":"levelo://app?vid=ab6f20fc-bd2e-4bfa-9dd7-5b74c4d5811f","ios":"levelo://app?vid=ab6f20fc-bd2e-4bfa-9dd7-5b74c4d5811f"},"vehicle_type_id":"4","last_reported":1749636737,"current_range_meters":7200,"station_id":"","pricing_plan_id":"cebpf4jnsgd1na2vs0mg"},{"bike_id":"b3d982ff-85a1-4dd3-8d38-99737526bcfa","system_id":"levelo_inurba_marseille","lat":43.30308,"lon":5.36897,"is_reserved":false,"is_disabled":false,"rental_uris":{"android":"levelo://app?vid=b3d982ff-85a1-4dd3-8d38-99737526bcfa","ios":"levelo://app?vid=b3d982ff-85a1-4dd3-8d38-99737526bcfa"},"vehicle_type_id":"4","last_reported":1749636737,"current_range_meters":7200,"station_id":"ce4bgqh2rcd13ifvqc5g","pricing_plan_id":"cebpf4jnsgd1na2vs0mg"},{"bike_id":"a9334c0d-cdfc-464f-8eab-e98192ed3454","system_id":"levelo_inurba_marseille","lat":43.29228,"lon":5.39927,"is_reserved":false,"is_disabled":false,"rental_uris":{"android":"levelo://app?vid=a9334c0d-cdfc-464f-8eab-e98192ed3454","ios":"levelo://app?vid=a9334c0d-cdfc-464f-8eab-e98192ed3454"},"vehicle_type_id":"4","last_reported":1749636737,"current_range_meters":7200,"station_id":"","pricing_plan_id":"cebpf4jnsgd1na2vs0mg"},{"bike_id":"1e532920-9e26-4275-b7c0-535f652566f3","system_id":"levelo_inurba_marseille","lat":43.31368,"lon":5.36702,"is_reserved":false,"is_disabled":false,"rental_uris":{"android":"levelo://app?vid=1e532920-9e26-4275-b7c0-535f652566f3","ios":"levelo://app?vid=1e532920-9e26-4275-b7c0-535f652566f3"},"vehicle_type_id":"4","last_reported":1749636737,"current_range_meters":7200,"station_id":"ce4bgr92rcd13ifvqc6g","pricing_plan_id":"cebpf4jnsgd1na2vs0mg"},{"bike_id":"ad5fea89-943a-4619-9edc-0ace3e829ee1","system_id":"levelo_inurba_marseille","lat":43.32542,"lon":5.41435,"is_reserved":false,"is_disabled":false,"rental_uris":{"android":"levelo://app?vid=ad5fea89-943a-4619-9edc-0ace3e829ee1","ios":"levelo://app?vid=ad5fea89-943a-4619-9edc-0ace3e829ee1"},"vehicle_type_id":"4","last_reported":1749636737,"current_range_meters":8000,"station_id":"ce4bhq12rcd13ifvqhhg","pricing_plan_id":"cebpf4jnsgd1na2vs0mg"},{"bike_id":"e1f194ce-0bae-4802-a8bb-ea19d2aed5d3","system_id":"levelo_inurba_marseille","lat":43.33628,"lon":5.40996,"is_reserved":false,"is_disabled":false,"rental_uris":{"android":"levelo://app?vid=e1f194ce-0bae-4802-a8bb-ea19d2aed5d3","ios":"levelo://app?vid=e1f194ce-0bae-4802-a8bb-ea19d2aed5d3"},"vehicle_type_id":"4","last_reported":1749636737,"current_range_meters":8000,"station_id":"ce4bhqh2rcd13ifvqhmg","pricing_plan_id":"cebpf4jnsgd1na2vs0mg"},{"bike_id":"125bd855-10ed-4a56-9707-403f3a8b58a0","system_id":"levelo_inurba_marseille","lat":43.33067,"lon":5.40503,"is_reserved":false,"is_disabled":false,"rental_uris":{"android":"levelo://app?vid=125bd855-10ed-4a56-9707-403f3a8b58a0","ios":"levelo://app?vid=125bd855-10ed-4a56-9707-403f3a8b58a0"},"vehicle_type_id":"4","last_reported":1749636737,"current_range_meters":8000,"station_id":"","pricing_plan_id":"cebpf4jnsgd1na2vs0mg"},{"bike_id":"60f440a3-f416-4034-8f3c-58318f9cd70c","system_id":"levelo_inurba_marseille","lat":43.32545,"lon":5.41433,"is_reserved":false,"is_disabled":false,"rental_uris":{"android":"levelo://app?vid=60f440a3-f416-4034-8f3c-58318f9cd70c","ios":"levelo://app?vid=60f440a3-f416-4034-8f3c-58318f9cd70c"},"vehicle_type_id":"4","last_reported":1749636737,"current_range_meters":8400,"station_id":"ce4bhq12rcd13ifvqhhg","pricing_plan_id":"cebpf4jnsgd1na2vs0mg"},{"bike_id":"2fb82a4e-0ee1-4839-87e1-0819fb18ed3d","system_id":"levelo_inurba_marseille","lat":43.27067,"lon":5.42277,"is_reserved":false,"is_disabled":true,"rental_uris":{"android":"levelo://app?vid=2fb82a4e-0ee1-4839-87e1-0819fb18ed3d","ios":"levelo://app?vid=2fb82a4e-0ee1-4839-87e1-0819fb18ed3d"},"vehicle_type_id":"4","last_reported":1749636737,"current_range_meters":8400,"station_id":"ce4bhk92rcd13ifvqgb0","pricing_plan_id":"cebpf4jnsgd1na2vs0mg"},{"bike_id":"4a547821-6e1b-42ff-bb92-10ab6581a149","system_id":"levelo_inurba_marseille","lat":43.31832,"lon":5.37454,"is_reserved":false,"is_disabled":false,"rental_uris":{"android":"levelo://app?vid=4a547821-6e1b-42ff-bb92-10ab6581a149","ios":"levelo://app?vid=4a547821-6e1b-42ff-bb92-10ab6581a149"},"vehicle_type_id":"4","last_reported":1749636737,"current_range_meters":8800,"station_id":"","pricing_plan_id":"cebpf4jnsgd1na2vs0mg"},{"bike_id":"5077581b-cebb-46fc-ba69-4fa8272d4810","system_id":"levelo_inurba_marseille","lat":43.21359,"lon":5.35536,"is_reserved":false,"is_disabled":false,"rental_uris":{"android":"levelo://app?vid=5077581b-cebb-46fc-ba69-4fa8272d4810","ios":"levelo://app?vid=5077581b-cebb-46fc-ba69-4fa8272d4810"},"vehicle_type_id":"4","last_reported":1749636737,"current_range_meters":8800,"station_id":"","pricing_plan_id":"cebpf4jnsgd1na2vs0mg"},{"bike_id":"067e2ee8-1101-4b3d-8f2a-2f3961754b72","system_id":"levelo_inurba_marseille","lat":43.25945,"lon":5.40895,"is_reserved":false,"is_disabled":false,"rental_uris":{"android":"levelo://app?vid=067e2ee8-1101-4b3d-8f2a-2f3961754b72","ios":"levelo://app?vid=067e2ee8-1101-4b3d-8f2a-2f3961754b72"},"vehicle_type_id":"4","last_reported":1749636737,"current_range_meters":8800,"station_id":"ce4bhm92rcd13ifvqglg","pricing_plan_id":"cebpf4jnsgd1na2vs0mg"},{"bike_id":"a679cb80-4242-4d18-a97e-ea4a60dc83be","system_id":"levelo_inurba_marseille","lat":43.32186,"lon":5.41296,"is_reserved":false,"is_disabled":false,"rental_uris":{"android":"levelo://app?vid=a679cb80-4242-4d18-a97e-ea4a60dc83be","ios":"levelo://app?vid=a679cb80-4242-4d18-a97e-ea4a60dc83be"},"vehicle_type_id":"4","last_reported":1749636737,"current_range_meters":8800,"station_id":"","pricing_plan_id":"cebpf4jnsgd1na2vs0mg"},{"bike_id":"5d34152f-0909-4324-a767-daa2ef83199b","system_id":"levelo_inurba_marseille","lat":43.31077,"lon":5.42425,"is_reserved":false,"is_disabled":false,"rental_uris":{"android":"levelo://app?vid=5d34152f-0909-4324-a767-daa2ef83199b","ios":"levelo://app?vid=5d34152f-0909-4324-a767-daa2ef83199b"},"vehicle_type_id":"4","last_reported":1749636737,"current_range_meters":8800,"station_id":"ce4bhp92rcd13ifvqhag","pricing_plan_id":"cebpf4jnsgd1na2vs0mg"},{"bike_id":"9636cce5-c722-4131-9429-5507b4ba267a","system_id":"levelo_inurba_marseille","lat":43.29909,"lon":5.3747,"is_reserved":false,"is_disabled":false,"rental_uris":{"android":"levelo://app?vid=9636cce5-c722-4131-9429-5507b4ba267a","ios":"levelo://app?vid=9636cce5-c722-4131-9429-5507b4ba267a"},"vehicle_type_id":"4","last_reported":1749636737,"current_range_meters":9200,"station_id":"ce4bgjh2rcd13ifvqbg0","pricing_plan_id":"cebpf4jnsgd1na2vs0mg"},{"bike_id":"e06bd1cb-cca2-4b64-b696-4fe06dae62ed","system_id":"levelo_inurba_marseille","lat":43.27168,"lon":5.40992,"is_reserved":false,"is_disabled":false,"rental_uris":{"android":"levelo://app?vid=e06bd1cb-cca2-4b64-b696-4fe06dae62ed","ios":"levelo://app?vid=e06bd1cb-cca2-4b64-b696-4fe06dae62ed"},"vehicle_type_id":"4","last_reported":1749636737,"current_range_meters":9200,"station_id":"ce4bhl12rcd13ifvqgf0","pricing_plan_id":"cebpf4jnsgd1na2vs0mg"},{"bike_id":"6969daf0-a79a-45f2-8869-800c85fc1b1e","system_id":"levelo_inurba_marseille","lat":43.29592,"lon":5.36736,"is_reserved":false,"is_disabled":false,"rental_uris":{"android":"levelo://app?vid=6969daf0-a79a-45f2-8869-800c85fc1b1e","ios":"levelo://app?vid=6969daf0-a79a-45f2-8869-800c85fc1b1e"},"vehicle_type_id":"4","last_reported":1749636737,"current_range_meters":9200,"station_id":"ce4bgph2rcd13ifvqc2g","pricing_plan_id":"cebpf4jnsgd1na2vs0mg"},{"bike_id":"03c96c3c-d8d4-45bb-97c8-064817d3188e","system_id":"levelo_inurba_marseille","lat":43.30186,"lon":5.36625,"is_reserved":false,"is_disabled":false,"rental_uris":{"android":"levelo://app?vid=03c96c3c-d8d4-45bb-97c8-064817d3188e","ios":"levelo://app?vid=03c96c3c-d8d4-45bb-97c8-064817d3188e"},"vehicle_type_id":"4","last_reported":1749636737,"current_range_meters":9200,"station_id":"ce4bgrh2rcd13ifvqc8g","pricing_plan_id":"cebpf4jnsgd1na2vs0mg"},{"bike_id":"fb7a0414-68de-4bcf-a069-8b76b50de836","system_id":"levelo_inurba_marseille","lat":43.25916,"lon":5.40903,"is_reserved":false,"is_disabled":true,"rental_uris":{"android":"levelo://app?vid=fb7a0414-68de-4bcf-a069-8b76b50de836","ios":"levelo://app?vid=fb7a0414-68de-4bcf-a069-8b76b50de836"},"vehicle_type_id":"4","last_reported":1749636737,"current_range_meters":9200,"station_id":"ce4bhm92rcd13ifvqglg","pricing_plan_id":"cebpf4jnsgd1na2vs0mg"},{"bike_id":"dfd6fa0c-f8fd-484a-b4a8-e1c4415d1362","system_id":"levelo_inurba_marseille","lat":43.29789,"lon":5.38099,"is_reserved":false,"is_disabled":false,"rental_uris":{"android":"levelo://app?vid=dfd6fa0c-f8fd-484a-b4a8-e1c4415d1362","ios":"levelo://app?vid=dfd6fa0c-f8fd-484a-b4a8-e1c4415d1362"},"vehicle_type_id":"4","last_reported":1749636737,"current_range_meters":9200,"station_id":"ce4bgip2rcd13ifvqbb0","pricing_plan_id":"cebpf4jnsgd1na2vs0mg"},{"bike_id":"ca27e12a-1f2d-4cf2-be29-12a2b9ff1547","system_id":"levelo_inurba_marseille","lat":43.31716,"lon":5.42397,"is_reserved":false,"is_disabled":false,"rental_uris":{"android":"levelo://app?vid=ca27e12a-1f2d-4cf2-be29-12a2b9ff1547","ios":"levelo://app?vid=ca27e12a-1f2d-4cf2-be29-12a2b9ff1547"},"vehicle_type_id":"4","last_reported":1749636737,"current_range_meters":9200,"station_id":"ce4bhp92rcd13ifvqhbg","pricing_plan_id":"cebpf4jnsgd1na2vs0mg"},{"bike_id":"ac93e481-922d-4f59-beed-2260d25e4cb1","system_id":"levelo_inurba_marseille","lat":43.29722,"lon":5.37686,"is_reserved":false,"is_disabled":false,"rental_uris":{"android":"levelo://app?vid=ac93e481-922d-4f59-beed-2260d25e4cb1","ios":"levelo://app?vid=ac93e481-922d-4f59-beed-2260d25e4cb1"},"vehicle_type_id":"4","last_reported":1749636737,"current_range_meters":9200,"station_id":"ce4bgkh2rcd13ifvqbl0","pricing_plan_id":"cebpf4jnsgd1na2vs0mg"},{"bike_id":"6c0ca77f-993c-4058-99b8-f7e493245e8b","system_id":"levelo_inurba_marseille","lat":43.30291,"lon":5.39205,"is_reserved":false,"is_disabled":false,"rental_uris":{"android":"levelo://app?vid=6c0ca77f-993c-4058-99b8-f7e493245e8b","ios":"levelo://app?vid=6c0ca77f-993c-4058-99b8-f7e493245e8b"},"vehicle_type_id":"4","last_reported":1749636737,"current_range_meters":12400,"station_id":"ce4bgkh2rcd13ifvqbk0","pricing_plan_id":"cebpf4jnsgd1na2vs0mg"},{"bike_id":"4fe28e52-1584-4175-a933-4b923c06007d","system_id":"levelo_inurba_marseille","lat":43.30881,"lon":5.37198,"is_reserved":false,"is_disabled":false,"rental_uris":{"android":"levelo://app?vid=4fe28e52-1584-4175-a933-4b923c06007d","ios":"levelo://app?vid=4fe28e52-1584-4175-a933-4b923c06007d"},"vehicle_type_id":"4","last_reported":1749636737,"current_range_meters":9600,"station_id":"ce4bguh2rcd13ifvqckg","pricing_plan_id":"cebpf4jnsgd1na2vs0mg"},{"bike_id":"57ae981b-f992-4b9e-bd1e-447b95ce922f","system_id":"levelo_inurba_marseille","lat":43.30708,"lon":5.38076,"is_reserved":false,"is_disabled":false,"rental_uris":{"android":"levelo://app?vid=57ae981b-f992-4b9e-bd1e-447b95ce922f","ios":"levelo://app?vid=57ae981b-f992-4b9e-bd1e-447b95ce922f"},"vehicle_type_id":"4","last_reported":1749636737,"current_range_meters":9600,"station_id":"","pricing_plan_id":"cebpf4jnsgd1na2vs0mg"},{"bike_id":"ab5d796b-6f87-4b6e-a5bd-6ac051fcacd1","system_id":"levelo_inurba_marseille","lat":43.32463,"lon":5.36575,"is_reserved":false,"is_disabled":false,"rental_uris":{"android":"levelo://app?vid=ab5d796b-6f87-4b6e-a5bd-6ac051fcacd1","ios":"levelo://app?vid=ab5d796b-6f87-4b6e-a5bd-6ac051fcacd1"},"vehicle_type_id":"4","last_reported":1749636737,"current_range_meters":9600,"station_id":"ce4bhs12rcd13ifvqhvg","pricing_plan_id":"cebpf4jnsgd1na2vs0mg"},{"bike_id":"187b0a7b-e256-4c19-9794-bb250a6c5653","system_id":"levelo_inurba_marseille","lat":43.31849,"lon":5.37946,"is_reserved":false,"is_disabled":false,"rental_uris":{"android":"levelo://app?vid=187b0a7b-e256-4c19-9794-bb250a6c5653","ios":"levelo://app?vid=187b0a7b-e256-4c19-9794-bb250a6c5653"},"vehicle_type_id":"4","last_reported":1749636737,"current_range_meters":9600,"station_id":"","pricing_plan_id":"cebpf4jnsgd1na2vs0mg"},{"bike_id":"15138ce4-9850-4a09-9eb2-0da12393d0d8","system_id":"levelo_inurba_marseille","lat":43.317129,"lon":5.436974,"is_reserved":false,"is_disabled":false,"rental_uris":{"android":"levelo://app?vid=15138ce4-9850-4a09-9eb2-0da12393d0d8","ios":"levelo://app?vid=15138ce4-9850-4a09-9eb2-0da12393d0d8"},"vehicle_type_id":"4","last_reported":1749636737,"current_range_meters":9600,"station_id":"ce4bhp92rcd13ifvqhcg","pricing_plan_id":"cebpf4jnsgd1na2vs0mg"},{"bike_id":"f092fc9c-081b-4feb-a5ee-063c1b828815","system_id":"levelo_inurba_marseille","lat":43.29709,"lon":5.37699,"is_reserved":false,"is_disabled":false,"rental_uris":{"android":"levelo://app?vid=f092fc9c-081b-4feb-a5ee-063c1b828815","ios":"levelo://app?vid=f092fc9c-081b-4feb-a5ee-063c1b828815"},"vehicle_type_id":"4","last_reported":1749636737,"current_range_meters":10000,"station_id":"ce4bgkh2rcd13ifvqbl0","pricing_plan_id":"cebpf4jnsgd1na2vs0mg"},{"bike_id":"1e20f032-0f6a-40b2-ad29-e4d2225496fa","system_id":"levelo_inurba_marseille","lat":43.30312,"lon":5.3706,"is_reserved":false,"is_disabled":false,"rental_uris":{"android":"levelo://app?vid=1e20f032-0f6a-40b2-ad29-e4d2225496fa","ios":"levelo://app?vid=1e20f032-0f6a-40b2-ad29-e4d2225496fa"},"vehicle_type_id":"4","last_reported":1749636737,"current_range_meters":10000,"station_id":"","pricing_plan_id":"cebpf4jnsgd1na2vs0mg"},{"bike_id":"50769440-806b-4c64-ae6c-f311fa2b9643","system_id":"levelo_inurba_marseille","lat":43.30145,"lon":5.3806,"is_reserved":false,"is_disabled":false,"rental_uris":{"android":"levelo://app?vid=50769440-806b-4c64-ae6c-f311fa2b9643","ios":"levelo://app?vid=50769440-806b-4c64-ae6c-f311fa2b9643"},"vehicle_type_id":"4","last_reported":1749636737,"current_range_meters":11600,"station_id":"ce4bgjp2rcd13ifvqbh0","pricing_plan_id":"cebpf4jnsgd1na2vs0mg"},{"bike_id":"24677b43-078a-4210-ad8c-935106b74628","system_id":"levelo_inurba_marseille","lat":43.30297,"lon":5.36894,"is_reserved":false,"is_disabled":false,"rental_uris":{"android":"levelo://app?vid=24677b43-078a-4210-ad8c-935106b74628","ios":"levelo://app?vid=24677b43-078a-4210-ad8c-935106b74628"},"vehicle_type_id":"4","last_reported":1749636737,"current_range_meters":10000,"station_id":"ce4bgqh2rcd13ifvqc5g","pricing_plan_id":"cebpf4jnsgd1na2vs0mg"},{"bike_id":"624a1ce0-debd-4090-872b-5ce80e0b9e0e","system_id":"levelo_inurba_marseille","lat":43.28697,"lon":5.37393,"is_reserved":false,"is_disabled":false,"rental_uris":{"android":"levelo://app?vid=624a1ce0-debd-4090-872b-5ce80e0b9e0e","ios":"levelo://app?vid=624a1ce0-debd-4090-872b-5ce80e0b9e0e"},"vehicle_type_id":"4","last_reported":1749636737,"current_range_meters":10000,"station_id":"ce4bh3p2rcd13ifvqdq0","pricing_plan_id":"cebpf4jnsgd1na2vs0mg"},{"bike_id":"08d6a2ad-90fe-4164-978e-1a6b95659198","system_id":"levelo_inurba_marseille","lat":43.27983,"lon":5.41659,"is_reserved":false,"is_disabled":false,"rental_uris":{"android":"levelo://app?vid=08d6a2ad-90fe-4164-978e-1a6b95659198","ios":"levelo://app?vid=08d6a2ad-90fe-4164-978e-1a6b95659198"},"vehicle_type_id":"4","last_reported":1749636737,"current_range_meters":10000,"station_id":"ce4bho12rcd13ifvqh1g","pricing_plan_id":"cebpf4jnsgd1na2vs0mg"},{"bike_id":"ab0946b9-a19a-4311-88d3-99a0958eafb2","system_id":"levelo_inurba_marseille","lat":43.31346,"lon":5.3671,"is_reserved":false,"is_disabled":false,"rental_uris":{"android":"levelo://app?vid=ab0946b9-a19a-4311-88d3-99a0958eafb2","ios":"levelo://app?vid=ab0946b9-a19a-4311-88d3-99a0958eafb2"},"vehicle_type_id":"4","last_reported":1749636737,"current_range_meters":10800,"station_id":"ce4bgr92rcd13ifvqc6g","pricing_plan_id":"cebpf4jnsgd1na2vs0mg"},{"bike_id":"ea06ff9d-e500-48bb-af7e-04f1e1a03b96","system_id":"levelo_inurba_marseille","lat":43.27827,"lon":5.392,"is_reserved":false,"is_disabled":false,"rental_uris":{"android":"levelo://app?vid=ea06ff9d-e500-48bb-af7e-04f1e1a03b96","ios":"levelo://app?vid=ea06ff9d-e500-48bb-af7e-04f1e1a03b96"},"vehicle_type_id":"4","last_reported":1749636737,"current_range_meters":10800,"station_id":"ce4bhjp2rcd13ifvqga0","pricing_plan_id":"cebpf4jnsgd1na2vs0mg"},{"bike_id":"b065058b-e257-4304-9077-f7636c635d4e","system_id":"levelo_inurba_marseille","lat":43.247986,"lon":5.374559,"is_reserved":false,"is_disabled":false,"rental_uris":{"android":"levelo://app?vid=b065058b-e257-4304-9077-f7636c635d4e","ios":"levelo://app?vid=b065058b-e257-4304-9077-f7636c635d4e"},"vehicle_type_id":"4","last_reported":1749636737,"current_range_meters":10800,"station_id":"ce4bhgh2rcd13ifvqfb0","pricing_plan_id":"cebpf4jnsgd1na2vs0mg"},{"bike_id":"3447c9d6-291c-496f-a251-3b38220bfb4f","system_id":"levelo_inurba_marseille","lat":43.23195,"lon":5.35549,"is_reserved":false,"is_disabled":false,"rental_uris":{"android":"levelo://app?vid=3447c9d6-291c-496f-a251-3b38220bfb4f","ios":"levelo://app?vid=3447c9d6-291c-496f-a251-3b38220bfb4f"},"vehicle_type_id":"4","last_reported":1749636737,"current_range_meters":10800,"station_id":"ce4bhu92rcd13ifvqi70","pricing_plan_id":"cebpf4jnsgd1na2vs0mg"},{"bike_id":"acecc9dd-9f66-4fc9-b678-7dfbfc49612a","system_id":"levelo_inurba_marseille","lat":43.3038,"lon":5.42464,"is_reserved":false,"is_disabled":false,"rental_uris":{"android":"levelo://app?vid=acecc9dd-9f66-4fc9-b678-7dfbfc49612a","ios":"levelo://app?vid=acecc9dd-9f66-4fc9-b678-7dfbfc49612a"},"vehicle_type_id":"4","last_reported":1749636737,"current_range_meters":11200,"station_id":"ce4bhoh2rcd13ifvqh6g","pricing_plan_id":"cebpf4jnsgd1na2vs0mg"},{"bike_id":"847ee08f-df5f-4680-911b-ec5479203e8c","system_id":"levelo_inurba_marseille","lat":43.23176,"lon":5.39982,"is_reserved":false,"is_disabled":false,"rental_uris":{"android":"levelo://app?vid=847ee08f-df5f-4680-911b-ec5479203e8c","ios":"levelo://app?vid=847ee08f-df5f-4680-911b-ec5479203e8c"},"vehicle_type_id":"4","last_reported":1749636737,"current_range_meters":11600,"station_id":"ce4bhn12rcd13ifvqgqg","pricing_plan_id":"cebpf4jnsgd1na2vs0mg"},{"bike_id":"e6d67648-0d34-4392-8e2c-f83f208c9d05","system_id":"levelo_inurba_marseille","lat":43.316898,"lon":5.404573,"is_reserved":false,"is_disabled":false,"rental_uris":{"android":"levelo://app?vid=e6d67648-0d34-4392-8e2c-f83f208c9d05","ios":"levelo://app?vid=e6d67648-0d34-4392-8e2c-f83f208c9d05"},"vehicle_type_id":"4","last_reported":1749636737,"current_range_meters":11200,"station_id":"ce4bh012rcd13ifvqd00","pricing_plan_id":"cebpf4jnsgd1na2vs0mg"},{"bike_id":"bc54bb32-1e00-48c4-a0f2-a1536bd1c16a","system_id":"levelo_inurba_marseille","lat":43.29259,"lon":5.40907,"is_reserved":false,"is_disabled":false,"rental_uris":{"android":"levelo://app?vid=bc54bb32-1e00-48c4-a0f2-a1536bd1c16a","ios":"levelo://app?vid=bc54bb32-1e00-48c4-a0f2-a1536bd1c16a"},"vehicle_type_id":"4","last_reported":1749636737,"current_range_meters":11200,"station_id":"ce4bh192rcd13ifvqdc0","pricing_plan_id":"cebpf4jnsgd1na2vs0mg"},{"bike_id":"ea3a22aa-0306-4581-8483-4087930a91a3","system_id":"levelo_inurba_marseille","lat":43.32537,"lon":5.41435,"is_reserved":false,"is_disabled":false,"rental_uris":{"android":"levelo://app?vid=ea3a22aa-0306-4581-8483-4087930a91a3","ios":"levelo://app?vid=ea3a22aa-0306-4581-8483-4087930a91a3"},"vehicle_type_id":"4","last_reported":1749636737,"current_range_meters":11200,"station_id":"ce4bhq12rcd13ifvqhhg","pricing_plan_id":"cebpf4jnsgd1na2vs0mg"},{"bike_id":"752ebfa1-a8e9-4725-b808-58aa618033e5","system_id":"levelo_inurba_marseille","lat":43.28269,"lon":5.35062,"is_reserved":false,"is_disabled":false,"rental_uris":{"android":"levelo://app?vid=752ebfa1-a8e9-4725-b808-58aa618033e5","ios":"levelo://app?vid=752ebfa1-a8e9-4725-b808-58aa618033e5"},"vehicle_type_id":"4","last_reported":1749636737,"current_range_meters":5600,"station_id":"ce4bhbp2rcd13ifvqerg","pricing_plan_id":"cebpf4jnsgd1na2vs0mg"},{"bike_id":"8f101082-5782-4114-b1ed-9162869ececf","system_id":"levelo_inurba_marseille","lat":43.284602,"lon":5.358886,"is_reserved":false,"is_disabled":false,"rental_uris":{"android":"levelo://app?vid=8f101082-5782-4114-b1ed-9162869ececf","ios":"levelo://app?vid=8f101082-5782-4114-b1ed-9162869ececf"},"vehicle_type_id":"4","last_reported":1749636737,"current_range_meters":11200,"station_id":"","pricing_plan_id":"cebpf4jnsgd1na2vs0mg"},{"bike_id":"262903a9-22b9-4b2d-96c2-2e5dbd155090","system_id":"levelo_inurba_marseille","lat":43.32489,"lon":5.36563,"is_reserved":false,"is_disabled":false,"rental_uris":{"android":"levelo://app?vid=262903a9-22b9-4b2d-96c2-2e5dbd155090","ios":"levelo://app?vid=262903a9-22b9-4b2d-96c2-2e5dbd155090"},"vehicle_type_id":"4","last_reported":1749636737,"current_range_meters":11600,"station_id":"ce4bhs12rcd13ifvqhvg","pricing_plan_id":"cebpf4jnsgd1na2vs0mg"},{"bike_id":"f1cd0589-32b7-4712-a643-a2908bf2196d","system_id":"levelo_inurba_marseille","lat":43.2749,"lon":5.42451,"is_reserved":false,"is_disabled":false,"rental_uris":{"android":"levelo://app?vid=f1cd0589-32b7-4712-a643-a2908bf2196d","ios":"levelo://app?vid=f1cd0589-32b7-4712-a643-a2908bf2196d"},"vehicle_type_id":"4","last_reported":1749636737,"current_range_meters":11600,"station_id":"ce4bhn92rcd13ifvqgrg","pricing_plan_id":"cebpf4jnsgd1na2vs0mg"},{"bike_id":"914351dc-5636-41fe-b848-a89ff3df0911","system_id":"levelo_inurba_marseille","lat":43.25918,"lon":5.40901,"is_reserved":false,"is_disabled":false,"rental_uris":{"android":"levelo://app?vid=914351dc-5636-41fe-b848-a89ff3df0911","ios":"levelo://app?vid=914351dc-5636-41fe-b848-a89ff3df0911"},"vehicle_type_id":"4","last_reported":1749636737,"current_range_meters":7200,"station_id":"ce4bhm92rcd13ifvqglg","pricing_plan_id":"cebpf4jnsgd1na2vs0mg"},{"bike_id":"c2691c1f-060f-43b6-8814-0f67128811e7","system_id":"levelo_inurba_marseille","lat":43.28418,"lon":5.375002,"is_reserved":false,"is_disabled":false,"rental_uris":{"android":"levelo://app?vid=c2691c1f-060f-43b6-8814-0f67128811e7","ios":"levelo://app?vid=c2691c1f-060f-43b6-8814-0f67128811e7"},"vehicle_type_id":"4","last_reported":1749636737,"current_range_meters":11600,"station_id":"ce4bh692rcd13ifvqea0","pricing_plan_id":"cebpf4jnsgd1na2vs0mg"},{"bike_id":"334d32e6-d546-49ef-bd35-09a4e2120a4d","system_id":"levelo_inurba_marseille","lat":43.29925,"lon":5.37469,"is_reserved":false,"is_disabled":false,"rental_uris":{"android":"levelo://app?vid=334d32e6-d546-49ef-bd35-09a4e2120a4d","ios":"levelo://app?vid=334d32e6-d546-49ef-bd35-09a4e2120a4d"},"vehicle_type_id":"4","last_reported":1749636737,"current_range_meters":11600,"station_id":"ce4bgjh2rcd13ifvqbg0","pricing_plan_id":"cebpf4jnsgd1na2vs0mg"},{"bike_id":"bd739d42-7c61-4ca8-ab22-3a5fb8d9adb7","system_id":"levelo_inurba_marseille","lat":43.30883,"lon":5.39642,"is_reserved":false,"is_disabled":false,"rental_uris":{"android":"levelo://app?vid=bd739d42-7c61-4ca8-ab22-3a5fb8d9adb7","ios":"levelo://app?vid=bd739d42-7c61-4ca8-ab22-3a5fb8d9adb7"},"vehicle_type_id":"4","last_reported":1749636737,"current_range_meters":11600,"station_id":"ce4bh012rcd13ifvqcv0","pricing_plan_id":"cebpf4jnsgd1na2vs0mg"},{"bike_id":"84f5a926-1dd6-4535-b647-2764ce0ca103","system_id":"levelo_inurba_marseille","lat":43.321115,"lon":5.367733,"is_reserved":false,"is_disabled":false,"rental_uris":{"android":"levelo://app?vid=84f5a926-1dd6-4535-b647-2764ce0ca103","ios":"levelo://app?vid=84f5a926-1dd6-4535-b647-2764ce0ca103"},"vehicle_type_id":"4","last_reported":1749636737,"current_range_meters":11600,"station_id":"ce4bhrh2rcd13ifvqhug","pricing_plan_id":"cebpf4jnsgd1na2vs0mg"},{"bike_id":"a6a9aa78-7299-47ac-a784-76282a099506","system_id":"levelo_inurba_marseille","lat":43.3015,"lon":5.38091,"is_reserved":false,"is_disabled":true,"rental_uris":{"android":"levelo://app?vid=a6a9aa78-7299-47ac-a784-76282a099506","ios":"levelo://app?vid=a6a9aa78-7299-47ac-a784-76282a099506"},"vehicle_type_id":"4","last_reported":1749636737,"current_range_meters":12000,"station_id":"ce4bgjp2rcd13ifvqbh0","pricing_plan_id":"cebpf4jnsgd1na2vs0mg"},{"bike_id":"908d7a87-70bf-41b9-aafc-1cb3b0cab55f","system_id":"levelo_inurba_marseille","lat":43.24545,"lon":5.3952,"is_reserved":false,"is_disabled":false,"rental_uris":{"android":"levelo://app?vid=908d7a87-70bf-41b9-aafc-1cb3b0cab55f","ios":"levelo://app?vid=908d7a87-70bf-41b9-aafc-1cb3b0cab55f"},"vehicle_type_id":"4","last_reported":1749636737,"current_range_meters":12000,"station_id":"ce4bhlp2rcd13ifvqgjg","pricing_plan_id":"cebpf4jnsgd1na2vs0mg"},{"bike_id":"fae88bb1-b344-4669-9e6d-c6ce78288b60","system_id":"levelo_inurba_marseille","lat":43.28667,"lon":5.36358,"is_reserved":false,"is_disabled":false,"rental_uris":{"android":"levelo://app?vid=fae88bb1-b344-4669-9e6d-c6ce78288b60","ios":"levelo://app?vid=fae88bb1-b344-4669-9e6d-c6ce78288b60"},"vehicle_type_id":"4","last_reported":1749636737,"current_range_meters":12400,"station_id":"ce4bhah2rcd13ifvqej0","pricing_plan_id":"cebpf4jnsgd1na2vs0mg"},{"bike_id":"9e00e8eb-32ec-498e-b90d-d5e42567a6a7","system_id":"levelo_inurba_marseille","lat":43.29302,"lon":5.3746,"is_reserved":false,"is_disabled":false,"rental_uris":{"android":"levelo://app?vid=9e00e8eb-32ec-498e-b90d-d5e42567a6a7","ios":"levelo://app?vid=9e00e8eb-32ec-498e-b90d-d5e42567a6a7"},"vehicle_type_id":"4","last_reported":1749636737,"current_range_meters":12400,"station_id":"ce4bgi12rcd13ifvqb70","pricing_plan_id":"cebpf4jnsgd1na2vs0mg"},{"bike_id":"c10d17d9-78e7-4fe6-a471-bdbdc97a9d6a","system_id":"levelo_inurba_marseille","lat":43.29818,"lon":5.363005,"is_reserved":false,"is_disabled":false,"rental_uris":{"android":"levelo://app?vid=c10d17d9-78e7-4fe6-a471-bdbdc97a9d6a","ios":"levelo://app?vid=c10d17d9-78e7-4fe6-a471-bdbdc97a9d6a"},"vehicle_type_id":"4","last_reported":1749636737,"current_range_meters":12400,"station_id":"ce4bgpp2rcd13ifvqc3g","pricing_plan_id":"cebpf4jnsgd1na2vs0mg"},{"bike_id":"e9988feb-b95e-483b-872c-1cad8156ac84","system_id":"levelo_inurba_marseille","lat":43.306373,"lon":5.400758,"is_reserved":false,"is_disabled":false,"rental_uris":{"android":"levelo://app?vid=e9988feb-b95e-483b-872c-1cad8156ac84","ios":"levelo://app?vid=e9988feb-b95e-483b-872c-1cad8156ac84"},"vehicle_type_id":"4","last_reported":1749636737,"current_range_meters":12400,"station_id":"ce4bh112rcd13ifvqda0","pricing_plan_id":"cebpf4jnsgd1na2vs0mg"},{"bike_id":"91252cb4-db98-4cff-ba49-0337a6eacf8f","system_id":"levelo_inurba_marseille","lat":43.32007,"lon":5.38726,"is_reserved":false,"is_disabled":false,"rental_uris":{"android":"levelo://app?vid=91252cb4-db98-4cff-ba49-0337a6eacf8f","ios":"levelo://app?vid=91252cb4-db98-4cff-ba49-0337a6eacf8f"},"vehicle_type_id":"4","last_reported":1749636737,"current_range_meters":12400,"station_id":"","pricing_plan_id":"cebpf4jnsgd1na2vs0mg"},{"bike_id":"87fec7c1-a9b0-4a27-87c3-43e400d52367","system_id":"levelo_inurba_marseille","lat":43.30948,"lon":5.39033,"is_reserved":false,"is_disabled":false,"rental_uris":{"android":"levelo://app?vid=87fec7c1-a9b0-4a27-87c3-43e400d52367","ios":"levelo://app?vid=87fec7c1-a9b0-4a27-87c3-43e400d52367"},"vehicle_type_id":"4","last_reported":1749636737,"current_range_meters":12800,"station_id":"ce4bgup2rcd13ifvqco0","pricing_plan_id":"cebpf4jnsgd1na2vs0mg"},{"bike_id":"d6822cfa-cf83-493b-a3aa-9fdfe39a2f55","system_id":"levelo_inurba_marseille","lat":43.32286,"lon":5.38276,"is_reserved":false,"is_disabled":false,"rental_uris":{"android":"levelo://app?vid=d6822cfa-cf83-493b-a3aa-9fdfe39a2f55","ios":"levelo://app?vid=d6822cfa-cf83-493b-a3aa-9fdfe39a2f55"},"vehicle_type_id":"4","last_reported":1749636737,"current_range_meters":12800,"station_id":"ce4bhr12rcd13ifvqhqg","pricing_plan_id":"cebpf4jnsgd1na2vs0mg"},{"bike_id":"83c117a4-4454-49a9-9b2f-e548255e6ba9","system_id":"levelo_inurba_marseille","lat":43.2572,"lon":5.41109,"is_reserved":false,"is_disabled":false,"rental_uris":{"android":"levelo://app?vid=83c117a4-4454-49a9-9b2f-e548255e6ba9","ios":"levelo://app?vid=83c117a4-4454-49a9-9b2f-e548255e6ba9"},"vehicle_type_id":"4","last_reported":1749636737,"current_range_meters":12800,"station_id":"ce4bhkp2rcd13ifvqgd0","pricing_plan_id":"cebpf4jnsgd1na2vs0mg"},{"bike_id":"0b193d91-1005-43f2-a074-0bd92319b273","system_id":"levelo_inurba_marseille","lat":43.26961,"lon":5.38639,"is_reserved":false,"is_disabled":false,"rental_uris":{"android":"levelo://app?vid=0b193d91-1005-43f2-a074-0bd92319b273","ios":"levelo://app?vid=0b193d91-1005-43f2-a074-0bd92319b273"},"vehicle_type_id":"4","last_reported":1749636737,"current_range_meters":12800,"station_id":"ce4bhh92rcd13ifvqfh0","pricing_plan_id":"cebpf4jnsgd1na2vs0mg"},{"bike_id":"398fc2d5-304a-4200-ba54-ed87b973990b","system_id":"levelo_inurba_marseille","lat":43.259279,"lon":5.409101,"is_reserved":false,"is_disabled":true,"rental_uris":{"android":"levelo://app?vid=398fc2d5-304a-4200-ba54-ed87b973990b","ios":"levelo://app?vid=398fc2d5-304a-4200-ba54-ed87b973990b"},"vehicle_type_id":"4","last_reported":1749636737,"current_range_meters":12800,"station_id":"ce4bhm92rcd13ifvqglg","pricing_plan_id":"cebpf4jnsgd1na2vs0mg"},{"bike_id":"b9487cc1-4ddd-4cc5-834b-a28715e8ecec","system_id":"levelo_inurba_marseille","lat":43.25732,"lon":5.41075,"is_reserved":false,"is_disabled":false,"rental_uris":{"android":"levelo://app?vid=b9487cc1-4ddd-4cc5-834b-a28715e8ecec","ios":"levelo://app?vid=b9487cc1-4ddd-4cc5-834b-a28715e8ecec"},"vehicle_type_id":"4","last_reported":1749636737,"current_range_meters":13600,"station_id":"ce4bhkp2rcd13ifvqgd0","pricing_plan_id":"cebpf4jnsgd1na2vs0mg"},{"bike_id":"20c3e483-c7b3-4831-8415-46c3a0b79c25","system_id":"levelo_inurba_marseille","lat":43.231512,"lon":5.437222,"is_reserved":false,"is_disabled":false,"rental_uris":{"android":"levelo://app?vid=20c3e483-c7b3-4831-8415-46c3a0b79c25","ios":"levelo://app?vid=20c3e483-c7b3-4831-8415-46c3a0b79c25"},"vehicle_type_id":"4","last_reported":1749636737,"current_range_meters":13600,"station_id":"ce4bhmp2rcd13ifvqgog","pricing_plan_id":"cebpf4jnsgd1na2vs0mg"},{"bike_id":"0602a7fa-750f-4781-a072-6ef8476abef6","system_id":"levelo_inurba_marseille","lat":43.29619,"lon":5.37165,"is_reserved":false,"is_disabled":false,"rental_uris":{"android":"levelo://app?vid=0602a7fa-750f-4781-a072-6ef8476abef6","ios":"levelo://app?vid=0602a7fa-750f-4781-a072-6ef8476abef6"},"vehicle_type_id":"4","last_reported":1749636737,"current_range_meters":13600,"station_id":"ce4bgnh2rcd13ifvqc0g","pricing_plan_id":"cebpf4jnsgd1na2vs0mg"},{"bike_id":"b66ea03b-b9a7-4d8e-b806-50d3b0b593cd","system_id":"levelo_inurba_marseille","lat":43.27985,"lon":5.41655,"is_reserved":false,"is_disabled":false,"rental_uris":{"android":"levelo://app?vid=b66ea03b-b9a7-4d8e-b806-50d3b0b593cd","ios":"levelo://app?vid=b66ea03b-b9a7-4d8e-b806-50d3b0b593cd"},"vehicle_type_id":"4","last_reported":1749636737,"current_range_meters":13600,"station_id":"ce4bho12rcd13ifvqh1g","pricing_plan_id":"cebpf4jnsgd1na2vs0mg"},{"bike_id":"362f4ac8-b1bc-4964-923e-5a59881cab8e","system_id":"levelo_inurba_marseille","lat":43.288519,"lon":5.393141,"is_reserved":false,"is_disabled":false,"rental_uris":{"android":"levelo://app?vid=362f4ac8-b1bc-4964-923e-5a59881cab8e","ios":"levelo://app?vid=362f4ac8-b1bc-4964-923e-5a59881cab8e"},"vehicle_type_id":"4","last_reported":1749636737,"current_range_meters":13600,"station_id":"ce4bh2p2rcd13ifvqdi0","pricing_plan_id":"cebpf4jnsgd1na2vs0mg"},{"bike_id":"1acfb620-cad7-48c0-8901-d7a5b74a5b65","system_id":"levelo_inurba_marseille","lat":43.33751,"lon":5.37456,"is_reserved":false,"is_disabled":false,"rental_uris":{"android":"levelo://app?vid=1acfb620-cad7-48c0-8901-d7a5b74a5b65","ios":"levelo://app?vid=1acfb620-cad7-48c0-8901-d7a5b74a5b65"},"vehicle_type_id":"4","last_reported":1749636737,"current_range_meters":13600,"station_id":"","pricing_plan_id":"cebpf4jnsgd1na2vs0mg"},{"bike_id":"206f7cff-1ba5-44ea-a9ed-a55ba496c932","system_id":"levelo_inurba_marseille","lat":43.23163,"lon":5.43708,"is_reserved":false,"is_disabled":false,"rental_uris":{"android":"levelo://app?vid=206f7cff-1ba5-44ea-a9ed-a55ba496c932","ios":"levelo://app?vid=206f7cff-1ba5-44ea-a9ed-a55ba496c932"},"vehicle_type_id":"4","last_reported":1749636737,"current_range_meters":14000,"station_id":"ce4bhmp2rcd13ifvqgog","pricing_plan_id":"cebpf4jnsgd1na2vs0mg"},{"bike_id":"9791d960-5edc-4f6b-8aff-b9047976a9fd","system_id":"levelo_inurba_marseille","lat":43.25006,"lon":5.38931,"is_reserved":false,"is_disabled":false,"rental_uris":{"android":"levelo://app?vid=9791d960-5edc-4f6b-8aff-b9047976a9fd","ios":"levelo://app?vid=9791d960-5edc-4f6b-8aff-b9047976a9fd"},"vehicle_type_id":"4","last_reported":1749636737,"current_range_meters":14000,"station_id":"ce4bhgp2rcd13ifvqfd0","pricing_plan_id":"cebpf4jnsgd1na2vs0mg"},{"bike_id":"1f42e774-0b65-4738-b3e3-0aae7ec0e65c","system_id":"levelo_inurba_marseille","lat":43.29568,"lon":5.37491,"is_reserved":false,"is_disabled":false,"rental_uris":{"android":"levelo://app?vid=1f42e774-0b65-4738-b3e3-0aae7ec0e65c","ios":"levelo://app?vid=1f42e774-0b65-4738-b3e3-0aae7ec0e65c"},"vehicle_type_id":"4","last_reported":1749636737,"current_range_meters":14000,"station_id":"ce4bgh92rcd13ifvqb50","pricing_plan_id":"cebpf4jnsgd1na2vs0mg"},{"bike_id":"f84da1a8-4a2f-448e-8806-43ca14a6d506","system_id":"levelo_inurba_marseille","lat":43.21187,"lon":5.35087,"is_reserved":false,"is_disabled":false,"rental_uris":{"android":"levelo://app?vid=f84da1a8-4a2f-448e-8806-43ca14a6d506","ios":"levelo://app?vid=f84da1a8-4a2f-448e-8806-43ca14a6d506"},"vehicle_type_id":"4","last_reported":1749636737,"current_range_meters":14400,"station_id":"st_cvj6sg6p6f1abm77japg","pricing_plan_id":"cebpf4jnsgd1na2vs0mg"},{"bike_id":"9231f021-d06e-4dc9-b555-e59bf1d45ecd","system_id":"levelo_inurba_marseille","lat":43.3212,"lon":5.36752,"is_reserved":false,"is_disabled":false,"rental_uris":{"android":"levelo://app?vid=9231f021-d06e-4dc9-b555-e59bf1d45ecd","ios":"levelo://app?vid=9231f021-d06e-4dc9-b555-e59bf1d45ecd"},"vehicle_type_id":"4","last_reported":1749636737,"current_range_meters":14400,"station_id":"ce4bhrh2rcd13ifvqhug","pricing_plan_id":"cebpf4jnsgd1na2vs0mg"},{"bike_id":"cb778d84-3f92-4765-9722-98e54cf373b7","system_id":"levelo_inurba_marseille","lat":43.29298,"lon":5.37452,"is_reserved":false,"is_disabled":false,"rental_uris":{"android":"levelo://app?vid=cb778d84-3f92-4765-9722-98e54cf373b7","ios":"levelo://app?vid=cb778d84-3f92-4765-9722-98e54cf373b7"},"vehicle_type_id":"4","last_reported":1749636737,"current_range_meters":15200,"station_id":"ce4bgi12rcd13ifvqb70","pricing_plan_id":"cebpf4jnsgd1na2vs0mg"},{"bike_id":"68c7cd7d-5234-4bd5-a02e-5a89ffc2fdb6","system_id":"levelo_inurba_marseille","lat":43.241757,"lon":5.39723,"is_reserved":false,"is_disabled":false,"rental_uris":{"android":"levelo://app?vid=68c7cd7d-5234-4bd5-a02e-5a89ffc2fdb6","ios":"levelo://app?vid=68c7cd7d-5234-4bd5-a02e-5a89ffc2fdb6"},"vehicle_type_id":"4","last_reported":1749636737,"current_range_meters":15200,"station_id":"ce4bhn12rcd13ifvqgpg","pricing_plan_id":"cebpf4jnsgd1na2vs0mg"},{"bike_id":"01b53ea9-5963-4456-ac52-b335e6cee31c","system_id":"levelo_inurba_marseille","lat":43.28412,"lon":5.3498,"is_reserved":false,"is_disabled":false,"rental_uris":{"android":"levelo://app?vid=01b53ea9-5963-4456-ac52-b335e6cee31c","ios":"levelo://app?vid=01b53ea9-5963-4456-ac52-b335e6cee31c"},"vehicle_type_id":"4","last_reported":1749636737,"current_range_meters":15200,"station_id":"ce4bhbh2rcd13ifvqepg","pricing_plan_id":"cebpf4jnsgd1na2vs0mg"},{"bike_id":"d6515318-ac2c-47f0-b0e4-ac5ab2c5d151","system_id":"levelo_inurba_marseille","lat":43.24165,"lon":5.36394,"is_reserved":false,"is_disabled":false,"rental_uris":{"android":"levelo://app?vid=d6515318-ac2c-47f0-b0e4-ac5ab2c5d151","ios":"levelo://app?vid=d6515318-ac2c-47f0-b0e4-ac5ab2c5d151"},"vehicle_type_id":"4","last_reported":1749636737,"current_range_meters":15200,"station_id":"cpo36qri1sfpv3e86is0","pricing_plan_id":"cebpf4jnsgd1na2vs0mg"},{"bike_id":"eaa653d4-bd1c-4bc5-890c-dbc84dccb428","system_id":"levelo_inurba_marseille","lat":43.315707,"lon":5.389368,"is_reserved":false,"is_disabled":false,"rental_uris":{"android":"levelo://app?vid=eaa653d4-bd1c-4bc5-890c-dbc84dccb428","ios":"levelo://app?vid=eaa653d4-bd1c-4bc5-890c-dbc84dccb428"},"vehicle_type_id":"4","last_reported":1749636737,"current_range_meters":15200,"station_id":"ce4bhr12rcd13ifvqhqg","pricing_plan_id":"cebpf4jnsgd1na2vs0mg"},{"bike_id":"7dc77423-20e5-4b9c-b493-4c611b7e60a9","system_id":"levelo_inurba_marseille","lat":43.295241,"lon":5.390509,"is_reserved":false,"is_disabled":false,"rental_uris":{"android":"levelo://app?vid=7dc77423-20e5-4b9c-b493-4c611b7e60a9","ios":"levelo://app?vid=7dc77423-20e5-4b9c-b493-4c611b7e60a9"},"vehicle_type_id":"4","last_reported":1749636737,"current_range_meters":15200,"station_id":"ce4bh3p2rcd13ifvqdp0","pricing_plan_id":"cebpf4jnsgd1na2vs0mg"},{"bike_id":"314bac2c-e47f-46cd-afcd-53cd84a7d142","system_id":"levelo_inurba_marseille","lat":43.27615,"lon":5.36105,"is_reserved":false,"is_disabled":true,"rental_uris":{"android":"levelo://app?vid=314bac2c-e47f-46cd-afcd-53cd84a7d142","ios":"levelo://app?vid=314bac2c-e47f-46cd-afcd-53cd84a7d142"},"vehicle_type_id":"4","last_reported":1749636737,"current_range_meters":15200,"station_id":"","pricing_plan_id":"cebpf4jnsgd1na2vs0mg"},{"bike_id":"dc6fca2e-5f1c-4ae8-aefe-7f65f0547e41","system_id":"levelo_inurba_marseille","lat":43.33789,"lon":5.37396,"is_reserved":false,"is_disabled":false,"rental_uris":{"android":"levelo://app?vid=dc6fca2e-5f1c-4ae8-aefe-7f65f0547e41","ios":"levelo://app?vid=dc6fca2e-5f1c-4ae8-aefe-7f65f0547e41"},"vehicle_type_id":"4","last_reported":1749636737,"current_range_meters":16000,"station_id":"","pricing_plan_id":"cebpf4jnsgd1na2vs0mg"},{"bike_id":"a2421370-e442-436f-a98a-844d44299694","system_id":"levelo_inurba_marseille","lat":43.32318,"lon":5.36762,"is_reserved":false,"is_disabled":false,"rental_uris":{"android":"levelo://app?vid=a2421370-e442-436f-a98a-844d44299694","ios":"levelo://app?vid=a2421370-e442-436f-a98a-844d44299694"},"vehicle_type_id":"4","last_reported":1749636737,"current_range_meters":16000,"station_id":"ce4bhsh2rcd13ifvqi2g","pricing_plan_id":"cebpf4jnsgd1na2vs0mg"},{"bike_id":"9bc15633-6564-457e-9faf-2326665a2ea7","system_id":"levelo_inurba_marseille","lat":43.33607,"lon":5.41021,"is_reserved":false,"is_disabled":false,"rental_uris":{"android":"levelo://app?vid=9bc15633-6564-457e-9faf-2326665a2ea7","ios":"levelo://app?vid=9bc15633-6564-457e-9faf-2326665a2ea7"},"vehicle_type_id":"4","last_reported":1749636737,"current_range_meters":16000,"station_id":"ce4bhqh2rcd13ifvqhmg","pricing_plan_id":"cebpf4jnsgd1na2vs0mg"},{"bike_id":"c263836e-2a5b-4685-8cfd-9bcd44ad6a3d","system_id":"levelo_inurba_marseille","lat":43.30293,"lon":5.3691,"is_reserved":false,"is_disabled":false,"rental_uris":{"android":"levelo://app?vid=c263836e-2a5b-4685-8cfd-9bcd44ad6a3d","ios":"levelo://app?vid=c263836e-2a5b-4685-8cfd-9bcd44ad6a3d"},"vehicle_type_id":"4","last_reported":1749636737,"current_range_meters":16000,"station_id":"ce4bgqh2rcd13ifvqc5g","pricing_plan_id":"cebpf4jnsgd1na2vs0mg"},{"bike_id":"6b4301fd-da9b-44ea-b9b4-e1cf2680d71c","system_id":"levelo_inurba_marseille","lat":43.29254,"lon":5.37618,"is_reserved":false,"is_disabled":false,"rental_uris":{"android":"levelo://app?vid=6b4301fd-da9b-44ea-b9b4-e1cf2680d71c","ios":"levelo://app?vid=6b4301fd-da9b-44ea-b9b4-e1cf2680d71c"},"vehicle_type_id":"4","last_reported":1749636737,"current_range_meters":16000,"station_id":"ce4bgi12rcd13ifvqb80","pricing_plan_id":"cebpf4jnsgd1na2vs0mg"},{"bike_id":"f10adc7e-6a3a-4a5d-9515-dc52fefe2058","system_id":"levelo_inurba_marseille","lat":43.3236,"lon":5.36749,"is_reserved":false,"is_disabled":false,"rental_uris":{"android":"levelo://app?vid=f10adc7e-6a3a-4a5d-9515-dc52fefe2058","ios":"levelo://app?vid=f10adc7e-6a3a-4a5d-9515-dc52fefe2058"},"vehicle_type_id":"4","last_reported":1749636737,"current_range_meters":16000,"station_id":"ce4bhsh2rcd13ifvqi2g","pricing_plan_id":"cebpf4jnsgd1na2vs0mg"},{"bike_id":"8a9640e8-1891-4f9c-9985-1df6b945d6c9","system_id":"levelo_inurba_marseille","lat":43.23186,"lon":5.35554,"is_reserved":false,"is_disabled":false,"rental_uris":{"android":"levelo://app?vid=8a9640e8-1891-4f9c-9985-1df6b945d6c9","ios":"levelo://app?vid=8a9640e8-1891-4f9c-9985-1df6b945d6c9"},"vehicle_type_id":"4","last_reported":1749636737,"current_range_meters":15200,"station_id":"ce4bhu92rcd13ifvqi70","pricing_plan_id":"cebpf4jnsgd1na2vs0mg"},{"bike_id":"a172b0cf-62c4-4c52-a818-ce564350df02","system_id":"levelo_inurba_marseille","lat":43.21224,"lon":5.35043,"is_reserved":false,"is_disabled":false,"rental_uris":{"android":"levelo://app?vid=a172b0cf-62c4-4c52-a818-ce564350df02","ios":"levelo://app?vid=a172b0cf-62c4-4c52-a818-ce564350df02"},"vehicle_type_id":"4","last_reported":1749636737,"current_range_meters":16000,"station_id":"","pricing_plan_id":"cebpf4jnsgd1na2vs0mg"},{"bike_id":"bccbe098-5f62-4001-8a4d-a07c133dda0c","system_id":"levelo_inurba_marseille","lat":43.28491,"lon":5.38412,"is_reserved":false,"is_disabled":false,"rental_uris":{"android":"levelo://app?vid=bccbe098-5f62-4001-8a4d-a07c133dda0c","ios":"levelo://app?vid=bccbe098-5f62-4001-8a4d-a07c133dda0c"},"vehicle_type_id":"4","last_reported":1749636737,"current_range_meters":16000,"station_id":"ce4bh512rcd13ifvqe3g","pricing_plan_id":"cebpf4jnsgd1na2vs0mg"},{"bike_id":"cedf8ce8-2803-4a0a-9a02-002c44bac753","system_id":"levelo_inurba_marseille","lat":43.27179,"lon":5.40994,"is_reserved":false,"is_disabled":false,"rental_uris":{"android":"levelo://app?vid=cedf8ce8-2803-4a0a-9a02-002c44bac753","ios":"levelo://app?vid=cedf8ce8-2803-4a0a-9a02-002c44bac753"},"vehicle_type_id":"4","last_reported":1749636737,"current_range_meters":16400,"station_id":"ce4bhl12rcd13ifvqgf0","pricing_plan_id":"cebpf4jnsgd1na2vs0mg"},{"bike_id":"03e99185-e778-4ccf-af48-bb80112546c3","system_id":"levelo_inurba_marseille","lat":43.26204,"lon":5.37443,"is_reserved":false,"is_disabled":false,"rental_uris":{"android":"levelo://app?vid=03e99185-e778-4ccf-af48-bb80112546c3","ios":"levelo://app?vid=03e99185-e778-4ccf-af48-bb80112546c3"},"vehicle_type_id":"4","last_reported":1749636737,"current_range_meters":16400,"station_id":"ce4bhgp2rcd13ifvqfc0","pricing_plan_id":"cebpf4jnsgd1na2vs0mg"},{"bike_id":"18ad35e9-65ea-4aeb-958c-0a03098d0b43","system_id":"levelo_inurba_marseille","lat":43.30784,"lon":5.37637,"is_reserved":false,"is_disabled":false,"rental_uris":{"android":"levelo://app?vid=18ad35e9-65ea-4aeb-958c-0a03098d0b43","ios":"levelo://app?vid=18ad35e9-65ea-4aeb-958c-0a03098d0b43"},"vehicle_type_id":"4","last_reported":1749636737,"current_range_meters":19600,"station_id":"ce4bgv92rcd13ifvqcq0","pricing_plan_id":"cebpf4jnsgd1na2vs0mg"},{"bike_id":"b1a9a8a4-dbb9-4db2-9f04-3c1f79933aad","system_id":"levelo_inurba_marseille","lat":43.23153,"lon":5.43702,"is_reserved":false,"is_disabled":false,"rental_uris":{"android":"levelo://app?vid=b1a9a8a4-dbb9-4db2-9f04-3c1f79933aad","ios":"levelo://app?vid=b1a9a8a4-dbb9-4db2-9f04-3c1f79933aad"},"vehicle_type_id":"4","last_reported":1749636737,"current_range_meters":16400,"station_id":"ce4bhmp2rcd13ifvqgog","pricing_plan_id":"cebpf4jnsgd1na2vs0mg"},{"bike_id":"74edc1dc-7a48-4483-a47b-ca5db14398e1","system_id":"levelo_inurba_marseille","lat":43.29542,"lon":5.42275,"is_reserved":false,"is_disabled":false,"rental_uris":{"android":"levelo://app?vid=74edc1dc-7a48-4483-a47b-ca5db14398e1","ios":"levelo://app?vid=74edc1dc-7a48-4483-a47b-ca5db14398e1"},"vehicle_type_id":"4","last_reported":1749636737,"current_range_meters":16400,"station_id":"ce4bhph2rcd13ifvqhdg","pricing_plan_id":"cebpf4jnsgd1na2vs0mg"},{"bike_id":"6eb39ca8-babd-403d-92f6-80e2fc126458","system_id":"levelo_inurba_marseille","lat":43.290057,"lon":5.356265,"is_reserved":false,"is_disabled":false,"rental_uris":{"android":"levelo://app?vid=6eb39ca8-babd-403d-92f6-80e2fc126458","ios":"levelo://app?vid=6eb39ca8-babd-403d-92f6-80e2fc126458"},"vehicle_type_id":"4","last_reported":1749636737,"current_range_meters":16400,"station_id":"","pricing_plan_id":"cebpf4jnsgd1na2vs0mg"},{"bike_id":"ff6779a1-4f4c-471b-ab85-6c361d5c8c03","system_id":"levelo_inurba_marseille","lat":43.313536,"lon":5.36717,"is_reserved":false,"is_disabled":false,"rental_uris":{"android":"levelo://app?vid=ff6779a1-4f4c-471b-ab85-6c361d5c8c03","ios":"levelo://app?vid=ff6779a1-4f4c-471b-ab85-6c361d5c8c03"},"vehicle_type_id":"4","last_reported":1749636737,"current_range_meters":16400,"station_id":"ce4bgr92rcd13ifvqc6g","pricing_plan_id":"cebpf4jnsgd1na2vs0mg"},{"bike_id":"54265529-c802-41ea-a434-8efe037aed4d","system_id":"levelo_inurba_marseille","lat":43.28424,"lon":5.34983,"is_reserved":false,"is_disabled":false,"rental_uris":{"android":"levelo://app?vid=54265529-c802-41ea-a434-8efe037aed4d","ios":"levelo://app?vid=54265529-c802-41ea-a434-8efe037aed4d"},"vehicle_type_id":"4","last_reported":1749636737,"current_range_meters":16800,"station_id":"ce4bhbh2rcd13ifvqepg","pricing_plan_id":"cebpf4jnsgd1na2vs0mg"},{"bike_id":"be7a325d-66cb-45d0-9c0d-a7fc5fc6ceb9","system_id":"levelo_inurba_marseille","lat":43.23959,"lon":5.36643,"is_reserved":false,"is_disabled":false,"rental_uris":{"android":"levelo://app?vid=be7a325d-66cb-45d0-9c0d-a7fc5fc6ceb9","ios":"levelo://app?vid=be7a325d-66cb-45d0-9c0d-a7fc5fc6ceb9"},"vehicle_type_id":"4","last_reported":1749636737,"current_range_meters":16800,"station_id":"ce4bhi12rcd13ifvqfp0","pricing_plan_id":"cebpf4jnsgd1na2vs0mg"},{"bike_id":"064fcc0e-c614-4e46-ad35-3eaadb004b47","system_id":"levelo_inurba_marseille","lat":43.27081,"lon":5.42245,"is_reserved":false,"is_disabled":false,"rental_uris":{"android":"levelo://app?vid=064fcc0e-c614-4e46-ad35-3eaadb004b47","ios":"levelo://app?vid=064fcc0e-c614-4e46-ad35-3eaadb004b47"},"vehicle_type_id":"4","last_reported":1749636737,"current_range_meters":16800,"station_id":"ce4bhk92rcd13ifvqgb0","pricing_plan_id":"cebpf4jnsgd1na2vs0mg"},{"bike_id":"ba74330e-e7e1-47b7-aac8-f61ede63b89c","system_id":"levelo_inurba_marseille","lat":43.28151,"lon":5.4263,"is_reserved":false,"is_disabled":false,"rental_uris":{"android":"levelo://app?vid=ba74330e-e7e1-47b7-aac8-f61ede63b89c","ios":"levelo://app?vid=ba74330e-e7e1-47b7-aac8-f61ede63b89c"},"vehicle_type_id":"4","last_reported":1749636737,"current_range_meters":16800,"station_id":"ce4bhnh2rcd13ifvqgug","pricing_plan_id":"cebpf4jnsgd1na2vs0mg"},{"bike_id":"6baf2f33-09c2-4d97-ac8c-1794ccea1a0a","system_id":"levelo_inurba_marseille","lat":43.28268,"lon":5.35068,"is_reserved":false,"is_disabled":false,"rental_uris":{"android":"levelo://app?vid=6baf2f33-09c2-4d97-ac8c-1794ccea1a0a","ios":"levelo://app?vid=6baf2f33-09c2-4d97-ac8c-1794ccea1a0a"},"vehicle_type_id":"4","last_reported":1749636737,"current_range_meters":18000,"station_id":"ce4bhbp2rcd13ifvqerg","pricing_plan_id":"cebpf4jnsgd1na2vs0mg"},{"bike_id":"2a471939-28b8-4680-9f3a-e29f61a44ac8","system_id":"levelo_inurba_marseille","lat":43.29845,"lon":5.36257,"is_reserved":false,"is_disabled":false,"rental_uris":{"android":"levelo://app?vid=2a471939-28b8-4680-9f3a-e29f61a44ac8","ios":"levelo://app?vid=2a471939-28b8-4680-9f3a-e29f61a44ac8"},"vehicle_type_id":"4","last_reported":1749636737,"current_range_meters":17200,"station_id":"ce4bgpp2rcd13ifvqc3g","pricing_plan_id":"cebpf4jnsgd1na2vs0mg"},{"bike_id":"ab2d59af-a99d-4abf-9669-430aa3213d6e","system_id":"levelo_inurba_marseille","lat":43.28935,"lon":5.36636,"is_reserved":false,"is_disabled":false,"rental_uris":{"android":"levelo://app?vid=ab2d59af-a99d-4abf-9669-430aa3213d6e","ios":"levelo://app?vid=ab2d59af-a99d-4abf-9669-430aa3213d6e"},"vehicle_type_id":"4","last_reported":1749636737,"current_range_meters":17200,"station_id":"ce4bhap2rcd13ifvqek0","pricing_plan_id":"cebpf4jnsgd1na2vs0mg"},{"bike_id":"772f2786-27c5-4c83-a532-1faa0a9ec254","system_id":"levelo_inurba_marseille","lat":43.26199,"lon":5.37935,"is_reserved":false,"is_disabled":false,"rental_uris":{"android":"levelo://app?vid=772f2786-27c5-4c83-a532-1faa0a9ec254","ios":"levelo://app?vid=772f2786-27c5-4c83-a532-1faa0a9ec254"},"vehicle_type_id":"4","last_reported":1749636737,"current_range_meters":17200,"station_id":"ce4bhjp2rcd13ifvqg90","pricing_plan_id":"cebpf4jnsgd1na2vs0mg"},{"bike_id":"1e3e74e7-cdc8-402c-a928-6483f5d403b0","system_id":"levelo_inurba_marseille","lat":43.29058,"lon":5.37761,"is_reserved":false,"is_disabled":false,"rental_uris":{"android":"levelo://app?vid=1e3e74e7-cdc8-402c-a928-6483f5d403b0","ios":"levelo://app?vid=1e3e74e7-cdc8-402c-a928-6483f5d403b0"},"vehicle_type_id":"4","last_reported":1749636737,"current_range_meters":17200,"station_id":"","pricing_plan_id":"cebpf4jnsgd1na2vs0mg"},{"bike_id":"67fa702e-a62c-448f-a00f-ab0bd7c8a233","system_id":"levelo_inurba_marseille","lat":43.24993,"lon":5.38932,"is_reserved":false,"is_disabled":false,"rental_uris":{"android":"levelo://app?vid=67fa702e-a62c-448f-a00f-ab0bd7c8a233","ios":"levelo://app?vid=67fa702e-a62c-448f-a00f-ab0bd7c8a233"},"vehicle_type_id":"4","last_reported":1749636737,"current_range_meters":17200,"station_id":"ce4bhgp2rcd13ifvqfd0","pricing_plan_id":"cebpf4jnsgd1na2vs0mg"},{"bike_id":"71d23069-4b53-4c59-89de-c54de3aeb2cf","system_id":"levelo_inurba_marseille","lat":43.24574,"lon":5.41593,"is_reserved":false,"is_disabled":false,"rental_uris":{"android":"levelo://app?vid=71d23069-4b53-4c59-89de-c54de3aeb2cf","ios":"levelo://app?vid=71d23069-4b53-4c59-89de-c54de3aeb2cf"},"vehicle_type_id":"4","last_reported":1749636737,"current_range_meters":17200,"station_id":"","pricing_plan_id":"cebpf4jnsgd1na2vs0mg"},{"bike_id":"707fb64a-4983-4a34-ade7-ee60c8e43453","system_id":"levelo_inurba_marseille","lat":43.2316,"lon":5.43644,"is_reserved":false,"is_disabled":false,"rental_uris":{"android":"levelo://app?vid=707fb64a-4983-4a34-ade7-ee60c8e43453","ios":"levelo://app?vid=707fb64a-4983-4a34-ade7-ee60c8e43453"},"vehicle_type_id":"4","last_reported":1749636737,"current_range_meters":17200,"station_id":"ce4bhmp2rcd13ifvqgog","pricing_plan_id":"cebpf4jnsgd1na2vs0mg"},{"bike_id":"04f107b7-020e-49a3-8513-6c594c244cad","system_id":"levelo_inurba_marseille","lat":43.31375,"lon":5.38502,"is_reserved":false,"is_disabled":false,"rental_uris":{"android":"levelo://app?vid=04f107b7-020e-49a3-8513-6c594c244cad","ios":"levelo://app?vid=04f107b7-020e-49a3-8513-6c594c244cad"},"vehicle_type_id":"4","last_reported":1749636737,"current_range_meters":17200,"station_id":"ce4bgt92rcd13ifvqcf0","pricing_plan_id":"cebpf4jnsgd1na2vs0mg"},{"bike_id":"26188140-1807-466a-b47c-9cde473e1f96","system_id":"levelo_inurba_marseille","lat":43.29992,"lon":5.37176,"is_reserved":false,"is_disabled":false,"rental_uris":{"android":"levelo://app?vid=26188140-1807-466a-b47c-9cde473e1f96","ios":"levelo://app?vid=26188140-1807-466a-b47c-9cde473e1f96"},"vehicle_type_id":"4","last_reported":1749636737,"current_range_meters":17200,"station_id":"ce4bgr92rcd13ifvqc7g","pricing_plan_id":"cebpf4jnsgd1na2vs0mg"},{"bike_id":"638b9117-c70b-47a3-9192-610d8a8acdda","system_id":"levelo_inurba_marseille","lat":43.29891,"lon":5.43654,"is_reserved":false,"is_disabled":false,"rental_uris":{"android":"levelo://app?vid=638b9117-c70b-47a3-9192-610d8a8acdda","ios":"levelo://app?vid=638b9117-c70b-47a3-9192-610d8a8acdda"},"vehicle_type_id":"4","last_reported":1749636737,"current_range_meters":17600,"station_id":"ce4bhpp2rcd13ifvqhfg","pricing_plan_id":"cebpf4jnsgd1na2vs0mg"},{"bike_id":"421c7be3-9120-4355-bb79-af60b1bee98a","system_id":"levelo_inurba_marseille","lat":43.284508,"lon":5.358908,"is_reserved":false,"is_disabled":false,"rental_uris":{"android":"levelo://app?vid=421c7be3-9120-4355-bb79-af60b1bee98a","ios":"levelo://app?vid=421c7be3-9120-4355-bb79-af60b1bee98a"},"vehicle_type_id":"4","last_reported":1749636737,"current_range_meters":17600,"station_id":"ce4bhah2rcd13ifvqei0","pricing_plan_id":"cebpf4jnsgd1na2vs0mg"},{"bike_id":"32b62a51-6893-43fc-a047-9897e164dcd4","system_id":"levelo_inurba_marseille","lat":43.31776,"lon":5.37776,"is_reserved":false,"is_disabled":false,"rental_uris":{"android":"levelo://app?vid=32b62a51-6893-43fc-a047-9897e164dcd4","ios":"levelo://app?vid=32b62a51-6893-43fc-a047-9897e164dcd4"},"vehicle_type_id":"4","last_reported":1749636737,"current_range_meters":17600,"station_id":"","pricing_plan_id":"cebpf4jnsgd1na2vs0mg"},{"bike_id":"7b1cfe02-109e-4836-ae59-8aad9c4f2698","system_id":"levelo_inurba_marseille","lat":43.32336,"lon":5.40634,"is_reserved":false,"is_disabled":false,"rental_uris":{"android":"levelo://app?vid=7b1cfe02-109e-4836-ae59-8aad9c4f2698","ios":"levelo://app?vid=7b1cfe02-109e-4836-ae59-8aad9c4f2698"},"vehicle_type_id":"4","last_reported":1749636737,"current_range_meters":17600,"station_id":"ce4bhq92rcd13ifvqhjg","pricing_plan_id":"cebpf4jnsgd1na2vs0mg"},{"bike_id":"165ecccf-321b-45ee-abfd-553d9801aac0","system_id":"levelo_inurba_marseille","lat":43.29053,"lon":5.35571,"is_reserved":false,"is_disabled":false,"rental_uris":{"android":"levelo://app?vid=165ecccf-321b-45ee-abfd-553d9801aac0","ios":"levelo://app?vid=165ecccf-321b-45ee-abfd-553d9801aac0"},"vehicle_type_id":"4","last_reported":1749636737,"current_range_meters":17600,"station_id":"","pricing_plan_id":"cebpf4jnsgd1na2vs0mg"},{"bike_id":"99ccb411-d7f9-4fcb-b612-4d8582e16182","system_id":"levelo_inurba_marseille","lat":43.337272,"lon":5.391849,"is_reserved":false,"is_disabled":false,"rental_uris":{"android":"levelo://app?vid=99ccb411-d7f9-4fcb-b612-4d8582e16182","ios":"levelo://app?vid=99ccb411-d7f9-4fcb-b612-4d8582e16182"},"vehicle_type_id":"4","last_reported":1749636737,"current_range_meters":17600,"station_id":"ce4bhr92rcd13ifvqhsg","pricing_plan_id":"cebpf4jnsgd1na2vs0mg"},{"bike_id":"415d307a-18cd-4efb-a2ea-509f707e5bc8","system_id":"levelo_inurba_marseille","lat":43.309514,"lon":5.39036,"is_reserved":false,"is_disabled":false,"rental_uris":{"android":"levelo://app?vid=415d307a-18cd-4efb-a2ea-509f707e5bc8","ios":"levelo://app?vid=415d307a-18cd-4efb-a2ea-509f707e5bc8"},"vehicle_type_id":"4","last_reported":1749636737,"current_range_meters":17600,"station_id":"ce4bghh2rcd13ifvqb60","pricing_plan_id":"cebpf4jnsgd1na2vs0mg"},{"bike_id":"136a956b-c67e-4ee7-bafc-f4953a39f893","system_id":"levelo_inurba_marseille","lat":43.25125,"lon":5.39634,"is_reserved":false,"is_disabled":false,"rental_uris":{"android":"levelo://app?vid=136a956b-c67e-4ee7-bafc-f4953a39f893","ios":"levelo://app?vid=136a956b-c67e-4ee7-bafc-f4953a39f893"},"vehicle_type_id":"4","last_reported":1749636737,"current_range_meters":18000,"station_id":"","pricing_plan_id":"cebpf4jnsgd1na2vs0mg"},{"bike_id":"8d4182e4-ebdd-4608-9457-fd3a4c2f8581","system_id":"levelo_inurba_marseille","lat":43.241734,"lon":5.397196,"is_reserved":false,"is_disabled":false,"rental_uris":{"android":"levelo://app?vid=8d4182e4-ebdd-4608-9457-fd3a4c2f8581","ios":"levelo://app?vid=8d4182e4-ebdd-4608-9457-fd3a4c2f8581"},"vehicle_type_id":"4","last_reported":1749636737,"current_range_meters":18000,"station_id":"ce4bhn12rcd13ifvqgpg","pricing_plan_id":"cebpf4jnsgd1na2vs0mg"},{"bike_id":"922072d7-7611-49cc-b5c9-cfe6384b3d08","system_id":"levelo_inurba_marseille","lat":43.30551,"lon":5.36508,"is_reserved":false,"is_disabled":false,"rental_uris":{"android":"levelo://app?vid=922072d7-7611-49cc-b5c9-cfe6384b3d08","ios":"levelo://app?vid=922072d7-7611-49cc-b5c9-cfe6384b3d08"},"vehicle_type_id":"4","last_reported":1749636737,"current_range_meters":18000,"station_id":"ce4bgs12rcd13ifvqcag","pricing_plan_id":"cebpf4jnsgd1na2vs0mg"},{"bike_id":"a5780e05-0cb9-498f-833b-d09a36dfc72e","system_id":"levelo_inurba_marseille","lat":43.282687,"lon":5.350623,"is_reserved":false,"is_disabled":false,"rental_uris":{"android":"levelo://app?vid=a5780e05-0cb9-498f-833b-d09a36dfc72e","ios":"levelo://app?vid=a5780e05-0cb9-498f-833b-d09a36dfc72e"},"vehicle_type_id":"4","last_reported":1749636737,"current_range_meters":17200,"station_id":"ce4bhbp2rcd13ifvqerg","pricing_plan_id":"cebpf4jnsgd1na2vs0mg"},{"bike_id":"1eed25dd-4baf-402c-a1b6-73ce22e3066e","system_id":"levelo_inurba_marseille","lat":43.299255,"lon":5.385259,"is_reserved":false,"is_disabled":false,"rental_uris":{"android":"levelo://app?vid=1eed25dd-4baf-402c-a1b6-73ce22e3066e","ios":"levelo://app?vid=1eed25dd-4baf-402c-a1b6-73ce22e3066e"},"vehicle_type_id":"4","last_reported":1749636737,"current_range_meters":18000,"station_id":"","pricing_plan_id":"cebpf4jnsgd1na2vs0mg"},{"bike_id":"27c3ce4c-2f83-41ff-abde-3fb4e2e068fb","system_id":"levelo_inurba_marseille","lat":43.30985,"lon":5.37465,"is_reserved":false,"is_disabled":false,"rental_uris":{"android":"levelo://app?vid=27c3ce4c-2f83-41ff-abde-3fb4e2e068fb","ios":"levelo://app?vid=27c3ce4c-2f83-41ff-abde-3fb4e2e068fb"},"vehicle_type_id":"4","last_reported":1749636737,"current_range_meters":18000,"station_id":"","pricing_plan_id":"cebpf4jnsgd1na2vs0mg"},{"bike_id":"4c1afe04-ecbc-437f-b3a2-a37f94fa713f","system_id":"levelo_inurba_marseille","lat":43.288478,"lon":5.393093,"is_reserved":false,"is_disabled":false,"rental_uris":{"android":"levelo://app?vid=4c1afe04-ecbc-437f-b3a2-a37f94fa713f","ios":"levelo://app?vid=4c1afe04-ecbc-437f-b3a2-a37f94fa713f"},"vehicle_type_id":"4","last_reported":1749636737,"current_range_meters":18800,"station_id":"ce4bh2p2rcd13ifvqdi0","pricing_plan_id":"cebpf4jnsgd1na2vs0mg"},{"bike_id":"1a3b0ef4-fd99-41cb-bbbe-2863e96b819d","system_id":"levelo_inurba_marseille","lat":43.3135,"lon":5.36688,"is_reserved":false,"is_disabled":false,"rental_uris":{"android":"levelo://app?vid=1a3b0ef4-fd99-41cb-bbbe-2863e96b819d","ios":"levelo://app?vid=1a3b0ef4-fd99-41cb-bbbe-2863e96b819d"},"vehicle_type_id":"4","last_reported":1749636737,"current_range_meters":18800,"station_id":"ce4bgr92rcd13ifvqc6g","pricing_plan_id":"cebpf4jnsgd1na2vs0mg"},{"bike_id":"d0f5fd5e-82d0-4068-b904-613e884eaef5","system_id":"levelo_inurba_marseille","lat":43.28252,"lon":5.35054,"is_reserved":false,"is_disabled":false,"rental_uris":{"android":"levelo://app?vid=d0f5fd5e-82d0-4068-b904-613e884eaef5","ios":"levelo://app?vid=d0f5fd5e-82d0-4068-b904-613e884eaef5"},"vehicle_type_id":"4","last_reported":1749636737,"current_range_meters":19200,"station_id":"ce4bhbp2rcd13ifvqerg","pricing_plan_id":"cebpf4jnsgd1na2vs0mg"},{"bike_id":"2a4f8301-4735-4533-bd97-3063e36eb292","system_id":"levelo_inurba_marseille","lat":43.25823,"lon":5.39401,"is_reserved":false,"is_disabled":false,"rental_uris":{"android":"levelo://app?vid=2a4f8301-4735-4533-bd97-3063e36eb292","ios":"levelo://app?vid=2a4f8301-4735-4533-bd97-3063e36eb292"},"vehicle_type_id":"4","last_reported":1749636737,"current_range_meters":18800,"station_id":"ce4bhip2rcd13ifvqft0","pricing_plan_id":"cebpf4jnsgd1na2vs0mg"},{"bike_id":"1b986ab5-899b-45c0-ae8f-5234203e90af","system_id":"levelo_inurba_marseille","lat":43.32122,"lon":5.36754,"is_reserved":false,"is_disabled":false,"rental_uris":{"android":"levelo://app?vid=1b986ab5-899b-45c0-ae8f-5234203e90af","ios":"levelo://app?vid=1b986ab5-899b-45c0-ae8f-5234203e90af"},"vehicle_type_id":"4","last_reported":1749636737,"current_range_meters":19200,"station_id":"ce4bhrh2rcd13ifvqhug","pricing_plan_id":"cebpf4jnsgd1na2vs0mg"},{"bike_id":"f98dbaaf-bb20-4eb4-a2be-47b27e060e6b","system_id":"levelo_inurba_marseille","lat":43.31048,"lon":5.38359,"is_reserved":false,"is_disabled":false,"rental_uris":{"android":"levelo://app?vid=f98dbaaf-bb20-4eb4-a2be-47b27e060e6b","ios":"levelo://app?vid=f98dbaaf-bb20-4eb4-a2be-47b27e060e6b"},"vehicle_type_id":"4","last_reported":1749636737,"current_range_meters":19200,"station_id":"ce4bgv92rcd13ifvqcr0","pricing_plan_id":"cebpf4jnsgd1na2vs0mg"},{"bike_id":"b21450a4-463f-4eb5-a5b1-a818c0abb90a","system_id":"levelo_inurba_marseille","lat":43.29899,"lon":5.43661,"is_reserved":false,"is_disabled":false,"rental_uris":{"android":"levelo://app?vid=b21450a4-463f-4eb5-a5b1-a818c0abb90a","ios":"levelo://app?vid=b21450a4-463f-4eb5-a5b1-a818c0abb90a"},"vehicle_type_id":"4","last_reported":1749636737,"current_range_meters":19200,"station_id":"ce4bhpp2rcd13ifvqhfg","pricing_plan_id":"cebpf4jnsgd1na2vs0mg"},{"bike_id":"0207293a-a3b2-4296-92d4-1a624b173f1c","system_id":"levelo_inurba_marseille","lat":43.284556,"lon":5.358908,"is_reserved":false,"is_disabled":false,"rental_uris":{"android":"levelo://app?vid=0207293a-a3b2-4296-92d4-1a624b173f1c","ios":"levelo://app?vid=0207293a-a3b2-4296-92d4-1a624b173f1c"},"vehicle_type_id":"4","last_reported":1749636737,"current_range_meters":19200,"station_id":"ce4bhah2rcd13ifvqei0","pricing_plan_id":"cebpf4jnsgd1na2vs0mg"},{"bike_id":"50490822-204a-4b19-9af8-0374c540b273","system_id":"levelo_inurba_marseille","lat":43.30887,"lon":5.3719,"is_reserved":false,"is_disabled":false,"rental_uris":{"android":"levelo://app?vid=50490822-204a-4b19-9af8-0374c540b273","ios":"levelo://app?vid=50490822-204a-4b19-9af8-0374c540b273"},"vehicle_type_id":"4","last_reported":1749636737,"current_range_meters":19200,"station_id":"ce4bguh2rcd13ifvqckg","pricing_plan_id":"cebpf4jnsgd1na2vs0mg"},{"bike_id":"55e83d7a-8994-48a7-8cb9-e7efa8fb8dde","system_id":"levelo_inurba_marseille","lat":43.23149,"lon":5.43726,"is_reserved":false,"is_disabled":false,"rental_uris":{"android":"levelo://app?vid=55e83d7a-8994-48a7-8cb9-e7efa8fb8dde","ios":"levelo://app?vid=55e83d7a-8994-48a7-8cb9-e7efa8fb8dde"},"vehicle_type_id":"4","last_reported":1749636737,"current_range_meters":19200,"station_id":"ce4bhmp2rcd13ifvqgog","pricing_plan_id":"cebpf4jnsgd1na2vs0mg"},{"bike_id":"54a824b7-27fe-4168-b6f1-04571f6f89fd","system_id":"levelo_inurba_marseille","lat":43.250042,"lon":5.389285,"is_reserved":false,"is_disabled":false,"rental_uris":{"android":"levelo://app?vid=54a824b7-27fe-4168-b6f1-04571f6f89fd","ios":"levelo://app?vid=54a824b7-27fe-4168-b6f1-04571f6f89fd"},"vehicle_type_id":"4","last_reported":1749636737,"current_range_meters":19600,"station_id":"ce4bhgp2rcd13ifvqfd0","pricing_plan_id":"cebpf4jnsgd1na2vs0mg"},{"bike_id":"0db40102-158a-42a7-9960-74ab1bdde2a2","system_id":"levelo_inurba_marseille","lat":43.30732,"lon":5.37294,"is_reserved":false,"is_disabled":false,"rental_uris":{"android":"levelo://app?vid=0db40102-158a-42a7-9960-74ab1bdde2a2","ios":"levelo://app?vid=0db40102-158a-42a7-9960-74ab1bdde2a2"},"vehicle_type_id":"4","last_reported":1749636737,"current_range_meters":19600,"station_id":"","pricing_plan_id":"cebpf4jnsgd1na2vs0mg"},{"bike_id":"5052172b-50e7-43e9-ab91-ceffc936f635","system_id":"levelo_inurba_marseille","lat":43.266785,"lon":5.382628,"is_reserved":false,"is_disabled":true,"rental_uris":{"android":"levelo://app?vid=5052172b-50e7-43e9-ab91-ceffc936f635","ios":"levelo://app?vid=5052172b-50e7-43e9-ab91-ceffc936f635"},"vehicle_type_id":"4","last_reported":1749636737,"current_range_meters":19600,"station_id":"ce4bhgh2rcd13ifvqfa0","pricing_plan_id":"cebpf4jnsgd1na2vs0mg"},{"bike_id":"decb25aa-37a7-4b82-9642-e41e086071da","system_id":"levelo_inurba_marseille","lat":43.288804,"lon":5.394262,"is_reserved":false,"is_disabled":false,"rental_uris":{"android":"levelo://app?vid=decb25aa-37a7-4b82-9642-e41e086071da","ios":"levelo://app?vid=decb25aa-37a7-4b82-9642-e41e086071da"},"vehicle_type_id":"4","last_reported":1749636737,"current_range_meters":19600,"station_id":"ce4bh2p2rcd13ifvqdi0","pricing_plan_id":"cebpf4jnsgd1na2vs0mg"},{"bike_id":"db782a7f-0599-41c1-84cb-020155875a8b","system_id":"levelo_inurba_marseille","lat":43.28457,"lon":5.35896,"is_reserved":false,"is_disabled":false,"rental_uris":{"android":"levelo://app?vid=db782a7f-0599-41c1-84cb-020155875a8b","ios":"levelo://app?vid=db782a7f-0599-41c1-84cb-020155875a8b"},"vehicle_type_id":"4","last_reported":1749636737,"current_range_meters":19600,"station_id":"ce4bhah2rcd13ifvqei0","pricing_plan_id":"cebpf4jnsgd1na2vs0mg"},{"bike_id":"2a7344b5-7126-4cc1-bbd1-a9bb0e44b7bd","system_id":"levelo_inurba_marseille","lat":43.23051,"lon":5.35485,"is_reserved":false,"is_disabled":false,"rental_uris":{"android":"levelo://app?vid=2a7344b5-7126-4cc1-bbd1-a9bb0e44b7bd","ios":"levelo://app?vid=2a7344b5-7126-4cc1-bbd1-a9bb0e44b7bd"},"vehicle_type_id":"4","last_reported":1749636737,"current_range_meters":19600,"station_id":"cpo3342slgdg3j2ifvpg","pricing_plan_id":"cebpf4jnsgd1na2vs0mg"},{"bike_id":"3f091ab2-d036-4a00-b99c-c40a7c14c235","system_id":"levelo_inurba_marseille","lat":43.32414,"lon":5.36541,"is_reserved":false,"is_disabled":false,"rental_uris":{"android":"levelo://app?vid=3f091ab2-d036-4a00-b99c-c40a7c14c235","ios":"levelo://app?vid=3f091ab2-d036-4a00-b99c-c40a7c14c235"},"vehicle_type_id":"4","last_reported":1749636737,"current_range_meters":19600,"station_id":"","pricing_plan_id":"cebpf4jnsgd1na2vs0mg"},{"bike_id":"f9ba2e76-62e9-4c4d-8d9c-0342e60cf9b9","system_id":"levelo_inurba_marseille","lat":43.273691,"lon":5.362479,"is_reserved":false,"is_disabled":false,"rental_uris":{"android":"levelo://app?vid=f9ba2e76-62e9-4c4d-8d9c-0342e60cf9b9","ios":"levelo://app?vid=f9ba2e76-62e9-4c4d-8d9c-0342e60cf9b9"},"vehicle_type_id":"4","last_reported":1749636737,"current_range_meters":19600,"station_id":"ce4bhbh2rcd13ifvqeo0","pricing_plan_id":"cebpf4jnsgd1na2vs0mg"},{"bike_id":"3db8fde5-dc25-47f9-adb5-1429f5338e31","system_id":"levelo_inurba_marseille","lat":43.31776,"lon":5.38467,"is_reserved":false,"is_disabled":false,"rental_uris":{"android":"levelo://app?vid=3db8fde5-dc25-47f9-adb5-1429f5338e31","ios":"levelo://app?vid=3db8fde5-dc25-47f9-adb5-1429f5338e31"},"vehicle_type_id":"4","last_reported":1749636737,"current_range_meters":19600,"station_id":"","pricing_plan_id":"cebpf4jnsgd1na2vs0mg"},{"bike_id":"e6a78f94-18b2-4763-b4db-e3f6c79d1285","system_id":"levelo_inurba_marseille","lat":43.29045,"lon":5.35898,"is_reserved":false,"is_disabled":false,"rental_uris":{"android":"levelo://app?vid=e6a78f94-18b2-4763-b4db-e3f6c79d1285","ios":"levelo://app?vid=e6a78f94-18b2-4763-b4db-e3f6c79d1285"},"vehicle_type_id":"4","last_reported":1749636737,"current_range_meters":20000,"station_id":"ce4bha92rcd13ifvqeg0","pricing_plan_id":"cebpf4jnsgd1na2vs0mg"},{"bike_id":"883b53be-ed06-43a3-8707-d9dac2fe7060","system_id":"levelo_inurba_marseille","lat":43.30923,"lon":5.4017,"is_reserved":false,"is_disabled":false,"rental_uris":{"android":"levelo://app?vid=883b53be-ed06-43a3-8707-d9dac2fe7060","ios":"levelo://app?vid=883b53be-ed06-43a3-8707-d9dac2fe7060"},"vehicle_type_id":"4","last_reported":1749636737,"current_range_meters":20000,"station_id":"ce4bgvp2rcd13ifvqct0","pricing_plan_id":"cebpf4jnsgd1na2vs0mg"},{"bike_id":"ae1e9dde-1603-4c30-a3df-8158a732bf3f","system_id":"levelo_inurba_marseille","lat":43.29575,"lon":5.36742,"is_reserved":false,"is_disabled":false,"rental_uris":{"android":"levelo://app?vid=ae1e9dde-1603-4c30-a3df-8158a732bf3f","ios":"levelo://app?vid=ae1e9dde-1603-4c30-a3df-8158a732bf3f"},"vehicle_type_id":"4","last_reported":1749636737,"current_range_meters":19600,"station_id":"ce4bgph2rcd13ifvqc2g","pricing_plan_id":"cebpf4jnsgd1na2vs0mg"},{"bike_id":"4e7089d6-5395-4d87-abe0-209a633ac978","system_id":"levelo_inurba_marseille","lat":43.286147,"lon":5.351034,"is_reserved":false,"is_disabled":false,"rental_uris":{"android":"levelo://app?vid=4e7089d6-5395-4d87-abe0-209a633ac978","ios":"levelo://app?vid=4e7089d6-5395-4d87-abe0-209a633ac978"},"vehicle_type_id":"4","last_reported":1749636737,"current_range_meters":20000,"station_id":"ce4bhch2rcd13ifvqeug","pricing_plan_id":"cebpf4jnsgd1na2vs0mg"},{"bike_id":"7003b93c-725d-412e-9127-fbade718cbc3","system_id":"levelo_inurba_marseille","lat":43.21198,"lon":5.35055,"is_reserved":false,"is_disabled":false,"rental_uris":{"android":"levelo://app?vid=7003b93c-725d-412e-9127-fbade718cbc3","ios":"levelo://app?vid=7003b93c-725d-412e-9127-fbade718cbc3"},"vehicle_type_id":"4","last_reported":1749636737,"current_range_meters":20000,"station_id":"st_cvj6sg6p6f1abm77japg","pricing_plan_id":"cebpf4jnsgd1na2vs0mg"},{"bike_id":"e0249f4b-8d8b-4dc7-a224-9ea697947c37","system_id":"levelo_inurba_marseille","lat":43.31719,"lon":5.4239,"is_reserved":false,"is_disabled":false,"rental_uris":{"android":"levelo://app?vid=e0249f4b-8d8b-4dc7-a224-9ea697947c37","ios":"levelo://app?vid=e0249f4b-8d8b-4dc7-a224-9ea697947c37"},"vehicle_type_id":"4","last_reported":1749636737,"current_range_meters":20400,"station_id":"ce4bhp92rcd13ifvqhbg","pricing_plan_id":"cebpf4jnsgd1na2vs0mg"},{"bike_id":"11926c67-c581-4a5d-8203-15313e951bcf","system_id":"levelo_inurba_marseille","lat":43.21746,"lon":5.34594,"is_reserved":false,"is_disabled":false,"rental_uris":{"android":"levelo://app?vid=11926c67-c581-4a5d-8203-15313e951bcf","ios":"levelo://app?vid=11926c67-c581-4a5d-8203-15313e951bcf"},"vehicle_type_id":"4","last_reported":1749636737,"current_range_meters":20000,"station_id":"","pricing_plan_id":"cebpf4jnsgd1na2vs0mg"},{"bike_id":"8d4db333-8f56-4254-a969-2ac3bd80d2ab","system_id":"levelo_inurba_marseille","lat":43.30562,"lon":5.3656,"is_reserved":false,"is_disabled":false,"rental_uris":{"android":"levelo://app?vid=8d4db333-8f56-4254-a969-2ac3bd80d2ab","ios":"levelo://app?vid=8d4db333-8f56-4254-a969-2ac3bd80d2ab"},"vehicle_type_id":"4","last_reported":1749636737,"current_range_meters":20000,"station_id":"ce4bgs12rcd13ifvqcag","pricing_plan_id":"cebpf4jnsgd1na2vs0mg"},{"bike_id":"3f721d0a-a8f4-479e-aaa6-6ed8f7b1d35e","system_id":"levelo_inurba_marseille","lat":43.26207,"lon":5.37923,"is_reserved":false,"is_disabled":true,"rental_uris":{"android":"levelo://app?vid=3f721d0a-a8f4-479e-aaa6-6ed8f7b1d35e","ios":"levelo://app?vid=3f721d0a-a8f4-479e-aaa6-6ed8f7b1d35e"},"vehicle_type_id":"4","last_reported":1749636737,"current_range_meters":20400,"station_id":"ce4bhjp2rcd13ifvqg90","pricing_plan_id":"cebpf4jnsgd1na2vs0mg"},{"bike_id":"80c4481f-3a94-40c5-bcb5-c1363c06279d","system_id":"levelo_inurba_marseille","lat":43.25962,"lon":5.40905,"is_reserved":false,"is_disabled":true,"rental_uris":{"android":"levelo://app?vid=80c4481f-3a94-40c5-bcb5-c1363c06279d","ios":"levelo://app?vid=80c4481f-3a94-40c5-bcb5-c1363c06279d"},"vehicle_type_id":"4","last_reported":1749636737,"current_range_meters":20400,"station_id":"ce4bhm92rcd13ifvqglg","pricing_plan_id":"cebpf4jnsgd1na2vs0mg"},{"bike_id":"98855dfb-7f1a-4ad2-b5c8-6854d863a5f3","system_id":"levelo_inurba_marseille","lat":43.281562,"lon":5.426431,"is_reserved":false,"is_disabled":false,"rental_uris":{"android":"levelo://app?vid=98855dfb-7f1a-4ad2-b5c8-6854d863a5f3","ios":"levelo://app?vid=98855dfb-7f1a-4ad2-b5c8-6854d863a5f3"},"vehicle_type_id":"4","last_reported":1749636737,"current_range_meters":20400,"station_id":"ce4bhnh2rcd13ifvqgug","pricing_plan_id":"cebpf4jnsgd1na2vs0mg"},{"bike_id":"4be7e622-4632-4d18-bed7-fe350bbdbbb7","system_id":"levelo_inurba_marseille","lat":43.29625,"lon":5.40597,"is_reserved":false,"is_disabled":false,"rental_uris":{"android":"levelo://app?vid=4be7e622-4632-4d18-bed7-fe350bbdbbb7","ios":"levelo://app?vid=4be7e622-4632-4d18-bed7-fe350bbdbbb7"},"vehicle_type_id":"4","last_reported":1749636737,"current_range_meters":20400,"station_id":"ce4bh0h2rcd13ifvqd60","pricing_plan_id":"cebpf4jnsgd1na2vs0mg"},{"bike_id":"3cb0af7c-994a-4b71-98dc-211ebea626ad","system_id":"levelo_inurba_marseille","lat":43.32308,"lon":5.36668,"is_reserved":false,"is_disabled":false,"rental_uris":{"android":"levelo://app?vid=3cb0af7c-994a-4b71-98dc-211ebea626ad","ios":"levelo://app?vid=3cb0af7c-994a-4b71-98dc-211ebea626ad"},"vehicle_type_id":"4","last_reported":1749636737,"current_range_meters":20400,"station_id":"ce4bhsh2rcd13ifvqi2g","pricing_plan_id":"cebpf4jnsgd1na2vs0mg"},{"bike_id":"3af4f46e-1760-486c-b7f5-1dd456a7423d","system_id":"levelo_inurba_marseille","lat":43.26209,"lon":5.37437,"is_reserved":false,"is_disabled":false,"rental_uris":{"android":"levelo://app?vid=3af4f46e-1760-486c-b7f5-1dd456a7423d","ios":"levelo://app?vid=3af4f46e-1760-486c-b7f5-1dd456a7423d"},"vehicle_type_id":"4","last_reported":1749636737,"current_range_meters":20400,"station_id":"ce4bhgp2rcd13ifvqfc0","pricing_plan_id":"cebpf4jnsgd1na2vs0mg"},{"bike_id":"01cdde47-f249-481f-aeec-114a968f7c5f","system_id":"levelo_inurba_marseille","lat":43.2993,"lon":5.36546,"is_reserved":false,"is_disabled":false,"rental_uris":{"android":"levelo://app?vid=01cdde47-f249-481f-aeec-114a968f7c5f","ios":"levelo://app?vid=01cdde47-f249-481f-aeec-114a968f7c5f"},"vehicle_type_id":"4","last_reported":1749636737,"current_range_meters":20800,"station_id":"ce4bgm92rcd13ifvqbr0","pricing_plan_id":"cebpf4jnsgd1na2vs0mg"},{"bike_id":"31b74d86-90b8-4af1-bd7b-9f2c8da2c72f","system_id":"levelo_inurba_marseille","lat":43.29933,"lon":5.36536,"is_reserved":false,"is_disabled":false,"rental_uris":{"android":"levelo://app?vid=31b74d86-90b8-4af1-bd7b-9f2c8da2c72f","ios":"levelo://app?vid=31b74d86-90b8-4af1-bd7b-9f2c8da2c72f"},"vehicle_type_id":"4","last_reported":1749636737,"current_range_meters":20800,"station_id":"ce4bgm92rcd13ifvqbr0","pricing_plan_id":"cebpf4jnsgd1na2vs0mg"},{"bike_id":"f70be1d8-0da1-4a6a-b10b-c3b868d7927b","system_id":"levelo_inurba_marseille","lat":43.30711,"lon":5.38065,"is_reserved":false,"is_disabled":false,"rental_uris":{"android":"levelo://app?vid=f70be1d8-0da1-4a6a-b10b-c3b868d7927b","ios":"levelo://app?vid=f70be1d8-0da1-4a6a-b10b-c3b868d7927b"},"vehicle_type_id":"4","last_reported":1749636737,"current_range_meters":20800,"station_id":"","pricing_plan_id":"cebpf4jnsgd1na2vs0mg"},{"bike_id":"fd02d9e1-5f7f-4daa-a01e-3d9cbb4aa25e","system_id":"levelo_inurba_marseille","lat":43.288528,"lon":5.393144,"is_reserved":false,"is_disabled":false,"rental_uris":{"android":"levelo://app?vid=fd02d9e1-5f7f-4daa-a01e-3d9cbb4aa25e","ios":"levelo://app?vid=fd02d9e1-5f7f-4daa-a01e-3d9cbb4aa25e"},"vehicle_type_id":"4","last_reported":1749636737,"current_range_meters":20800,"station_id":"ce4bh2p2rcd13ifvqdi0","pricing_plan_id":"cebpf4jnsgd1na2vs0mg"},{"bike_id":"c2dbebb7-7685-4173-aed5-ba6dbd5e497e","system_id":"levelo_inurba_marseille","lat":43.23191,"lon":5.3555,"is_reserved":false,"is_disabled":false,"rental_uris":{"android":"levelo://app?vid=c2dbebb7-7685-4173-aed5-ba6dbd5e497e","ios":"levelo://app?vid=c2dbebb7-7685-4173-aed5-ba6dbd5e497e"},"vehicle_type_id":"4","last_reported":1749636737,"current_range_meters":20800,"station_id":"ce4bhu92rcd13ifvqi70","pricing_plan_id":"cebpf4jnsgd1na2vs0mg"},{"bike_id":"6129c9c1-d980-4e3a-a2b6-78c73976d62a","system_id":"levelo_inurba_marseille","lat":43.231893,"lon":5.399789,"is_reserved":false,"is_disabled":false,"rental_uris":{"android":"levelo://app?vid=6129c9c1-d980-4e3a-a2b6-78c73976d62a","ios":"levelo://app?vid=6129c9c1-d980-4e3a-a2b6-78c73976d62a"},"vehicle_type_id":"4","last_reported":1749636737,"current_range_meters":20800,"station_id":"ce4bhn12rcd13ifvqgqg","pricing_plan_id":"cebpf4jnsgd1na2vs0mg"},{"bike_id":"6e464720-93b0-4699-80fe-881649eb71cd","system_id":"levelo_inurba_marseille","lat":43.23241,"lon":5.35587,"is_reserved":false,"is_disabled":false,"rental_uris":{"android":"levelo://app?vid=6e464720-93b0-4699-80fe-881649eb71cd","ios":"levelo://app?vid=6e464720-93b0-4699-80fe-881649eb71cd"},"vehicle_type_id":"4","last_reported":1749636737,"current_range_meters":20800,"station_id":"","pricing_plan_id":"cebpf4jnsgd1na2vs0mg"},{"bike_id":"0c0300b7-e74f-4523-adb0-9d98228b9bf5","system_id":"levelo_inurba_marseille","lat":43.28461,"lon":5.35894,"is_reserved":false,"is_disabled":false,"rental_uris":{"android":"levelo://app?vid=0c0300b7-e74f-4523-adb0-9d98228b9bf5","ios":"levelo://app?vid=0c0300b7-e74f-4523-adb0-9d98228b9bf5"},"vehicle_type_id":"4","last_reported":1749636737,"current_range_meters":20800,"station_id":"ce4bhah2rcd13ifvqei0","pricing_plan_id":"cebpf4jnsgd1na2vs0mg"},{"bike_id":"5240f6fd-7c4d-480e-89e7-ad5430e3da82","system_id":"levelo_inurba_marseille","lat":43.28414,"lon":5.34983,"is_reserved":false,"is_disabled":false,"rental_uris":{"android":"levelo://app?vid=5240f6fd-7c4d-480e-89e7-ad5430e3da82","ios":"levelo://app?vid=5240f6fd-7c4d-480e-89e7-ad5430e3da82"},"vehicle_type_id":"4","last_reported":1749636737,"current_range_meters":21600,"station_id":"ce4bhbh2rcd13ifvqepg","pricing_plan_id":"cebpf4jnsgd1na2vs0mg"},{"bike_id":"346f3f80-6b15-4406-b905-bb78596f5bac","system_id":"levelo_inurba_marseille","lat":43.3235,"lon":5.36755,"is_reserved":false,"is_disabled":false,"rental_uris":{"android":"levelo://app?vid=346f3f80-6b15-4406-b905-bb78596f5bac","ios":"levelo://app?vid=346f3f80-6b15-4406-b905-bb78596f5bac"},"vehicle_type_id":"4","last_reported":1749636737,"current_range_meters":21600,"station_id":"ce4bhsh2rcd13ifvqi2g","pricing_plan_id":"cebpf4jnsgd1na2vs0mg"},{"bike_id":"c4aef8fb-53c8-4c38-83e4-2aa1b3935125","system_id":"levelo_inurba_marseille","lat":43.32642,"lon":5.40986,"is_reserved":false,"is_disabled":false,"rental_uris":{"android":"levelo://app?vid=c4aef8fb-53c8-4c38-83e4-2aa1b3935125","ios":"levelo://app?vid=c4aef8fb-53c8-4c38-83e4-2aa1b3935125"},"vehicle_type_id":"4","last_reported":1749636737,"current_range_meters":21600,"station_id":"ce4bhpp2rcd13ifvqhgg","pricing_plan_id":"cebpf4jnsgd1na2vs0mg"},{"bike_id":"88febd41-fb4a-4499-886e-f4719eb106f4","system_id":"levelo_inurba_marseille","lat":43.26682,"lon":5.38258,"is_reserved":false,"is_disabled":false,"rental_uris":{"android":"levelo://app?vid=88febd41-fb4a-4499-886e-f4719eb106f4","ios":"levelo://app?vid=88febd41-fb4a-4499-886e-f4719eb106f4"},"vehicle_type_id":"4","last_reported":1749636737,"current_range_meters":21600,"station_id":"ce4bhg92rcd13ifvqf90","pricing_plan_id":"cebpf4jnsgd1na2vs0mg"},{"bike_id":"959bc139-0318-47ce-9665-4d7acbf0a1fe","system_id":"levelo_inurba_marseille","lat":43.29231,"lon":5.38446,"is_reserved":false,"is_disabled":false,"rental_uris":{"android":"levelo://app?vid=959bc139-0318-47ce-9665-4d7acbf0a1fe","ios":"levelo://app?vid=959bc139-0318-47ce-9665-4d7acbf0a1fe"},"vehicle_type_id":"4","last_reported":1749636737,"current_range_meters":21600,"station_id":"ce4bh692rcd13ifvqea0","pricing_plan_id":"cebpf4jnsgd1na2vs0mg"},{"bike_id":"b663e164-d4db-4652-ba63-0551c538ab6b","system_id":"levelo_inurba_marseille","lat":43.271778,"lon":5.409813,"is_reserved":false,"is_disabled":false,"rental_uris":{"android":"levelo://app?vid=b663e164-d4db-4652-ba63-0551c538ab6b","ios":"levelo://app?vid=b663e164-d4db-4652-ba63-0551c538ab6b"},"vehicle_type_id":"4","last_reported":1749636737,"current_range_meters":22000,"station_id":"ce4bhl12rcd13ifvqgf0","pricing_plan_id":"cebpf4jnsgd1na2vs0mg"},{"bike_id":"033ab24d-191e-4394-bd9f-915f8fb9ea61","system_id":"levelo_inurba_marseille","lat":43.30594,"lon":5.3722,"is_reserved":false,"is_disabled":false,"rental_uris":{"android":"levelo://app?vid=033ab24d-191e-4394-bd9f-915f8fb9ea61","ios":"levelo://app?vid=033ab24d-191e-4394-bd9f-915f8fb9ea61"},"vehicle_type_id":"4","last_reported":1749636737,"current_range_meters":22000,"station_id":"ce4bgqh2rcd13ifvqc4g","pricing_plan_id":"cebpf4jnsgd1na2vs0mg"},{"bike_id":"20080f1d-6dd2-42da-8160-fea6fab80059","system_id":"levelo_inurba_marseille","lat":43.27368,"lon":5.362354,"is_reserved":false,"is_disabled":false,"rental_uris":{"android":"levelo://app?vid=20080f1d-6dd2-42da-8160-fea6fab80059","ios":"levelo://app?vid=20080f1d-6dd2-42da-8160-fea6fab80059"},"vehicle_type_id":"4","last_reported":1749636737,"current_range_meters":22000,"station_id":"ce4bhbh2rcd13ifvqeo0","pricing_plan_id":"cebpf4jnsgd1na2vs0mg"},{"bike_id":"45120759-89f5-4808-a0cb-c4cbbed27f15","system_id":"levelo_inurba_marseille","lat":43.26057,"lon":5.39399,"is_reserved":false,"is_disabled":false,"rental_uris":{"android":"levelo://app?vid=45120759-89f5-4808-a0cb-c4cbbed27f15","ios":"levelo://app?vid=45120759-89f5-4808-a0cb-c4cbbed27f15"},"vehicle_type_id":"4","last_reported":1749636737,"current_range_meters":22000,"station_id":"ce4bhh92rcd13ifvqfj0","pricing_plan_id":"cebpf4jnsgd1na2vs0mg"},{"bike_id":"f368bfd0-bb88-4432-8921-2cc96eb9f1b3","system_id":"levelo_inurba_marseille","lat":43.30301,"lon":5.39198,"is_reserved":false,"is_disabled":false,"rental_uris":{"android":"levelo://app?vid=f368bfd0-bb88-4432-8921-2cc96eb9f1b3","ios":"levelo://app?vid=f368bfd0-bb88-4432-8921-2cc96eb9f1b3"},"vehicle_type_id":"4","last_reported":1749636737,"current_range_meters":20800,"station_id":"ce4bgkh2rcd13ifvqbk0","pricing_plan_id":"cebpf4jnsgd1na2vs0mg"},{"bike_id":"6c0fd13e-0872-4c8a-b703-37eb75f1c963","system_id":"levelo_inurba_marseille","lat":43.29891,"lon":5.43666,"is_reserved":false,"is_disabled":false,"rental_uris":{"android":"levelo://app?vid=6c0fd13e-0872-4c8a-b703-37eb75f1c963","ios":"levelo://app?vid=6c0fd13e-0872-4c8a-b703-37eb75f1c963"},"vehicle_type_id":"4","last_reported":1749636737,"current_range_meters":22400,"station_id":"ce4bhpp2rcd13ifvqhfg","pricing_plan_id":"cebpf4jnsgd1na2vs0mg"},{"bike_id":"abd0d78f-a5d4-4339-93f7-6b3fc51d77c5","system_id":"levelo_inurba_marseille","lat":43.36391,"lon":5.3509,"is_reserved":false,"is_disabled":false,"rental_uris":{"android":"levelo://app?vid=abd0d78f-a5d4-4339-93f7-6b3fc51d77c5","ios":"levelo://app?vid=abd0d78f-a5d4-4339-93f7-6b3fc51d77c5"},"vehicle_type_id":"4","last_reported":1749636737,"current_range_meters":22400,"station_id":"","pricing_plan_id":"cebpf4jnsgd1na2vs0mg"},{"bike_id":"1268e070-f02d-4537-93df-0bfd5c4daa05","system_id":"levelo_inurba_marseille","lat":43.32671,"lon":5.37663,"is_reserved":false,"is_disabled":false,"rental_uris":{"android":"levelo://app?vid=1268e070-f02d-4537-93df-0bfd5c4daa05","ios":"levelo://app?vid=1268e070-f02d-4537-93df-0bfd5c4daa05"},"vehicle_type_id":"4","last_reported":1749636737,"current_range_meters":22400,"station_id":"","pricing_plan_id":"cebpf4jnsgd1na2vs0mg"},{"bike_id":"71492b74-6d64-41d6-8b9d-da9456d9cba7","system_id":"levelo_inurba_marseille","lat":43.30183,"lon":5.36617,"is_reserved":false,"is_disabled":false,"rental_uris":{"android":"levelo://app?vid=71492b74-6d64-41d6-8b9d-da9456d9cba7","ios":"levelo://app?vid=71492b74-6d64-41d6-8b9d-da9456d9cba7"},"vehicle_type_id":"4","last_reported":1749636737,"current_range_meters":22400,"station_id":"ce4bgrh2rcd13ifvqc8g","pricing_plan_id":"cebpf4jnsgd1na2vs0mg"},{"bike_id":"d57703e9-b297-4b51-a5d1-7a2bbc2f4c76","system_id":"levelo_inurba_marseille","lat":43.262195,"lon":5.40447,"is_reserved":false,"is_disabled":false,"rental_uris":{"android":"levelo://app?vid=d57703e9-b297-4b51-a5d1-7a2bbc2f4c76","ios":"levelo://app?vid=d57703e9-b297-4b51-a5d1-7a2bbc2f4c76"},"vehicle_type_id":"4","last_reported":1749636737,"current_range_meters":22400,"station_id":"ce4bhmh2rcd13ifvqgmg","pricing_plan_id":"cebpf4jnsgd1na2vs0mg"},{"bike_id":"e72227bd-cbfd-4caa-b7fa-582976d075b6","system_id":"levelo_inurba_marseille","lat":43.305679,"lon":5.365742,"is_reserved":false,"is_disabled":false,"rental_uris":{"android":"levelo://app?vid=e72227bd-cbfd-4caa-b7fa-582976d075b6","ios":"levelo://app?vid=e72227bd-cbfd-4caa-b7fa-582976d075b6"},"vehicle_type_id":"4","last_reported":1749636737,"current_range_meters":22400,"station_id":"ce4bgs12rcd13ifvqcag","pricing_plan_id":"cebpf4jnsgd1na2vs0mg"},{"bike_id":"211f068e-7e86-48d4-b3fd-32f19499d6e3","system_id":"levelo_inurba_marseille","lat":43.29033,"lon":5.356,"is_reserved":false,"is_disabled":false,"rental_uris":{"android":"levelo://app?vid=211f068e-7e86-48d4-b3fd-32f19499d6e3","ios":"levelo://app?vid=211f068e-7e86-48d4-b3fd-32f19499d6e3"},"vehicle_type_id":"4","last_reported":1749636737,"current_range_meters":22400,"station_id":"ce4bhb92rcd13ifvqen0","pricing_plan_id":"cebpf4jnsgd1na2vs0mg"},{"bike_id":"56fc8ed8-e04e-4dc8-a7ed-f1c117181c95","system_id":"levelo_inurba_marseille","lat":43.30275,"lon":5.37699,"is_reserved":false,"is_disabled":false,"rental_uris":{"android":"levelo://app?vid=56fc8ed8-e04e-4dc8-a7ed-f1c117181c95","ios":"levelo://app?vid=56fc8ed8-e04e-4dc8-a7ed-f1c117181c95"},"vehicle_type_id":"4","last_reported":1749636737,"current_range_meters":22400,"station_id":"ce4bguh2rcd13ifvqcj0","pricing_plan_id":"cebpf4jnsgd1na2vs0mg"},{"bike_id":"9c35c7c8-29d0-4f2e-a66f-8b0738be1863","system_id":"levelo_inurba_marseille","lat":43.31168,"lon":5.38709,"is_reserved":false,"is_disabled":false,"rental_uris":{"android":"levelo://app?vid=9c35c7c8-29d0-4f2e-a66f-8b0738be1863","ios":"levelo://app?vid=9c35c7c8-29d0-4f2e-a66f-8b0738be1863"},"vehicle_type_id":"4","last_reported":1749636737,"current_range_meters":21600,"station_id":"ce4bgv12rcd13ifvqcp0","pricing_plan_id":"cebpf4jnsgd1na2vs0mg"},{"bike_id":"d5dc117f-3723-485d-9be3-c6203b4eefe4","system_id":"levelo_inurba_marseille","lat":43.28416,"lon":5.34985,"is_reserved":false,"is_disabled":false,"rental_uris":{"android":"levelo://app?vid=d5dc117f-3723-485d-9be3-c6203b4eefe4","ios":"levelo://app?vid=d5dc117f-3723-485d-9be3-c6203b4eefe4"},"vehicle_type_id":"4","last_reported":1749636737,"current_range_meters":22400,"station_id":"ce4bhbh2rcd13ifvqepg","pricing_plan_id":"cebpf4jnsgd1na2vs0mg"},{"bike_id":"e785e048-cef8-4eb3-8059-84c61e1083d5","system_id":"levelo_inurba_marseille","lat":43.25006,"lon":5.3892,"is_reserved":false,"is_disabled":false,"rental_uris":{"android":"levelo://app?vid=e785e048-cef8-4eb3-8059-84c61e1083d5","ios":"levelo://app?vid=e785e048-cef8-4eb3-8059-84c61e1083d5"},"vehicle_type_id":"4","last_reported":1749636737,"current_range_meters":22800,"station_id":"ce4bhgp2rcd13ifvqfd0","pricing_plan_id":"cebpf4jnsgd1na2vs0mg"},{"bike_id":"841bd01b-04e4-42b4-b822-67bc244c357b","system_id":"levelo_inurba_marseille","lat":43.29566,"lon":5.37527,"is_reserved":false,"is_disabled":false,"rental_uris":{"android":"levelo://app?vid=841bd01b-04e4-42b4-b822-67bc244c357b","ios":"levelo://app?vid=841bd01b-04e4-42b4-b822-67bc244c357b"},"vehicle_type_id":"4","last_reported":1749636737,"current_range_meters":22800,"station_id":"ce4bgh92rcd13ifvqb50","pricing_plan_id":"cebpf4jnsgd1na2vs0mg"},{"bike_id":"99c8adb5-2b23-4a7b-b4a1-1dff2aee69c2","system_id":"levelo_inurba_marseille","lat":43.28284,"lon":5.3507,"is_reserved":false,"is_disabled":false,"rental_uris":{"android":"levelo://app?vid=99c8adb5-2b23-4a7b-b4a1-1dff2aee69c2","ios":"levelo://app?vid=99c8adb5-2b23-4a7b-b4a1-1dff2aee69c2"},"vehicle_type_id":"4","last_reported":1749636737,"current_range_meters":23200,"station_id":"ce4bhbp2rcd13ifvqerg","pricing_plan_id":"cebpf4jnsgd1na2vs0mg"},{"bike_id":"c8f7696e-0a42-4e42-9faf-6c775c63c93c","system_id":"levelo_inurba_marseille","lat":43.32352,"lon":5.36752,"is_reserved":false,"is_disabled":false,"rental_uris":{"android":"levelo://app?vid=c8f7696e-0a42-4e42-9faf-6c775c63c93c","ios":"levelo://app?vid=c8f7696e-0a42-4e42-9faf-6c775c63c93c"},"vehicle_type_id":"4","last_reported":1749636737,"current_range_meters":23200,"station_id":"ce4bhsh2rcd13ifvqi2g","pricing_plan_id":"cebpf4jnsgd1na2vs0mg"},{"bike_id":"2aa02df4-e53a-4518-a29a-0d988096a3f4","system_id":"levelo_inurba_marseille","lat":43.289287,"lon":5.384004,"is_reserved":false,"is_disabled":false,"rental_uris":{"android":"levelo://app?vid=2aa02df4-e53a-4518-a29a-0d988096a3f4","ios":"levelo://app?vid=2aa02df4-e53a-4518-a29a-0d988096a3f4"},"vehicle_type_id":"4","last_reported":1749636737,"current_range_meters":23200,"station_id":"ce4bh9p2rcd13ifvqec0","pricing_plan_id":"cebpf4jnsgd1na2vs0mg"},{"bike_id":"f89643d8-0dfa-4983-95cf-4b135745e1c4","system_id":"levelo_inurba_marseille","lat":43.30913,"lon":5.36852,"is_reserved":false,"is_disabled":false,"rental_uris":{"android":"levelo://app?vid=f89643d8-0dfa-4983-95cf-4b135745e1c4","ios":"levelo://app?vid=f89643d8-0dfa-4983-95cf-4b135745e1c4"},"vehicle_type_id":"4","last_reported":1749636737,"current_range_meters":23200,"station_id":"ce4bgn92rcd13ifvqbvg","pricing_plan_id":"cebpf4jnsgd1na2vs0mg"},{"bike_id":"b8c1f2a0-3a49-4eb2-b291-c6f72860932a","system_id":"levelo_inurba_marseille","lat":43.29762,"lon":5.37103,"is_reserved":false,"is_disabled":false,"rental_uris":{"android":"levelo://app?vid=b8c1f2a0-3a49-4eb2-b291-c6f72860932a","ios":"levelo://app?vid=b8c1f2a0-3a49-4eb2-b291-c6f72860932a"},"vehicle_type_id":"4","last_reported":1749636737,"current_range_meters":23200,"station_id":"ce4bgop2rcd13ifvqc1g","pricing_plan_id":"cebpf4jnsgd1na2vs0mg"},{"bike_id":"37f0ec54-8709-49ce-9cb0-6ab41b562030","system_id":"levelo_inurba_marseille","lat":43.30424,"lon":5.38882,"is_reserved":false,"is_disabled":false,"rental_uris":{"android":"levelo://app?vid=37f0ec54-8709-49ce-9cb0-6ab41b562030","ios":"levelo://app?vid=37f0ec54-8709-49ce-9cb0-6ab41b562030"},"vehicle_type_id":"4","last_reported":1749636737,"current_range_meters":23200,"station_id":"ce4bgk12rcd13ifvqbi0","pricing_plan_id":"cebpf4jnsgd1na2vs0mg"},{"bike_id":"78f14093-7b32-4b00-8dfb-904664f43509","system_id":"levelo_inurba_marseille","lat":43.26545,"lon":5.372837,"is_reserved":false,"is_disabled":false,"rental_uris":{"android":"levelo://app?vid=78f14093-7b32-4b00-8dfb-904664f43509","ios":"levelo://app?vid=78f14093-7b32-4b00-8dfb-904664f43509"},"vehicle_type_id":"4","last_reported":1749636737,"current_range_meters":23200,"station_id":"ce4bhg12rcd13ifvqf70","pricing_plan_id":"cebpf4jnsgd1na2vs0mg"},{"bike_id":"77b38714-11d2-425d-81eb-8b161260adb0","system_id":"levelo_inurba_marseille","lat":43.28267,"lon":5.35065,"is_reserved":false,"is_disabled":false,"rental_uris":{"android":"levelo://app?vid=77b38714-11d2-425d-81eb-8b161260adb0","ios":"levelo://app?vid=77b38714-11d2-425d-81eb-8b161260adb0"},"vehicle_type_id":"4","last_reported":1749636737,"current_range_meters":23200,"station_id":"ce4bhbp2rcd13ifvqerg","pricing_plan_id":"cebpf4jnsgd1na2vs0mg"},{"bike_id":"c6d8aa8d-469c-4e4f-a44e-63d34d4e2f4e","system_id":"levelo_inurba_marseille","lat":43.30882,"lon":5.37184,"is_reserved":false,"is_disabled":false,"rental_uris":{"android":"levelo://app?vid=c6d8aa8d-469c-4e4f-a44e-63d34d4e2f4e","ios":"levelo://app?vid=c6d8aa8d-469c-4e4f-a44e-63d34d4e2f4e"},"vehicle_type_id":"4","last_reported":1749636737,"current_range_meters":24000,"station_id":"ce4bguh2rcd13ifvqckg","pricing_plan_id":"cebpf4jnsgd1na2vs0mg"},{"bike_id":"242feff6-a85c-4bde-b5ef-9c616e5b6b05","system_id":"levelo_inurba_marseille","lat":43.29552,"lon":5.42281,"is_reserved":false,"is_disabled":false,"rental_uris":{"android":"levelo://app?vid=242feff6-a85c-4bde-b5ef-9c616e5b6b05","ios":"levelo://app?vid=242feff6-a85c-4bde-b5ef-9c616e5b6b05"},"vehicle_type_id":"4","last_reported":1749636737,"current_range_meters":24000,"station_id":"ce4bhph2rcd13ifvqhdg","pricing_plan_id":"cebpf4jnsgd1na2vs0mg"},{"bike_id":"31d5e64f-48ac-45fa-8f3a-cebce7ce47b4","system_id":"levelo_inurba_marseille","lat":43.3088,"lon":5.37185,"is_reserved":false,"is_disabled":false,"rental_uris":{"android":"levelo://app?vid=31d5e64f-48ac-45fa-8f3a-cebce7ce47b4","ios":"levelo://app?vid=31d5e64f-48ac-45fa-8f3a-cebce7ce47b4"},"vehicle_type_id":"4","last_reported":1749636737,"current_range_meters":24000,"station_id":"ce4bguh2rcd13ifvqckg","pricing_plan_id":"cebpf4jnsgd1na2vs0mg"},{"bike_id":"99ea177c-04a7-43f2-83b1-eb986cb3eb6a","system_id":"levelo_inurba_marseille","lat":43.2927,"lon":5.36079,"is_reserved":false,"is_disabled":false,"rental_uris":{"android":"levelo://app?vid=99ea177c-04a7-43f2-83b1-eb986cb3eb6a","ios":"levelo://app?vid=99ea177c-04a7-43f2-83b1-eb986cb3eb6a"},"vehicle_type_id":"4","last_reported":1749636737,"current_range_meters":24000,"station_id":"ce4bhbh2rcd13ifvqeqg","pricing_plan_id":"cebpf4jnsgd1na2vs0mg"},{"bike_id":"3ff9073c-b4c6-44ba-a225-39e36691dc85","system_id":"levelo_inurba_marseille","lat":43.33611,"lon":5.41031,"is_reserved":false,"is_disabled":false,"rental_uris":{"android":"levelo://app?vid=3ff9073c-b4c6-44ba-a225-39e36691dc85","ios":"levelo://app?vid=3ff9073c-b4c6-44ba-a225-39e36691dc85"},"vehicle_type_id":"4","last_reported":1749636737,"current_range_meters":24000,"station_id":"ce4bhqh2rcd13ifvqhmg","pricing_plan_id":"cebpf4jnsgd1na2vs0mg"},{"bike_id":"5cbaa693-2e96-4d43-af87-32a8b7c60bc3","system_id":"levelo_inurba_marseille","lat":43.28409,"lon":5.3498,"is_reserved":false,"is_disabled":false,"rental_uris":{"android":"levelo://app?vid=5cbaa693-2e96-4d43-af87-32a8b7c60bc3","ios":"levelo://app?vid=5cbaa693-2e96-4d43-af87-32a8b7c60bc3"},"vehicle_type_id":"4","last_reported":1749636737,"current_range_meters":24000,"station_id":"ce4bhbh2rcd13ifvqepg","pricing_plan_id":"cebpf4jnsgd1na2vs0mg"},{"bike_id":"30d48a95-a68b-4759-8123-b20e88242c2a","system_id":"levelo_inurba_marseille","lat":43.23146,"lon":5.43725,"is_reserved":false,"is_disabled":false,"rental_uris":{"android":"levelo://app?vid=30d48a95-a68b-4759-8123-b20e88242c2a","ios":"levelo://app?vid=30d48a95-a68b-4759-8123-b20e88242c2a"},"vehicle_type_id":"4","last_reported":1749636737,"current_range_meters":24000,"station_id":"ce4bhmp2rcd13ifvqgog","pricing_plan_id":"cebpf4jnsgd1na2vs0mg"},{"bike_id":"0212830b-02ba-440e-9e34-2702c55999a1","system_id":"levelo_inurba_marseille","lat":43.2849,"lon":5.38455,"is_reserved":false,"is_disabled":false,"rental_uris":{"android":"levelo://app?vid=0212830b-02ba-440e-9e34-2702c55999a1","ios":"levelo://app?vid=0212830b-02ba-440e-9e34-2702c55999a1"},"vehicle_type_id":"4","last_reported":1749636737,"current_range_meters":24000,"station_id":"ce4bh512rcd13ifvqe3g","pricing_plan_id":"cebpf4jnsgd1na2vs0mg"},