{"last_updated":1745964594,"ttl":60,"version":"2.2","data":{"bikes":[{"bike_id":"0d42d741-2505-42aa-b79a-41df572094e2","system_id":"levelo_inurba_marseille","lat":43.27631,"lon":5.39316,"is_reserved":false,"is_disabled":true,"rental_uris":{"android":"levelo://app?vid=0d42d741-2505-42aa-b79a-41df572094e2","ios":"levelo://app?vid=0d42d741-2505-42aa-b79a-41df572094e2"},"vehicle_type_id":"4","last_reported":1745964594,"current_range_meters":0,"station_id":"","pricing_plan_id":"cebpf4jnsgd1na2vs0mg"},{"bike_id":"b156cb3a-a131-4c8b-b3b5-13ae6db8151f","system_id":"levelo_inurba_marseille","lat":43.26896,"lon":5.38197,"is_reserved":false,"is_disabled":true,"rental_uris":{"android":"levelo://app?vid=b156cb3a-a131-4c8b-b3b5-13ae6db8151f","ios":"levelo://app?vid=b156cb3a-a131-4c8b-b3b5-13ae6db8151f"},"vehicle_type_id":"4","last_reported":1745964594,"current_range_meters":0,"station_id":"","pricing_plan_id":"cebpf4jnsgd1na2vs0mg"},{"bike_id":"2b6b7bcc-8628-473a-9134-84c7ea90ae25","system_id":"levelo_inurba_marseille","lat":43.275428,"lon":5.389948,"is_reserved":false,"is_disabled":true,"rental_uris":{"android":"levelo://app?vid=2b6b7bcc-8628-473a-9134-84c7ea90ae25","ios":"levelo://app?vid=2b6b7bcc-8628-473a-9134-84c7ea90ae25"},"vehicle_type_id":"4","last_reported":1745964594,"current_range_meters":0,"station_id":"","pricing_plan_id":"cebpf4jnsgd1na2vs0mg"},{"bike_id":"0c9399e7-8af3-4669-848f-ec52f56fba71","system_id":"levelo_inurba_marseille","lat":43.27479,"lon":5.40737,"is_reserved":false,"is_disabled":true,"rental_uris":{"android":"levelo://app?vid=0c9399e7-8af3-4669-848f-ec52f56fba71","ios":"levelo://app?vid=0c9399e7-8af3-4669-848f-ec52f56fba71"},"vehicle_type_id":"4","last_reported":1745964594,"current_range_meters":0,"station_id":"","pricing_plan_id":"cebpf4jnsgd1na2vs0mg"},{"bike_id":"8f515858-71d6-4b47-b989-20758303e199","system_id":"levelo_inurba_marseille","lat":43.26798,"lon":5.42683,"is_reserved":false,"is_disabled":true,"rental_uris":{"android":"levelo://app?vid=8f515858-71d6-4b47-b989-20758303e199","ios":"levelo://app?vid=8f515858-71d6-4b47-b989-20758303e199"},"vehicle_type_id":"4","last_reported":1745964594,"current_range_meters":0,"station_id":"","pricing_plan_id":"cebpf4jnsgd1na2vs0mg"},{"bike_id":"80718686-899b-4cd1-9e6d-b04f236aacda","system_id":"levelo_inurba_marseille","lat":43.30717,"lon":5.397302,"is_reserved":false,"is_disabled":true,"rental_uris":{"android":"levelo://app?vid=80718686-899b-4cd1-9e6d-b04f236aacda","ios":"levelo://app?vid=80718686-899b-4cd1-9e6d-b04f236aacda"},"vehicle_type_id":"4","last_reported":1745964594,"current_range_meters":0,"station_id":"","pricing_plan_id":"cebpf4jnsgd1na2vs0mg"},{"bike_id":"74677f28-3596-4c5b-98de-ba4120a70f9d","system_id":"levelo_inurba_marseille","lat":43.25622,"lon":5.41191,"is_reserved":false,"is_disabled":true,"rental_uris":{"android":"levelo://app?vid=74677f28-3596-4c5b-98de-ba4120a70f9d","ios":"levelo://app?vid=74677f28-3596-4c5b-98de-ba4120a70f9d"},"vehicle_type_id":"4","last_reported":1745964594,"current_range_meters":0,"station_id":"","pricing_plan_id":"cebpf4jnsgd1na2vs0mg"},{"bike_id":"3fe316af-98c1-41e9-ab8a-e45e52ed945f","system_id":"levelo_inurba_marseille","lat":43.320822,"lon":5.440917,"is_reserved":false,"is_disabled":true,"rental_uris":{"android":"levelo://app?vid=3fe316af-98c1-41e9-ab8a-e45e52ed945f","ios":"levelo://app?vid=3fe316af-98c1-41e9-ab8a-e45e52ed945f"},"vehicle_type_id":"4","last_reported":1745964594,"current_range_meters":0,"station_id":"","pricing_plan_id":"cebpf4jnsgd1na2vs0mg"},{"bike_id":"9e2ed24c-a8e8-4759-b396-7d820551a1cd","system_id":"levelo_inurba_marseille","lat":43.26712,"lon":5.4022,"is_reserved":false,"is_disabled":true,"rental_uris":{"android":"levelo://app?vid=9e2ed24c-a8e8-4759-b396-7d820551a1cd","ios":"levelo://app?vid=9e2ed24c-a8e8-4759-b396-7d820551a1cd"},"vehicle_type_id":"4","last_reported":1745964594,"current_range_meters":0,"station_id":"","pricing_plan_id":"cebpf4jnsgd1na2vs0mg"},{"bike_id":"705db5aa-feb0-4862-923d-cfb22bced0d3","system_id":"levelo_inurba_marseille","lat":43.21501,"lon":5.34808,"is_reserved":false,"is_disabled":true,"rental_uris":{"android":"levelo://app?vid=705db5aa-feb0-4862-923d-cfb22bced0d3","ios":"levelo://app?vid=705db5aa-feb0-4862-923d-cfb22bced0d3"},"vehicle_type_id":"4","last_reported":1745964594,"current_range_meters":0,"station_id":"","pricing_plan_id":"cebpf4jnsgd1na2vs0mg"},{"bike_id":"37f33089-9ea7-4765-86b1-61863148fe74","system_id":"levelo_inurba_marseille","lat":43.29611,"lon":5.38104,"is_reserved":false,"is_disabled":true,"rental_uris":{"android":"levelo://app?vid=37f33089-9ea7-4765-86b1-61863148fe74","ios":"levelo://app?vid=37f33089-9ea7-4765-86b1-61863148fe74"},"vehicle_type_id":"4","last_reported":1745964594,"current_range_meters":0,"station_id":"ce4bgl12rcd13ifvqbo0","pricing_plan_id":"cebpf4jnsgd1na2vs0mg"},{"bike_id":"eb83df5c-b356-4c73-8455-0b1839c466e2","system_id":"levelo_inurba_marseille","lat":43.3059,"lon":5.3935,"is_reserved":false,"is_disabled":true,"rental_uris":{"android":"levelo://app?vid=eb83df5c-b356-4c73-8455-0b1839c466e2","ios":"levelo://app?vid=eb83df5c-b356-4c73-8455-0b1839c466e2"},"vehicle_type_id":"4","last_reported":1745964594,"current_range_meters":0,"station_id":"ce4bh0p2rcd13ifvqd80","pricing_plan_id":"cebpf4jnsgd1na2vs0mg"},{"bike_id":"3f8029d3-4511-48ef-b8d4-0b901b506b62","system_id":"levelo_inurba_marseille","lat":43.29572,"lon":5.39987,"is_reserved":false,"is_disabled":true,"rental_uris":{"android":"levelo://app?vid=3f8029d3-4511-48ef-b8d4-0b901b506b62","ios":"levelo://app?vid=3f8029d3-4511-48ef-b8d4-0b901b506b62"},"vehicle_type_id":"4","last_reported":1745964594,"current_range_meters":0,"station_id":"ce4bh312rcd13ifvqdj0","pricing_plan_id":"cebpf4jnsgd1na2vs0mg"},{"bike_id":"3ad3c3f2-6fde-4d3e-bca4-90f890e95280","system_id":"levelo_inurba_marseille","lat":43.27949,"lon":5.38722,"is_reserved":false,"is_disabled":true,"rental_uris":{"android":"levelo://app?vid=3ad3c3f2-6fde-4d3e-bca4-90f890e95280","ios":"levelo://app?vid=3ad3c3f2-6fde-4d3e-bca4-90f890e95280"},"vehicle_type_id":"4","last_reported":1745964594,"current_range_meters":0,"station_id":"ce4bhg12rcd13ifvqf80","pricing_plan_id":"cebpf4jnsgd1na2vs0mg"},{"bike_id":"2f06a072-bc6b-4067-a65a-93c068d77fd4","system_id":"levelo_inurba_marseille","lat":43.21198,"lon":5.350731,"is_reserved":false,"is_disabled":true,"rental_uris":{"android":"levelo://app?vid=2f06a072-bc6b-4067-a65a-93c068d77fd4","ios":"levelo://app?vid=2f06a072-bc6b-4067-a65a-93c068d77fd4"},"vehicle_type_id":"4","last_reported":1745964594,"current_range_meters":0,"station_id":"st_cvj6sg6p6f1abm77japg","pricing_plan_id":"cebpf4jnsgd1na2vs0mg"},{"bike_id":"15308a48-abed-4fa2-9135-19f806d78613","system_id":"levelo_inurba_marseille","lat":43.25403,"lon":5.4143,"is_reserved":false,"is_disabled":true,"rental_uris":{"android":"levelo://app?vid=15308a48-abed-4fa2-9135-19f806d78613","ios":"levelo://app?vid=15308a48-abed-4fa2-9135-19f806d78613"},"vehicle_type_id":"4","last_reported":1745964594,"current_range_meters":800,"station_id":"","pricing_plan_id":"cebpf4jnsgd1na2vs0mg"},{"bike_id":"af2baa02-626d-4353-9386-7627a67b7b27","system_id":"levelo_inurba_marseille","lat":43.28771,"lon":5.449,"is_reserved":false,"is_disabled":true,"rental_uris":{"android":"levelo://app?vid=af2baa02-626d-4353-9386-7627a67b7b27","ios":"levelo://app?vid=af2baa02-626d-4353-9386-7627a67b7b27"},"vehicle_type_id":"4","last_reported":1745964594,"current_range_meters":800,"station_id":"","pricing_plan_id":"cebpf4jnsgd1na2vs0mg"},{"bike_id":"79b6bfcc-d304-4b91-9f60-928356f04f15","system_id":"levelo_inurba_marseille","lat":43.26672,"lon":5.38263,"is_reserved":false,"is_disabled":true,"rental_uris":{"android":"levelo://app?vid=79b6bfcc-d304-4b91-9f60-928356f04f15","ios":"levelo://app?vid=79b6bfcc-d304-4b91-9f60-928356f04f15"},"vehicle_type_id":"4","last_reported":1745964594,"current_range_meters":800,"station_id":"ce4bhg92rcd13ifvqf90","pricing_plan_id":"cebpf4jnsgd1na2vs0mg"},{"bike_id":"86410a89-6cf0-4ad8-93d3-3d6f5efb1cb5","system_id":"levelo_inurba_marseille","lat":43.24549,"lon":5.39521,"is_reserved":false,"is_disabled":true,"rental_uris":{"android":"levelo://app?vid=86410a89-6cf0-4ad8-93d3-3d6f5efb1cb5","ios":"levelo://app?vid=86410a89-6cf0-4ad8-93d3-3d6f5efb1cb5"},"vehicle_type_id":"4","last_reported":1745964594,"current_range_meters":800,"station_id":"ce4bhlp2rcd13ifvqgjg","pricing_plan_id":"cebpf4jnsgd1na2vs0mg"},{"bike_id":"27f12008-0d11-4af1-8b7a-4070d86332d5","system_id":"levelo_inurba_marseille","lat":43.21753,"lon":5.34595,"is_reserved":false,"is_disabled":true,"rental_uris":{"android":"levelo://app?vid=27f12008-0d11-4af1-8b7a-4070d86332d5","ios":"levelo://app?vid=27f12008-0d11-4af1-8b7a-4070d86332d5"},"vehicle_type_id":"4","last_reported":1745964594,"current_range_meters":1200,"station_id":"","pricing_plan_id":"cebpf4jnsgd1na2vs0mg"},{"bike_id":"dd058625-25d4-4b64-8474-77357bb4b5d8","system_id":"levelo_inurba_marseille","lat":43.26568,"lon":5.3903,"is_reserved":false,"is_disabled":true,"rental_uris":{"android":"levelo://app?vid=dd058625-25d4-4b64-8474-77357bb4b5d8","ios":"levelo://app?vid=dd058625-25d4-4b64-8474-77357bb4b5d8"},"vehicle_type_id":"4","last_reported":1745964594,"current_range_meters":1200,"station_id":"ce4bhe12rcd13ifvqf30","pricing_plan_id":"cebpf4jnsgd1na2vs0mg"},{"bike_id":"ee468fdd-92c7-47c1-9491-e1900c10c698","system_id":"levelo_inurba_marseille","lat":43.24996,"lon":5.38913,"is_reserved":false,"is_disabled":true,"rental_uris":{"android":"levelo://app?vid=ee468fdd-92c7-47c1-9491-e1900c10c698","ios":"levelo://app?vid=ee468fdd-92c7-47c1-9491-e1900c10c698"},"vehicle_type_id":"4","last_reported":1745964594,"current_range_meters":1200,"station_id":"ce4bhgp2rcd13ifvqfd0","pricing_plan_id":"cebpf4jnsgd1na2vs0mg"},{"bike_id":"6392f5ae-c720-44ae-8680-ce4176674427","system_id":"levelo_inurba_marseille","lat":43.245466,"lon":5.395246,"is_reserved":false,"is_disabled":true,"rental_uris":{"android":"levelo://app?vid=6392f5ae-c720-44ae-8680-ce4176674427","ios":"levelo://app?vid=6392f5ae-c720-44ae-8680-ce4176674427"},"vehicle_type_id":"4","last_reported":1745964594,"current_range_meters":1200,"station_id":"ce4bhlp2rcd13ifvqgjg","pricing_plan_id":"cebpf4jnsgd1na2vs0mg"},{"bike_id":"a4c8a335-745b-4d95-97e0-7bac3cb18549","system_id":"levelo_inurba_marseille","lat":43.28125,"lon":5.39809,"is_reserved":false,"is_disabled":true,"rental_uris":{"android":"levelo://app?vid=a4c8a335-745b-4d95-97e0-7bac3cb18549","ios":"levelo://app?vid=a4c8a335-745b-4d95-97e0-7bac3cb18549"},"vehicle_type_id":"4","last_reported":1745964594,"current_range_meters":1600,"station_id":"","pricing_plan_id":"cebpf4jnsgd1na2vs0mg"},{"bike_id":"0a5341da-d064-46c5-b0f2-ab9a467ac050","system_id":"levelo_inurba_marseille","lat":43.289593,"lon":5.364549,"is_reserved":false,"is_disabled":true,"rental_uris":{"android":"levelo://app?vid=0a5341da-d064-46c5-b0f2-ab9a467ac050","ios":"levelo://app?vid=0a5341da-d064-46c5-b0f2-ab9a467ac050"},"vehicle_type_id":"4","last_reported":1745964594,"current_range_meters":2000,"station_id":"ce4bhc92rcd13ifvqetg","pricing_plan_id":"cebpf4jnsgd1na2vs0mg"},{"bike_id":"e7266129-155d-4e12-a897-d339a8fdd1aa","system_id":"levelo_inurba_marseille","lat":43.30312,"lon":5.39206,"is_reserved":false,"is_disabled":false,"rental_uris":{"android":"levelo://app?vid=e7266129-155d-4e12-a897-d339a8fdd1aa","ios":"levelo://app?vid=e7266129-155d-4e12-a897-d339a8fdd1aa"},"vehicle_type_id":"4","last_reported":1745964594,"current_range_meters":2800,"station_id":"ce4bgkh2rcd13ifvqbk0","pricing_plan_id":"cebpf4jnsgd1na2vs0mg"},{"bike_id":"b1040775-cdbd-4461-a120-155006f740eb","system_id":"levelo_inurba_marseille","lat":43.21185,"lon":5.35075,"is_reserved":false,"is_disabled":false,"rental_uris":{"android":"levelo://app?vid=b1040775-cdbd-4461-a120-155006f740eb","ios":"levelo://app?vid=b1040775-cdbd-4461-a120-155006f740eb"},"vehicle_type_id":"4","last_reported":1745964594,"current_range_meters":2800,"station_id":"st_cvj6sg6p6f1abm77japg","pricing_plan_id":"cebpf4jnsgd1na2vs0mg"},{"bike_id":"26deac1f-c435-40bc-9469-9ae0b266bb77","system_id":"levelo_inurba_marseille","lat":43.30203,"lon":5.38442,"is_reserved":false,"is_disabled":false,"rental_uris":{"android":"levelo://app?vid=26deac1f-c435-40bc-9469-9ae0b266bb77","ios":"levelo://app?vid=26deac1f-c435-40bc-9469-9ae0b266bb77"},"vehicle_type_id":"4","last_reported":1745964594,"current_range_meters":3200,"station_id":"","pricing_plan_id":"cebpf4jnsgd1na2vs0mg"},{"bike_id":"28bfb2ce-cbf4-4cbb-a116-726fd02d1ad1","system_id":"levelo_inurba_marseille","lat":43.29709,"lon":5.36608,"is_reserved":false,"is_disabled":false,"rental_uris":{"android":"levelo://app?vid=28bfb2ce-cbf4-4cbb-a116-726fd02d1ad1","ios":"levelo://app?vid=28bfb2ce-cbf4-4cbb-a116-726fd02d1ad1"},"vehicle_type_id":"4","last_reported":1745964594,"current_range_meters":3200,"station_id":"ce4bgn12rcd13ifvqbt0","pricing_plan_id":"cebpf4jnsgd1na2vs0mg"},{"bike_id":"4c452554-0bcb-4869-af98-9984948bdf6b","system_id":"levelo_inurba_marseille","lat":43.2857,"lon":5.39489,"is_reserved":false,"is_disabled":false,"rental_uris":{"android":"levelo://app?vid=4c452554-0bcb-4869-af98-9984948bdf6b","ios":"levelo://app?vid=4c452554-0bcb-4869-af98-9984948bdf6b"},"vehicle_type_id":"4","last_reported":1745964594,"current_range_meters":3200,"station_id":"ce4bh292rcd13ifvqdg0","pricing_plan_id":"cebpf4jnsgd1na2vs0mg"},{"bike_id":"76265f97-ca81-465f-bf4f-0f973c70a2ef","system_id":"levelo_inurba_marseille","lat":43.30128,"lon":5.39875,"is_reserved":false,"is_disabled":false,"rental_uris":{"android":"levelo://app?vid=76265f97-ca81-465f-bf4f-0f973c70a2ef","ios":"levelo://app?vid=76265f97-ca81-465f-bf4f-0f973c70a2ef"},"vehicle_type_id":"4","last_reported":1745964594,"current_range_meters":3600,"station_id":"ce4bh0h2rcd13ifvqd40","pricing_plan_id":"cebpf4jnsgd1na2vs0mg"},{"bike_id":"dd64a29e-ec3a-4131-a4af-476c366532ef","system_id":"levelo_inurba_marseille","lat":43.28456,"lon":5.35888,"is_reserved":false,"is_disabled":false,"rental_uris":{"android":"levelo://app?vid=dd64a29e-ec3a-4131-a4af-476c366532ef","ios":"levelo://app?vid=dd64a29e-ec3a-4131-a4af-476c366532ef"},"vehicle_type_id":"4","last_reported":1745964594,"current_range_meters":3600,"station_id":"ce4bhah2rcd13ifvqei0","pricing_plan_id":"cebpf4jnsgd1na2vs0mg"},{"bike_id":"af4f0c69-e62d-4155-b1d1-a67b45271ae1","system_id":"levelo_inurba_marseille","lat":43.24756,"lon":5.41155,"is_reserved":false,"is_disabled":false,"rental_uris":{"android":"levelo://app?vid=af4f0c69-e62d-4155-b1d1-a67b45271ae1","ios":"levelo://app?vid=af4f0c69-e62d-4155-b1d1-a67b45271ae1"},"vehicle_type_id":"4","last_reported":1745964594,"current_range_meters":4000,"station_id":"","pricing_plan_id":"cebpf4jnsgd1na2vs0mg"},{"bike_id":"5e5e5b3b-13d3-4c3b-a8a8-3e15f6ffb693","system_id":"levelo_inurba_marseille","lat":43.28701,"lon":5.37393,"is_reserved":false,"is_disabled":false,"rental_uris":{"android":"levelo://app?vid=5e5e5b3b-13d3-4c3b-a8a8-3e15f6ffb693","ios":"levelo://app?vid=5e5e5b3b-13d3-4c3b-a8a8-3e15f6ffb693"},"vehicle_type_id":"4","last_reported":1745964594,"current_range_meters":4000,"station_id":"ce4bh3p2rcd13ifvqdq0","pricing_plan_id":"cebpf4jnsgd1na2vs0mg"},{"bike_id":"9d010305-db17-4453-8752-e7a64080a1fa","system_id":"levelo_inurba_marseille","lat":43.28444,"lon":5.39167,"is_reserved":false,"is_disabled":false,"rental_uris":{"android":"levelo://app?vid=9d010305-db17-4453-8752-e7a64080a1fa","ios":"levelo://app?vid=9d010305-db17-4453-8752-e7a64080a1fa"},"vehicle_type_id":"4","last_reported":1745964594,"current_range_meters":4800,"station_id":"ce4bhoh2rcd13ifvqh5g","pricing_plan_id":"cebpf4jnsgd1na2vs0mg"},{"bike_id":"38d64412-9dd6-4b8f-a837-bda821de069d","system_id":"levelo_inurba_marseille","lat":43.29535,"lon":5.39406,"is_reserved":false,"is_disabled":false,"rental_uris":{"android":"levelo://app?vid=38d64412-9dd6-4b8f-a837-bda821de069d","ios":"levelo://app?vid=38d64412-9dd6-4b8f-a837-bda821de069d"},"vehicle_type_id":"4","last_reported":1745964594,"current_range_meters":5600,"station_id":"ce4bh292rcd13ifvqdf0","pricing_plan_id":"cebpf4jnsgd1na2vs0mg"},{"bike_id":"b039c152-f87b-436a-9b54-3e5c0bb27b9c","system_id":"levelo_inurba_marseille","lat":43.289466,"lon":5.39619,"is_reserved":false,"is_disabled":false,"rental_uris":{"android":"levelo://app?vid=b039c152-f87b-436a-9b54-3e5c0bb27b9c","ios":"levelo://app?vid=b039c152-f87b-436a-9b54-3e5c0bb27b9c"},"vehicle_type_id":"4","last_reported":1745964594,"current_range_meters":5600,"station_id":"ce4bh3h2rcd13ifvqdn0","pricing_plan_id":"cebpf4jnsgd1na2vs0mg"},{"bike_id":"775481df-05c4-4f0e-8a67-b66aedbeddcf","system_id":"levelo_inurba_marseille","lat":43.24176,"lon":5.39728,"is_reserved":false,"is_disabled":false,"rental_uris":{"android":"levelo://app?vid=775481df-05c4-4f0e-8a67-b66aedbeddcf","ios":"levelo://app?vid=775481df-05c4-4f0e-8a67-b66aedbeddcf"},"vehicle_type_id":"4","last_reported":1745964594,"current_range_meters":5600,"station_id":"ce4bhn12rcd13ifvqgpg","pricing_plan_id":"cebpf4jnsgd1na2vs0mg"},{"bike_id":"260981a5-60d4-4b38-97de-5fb58feade6c","system_id":"levelo_inurba_marseille","lat":43.263981,"lon":5.373778,"is_reserved":false,"is_disabled":false,"rental_uris":{"android":"levelo://app?vid=260981a5-60d4-4b38-97de-5fb58feade6c","ios":"levelo://app?vid=260981a5-60d4-4b38-97de-5fb58feade6c"},"vehicle_type_id":"4","last_reported":1745964594,"current_range_meters":6000,"station_id":"ce4bhnp2rcd13ifvqgvg","pricing_plan_id":"cebpf4jnsgd1na2vs0mg"},{"bike_id":"5a098e5b-e14a-473b-90bc-45a3ff50ef8d","system_id":"levelo_inurba_marseille","lat":43.28353,"lon":5.38106,"is_reserved":false,"is_disabled":false,"rental_uris":{"android":"levelo://app?vid=5a098e5b-e14a-473b-90bc-45a3ff50ef8d","ios":"levelo://app?vid=5a098e5b-e14a-473b-90bc-45a3ff50ef8d"},"vehicle_type_id":"4","last_reported":1745964594,"current_range_meters":6400,"station_id":"ce4bh412rcd13ifvqdr0","pricing_plan_id":"cebpf4jnsgd1na2vs0mg"},{"bike_id":"83825a2b-3736-49ed-aeea-be993f789935","system_id":"levelo_inurba_marseille","lat":43.27503,"lon":5.42456,"is_reserved":false,"is_disabled":false,"rental_uris":{"android":"levelo://app?vid=83825a2b-3736-49ed-aeea-be993f789935","ios":"levelo://app?vid=83825a2b-3736-49ed-aeea-be993f789935"},"vehicle_type_id":"4","last_reported":1745964594,"current_range_meters":6400,"station_id":"ce4bhn92rcd13ifvqgrg","pricing_plan_id":"cebpf4jnsgd1na2vs0mg"},{"bike_id":"7ca0b0fe-c2a9-4807-a912-8f162992eb76","system_id":"levelo_inurba_marseille","lat":43.31714,"lon":5.43705,"is_reserved":false,"is_disabled":false,"rental_uris":{"android":"levelo://app?vid=7ca0b0fe-c2a9-4807-a912-8f162992eb76","ios":"levelo://app?vid=7ca0b0fe-c2a9-4807-a912-8f162992eb76"},"vehicle_type_id":"4","last_reported":1745964594,"current_range_meters":6400,"station_id":"ce4bhp92rcd13ifvqhcg","pricing_plan_id":"cebpf4jnsgd1na2vs0mg"},{"bike_id":"e5b4b90d-e268-4de2-98f4-f6d0513f8801","system_id":"levelo_inurba_marseille","lat":43.26541,"lon":5.42219,"is_reserved":false,"is_disabled":false,"rental_uris":{"android":"levelo://app?vid=e5b4b90d-e268-4de2-98f4-f6d0513f8801","ios":"levelo://app?vid=e5b4b90d-e268-4de2-98f4-f6d0513f8801"},"vehicle_type_id":"4","last_reported":1745964594,"current_range_meters":6800,"station_id":"","pricing_plan_id":"cebpf4jnsgd1na2vs0mg"},{"bike_id":"d2e0acb7-3756-4aa5-830e-2a8cb914029b","system_id":"levelo_inurba_marseille","lat":43.2927,"lon":5.37618,"is_reserved":false,"is_disabled":false,"rental_uris":{"android":"levelo://app?vid=d2e0acb7-3756-4aa5-830e-2a8cb914029b","ios":"levelo://app?vid=d2e0acb7-3756-4aa5-830e-2a8cb914029b"},"vehicle_type_id":"4","last_reported":1745964594,"current_range_meters":6800,"station_id":"ce4bgi12rcd13ifvqb80","pricing_plan_id":"cebpf4jnsgd1na2vs0mg"},{"bike_id":"99f4af4c-dcfa-4fd6-8766-cd5555c48ce1","system_id":"levelo_inurba_marseille","lat":43.31269,"lon":5.40174,"is_reserved":false,"is_disabled":false,"rental_uris":{"android":"levelo://app?vid=99f4af4c-dcfa-4fd6-8766-cd5555c48ce1","ios":"levelo://app?vid=99f4af4c-dcfa-4fd6-8766-cd5555c48ce1"},"vehicle_type_id":"4","last_reported":1745964594,"current_range_meters":6800,"station_id":"ce4bh092rcd13ifvqd30","pricing_plan_id":"cebpf4jnsgd1na2vs0mg"},{"bike_id":"79af80e6-dae8-4366-9807-e3759055ac2e","system_id":"levelo_inurba_marseille","lat":43.2658,"lon":5.39036,"is_reserved":false,"is_disabled":false,"rental_uris":{"android":"levelo://app?vid=79af80e6-dae8-4366-9807-e3759055ac2e","ios":"levelo://app?vid=79af80e6-dae8-4366-9807-e3759055ac2e"},"vehicle_type_id":"4","last_reported":1745964594,"current_range_meters":6800,"station_id":"ce4bhe12rcd13ifvqf30","pricing_plan_id":"cebpf4jnsgd1na2vs0mg"},{"bike_id":"83acd443-6f06-458b-a9e4-d55370ac4e3d","system_id":"levelo_inurba_marseille","lat":43.26836,"lon":5.40237,"is_reserved":false,"is_disabled":false,"rental_uris":{"android":"levelo://app?vid=83acd443-6f06-458b-a9e4-d55370ac4e3d","ios":"levelo://app?vid=83acd443-6f06-458b-a9e4-d55370ac4e3d"},"vehicle_type_id":"4","last_reported":1745964594,"current_range_meters":7200,"station_id":"","pricing_plan_id":"cebpf4jnsgd1na2vs0mg"},{"bike_id":"a87ca6c4-4283-499d-a471-b85bf426965c","system_id":"levelo_inurba_marseille","lat":43.28852,"lon":5.39312,"is_reserved":false,"is_disabled":false,"rental_uris":{"android":"levelo://app?vid=a87ca6c4-4283-499d-a471-b85bf426965c","ios":"levelo://app?vid=a87ca6c4-4283-499d-a471-b85bf426965c"},"vehicle_type_id":"4","last_reported":1745964594,"current_range_meters":7200,"station_id":"ce4bh2p2rcd13ifvqdi0","pricing_plan_id":"cebpf4jnsgd1na2vs0mg"},{"bike_id":"47890d83-8448-4b7f-bd1d-7aeb433e6435","system_id":"levelo_inurba_marseille","lat":43.24387,"lon":5.37044,"is_reserved":false,"is_disabled":false,"rental_uris":{"android":"levelo://app?vid=47890d83-8448-4b7f-bd1d-7aeb433e6435","ios":"levelo://app?vid=47890d83-8448-4b7f-bd1d-7aeb433e6435"},"vehicle_type_id":"4","last_reported":1745964594,"current_range_meters":7200,"station_id":"ce4bhhh2rcd13ifvqfk0","pricing_plan_id":"cebpf4jnsgd1na2vs0mg"},{"bike_id":"c3701277-3ef8-4af1-aceb-6364bb93ea9e","system_id":"levelo_inurba_marseille","lat":43.322775,"lon":5.382406,"is_reserved":false,"is_disabled":false,"rental_uris":{"android":"levelo://app?vid=c3701277-3ef8-4af1-aceb-6364bb93ea9e","ios":"levelo://app?vid=c3701277-3ef8-4af1-aceb-6364bb93ea9e"},"vehicle_type_id":"4","last_reported":1745964594,"current_range_meters":7200,"station_id":"ce4bhr12rcd13ifvqhqg","pricing_plan_id":"cebpf4jnsgd1na2vs0mg"},{"bike_id":"f1e3c12a-02a3-4893-b9e1-1aacd74f3f49","system_id":"levelo_inurba_marseille","lat":43.32123,"lon":5.36755,"is_reserved":false,"is_disabled":false,"rental_uris":{"android":"levelo://app?vid=f1e3c12a-02a3-4893-b9e1-1aacd74f3f49","ios":"levelo://app?vid=f1e3c12a-02a3-4893-b9e1-1aacd74f3f49"},"vehicle_type_id":"4","last_reported":1745964594,"current_range_meters":7200,"station_id":"ce4bhrh2rcd13ifvqhug","pricing_plan_id":"cebpf4jnsgd1na2vs0mg"},{"bike_id":"4495444d-abd9-4d15-ae65-abeb5470be26","system_id":"levelo_inurba_marseille","lat":43.30555,"lon":5.38426,"is_reserved":false,"is_disabled":false,"rental_uris":{"android":"levelo://app?vid=4495444d-abd9-4d15-ae65-abeb5470be26","ios":"levelo://app?vid=4495444d-abd9-4d15-ae65-abeb5470be26"},"vehicle_type_id":"4","last_reported":1745964594,"current_range_meters":8000,"station_id":"ce4bgg92rcd13ifvqb30","pricing_plan_id":"cebpf4jnsgd1na2vs0mg"},{"bike_id":"2472b04f-0970-4637-81bb-9cc066bff2ed","system_id":"levelo_inurba_marseille","lat":43.29923,"lon":5.37496,"is_reserved":false,"is_disabled":false,"rental_uris":{"android":"levelo://app?vid=2472b04f-0970-4637-81bb-9cc066bff2ed","ios":"levelo://app?vid=2472b04f-0970-4637-81bb-9cc066bff2ed"},"vehicle_type_id":"4","last_reported":1745964594,"current_range_meters":8000,"station_id":"ce4bgjh2rcd13ifvqbg0","pricing_plan_id":"cebpf4jnsgd1na2vs0mg"},{"bike_id":"fcf39cbd-8d86-44b1-994d-edea3f417da6","system_id":"levelo_inurba_marseille","lat":43.27174,"lon":5.4099,"is_reserved":false,"is_disabled":false,"rental_uris":{"android":"levelo://app?vid=fcf39cbd-8d86-44b1-994d-edea3f417da6","ios":"levelo://app?vid=fcf39cbd-8d86-44b1-994d-edea3f417da6"},"vehicle_type_id":"4","last_reported":1745964594,"current_range_meters":8000,"station_id":"ce4bhl12rcd13ifvqgf0","pricing_plan_id":"cebpf4jnsgd1na2vs0mg"},{"bike_id":"d5ec15d5-cbc9-4d64-be0b-b8e3d4e57339","system_id":"levelo_inurba_marseille","lat":43.26231,"lon":5.40449,"is_reserved":false,"is_disabled":false,"rental_uris":{"android":"levelo://app?vid=d5ec15d5-cbc9-4d64-be0b-b8e3d4e57339","ios":"levelo://app?vid=d5ec15d5-cbc9-4d64-be0b-b8e3d4e57339"},"vehicle_type_id":"4","last_reported":1745964594,"current_range_meters":8000,"station_id":"ce4bhmh2rcd13ifvqgmg","pricing_plan_id":"cebpf4jnsgd1na2vs0mg"},{"bike_id":"738568dc-408d-4c2d-88de-35ad23a92b23","system_id":"levelo_inurba_marseille","lat":43.241689,"lon":5.363924,"is_reserved":false,"is_disabled":false,"rental_uris":{"android":"levelo://app?vid=738568dc-408d-4c2d-88de-35ad23a92b23","ios":"levelo://app?vid=738568dc-408d-4c2d-88de-35ad23a92b23"},"vehicle_type_id":"4","last_reported":1745964594,"current_range_meters":8000,"station_id":"cpo36qri1sfpv3e86is0","pricing_plan_id":"cebpf4jnsgd1na2vs0mg"},{"bike_id":"1862fb6f-61c4-4c09-a828-864ab246ea11","system_id":"levelo_inurba_marseille","lat":43.23536,"lon":5.40323,"is_reserved":false,"is_disabled":false,"rental_uris":{"android":"levelo://app?vid=1862fb6f-61c4-4c09-a828-864ab246ea11","ios":"levelo://app?vid=1862fb6f-61c4-4c09-a828-864ab246ea11"},"vehicle_type_id":"4","last_reported":1745964594,"current_range_meters":8400,"station_id":"","pricing_plan_id":"cebpf4jnsgd1na2vs0mg"},{"bike_id":"7497e739-0c50-4aa1-9f39-dfb008e37b83","system_id":"levelo_inurba_marseille","lat":43.30994,"lon":5.37192,"is_reserved":false,"is_disabled":false,"rental_uris":{"android":"levelo://app?vid=7497e739-0c50-4aa1-9f39-dfb008e37b83","ios":"levelo://app?vid=7497e739-0c50-4aa1-9f39-dfb008e37b83"},"vehicle_type_id":"4","last_reported":1745964594,"current_range_meters":8400,"station_id":"","pricing_plan_id":"cebpf4jnsgd1na2vs0mg"},{"bike_id":"675f622c-7d55-4692-8fa9-36cb9fe77410","system_id":"levelo_inurba_marseille","lat":43.3033,"lon":5.40445,"is_reserved":false,"is_disabled":false,"rental_uris":{"android":"levelo://app?vid=675f622c-7d55-4692-8fa9-36cb9fe77410","ios":"levelo://app?vid=675f622c-7d55-4692-8fa9-36cb9fe77410"},"vehicle_type_id":"4","last_reported":1745964594,"current_range_meters":8400,"station_id":"ce4bh012rcd13ifvqd10","pricing_plan_id":"cebpf4jnsgd1na2vs0mg"},{"bike_id":"c48d791e-48aa-41fb-bd56-d8ab9c9a075d","system_id":"levelo_inurba_marseille","lat":43.28584,"lon":5.39488,"is_reserved":false,"is_disabled":false,"rental_uris":{"android":"levelo://app?vid=c48d791e-48aa-41fb-bd56-d8ab9c9a075d","ios":"levelo://app?vid=c48d791e-48aa-41fb-bd56-d8ab9c9a075d"},"vehicle_type_id":"4","last_reported":1745964594,"current_range_meters":8400,"station_id":"ce4bh292rcd13ifvqdg0","pricing_plan_id":"cebpf4jnsgd1na2vs0mg"},{"bike_id":"1b301f02-2962-490e-9968-7ce15bdd5405","system_id":"levelo_inurba_marseille","lat":43.28704,"lon":5.37388,"is_reserved":false,"is_disabled":false,"rental_uris":{"android":"levelo://app?vid=1b301f02-2962-490e-9968-7ce15bdd5405","ios":"levelo://app?vid=1b301f02-2962-490e-9968-7ce15bdd5405"},"vehicle_type_id":"4","last_reported":1745964594,"current_range_meters":8400,"station_id":"ce4bh3p2rcd13ifvqdq0","pricing_plan_id":"cebpf4jnsgd1na2vs0mg"},{"bike_id":"44422e97-6f3f-4749-8149-d4b2456b89a8","system_id":"levelo_inurba_marseille","lat":43.28514,"lon":5.38563,"is_reserved":false,"is_disabled":false,"rental_uris":{"android":"levelo://app?vid=44422e97-6f3f-4749-8149-d4b2456b89a8","ios":"levelo://app?vid=44422e97-6f3f-4749-8149-d4b2456b89a8"},"vehicle_type_id":"4","last_reported":1745964594,"current_range_meters":8400,"station_id":"ce4bh8p2rcd13ifvqeb0","pricing_plan_id":"cebpf4jnsgd1na2vs0mg"},{"bike_id":"44e055a3-fa8b-40c6-bf6b-9972824dafd0","system_id":"levelo_inurba_marseille","lat":43.31889,"lon":5.40745,"is_reserved":false,"is_disabled":false,"rental_uris":{"android":"levelo://app?vid=44e055a3-fa8b-40c6-bf6b-9972824dafd0","ios":"levelo://app?vid=44e055a3-fa8b-40c6-bf6b-9972824dafd0"},"vehicle_type_id":"4","last_reported":1745964594,"current_range_meters":8400,"station_id":"ce4bhq12rcd13ifvqhig","pricing_plan_id":"cebpf4jnsgd1na2vs0mg"},{"bike_id":"b96f21bb-69d8-4cbf-b464-f36a8f53d6e0","system_id":"levelo_inurba_marseille","lat":43.26036,"lon":5.41744,"is_reserved":false,"is_disabled":false,"rental_uris":{"android":"levelo://app?vid=b96f21bb-69d8-4cbf-b464-f36a8f53d6e0","ios":"levelo://app?vid=b96f21bb-69d8-4cbf-b464-f36a8f53d6e0"},"vehicle_type_id":"4","last_reported":1745964594,"current_range_meters":8800,"station_id":"","pricing_plan_id":"cebpf4jnsgd1na2vs0mg"},{"bike_id":"9f6844a1-48ea-4c2b-95e3-0f94dc657b73","system_id":"levelo_inurba_marseille","lat":43.30618,"lon":5.37207,"is_reserved":false,"is_disabled":false,"rental_uris":{"android":"levelo://app?vid=9f6844a1-48ea-4c2b-95e3-0f94dc657b73","ios":"levelo://app?vid=9f6844a1-48ea-4c2b-95e3-0f94dc657b73"},"vehicle_type_id":"4","last_reported":1745964594,"current_range_meters":8800,"station_id":"ce4bgqh2rcd13ifvqc4g","pricing_plan_id":"cebpf4jnsgd1na2vs0mg"},{"bike_id":"33ef0de7-be64-4bbc-af28-b6ff231cbc2d","system_id":"levelo_inurba_marseille","lat":43.29271,"lon":5.40125,"is_reserved":false,"is_disabled":false,"rental_uris":{"android":"levelo://app?vid=33ef0de7-be64-4bbc-af28-b6ff231cbc2d","ios":"levelo://app?vid=33ef0de7-be64-4bbc-af28-b6ff231cbc2d"},"vehicle_type_id":"4","last_reported":1745964594,"current_range_meters":8800,"station_id":"ce4bh312rcd13ifvqdk0","pricing_plan_id":"cebpf4jnsgd1na2vs0mg"},{"bike_id":"1fb68da5-5669-45d2-9610-4f8901f7a71c","system_id":"levelo_inurba_marseille","lat":43.28362,"lon":5.38643,"is_reserved":false,"is_disabled":false,"rental_uris":{"android":"levelo://app?vid=1fb68da5-5669-45d2-9610-4f8901f7a71c","ios":"levelo://app?vid=1fb68da5-5669-45d2-9610-4f8901f7a71c"},"vehicle_type_id":"4","last_reported":1745964594,"current_range_meters":8800,"station_id":"ce4bh492rcd13ifvqdvg","pricing_plan_id":"cebpf4jnsgd1na2vs0mg"},{"bike_id":"95ed37db-27cd-4a4f-82cb-24fa6a66f67c","system_id":"levelo_inurba_marseille","lat":43.29071,"lon":5.37173,"is_reserved":false,"is_disabled":false,"rental_uris":{"android":"levelo://app?vid=95ed37db-27cd-4a4f-82cb-24fa6a66f67c","ios":"levelo://app?vid=95ed37db-27cd-4a4f-82cb-24fa6a66f67c"},"vehicle_type_id":"4","last_reported":1745964594,"current_range_meters":8800,"station_id":"ce4bh5p2rcd13ifvqe4g","pricing_plan_id":"cebpf4jnsgd1na2vs0mg"},{"bike_id":"561b2f84-08e7-4121-bad8-f7a2a19f1511","system_id":"levelo_inurba_marseille","lat":43.28075,"lon":5.39655,"is_reserved":false,"is_disabled":false,"rental_uris":{"android":"levelo://app?vid=561b2f84-08e7-4121-bad8-f7a2a19f1511","ios":"levelo://app?vid=561b2f84-08e7-4121-bad8-f7a2a19f1511"},"vehicle_type_id":"4","last_reported":1745964594,"current_range_meters":8800,"station_id":"ce4bho12rcd13ifvqh2g","pricing_plan_id":"cebpf4jnsgd1na2vs0mg"},{"bike_id":"3c10f98c-2cb9-4204-927c-152300f9b3ce","system_id":"levelo_inurba_marseille","lat":43.34724,"lon":5.35187,"is_reserved":false,"is_disabled":false,"rental_uris":{"android":"levelo://app?vid=3c10f98c-2cb9-4204-927c-152300f9b3ce","ios":"levelo://app?vid=3c10f98c-2cb9-4204-927c-152300f9b3ce"},"vehicle_type_id":"4","last_reported":1745964594,"current_range_meters":9200,"station_id":"","pricing_plan_id":"cebpf4jnsgd1na2vs0mg"},{"bike_id":"c7d4ca92-020f-4c6f-815a-ddc6fdf77b1f","system_id":"levelo_inurba_marseille","lat":43.23471,"lon":5.38037,"is_reserved":false,"is_disabled":false,"rental_uris":{"android":"levelo://app?vid=c7d4ca92-020f-4c6f-815a-ddc6fdf77b1f","ios":"levelo://app?vid=c7d4ca92-020f-4c6f-815a-ddc6fdf77b1f"},"vehicle_type_id":"4","last_reported":1745964594,"current_range_meters":9200,"station_id":"","pricing_plan_id":"cebpf4jnsgd1na2vs0mg"},{"bike_id":"d693c143-5944-42c7-b7b1-448d4c6d229b","system_id":"levelo_inurba_marseille","lat":43.312808,"lon":5.401692,"is_reserved":false,"is_disabled":false,"rental_uris":{"android":"levelo://app?vid=d693c143-5944-42c7-b7b1-448d4c6d229b","ios":"levelo://app?vid=d693c143-5944-42c7-b7b1-448d4c6d229b"},"vehicle_type_id":"4","last_reported":1745964594,"current_range_meters":9200,"station_id":"ce4bh092rcd13ifvqd30","pricing_plan_id":"cebpf4jnsgd1na2vs0mg"},{"bike_id":"872218fb-5ce0-4cf2-a4bf-c4423f48b0cc","system_id":"levelo_inurba_marseille","lat":43.31264,"lon":5.36857,"is_reserved":false,"is_disabled":false,"rental_uris":{"android":"levelo://app?vid=872218fb-5ce0-4cf2-a4bf-c4423f48b0cc","ios":"levelo://app?vid=872218fb-5ce0-4cf2-a4bf-c4423f48b0cc"},"vehicle_type_id":"4","last_reported":1745964594,"current_range_meters":9600,"station_id":"ce4bgl92rcd13ifvqbq0","pricing_plan_id":"cebpf4jnsgd1na2vs0mg"},{"bike_id":"3a3adc5f-c46c-4ddb-9f5b-addbfa5853df","system_id":"levelo_inurba_marseille","lat":43.30207,"lon":5.3947,"is_reserved":false,"is_disabled":false,"rental_uris":{"android":"levelo://app?vid=3a3adc5f-c46c-4ddb-9f5b-addbfa5853df","ios":"levelo://app?vid=3a3adc5f-c46c-4ddb-9f5b-addbfa5853df"},"vehicle_type_id":"4","last_reported":1745964594,"current_range_meters":9600,"station_id":"ce4bh0p2rcd13ifvqd70","pricing_plan_id":"cebpf4jnsgd1na2vs0mg"},{"bike_id":"e553d5dd-fa30-4171-8626-790802785fec","system_id":"levelo_inurba_marseille","lat":43.299784,"lon":5.371802,"is_reserved":false,"is_disabled":false,"rental_uris":{"android":"levelo://app?vid=e553d5dd-fa30-4171-8626-790802785fec","ios":"levelo://app?vid=e553d5dd-fa30-4171-8626-790802785fec"},"vehicle_type_id":"4","last_reported":1745964594,"current_range_meters":10000,"station_id":"","pricing_plan_id":"cebpf4jnsgd1na2vs0mg"},{"bike_id":"bcbdece9-18a4-4ced-8494-9c131639e5f6","system_id":"levelo_inurba_marseille","lat":43.26126,"lon":5.41463,"is_reserved":false,"is_disabled":false,"rental_uris":{"android":"levelo://app?vid=bcbdece9-18a4-4ced-8494-9c131639e5f6","ios":"levelo://app?vid=bcbdece9-18a4-4ced-8494-9c131639e5f6"},"vehicle_type_id":"4","last_reported":1745964594,"current_range_meters":10000,"station_id":"","pricing_plan_id":"cebpf4jnsgd1na2vs0mg"},{"bike_id":"27e2acdd-2add-407a-a835-796f76c27c03","system_id":"levelo_inurba_marseille","lat":43.32147,"lon":5.36791,"is_reserved":false,"is_disabled":false,"rental_uris":{"android":"levelo://app?vid=27e2acdd-2add-407a-a835-796f76c27c03","ios":"levelo://app?vid=27e2acdd-2add-407a-a835-796f76c27c03"},"vehicle_type_id":"4","last_reported":1745964594,"current_range_meters":10000,"station_id":"","pricing_plan_id":"cebpf4jnsgd1na2vs0mg"},{"bike_id":"950539c0-c2a7-4f10-9505-afe3371972fa","system_id":"levelo_inurba_marseille","lat":43.30634,"lon":5.40075,"is_reserved":false,"is_disabled":false,"rental_uris":{"android":"levelo://app?vid=950539c0-c2a7-4f10-9505-afe3371972fa","ios":"levelo://app?vid=950539c0-c2a7-4f10-9505-afe3371972fa"},"vehicle_type_id":"4","last_reported":1745964594,"current_range_meters":10000,"station_id":"ce4bh112rcd13ifvqda0","pricing_plan_id":"cebpf4jnsgd1na2vs0mg"},{"bike_id":"1c784351-9820-4386-9392-82ce87397468","system_id":"levelo_inurba_marseille","lat":43.30626,"lon":5.40087,"is_reserved":false,"is_disabled":false,"rental_uris":{"android":"levelo://app?vid=1c784351-9820-4386-9392-82ce87397468","ios":"levelo://app?vid=1c784351-9820-4386-9392-82ce87397468"},"vehicle_type_id":"4","last_reported":1745964594,"current_range_meters":10000,"station_id":"ce4bh112rcd13ifvqda0","pricing_plan_id":"cebpf4jnsgd1na2vs0mg"},{"bike_id":"001cc922-c08b-48c6-b124-2829e7acef22","system_id":"levelo_inurba_marseille","lat":43.28572,"lon":5.39493,"is_reserved":false,"is_disabled":false,"rental_uris":{"android":"levelo://app?vid=001cc922-c08b-48c6-b124-2829e7acef22","ios":"levelo://app?vid=001cc922-c08b-48c6-b124-2829e7acef22"},"vehicle_type_id":"4","last_reported":1745964594,"current_range_meters":10000,"station_id":"ce4bh292rcd13ifvqdg0","pricing_plan_id":"cebpf4jnsgd1na2vs0mg"},{"bike_id":"0fbda7cd-f00d-4938-8e1e-60366b309981","system_id":"levelo_inurba_marseille","lat":43.28029,"lon":5.36943,"is_reserved":false,"is_disabled":false,"rental_uris":{"android":"levelo://app?vid=0fbda7cd-f00d-4938-8e1e-60366b309981","ios":"levelo://app?vid=0fbda7cd-f00d-4938-8e1e-60366b309981"},"vehicle_type_id":"4","last_reported":1745964594,"current_range_meters":10000,"station_id":"ce4bha12rcd13ifvqef0","pricing_plan_id":"cebpf4jnsgd1na2vs0mg"},{"bike_id":"d9d65adf-6c62-4fb9-b5a0-e8f6922a2a7d","system_id":"levelo_inurba_marseille","lat":43.28461,"lon":5.35891,"is_reserved":false,"is_disabled":false,"rental_uris":{"android":"levelo://app?vid=d9d65adf-6c62-4fb9-b5a0-e8f6922a2a7d","ios":"levelo://app?vid=d9d65adf-6c62-4fb9-b5a0-e8f6922a2a7d"},"vehicle_type_id":"4","last_reported":1745964594,"current_range_meters":10000,"station_id":"ce4bhah2rcd13ifvqei0","pricing_plan_id":"cebpf4jnsgd1na2vs0mg"},{"bike_id":"7744fc4a-a864-4a95-995b-a7a1e63cfe78","system_id":"levelo_inurba_marseille","lat":43.31713,"lon":5.42421,"is_reserved":false,"is_disabled":false,"rental_uris":{"android":"levelo://app?vid=7744fc4a-a864-4a95-995b-a7a1e63cfe78","ios":"levelo://app?vid=7744fc4a-a864-4a95-995b-a7a1e63cfe78"},"vehicle_type_id":"4","last_reported":1745964594,"current_range_meters":10000,"station_id":"ce4bhp92rcd13ifvqhbg","pricing_plan_id":"cebpf4jnsgd1na2vs0mg"},{"bike_id":"a015aa72-4883-446b-a9a9-e16d84a5a524","system_id":"levelo_inurba_marseille","lat":43.30877,"lon":5.39631,"is_reserved":false,"is_disabled":false,"rental_uris":{"android":"levelo://app?vid=a015aa72-4883-446b-a9a9-e16d84a5a524","ios":"levelo://app?vid=a015aa72-4883-446b-a9a9-e16d84a5a524"},"vehicle_type_id":"4","last_reported":1745964594,"current_range_meters":10800,"station_id":"ce4bh012rcd13ifvqcv0","pricing_plan_id":"cebpf4jnsgd1na2vs0mg"},{"bike_id":"07a6b65e-5383-4334-babe-4808d811c7e7","system_id":"levelo_inurba_marseille","lat":43.287,"lon":5.37389,"is_reserved":false,"is_disabled":false,"rental_uris":{"android":"levelo://app?vid=07a6b65e-5383-4334-babe-4808d811c7e7","ios":"levelo://app?vid=07a6b65e-5383-4334-babe-4808d811c7e7"},"vehicle_type_id":"4","last_reported":1745964594,"current_range_meters":10800,"station_id":"ce4bh3p2rcd13ifvqdq0","pricing_plan_id":"cebpf4jnsgd1na2vs0mg"},{"bike_id":"4c1cb1f3-bfff-4b50-b8fb-ee0c50b413eb","system_id":"levelo_inurba_marseille","lat":43.28358,"lon":5.38109,"is_reserved":false,"is_disabled":false,"rental_uris":{"android":"levelo://app?vid=4c1cb1f3-bfff-4b50-b8fb-ee0c50b413eb","ios":"levelo://app?vid=4c1cb1f3-bfff-4b50-b8fb-ee0c50b413eb"},"vehicle_type_id":"4","last_reported":1745964594,"current_range_meters":10800,"station_id":"ce4bh412rcd13ifvqdr0","pricing_plan_id":"cebpf4jnsgd1na2vs0mg"},{"bike_id":"a6fa0b0c-21b2-4609-9eb8-8fd9fef76c95","system_id":"levelo_inurba_marseille","lat":43.28724,"lon":5.37939,"is_reserved":false,"is_disabled":false,"rental_uris":{"android":"levelo://app?vid=a6fa0b0c-21b2-4609-9eb8-8fd9fef76c95","ios":"levelo://app?vid=a6fa0b0c-21b2-4609-9eb8-8fd9fef76c95"},"vehicle_type_id":"4","last_reported":1745964594,"current_range_meters":10800,"station_id":"ce4bh9p2rcd13ifvqec0","pricing_plan_id":"cebpf4jnsgd1na2vs0mg"},{"bike_id":"9dd528f1-7987-4620-9e16-782da8c3e457","system_id":"levelo_inurba_marseille","lat":43.26573,"lon":5.39001,"is_reserved":false,"is_disabled":false,"rental_uris":{"android":"levelo://app?vid=9dd528f1-7987-4620-9e16-782da8c3e457","ios":"levelo://app?vid=9dd528f1-7987-4620-9e16-782da8c3e457"},"vehicle_type_id":"4","last_reported":1745964594,"current_range_meters":10800,"station_id":"ce4bhe12rcd13ifvqf30","pricing_plan_id":"cebpf4jnsgd1na2vs0mg"},{"bike_id":"c339bc39-8027-4a12-ba75-2c773ffe98b5","system_id":"levelo_inurba_marseille","lat":43.25716,"lon":5.411,"is_reserved":false,"is_disabled":false,"rental_uris":{"android":"levelo://app?vid=c339bc39-8027-4a12-ba75-2c773ffe98b5","ios":"levelo://app?vid=c339bc39-8027-4a12-ba75-2c773ffe98b5"},"vehicle_type_id":"4","last_reported":1745964594,"current_range_meters":10800,"station_id":"ce4bhkp2rcd13ifvqgd0","pricing_plan_id":"cebpf4jnsgd1na2vs0mg"},{"bike_id":"6ff32f17-7b9c-463f-a13f-79ee01c6a7e8","system_id":"levelo_inurba_marseille","lat":43.302587,"lon":5.400755,"is_reserved":false,"is_disabled":false,"rental_uris":{"android":"levelo://app?vid=6ff32f17-7b9c-463f-a13f-79ee01c6a7e8","ios":"levelo://app?vid=6ff32f17-7b9c-463f-a13f-79ee01c6a7e8"},"vehicle_type_id":"4","last_reported":1745964594,"current_range_meters":11200,"station_id":"ce4bgvh2rcd13ifvqcs0","pricing_plan_id":"cebpf4jnsgd1na2vs0mg"},{"bike_id":"8695b311-63ee-404f-ac27-93d23941e7ce","system_id":"levelo_inurba_marseille","lat":43.29214,"lon":5.40917,"is_reserved":false,"is_disabled":false,"rental_uris":{"android":"levelo://app?vid=8695b311-63ee-404f-ac27-93d23941e7ce","ios":"levelo://app?vid=8695b311-63ee-404f-ac27-93d23941e7ce"},"vehicle_type_id":"4","last_reported":1745964594,"current_range_meters":11200,"station_id":"ce4bh192rcd13ifvqdc0","pricing_plan_id":"cebpf4jnsgd1na2vs0mg"},{"bike_id":"1c6e2801-d406-4688-a913-a775da6b0f13","system_id":"levelo_inurba_marseille","lat":43.22933,"lon":5.35371,"is_reserved":false,"is_disabled":false,"rental_uris":{"android":"levelo://app?vid=1c6e2801-d406-4688-a913-a775da6b0f13","ios":"levelo://app?vid=1c6e2801-d406-4688-a913-a775da6b0f13"},"vehicle_type_id":"4","last_reported":1745964594,"current_range_meters":11200,"station_id":"cpo3532slgdg3j2ikp40","pricing_plan_id":"cebpf4jnsgd1na2vs0mg"},{"bike_id":"489415b8-9254-45c1-b00c-e7554d56755c","system_id":"levelo_inurba_marseille","lat":43.24528,"lon":5.412162,"is_reserved":false,"is_disabled":false,"rental_uris":{"android":"levelo://app?vid=489415b8-9254-45c1-b00c-e7554d56755c","ios":"levelo://app?vid=489415b8-9254-45c1-b00c-e7554d56755c"},"vehicle_type_id":"4","last_reported":1745964594,"current_range_meters":11600,"station_id":"","pricing_plan_id":"cebpf4jnsgd1na2vs0mg"},{"bike_id":"ecbbddad-df5a-4350-ae18-5856230db5e5","system_id":"levelo_inurba_marseille","lat":43.26233,"lon":5.40444,"is_reserved":false,"is_disabled":false,"rental_uris":{"android":"levelo://app?vid=ecbbddad-df5a-4350-ae18-5856230db5e5","ios":"levelo://app?vid=ecbbddad-df5a-4350-ae18-5856230db5e5"},"vehicle_type_id":"4","last_reported":1745964594,"current_range_meters":11600,"station_id":"ce4bhmh2rcd13ifvqgmg","pricing_plan_id":"cebpf4jnsgd1na2vs0mg"},{"bike_id":"312629db-7553-4f57-8655-a25196d01b88","system_id":"levelo_inurba_marseille","lat":43.30382,"lon":5.4248,"is_reserved":false,"is_disabled":false,"rental_uris":{"android":"levelo://app?vid=312629db-7553-4f57-8655-a25196d01b88","ios":"levelo://app?vid=312629db-7553-4f57-8655-a25196d01b88"},"vehicle_type_id":"4","last_reported":1745964594,"current_range_meters":11600,"station_id":"ce4bhoh2rcd13ifvqh6g","pricing_plan_id":"cebpf4jnsgd1na2vs0mg"},{"bike_id":"071a671b-fb53-468b-ba8f-96ef79b57233","system_id":"levelo_inurba_marseille","lat":43.32358,"lon":5.36766,"is_reserved":false,"is_disabled":false,"rental_uris":{"android":"levelo://app?vid=071a671b-fb53-468b-ba8f-96ef79b57233","ios":"levelo://app?vid=071a671b-fb53-468b-ba8f-96ef79b57233"},"vehicle_type_id":"4","last_reported":1745964594,"current_range_meters":11600,"station_id":"ce4bhsh2rcd13ifvqi2g","pricing_plan_id":"cebpf4jnsgd1na2vs0mg"},{"bike_id":"07edfd45-c3fa-4b57-b865-cf1bf9963264","system_id":"levelo_inurba_marseille","lat":43.23387,"lon":5.36416,"is_reserved":false,"is_disabled":false,"rental_uris":{"android":"levelo://app?vid=07edfd45-c3fa-4b57-b865-cf1bf9963264","ios":"levelo://app?vid=07edfd45-c3fa-4b57-b865-cf1bf9963264"},"vehicle_type_id":"4","last_reported":1745964594,"current_range_meters":12000,"station_id":"","pricing_plan_id":"cebpf4jnsgd1na2vs0mg"},{"bike_id":"bc4b687b-659c-428d-bbf3-16f53869e7b9","system_id":"levelo_inurba_marseille","lat":43.29978,"lon":5.37181,"is_reserved":false,"is_disabled":false,"rental_uris":{"android":"levelo://app?vid=bc4b687b-659c-428d-bbf3-16f53869e7b9","ios":"levelo://app?vid=bc4b687b-659c-428d-bbf3-16f53869e7b9"},"vehicle_type_id":"4","last_reported":1745964594,"current_range_meters":12000,"station_id":"ce4bgr92rcd13ifvqc7g","pricing_plan_id":"cebpf4jnsgd1na2vs0mg"},{"bike_id":"8677ec73-cb78-43f6-8771-8f65730b3bed","system_id":"levelo_inurba_marseille","lat":43.31076,"lon":5.38347,"is_reserved":false,"is_disabled":false,"rental_uris":{"android":"levelo://app?vid=8677ec73-cb78-43f6-8771-8f65730b3bed","ios":"levelo://app?vid=8677ec73-cb78-43f6-8771-8f65730b3bed"},"vehicle_type_id":"4","last_reported":1745964594,"current_range_meters":12000,"station_id":"ce4bgv92rcd13ifvqcr0","pricing_plan_id":"cebpf4jnsgd1na2vs0mg"},{"bike_id":"3da4f807-a9a7-4e80-80cc-47afecae7882","system_id":"levelo_inurba_marseille","lat":43.28007,"lon":5.40016,"is_reserved":false,"is_disabled":false,"rental_uris":{"android":"levelo://app?vid=3da4f807-a9a7-4e80-80cc-47afecae7882","ios":"levelo://app?vid=3da4f807-a9a7-4e80-80cc-47afecae7882"},"vehicle_type_id":"4","last_reported":1745964594,"current_range_meters":12000,"station_id":"ce4bho92rcd13ifvqh4g","pricing_plan_id":"cebpf4jnsgd1na2vs0mg"},{"bike_id":"8bf816af-df3a-418a-9a0d-cf986c05d396","system_id":"levelo_inurba_marseille","lat":43.27373,"lon":5.36258,"is_reserved":false,"is_disabled":false,"rental_uris":{"android":"levelo://app?vid=8bf816af-df3a-418a-9a0d-cf986c05d396","ios":"levelo://app?vid=8bf816af-df3a-418a-9a0d-cf986c05d396"},"vehicle_type_id":"4","last_reported":1745964594,"current_range_meters":12400,"station_id":"ce4bhbh2rcd13ifvqeo0","pricing_plan_id":"cebpf4jnsgd1na2vs0mg"},{"bike_id":"421fd581-29e4-4138-8283-024d2e5349f4","system_id":"levelo_inurba_marseille","lat":43.31995,"lon":5.38167,"is_reserved":false,"is_disabled":false,"rental_uris":{"android":"levelo://app?vid=421fd581-29e4-4138-8283-024d2e5349f4","ios":"levelo://app?vid=421fd581-29e4-4138-8283-024d2e5349f4"},"vehicle_type_id":"4","last_reported":1745964594,"current_range_meters":12400,"station_id":"ce4bhr12rcd13ifvqhpg","pricing_plan_id":"cebpf4jnsgd1na2vs0mg"},{"bike_id":"fe0c4d1a-9874-47df-b868-a5e70081d8ce","system_id":"levelo_inurba_marseille","lat":43.229356,"lon":5.353807,"is_reserved":false,"is_disabled":false,"rental_uris":{"android":"levelo://app?vid=fe0c4d1a-9874-47df-b868-a5e70081d8ce","ios":"levelo://app?vid=fe0c4d1a-9874-47df-b868-a5e70081d8ce"},"vehicle_type_id":"4","last_reported":1745964594,"current_range_meters":12400,"station_id":"cpo3532slgdg3j2ikp40","pricing_plan_id":"cebpf4jnsgd1na2vs0mg"},{"bike_id":"ddf42e2f-5ba3-456f-b6b9-71a4fb220f7c","system_id":"levelo_inurba_marseille","lat":43.21764,"lon":5.34584,"is_reserved":false,"is_disabled":false,"rental_uris":{"android":"levelo://app?vid=ddf42e2f-5ba3-456f-b6b9-71a4fb220f7c","ios":"levelo://app?vid=ddf42e2f-5ba3-456f-b6b9-71a4fb220f7c"},"vehicle_type_id":"4","last_reported":1745964594,"current_range_meters":12400,"station_id":"st_cvj6r9ubvosntc0bgbag","pricing_plan_id":"cebpf4jnsgd1na2vs0mg"},{"bike_id":"40a81f13-fb08-4154-bb4d-32834fddeadc","system_id":"levelo_inurba_marseille","lat":43.30135,"lon":5.37427,"is_reserved":false,"is_disabled":false,"rental_uris":{"android":"levelo://app?vid=40a81f13-fb08-4154-bb4d-32834fddeadc","ios":"levelo://app?vid=40a81f13-fb08-4154-bb4d-32834fddeadc"},"vehicle_type_id":"4","last_reported":1745964594,"current_range_meters":12800,"station_id":"ce4bgs92rcd13ifvqcc0","pricing_plan_id":"cebpf4jnsgd1na2vs0mg"},{"bike_id":"9c68c416-b63e-4646-876b-a6ce563ad522","system_id":"levelo_inurba_marseille","lat":43.30932,"lon":5.40151,"is_reserved":false,"is_disabled":false,"rental_uris":{"android":"levelo://app?vid=9c68c416-b63e-4646-876b-a6ce563ad522","ios":"levelo://app?vid=9c68c416-b63e-4646-876b-a6ce563ad522"},"vehicle_type_id":"4","last_reported":1745964594,"current_range_meters":12800,"station_id":"ce4bgvp2rcd13ifvqct0","pricing_plan_id":"cebpf4jnsgd1na2vs0mg"},{"bike_id":"197839f2-0234-459c-be6d-43045265e278","system_id":"levelo_inurba_marseille","lat":43.30645,"lon":5.40066,"is_reserved":false,"is_disabled":false,"rental_uris":{"android":"levelo://app?vid=197839f2-0234-459c-be6d-43045265e278","ios":"levelo://app?vid=197839f2-0234-459c-be6d-43045265e278"},"vehicle_type_id":"4","last_reported":1745964594,"current_range_meters":12800,"station_id":"ce4bh112rcd13ifvqda0","pricing_plan_id":"cebpf4jnsgd1na2vs0mg"},{"bike_id":"9ecf076f-7bd8-490a-8c5a-c7a759e90882","system_id":"levelo_inurba_marseille","lat":43.28459,"lon":5.35896,"is_reserved":false,"is_disabled":false,"rental_uris":{"android":"levelo://app?vid=9ecf076f-7bd8-490a-8c5a-c7a759e90882","ios":"levelo://app?vid=9ecf076f-7bd8-490a-8c5a-c7a759e90882"},"vehicle_type_id":"4","last_reported":1745964594,"current_range_meters":12800,"station_id":"ce4bhah2rcd13ifvqei0","pricing_plan_id":"cebpf4jnsgd1na2vs0mg"},{"bike_id":"40cd9c09-5d6c-4b2c-a5ec-3d25d8f86287","system_id":"levelo_inurba_marseille","lat":43.25091,"lon":5.3952,"is_reserved":false,"is_disabled":false,"rental_uris":{"android":"levelo://app?vid=40cd9c09-5d6c-4b2c-a5ec-3d25d8f86287","ios":"levelo://app?vid=40cd9c09-5d6c-4b2c-a5ec-3d25d8f86287"},"vehicle_type_id":"4","last_reported":1745964594,"current_range_meters":12800,"station_id":"ce4bhm12rcd13ifvqgkg","pricing_plan_id":"cebpf4jnsgd1na2vs0mg"},{"bike_id":"d33db4b7-debb-43bb-9349-e0349e066263","system_id":"levelo_inurba_marseille","lat":43.3025,"lon":5.4007,"is_reserved":false,"is_disabled":false,"rental_uris":{"android":"levelo://app?vid=d33db4b7-debb-43bb-9349-e0349e066263","ios":"levelo://app?vid=d33db4b7-debb-43bb-9349-e0349e066263"},"vehicle_type_id":"4","last_reported":1745964594,"current_range_meters":13600,"station_id":"ce4bgvh2rcd13ifvqcs0","pricing_plan_id":"cebpf4jnsgd1na2vs0mg"},{"bike_id":"50ef781b-c4c1-4448-a0d9-432667035f48","system_id":"levelo_inurba_marseille","lat":43.30612,"lon":5.39328,"is_reserved":false,"is_disabled":false,"rental_uris":{"android":"levelo://app?vid=50ef781b-c4c1-4448-a0d9-432667035f48","ios":"levelo://app?vid=50ef781b-c4c1-4448-a0d9-432667035f48"},"vehicle_type_id":"4","last_reported":1745964594,"current_range_meters":13600,"station_id":"ce4bh0p2rcd13ifvqd80","pricing_plan_id":"cebpf4jnsgd1na2vs0mg"},{"bike_id":"6d1c5eaf-041b-4e46-be6f-e55c97ecb5cb","system_id":"levelo_inurba_marseille","lat":43.32007,"lon":5.38139,"is_reserved":false,"is_disabled":false,"rental_uris":{"android":"levelo://app?vid=6d1c5eaf-041b-4e46-be6f-e55c97ecb5cb","ios":"levelo://app?vid=6d1c5eaf-041b-4e46-be6f-e55c97ecb5cb"},"vehicle_type_id":"4","last_reported":1745964594,"current_range_meters":13600,"station_id":"ce4bhr12rcd13ifvqhpg","pricing_plan_id":"cebpf4jnsgd1na2vs0mg"},{"bike_id":"ac80e985-cfdf-4940-bf6d-bf2ebe2c2fd0","system_id":"levelo_inurba_marseille","lat":43.32103,"lon":5.36767,"is_reserved":false,"is_disabled":false,"rental_uris":{"android":"levelo://app?vid=ac80e985-cfdf-4940-bf6d-bf2ebe2c2fd0","ios":"levelo://app?vid=ac80e985-cfdf-4940-bf6d-bf2ebe2c2fd0"},"vehicle_type_id":"4","last_reported":1745964594,"current_range_meters":13600,"station_id":"ce4bhrh2rcd13ifvqhug","pricing_plan_id":"cebpf4jnsgd1na2vs0mg"},{"bike_id":"dcb0b990-89f9-495c-a9c1-10b17ae39667","system_id":"levelo_inurba_marseille","lat":43.23485,"lon":5.38032,"is_reserved":false,"is_disabled":false,"rental_uris":{"android":"levelo://app?vid=dcb0b990-89f9-495c-a9c1-10b17ae39667","ios":"levelo://app?vid=dcb0b990-89f9-495c-a9c1-10b17ae39667"},"vehicle_type_id":"4","last_reported":1745964594,"current_range_meters":14000,"station_id":"","pricing_plan_id":"cebpf4jnsgd1na2vs0mg"},{"bike_id":"697ced8a-2a05-4cd9-8153-69869351863a","system_id":"levelo_inurba_marseille","lat":43.29197,"lon":5.39313,"is_reserved":false,"is_disabled":false,"rental_uris":{"android":"levelo://app?vid=697ced8a-2a05-4cd9-8153-69869351863a","ios":"levelo://app?vid=697ced8a-2a05-4cd9-8153-69869351863a"},"vehicle_type_id":"4","last_reported":1745964594,"current_range_meters":14000,"station_id":"ce4bh192rcd13ifvqdd0","pricing_plan_id":"cebpf4jnsgd1na2vs0mg"},{"bike_id":"b86e23f0-9a3d-455f-8fb3-200f8908d879","system_id":"levelo_inurba_marseille","lat":43.2858,"lon":5.39491,"is_reserved":false,"is_disabled":false,"rental_uris":{"android":"levelo://app?vid=b86e23f0-9a3d-455f-8fb3-200f8908d879","ios":"levelo://app?vid=b86e23f0-9a3d-455f-8fb3-200f8908d879"},"vehicle_type_id":"4","last_reported":1745964594,"current_range_meters":14000,"station_id":"ce4bh292rcd13ifvqdg0","pricing_plan_id":"cebpf4jnsgd1na2vs0mg"},{"bike_id":"b2bb8878-962f-429b-8d94-c9512f1155bd","system_id":"levelo_inurba_marseille","lat":43.28847,"lon":5.39305,"is_reserved":false,"is_disabled":false,"rental_uris":{"android":"levelo://app?vid=b2bb8878-962f-429b-8d94-c9512f1155bd","ios":"levelo://app?vid=b2bb8878-962f-429b-8d94-c9512f1155bd"},"vehicle_type_id":"4","last_reported":1745964594,"current_range_meters":14000,"station_id":"ce4bh2p2rcd13ifvqdi0","pricing_plan_id":"cebpf4jnsgd1na2vs0mg"},{"bike_id":"d50cb595-81a6-406b-90c1-e39a8ffa9f99","system_id":"levelo_inurba_marseille","lat":43.24179,"lon":5.39716,"is_reserved":false,"is_disabled":false,"rental_uris":{"android":"levelo://app?vid=d50cb595-81a6-406b-90c1-e39a8ffa9f99","ios":"levelo://app?vid=d50cb595-81a6-406b-90c1-e39a8ffa9f99"},"vehicle_type_id":"4","last_reported":1745964594,"current_range_meters":14000,"station_id":"ce4bhn12rcd13ifvqgpg","pricing_plan_id":"cebpf4jnsgd1na2vs0mg"},{"bike_id":"f84f1f42-7d5f-4b8b-8c25-c5c9df16d020","system_id":"levelo_inurba_marseille","lat":43.28709,"lon":5.39965,"is_reserved":false,"is_disabled":false,"rental_uris":{"android":"levelo://app?vid=f84f1f42-7d5f-4b8b-8c25-c5c9df16d020","ios":"levelo://app?vid=f84f1f42-7d5f-4b8b-8c25-c5c9df16d020"},"vehicle_type_id":"4","last_reported":1745964594,"current_range_meters":14000,"station_id":"ce4bho92rcd13ifvqh3g","pricing_plan_id":"cebpf4jnsgd1na2vs0mg"},{"bike_id":"5e122a88-e9ff-4688-ab39-82005b04d2e7","system_id":"levelo_inurba_marseille","lat":43.3072,"lon":5.40039,"is_reserved":false,"is_disabled":false,"rental_uris":{"android":"levelo://app?vid=5e122a88-e9ff-4688-ab39-82005b04d2e7","ios":"levelo://app?vid=5e122a88-e9ff-4688-ab39-82005b04d2e7"},"vehicle_type_id":"4","last_reported":1745964594,"current_range_meters":14400,"station_id":"","pricing_plan_id":"cebpf4jnsgd1na2vs0mg"},{"bike_id":"4d4778ed-b855-40e3-aed9-6ce2157d0719","system_id":"levelo_inurba_marseille","lat":43.31317,"lon":5.3968,"is_reserved":false,"is_disabled":false,"rental_uris":{"android":"levelo://app?vid=4d4778ed-b855-40e3-aed9-6ce2157d0719","ios":"levelo://app?vid=4d4778ed-b855-40e3-aed9-6ce2157d0719"},"vehicle_type_id":"4","last_reported":1745964594,"current_range_meters":14400,"station_id":"ce4bgvp2rcd13ifvqcu0","pricing_plan_id":"cebpf4jnsgd1na2vs0mg"},{"bike_id":"67946696-e1b4-48e1-9aea-70b477d4f50c","system_id":"levelo_inurba_marseille","lat":43.30657,"lon":5.4005,"is_reserved":false,"is_disabled":false,"rental_uris":{"android":"levelo://app?vid=67946696-e1b4-48e1-9aea-70b477d4f50c","ios":"levelo://app?vid=67946696-e1b4-48e1-9aea-70b477d4f50c"},"vehicle_type_id":"4","last_reported":1745964594,"current_range_meters":14400,"station_id":"ce4bh112rcd13ifvqda0","pricing_plan_id":"cebpf4jnsgd1na2vs0mg"},{"bike_id":"2bb0f5c4-ac25-4582-ae12-024a3a7b1ca5","system_id":"levelo_inurba_marseille","lat":43.285738,"lon":5.394998,"is_reserved":false,"is_disabled":false,"rental_uris":{"android":"levelo://app?vid=2bb0f5c4-ac25-4582-ae12-024a3a7b1ca5","ios":"levelo://app?vid=2bb0f5c4-ac25-4582-ae12-024a3a7b1ca5"},"vehicle_type_id":"4","last_reported":1745964594,"current_range_meters":14400,"station_id":"ce4bh292rcd13ifvqdg0","pricing_plan_id":"cebpf4jnsgd1na2vs0mg"},{"bike_id":"aedc6b11-ffaa-40c0-aabb-e72e1386c658","system_id":"levelo_inurba_marseille","lat":43.29032,"lon":5.38126,"is_reserved":false,"is_disabled":false,"rental_uris":{"android":"levelo://app?vid=aedc6b11-ffaa-40c0-aabb-e72e1386c658","ios":"levelo://app?vid=aedc6b11-ffaa-40c0-aabb-e72e1386c658"},"vehicle_type_id":"4","last_reported":1745964594,"current_range_meters":14400,"station_id":"ce4bh4p2rcd13ifvqe1g","pricing_plan_id":"cebpf4jnsgd1na2vs0mg"},{"bike_id":"151b0301-dcdb-49f4-8a86-3a559c1d86a0","system_id":"levelo_inurba_marseille","lat":43.28718,"lon":5.36089,"is_reserved":false,"is_disabled":false,"rental_uris":{"android":"levelo://app?vid=151b0301-dcdb-49f4-8a86-3a559c1d86a0","ios":"levelo://app?vid=151b0301-dcdb-49f4-8a86-3a559c1d86a0"},"vehicle_type_id":"4","last_reported":1745964594,"current_range_meters":14400,"station_id":"cki0cbj6b192h4jlfktg","pricing_plan_id":"cebpf4jnsgd1na2vs0mg"},{"bike_id":"6f2a21fc-3600-4bf9-bb99-2b0dced460c4","system_id":"levelo_inurba_marseille","lat":43.313485,"lon":5.396852,"is_reserved":false,"is_disabled":false,"rental_uris":{"android":"levelo://app?vid=6f2a21fc-3600-4bf9-bb99-2b0dced460c4","ios":"levelo://app?vid=6f2a21fc-3600-4bf9-bb99-2b0dced460c4"},"vehicle_type_id":"4","last_reported":1745964594,"current_range_meters":14800,"station_id":"ce4bgvp2rcd13ifvqcu0","pricing_plan_id":"cebpf4jnsgd1na2vs0mg"},{"bike_id":"82dd4d50-9f2d-4234-b103-436e89efa160","system_id":"levelo_inurba_marseille","lat":43.29255,"lon":5.40903,"is_reserved":false,"is_disabled":false,"rental_uris":{"android":"levelo://app?vid=82dd4d50-9f2d-4234-b103-436e89efa160","ios":"levelo://app?vid=82dd4d50-9f2d-4234-b103-436e89efa160"},"vehicle_type_id":"4","last_reported":1745964594,"current_range_meters":14800,"station_id":"ce4bh192rcd13ifvqdc0","pricing_plan_id":"cebpf4jnsgd1na2vs0mg"},{"bike_id":"07fd015a-c321-4747-988e-5a04d55d2eb2","system_id":"levelo_inurba_marseille","lat":43.29283,"lon":5.4011,"is_reserved":false,"is_disabled":false,"rental_uris":{"android":"levelo://app?vid=07fd015a-c321-4747-988e-5a04d55d2eb2","ios":"levelo://app?vid=07fd015a-c321-4747-988e-5a04d55d2eb2"},"vehicle_type_id":"4","last_reported":1745964594,"current_range_meters":14800,"station_id":"ce4bh312rcd13ifvqdk0","pricing_plan_id":"cebpf4jnsgd1na2vs0mg"},{"bike_id":"78bc369f-5fbf-4d71-b163-427b9d54c44a","system_id":"levelo_inurba_marseille","lat":43.284629,"lon":5.358854,"is_reserved":false,"is_disabled":false,"rental_uris":{"android":"levelo://app?vid=78bc369f-5fbf-4d71-b163-427b9d54c44a","ios":"levelo://app?vid=78bc369f-5fbf-4d71-b163-427b9d54c44a"},"vehicle_type_id":"4","last_reported":1745964594,"current_range_meters":14800,"station_id":"ce4bhah2rcd13ifvqei0","pricing_plan_id":"cebpf4jnsgd1na2vs0mg"},{"bike_id":"1db9ca2a-10b1-4b9e-aa56-164f2c2ac111","system_id":"levelo_inurba_marseille","lat":43.283735,"lon":5.418538,"is_reserved":false,"is_disabled":false,"rental_uris":{"android":"levelo://app?vid=1db9ca2a-10b1-4b9e-aa56-164f2c2ac111","ios":"levelo://app?vid=1db9ca2a-10b1-4b9e-aa56-164f2c2ac111"},"vehicle_type_id":"4","last_reported":1745964594,"current_range_meters":15200,"station_id":"","pricing_plan_id":"cebpf4jnsgd1na2vs0mg"},{"bike_id":"f0f1ba02-1129-4c1a-874f-736ed611f0f0","system_id":"levelo_inurba_marseille","lat":43.30609,"lon":5.37195,"is_reserved":false,"is_disabled":false,"rental_uris":{"android":"levelo://app?vid=f0f1ba02-1129-4c1a-874f-736ed611f0f0","ios":"levelo://app?vid=f0f1ba02-1129-4c1a-874f-736ed611f0f0"},"vehicle_type_id":"4","last_reported":1745964594,"current_range_meters":15200,"station_id":"ce4bgqh2rcd13ifvqc4g","pricing_plan_id":"cebpf4jnsgd1na2vs0mg"},{"bike_id":"e0df6645-8d34-4ab9-b8c9-6b1fb0271e56","system_id":"levelo_inurba_marseille","lat":43.28,"lon":5.4166,"is_reserved":false,"is_disabled":false,"rental_uris":{"android":"levelo://app?vid=e0df6645-8d34-4ab9-b8c9-6b1fb0271e56","ios":"levelo://app?vid=e0df6645-8d34-4ab9-b8c9-6b1fb0271e56"},"vehicle_type_id":"4","last_reported":1745964594,"current_range_meters":15200,"station_id":"ce4bho12rcd13ifvqh1g","pricing_plan_id":"cebpf4jnsgd1na2vs0mg"},{"bike_id":"211cf693-d947-4c8e-9e46-2d033f504a70","system_id":"levelo_inurba_marseille","lat":43.317086,"lon":5.437013,"is_reserved":false,"is_disabled":false,"rental_uris":{"android":"levelo://app?vid=211cf693-d947-4c8e-9e46-2d033f504a70","ios":"levelo://app?vid=211cf693-d947-4c8e-9e46-2d033f504a70"},"vehicle_type_id":"4","last_reported":1745964594,"current_range_meters":16000,"station_id":"","pricing_plan_id":"cebpf4jnsgd1na2vs0mg"},{"bike_id":"e5e92a64-e709-4b1a-a9b1-cbffe85789ca","system_id":"levelo_inurba_marseille","lat":43.25547,"lon":5.38141,"is_reserved":false,"is_disabled":false,"rental_uris":{"android":"levelo://app?vid=e5e92a64-e709-4b1a-a9b1-cbffe85789ca","ios":"levelo://app?vid=e5e92a64-e709-4b1a-a9b1-cbffe85789ca"},"vehicle_type_id":"4","last_reported":1745964594,"current_range_meters":16000,"station_id":"","pricing_plan_id":"cebpf4jnsgd1na2vs0mg"},{"bike_id":"0946df0c-8b25-4d89-8f93-affc2e1828f1","system_id":"levelo_inurba_marseille","lat":43.30145,"lon":5.39881,"is_reserved":false,"is_disabled":false,"rental_uris":{"android":"levelo://app?vid=0946df0c-8b25-4d89-8f93-affc2e1828f1","ios":"levelo://app?vid=0946df0c-8b25-4d89-8f93-affc2e1828f1"},"vehicle_type_id":"4","last_reported":1745964594,"current_range_meters":16000,"station_id":"ce4bh0h2rcd13ifvqd40","pricing_plan_id":"cebpf4jnsgd1na2vs0mg"},{"bike_id":"760b60e9-75ef-4049-b9d3-91877d77a86e","system_id":"levelo_inurba_marseille","lat":43.31536,"lon":5.3803,"is_reserved":false,"is_disabled":false,"rental_uris":{"android":"levelo://app?vid=760b60e9-75ef-4049-b9d3-91877d77a86e","ios":"levelo://app?vid=760b60e9-75ef-4049-b9d3-91877d77a86e"},"vehicle_type_id":"4","last_reported":1745964594,"current_range_meters":16000,"station_id":"ce4bhsp2rcd13ifvqi50","pricing_plan_id":"cebpf4jnsgd1na2vs0mg"},{"bike_id":"a083dd87-c68e-4ae0-b50d-cafd8e4610b9","system_id":"levelo_inurba_marseille","lat":43.3094,"lon":5.40148,"is_reserved":false,"is_disabled":false,"rental_uris":{"android":"levelo://app?vid=a083dd87-c68e-4ae0-b50d-cafd8e4610b9","ios":"levelo://app?vid=a083dd87-c68e-4ae0-b50d-cafd8e4610b9"},"vehicle_type_id":"4","last_reported":1745964594,"current_range_meters":16400,"station_id":"ce4bgvp2rcd13ifvqct0","pricing_plan_id":"cebpf4jnsgd1na2vs0mg"},{"bike_id":"142b21fe-e15a-4a65-b770-44381c311d71","system_id":"levelo_inurba_marseille","lat":43.31345,"lon":5.39696,"is_reserved":false,"is_disabled":false,"rental_uris":{"android":"levelo://app?vid=142b21fe-e15a-4a65-b770-44381c311d71","ios":"levelo://app?vid=142b21fe-e15a-4a65-b770-44381c311d71"},"vehicle_type_id":"4","last_reported":1745964594,"current_range_meters":16800,"station_id":"ce4bgvp2rcd13ifvqcu0","pricing_plan_id":"cebpf4jnsgd1na2vs0mg"},{"bike_id":"657dd7f1-8927-48c0-9f5a-b8b60efd5be1","system_id":"levelo_inurba_marseille","lat":43.28857,"lon":5.39331,"is_reserved":false,"is_disabled":false,"rental_uris":{"android":"levelo://app?vid=657dd7f1-8927-48c0-9f5a-b8b60efd5be1","ios":"levelo://app?vid=657dd7f1-8927-48c0-9f5a-b8b60efd5be1"},"vehicle_type_id":"4","last_reported":1745964594,"current_range_meters":16800,"station_id":"ce4bh2p2rcd13ifvqdi0","pricing_plan_id":"cebpf4jnsgd1na2vs0mg"},{"bike_id":"b01cbeff-8157-416f-a4f0-9990745aa5ff","system_id":"levelo_inurba_marseille","lat":43.28057,"lon":5.36956,"is_reserved":false,"is_disabled":false,"rental_uris":{"android":"levelo://app?vid=b01cbeff-8157-416f-a4f0-9990745aa5ff","ios":"levelo://app?vid=b01cbeff-8157-416f-a4f0-9990745aa5ff"},"vehicle_type_id":"4","last_reported":1745964594,"current_range_meters":16800,"station_id":"ce4bha12rcd13ifvqef0","pricing_plan_id":"cebpf4jnsgd1na2vs0mg"},{"bike_id":"2aca1c18-24ba-40b2-b53c-be21b3f10a9f","system_id":"levelo_inurba_marseille","lat":43.28947,"lon":5.36385,"is_reserved":false,"is_disabled":false,"rental_uris":{"android":"levelo://app?vid=2aca1c18-24ba-40b2-b53c-be21b3f10a9f","ios":"levelo://app?vid=2aca1c18-24ba-40b2-b53c-be21b3f10a9f"},"vehicle_type_id":"4","last_reported":1745964594,"current_range_meters":16800,"station_id":"ce4bhc92rcd13ifvqetg","pricing_plan_id":"cebpf4jnsgd1na2vs0mg"},{"bike_id":"d677444c-5a0f-4c29-b839-d7d13f8af0cf","system_id":"levelo_inurba_marseille","lat":43.301353,"lon":5.39855,"is_reserved":false,"is_disabled":false,"rental_uris":{"android":"levelo://app?vid=d677444c-5a0f-4c29-b839-d7d13f8af0cf","ios":"levelo://app?vid=d677444c-5a0f-4c29-b839-d7d13f8af0cf"},"vehicle_type_id":"4","last_reported":1745964594,"current_range_meters":17200,"station_id":"","pricing_plan_id":"cebpf4jnsgd1na2vs0mg"},{"bike_id":"b2e69b70-bf39-48ab-bb37-b5a886fbf0d7","system_id":"levelo_inurba_marseille","lat":43.33067,"lon":5.40819,"is_reserved":false,"is_disabled":false,"rental_uris":{"android":"levelo://app?vid=b2e69b70-bf39-48ab-bb37-b5a886fbf0d7","ios":"levelo://app?vid=b2e69b70-bf39-48ab-bb37-b5a886fbf0d7"},"vehicle_type_id":"4","last_reported":1745964594,"current_range_meters":17200,"station_id":"","pricing_plan_id":"cebpf4jnsgd1na2vs0mg"},{"bike_id":"70857dd2-f23a-44a9-9fcc-6d8a63652f2e","system_id":"levelo_inurba_marseille","lat":43.30245,"lon":5.40076,"is_reserved":false,"is_disabled":false,"rental_uris":{"android":"levelo://app?vid=70857dd2-f23a-44a9-9fcc-6d8a63652f2e","ios":"levelo://app?vid=70857dd2-f23a-44a9-9fcc-6d8a63652f2e"},"vehicle_type_id":"4","last_reported":1745964594,"current_range_meters":17200,"station_id":"ce4bgvh2rcd13ifvqcs0","pricing_plan_id":"cebpf4jnsgd1na2vs0mg"},{"bike_id":"a56f0186-6742-4321-af55-54f04b4d7b71","system_id":"levelo_inurba_marseille","lat":43.30865,"lon":5.39634,"is_reserved":false,"is_disabled":false,"rental_uris":{"android":"levelo://app?vid=a56f0186-6742-4321-af55-54f04b4d7b71","ios":"levelo://app?vid=a56f0186-6742-4321-af55-54f04b4d7b71"},"vehicle_type_id":"4","last_reported":1745964594,"current_range_meters":17200,"station_id":"ce4bh012rcd13ifvqcv0","pricing_plan_id":"cebpf4jnsgd1na2vs0mg"},{"bike_id":"470cb4ef-7743-47a3-8dab-768ee63ed55b","system_id":"levelo_inurba_marseille","lat":43.30423,"lon":5.39733,"is_reserved":false,"is_disabled":false,"rental_uris":{"android":"levelo://app?vid=470cb4ef-7743-47a3-8dab-768ee63ed55b","ios":"levelo://app?vid=470cb4ef-7743-47a3-8dab-768ee63ed55b"},"vehicle_type_id":"4","last_reported":1745964594,"current_range_meters":17200,"station_id":"ce4bh092rcd13ifvqd20","pricing_plan_id":"cebpf4jnsgd1na2vs0mg"},{"bike_id":"80a608e6-319a-42cb-afb5-e737f88c62ca","system_id":"levelo_inurba_marseille","lat":43.2792,"lon":5.39576,"is_reserved":false,"is_disabled":false,"rental_uris":{"android":"levelo://app?vid=80a608e6-319a-42cb-afb5-e737f88c62ca","ios":"levelo://app?vid=80a608e6-319a-42cb-afb5-e737f88c62ca"},"vehicle_type_id":"4","last_reported":1745964594,"current_range_meters":17200,"station_id":"ce4bhf92rcd13ifvqf40","pricing_plan_id":"cebpf4jnsgd1na2vs0mg"},{"bike_id":"7c57f542-5d9b-4d47-962e-a6357ed443fa","system_id":"levelo_inurba_marseille","lat":43.25124,"lon":5.40318,"is_reserved":false,"is_disabled":false,"rental_uris":{"android":"levelo://app?vid=7c57f542-5d9b-4d47-962e-a6357ed443fa","ios":"levelo://app?vid=7c57f542-5d9b-4d47-962e-a6357ed443fa"},"vehicle_type_id":"4","last_reported":1745964594,"current_range_meters":17200,"station_id":"ce4bhlh2rcd13ifvqgig","pricing_plan_id":"cebpf4jnsgd1na2vs0mg"},{"bike_id":"4978a160-6490-4eee-a0b3-e1471feb0b81","system_id":"levelo_inurba_marseille","lat":43.28077,"lon":5.39657,"is_reserved":false,"is_disabled":false,"rental_uris":{"android":"levelo://app?vid=4978a160-6490-4eee-a0b3-e1471feb0b81","ios":"levelo://app?vid=4978a160-6490-4eee-a0b3-e1471feb0b81"},"vehicle_type_id":"4","last_reported":1745964594,"current_range_meters":17200,"station_id":"ce4bho12rcd13ifvqh2g","pricing_plan_id":"cebpf4jnsgd1na2vs0mg"},{"bike_id":"fce2c520-92d3-4d18-810b-8d643fc15a1a","system_id":"levelo_inurba_marseille","lat":43.2307,"lon":5.35483,"is_reserved":false,"is_disabled":false,"rental_uris":{"android":"levelo://app?vid=fce2c520-92d3-4d18-810b-8d643fc15a1a","ios":"levelo://app?vid=fce2c520-92d3-4d18-810b-8d643fc15a1a"},"vehicle_type_id":"4","last_reported":1745964594,"current_range_meters":17200,"station_id":"cpo3342slgdg3j2ifvpg","pricing_plan_id":"cebpf4jnsgd1na2vs0mg"},{"bike_id":"79976891-927d-4790-9b99-8991aae96baf","system_id":"levelo_inurba_marseille","lat":43.31488,"lon":5.37309,"is_reserved":false,"is_disabled":false,"rental_uris":{"android":"levelo://app?vid=79976891-927d-4790-9b99-8991aae96baf","ios":"levelo://app?vid=79976891-927d-4790-9b99-8991aae96baf"},"vehicle_type_id":"4","last_reported":1745964594,"current_range_meters":17600,"station_id":"ce4bgt12rcd13ifvqcd0","pricing_plan_id":"cebpf4jnsgd1na2vs0mg"},{"bike_id":"475bd0ef-e94b-45ff-892d-4bb6b6d2797f","system_id":"levelo_inurba_marseille","lat":43.3079,"lon":5.38146,"is_reserved":false,"is_disabled":false,"rental_uris":{"android":"levelo://app?vid=475bd0ef-e94b-45ff-892d-4bb6b6d2797f","ios":"levelo://app?vid=475bd0ef-e94b-45ff-892d-4bb6b6d2797f"},"vehicle_type_id":"4","last_reported":1745964594,"current_range_meters":17600,"station_id":"ce4bgt12rcd13ifvqce0","pricing_plan_id":"cebpf4jnsgd1na2vs0mg"},{"bike_id":"2ac783cb-f625-4e18-98ba-c256f5e12461","system_id":"levelo_inurba_marseille","lat":43.29193,"lon":5.39332,"is_reserved":false,"is_disabled":false,"rental_uris":{"android":"levelo://app?vid=2ac783cb-f625-4e18-98ba-c256f5e12461","ios":"levelo://app?vid=2ac783cb-f625-4e18-98ba-c256f5e12461"},"vehicle_type_id":"4","last_reported":1745964594,"current_range_meters":17600,"station_id":"ce4bh192rcd13ifvqdd0","pricing_plan_id":"cebpf4jnsgd1na2vs0mg"},{"bike_id":"4b603d04-0f8e-4c24-b8d9-05da2ec98230","system_id":"levelo_inurba_marseille","lat":43.29552,"lon":5.39393,"is_reserved":false,"is_disabled":false,"rental_uris":{"android":"levelo://app?vid=4b603d04-0f8e-4c24-b8d9-05da2ec98230","ios":"levelo://app?vid=4b603d04-0f8e-4c24-b8d9-05da2ec98230"},"vehicle_type_id":"4","last_reported":1745964594,"current_range_meters":17600,"station_id":"ce4bh292rcd13ifvqdf0","pricing_plan_id":"cebpf4jnsgd1na2vs0mg"},{"bike_id":"86c2979e-8cf6-48ed-bdb1-835ff11e3adc","system_id":"levelo_inurba_marseille","lat":43.25377,"lon":5.41851,"is_reserved":false,"is_disabled":false,"rental_uris":{"android":"levelo://app?vid=86c2979e-8cf6-48ed-bdb1-835ff11e3adc","ios":"levelo://app?vid=86c2979e-8cf6-48ed-bdb1-835ff11e3adc"},"vehicle_type_id":"4","last_reported":1745964594,"current_range_meters":18000,"station_id":"","pricing_plan_id":"cebpf4jnsgd1na2vs0mg"},{"bike_id":"9df9b88e-192f-4082-8618-a77e8c2aff16","system_id":"levelo_inurba_marseille","lat":43.287033,"lon":5.373775,"is_reserved":false,"is_disabled":false,"rental_uris":{"android":"levelo://app?vid=9df9b88e-192f-4082-8618-a77e8c2aff16","ios":"levelo://app?vid=9df9b88e-192f-4082-8618-a77e8c2aff16"},"vehicle_type_id":"4","last_reported":1745964594,"current_range_meters":18000,"station_id":"ce4bh3p2rcd13ifvqdq0","pricing_plan_id":"cebpf4jnsgd1na2vs0mg"},{"bike_id":"cfc6e216-3d70-4234-b0a4-f1de0c194624","system_id":"levelo_inurba_marseille","lat":43.28711,"lon":5.39983,"is_reserved":false,"is_disabled":false,"rental_uris":{"android":"levelo://app?vid=cfc6e216-3d70-4234-b0a4-f1de0c194624","ios":"levelo://app?vid=cfc6e216-3d70-4234-b0a4-f1de0c194624"},"vehicle_type_id":"4","last_reported":1745964594,"current_range_meters":18000,"station_id":"ce4bho92rcd13ifvqh3g","pricing_plan_id":"cebpf4jnsgd1na2vs0mg"},{"bike_id":"baf04520-9ae4-4d4b-b441-fcfa2c6e3d2a","system_id":"levelo_inurba_marseille","lat":43.31495,"lon":5.37293,"is_reserved":false,"is_disabled":false,"rental_uris":{"android":"levelo://app?vid=baf04520-9ae4-4d4b-b441-fcfa2c6e3d2a","ios":"levelo://app?vid=baf04520-9ae4-4d4b-b441-fcfa2c6e3d2a"},"vehicle_type_id":"4","last_reported":1745964594,"current_range_meters":18800,"station_id":"ce4bgt12rcd13ifvqcd0","pricing_plan_id":"cebpf4jnsgd1na2vs0mg"},{"bike_id":"e1b8350f-04b1-49c7-a0fd-660b07127573","system_id":"levelo_inurba_marseille","lat":43.31169,"lon":5.38723,"is_reserved":false,"is_disabled":false,"rental_uris":{"android":"levelo://app?vid=e1b8350f-04b1-49c7-a0fd-660b07127573","ios":"levelo://app?vid=e1b8350f-04b1-49c7-a0fd-660b07127573"},"vehicle_type_id":"4","last_reported":1745964594,"current_range_meters":18800,"station_id":"ce4bgv12rcd13ifvqcp0","pricing_plan_id":"cebpf4jnsgd1na2vs0mg"},{"bike_id":"529a568c-18c4-4161-87f4-156bbcdd065f","system_id":"levelo_inurba_marseille","lat":43.28574,"lon":5.39491,"is_reserved":false,"is_disabled":false,"rental_uris":{"android":"levelo://app?vid=529a568c-18c4-4161-87f4-156bbcdd065f","ios":"levelo://app?vid=529a568c-18c4-4161-87f4-156bbcdd065f"},"vehicle_type_id":"4","last_reported":1745964594,"current_range_meters":18800,"station_id":"ce4bh292rcd13ifvqdg0","pricing_plan_id":"cebpf4jnsgd1na2vs0mg"},{"bike_id":"473e1fa8-f870-444c-9739-223b20bd02ae","system_id":"levelo_inurba_marseille","lat":43.23192,"lon":5.39974,"is_reserved":false,"is_disabled":false,"rental_uris":{"android":"levelo://app?vid=473e1fa8-f870-444c-9739-223b20bd02ae","ios":"levelo://app?vid=473e1fa8-f870-444c-9739-223b20bd02ae"},"vehicle_type_id":"4","last_reported":1745964594,"current_range_meters":18800,"station_id":"ce4bhn12rcd13ifvqgqg","pricing_plan_id":"cebpf4jnsgd1na2vs0mg"},{"bike_id":"f2e90055-7634-4d9c-bf5a-b9af8b674d73","system_id":"levelo_inurba_marseille","lat":43.30795,"lon":5.38149,"is_reserved":false,"is_disabled":false,"rental_uris":{"android":"levelo://app?vid=f2e90055-7634-4d9c-bf5a-b9af8b674d73","ios":"levelo://app?vid=f2e90055-7634-4d9c-bf5a-b9af8b674d73"},"vehicle_type_id":"4","last_reported":1745964594,"current_range_meters":19200,"station_id":"ce4bgt12rcd13ifvqce0","pricing_plan_id":"cebpf4jnsgd1na2vs0mg"},{"bike_id":"9e26f8c2-ee49-4847-acbc-216160f6524c","system_id":"levelo_inurba_marseille","lat":43.3046,"lon":5.37899,"is_reserved":false,"is_disabled":false,"rental_uris":{"android":"levelo://app?vid=9e26f8c2-ee49-4847-acbc-216160f6524c","ios":"levelo://app?vid=9e26f8c2-ee49-4847-acbc-216160f6524c"},"vehicle_type_id":"4","last_reported":1745964594,"current_range_meters":19200,"station_id":"ce4bgup2rcd13ifvqcn0","pricing_plan_id":"cebpf4jnsgd1na2vs0mg"},{"bike_id":"98ee01d4-3f32-439d-9e67-141de2548fbb","system_id":"levelo_inurba_marseille","lat":43.31187,"lon":5.38714,"is_reserved":false,"is_disabled":false,"rental_uris":{"android":"levelo://app?vid=98ee01d4-3f32-439d-9e67-141de2548fbb","ios":"levelo://app?vid=98ee01d4-3f32-439d-9e67-141de2548fbb"},"vehicle_type_id":"4","last_reported":1745964594,"current_range_meters":19200,"station_id":"ce4bgv12rcd13ifvqcp0","pricing_plan_id":"cebpf4jnsgd1na2vs0mg"},{"bike_id":"80ebd813-d55d-43a7-b7dc-643c0e5fe631","system_id":"levelo_inurba_marseille","lat":43.30935,"lon":5.40159,"is_reserved":false,"is_disabled":false,"rental_uris":{"android":"levelo://app?vid=80ebd813-d55d-43a7-b7dc-643c0e5fe631","ios":"levelo://app?vid=80ebd813-d55d-43a7-b7dc-643c0e5fe631"},"vehicle_type_id":"4","last_reported":1745964594,"current_range_meters":19200,"station_id":"ce4bgvp2rcd13ifvqct0","pricing_plan_id":"cebpf4jnsgd1na2vs0mg"},{"bike_id":"c664bae0-5573-409b-9e67-da14d19e0c37","system_id":"levelo_inurba_marseille","lat":43.284604,"lon":5.358937,"is_reserved":false,"is_disabled":false,"rental_uris":{"android":"levelo://app?vid=c664bae0-5573-409b-9e67-da14d19e0c37","ios":"levelo://app?vid=c664bae0-5573-409b-9e67-da14d19e0c37"},"vehicle_type_id":"4","last_reported":1745964594,"current_range_meters":19200,"station_id":"ce4bhah2rcd13ifvqei0","pricing_plan_id":"cebpf4jnsgd1na2vs0mg"},{"bike_id":"b78be95c-c390-42aa-a2fb-b33fd6722974","system_id":"levelo_inurba_marseille","lat":43.24546,"lon":5.39527,"is_reserved":false,"is_disabled":false,"rental_uris":{"android":"levelo://app?vid=b78be95c-c390-42aa-a2fb-b33fd6722974","ios":"levelo://app?vid=b78be95c-c390-42aa-a2fb-b33fd6722974"},"vehicle_type_id":"4","last_reported":1745964594,"current_range_meters":19200,"station_id":"ce4bhlp2rcd13ifvqgjg","pricing_plan_id":"cebpf4jnsgd1na2vs0mg"},{"bike_id":"7940bc1b-eaa7-4f49-a435-46dc9391f6a1","system_id":"levelo_inurba_marseille","lat":43.21196,"lon":5.35065,"is_reserved":false,"is_disabled":false,"rental_uris":{"android":"levelo://app?vid=7940bc1b-eaa7-4f49-a435-46dc9391f6a1","ios":"levelo://app?vid=7940bc1b-eaa7-4f49-a435-46dc9391f6a1"},"vehicle_type_id":"4","last_reported":1745964594,"current_range_meters":19200,"station_id":"st_cvj6sg6p6f1abm77japg","pricing_plan_id":"cebpf4jnsgd1na2vs0mg"},{"bike_id":"8de708ae-e245-4e8e-9ca2-b754a95382e1","system_id":"levelo_inurba_marseille","lat":43.30218,"lon":5.39466,"is_reserved":false,"is_disabled":false,"rental_uris":{"android":"levelo://app?vid=8de708ae-e245-4e8e-9ca2-b754a95382e1","ios":"levelo://app?vid=8de708ae-e245-4e8e-9ca2-b754a95382e1"},"vehicle_type_id":"4","last_reported":1745964594,"current_range_meters":19600,"station_id":"ce4bh0p2rcd13ifvqd70","pricing_plan_id":"cebpf4jnsgd1na2vs0mg"},{"bike_id":"53e458a6-9053-467f-9cb9-21401cfa6832","system_id":"levelo_inurba_marseille","lat":43.29199,"lon":5.39313,"is_reserved":false,"is_disabled":false,"rental_uris":{"android":"levelo://app?vid=53e458a6-9053-467f-9cb9-21401cfa6832","ios":"levelo://app?vid=53e458a6-9053-467f-9cb9-21401cfa6832"},"vehicle_type_id":"4","last_reported":1745964594,"current_range_meters":19600,"station_id":"ce4bh192rcd13ifvqdd0","pricing_plan_id":"cebpf4jnsgd1na2vs0mg"},{"bike_id":"f76cc6b9-021c-4e0d-9889-339707648267","system_id":"levelo_inurba_marseille","lat":43.24388,"lon":5.3706,"is_reserved":false,"is_disabled":false,"rental_uris":{"android":"levelo://app?vid=f76cc6b9-021c-4e0d-9889-339707648267","ios":"levelo://app?vid=f76cc6b9-021c-4e0d-9889-339707648267"},"vehicle_type_id":"4","last_reported":1745964594,"current_range_meters":19600,"station_id":"ce4bhhh2rcd13ifvqfk0","pricing_plan_id":"cebpf4jnsgd1na2vs0mg"},{"bike_id":"dd1d5a3f-d140-4e61-a85f-9fd03b0cfd3a","system_id":"levelo_inurba_marseille","lat":43.31531,"lon":5.38023,"is_reserved":false,"is_disabled":false,"rental_uris":{"android":"levelo://app?vid=dd1d5a3f-d140-4e61-a85f-9fd03b0cfd3a","ios":"levelo://app?vid=dd1d5a3f-d140-4e61-a85f-9fd03b0cfd3a"},"vehicle_type_id":"4","last_reported":1745964594,"current_range_meters":19600,"station_id":"ce4bhsp2rcd13ifvqi50","pricing_plan_id":"cebpf4jnsgd1na2vs0mg"},{"bike_id":"f81729f7-ef3e-4d13-9b41-3027d900ed62","system_id":"levelo_inurba_marseille","lat":43.28571,"lon":5.39487,"is_reserved":false,"is_disabled":false,"rental_uris":{"android":"levelo://app?vid=f81729f7-ef3e-4d13-9b41-3027d900ed62","ios":"levelo://app?vid=f81729f7-ef3e-4d13-9b41-3027d900ed62"},"vehicle_type_id":"4","last_reported":1745964594,"current_range_meters":20000,"station_id":"ce4bh292rcd13ifvqdg0","pricing_plan_id":"cebpf4jnsgd1na2vs0mg"},{"bike_id":"5bb930cb-f687-4afc-a3b1-7d364bf87093","system_id":"levelo_inurba_marseille","lat":43.32363,"lon":5.38891,"is_reserved":false,"is_disabled":false,"rental_uris":{"android":"levelo://app?vid=5bb930cb-f687-4afc-a3b1-7d364bf87093","ios":"levelo://app?vid=5bb930cb-f687-4afc-a3b1-7d364bf87093"},"vehicle_type_id":"4","last_reported":1745964594,"current_range_meters":20000,"station_id":"ce4bhqp2rcd13ifvqhog","pricing_plan_id":"cebpf4jnsgd1na2vs0mg"},{"bike_id":"944d1745-cb0e-41d0-92db-b73dd7501daf","system_id":"levelo_inurba_marseille","lat":43.23196,"lon":5.35553,"is_reserved":false,"is_disabled":false,"rental_uris":{"android":"levelo://app?vid=944d1745-cb0e-41d0-92db-b73dd7501daf","ios":"levelo://app?vid=944d1745-cb0e-41d0-92db-b73dd7501daf"},"vehicle_type_id":"4","last_reported":1745964594,"current_range_meters":20000,"station_id":"ce4bhu92rcd13ifvqi70","pricing_plan_id":"cebpf4jnsgd1na2vs0mg"},{"bike_id":"a9fab624-860f-4a9a-9b3a-1fbf42214f82","system_id":"levelo_inurba_marseille","lat":43.30426,"lon":5.38886,"is_reserved":false,"is_disabled":false,"rental_uris":{"android":"levelo://app?vid=a9fab624-860f-4a9a-9b3a-1fbf42214f82","ios":"levelo://app?vid=a9fab624-860f-4a9a-9b3a-1fbf42214f82"},"vehicle_type_id":"4","last_reported":1745964594,"current_range_meters":20400,"station_id":"ce4bgk12rcd13ifvqbi0","pricing_plan_id":"cebpf4jnsgd1na2vs0mg"},{"bike_id":"7a081fbe-2822-4a3c-9809-94ce2e701ea9","system_id":"levelo_inurba_marseille","lat":43.3099,"lon":5.4008,"is_reserved":false,"is_disabled":false,"rental_uris":{"android":"levelo://app?vid=7a081fbe-2822-4a3c-9809-94ce2e701ea9","ios":"levelo://app?vid=7a081fbe-2822-4a3c-9809-94ce2e701ea9"},"vehicle_type_id":"4","last_reported":1745964594,"current_range_meters":20400,"station_id":"ce4bgvp2rcd13ifvqct0","pricing_plan_id":"cebpf4jnsgd1na2vs0mg"},{"bike_id":"4efa05db-6c6e-40a0-95a6-0ff3974dd921","system_id":"levelo_inurba_marseille","lat":43.30089,"lon":5.39084,"is_reserved":false,"is_disabled":false,"rental_uris":{"android":"levelo://app?vid=4efa05db-6c6e-40a0-95a6-0ff3974dd921","ios":"levelo://app?vid=4efa05db-6c6e-40a0-95a6-0ff3974dd921"},"vehicle_type_id":"4","last_reported":1745964594,"current_range_meters":20400,"station_id":"ce4bh192rcd13ifvqdb0","pricing_plan_id":"cebpf4jnsgd1na2vs0mg"},{"bike_id":"08ea55bf-23de-4d93-ad5d-d4a116d37a72","system_id":"levelo_inurba_marseille","lat":43.24814,"lon":5.37456,"is_reserved":false,"is_disabled":false,"rental_uris":{"android":"levelo://app?vid=08ea55bf-23de-4d93-ad5d-d4a116d37a72","ios":"levelo://app?vid=08ea55bf-23de-4d93-ad5d-d4a116d37a72"},"vehicle_type_id":"4","last_reported":1745964594,"current_range_meters":20400,"station_id":"ce4bhgh2rcd13ifvqfb0","pricing_plan_id":"cebpf4jnsgd1na2vs0mg"},{"bike_id":"65b29515-b986-4fb4-abc3-a39496bac22e","system_id":"levelo_inurba_marseille","lat":43.27835,"lon":5.39205,"is_reserved":false,"is_disabled":false,"rental_uris":{"android":"levelo://app?vid=65b29515-b986-4fb4-abc3-a39496bac22e","ios":"levelo://app?vid=65b29515-b986-4fb4-abc3-a39496bac22e"},"vehicle_type_id":"4","last_reported":1745964594,"current_range_meters":20400,"station_id":"ce4bhjp2rcd13ifvqga0","pricing_plan_id":"cebpf4jnsgd1na2vs0mg"},{"bike_id":"330ae0d8-2228-407b-80de-905ccac38fed","system_id":"levelo_inurba_marseille","lat":43.31487,"lon":5.37309,"is_reserved":false,"is_disabled":false,"rental_uris":{"android":"levelo://app?vid=330ae0d8-2228-407b-80de-905ccac38fed","ios":"levelo://app?vid=330ae0d8-2228-407b-80de-905ccac38fed"},"vehicle_type_id":"4","last_reported":1745964594,"current_range_meters":20800,"station_id":"ce4bgt12rcd13ifvqcd0","pricing_plan_id":"cebpf4jnsgd1na2vs0mg"},{"bike_id":"1cf3d786-ac4e-4637-9f55-422b5b7f0270","system_id":"levelo_inurba_marseille","lat":43.31119,"lon":5.37772,"is_reserved":false,"is_disabled":false,"rental_uris":{"android":"levelo://app?vid=1cf3d786-ac4e-4637-9f55-422b5b7f0270","ios":"levelo://app?vid=1cf3d786-ac4e-4637-9f55-422b5b7f0270"},"vehicle_type_id":"4","last_reported":1745964594,"current_range_meters":20800,"station_id":"ce4bgt92rcd13ifvqcg0","pricing_plan_id":"cebpf4jnsgd1na2vs0mg"},{"bike_id":"9c0a2b7a-3777-4c79-ba9d-71b3ed8aa068","system_id":"levelo_inurba_marseille","lat":43.31186,"lon":5.38695,"is_reserved":false,"is_disabled":false,"rental_uris":{"android":"levelo://app?vid=9c0a2b7a-3777-4c79-ba9d-71b3ed8aa068","ios":"levelo://app?vid=9c0a2b7a-3777-4c79-ba9d-71b3ed8aa068"},"vehicle_type_id":"4","last_reported":1745964594,"current_range_meters":20800,"station_id":"ce4bgv12rcd13ifvqcp0","pricing_plan_id":"cebpf4jnsgd1na2vs0mg"},{"bike_id":"b3a5d772-2205-4c8b-9b69-e745366b34c4","system_id":"levelo_inurba_marseille","lat":43.3013,"lon":5.3986,"is_reserved":false,"is_disabled":false,"rental_uris":{"android":"levelo://app?vid=b3a5d772-2205-4c8b-9b69-e745366b34c4","ios":"levelo://app?vid=b3a5d772-2205-4c8b-9b69-e745366b34c4"},"vehicle_type_id":"4","last_reported":1745964594,"current_range_meters":20800,"station_id":"ce4bh0h2rcd13ifvqd40","pricing_plan_id":"cebpf4jnsgd1na2vs0mg"},{"bike_id":"9a6d1a0d-0520-4c44-b0a9-74ddbe754418","system_id":"levelo_inurba_marseille","lat":43.27111,"lon":5.40682,"is_reserved":false,"is_disabled":false,"rental_uris":{"android":"levelo://app?vid=9a6d1a0d-0520-4c44-b0a9-74ddbe754418","ios":"levelo://app?vid=9a6d1a0d-0520-4c44-b0a9-74ddbe754418"},"vehicle_type_id":"4","last_reported":1745964594,"current_range_meters":21600,"station_id":"","pricing_plan_id":"cebpf4jnsgd1na2vs0mg"},{"bike_id":"23ee87b9-f6c0-4dc4-afcb-68b5ea6f4da2","system_id":"levelo_inurba_marseille","lat":43.28576,"lon":5.39494,"is_reserved":false,"is_disabled":false,"rental_uris":{"android":"levelo://app?vid=23ee87b9-f6c0-4dc4-afcb-68b5ea6f4da2","ios":"levelo://app?vid=23ee87b9-f6c0-4dc4-afcb-68b5ea6f4da2"},"vehicle_type_id":"4","last_reported":1745964594,"current_range_meters":21600,"station_id":"ce4bh292rcd13ifvqdg0","pricing_plan_id":"cebpf4jnsgd1na2vs0mg"},{"bike_id":"310d622f-a5db-4e3b-a8a9-748b6065bef9","system_id":"levelo_inurba_marseille","lat":43.28455,"lon":5.35882,"is_reserved":false,"is_disabled":false,"rental_uris":{"android":"levelo://app?vid=310d622f-a5db-4e3b-a8a9-748b6065bef9","ios":"levelo://app?vid=310d622f-a5db-4e3b-a8a9-748b6065bef9"},"vehicle_type_id":"4","last_reported":1745964594,"current_range_meters":21600,"station_id":"ce4bhah2rcd13ifvqei0","pricing_plan_id":"cebpf4jnsgd1na2vs0mg"},{"bike_id":"d29e62a1-3a78-426a-b8e4-8f27c2bce535","system_id":"levelo_inurba_marseille","lat":43.28455,"lon":5.35889,"is_reserved":false,"is_disabled":false,"rental_uris":{"android":"levelo://app?vid=d29e62a1-3a78-426a-b8e4-8f27c2bce535","ios":"levelo://app?vid=d29e62a1-3a78-426a-b8e4-8f27c2bce535"},"vehicle_type_id":"4","last_reported":1745964594,"current_range_meters":21600,"station_id":"ce4bhah2rcd13ifvqei0","pricing_plan_id":"cebpf4jnsgd1na2vs0mg"},{"bike_id":"bcb4a4d9-1d50-4d0e-94cb-4a3fe436984b","system_id":"levelo_inurba_marseille","lat":43.32275,"lon":5.383,"is_reserved":false,"is_disabled":false,"rental_uris":{"android":"levelo://app?vid=bcb4a4d9-1d50-4d0e-94cb-4a3fe436984b","ios":"levelo://app?vid=bcb4a4d9-1d50-4d0e-94cb-4a3fe436984b"},"vehicle_type_id":"4","last_reported":1745964594,"current_range_meters":21600,"station_id":"ce4bhr12rcd13ifvqhqg","pricing_plan_id":"cebpf4jnsgd1na2vs0mg"},{"bike_id":"bd450d81-062b-4f69-8b7d-1d5ce8b994e9","system_id":"levelo_inurba_marseille","lat":43.30884,"lon":5.39655,"is_reserved":false,"is_disabled":false,"rental_uris":{"android":"levelo://app?vid=bd450d81-062b-4f69-8b7d-1d5ce8b994e9","ios":"levelo://app?vid=bd450d81-062b-4f69-8b7d-1d5ce8b994e9"},"vehicle_type_id":"4","last_reported":1745964594,"current_range_meters":22000,"station_id":"ce4bh012rcd13ifvqcv0","pricing_plan_id":"cebpf4jnsgd1na2vs0mg"},{"bike_id":"a3312652-3d91-4dc1-8f10-b07dec396674","system_id":"levelo_inurba_marseille","lat":43.3013,"lon":5.37416,"is_reserved":false,"is_disabled":false,"rental_uris":{"android":"levelo://app?vid=a3312652-3d91-4dc1-8f10-b07dec396674","ios":"levelo://app?vid=a3312652-3d91-4dc1-8f10-b07dec396674"},"vehicle_type_id":"4","last_reported":1745964594,"current_range_meters":22400,"station_id":"ce4bgs92rcd13ifvqcc0","pricing_plan_id":"cebpf4jnsgd1na2vs0mg"},{"bike_id":"f737fe5c-d5e0-4117-8bc9-c5ab168909de","system_id":"levelo_inurba_marseille","lat":43.30889,"lon":5.39634,"is_reserved":false,"is_disabled":false,"rental_uris":{"android":"levelo://app?vid=f737fe5c-d5e0-4117-8bc9-c5ab168909de","ios":"levelo://app?vid=f737fe5c-d5e0-4117-8bc9-c5ab168909de"},"vehicle_type_id":"4","last_reported":1745964594,"current_range_meters":22400,"station_id":"ce4bh012rcd13ifvqcv0","pricing_plan_id":"cebpf4jnsgd1na2vs0mg"},{"bike_id":"ef2a5eed-770f-4651-814b-127f481e0817","system_id":"levelo_inurba_marseille","lat":43.29464,"lon":5.39739,"is_reserved":false,"is_disabled":false,"rental_uris":{"android":"levelo://app?vid=ef2a5eed-770f-4651-814b-127f481e0817","ios":"levelo://app?vid=ef2a5eed-770f-4651-814b-127f481e0817"},"vehicle_type_id":"4","last_reported":1745964594,"current_range_meters":22400,"station_id":"ce4bh3h2rcd13ifvqdo0","pricing_plan_id":"cebpf4jnsgd1na2vs0mg"},{"bike_id":"1fbec7a1-31ee-4f4e-8d52-0e13b7aa5fb9","system_id":"levelo_inurba_marseille","lat":43.287018,"lon":5.37389,"is_reserved":false,"is_disabled":false,"rental_uris":{"android":"levelo://app?vid=1fbec7a1-31ee-4f4e-8d52-0e13b7aa5fb9","ios":"levelo://app?vid=1fbec7a1-31ee-4f4e-8d52-0e13b7aa5fb9"},"vehicle_type_id":"4","last_reported":1745964594,"current_range_meters":22400,"station_id":"ce4bh3p2rcd13ifvqdq0","pricing_plan_id":"cebpf4jnsgd1na2vs0mg"},{"bike_id":"5aae25ff-e6a7-4f72-9578-5d079b762b66","system_id":"levelo_inurba_marseille","lat":43.26223,"lon":5.37439,"is_reserved":false,"is_disabled":false,"rental_uris":{"android":"levelo://app?vid=5aae25ff-e6a7-4f72-9578-5d079b762b66","ios":"levelo://app?vid=5aae25ff-e6a7-4f72-9578-5d079b762b66"},"vehicle_type_id":"4","last_reported":1745964594,"current_range_meters":22400,"station_id":"ce4bhgp2rcd13ifvqfc0","pricing_plan_id":"cebpf4jnsgd1na2vs0mg"},{"bike_id":"edaae8ad-5882-4d8d-9ea8-483bb3337260","system_id":"levelo_inurba_marseille","lat":43.28743,"lon":5.39973,"is_reserved":false,"is_disabled":false,"rental_uris":{"android":"levelo://app?vid=edaae8ad-5882-4d8d-9ea8-483bb3337260","ios":"levelo://app?vid=edaae8ad-5882-4d8d-9ea8-483bb3337260"},"vehicle_type_id":"4","last_reported":1745964594,"current_range_meters":22400,"station_id":"ce4bho92rcd13ifvqh3g","pricing_plan_id":"cebpf4jnsgd1na2vs0mg"},{"bike_id":"809a2870-3fd0-4e73-bfea-9c4ae9526ab9","system_id":"levelo_inurba_marseille","lat":43.232,"lon":5.35529,"is_reserved":false,"is_disabled":false,"rental_uris":{"android":"levelo://app?vid=809a2870-3fd0-4e73-bfea-9c4ae9526ab9","ios":"levelo://app?vid=809a2870-3fd0-4e73-bfea-9c4ae9526ab9"},"vehicle_type_id":"4","last_reported":1745964594,"current_range_meters":22400,"station_id":"ce4bhu92rcd13ifvqi70","pricing_plan_id":"cebpf4jnsgd1na2vs0mg"},{"bike_id":"23c7aa15-1d16-489f-80aa-05926d360723","system_id":"levelo_inurba_marseille","lat":43.30433,"lon":5.38888,"is_reserved":false,"is_disabled":false,"rental_uris":{"android":"levelo://app?vid=23c7aa15-1d16-489f-80aa-05926d360723","ios":"levelo://app?vid=23c7aa15-1d16-489f-80aa-05926d360723"},"vehicle_type_id":"4","last_reported":1745964594,"current_range_meters":22800,"station_id":"ce4bgk12rcd13ifvqbi0","pricing_plan_id":"cebpf4jnsgd1na2vs0mg"},{"bike_id":"856b9cea-619f-4c91-8452-1e096f8abfc3","system_id":"levelo_inurba_marseille","lat":43.30876,"lon":5.39632,"is_reserved":false,"is_disabled":false,"rental_uris":{"android":"levelo://app?vid=856b9cea-619f-4c91-8452-1e096f8abfc3","ios":"levelo://app?vid=856b9cea-619f-4c91-8452-1e096f8abfc3"},"vehicle_type_id":"4","last_reported":1745964594,"current_range_meters":22800,"station_id":"ce4bh012rcd13ifvqcv0","pricing_plan_id":"cebpf4jnsgd1na2vs0mg"},{"bike_id":"a8192352-1d6f-4d9e-8857-3f391e63857f","system_id":"levelo_inurba_marseille","lat":43.30885,"lon":5.39632,"is_reserved":false,"is_disabled":false,"rental_uris":{"android":"levelo://app?vid=a8192352-1d6f-4d9e-8857-3f391e63857f","ios":"levelo://app?vid=a8192352-1d6f-4d9e-8857-3f391e63857f"},"vehicle_type_id":"4","last_reported":1745964594,"current_range_meters":22800,"station_id":"ce4bh012rcd13ifvqcv0","pricing_plan_id":"cebpf4jnsgd1na2vs0mg"},{"bike_id":"7e16adda-fed8-4485-845b-96c8f095f0f0","system_id":"levelo_inurba_marseille","lat":43.2886,"lon":5.39311,"is_reserved":false,"is_disabled":false,"rental_uris":{"android":"levelo://app?vid=7e16adda-fed8-4485-845b-96c8f095f0f0","ios":"levelo://app?vid=7e16adda-fed8-4485-845b-96c8f095f0f0"},"vehicle_type_id":"4","last_reported":1745964594,"current_range_meters":22800,"station_id":"ce4bh2p2rcd13ifvqdi0","pricing_plan_id":"cebpf4jnsgd1na2vs0mg"},{"bike_id":"ed109d56-bd00-4276-9adb-48be6f4fbfdf","system_id":"levelo_inurba_marseille","lat":43.28462,"lon":5.35887,"is_reserved":false,"is_disabled":false,"rental_uris":{"android":"levelo://app?vid=ed109d56-bd00-4276-9adb-48be6f4fbfdf","ios":"levelo://app?vid=ed109d56-bd00-4276-9adb-48be6f4fbfdf"},"vehicle_type_id":"4","last_reported":1745964594,"current_range_meters":22800,"station_id":"ce4bhah2rcd13ifvqei0","pricing_plan_id":"cebpf4jnsgd1na2vs0mg"},{"bike_id":"72b9466a-bd8a-477f-af90-b0503e7b9c0b","system_id":"levelo_inurba_marseille","lat":43.289493,"lon":5.366361,"is_reserved":false,"is_disabled":false,"rental_uris":{"android":"levelo://app?vid=72b9466a-bd8a-477f-af90-b0503e7b9c0b","ios":"levelo://app?vid=72b9466a-bd8a-477f-af90-b0503e7b9c0b"},"vehicle_type_id":"4","last_reported":1745964594,"current_range_meters":22800,"station_id":"ce4bhap2rcd13ifvqek0","pricing_plan_id":"cebpf4jnsgd1na2vs0mg"},{"bike_id":"947e4e80-b374-4ac1-ad41-cfc28496b87d","system_id":"levelo_inurba_marseille","lat":43.25874,"lon":5.3989,"is_reserved":false,"is_disabled":false,"rental_uris":{"android":"levelo://app?vid=947e4e80-b374-4ac1-ad41-cfc28496b87d","ios":"levelo://app?vid=947e4e80-b374-4ac1-ad41-cfc28496b87d"},"vehicle_type_id":"4","last_reported":1745964594,"current_range_meters":22800,"station_id":"ce4bhl92rcd13ifvqghg","pricing_plan_id":"cebpf4jnsgd1na2vs0mg"},{"bike_id":"8a5ef15b-08e5-4866-9542-282ce1544826","system_id":"levelo_inurba_marseille","lat":43.23204,"lon":5.39957,"is_reserved":false,"is_disabled":false,"rental_uris":{"android":"levelo://app?vid=8a5ef15b-08e5-4866-9542-282ce1544826","ios":"levelo://app?vid=8a5ef15b-08e5-4866-9542-282ce1544826"},"vehicle_type_id":"4","last_reported":1745964594,"current_range_meters":22800,"station_id":"ce4bhn12rcd13ifvqgqg","pricing_plan_id":"cebpf4jnsgd1na2vs0mg"},{"bike_id":"d89cc694-0715-45a3-8de1-10f39f9a0265","system_id":"levelo_inurba_marseille","lat":43.30175,"lon":5.3658,"is_reserved":false,"is_disabled":false,"rental_uris":{"android":"levelo://app?vid=d89cc694-0715-45a3-8de1-10f39f9a0265","ios":"levelo://app?vid=d89cc694-0715-45a3-8de1-10f39f9a0265"},"vehicle_type_id":"4","last_reported":1745964594,"current_range_meters":23200,"station_id":"ce4bgrh2rcd13ifvqc8g","pricing_plan_id":"cebpf4jnsgd1na2vs0mg"},{"bike_id":"b53bc3da-f2d0-4fae-930a-bace7286daae","system_id":"levelo_inurba_marseille","lat":43.3094,"lon":5.40139,"is_reserved":false,"is_disabled":false,"rental_uris":{"android":"levelo://app?vid=b53bc3da-f2d0-4fae-930a-bace7286daae","ios":"levelo://app?vid=b53bc3da-f2d0-4fae-930a-bace7286daae"},"vehicle_type_id":"4","last_reported":1745964594,"current_range_meters":23200,"station_id":"ce4bgvp2rcd13ifvqct0","pricing_plan_id":"cebpf4jnsgd1na2vs0mg"},{"bike_id":"1ed1a301-a862-4162-9fb7-6977a173f9c8","system_id":"levelo_inurba_marseille","lat":43.31329,"lon":5.39689,"is_reserved":false,"is_disabled":false,"rental_uris":{"android":"levelo://app?vid=1ed1a301-a862-4162-9fb7-6977a173f9c8","ios":"levelo://app?vid=1ed1a301-a862-4162-9fb7-6977a173f9c8"},"vehicle_type_id":"4","last_reported":1745964594,"current_range_meters":23200,"station_id":"ce4bgvp2rcd13ifvqcu0","pricing_plan_id":"cebpf4jnsgd1na2vs0mg"},{"bike_id":"018f9593-d74f-4083-a17a-0bb4d432ca7b","system_id":"levelo_inurba_marseille","lat":43.29435,"lon":5.39742,"is_reserved":false,"is_disabled":false,"rental_uris":{"android":"levelo://app?vid=018f9593-d74f-4083-a17a-0bb4d432ca7b","ios":"levelo://app?vid=018f9593-d74f-4083-a17a-0bb4d432ca7b"},"vehicle_type_id":"4","last_reported":1745964594,"current_range_meters":23200,"station_id":"ce4bh3h2rcd13ifvqdo0","pricing_plan_id":"cebpf4jnsgd1na2vs0mg"},{"bike_id":"772dad62-d6fe-4ca0-8ba9-0a3d50b89d59","system_id":"levelo_inurba_marseille","lat":43.28479,"lon":5.38548,"is_reserved":false,"is_disabled":false,"rental_uris":{"android":"levelo://app?vid=772dad62-d6fe-4ca0-8ba9-0a3d50b89d59","ios":"levelo://app?vid=772dad62-d6fe-4ca0-8ba9-0a3d50b89d59"},"vehicle_type_id":"4","last_reported":1745964594,"current_range_meters":23200,"station_id":"ce4bh8p2rcd13ifvqeb0","pricing_plan_id":"cebpf4jnsgd1na2vs0mg"},{"bike_id":"f3021f5b-b68a-47a2-a4e7-30993c6101d9","system_id":"levelo_inurba_marseille","lat":43.26063,"lon":5.39397,"is_reserved":false,"is_disabled":false,"rental_uris":{"android":"levelo://app?vid=f3021f5b-b68a-47a2-a4e7-30993c6101d9","ios":"levelo://app?vid=f3021f5b-b68a-47a2-a4e7-30993c6101d9"},"vehicle_type_id":"4","last_reported":1745964594,"current_range_meters":23200,"station_id":"ce4bhh92rcd13ifvqfj0","pricing_plan_id":"cebpf4jnsgd1na2vs0mg"},{"bike_id":"d4419d63-a761-4549-93ae-28d986e6728a","system_id":"levelo_inurba_marseille","lat":43.27183,"lon":5.40983,"is_reserved":false,"is_disabled":false,"rental_uris":{"android":"levelo://app?vid=d4419d63-a761-4549-93ae-28d986e6728a","ios":"levelo://app?vid=d4419d63-a761-4549-93ae-28d986e6728a"},"vehicle_type_id":"4","last_reported":1745964594,"current_range_meters":23200,"station_id":"ce4bhl12rcd13ifvqgf0","pricing_plan_id":"cebpf4jnsgd1na2vs0mg"},{"bike_id":"3a1c6b65-5f0e-4cf0-b640-52fefa98b0b8","system_id":"levelo_inurba_marseille","lat":43.32034,"lon":5.41587,"is_reserved":false,"is_disabled":false,"rental_uris":{"android":"levelo://app?vid=3a1c6b65-5f0e-4cf0-b640-52fefa98b0b8","ios":"levelo://app?vid=3a1c6b65-5f0e-4cf0-b640-52fefa98b0b8"},"vehicle_type_id":"4","last_reported":1745964594,"current_range_meters":23200,"station_id":"ce4bhq92rcd13ifvqhkg","pricing_plan_id":"cebpf4jnsgd1na2vs0mg"},{"bike_id":"3415adec-0f76-4a09-8a43-4fc526a369c9","system_id":"levelo_inurba_marseille","lat":43.31159,"lon":5.38708,"is_reserved":false,"is_disabled":false,"rental_uris":{"android":"levelo://app?vid=3415adec-0f76-4a09-8a43-4fc526a369c9","ios":"levelo://app?vid=3415adec-0f76-4a09-8a43-4fc526a369c9"},"vehicle_type_id":"4","last_reported":1745964594,"current_range_meters":24000,"station_id":"ce4bgv12rcd13ifvqcp0","pricing_plan_id":"cebpf4jnsgd1na2vs0mg"},{"bike_id":"d8c1856b-cd1d-4412-9e4e-dfbccee9e410","system_id":"levelo_inurba_marseille","lat":43.30948,"lon":5.40157,"is_reserved":false,"is_disabled":false,"rental_uris":{"android":"levelo://app?vid=d8c1856b-cd1d-4412-9e4e-dfbccee9e410","ios":"levelo://app?vid=d8c1856b-cd1d-4412-9e4e-dfbccee9e410"},"vehicle_type_id":"4","last_reported":1745964594,"current_range_meters":24000,"station_id":"ce4bgvp2rcd13ifvqct0","pricing_plan_id":"cebpf4jnsgd1na2vs0mg"},{"bike_id":"4f0f5a8d-d2a8-412d-984b-40874dab4585","system_id":"levelo_inurba_marseille","lat":43.30139,"lon":5.39867,"is_reserved":false,"is_disabled":false,"rental_uris":{"android":"levelo://app?vid=4f0f5a8d-d2a8-412d-984b-40874dab4585","ios":"levelo://app?vid=4f0f5a8d-d2a8-412d-984b-40874dab4585"},"vehicle_type_id":"4","last_reported":1745964594,"current_range_meters":24000,"station_id":"ce4bh0h2rcd13ifvqd40","pricing_plan_id":"cebpf4jnsgd1na2vs0mg"},{"bike_id":"ff774152-4f29-4e25-bed3-5f99e7cc997e","system_id":"levelo_inurba_marseille","lat":43.29567,"lon":5.39963,"is_reserved":false,"is_disabled":false,"rental_uris":{"android":"levelo://app?vid=ff774152-4f29-4e25-bed3-5f99e7cc997e","ios":"levelo://app?vid=ff774152-4f29-4e25-bed3-5f99e7cc997e"},"vehicle_type_id":"4","last_reported":1745964594,"current_range_meters":24000,"station_id":"ce4bh312rcd13ifvqdj0","pricing_plan_id":"cebpf4jnsgd1na2vs0mg"},{"bike_id":"6d7a1c63-ffa1-47e5-b198-a9977ccbbce8","system_id":"levelo_inurba_marseille","lat":43.27177,"lon":5.40995,"is_reserved":false,"is_disabled":false,"rental_uris":{"android":"levelo://app?vid=6d7a1c63-ffa1-47e5-b198-a9977ccbbce8","ios":"levelo://app?vid=6d7a1c63-ffa1-47e5-b198-a9977ccbbce8"},"vehicle_type_id":"4","last_reported":1745964594,"current_range_meters":24000,"station_id":"ce4bhl12rcd13ifvqgf0","pricing_plan_id":"cebpf4jnsgd1na2vs0mg"},{"bike_id":"ea432587-6275-4566-9214-32e9d1d38a78","system_id":"levelo_inurba_marseille","lat":43.31881,"lon":5.40736,"is_reserved":false,"is_disabled":false,"rental_uris":{"android":"levelo://app?vid=ea432587-6275-4566-9214-32e9d1d38a78","ios":"levelo://app?vid=ea432587-6275-4566-9214-32e9d1d38a78"},"vehicle_type_id":"4","last_reported":1745964594,"current_range_meters":24000,"station_id":"ce4bhq12rcd13ifvqhig","pricing_plan_id":"cebpf4jnsgd1na2vs0mg"},{"bike_id":"942c3151-ca01-401e-9bf7-3fc28c96d165","system_id":"levelo_inurba_marseille","lat":43.26811,"lon":5.40259,"is_reserved":false,"is_disabled":false,"rental_uris":{"android":"levelo://app?vid=942c3151-ca01-401e-9bf7-3fc28c96d165","ios":"levelo://app?vid=942c3151-ca01-401e-9bf7-3fc28c96d165"},"vehicle_type_id":"4","last_reported":1745964594,"current_range_meters":24000,"station_id":"ce501612rcd8frsf0b60","pricing_plan_id":"cebpf4jnsgd1na2vs0mg"},