{"last_updated":1732208898,"ttl":60,"version":"2.2","data":{"bikes":[{"bike_id":"a10be396-1705-483a-9984-718f9d010c8e","system_id":"levelo_inurba_marseille","lat":43.29869,"lon":5.39741,"is_reserved":false,"is_disabled":true,"rental_uris":{"android":"levelo://app?vid=a10be396-1705-483a-9984-718f9d010c8e","ios":"levelo://app?vid=a10be396-1705-483a-9984-718f9d010c8e"},"vehicle_type_id":"4","last_reported":1732208898,"current_range_meters":0,"station_id":"ce4bh0h2rcd13ifvqd50","pricing_plan_id":"cebpf4jnsgd1na2vs0mg"},{"bike_id":"156320ae-cdf1-448d-a5dd-5f82d48b8bf7","system_id":"levelo_inurba_marseille","lat":43.28613,"lon":5.35101,"is_reserved":false,"is_disabled":false,"rental_uris":{"android":"levelo://app?vid=156320ae-cdf1-448d-a5dd-5f82d48b8bf7","ios":"levelo://app?vid=156320ae-cdf1-448d-a5dd-5f82d48b8bf7"},"vehicle_type_id":"4","last_reported":1732208898,"current_range_meters":36400,"station_id":"ce4bhch2rcd13ifvqeug","pricing_plan_id":"cebpf4jnsgd1na2vs0mg"},{"bike_id":"a0824327-19d5-4974-a106-19cb0a083361","system_id":"levelo_inurba_marseille","lat":43.29029,"lon":5.39976,"is_reserved":false,"is_disabled":false,"rental_uris":{"android":"levelo://app?vid=a0824327-19d5-4974-a106-19cb0a083361","ios":"levelo://app?vid=a0824327-19d5-4974-a106-19cb0a083361"},"vehicle_type_id":"4","last_reported":1732208898,"current_range_meters":38000,"station_id":"ce4bh392rcd13ifvqdm0","pricing_plan_id":"cebpf4jnsgd1na2vs0mg"},{"bike_id":"87ba0e5a-3832-4543-b32b-6350b38880d0","system_id":"levelo_inurba_marseille","lat":43.26059,"lon":5.39399,"is_reserved":false,"is_disabled":false,"rental_uris":{"android":"levelo://app?vid=87ba0e5a-3832-4543-b32b-6350b38880d0","ios":"levelo://app?vid=87ba0e5a-3832-4543-b32b-6350b38880d0"},"vehicle_type_id":"4","last_reported":1732208898,"current_range_meters":22800,"station_id":"ce4bhh92rcd13ifvqfj0","pricing_plan_id":"cebpf4jnsgd1na2vs0mg"},{"bike_id":"8527133f-e94b-41ef-9b16-c99901d73e95","system_id":"levelo_inurba_marseille","lat":43.2558,"lon":5.3823,"is_reserved":false,"is_disabled":false,"rental_uris":{"android":"levelo://app?vid=8527133f-e94b-41ef-9b16-c99901d73e95","ios":"levelo://app?vid=8527133f-e94b-41ef-9b16-c99901d73e95"},"vehicle_type_id":"4","last_reported":1732208898,"current_range_meters":38000,"station_id":"ce4bhih2rcd13ifvqfs0","pricing_plan_id":"cebpf4jnsgd1na2vs0mg"},{"bike_id":"457b28ce-1468-4a59-83b3-839231869771","system_id":"levelo_inurba_marseille","lat":43.30149,"lon":5.38078,"is_reserved":false,"is_disabled":true,"rental_uris":{"android":"levelo://app?vid=457b28ce-1468-4a59-83b3-839231869771","ios":"levelo://app?vid=457b28ce-1468-4a59-83b3-839231869771"},"vehicle_type_id":"4","last_reported":1732208898,"current_range_meters":0,"station_id":"ce4bgjp2rcd13ifvqbh0","pricing_plan_id":"cebpf4jnsgd1na2vs0mg"},{"bike_id":"59cb64f0-65a0-445b-81e8-49caa1869c19","system_id":"levelo_inurba_marseille","lat":43.29789,"lon":5.40414,"is_reserved":false,"is_disabled":false,"rental_uris":{"android":"levelo://app?vid=59cb64f0-65a0-445b-81e8-49caa1869c19","ios":"levelo://app?vid=59cb64f0-65a0-445b-81e8-49caa1869c19"},"vehicle_type_id":"4","last_reported":1732208898,"current_range_meters":39200,"station_id":"ce4bh112rcd13ifvqd90","pricing_plan_id":"cebpf4jnsgd1na2vs0mg"},{"bike_id":"a495e077-d6a7-414c-b761-8ee8983002b2","system_id":"levelo_inurba_marseille","lat":43.27169,"lon":5.40998,"is_reserved":false,"is_disabled":false,"rental_uris":{"android":"levelo://app?vid=a495e077-d6a7-414c-b761-8ee8983002b2","ios":"levelo://app?vid=a495e077-d6a7-414c-b761-8ee8983002b2"},"vehicle_type_id":"4","last_reported":1732208898,"current_range_meters":32800,"station_id":"ce4bhl12rcd13ifvqgf0","pricing_plan_id":"cebpf4jnsgd1na2vs0mg"},{"bike_id":"1f203897-1164-43c5-8a36-2a35df13aaf6","system_id":"levelo_inurba_marseille","lat":43.23154,"lon":5.43718,"is_reserved":false,"is_disabled":true,"rental_uris":{"android":"levelo://app?vid=1f203897-1164-43c5-8a36-2a35df13aaf6","ios":"levelo://app?vid=1f203897-1164-43c5-8a36-2a35df13aaf6"},"vehicle_type_id":"4","last_reported":1732208898,"current_range_meters":1200,"station_id":"ce4bhmp2rcd13ifvqgog","pricing_plan_id":"cebpf4jnsgd1na2vs0mg"},{"bike_id":"3a076054-5799-4ac5-82a3-cb0f017ae5a2","system_id":"levelo_inurba_marseille","lat":43.2926,"lon":5.38443,"is_reserved":false,"is_disabled":false,"rental_uris":{"android":"levelo://app?vid=3a076054-5799-4ac5-82a3-cb0f017ae5a2","ios":"levelo://app?vid=3a076054-5799-4ac5-82a3-cb0f017ae5a2"},"vehicle_type_id":"4","last_reported":1732208898,"current_range_meters":29600,"station_id":"ce4bh692rcd13ifvqea0","pricing_plan_id":"cebpf4jnsgd1na2vs0mg"},{"bike_id":"428d72ce-47cc-4c94-841a-e3c923cc1cb6","system_id":"levelo_inurba_marseille","lat":43.28704,"lon":5.37396,"is_reserved":false,"is_disabled":true,"rental_uris":{"android":"levelo://app?vid=428d72ce-47cc-4c94-841a-e3c923cc1cb6","ios":"levelo://app?vid=428d72ce-47cc-4c94-841a-e3c923cc1cb6"},"vehicle_type_id":"4","last_reported":1732208898,"current_range_meters":32800,"station_id":"ce4bh3p2rcd13ifvqdq0","pricing_plan_id":"cebpf4jnsgd1na2vs0mg"},{"bike_id":"d6ad3f3b-1936-4382-92a8-c2ac13ecc6dc","system_id":"levelo_inurba_marseille","lat":43.3153,"lon":5.38026,"is_reserved":false,"is_disabled":false,"rental_uris":{"android":"levelo://app?vid=d6ad3f3b-1936-4382-92a8-c2ac13ecc6dc","ios":"levelo://app?vid=d6ad3f3b-1936-4382-92a8-c2ac13ecc6dc"},"vehicle_type_id":"4","last_reported":1732208898,"current_range_meters":22800,"station_id":"ce4bhsp2rcd13ifvqi50","pricing_plan_id":"cebpf4jnsgd1na2vs0mg"},{"bike_id":"b5e2a9b7-bda8-49ee-b5d5-f4e0fb8c73c3","system_id":"levelo_inurba_marseille","lat":43.26802,"lon":5.40269,"is_reserved":false,"is_disabled":false,"rental_uris":{"android":"levelo://app?vid=b5e2a9b7-bda8-49ee-b5d5-f4e0fb8c73c3","ios":"levelo://app?vid=b5e2a9b7-bda8-49ee-b5d5-f4e0fb8c73c3"},"vehicle_type_id":"4","last_reported":1732208898,"current_range_meters":6800,"station_id":"ce501612rcd8frsf0b60","pricing_plan_id":"cebpf4jnsgd1na2vs0mg"},{"bike_id":"c0755ad7-8353-40d1-98a4-bba43ca0e3ab","system_id":"levelo_inurba_marseille","lat":43.33719,"lon":5.39178,"is_reserved":false,"is_disabled":false,"rental_uris":{"android":"levelo://app?vid=c0755ad7-8353-40d1-98a4-bba43ca0e3ab","ios":"levelo://app?vid=c0755ad7-8353-40d1-98a4-bba43ca0e3ab"},"vehicle_type_id":"4","last_reported":1732208898,"current_range_meters":18000,"station_id":"ce4bhr92rcd13ifvqhsg","pricing_plan_id":"cebpf4jnsgd1na2vs0mg"},{"bike_id":"a9a4af61-0fd7-4a8f-8c37-b9e8613d2302","system_id":"levelo_inurba_marseille","lat":43.23186,"lon":5.39993,"is_reserved":false,"is_disabled":true,"rental_uris":{"android":"levelo://app?vid=a9a4af61-0fd7-4a8f-8c37-b9e8613d2302","ios":"levelo://app?vid=a9a4af61-0fd7-4a8f-8c37-b9e8613d2302"},"vehicle_type_id":"4","last_reported":1732208898,"current_range_meters":0,"station_id":"ce4bhn12rcd13ifvqgqg","pricing_plan_id":"cebpf4jnsgd1na2vs0mg"},{"bike_id":"8181d04a-7f0e-4ec6-bb31-c9a42248f31c","system_id":"levelo_inurba_marseille","lat":43.30138,"lon":5.38773,"is_reserved":false,"is_disabled":true,"rental_uris":{"android":"levelo://app?vid=8181d04a-7f0e-4ec6-bb31-c9a42248f31c","ios":"levelo://app?vid=8181d04a-7f0e-4ec6-bb31-c9a42248f31c"},"vehicle_type_id":"4","last_reported":1732208898,"current_range_meters":32800,"station_id":"ce4bghh2rcd13ifvqb60","pricing_plan_id":"cebpf4jnsgd1na2vs0mg"},{"bike_id":"aaa68104-60d6-454b-9438-4e38b46ffb6c","system_id":"levelo_inurba_marseille","lat":43.30809,"lon":5.37047,"is_reserved":false,"is_disabled":false,"rental_uris":{"android":"levelo://app?vid=aaa68104-60d6-454b-9438-4e38b46ffb6c","ios":"levelo://app?vid=aaa68104-60d6-454b-9438-4e38b46ffb6c"},"vehicle_type_id":"4","last_reported":1732208898,"current_range_meters":16000,"station_id":"","pricing_plan_id":"cebpf4jnsgd1na2vs0mg"},{"bike_id":"d2321b4c-ae3a-4b43-8bcd-12cb7984481d","system_id":"levelo_inurba_marseille","lat":43.3076,"lon":5.37019,"is_reserved":false,"is_disabled":true,"rental_uris":{"android":"levelo://app?vid=d2321b4c-ae3a-4b43-8bcd-12cb7984481d","ios":"levelo://app?vid=d2321b4c-ae3a-4b43-8bcd-12cb7984481d"},"vehicle_type_id":"4","last_reported":1732208898,"current_range_meters":22800,"station_id":"","pricing_plan_id":"cebpf4jnsgd1na2vs0mg"},{"bike_id":"eba35b14-0ea4-4a4f-9525-dc9511c16675","system_id":"levelo_inurba_marseille","lat":43.29706,"lon":5.36608,"is_reserved":false,"is_disabled":false,"rental_uris":{"android":"levelo://app?vid=eba35b14-0ea4-4a4f-9525-dc9511c16675","ios":"levelo://app?vid=eba35b14-0ea4-4a4f-9525-dc9511c16675"},"vehicle_type_id":"4","last_reported":1732208898,"current_range_meters":22000,"station_id":"ce4bgn12rcd13ifvqbt0","pricing_plan_id":"cebpf4jnsgd1na2vs0mg"},{"bike_id":"d6f2139b-0ad5-41bb-86c0-501c1111d96f","system_id":"levelo_inurba_marseille","lat":43.29788,"lon":5.39336,"is_reserved":false,"is_disabled":false,"rental_uris":{"android":"levelo://app?vid=d6f2139b-0ad5-41bb-86c0-501c1111d96f","ios":"levelo://app?vid=d6f2139b-0ad5-41bb-86c0-501c1111d96f"},"vehicle_type_id":"4","last_reported":1732208898,"current_range_meters":39200,"station_id":"chh1huq6cuj3fo74tm60","pricing_plan_id":"cebpf4jnsgd1na2vs0mg"},{"bike_id":"5d1d5b20-5ec8-4b4c-9cdd-13be26c2dd34","system_id":"levelo_inurba_marseille","lat":43.2907,"lon":5.37164,"is_reserved":false,"is_disabled":false,"rental_uris":{"android":"levelo://app?vid=5d1d5b20-5ec8-4b4c-9cdd-13be26c2dd34","ios":"levelo://app?vid=5d1d5b20-5ec8-4b4c-9cdd-13be26c2dd34"},"vehicle_type_id":"4","last_reported":1732208898,"current_range_meters":22400,"station_id":"ce4bh5p2rcd13ifvqe4g","pricing_plan_id":"cebpf4jnsgd1na2vs0mg"},{"bike_id":"5c3000a0-a190-4007-a723-aa2707fd1ce3","system_id":"levelo_inurba_marseille","lat":43.22936,"lon":5.35389,"is_reserved":false,"is_disabled":false,"rental_uris":{"android":"levelo://app?vid=5c3000a0-a190-4007-a723-aa2707fd1ce3","ios":"levelo://app?vid=5c3000a0-a190-4007-a723-aa2707fd1ce3"},"vehicle_type_id":"4","last_reported":1732208898,"current_range_meters":39200,"station_id":"cpo3532slgdg3j2ikp40","pricing_plan_id":"cebpf4jnsgd1na2vs0mg"},{"bike_id":"5374d7d9-c71f-4050-9c3a-4be73fa09f04","system_id":"levelo_inurba_marseille","lat":43.31032,"lon":5.37018,"is_reserved":false,"is_disabled":false,"rental_uris":{"android":"levelo://app?vid=5374d7d9-c71f-4050-9c3a-4be73fa09f04","ios":"levelo://app?vid=5374d7d9-c71f-4050-9c3a-4be73fa09f04"},"vehicle_type_id":"4","last_reported":1732208898,"current_range_meters":35600,"station_id":"","pricing_plan_id":"cebpf4jnsgd1na2vs0mg"},{"bike_id":"9bf00278-281e-45df-b9cb-0f55e5af1df2","system_id":"levelo_inurba_marseille","lat":43.25576,"lon":5.38237,"is_reserved":false,"is_disabled":true,"rental_uris":{"android":"levelo://app?vid=9bf00278-281e-45df-b9cb-0f55e5af1df2","ios":"levelo://app?vid=9bf00278-281e-45df-b9cb-0f55e5af1df2"},"vehicle_type_id":"4","last_reported":1732208898,"current_range_meters":0,"station_id":"ce4bhih2rcd13ifvqfs0","pricing_plan_id":"cebpf4jnsgd1na2vs0mg"},{"bike_id":"1caada37-0054-42e5-a957-bf1732db7f3a","system_id":"levelo_inurba_marseille","lat":43.29563,"lon":5.39982,"is_reserved":false,"is_disabled":false,"rental_uris":{"android":"levelo://app?vid=1caada37-0054-42e5-a957-bf1732db7f3a","ios":"levelo://app?vid=1caada37-0054-42e5-a957-bf1732db7f3a"},"vehicle_type_id":"4","last_reported":1732208898,"current_range_meters":39200,"station_id":"ce4bh312rcd13ifvqdj0","pricing_plan_id":"cebpf4jnsgd1na2vs0mg"},{"bike_id":"922bd877-8ef2-4e72-a9c2-b448135ba6e2","system_id":"levelo_inurba_marseille","lat":43.23202,"lon":5.35549,"is_reserved":false,"is_disabled":false,"rental_uris":{"android":"levelo://app?vid=922bd877-8ef2-4e72-a9c2-b448135ba6e2","ios":"levelo://app?vid=922bd877-8ef2-4e72-a9c2-b448135ba6e2"},"vehicle_type_id":"4","last_reported":1732208898,"current_range_meters":18800,"station_id":"ce4bhu92rcd13ifvqi70","pricing_plan_id":"cebpf4jnsgd1na2vs0mg"},{"bike_id":"895dae95-9dde-4a45-9252-bfb2ffb1ef60","system_id":"levelo_inurba_marseille","lat":43.29853,"lon":5.36273,"is_reserved":false,"is_disabled":false,"rental_uris":{"android":"levelo://app?vid=895dae95-9dde-4a45-9252-bfb2ffb1ef60","ios":"levelo://app?vid=895dae95-9dde-4a45-9252-bfb2ffb1ef60"},"vehicle_type_id":"4","last_reported":1732208898,"current_range_meters":38800,"station_id":"ce4bgpp2rcd13ifvqc3g","pricing_plan_id":"cebpf4jnsgd1na2vs0mg"},{"bike_id":"0537b288-f6d5-4a4a-b5a0-fbb6f073f2c1","system_id":"levelo_inurba_marseille","lat":43.30532,"lon":5.36552,"is_reserved":false,"is_disabled":false,"rental_uris":{"android":"levelo://app?vid=0537b288-f6d5-4a4a-b5a0-fbb6f073f2c1","ios":"levelo://app?vid=0537b288-f6d5-4a4a-b5a0-fbb6f073f2c1"},"vehicle_type_id":"4","last_reported":1732208898,"current_range_meters":39200,"station_id":"ce4bgs12rcd13ifvqcag","pricing_plan_id":"cebpf4jnsgd1na2vs0mg"},{"bike_id":"85d220bc-cd5c-4076-ad44-b62066a2c875","system_id":"levelo_inurba_marseille","lat":43.27555,"lon":5.38444,"is_reserved":false,"is_disabled":false,"rental_uris":{"android":"levelo://app?vid=85d220bc-cd5c-4076-ad44-b62066a2c875","ios":"levelo://app?vid=85d220bc-cd5c-4076-ad44-b62066a2c875"},"vehicle_type_id":"4","last_reported":1732208898,"current_range_meters":8400,"station_id":"ce4bhh92rcd13ifvqfi0","pricing_plan_id":"cebpf4jnsgd1na2vs0mg"},{"bike_id":"fce5cead-f708-488c-9b32-ae07588a04b4","system_id":"levelo_inurba_marseille","lat":43.32361,"lon":5.38885,"is_reserved":false,"is_disabled":false,"rental_uris":{"android":"levelo://app?vid=fce5cead-f708-488c-9b32-ae07588a04b4","ios":"levelo://app?vid=fce5cead-f708-488c-9b32-ae07588a04b4"},"vehicle_type_id":"4","last_reported":1732208898,"current_range_meters":38800,"station_id":"ce4bhqp2rcd13ifvqhog","pricing_plan_id":"cebpf4jnsgd1na2vs0mg"},{"bike_id":"48cd0835-aecf-4328-9ec2-0085c18d7831","system_id":"levelo_inurba_marseille","lat":43.27601,"lon":5.38419,"is_reserved":false,"is_disabled":true,"rental_uris":{"android":"levelo://app?vid=48cd0835-aecf-4328-9ec2-0085c18d7831","ios":"levelo://app?vid=48cd0835-aecf-4328-9ec2-0085c18d7831"},"vehicle_type_id":"4","last_reported":1732208898,"current_range_meters":38800,"station_id":"ce4bhh92rcd13ifvqfi0","pricing_plan_id":"cebpf4jnsgd1na2vs0mg"},{"bike_id":"78112314-0167-4770-aec6-47ed16f97dd3","system_id":"levelo_inurba_marseille","lat":43.27556,"lon":5.38424,"is_reserved":false,"is_disabled":false,"rental_uris":{"android":"levelo://app?vid=78112314-0167-4770-aec6-47ed16f97dd3","ios":"levelo://app?vid=78112314-0167-4770-aec6-47ed16f97dd3"},"vehicle_type_id":"4","last_reported":1732208898,"current_range_meters":38800,"station_id":"ce4bhh92rcd13ifvqfi0","pricing_plan_id":"cebpf4jnsgd1na2vs0mg"},{"bike_id":"1cd0daee-d68a-4e66-9883-fbe67fd8260f","system_id":"levelo_inurba_marseille","lat":43.30583,"lon":5.37118,"is_reserved":false,"is_disabled":true,"rental_uris":{"android":"levelo://app?vid=1cd0daee-d68a-4e66-9883-fbe67fd8260f","ios":"levelo://app?vid=1cd0daee-d68a-4e66-9883-fbe67fd8260f"},"vehicle_type_id":"4","last_reported":1732208898,"current_range_meters":0,"station_id":"","pricing_plan_id":"cebpf4jnsgd1na2vs0mg"},{"bike_id":"85c06ef5-27f4-42f4-ae09-f2d7378b2799","system_id":"levelo_inurba_marseille","lat":43.30929,"lon":5.40148,"is_reserved":false,"is_disabled":false,"rental_uris":{"android":"levelo://app?vid=85c06ef5-27f4-42f4-ae09-f2d7378b2799","ios":"levelo://app?vid=85c06ef5-27f4-42f4-ae09-f2d7378b2799"},"vehicle_type_id":"4","last_reported":1732208898,"current_range_meters":27600,"station_id":"ce4bgvp2rcd13ifvqct0","pricing_plan_id":"cebpf4jnsgd1na2vs0mg"},{"bike_id":"44b712e4-b931-44c0-a99f-6c952aae67be","system_id":"levelo_inurba_marseille","lat":43.29063,"lon":5.37165,"is_reserved":false,"is_disabled":false,"rental_uris":{"android":"levelo://app?vid=44b712e4-b931-44c0-a99f-6c952aae67be","ios":"levelo://app?vid=44b712e4-b931-44c0-a99f-6c952aae67be"},"vehicle_type_id":"4","last_reported":1732208898,"current_range_meters":32800,"station_id":"ce4bh5p2rcd13ifvqe4g","pricing_plan_id":"cebpf4jnsgd1na2vs0mg"},{"bike_id":"607ee8d2-a529-40f3-bee1-2396993f483e","system_id":"levelo_inurba_marseille","lat":43.246547,"lon":5.388984,"is_reserved":false,"is_disabled":false,"rental_uris":{"android":"levelo://app?vid=607ee8d2-a529-40f3-bee1-2396993f483e","ios":"levelo://app?vid=607ee8d2-a529-40f3-bee1-2396993f483e"},"vehicle_type_id":"4","last_reported":1732208898,"current_range_meters":35200,"station_id":"ce4bhg12rcd13ifvqf60","pricing_plan_id":"cebpf4jnsgd1na2vs0mg"},{"bike_id":"935ecd97-c469-4d8b-b8e5-b0a0edae57d4","system_id":"levelo_inurba_marseille","lat":43.29335,"lon":5.37166,"is_reserved":false,"is_disabled":false,"rental_uris":{"android":"levelo://app?vid=935ecd97-c469-4d8b-b8e5-b0a0edae57d4","ios":"levelo://app?vid=935ecd97-c469-4d8b-b8e5-b0a0edae57d4"},"vehicle_type_id":"4","last_reported":1732208898,"current_range_meters":30000,"station_id":"ce4bgh92rcd13ifvqb40","pricing_plan_id":"cebpf4jnsgd1na2vs0mg"},{"bike_id":"38bde999-6886-4a55-ae41-3cf97a256290","system_id":"levelo_inurba_marseille","lat":43.25117,"lon":5.4032,"is_reserved":false,"is_disabled":false,"rental_uris":{"android":"levelo://app?vid=38bde999-6886-4a55-ae41-3cf97a256290","ios":"levelo://app?vid=38bde999-6886-4a55-ae41-3cf97a256290"},"vehicle_type_id":"4","last_reported":1732208898,"current_range_meters":19200,"station_id":"ce4bhlh2rcd13ifvqgig","pricing_plan_id":"cebpf4jnsgd1na2vs0mg"},{"bike_id":"a0d7ef92-2c86-46d9-98b7-61356ec56f74","system_id":"levelo_inurba_marseille","lat":43.28617,"lon":5.35107,"is_reserved":false,"is_disabled":false,"rental_uris":{"android":"levelo://app?vid=a0d7ef92-2c86-46d9-98b7-61356ec56f74","ios":"levelo://app?vid=a0d7ef92-2c86-46d9-98b7-61356ec56f74"},"vehicle_type_id":"4","last_reported":1732208898,"current_range_meters":25200,"station_id":"ce4bhch2rcd13ifvqeug","pricing_plan_id":"cebpf4jnsgd1na2vs0mg"},{"bike_id":"38c3425a-9757-4ae5-b002-9a5d74bf8111","system_id":"levelo_inurba_marseille","lat":43.3254,"lon":5.41425,"is_reserved":false,"is_disabled":false,"rental_uris":{"android":"levelo://app?vid=38c3425a-9757-4ae5-b002-9a5d74bf8111","ios":"levelo://app?vid=38c3425a-9757-4ae5-b002-9a5d74bf8111"},"vehicle_type_id":"4","last_reported":1732208898,"current_range_meters":38400,"station_id":"ce4bhq12rcd13ifvqhhg","pricing_plan_id":"cebpf4jnsgd1na2vs0mg"},{"bike_id":"cbc9f3c1-4348-4707-b560-0243bcecad2d","system_id":"levelo_inurba_marseille","lat":43.28039,"lon":5.36942,"is_reserved":false,"is_disabled":false,"rental_uris":{"android":"levelo://app?vid=cbc9f3c1-4348-4707-b560-0243bcecad2d","ios":"levelo://app?vid=cbc9f3c1-4348-4707-b560-0243bcecad2d"},"vehicle_type_id":"4","last_reported":1732208898,"current_range_meters":22400,"station_id":"ce4bha12rcd13ifvqef0","pricing_plan_id":"cebpf4jnsgd1na2vs0mg"},{"bike_id":"05b51898-745d-41a1-b97b-a5c4aee1500e","system_id":"levelo_inurba_marseille","lat":43.30946,"lon":5.3903,"is_reserved":false,"is_disabled":false,"rental_uris":{"android":"levelo://app?vid=05b51898-745d-41a1-b97b-a5c4aee1500e","ios":"levelo://app?vid=05b51898-745d-41a1-b97b-a5c4aee1500e"},"vehicle_type_id":"4","last_reported":1732208898,"current_range_meters":20000,"station_id":"ce4bgup2rcd13ifvqco0","pricing_plan_id":"cebpf4jnsgd1na2vs0mg"},{"bike_id":"a7fce1eb-2f2a-4561-bd8b-f77092da043b","system_id":"levelo_inurba_marseille","lat":43.27063,"lon":5.42278,"is_reserved":false,"is_disabled":true,"rental_uris":{"android":"levelo://app?vid=a7fce1eb-2f2a-4561-bd8b-f77092da043b","ios":"levelo://app?vid=a7fce1eb-2f2a-4561-bd8b-f77092da043b"},"vehicle_type_id":"4","last_reported":1732208898,"current_range_meters":26800,"station_id":"ce4bhk92rcd13ifvqgb0","pricing_plan_id":"cebpf4jnsgd1na2vs0mg"},{"bike_id":"92366151-7d56-4adf-acd4-d5a8580c24fe","system_id":"levelo_inurba_marseille","lat":43.28683,"lon":5.38669,"is_reserved":false,"is_disabled":false,"rental_uris":{"android":"levelo://app?vid=92366151-7d56-4adf-acd4-d5a8580c24fe","ios":"levelo://app?vid=92366151-7d56-4adf-acd4-d5a8580c24fe"},"vehicle_type_id":"4","last_reported":1732208898,"current_range_meters":25200,"station_id":"ce4bh492rcd13ifvqdug","pricing_plan_id":"cebpf4jnsgd1na2vs0mg"},{"bike_id":"d4bf1d08-aa1f-4470-b5cb-d2373f147fa7","system_id":"levelo_inurba_marseille","lat":43.29975,"lon":5.37177,"is_reserved":false,"is_disabled":false,"rental_uris":{"android":"levelo://app?vid=d4bf1d08-aa1f-4470-b5cb-d2373f147fa7","ios":"levelo://app?vid=d4bf1d08-aa1f-4470-b5cb-d2373f147fa7"},"vehicle_type_id":"4","last_reported":1732208898,"current_range_meters":37600,"station_id":"ce4bgr92rcd13ifvqc7g","pricing_plan_id":"cebpf4jnsgd1na2vs0mg"},{"bike_id":"571825fc-1c1f-4e61-ba4d-fc13912fcda9","system_id":"levelo_inurba_marseille","lat":43.32483,"lon":5.36566,"is_reserved":false,"is_disabled":false,"rental_uris":{"android":"levelo://app?vid=571825fc-1c1f-4e61-ba4d-fc13912fcda9","ios":"levelo://app?vid=571825fc-1c1f-4e61-ba4d-fc13912fcda9"},"vehicle_type_id":"4","last_reported":1732208898,"current_range_meters":39200,"station_id":"ce4bhs12rcd13ifvqhvg","pricing_plan_id":"cebpf4jnsgd1na2vs0mg"},{"bike_id":"42068507-b68b-40dc-8ff5-d1f41196a989","system_id":"levelo_inurba_marseille","lat":43.32337,"lon":5.40632,"is_reserved":false,"is_disabled":false,"rental_uris":{"android":"levelo://app?vid=42068507-b68b-40dc-8ff5-d1f41196a989","ios":"levelo://app?vid=42068507-b68b-40dc-8ff5-d1f41196a989"},"vehicle_type_id":"4","last_reported":1732208898,"current_range_meters":14800,"station_id":"ce4bhq92rcd13ifvqhjg","pricing_plan_id":"cebpf4jnsgd1na2vs0mg"},{"bike_id":"5ee9c235-ee3b-4548-8706-7945d2b17e85","system_id":"levelo_inurba_marseille","lat":43.29276,"lon":5.40116,"is_reserved":false,"is_disabled":false,"rental_uris":{"android":"levelo://app?vid=5ee9c235-ee3b-4548-8706-7945d2b17e85","ios":"levelo://app?vid=5ee9c235-ee3b-4548-8706-7945d2b17e85"},"vehicle_type_id":"4","last_reported":1732208898,"current_range_meters":13600,"station_id":"ce4bh312rcd13ifvqdk0","pricing_plan_id":"cebpf4jnsgd1na2vs0mg"},{"bike_id":"be9ae0a8-c549-4adb-a0f6-54609edbc62f","system_id":"levelo_inurba_marseille","lat":43.2985,"lon":5.36283,"is_reserved":false,"is_disabled":false,"rental_uris":{"android":"levelo://app?vid=be9ae0a8-c549-4adb-a0f6-54609edbc62f","ios":"levelo://app?vid=be9ae0a8-c549-4adb-a0f6-54609edbc62f"},"vehicle_type_id":"4","last_reported":1732208898,"current_range_meters":38800,"station_id":"ce4bgpp2rcd13ifvqc3g","pricing_plan_id":"cebpf4jnsgd1na2vs0mg"},{"bike_id":"66c02efa-663d-47e1-a0a4-7f523cd86b69","system_id":"levelo_inurba_marseille","lat":43.31766,"lon":5.3901,"is_reserved":false,"is_disabled":false,"rental_uris":{"android":"levelo://app?vid=66c02efa-663d-47e1-a0a4-7f523cd86b69","ios":"levelo://app?vid=66c02efa-663d-47e1-a0a4-7f523cd86b69"},"vehicle_type_id":"4","last_reported":1732208898,"current_range_meters":38800,"station_id":"ce4bhqp2rcd13ifvqhng","pricing_plan_id":"cebpf4jnsgd1na2vs0mg"},{"bike_id":"3e79d4a2-c931-4a9a-b2b8-db8983ca62cd","system_id":"levelo_inurba_marseille","lat":43.29598,"lon":5.38093,"is_reserved":false,"is_disabled":false,"rental_uris":{"android":"levelo://app?vid=3e79d4a2-c931-4a9a-b2b8-db8983ca62cd","ios":"levelo://app?vid=3e79d4a2-c931-4a9a-b2b8-db8983ca62cd"},"vehicle_type_id":"4","last_reported":1732208898,"current_range_meters":21600,"station_id":"ce4bgl12rcd13ifvqbo0","pricing_plan_id":"cebpf4jnsgd1na2vs0mg"},{"bike_id":"567b5bec-6f69-4097-9d92-252add5a5c8a","system_id":"levelo_inurba_marseille","lat":43.25579,"lon":5.38243,"is_reserved":false,"is_disabled":false,"rental_uris":{"android":"levelo://app?vid=567b5bec-6f69-4097-9d92-252add5a5c8a","ios":"levelo://app?vid=567b5bec-6f69-4097-9d92-252add5a5c8a"},"vehicle_type_id":"4","last_reported":1732208898,"current_range_meters":5600,"station_id":"ce4bhih2rcd13ifvqfs0","pricing_plan_id":"cebpf4jnsgd1na2vs0mg"},{"bike_id":"7d5ba0aa-0f48-4a7f-82de-9d26e1521cfb","system_id":"levelo_inurba_marseille","lat":43.32292,"lon":5.38251,"is_reserved":false,"is_disabled":false,"rental_uris":{"android":"levelo://app?vid=7d5ba0aa-0f48-4a7f-82de-9d26e1521cfb","ios":"levelo://app?vid=7d5ba0aa-0f48-4a7f-82de-9d26e1521cfb"},"vehicle_type_id":"4","last_reported":1732208898,"current_range_meters":26000,"station_id":"ce4bhr12rcd13ifvqhqg","pricing_plan_id":"cebpf4jnsgd1na2vs0mg"},{"bike_id":"550f0269-af81-4f74-bed5-fe17c4459dfd","system_id":"levelo_inurba_marseille","lat":43.25932,"lon":5.40906,"is_reserved":false,"is_disabled":false,"rental_uris":{"android":"levelo://app?vid=550f0269-af81-4f74-bed5-fe17c4459dfd","ios":"levelo://app?vid=550f0269-af81-4f74-bed5-fe17c4459dfd"},"vehicle_type_id":"4","last_reported":1732208898,"current_range_meters":38800,"station_id":"ce4bhm92rcd13ifvqglg","pricing_plan_id":"cebpf4jnsgd1na2vs0mg"},{"bike_id":"9c37a5af-6b01-4e75-9657-7ef6bddc1bc6","system_id":"levelo_inurba_marseille","lat":43.33024,"lon":5.39041,"is_reserved":false,"is_disabled":false,"rental_uris":{"android":"levelo://app?vid=9c37a5af-6b01-4e75-9657-7ef6bddc1bc6","ios":"levelo://app?vid=9c37a5af-6b01-4e75-9657-7ef6bddc1bc6"},"vehicle_type_id":"4","last_reported":1732208898,"current_range_meters":26800,"station_id":"ce4bhr92rcd13ifvqhrg","pricing_plan_id":"cebpf4jnsgd1na2vs0mg"},{"bike_id":"d6d41b2e-30ea-4987-8625-f242318469f8","system_id":"levelo_inurba_marseille","lat":43.28847,"lon":5.35852,"is_reserved":false,"is_disabled":false,"rental_uris":{"android":"levelo://app?vid=d6d41b2e-30ea-4987-8625-f242318469f8","ios":"levelo://app?vid=d6d41b2e-30ea-4987-8625-f242318469f8"},"vehicle_type_id":"4","last_reported":1732208898,"current_range_meters":30400,"station_id":"ce4bhb12rcd13ifvqem0","pricing_plan_id":"cebpf4jnsgd1na2vs0mg"},{"bike_id":"1e5c7b22-6442-4f11-8f13-d09813d395f8","system_id":"levelo_inurba_marseille","lat":43.30322,"lon":5.40437,"is_reserved":false,"is_disabled":false,"rental_uris":{"android":"levelo://app?vid=1e5c7b22-6442-4f11-8f13-d09813d395f8","ios":"levelo://app?vid=1e5c7b22-6442-4f11-8f13-d09813d395f8"},"vehicle_type_id":"4","last_reported":1732208898,"current_range_meters":22000,"station_id":"ce4bh012rcd13ifvqd10","pricing_plan_id":"cebpf4jnsgd1na2vs0mg"},{"bike_id":"3585d018-4b66-4cf5-bca5-17fcec2fef21","system_id":"levelo_inurba_marseille","lat":43.23197,"lon":5.35554,"is_reserved":false,"is_disabled":false,"rental_uris":{"android":"levelo://app?vid=3585d018-4b66-4cf5-bca5-17fcec2fef21","ios":"levelo://app?vid=3585d018-4b66-4cf5-bca5-17fcec2fef21"},"vehicle_type_id":"4","last_reported":1732208898,"current_range_meters":32400,"station_id":"ce4bhu92rcd13ifvqi70","pricing_plan_id":"cebpf4jnsgd1na2vs0mg"},{"bike_id":"7f67eab4-a851-414d-a7b0-e99e7a8fac51","system_id":"levelo_inurba_marseille","lat":43.28274,"lon":5.35074,"is_reserved":false,"is_disabled":false,"rental_uris":{"android":"levelo://app?vid=7f67eab4-a851-414d-a7b0-e99e7a8fac51","ios":"levelo://app?vid=7f67eab4-a851-414d-a7b0-e99e7a8fac51"},"vehicle_type_id":"4","last_reported":1732208898,"current_range_meters":39200,"station_id":"ce4bhbp2rcd13ifvqerg","pricing_plan_id":"cebpf4jnsgd1na2vs0mg"},{"bike_id":"e57590cc-a844-462b-b95c-023047b497c3","system_id":"levelo_inurba_marseille","lat":43.26027,"lon":5.3755,"is_reserved":false,"is_disabled":false,"rental_uris":{"android":"levelo://app?vid=e57590cc-a844-462b-b95c-023047b497c3","ios":"levelo://app?vid=e57590cc-a844-462b-b95c-023047b497c3"},"vehicle_type_id":"4","last_reported":1732208898,"current_range_meters":37600,"station_id":"ce4bhgh2rcd13ifvqfa0","pricing_plan_id":"cebpf4jnsgd1na2vs0mg"},{"bike_id":"d979d12e-0952-4b0d-a112-f005022fbbe4","system_id":"levelo_inurba_marseille","lat":43.26197,"lon":5.37931,"is_reserved":false,"is_disabled":false,"rental_uris":{"android":"levelo://app?vid=d979d12e-0952-4b0d-a112-f005022fbbe4","ios":"levelo://app?vid=d979d12e-0952-4b0d-a112-f005022fbbe4"},"vehicle_type_id":"4","last_reported":1732208898,"current_range_meters":11200,"station_id":"ce4bhjp2rcd13ifvqg90","pricing_plan_id":"cebpf4jnsgd1na2vs0mg"},{"bike_id":"ce7c6f2a-c99b-49df-8add-c79c6e8dfbf7","system_id":"levelo_inurba_marseille","lat":43.27806,"lon":5.4072,"is_reserved":false,"is_disabled":false,"rental_uris":{"android":"levelo://app?vid=ce7c6f2a-c99b-49df-8add-c79c6e8dfbf7","ios":"levelo://app?vid=ce7c6f2a-c99b-49df-8add-c79c6e8dfbf7"},"vehicle_type_id":"4","last_reported":1732208898,"current_range_meters":6400,"station_id":"ce4bhnh2rcd13ifvqgtg","pricing_plan_id":"cebpf4jnsgd1na2vs0mg"},{"bike_id":"01fade1f-4c0e-41f5-a847-3ee1ed0ae04c","system_id":"levelo_inurba_marseille","lat":43.31324,"lon":5.39693,"is_reserved":false,"is_disabled":false,"rental_uris":{"android":"levelo://app?vid=01fade1f-4c0e-41f5-a847-3ee1ed0ae04c","ios":"levelo://app?vid=01fade1f-4c0e-41f5-a847-3ee1ed0ae04c"},"vehicle_type_id":"4","last_reported":1732208898,"current_range_meters":38800,"station_id":"ce4bgvp2rcd13ifvqcu0","pricing_plan_id":"cebpf4jnsgd1na2vs0mg"},{"bike_id":"7ef9a5ef-b3b2-4ff2-82cc-f161ced30464","system_id":"levelo_inurba_marseille","lat":43.29417,"lon":5.38607,"is_reserved":false,"is_disabled":true,"rental_uris":{"android":"levelo://app?vid=7ef9a5ef-b3b2-4ff2-82cc-f161ced30464","ios":"levelo://app?vid=7ef9a5ef-b3b2-4ff2-82cc-f161ced30464"},"vehicle_type_id":"4","last_reported":1732208898,"current_range_meters":33200,"station_id":"ce4bh2h2rcd13ifvqdh0","pricing_plan_id":"cebpf4jnsgd1na2vs0mg"},{"bike_id":"3a0abff8-e4e5-422e-b944-1e043dd140db","system_id":"levelo_inurba_marseille","lat":43.31324,"lon":5.39703,"is_reserved":false,"is_disabled":false,"rental_uris":{"android":"levelo://app?vid=3a0abff8-e4e5-422e-b944-1e043dd140db","ios":"levelo://app?vid=3a0abff8-e4e5-422e-b944-1e043dd140db"},"vehicle_type_id":"4","last_reported":1732208898,"current_range_meters":25600,"station_id":"ce4bgvp2rcd13ifvqcu0","pricing_plan_id":"cebpf4jnsgd1na2vs0mg"},{"bike_id":"7fafcd85-dc72-40f4-ba52-cc83d4009bdc","system_id":"levelo_inurba_marseille","lat":43.30939,"lon":5.40149,"is_reserved":false,"is_disabled":false,"rental_uris":{"android":"levelo://app?vid=7fafcd85-dc72-40f4-ba52-cc83d4009bdc","ios":"levelo://app?vid=7fafcd85-dc72-40f4-ba52-cc83d4009bdc"},"vehicle_type_id":"4","last_reported":1732208898,"current_range_meters":30000,"station_id":"ce4bgvp2rcd13ifvqct0","pricing_plan_id":"cebpf4jnsgd1na2vs0mg"},{"bike_id":"8d5e8e54-f87c-49b3-8720-7e21078f8fcd","system_id":"levelo_inurba_marseille","lat":43.26485,"lon":5.39548,"is_reserved":false,"is_disabled":false,"rental_uris":{"android":"levelo://app?vid=8d5e8e54-f87c-49b3-8720-7e21078f8fcd","ios":"levelo://app?vid=8d5e8e54-f87c-49b3-8720-7e21078f8fcd"},"vehicle_type_id":"4","last_reported":1732208898,"current_range_meters":36400,"station_id":"ce4bhi12rcd13ifvqfq0","pricing_plan_id":"cebpf4jnsgd1na2vs0mg"},{"bike_id":"844cb461-f780-45f5-88b2-3951b51e6462","system_id":"levelo_inurba_marseille","lat":43.30109,"lon":5.37826,"is_reserved":false,"is_disabled":true,"rental_uris":{"android":"levelo://app?vid=844cb461-f780-45f5-88b2-3951b51e6462","ios":"levelo://app?vid=844cb461-f780-45f5-88b2-3951b51e6462"},"vehicle_type_id":"4","last_reported":1732208898,"current_range_meters":0,"station_id":"","pricing_plan_id":"cebpf4jnsgd1na2vs0mg"},{"bike_id":"f6993af9-b269-4f6d-a005-9807692a544a","system_id":"levelo_inurba_marseille","lat":43.3079,"lon":5.38166,"is_reserved":false,"is_disabled":false,"rental_uris":{"android":"levelo://app?vid=f6993af9-b269-4f6d-a005-9807692a544a","ios":"levelo://app?vid=f6993af9-b269-4f6d-a005-9807692a544a"},"vehicle_type_id":"4","last_reported":1732208898,"current_range_meters":15200,"station_id":"ce4bgt12rcd13ifvqce0","pricing_plan_id":"cebpf4jnsgd1na2vs0mg"},{"bike_id":"b3ff0223-9f3b-40c9-ba64-b1074cf27420","system_id":"levelo_inurba_marseille","lat":43.28031,"lon":5.36937,"is_reserved":false,"is_disabled":false,"rental_uris":{"android":"levelo://app?vid=b3ff0223-9f3b-40c9-ba64-b1074cf27420","ios":"levelo://app?vid=b3ff0223-9f3b-40c9-ba64-b1074cf27420"},"vehicle_type_id":"4","last_reported":1732208898,"current_range_meters":34800,"station_id":"ce4bha12rcd13ifvqef0","pricing_plan_id":"cebpf4jnsgd1na2vs0mg"},{"bike_id":"141a6003-9c1b-40ba-b273-5abd7a8326b6","system_id":"levelo_inurba_marseille","lat":43.26554,"lon":5.37288,"is_reserved":false,"is_disabled":false,"rental_uris":{"android":"levelo://app?vid=141a6003-9c1b-40ba-b273-5abd7a8326b6","ios":"levelo://app?vid=141a6003-9c1b-40ba-b273-5abd7a8326b6"},"vehicle_type_id":"4","last_reported":1732208898,"current_range_meters":38800,"station_id":"ce4bhg12rcd13ifvqf70","pricing_plan_id":"cebpf4jnsgd1na2vs0mg"},{"bike_id":"51555b90-b7c7-4e79-bc4e-60c6b5e837a5","system_id":"levelo_inurba_marseille","lat":43.29622,"lon":5.37169,"is_reserved":false,"is_disabled":false,"rental_uris":{"android":"levelo://app?vid=51555b90-b7c7-4e79-bc4e-60c6b5e837a5","ios":"levelo://app?vid=51555b90-b7c7-4e79-bc4e-60c6b5e837a5"},"vehicle_type_id":"4","last_reported":1732208898,"current_range_meters":39200,"station_id":"ce4bgnh2rcd13ifvqc0g","pricing_plan_id":"cebpf4jnsgd1na2vs0mg"},{"bike_id":"f1248f34-c503-4724-b88f-0b2c0534ef07","system_id":"levelo_inurba_marseille","lat":43.3046,"lon":5.37904,"is_reserved":false,"is_disabled":false,"rental_uris":{"android":"levelo://app?vid=f1248f34-c503-4724-b88f-0b2c0534ef07","ios":"levelo://app?vid=f1248f34-c503-4724-b88f-0b2c0534ef07"},"vehicle_type_id":"4","last_reported":1732208898,"current_range_meters":37600,"station_id":"ce4bgup2rcd13ifvqcn0","pricing_plan_id":"cebpf4jnsgd1na2vs0mg"},{"bike_id":"cdaafd2d-0da1-4fac-9881-15c66a7cd7c0","system_id":"levelo_inurba_marseille","lat":43.23154,"lon":5.4371,"is_reserved":false,"is_disabled":false,"rental_uris":{"android":"levelo://app?vid=cdaafd2d-0da1-4fac-9881-15c66a7cd7c0","ios":"levelo://app?vid=cdaafd2d-0da1-4fac-9881-15c66a7cd7c0"},"vehicle_type_id":"4","last_reported":1732208898,"current_range_meters":39200,"station_id":"ce4bhmp2rcd13ifvqgog","pricing_plan_id":"cebpf4jnsgd1na2vs0mg"},{"bike_id":"c1024338-3a35-4c5d-8621-6f53a0a7a406","system_id":"levelo_inurba_marseille","lat":43.336669,"lon":5.39812,"is_reserved":false,"is_disabled":false,"rental_uris":{"android":"levelo://app?vid=c1024338-3a35-4c5d-8621-6f53a0a7a406","ios":"levelo://app?vid=c1024338-3a35-4c5d-8621-6f53a0a7a406"},"vehicle_type_id":"4","last_reported":1732208898,"current_range_meters":36800,"station_id":"","pricing_plan_id":"cebpf4jnsgd1na2vs0mg"},{"bike_id":"f4009844-4684-4602-bd36-d7b100275c80","system_id":"levelo_inurba_marseille","lat":43.31764,"lon":5.39006,"is_reserved":false,"is_disabled":false,"rental_uris":{"android":"levelo://app?vid=f4009844-4684-4602-bd36-d7b100275c80","ios":"levelo://app?vid=f4009844-4684-4602-bd36-d7b100275c80"},"vehicle_type_id":"4","last_reported":1732208898,"current_range_meters":22800,"station_id":"ce4bhqp2rcd13ifvqhng","pricing_plan_id":"cebpf4jnsgd1na2vs0mg"},{"bike_id":"8d5ad0a8-268e-4afd-be61-7919f93826c7","system_id":"levelo_inurba_marseille","lat":43.299,"lon":5.37472,"is_reserved":false,"is_disabled":true,"rental_uris":{"android":"levelo://app?vid=8d5ad0a8-268e-4afd-be61-7919f93826c7","ios":"levelo://app?vid=8d5ad0a8-268e-4afd-be61-7919f93826c7"},"vehicle_type_id":"4","last_reported":1732208898,"current_range_meters":32400,"station_id":"ce4bgjh2rcd13ifvqbg0","pricing_plan_id":"cebpf4jnsgd1na2vs0mg"},{"bike_id":"7bc52ef8-b780-4f98-8fa2-b2125397c84e","system_id":"levelo_inurba_marseille","lat":43.32371,"lon":5.38885,"is_reserved":false,"is_disabled":false,"rental_uris":{"android":"levelo://app?vid=7bc52ef8-b780-4f98-8fa2-b2125397c84e","ios":"levelo://app?vid=7bc52ef8-b780-4f98-8fa2-b2125397c84e"},"vehicle_type_id":"4","last_reported":1732208898,"current_range_meters":30800,"station_id":"ce4bhqp2rcd13ifvqhog","pricing_plan_id":"cebpf4jnsgd1na2vs0mg"},{"bike_id":"b683d051-6bca-4114-b8c1-dbece5c84e99","system_id":"levelo_inurba_marseille","lat":43.29925,"lon":5.36543,"is_reserved":false,"is_disabled":false,"rental_uris":{"android":"levelo://app?vid=b683d051-6bca-4114-b8c1-dbece5c84e99","ios":"levelo://app?vid=b683d051-6bca-4114-b8c1-dbece5c84e99"},"vehicle_type_id":"4","last_reported":1732208898,"current_range_meters":33600,"station_id":"ce4bgm92rcd13ifvqbr0","pricing_plan_id":"cebpf4jnsgd1na2vs0mg"},{"bike_id":"b372f4d0-6a0a-4847-98e3-69b664df5eda","system_id":"levelo_inurba_marseille","lat":43.31071,"lon":5.38357,"is_reserved":false,"is_disabled":false,"rental_uris":{"android":"levelo://app?vid=b372f4d0-6a0a-4847-98e3-69b664df5eda","ios":"levelo://app?vid=b372f4d0-6a0a-4847-98e3-69b664df5eda"},"vehicle_type_id":"4","last_reported":1732208898,"current_range_meters":28800,"station_id":"ce4bgv92rcd13ifvqcr0","pricing_plan_id":"cebpf4jnsgd1na2vs0mg"},{"bike_id":"a0f25dd1-45fa-41c5-a5e6-d0d0bea9c865","system_id":"levelo_inurba_marseille","lat":43.30864,"lon":5.39633,"is_reserved":false,"is_disabled":false,"rental_uris":{"android":"levelo://app?vid=a0f25dd1-45fa-41c5-a5e6-d0d0bea9c865","ios":"levelo://app?vid=a0f25dd1-45fa-41c5-a5e6-d0d0bea9c865"},"vehicle_type_id":"4","last_reported":1732208898,"current_range_meters":16400,"station_id":"ce4bh012rcd13ifvqcv0","pricing_plan_id":"cebpf4jnsgd1na2vs0mg"},{"bike_id":"6d25e57f-d33b-4685-a5c3-63838b73d4b2","system_id":"levelo_inurba_marseille","lat":43.30427,"lon":5.38884,"is_reserved":false,"is_disabled":false,"rental_uris":{"android":"levelo://app?vid=6d25e57f-d33b-4685-a5c3-63838b73d4b2","ios":"levelo://app?vid=6d25e57f-d33b-4685-a5c3-63838b73d4b2"},"vehicle_type_id":"4","last_reported":1732208898,"current_range_meters":38800,"station_id":"ce4bgk12rcd13ifvqbi0","pricing_plan_id":"cebpf4jnsgd1na2vs0mg"},{"bike_id":"806734ae-7f6b-4850-8f34-9eb67738d995","system_id":"levelo_inurba_marseille","lat":43.29864,"lon":5.39734,"is_reserved":false,"is_disabled":false,"rental_uris":{"android":"levelo://app?vid=806734ae-7f6b-4850-8f34-9eb67738d995","ios":"levelo://app?vid=806734ae-7f6b-4850-8f34-9eb67738d995"},"vehicle_type_id":"4","last_reported":1732208898,"current_range_meters":29600,"station_id":"ce4bh0h2rcd13ifvqd50","pricing_plan_id":"cebpf4jnsgd1na2vs0mg"},{"bike_id":"1b470b19-1d97-4568-be37-c94fc135bccd","system_id":"levelo_inurba_marseille","lat":43.30884,"lon":5.39634,"is_reserved":false,"is_disabled":false,"rental_uris":{"android":"levelo://app?vid=1b470b19-1d97-4568-be37-c94fc135bccd","ios":"levelo://app?vid=1b470b19-1d97-4568-be37-c94fc135bccd"},"vehicle_type_id":"4","last_reported":1732208898,"current_range_meters":35200,"station_id":"ce4bh012rcd13ifvqcv0","pricing_plan_id":"cebpf4jnsgd1na2vs0mg"},{"bike_id":"cc14f000-00a3-41df-8a0b-9362e356611d","system_id":"levelo_inurba_marseille","lat":43.29671,"lon":5.37929,"is_reserved":false,"is_disabled":false,"rental_uris":{"android":"levelo://app?vid=cc14f000-00a3-41df-8a0b-9362e356611d","ios":"levelo://app?vid=cc14f000-00a3-41df-8a0b-9362e356611d"},"vehicle_type_id":"4","last_reported":1732208898,"current_range_meters":34800,"station_id":"","pricing_plan_id":"cebpf4jnsgd1na2vs0mg"},{"bike_id":"f3d1de11-ea0c-4809-8e9c-3957146035eb","system_id":"levelo_inurba_marseille","lat":43.26025,"lon":5.37553,"is_reserved":false,"is_disabled":false,"rental_uris":{"android":"levelo://app?vid=f3d1de11-ea0c-4809-8e9c-3957146035eb","ios":"levelo://app?vid=f3d1de11-ea0c-4809-8e9c-3957146035eb"},"vehicle_type_id":"4","last_reported":1732208898,"current_range_meters":30000,"station_id":"ce4bhgh2rcd13ifvqfa0","pricing_plan_id":"cebpf4jnsgd1na2vs0mg"},{"bike_id":"319639f6-c364-407e-9612-56f449d4d076","system_id":"levelo_inurba_marseille","lat":43.28075,"lon":5.39664,"is_reserved":false,"is_disabled":true,"rental_uris":{"android":"levelo://app?vid=319639f6-c364-407e-9612-56f449d4d076","ios":"levelo://app?vid=319639f6-c364-407e-9612-56f449d4d076"},"vehicle_type_id":"4","last_reported":1732208898,"current_range_meters":0,"station_id":"ce4bho12rcd13ifvqh2g","pricing_plan_id":"cebpf4jnsgd1na2vs0mg"},{"bike_id":"23e1e7fb-447a-4af5-9504-fd7579cff1bf","system_id":"levelo_inurba_marseille","lat":43.29533,"lon":5.38533,"is_reserved":false,"is_disabled":false,"rental_uris":{"android":"levelo://app?vid=23e1e7fb-447a-4af5-9504-fd7579cff1bf","ios":"levelo://app?vid=23e1e7fb-447a-4af5-9504-fd7579cff1bf"},"vehicle_type_id":"4","last_reported":1732208898,"current_range_meters":38800,"station_id":"ce4bgih2rcd13ifvqba0","pricing_plan_id":"cebpf4jnsgd1na2vs0mg"},{"bike_id":"ee55ab7d-0a10-4c6b-aa1e-2b29e5adc161","system_id":"levelo_inurba_marseille","lat":43.29506,"lon":5.39405,"is_reserved":false,"is_disabled":false,"rental_uris":{"android":"levelo://app?vid=ee55ab7d-0a10-4c6b-aa1e-2b29e5adc161","ios":"levelo://app?vid=ee55ab7d-0a10-4c6b-aa1e-2b29e5adc161"},"vehicle_type_id":"4","last_reported":1732208898,"current_range_meters":38000,"station_id":"ce4bh292rcd13ifvqdf0","pricing_plan_id":"cebpf4jnsgd1na2vs0mg"},{"bike_id":"b1214548-b2f1-4c03-b270-8b9b9146dc65","system_id":"levelo_inurba_marseille","lat":43.27988,"lon":5.40011,"is_reserved":false,"is_disabled":false,"rental_uris":{"android":"levelo://app?vid=b1214548-b2f1-4c03-b270-8b9b9146dc65","ios":"levelo://app?vid=b1214548-b2f1-4c03-b270-8b9b9146dc65"},"vehicle_type_id":"4","last_reported":1732208898,"current_range_meters":38400,"station_id":"ce4bgn12rcd13ifvqbt0","pricing_plan_id":"cebpf4jnsgd1na2vs0mg"},{"bike_id":"91cbc128-559e-448a-b570-a00cf2a59da1","system_id":"levelo_inurba_marseille","lat":43.297114,"lon":5.366175,"is_reserved":false,"is_disabled":false,"rental_uris":{"android":"levelo://app?vid=91cbc128-559e-448a-b570-a00cf2a59da1","ios":"levelo://app?vid=91cbc128-559e-448a-b570-a00cf2a59da1"},"vehicle_type_id":"4","last_reported":1732208898,"current_range_meters":8000,"station_id":"ce4bgn12rcd13ifvqbt0","pricing_plan_id":"cebpf4jnsgd1na2vs0mg"},{"bike_id":"5284586f-d4d3-4f40-a17f-4af2d3d195c6","system_id":"levelo_inurba_marseille","lat":43.29555,"lon":5.42294,"is_reserved":false,"is_disabled":false,"rental_uris":{"android":"levelo://app?vid=5284586f-d4d3-4f40-a17f-4af2d3d195c6","ios":"levelo://app?vid=5284586f-d4d3-4f40-a17f-4af2d3d195c6"},"vehicle_type_id":"4","last_reported":1732208898,"current_range_meters":23200,"station_id":"ce4bhph2rcd13ifvqhdg","pricing_plan_id":"cebpf4jnsgd1na2vs0mg"},{"bike_id":"53bbdfc0-4d63-4cc4-86e6-4ec910061123","system_id":"levelo_inurba_marseille","lat":43.30922,"lon":5.36711,"is_reserved":false,"is_disabled":true,"rental_uris":{"android":"levelo://app?vid=53bbdfc0-4d63-4cc4-86e6-4ec910061123","ios":"levelo://app?vid=53bbdfc0-4d63-4cc4-86e6-4ec910061123"},"vehicle_type_id":"4","last_reported":1732208898,"current_range_meters":0,"station_id":"","pricing_plan_id":"cebpf4jnsgd1na2vs0mg"},{"bike_id":"08d62434-66da-4920-8294-dbecd33c63f9","system_id":"levelo_inurba_marseille","lat":43.25718,"lon":5.41115,"is_reserved":false,"is_disabled":false,"rental_uris":{"android":"levelo://app?vid=08d62434-66da-4920-8294-dbecd33c63f9","ios":"levelo://app?vid=08d62434-66da-4920-8294-dbecd33c63f9"},"vehicle_type_id":"4","last_reported":1732208898,"current_range_meters":30400,"station_id":"ce4bhkp2rcd13ifvqgd0","pricing_plan_id":"cebpf4jnsgd1na2vs0mg"},{"bike_id":"be4b1f11-def8-4549-9089-3138eb847db4","system_id":"levelo_inurba_marseille","lat":43.2987,"lon":5.39739,"is_reserved":false,"is_disabled":false,"rental_uris":{"android":"levelo://app?vid=be4b1f11-def8-4549-9089-3138eb847db4","ios":"levelo://app?vid=be4b1f11-def8-4549-9089-3138eb847db4"},"vehicle_type_id":"4","last_reported":1732208898,"current_range_meters":6000,"station_id":"ce4bh0h2rcd13ifvqd50","pricing_plan_id":"cebpf4jnsgd1na2vs0mg"},{"bike_id":"4a00e718-468a-402b-a531-7524a4b6d689","system_id":"levelo_inurba_marseille","lat":43.28073,"lon":5.3967,"is_reserved":false,"is_disabled":false,"rental_uris":{"android":"levelo://app?vid=4a00e718-468a-402b-a531-7524a4b6d689","ios":"levelo://app?vid=4a00e718-468a-402b-a531-7524a4b6d689"},"vehicle_type_id":"4","last_reported":1732208898,"current_range_meters":14800,"station_id":"ce4bho12rcd13ifvqh2g","pricing_plan_id":"cebpf4jnsgd1na2vs0mg"},{"bike_id":"dfca3e23-b1dd-40cd-81b2-441e5e82c803","system_id":"levelo_inurba_marseille","lat":43.24164,"lon":5.36399,"is_reserved":false,"is_disabled":true,"rental_uris":{"android":"levelo://app?vid=dfca3e23-b1dd-40cd-81b2-441e5e82c803","ios":"levelo://app?vid=dfca3e23-b1dd-40cd-81b2-441e5e82c803"},"vehicle_type_id":"4","last_reported":1732208898,"current_range_meters":400,"station_id":"cpo36qri1sfpv3e86is0","pricing_plan_id":"cebpf4jnsgd1na2vs0mg"},{"bike_id":"3193222d-584b-4642-a1d8-0c04b2309736","system_id":"levelo_inurba_marseille","lat":43.33729,"lon":5.39187,"is_reserved":false,"is_disabled":false,"rental_uris":{"android":"levelo://app?vid=3193222d-584b-4642-a1d8-0c04b2309736","ios":"levelo://app?vid=3193222d-584b-4642-a1d8-0c04b2309736"},"vehicle_type_id":"4","last_reported":1732208898,"current_range_meters":7200,"station_id":"ce4bhr92rcd13ifvqhsg","pricing_plan_id":"cebpf4jnsgd1na2vs0mg"},{"bike_id":"c7c8690c-c9cf-4ab5-9c7c-1aae027d31c1","system_id":"levelo_inurba_marseille","lat":43.29254,"lon":5.3844,"is_reserved":false,"is_disabled":false,"rental_uris":{"android":"levelo://app?vid=c7c8690c-c9cf-4ab5-9c7c-1aae027d31c1","ios":"levelo://app?vid=c7c8690c-c9cf-4ab5-9c7c-1aae027d31c1"},"vehicle_type_id":"4","last_reported":1732208898,"current_range_meters":33200,"station_id":"ce4bh692rcd13ifvqea0","pricing_plan_id":"cebpf4jnsgd1na2vs0mg"},{"bike_id":"d8541a5f-7b8b-4922-a664-880acd4519da","system_id":"levelo_inurba_marseille","lat":43.28734,"lon":5.37936,"is_reserved":false,"is_disabled":false,"rental_uris":{"android":"levelo://app?vid=d8541a5f-7b8b-4922-a664-880acd4519da","ios":"levelo://app?vid=d8541a5f-7b8b-4922-a664-880acd4519da"},"vehicle_type_id":"4","last_reported":1732208898,"current_range_meters":22800,"station_id":"ce4bh9p2rcd13ifvqec0","pricing_plan_id":"cebpf4jnsgd1na2vs0mg"},{"bike_id":"be6e7760-9d18-42d9-b442-83b561b318cb","system_id":"levelo_inurba_marseille","lat":43.29318,"lon":5.41153,"is_reserved":false,"is_disabled":false,"rental_uris":{"android":"levelo://app?vid=be6e7760-9d18-42d9-b442-83b561b318cb","ios":"levelo://app?vid=be6e7760-9d18-42d9-b442-83b561b318cb"},"vehicle_type_id":"4","last_reported":1732208898,"current_range_meters":8000,"station_id":"","pricing_plan_id":"cebpf4jnsgd1na2vs0mg"},{"bike_id":"15955338-f6b7-49cc-8cfe-9f12d8ba4016","system_id":"levelo_inurba_marseille","lat":43.30885,"lon":5.39627,"is_reserved":false,"is_disabled":false,"rental_uris":{"android":"levelo://app?vid=15955338-f6b7-49cc-8cfe-9f12d8ba4016","ios":"levelo://app?vid=15955338-f6b7-49cc-8cfe-9f12d8ba4016"},"vehicle_type_id":"4","last_reported":1732208898,"current_range_meters":18800,"station_id":"ce4bh012rcd13ifvqcv0","pricing_plan_id":"cebpf4jnsgd1na2vs0mg"},{"bike_id":"a39f5279-e0f5-42f1-babe-ff5c1eaf8a64","system_id":"levelo_inurba_marseille","lat":43.29287,"lon":5.40116,"is_reserved":false,"is_disabled":false,"rental_uris":{"android":"levelo://app?vid=a39f5279-e0f5-42f1-babe-ff5c1eaf8a64","ios":"levelo://app?vid=a39f5279-e0f5-42f1-babe-ff5c1eaf8a64"},"vehicle_type_id":"4","last_reported":1732208898,"current_range_meters":38800,"station_id":"ce4bh312rcd13ifvqdk0","pricing_plan_id":"cebpf4jnsgd1na2vs0mg"},{"bike_id":"612e2fb5-5bdd-4493-9d90-eaa49396d072","system_id":"levelo_inurba_marseille","lat":43.3053,"lon":5.3654,"is_reserved":false,"is_disabled":false,"rental_uris":{"android":"levelo://app?vid=612e2fb5-5bdd-4493-9d90-eaa49396d072","ios":"levelo://app?vid=612e2fb5-5bdd-4493-9d90-eaa49396d072"},"vehicle_type_id":"4","last_reported":1732208898,"current_range_meters":39200,"station_id":"ce4bgs12rcd13ifvqcag","pricing_plan_id":"cebpf4jnsgd1na2vs0mg"},{"bike_id":"24618c6c-9f3e-4480-ac3f-3dfa9b93dc99","system_id":"levelo_inurba_marseille","lat":43.27949,"lon":5.41048,"is_reserved":false,"is_disabled":false,"rental_uris":{"android":"levelo://app?vid=24618c6c-9f3e-4480-ac3f-3dfa9b93dc99","ios":"levelo://app?vid=24618c6c-9f3e-4480-ac3f-3dfa9b93dc99"},"vehicle_type_id":"4","last_reported":1732208898,"current_range_meters":38800,"station_id":"ce4bhnp2rcd13ifvqh0g","pricing_plan_id":"cebpf4jnsgd1na2vs0mg"},{"bike_id":"a9b905e2-a230-41a4-9fb0-d4caf4b80d0f","system_id":"levelo_inurba_marseille","lat":43.29863,"lon":5.39733,"is_reserved":false,"is_disabled":false,"rental_uris":{"android":"levelo://app?vid=a9b905e2-a230-41a4-9fb0-d4caf4b80d0f","ios":"levelo://app?vid=a9b905e2-a230-41a4-9fb0-d4caf4b80d0f"},"vehicle_type_id":"4","last_reported":1732208898,"current_range_meters":38800,"station_id":"ce4bh0h2rcd13ifvqd50","pricing_plan_id":"cebpf4jnsgd1na2vs0mg"},{"bike_id":"5c2287b0-f2a9-4351-84ca-e43db36b7159","system_id":"levelo_inurba_marseille","lat":43.2957,"lon":5.39974,"is_reserved":false,"is_disabled":false,"rental_uris":{"android":"levelo://app?vid=5c2287b0-f2a9-4351-84ca-e43db36b7159","ios":"levelo://app?vid=5c2287b0-f2a9-4351-84ca-e43db36b7159"},"vehicle_type_id":"4","last_reported":1732208898,"current_range_meters":38800,"station_id":"ce4bh312rcd13ifvqdj0","pricing_plan_id":"cebpf4jnsgd1na2vs0mg"},{"bike_id":"6f3a2c32-febe-4d20-b478-1904fbbc827c","system_id":"levelo_inurba_marseille","lat":43.30617,"lon":5.37232,"is_reserved":false,"is_disabled":false,"rental_uris":{"android":"levelo://app?vid=6f3a2c32-febe-4d20-b478-1904fbbc827c","ios":"levelo://app?vid=6f3a2c32-febe-4d20-b478-1904fbbc827c"},"vehicle_type_id":"4","last_reported":1732208898,"current_range_meters":14000,"station_id":"ce4bgqh2rcd13ifvqc4g","pricing_plan_id":"cebpf4jnsgd1na2vs0mg"},{"bike_id":"547f0bff-d26b-4849-b94d-77cf4a5a869f","system_id":"levelo_inurba_marseille","lat":43.23961,"lon":5.36629,"is_reserved":false,"is_disabled":false,"rental_uris":{"android":"levelo://app?vid=547f0bff-d26b-4849-b94d-77cf4a5a869f","ios":"levelo://app?vid=547f0bff-d26b-4849-b94d-77cf4a5a869f"},"vehicle_type_id":"4","last_reported":1732208898,"current_range_meters":38400,"station_id":"ce4bhi12rcd13ifvqfp0","pricing_plan_id":"cebpf4jnsgd1na2vs0mg"},{"bike_id":"f739db3d-e57b-4e04-a4d0-90a64085c96d","system_id":"levelo_inurba_marseille","lat":43.23965,"lon":5.36628,"is_reserved":false,"is_disabled":false,"rental_uris":{"android":"levelo://app?vid=f739db3d-e57b-4e04-a4d0-90a64085c96d","ios":"levelo://app?vid=f739db3d-e57b-4e04-a4d0-90a64085c96d"},"vehicle_type_id":"4","last_reported":1732208898,"current_range_meters":39200,"station_id":"ce4bhi12rcd13ifvqfp0","pricing_plan_id":"cebpf4jnsgd1na2vs0mg"},{"bike_id":"8b3d80c9-e138-42ae-bec9-c0e291e1c3b8","system_id":"levelo_inurba_marseille","lat":43.30325,"lon":5.40431,"is_reserved":false,"is_disabled":true,"rental_uris":{"android":"levelo://app?vid=8b3d80c9-e138-42ae-bec9-c0e291e1c3b8","ios":"levelo://app?vid=8b3d80c9-e138-42ae-bec9-c0e291e1c3b8"},"vehicle_type_id":"4","last_reported":1732208898,"current_range_meters":400,"station_id":"ce4bh012rcd13ifvqd10","pricing_plan_id":"cebpf4jnsgd1na2vs0mg"},{"bike_id":"8fff82c0-94c8-4109-9d0c-0de6261ecbde","system_id":"levelo_inurba_marseille","lat":43.26557,"lon":5.37286,"is_reserved":false,"is_disabled":false,"rental_uris":{"android":"levelo://app?vid=8fff82c0-94c8-4109-9d0c-0de6261ecbde","ios":"levelo://app?vid=8fff82c0-94c8-4109-9d0c-0de6261ecbde"},"vehicle_type_id":"4","last_reported":1732208898,"current_range_meters":38400,"station_id":"ce4bhg12rcd13ifvqf70","pricing_plan_id":"cebpf4jnsgd1na2vs0mg"},{"bike_id":"878553d6-d36a-489c-8a2e-25075db79977","system_id":"levelo_inurba_marseille","lat":43.29918,"lon":5.37476,"is_reserved":false,"is_disabled":false,"rental_uris":{"android":"levelo://app?vid=878553d6-d36a-489c-8a2e-25075db79977","ios":"levelo://app?vid=878553d6-d36a-489c-8a2e-25075db79977"},"vehicle_type_id":"4","last_reported":1732208898,"current_range_meters":36000,"station_id":"ce4bgjh2rcd13ifvqbg0","pricing_plan_id":"cebpf4jnsgd1na2vs0mg"},{"bike_id":"1a51f640-6b48-41c3-8e7d-c6952041deac","system_id":"levelo_inurba_marseille","lat":43.29802,"lon":5.40408,"is_reserved":false,"is_disabled":false,"rental_uris":{"android":"levelo://app?vid=1a51f640-6b48-41c3-8e7d-c6952041deac","ios":"levelo://app?vid=1a51f640-6b48-41c3-8e7d-c6952041deac"},"vehicle_type_id":"4","last_reported":1732208898,"current_range_meters":39200,"station_id":"ce4bh112rcd13ifvqd90","pricing_plan_id":"cebpf4jnsgd1na2vs0mg"},{"bike_id":"e357a451-4632-428c-b40c-c5324a95fc38","system_id":"levelo_inurba_marseille","lat":43.30155,"lon":5.3985,"is_reserved":false,"is_disabled":false,"rental_uris":{"android":"levelo://app?vid=e357a451-4632-428c-b40c-c5324a95fc38","ios":"levelo://app?vid=e357a451-4632-428c-b40c-c5324a95fc38"},"vehicle_type_id":"4","last_reported":1732208898,"current_range_meters":25600,"station_id":"ce4bh0h2rcd13ifvqd40","pricing_plan_id":"cebpf4jnsgd1na2vs0mg"},{"bike_id":"583f481d-a0aa-4719-ac40-4e63a8b7d720","system_id":"levelo_inurba_marseille","lat":43.29876,"lon":5.39733,"is_reserved":false,"is_disabled":false,"rental_uris":{"android":"levelo://app?vid=583f481d-a0aa-4719-ac40-4e63a8b7d720","ios":"levelo://app?vid=583f481d-a0aa-4719-ac40-4e63a8b7d720"},"vehicle_type_id":"4","last_reported":1732208898,"current_range_meters":24000,"station_id":"ce4bh0h2rcd13ifvqd50","pricing_plan_id":"cebpf4jnsgd1na2vs0mg"},{"bike_id":"43c8e9b3-9b4a-4510-a969-75b32db670f0","system_id":"levelo_inurba_marseille","lat":43.267872,"lon":5.394172,"is_reserved":false,"is_disabled":true,"rental_uris":{"android":"levelo://app?vid=43c8e9b3-9b4a-4510-a969-75b32db670f0","ios":"levelo://app?vid=43c8e9b3-9b4a-4510-a969-75b32db670f0"},"vehicle_type_id":"4","last_reported":1732208898,"current_range_meters":0,"station_id":"ce4bhh12rcd13ifvqfg0","pricing_plan_id":"cebpf4jnsgd1na2vs0mg"},{"bike_id":"1904e4d6-e1e0-456f-9800-8b0e0e7107b4","system_id":"levelo_inurba_marseille","lat":43.23152,"lon":5.43708,"is_reserved":false,"is_disabled":false,"rental_uris":{"android":"levelo://app?vid=1904e4d6-e1e0-456f-9800-8b0e0e7107b4","ios":"levelo://app?vid=1904e4d6-e1e0-456f-9800-8b0e0e7107b4"},"vehicle_type_id":"4","last_reported":1732208898,"current_range_meters":39200,"station_id":"ce4bhmp2rcd13ifvqgog","pricing_plan_id":"cebpf4jnsgd1na2vs0mg"},{"bike_id":"d74c1aca-418f-4341-abbf-67a3867992d6","system_id":"levelo_inurba_marseille","lat":43.24442,"lon":5.3953,"is_reserved":false,"is_disabled":false,"rental_uris":{"android":"levelo://app?vid=d74c1aca-418f-4341-abbf-67a3867992d6","ios":"levelo://app?vid=d74c1aca-418f-4341-abbf-67a3867992d6"},"vehicle_type_id":"4","last_reported":1732208898,"current_range_meters":32400,"station_id":"","pricing_plan_id":"cebpf4jnsgd1na2vs0mg"},{"bike_id":"cb1b1694-dc19-49c5-96b6-c2925c047f87","system_id":"levelo_inurba_marseille","lat":43.279,"lon":5.3801,"is_reserved":false,"is_disabled":false,"rental_uris":{"android":"levelo://app?vid=cb1b1694-dc19-49c5-96b6-c2925c047f87","ios":"levelo://app?vid=cb1b1694-dc19-49c5-96b6-c2925c047f87"},"vehicle_type_id":"4","last_reported":1732208898,"current_range_meters":23200,"station_id":"ce4bhf92rcd13ifvqf50","pricing_plan_id":"cebpf4jnsgd1na2vs0mg"},{"bike_id":"1eff5ce5-2d56-4465-a12c-60db9ec2175a","system_id":"levelo_inurba_marseille","lat":43.22927,"lon":5.35378,"is_reserved":false,"is_disabled":false,"rental_uris":{"android":"levelo://app?vid=1eff5ce5-2d56-4465-a12c-60db9ec2175a","ios":"levelo://app?vid=1eff5ce5-2d56-4465-a12c-60db9ec2175a"},"vehicle_type_id":"4","last_reported":1732208898,"current_range_meters":9200,"station_id":"cpo3532slgdg3j2ikp40","pricing_plan_id":"cebpf4jnsgd1na2vs0mg"},{"bike_id":"ce6d46e5-4223-4bce-a0db-85f63ca84039","system_id":"levelo_inurba_marseille","lat":43.30176,"lon":5.40055,"is_reserved":false,"is_disabled":true,"rental_uris":{"android":"levelo://app?vid=ce6d46e5-4223-4bce-a0db-85f63ca84039","ios":"levelo://app?vid=ce6d46e5-4223-4bce-a0db-85f63ca84039"},"vehicle_type_id":"4","last_reported":1732208898,"current_range_meters":1600,"station_id":"","pricing_plan_id":"cebpf4jnsgd1na2vs0mg"},{"bike_id":"dc815649-e3e3-48aa-b0fd-022cdb8ac58a","system_id":"levelo_inurba_marseille","lat":43.32364,"lon":5.38889,"is_reserved":false,"is_disabled":false,"rental_uris":{"android":"levelo://app?vid=dc815649-e3e3-48aa-b0fd-022cdb8ac58a","ios":"levelo://app?vid=dc815649-e3e3-48aa-b0fd-022cdb8ac58a"},"vehicle_type_id":"4","last_reported":1732208898,"current_range_meters":7200,"station_id":"ce4bhqp2rcd13ifvqhog","pricing_plan_id":"cebpf4jnsgd1na2vs0mg"},{"bike_id":"47310b0f-0522-4a10-9e11-cb19d879d8b0","system_id":"levelo_inurba_marseille","lat":43.29736,"lon":5.37683,"is_reserved":false,"is_disabled":false,"rental_uris":{"android":"levelo://app?vid=47310b0f-0522-4a10-9e11-cb19d879d8b0","ios":"levelo://app?vid=47310b0f-0522-4a10-9e11-cb19d879d8b0"},"vehicle_type_id":"4","last_reported":1732208898,"current_range_meters":38800,"station_id":"ce4bgkh2rcd13ifvqbl0","pricing_plan_id":"cebpf4jnsgd1na2vs0mg"},{"bike_id":"11ba9c3b-0e9b-4b64-92f5-f4e47b60f708","system_id":"levelo_inurba_marseille","lat":43.29546,"lon":5.39388,"is_reserved":false,"is_disabled":false,"rental_uris":{"android":"levelo://app?vid=11ba9c3b-0e9b-4b64-92f5-f4e47b60f708","ios":"levelo://app?vid=11ba9c3b-0e9b-4b64-92f5-f4e47b60f708"},"vehicle_type_id":"4","last_reported":1732208898,"current_range_meters":32800,"station_id":"ce4bh292rcd13ifvqdf0","pricing_plan_id":"cebpf4jnsgd1na2vs0mg"},{"bike_id":"027f982f-23c2-456c-a1fe-5f68048a04cc","system_id":"levelo_inurba_marseille","lat":43.28418,"lon":5.34982,"is_reserved":false,"is_disabled":false,"rental_uris":{"android":"levelo://app?vid=027f982f-23c2-456c-a1fe-5f68048a04cc","ios":"levelo://app?vid=027f982f-23c2-456c-a1fe-5f68048a04cc"},"vehicle_type_id":"4","last_reported":1732208898,"current_range_meters":26000,"station_id":"ce4bhbh2rcd13ifvqepg","pricing_plan_id":"cebpf4jnsgd1na2vs0mg"},{"bike_id":"070a4e3a-ff3e-4b5d-91f1-497d8af78fbb","system_id":"levelo_inurba_marseille","lat":43.26804,"lon":5.4027,"is_reserved":false,"is_disabled":false,"rental_uris":{"android":"levelo://app?vid=070a4e3a-ff3e-4b5d-91f1-497d8af78fbb","ios":"levelo://app?vid=070a4e3a-ff3e-4b5d-91f1-497d8af78fbb"},"vehicle_type_id":"4","last_reported":1732208898,"current_range_meters":30000,"station_id":"ce501612rcd8frsf0b60","pricing_plan_id":"cebpf4jnsgd1na2vs0mg"},{"bike_id":"6df34bba-81e7-4094-aeb7-8d31c4d64160","system_id":"levelo_inurba_marseille","lat":43.31067,"lon":5.38357,"is_reserved":false,"is_disabled":false,"rental_uris":{"android":"levelo://app?vid=6df34bba-81e7-4094-aeb7-8d31c4d64160","ios":"levelo://app?vid=6df34bba-81e7-4094-aeb7-8d31c4d64160"},"vehicle_type_id":"4","last_reported":1732208898,"current_range_meters":20000,"station_id":"ce4bgv92rcd13ifvqcr0","pricing_plan_id":"cebpf4jnsgd1na2vs0mg"},{"bike_id":"aea98db4-a137-4735-a7ca-83efcef08276","system_id":"levelo_inurba_marseille","lat":43.27056,"lon":5.4026,"is_reserved":false,"is_disabled":false,"rental_uris":{"android":"levelo://app?vid=aea98db4-a137-4735-a7ca-83efcef08276","ios":"levelo://app?vid=aea98db4-a137-4735-a7ca-83efcef08276"},"vehicle_type_id":"4","last_reported":1732208898,"current_range_meters":8400,"station_id":"ce4bhk92rcd13ifvqgc0","pricing_plan_id":"cebpf4jnsgd1na2vs0mg"},{"bike_id":"8e7ff576-c2f6-4b16-a53f-6408d6f48b1b","system_id":"levelo_inurba_marseille","lat":43.27858,"lon":5.39208,"is_reserved":false,"is_disabled":false,"rental_uris":{"android":"levelo://app?vid=8e7ff576-c2f6-4b16-a53f-6408d6f48b1b","ios":"levelo://app?vid=8e7ff576-c2f6-4b16-a53f-6408d6f48b1b"},"vehicle_type_id":"4","last_reported":1732208898,"current_range_meters":38400,"station_id":"ce4bhjp2rcd13ifvqga0","pricing_plan_id":"cebpf4jnsgd1na2vs0mg"},{"bike_id":"87bdbe60-5511-4418-a4e4-682b5da37bfd","system_id":"levelo_inurba_marseille","lat":43.25868,"lon":5.39902,"is_reserved":false,"is_disabled":false,"rental_uris":{"android":"levelo://app?vid=87bdbe60-5511-4418-a4e4-682b5da37bfd","ios":"levelo://app?vid=87bdbe60-5511-4418-a4e4-682b5da37bfd"},"vehicle_type_id":"4","last_reported":1732208898,"current_range_meters":39200,"station_id":"ce4bhl92rcd13ifvqghg","pricing_plan_id":"cebpf4jnsgd1na2vs0mg"},{"bike_id":"b95123c6-739e-43b2-baa5-1174c841354d","system_id":"levelo_inurba_marseille","lat":43.29878,"lon":5.39862,"is_reserved":false,"is_disabled":false,"rental_uris":{"android":"levelo://app?vid=b95123c6-739e-43b2-baa5-1174c841354d","ios":"levelo://app?vid=b95123c6-739e-43b2-baa5-1174c841354d"},"vehicle_type_id":"4","last_reported":1732208898,"current_range_meters":14800,"station_id":"ce4bh312rcd13ifvqdj0","pricing_plan_id":"cebpf4jnsgd1na2vs0mg"},{"bike_id":"3fbe99a9-12ca-4576-a9f7-40446b8230d0","system_id":"levelo_inurba_marseille","lat":43.23155,"lon":5.43706,"is_reserved":false,"is_disabled":false,"rental_uris":{"android":"levelo://app?vid=3fbe99a9-12ca-4576-a9f7-40446b8230d0","ios":"levelo://app?vid=3fbe99a9-12ca-4576-a9f7-40446b8230d0"},"vehicle_type_id":"4","last_reported":1732208898,"current_range_meters":28800,"station_id":"ce4bhmp2rcd13ifvqgog","pricing_plan_id":"cebpf4jnsgd1na2vs0mg"},{"bike_id":"fbd049e6-bce8-4836-bdd1-46e5c6fca8da","system_id":"levelo_inurba_marseille","lat":43.24177,"lon":5.39736,"is_reserved":false,"is_disabled":false,"rental_uris":{"android":"levelo://app?vid=fbd049e6-bce8-4836-bdd1-46e5c6fca8da","ios":"levelo://app?vid=fbd049e6-bce8-4836-bdd1-46e5c6fca8da"},"vehicle_type_id":"4","last_reported":1732208898,"current_range_meters":24000,"station_id":"ce4bhn12rcd13ifvqgpg","pricing_plan_id":"cebpf4jnsgd1na2vs0mg"},{"bike_id":"dcaa2e95-bd3e-4975-9de9-54f6a44f0107","system_id":"levelo_inurba_marseille","lat":43.28456,"lon":5.35893,"is_reserved":false,"is_disabled":false,"rental_uris":{"android":"levelo://app?vid=dcaa2e95-bd3e-4975-9de9-54f6a44f0107","ios":"levelo://app?vid=dcaa2e95-bd3e-4975-9de9-54f6a44f0107"},"vehicle_type_id":"4","last_reported":1732208898,"current_range_meters":10800,"station_id":"ce4bhah2rcd13ifvqei0","pricing_plan_id":"cebpf4jnsgd1na2vs0mg"},{"bike_id":"88bb727e-33e7-42cb-93ec-e9f7d655be03","system_id":"levelo_inurba_marseille","lat":43.315385,"lon":5.380308,"is_reserved":false,"is_disabled":false,"rental_uris":{"android":"levelo://app?vid=88bb727e-33e7-42cb-93ec-e9f7d655be03","ios":"levelo://app?vid=88bb727e-33e7-42cb-93ec-e9f7d655be03"},"vehicle_type_id":"4","last_reported":1732208898,"current_range_meters":38800,"station_id":"ce4bhsp2rcd13ifvqi50","pricing_plan_id":"cebpf4jnsgd1na2vs0mg"},{"bike_id":"42d6fa67-3d3d-427c-a63a-15e267a4a6ee","system_id":"levelo_inurba_marseille","lat":43.27951,"lon":5.41053,"is_reserved":false,"is_disabled":true,"rental_uris":{"android":"levelo://app?vid=42d6fa67-3d3d-427c-a63a-15e267a4a6ee","ios":"levelo://app?vid=42d6fa67-3d3d-427c-a63a-15e267a4a6ee"},"vehicle_type_id":"4","last_reported":1732208898,"current_range_meters":22800,"station_id":"ce4bhnp2rcd13ifvqh0g","pricing_plan_id":"cebpf4jnsgd1na2vs0mg"},{"bike_id":"b3351dfb-7755-41da-a565-daf692d3ee26","system_id":"levelo_inurba_marseille","lat":43.30134,"lon":5.39866,"is_reserved":false,"is_disabled":false,"rental_uris":{"android":"levelo://app?vid=b3351dfb-7755-41da-a565-daf692d3ee26","ios":"levelo://app?vid=b3351dfb-7755-41da-a565-daf692d3ee26"},"vehicle_type_id":"4","last_reported":1732208898,"current_range_meters":38400,"station_id":"ce4bh0h2rcd13ifvqd40","pricing_plan_id":"cebpf4jnsgd1na2vs0mg"},{"bike_id":"c534a875-bdfb-439d-8fdd-faa757628176","system_id":"levelo_inurba_marseille","lat":43.23967,"lon":5.36625,"is_reserved":false,"is_disabled":false,"rental_uris":{"android":"levelo://app?vid=c534a875-bdfb-439d-8fdd-faa757628176","ios":"levelo://app?vid=c534a875-bdfb-439d-8fdd-faa757628176"},"vehicle_type_id":"4","last_reported":1732208898,"current_range_meters":40000,"station_id":"ce4bhi12rcd13ifvqfp0","pricing_plan_id":"cebpf4jnsgd1na2vs0mg"},{"bike_id":"65216bdb-c743-4bf5-8b7b-2f04816d1afd","system_id":"levelo_inurba_marseille","lat":43.29625,"lon":5.37153,"is_reserved":false,"is_disabled":false,"rental_uris":{"android":"levelo://app?vid=65216bdb-c743-4bf5-8b7b-2f04816d1afd","ios":"levelo://app?vid=65216bdb-c743-4bf5-8b7b-2f04816d1afd"},"vehicle_type_id":"4","last_reported":1732208898,"current_range_meters":39200,"station_id":"ce4bgnh2rcd13ifvqc0g","pricing_plan_id":"cebpf4jnsgd1na2vs0mg"},{"bike_id":"1961bc51-373a-428c-96e7-5732c1bba3d1","system_id":"levelo_inurba_marseille","lat":43.32283,"lon":5.3828,"is_reserved":false,"is_disabled":false,"rental_uris":{"android":"levelo://app?vid=1961bc51-373a-428c-96e7-5732c1bba3d1","ios":"levelo://app?vid=1961bc51-373a-428c-96e7-5732c1bba3d1"},"vehicle_type_id":"4","last_reported":1732208898,"current_range_meters":37600,"station_id":"ce4bhr12rcd13ifvqhqg","pricing_plan_id":"cebpf4jnsgd1na2vs0mg"},{"bike_id":"0f0c23fc-d9fa-48e4-a043-709e901321ef","system_id":"levelo_inurba_marseille","lat":43.29073,"lon":5.3716,"is_reserved":false,"is_disabled":false,"rental_uris":{"android":"levelo://app?vid=0f0c23fc-d9fa-48e4-a043-709e901321ef","ios":"levelo://app?vid=0f0c23fc-d9fa-48e4-a043-709e901321ef"},"vehicle_type_id":"4","last_reported":1732208898,"current_range_meters":16000,"station_id":"ce4bh5p2rcd13ifvqe4g","pricing_plan_id":"cebpf4jnsgd1na2vs0mg"},{"bike_id":"b40ede3d-3df1-4e75-aa7c-f784505f0ad9","system_id":"levelo_inurba_marseille","lat":43.31995,"lon":5.3815,"is_reserved":false,"is_disabled":false,"rental_uris":{"android":"levelo://app?vid=b40ede3d-3df1-4e75-aa7c-f784505f0ad9","ios":"levelo://app?vid=b40ede3d-3df1-4e75-aa7c-f784505f0ad9"},"vehicle_type_id":"4","last_reported":1732208898,"current_range_meters":39200,"station_id":"ce4bhr12rcd13ifvqhpg","pricing_plan_id":"cebpf4jnsgd1na2vs0mg"},{"bike_id":"fe181e37-0392-47e3-85eb-ab2c730cec31","system_id":"levelo_inurba_marseille","lat":43.26491,"lon":5.39542,"is_reserved":false,"is_disabled":false,"rental_uris":{"android":"levelo://app?vid=fe181e37-0392-47e3-85eb-ab2c730cec31","ios":"levelo://app?vid=fe181e37-0392-47e3-85eb-ab2c730cec31"},"vehicle_type_id":"4","last_reported":1732208898,"current_range_meters":5600,"station_id":"ce4bhi12rcd13ifvqfq0","pricing_plan_id":"cebpf4jnsgd1na2vs0mg"},{"bike_id":"01c81827-d820-4edc-9a26-38eac8bf434e","system_id":"levelo_inurba_marseille","lat":43.30119,"lon":5.38782,"is_reserved":false,"is_disabled":false,"rental_uris":{"android":"levelo://app?vid=01c81827-d820-4edc-9a26-38eac8bf434e","ios":"levelo://app?vid=01c81827-d820-4edc-9a26-38eac8bf434e"},"vehicle_type_id":"4","last_reported":1732208898,"current_range_meters":24800,"station_id":"ce4bghh2rcd13ifvqb60","pricing_plan_id":"cebpf4jnsgd1na2vs0mg"},{"bike_id":"8655756e-f448-4de5-9e0e-9a796ee4da55","system_id":"levelo_inurba_marseille","lat":43.29636,"lon":5.40597,"is_reserved":false,"is_disabled":true,"rental_uris":{"android":"levelo://app?vid=8655756e-f448-4de5-9e0e-9a796ee4da55","ios":"levelo://app?vid=8655756e-f448-4de5-9e0e-9a796ee4da55"},"vehicle_type_id":"4","last_reported":1732208898,"current_range_meters":1200,"station_id":"ce4bh0h2rcd13ifvqd60","pricing_plan_id":"cebpf4jnsgd1na2vs0mg"},{"bike_id":"2ce520c8-e688-4d24-ab87-ae174ad786de","system_id":"levelo_inurba_marseille","lat":43.29162,"lon":5.37162,"is_reserved":false,"is_disabled":false,"rental_uris":{"android":"levelo://app?vid=2ce520c8-e688-4d24-ab87-ae174ad786de","ios":"levelo://app?vid=2ce520c8-e688-4d24-ab87-ae174ad786de"},"vehicle_type_id":"4","last_reported":1732208898,"current_range_meters":24400,"station_id":"ce4bha92rcd13ifvqeh0","pricing_plan_id":"cebpf4jnsgd1na2vs0mg"},{"bike_id":"5bf07f8b-1d41-46ea-b8d1-ce6f37c31580","system_id":"levelo_inurba_marseille","lat":43.29065,"lon":5.35915,"is_reserved":false,"is_disabled":false,"rental_uris":{"android":"levelo://app?vid=5bf07f8b-1d41-46ea-b8d1-ce6f37c31580","ios":"levelo://app?vid=5bf07f8b-1d41-46ea-b8d1-ce6f37c31580"},"vehicle_type_id":"4","last_reported":1732208898,"current_range_meters":28400,"station_id":"ce4bha92rcd13ifvqeg0","pricing_plan_id":"cebpf4jnsgd1na2vs0mg"},{"bike_id":"552ae1f9-34eb-4d70-a19b-3616d3661778","system_id":"levelo_inurba_marseille","lat":43.33723,"lon":5.39178,"is_reserved":false,"is_disabled":false,"rental_uris":{"android":"levelo://app?vid=552ae1f9-34eb-4d70-a19b-3616d3661778","ios":"levelo://app?vid=552ae1f9-34eb-4d70-a19b-3616d3661778"},"vehicle_type_id":"4","last_reported":1732208898,"current_range_meters":28800,"station_id":"ce4bhr92rcd13ifvqhsg","pricing_plan_id":"cebpf4jnsgd1na2vs0mg"},{"bike_id":"1bf91585-1655-41ca-aa3f-ff0ba6e8cc52","system_id":"levelo_inurba_marseille","lat":43.33027,"lon":5.3904,"is_reserved":false,"is_disabled":false,"rental_uris":{"android":"levelo://app?vid=1bf91585-1655-41ca-aa3f-ff0ba6e8cc52","ios":"levelo://app?vid=1bf91585-1655-41ca-aa3f-ff0ba6e8cc52"},"vehicle_type_id":"4","last_reported":1732208898,"current_range_meters":39200,"station_id":"ce4bhr92rcd13ifvqhrg","pricing_plan_id":"cebpf4jnsgd1na2vs0mg"},{"bike_id":"b0a869bf-464d-44a4-ab69-97ae9a359eab","system_id":"levelo_inurba_marseille","lat":43.27917,"lon":5.39583,"is_reserved":false,"is_disabled":false,"rental_uris":{"android":"levelo://app?vid=b0a869bf-464d-44a4-ab69-97ae9a359eab","ios":"levelo://app?vid=b0a869bf-464d-44a4-ab69-97ae9a359eab"},"vehicle_type_id":"4","last_reported":1732208898,"current_range_meters":20000,"station_id":"ce4bhf92rcd13ifvqf40","pricing_plan_id":"cebpf4jnsgd1na2vs0mg"},{"bike_id":"6178f234-9efb-45f7-9365-bc8bed638c43","system_id":"levelo_inurba_marseille","lat":43.23185,"lon":5.39985,"is_reserved":false,"is_disabled":false,"rental_uris":{"android":"levelo://app?vid=6178f234-9efb-45f7-9365-bc8bed638c43","ios":"levelo://app?vid=6178f234-9efb-45f7-9365-bc8bed638c43"},"vehicle_type_id":"4","last_reported":1732208898,"current_range_meters":9600,"station_id":"ce4bhn12rcd13ifvqgqg","pricing_plan_id":"cebpf4jnsgd1na2vs0mg"},{"bike_id":"7a942108-16ea-4f98-9d80-82c238759071","system_id":"levelo_inurba_marseille","lat":43.29563,"lon":5.39962,"is_reserved":false,"is_disabled":true,"rental_uris":{"android":"levelo://app?vid=7a942108-16ea-4f98-9d80-82c238759071","ios":"levelo://app?vid=7a942108-16ea-4f98-9d80-82c238759071"},"vehicle_type_id":"4","last_reported":1732208898,"current_range_meters":32800,"station_id":"ce4bh312rcd13ifvqdj0","pricing_plan_id":"cebpf4jnsgd1na2vs0mg"},{"bike_id":"028e5427-36e2-49e1-b3db-260058fffb58","system_id":"levelo_inurba_marseille","lat":43.25572,"lon":5.38237,"is_reserved":false,"is_disabled":false,"rental_uris":{"android":"levelo://app?vid=028e5427-36e2-49e1-b3db-260058fffb58","ios":"levelo://app?vid=028e5427-36e2-49e1-b3db-260058fffb58"},"vehicle_type_id":"4","last_reported":1732208898,"current_range_meters":22400,"station_id":"ce4bhih2rcd13ifvqfs0","pricing_plan_id":"cebpf4jnsgd1na2vs0mg"},{"bike_id":"1f6dbec1-7804-4dac-a6ee-dc592c6d11bc","system_id":"levelo_inurba_marseille","lat":43.29515,"lon":5.39044,"is_reserved":false,"is_disabled":false,"rental_uris":{"android":"levelo://app?vid=1f6dbec1-7804-4dac-a6ee-dc592c6d11bc","ios":"levelo://app?vid=1f6dbec1-7804-4dac-a6ee-dc592c6d11bc"},"vehicle_type_id":"4","last_reported":1732208898,"current_range_meters":26800,"station_id":"ce4bh3p2rcd13ifvqdp0","pricing_plan_id":"cebpf4jnsgd1na2vs0mg"},{"bike_id":"1453fddf-c64f-4c02-ace1-55caffeaf55e","system_id":"levelo_inurba_marseille","lat":43.32289,"lon":5.38261,"is_reserved":false,"is_disabled":false,"rental_uris":{"android":"levelo://app?vid=1453fddf-c64f-4c02-ace1-55caffeaf55e","ios":"levelo://app?vid=1453fddf-c64f-4c02-ace1-55caffeaf55e"},"vehicle_type_id":"4","last_reported":1732208898,"current_range_meters":39200,"station_id":"ce4bhr12rcd13ifvqhqg","pricing_plan_id":"cebpf4jnsgd1na2vs0mg"},{"bike_id":"7e17a81f-3b24-49e1-a5fc-e88f9462d78d","system_id":"levelo_inurba_marseille","lat":43.28416,"lon":5.40937,"is_reserved":false,"is_disabled":false,"rental_uris":{"android":"levelo://app?vid=7e17a81f-3b24-49e1-a5fc-e88f9462d78d","ios":"levelo://app?vid=7e17a81f-3b24-49e1-a5fc-e88f9462d78d"},"vehicle_type_id":"4","last_reported":1732208898,"current_range_meters":8400,"station_id":"","pricing_plan_id":"cebpf4jnsgd1na2vs0mg"},{"bike_id":"0d5efe48-32bd-461f-be09-c1d5e2d6ef37","system_id":"levelo_inurba_marseille","lat":43.32364,"lon":5.38886,"is_reserved":false,"is_disabled":false,"rental_uris":{"android":"levelo://app?vid=0d5efe48-32bd-461f-be09-c1d5e2d6ef37","ios":"levelo://app?vid=0d5efe48-32bd-461f-be09-c1d5e2d6ef37"},"vehicle_type_id":"4","last_reported":1732208898,"current_range_meters":36800,"station_id":"ce4bhqp2rcd13ifvqhog","pricing_plan_id":"cebpf4jnsgd1na2vs0mg"},{"bike_id":"9cb25104-a344-44e1-b011-ee0babb96f44","system_id":"levelo_inurba_marseille","lat":43.25583,"lon":5.38227,"is_reserved":false,"is_disabled":false,"rental_uris":{"android":"levelo://app?vid=9cb25104-a344-44e1-b011-ee0babb96f44","ios":"levelo://app?vid=9cb25104-a344-44e1-b011-ee0babb96f44"},"vehicle_type_id":"4","last_reported":1732208898,"current_range_meters":36800,"station_id":"ce4bhih2rcd13ifvqfs0","pricing_plan_id":"cebpf4jnsgd1na2vs0mg"},{"bike_id":"a4ffdcba-b4cb-43c3-ba8d-cdd261d8340a","system_id":"levelo_inurba_marseille","lat":43.30551,"lon":5.36533,"is_reserved":false,"is_disabled":false,"rental_uris":{"android":"levelo://app?vid=a4ffdcba-b4cb-43c3-ba8d-cdd261d8340a","ios":"levelo://app?vid=a4ffdcba-b4cb-43c3-ba8d-cdd261d8340a"},"vehicle_type_id":"4","last_reported":1732208898,"current_range_meters":33200,"station_id":"ce4bgs12rcd13ifvqcag","pricing_plan_id":"cebpf4jnsgd1na2vs0mg"},{"bike_id":"8acd11e3-5758-4685-9033-b25e798de0b4","system_id":"levelo_inurba_marseille","lat":43.28664,"lon":5.36357,"is_reserved":false,"is_disabled":false,"rental_uris":{"android":"levelo://app?vid=8acd11e3-5758-4685-9033-b25e798de0b4","ios":"levelo://app?vid=8acd11e3-5758-4685-9033-b25e798de0b4"},"vehicle_type_id":"4","last_reported":1732208898,"current_range_meters":7200,"station_id":"ce4bhah2rcd13ifvqej0","pricing_plan_id":"cebpf4jnsgd1na2vs0mg"},{"bike_id":"731db0d1-3d02-4f4f-a6af-e90cc71acdfe","system_id":"levelo_inurba_marseille","lat":43.28574,"lon":5.39493,"is_reserved":false,"is_disabled":true,"rental_uris":{"android":"levelo://app?vid=731db0d1-3d02-4f4f-a6af-e90cc71acdfe","ios":"levelo://app?vid=731db0d1-3d02-4f4f-a6af-e90cc71acdfe"},"vehicle_type_id":"4","last_reported":1732208898,"current_range_meters":1600,"station_id":"ce4bh292rcd13ifvqdg0","pricing_plan_id":"cebpf4jnsgd1na2vs0mg"},{"bike_id":"3e5e44a0-047e-494d-afeb-778b9a81b0c5","system_id":"levelo_inurba_marseille","lat":43.29038,"lon":5.37566,"is_reserved":false,"is_disabled":false,"rental_uris":{"android":"levelo://app?vid=3e5e44a0-047e-494d-afeb-778b9a81b0c5","ios":"levelo://app?vid=3e5e44a0-047e-494d-afeb-778b9a81b0c5"},"vehicle_type_id":"4","last_reported":1732208898,"current_range_meters":32800,"station_id":"ce4bh692rcd13ifvqe90","pricing_plan_id":"cebpf4jnsgd1na2vs0mg"},{"bike_id":"1c75f894-11a3-45cc-ab71-71198ac87a3e","system_id":"levelo_inurba_marseille","lat":43.2997,"lon":5.37175,"is_reserved":false,"is_disabled":false,"rental_uris":{"android":"levelo://app?vid=1c75f894-11a3-45cc-ab71-71198ac87a3e","ios":"levelo://app?vid=1c75f894-11a3-45cc-ab71-71198ac87a3e"},"vehicle_type_id":"4","last_reported":1732208898,"current_range_meters":28800,"station_id":"ce4bgr92rcd13ifvqc7g","pricing_plan_id":"cebpf4jnsgd1na2vs0mg"},{"bike_id":"cf1434da-fc2d-45b7-98b9-59a81552e9d6","system_id":"levelo_inurba_marseille","lat":43.2981,"lon":5.40406,"is_reserved":false,"is_disabled":false,"rental_uris":{"android":"levelo://app?vid=cf1434da-fc2d-45b7-98b9-59a81552e9d6","ios":"levelo://app?vid=cf1434da-fc2d-45b7-98b9-59a81552e9d6"},"vehicle_type_id":"4","last_reported":1732208898,"current_range_meters":8800,"station_id":"ce4bh112rcd13ifvqd90","pricing_plan_id":"cebpf4jnsgd1na2vs0mg"},{"bike_id":"55198e2d-47af-4bfd-a3e8-990f64e8cb79","system_id":"levelo_inurba_marseille","lat":43.30886,"lon":5.39632,"is_reserved":false,"is_disabled":false,"rental_uris":{"android":"levelo://app?vid=55198e2d-47af-4bfd-a3e8-990f64e8cb79","ios":"levelo://app?vid=55198e2d-47af-4bfd-a3e8-990f64e8cb79"},"vehicle_type_id":"4","last_reported":1732208898,"current_range_meters":9200,"station_id":"ce4bh012rcd13ifvqcv0","pricing_plan_id":"cebpf4jnsgd1na2vs0mg"},{"bike_id":"0aeb214c-fde7-45c8-b020-03be17efcbb9","system_id":"levelo_inurba_marseille","lat":43.33019,"lon":5.39038,"is_reserved":false,"is_disabled":false,"rental_uris":{"android":"levelo://app?vid=0aeb214c-fde7-45c8-b020-03be17efcbb9","ios":"levelo://app?vid=0aeb214c-fde7-45c8-b020-03be17efcbb9"},"vehicle_type_id":"4","last_reported":1732208898,"current_range_meters":28400,"station_id":"ce4bhr92rcd13ifvqhrg","pricing_plan_id":"cebpf4jnsgd1na2vs0mg"},{"bike_id":"e8030754-cbc0-4ba4-8a41-51ca61582fc1","system_id":"levelo_inurba_marseille","lat":43.29869,"lon":5.39727,"is_reserved":false,"is_disabled":false,"rental_uris":{"android":"levelo://app?vid=e8030754-cbc0-4ba4-8a41-51ca61582fc1","ios":"levelo://app?vid=e8030754-cbc0-4ba4-8a41-51ca61582fc1"},"vehicle_type_id":"4","last_reported":1732208898,"current_range_meters":34800,"station_id":"ce4bh0h2rcd13ifvqd50","pricing_plan_id":"cebpf4jnsgd1na2vs0mg"},{"bike_id":"e4e3495c-9d93-4eff-a4ab-712e0ae01181","system_id":"levelo_inurba_marseille","lat":43.26556,"lon":5.39001,"is_reserved":false,"is_disabled":true,"rental_uris":{"android":"levelo://app?vid=e4e3495c-9d93-4eff-a4ab-712e0ae01181","ios":"levelo://app?vid=e4e3495c-9d93-4eff-a4ab-712e0ae01181"},"vehicle_type_id":"4","last_reported":1732208898,"current_range_meters":1200,"station_id":"ce4bhe12rcd13ifvqf30","pricing_plan_id":"cebpf4jnsgd1na2vs0mg"},{"bike_id":"796b733f-49d0-45e2-becf-a5ec2492cb3c","system_id":"levelo_inurba_marseille","lat":43.25108,"lon":5.40325,"is_reserved":false,"is_disabled":true,"rental_uris":{"android":"levelo://app?vid=796b733f-49d0-45e2-becf-a5ec2492cb3c","ios":"levelo://app?vid=796b733f-49d0-45e2-becf-a5ec2492cb3c"},"vehicle_type_id":"4","last_reported":1732208898,"current_range_meters":0,"station_id":"ce4bhlh2rcd13ifvqgig","pricing_plan_id":"cebpf4jnsgd1na2vs0mg"},{"bike_id":"24821142-da72-4040-aae3-7df5aa801952","system_id":"levelo_inurba_marseille","lat":43.29782,"lon":5.392824,"is_reserved":false,"is_disabled":false,"rental_uris":{"android":"levelo://app?vid=24821142-da72-4040-aae3-7df5aa801952","ios":"levelo://app?vid=24821142-da72-4040-aae3-7df5aa801952"},"vehicle_type_id":"4","last_reported":1732208898,"current_range_meters":11200,"station_id":"chh1huq6cuj3fo74tm60","pricing_plan_id":"cebpf4jnsgd1na2vs0mg"},{"bike_id":"399013f4-8bce-45c5-8a97-e57538d4e03a","system_id":"levelo_inurba_marseille","lat":43.29554,"lon":5.42291,"is_reserved":false,"is_disabled":false,"rental_uris":{"android":"levelo://app?vid=399013f4-8bce-45c5-8a97-e57538d4e03a","ios":"levelo://app?vid=399013f4-8bce-45c5-8a97-e57538d4e03a"},"vehicle_type_id":"4","last_reported":1732208898,"current_range_meters":22400,"station_id":"ce4bhph2rcd13ifvqhdg","pricing_plan_id":"cebpf4jnsgd1na2vs0mg"},{"bike_id":"2454f716-3ae5-42cf-af76-15289d5a7c39","system_id":"levelo_inurba_marseille","lat":43.29517,"lon":5.39037,"is_reserved":false,"is_disabled":false,"rental_uris":{"android":"levelo://app?vid=2454f716-3ae5-42cf-af76-15289d5a7c39","ios":"levelo://app?vid=2454f716-3ae5-42cf-af76-15289d5a7c39"},"vehicle_type_id":"4","last_reported":1732208898,"current_range_meters":34000,"station_id":"ce4bh3p2rcd13ifvqdp0","pricing_plan_id":"cebpf4jnsgd1na2vs0mg"},{"bike_id":"e5951ee3-4a5a-4ebb-b469-096c5188dfa3","system_id":"levelo_inurba_marseille","lat":43.23189,"lon":5.35562,"is_reserved":false,"is_disabled":false,"rental_uris":{"android":"levelo://app?vid=e5951ee3-4a5a-4ebb-b469-096c5188dfa3","ios":"levelo://app?vid=e5951ee3-4a5a-4ebb-b469-096c5188dfa3"},"vehicle_type_id":"4","last_reported":1732208898,"current_range_meters":33200,"station_id":"ce4bhu92rcd13ifvqi70","pricing_plan_id":"cebpf4jnsgd1na2vs0mg"},{"bike_id":"8d13985d-3bdf-49ab-9373-fe6216716dff","system_id":"levelo_inurba_marseille","lat":43.27458,"lon":5.39026,"is_reserved":false,"is_disabled":false,"rental_uris":{"android":"levelo://app?vid=8d13985d-3bdf-49ab-9373-fe6216716dff","ios":"levelo://app?vid=8d13985d-3bdf-49ab-9373-fe6216716dff"},"vehicle_type_id":"4","last_reported":1732208898,"current_range_meters":35200,"station_id":"","pricing_plan_id":"cebpf4jnsgd1na2vs0mg"},{"bike_id":"671de565-d842-4e02-b26d-dcd8355fee3a","system_id":"levelo_inurba_marseille","lat":43.22931,"lon":5.35376,"is_reserved":false,"is_disabled":false,"rental_uris":{"android":"levelo://app?vid=671de565-d842-4e02-b26d-dcd8355fee3a","ios":"levelo://app?vid=671de565-d842-4e02-b26d-dcd8355fee3a"},"vehicle_type_id":"4","last_reported":1732208898,"current_range_meters":29600,"station_id":"cpo3532slgdg3j2ikp40","pricing_plan_id":"cebpf4jnsgd1na2vs0mg"},{"bike_id":"58a208f4-fd83-44a4-bf12-9a135848ed36","system_id":"levelo_inurba_marseille","lat":43.3372,"lon":5.39179,"is_reserved":false,"is_disabled":false,"rental_uris":{"android":"levelo://app?vid=58a208f4-fd83-44a4-bf12-9a135848ed36","ios":"levelo://app?vid=58a208f4-fd83-44a4-bf12-9a135848ed36"},"vehicle_type_id":"4","last_reported":1732208898,"current_range_meters":39200,"station_id":"ce4bhr92rcd13ifvqhsg","pricing_plan_id":"cebpf4jnsgd1na2vs0mg"},{"bike_id":"8a0b3bb7-e6ee-41d8-9425-afec6db17651","system_id":"levelo_inurba_marseille","lat":43.29509,"lon":5.39406,"is_reserved":false,"is_disabled":false,"rental_uris":{"android":"levelo://app?vid=8a0b3bb7-e6ee-41d8-9425-afec6db17651","ios":"levelo://app?vid=8a0b3bb7-e6ee-41d8-9425-afec6db17651"},"vehicle_type_id":"4","last_reported":1732208898,"current_range_meters":39200,"station_id":"ce4bh292rcd13ifvqdf0","pricing_plan_id":"cebpf4jnsgd1na2vs0mg"},{"bike_id":"fe1f871c-a7a4-4864-8781-9bd2743909f5","system_id":"levelo_inurba_marseille","lat":43.24475,"lon":5.36912,"is_reserved":false,"is_disabled":true,"rental_uris":{"android":"levelo://app?vid=fe1f871c-a7a4-4864-8781-9bd2743909f5","ios":"levelo://app?vid=fe1f871c-a7a4-4864-8781-9bd2743909f5"},"vehicle_type_id":"4","last_reported":1732208898,"current_range_meters":29600,"station_id":"","pricing_plan_id":"cebpf4jnsgd1na2vs0mg"},{"bike_id":"6c948e9c-d5b3-4fe5-a918-1bd2f7c83b02","system_id":"levelo_inurba_marseille","lat":43.32105,"lon":5.3677,"is_reserved":false,"is_disabled":false,"rental_uris":{"android":"levelo://app?vid=6c948e9c-d5b3-4fe5-a918-1bd2f7c83b02","ios":"levelo://app?vid=6c948e9c-d5b3-4fe5-a918-1bd2f7c83b02"},"vehicle_type_id":"4","last_reported":1732208898,"current_range_meters":4400,"station_id":"ce4bhrh2rcd13ifvqhug","pricing_plan_id":"cebpf4jnsgd1na2vs0mg"},{"bike_id":"d81ab7a3-51c2-4185-a371-62197aa1f5e2","system_id":"levelo_inurba_marseille","lat":43.312906,"lon":5.386788,"is_reserved":false,"is_disabled":false,"rental_uris":{"android":"levelo://app?vid=d81ab7a3-51c2-4185-a371-62197aa1f5e2","ios":"levelo://app?vid=d81ab7a3-51c2-4185-a371-62197aa1f5e2"},"vehicle_type_id":"4","last_reported":1732208898,"current_range_meters":24800,"station_id":"","pricing_plan_id":"cebpf4jnsgd1na2vs0mg"},{"bike_id":"b8ee6a54-6c0b-4a59-9e0b-51a2cc6a9f13","system_id":"levelo_inurba_marseille","lat":43.31322,"lon":5.39692,"is_reserved":false,"is_disabled":false,"rental_uris":{"android":"levelo://app?vid=b8ee6a54-6c0b-4a59-9e0b-51a2cc6a9f13","ios":"levelo://app?vid=b8ee6a54-6c0b-4a59-9e0b-51a2cc6a9f13"},"vehicle_type_id":"4","last_reported":1732208898,"current_range_meters":22400,"station_id":"ce4bgvp2rcd13ifvqcu0","pricing_plan_id":"cebpf4jnsgd1na2vs0mg"},{"bike_id":"7073b1ab-16ae-4a15-9f35-08d42cf799ed","system_id":"levelo_inurba_marseille","lat":43.32373,"lon":5.38823,"is_reserved":false,"is_disabled":false,"rental_uris":{"android":"levelo://app?vid=7073b1ab-16ae-4a15-9f35-08d42cf799ed","ios":"levelo://app?vid=7073b1ab-16ae-4a15-9f35-08d42cf799ed"},"vehicle_type_id":"4","last_reported":1732208898,"current_range_meters":19200,"station_id":"ce4bhr12rcd13ifvqhqg","pricing_plan_id":"cebpf4jnsgd1na2vs0mg"},{"bike_id":"26ce6e22-11fe-4850-80ce-605c93f03f2d","system_id":"levelo_inurba_marseille","lat":43.3053,"lon":5.36544,"is_reserved":false,"is_disabled":false,"rental_uris":{"android":"levelo://app?vid=26ce6e22-11fe-4850-80ce-605c93f03f2d","ios":"levelo://app?vid=26ce6e22-11fe-4850-80ce-605c93f03f2d"},"vehicle_type_id":"4","last_reported":1732208898,"current_range_meters":34800,"station_id":"ce4bgs12rcd13ifvqcag","pricing_plan_id":"cebpf4jnsgd1na2vs0mg"},{"bike_id":"bd00794b-1129-4bdf-848e-d8127829ecbf","system_id":"levelo_inurba_marseille","lat":43.337444,"lon":5.374475,"is_reserved":false,"is_disabled":false,"rental_uris":{"android":"levelo://app?vid=bd00794b-1129-4bdf-848e-d8127829ecbf","ios":"levelo://app?vid=bd00794b-1129-4bdf-848e-d8127829ecbf"},"vehicle_type_id":"4","last_reported":1732208898,"current_range_meters":11600,"station_id":"","pricing_plan_id":"cebpf4jnsgd1na2vs0mg"},{"bike_id":"5c53cfbd-2547-413a-b79a-f8cc3b1ca992","system_id":"levelo_inurba_marseille","lat":43.32111,"lon":5.36769,"is_reserved":false,"is_disabled":false,"rental_uris":{"android":"levelo://app?vid=5c53cfbd-2547-413a-b79a-f8cc3b1ca992","ios":"levelo://app?vid=5c53cfbd-2547-413a-b79a-f8cc3b1ca992"},"vehicle_type_id":"4","last_reported":1732208898,"current_range_meters":21600,"station_id":"ce4bhrh2rcd13ifvqhug","pricing_plan_id":"cebpf4jnsgd1na2vs0mg"},{"bike_id":"ce9ba743-c6c3-427b-bf81-071c0227b21a","system_id":"levelo_inurba_marseille","lat":43.29077,"lon":5.37176,"is_reserved":false,"is_disabled":false,"rental_uris":{"android":"levelo://app?vid=ce9ba743-c6c3-427b-bf81-071c0227b21a","ios":"levelo://app?vid=ce9ba743-c6c3-427b-bf81-071c0227b21a"},"vehicle_type_id":"4","last_reported":1732208898,"current_range_meters":25600,"station_id":"ce4bh5p2rcd13ifvqe4g","pricing_plan_id":"cebpf4jnsgd1na2vs0mg"},{"bike_id":"95179193-8d71-4a05-b502-5ab9b71564d4","system_id":"levelo_inurba_marseille","lat":43.28475,"lon":5.38417,"is_reserved":false,"is_disabled":false,"rental_uris":{"android":"levelo://app?vid=95179193-8d71-4a05-b502-5ab9b71564d4","ios":"levelo://app?vid=95179193-8d71-4a05-b502-5ab9b71564d4"},"vehicle_type_id":"4","last_reported":1732208898,"current_range_meters":14800,"station_id":"ce4bh512rcd13ifvqe3g","pricing_plan_id":"cebpf4jnsgd1na2vs0mg"},{"bike_id":"2007431f-a46e-44e1-b7aa-33e6d54ec81f","system_id":"levelo_inurba_marseille","lat":43.30792,"lon":5.38165,"is_reserved":false,"is_disabled":false,"rental_uris":{"android":"levelo://app?vid=2007431f-a46e-44e1-b7aa-33e6d54ec81f","ios":"levelo://app?vid=2007431f-a46e-44e1-b7aa-33e6d54ec81f"},"vehicle_type_id":"4","last_reported":1732208898,"current_range_meters":31200,"station_id":"ce4bgt12rcd13ifvqce0","pricing_plan_id":"cebpf4jnsgd1na2vs0mg"},{"bike_id":"f786c67d-5db5-4718-bece-061de4975fd6","system_id":"levelo_inurba_marseille","lat":43.32479,"lon":5.3657,"is_reserved":false,"is_disabled":false,"rental_uris":{"android":"levelo://app?vid=f786c67d-5db5-4718-bece-061de4975fd6","ios":"levelo://app?vid=f786c67d-5db5-4718-bece-061de4975fd6"},"vehicle_type_id":"4","last_reported":1732208898,"current_range_meters":32800,"station_id":"ce4bhs12rcd13ifvqhvg","pricing_plan_id":"cebpf4jnsgd1na2vs0mg"},{"bike_id":"ced939b2-a2ab-40e5-b140-575509bab6d1","system_id":"levelo_inurba_marseille","lat":43.33023,"lon":5.39037,"is_reserved":false,"is_disabled":false,"rental_uris":{"android":"levelo://app?vid=ced939b2-a2ab-40e5-b140-575509bab6d1","ios":"levelo://app?vid=ced939b2-a2ab-40e5-b140-575509bab6d1"},"vehicle_type_id":"4","last_reported":1732208898,"current_range_meters":20400,"station_id":"ce4bhr92rcd13ifvqhrg","pricing_plan_id":"cebpf4jnsgd1na2vs0mg"},{"bike_id":"4674a573-a71e-41c0-a925-5c021c5e6c25","system_id":"levelo_inurba_marseille","lat":43.29437,"lon":5.37462,"is_reserved":false,"is_disabled":true,"rental_uris":{"android":"levelo://app?vid=4674a573-a71e-41c0-a925-5c021c5e6c25","ios":"levelo://app?vid=4674a573-a71e-41c0-a925-5c021c5e6c25"},"vehicle_type_id":"4","last_reported":1732208898,"current_range_meters":0,"station_id":"","pricing_plan_id":"cebpf4jnsgd1na2vs0mg"},{"bike_id":"095b7d65-d5d2-47c6-b83b-2dea990a12b4","system_id":"levelo_inurba_marseille","lat":43.29879,"lon":5.38913,"is_reserved":false,"is_disabled":false,"rental_uris":{"android":"levelo://app?vid=095b7d65-d5d2-47c6-b83b-2dea990a12b4","ios":"levelo://app?vid=095b7d65-d5d2-47c6-b83b-2dea990a12b4"},"vehicle_type_id":"4","last_reported":1732208898,"current_range_meters":24800,"station_id":"ce4bh392rcd13ifvqdl0","pricing_plan_id":"cebpf4jnsgd1na2vs0mg"},{"bike_id":"92101dc5-4f1c-4b65-8bd1-54415f893867","system_id":"levelo_inurba_marseille","lat":43.31696,"lon":5.38816,"is_reserved":false,"is_disabled":false,"rental_uris":{"android":"levelo://app?vid=92101dc5-4f1c-4b65-8bd1-54415f893867","ios":"levelo://app?vid=92101dc5-4f1c-4b65-8bd1-54415f893867"},"vehicle_type_id":"4","last_reported":1732208898,"current_range_meters":4800,"station_id":"","pricing_plan_id":"cebpf4jnsgd1na2vs0mg"},{"bike_id":"cde5eb04-35f5-4971-aec4-8004f9b2dcd9","system_id":"levelo_inurba_marseille","lat":43.2828,"lon":5.35063,"is_reserved":false,"is_disabled":true,"rental_uris":{"android":"levelo://app?vid=cde5eb04-35f5-4971-aec4-8004f9b2dcd9","ios":"levelo://app?vid=cde5eb04-35f5-4971-aec4-8004f9b2dcd9"},"vehicle_type_id":"4","last_reported":1732208898,"current_range_meters":0,"station_id":"ce4bhbp2rcd13ifvqerg","pricing_plan_id":"cebpf4jnsgd1na2vs0mg"},{"bike_id":"2a2cbff1-6f0a-47e6-856f-342cb541b1a8","system_id":"levelo_inurba_marseille","lat":43.31359,"lon":5.38491,"is_reserved":false,"is_disabled":false,"rental_uris":{"android":"levelo://app?vid=2a2cbff1-6f0a-47e6-856f-342cb541b1a8","ios":"levelo://app?vid=2a2cbff1-6f0a-47e6-856f-342cb541b1a8"},"vehicle_type_id":"4","last_reported":1732208898,"current_range_meters":19200,"station_id":"ce4bgt92rcd13ifvqcf0","pricing_plan_id":"cebpf4jnsgd1na2vs0mg"},{"bike_id":"4024c177-e689-450a-884b-5392fcf58a24","system_id":"levelo_inurba_marseille","lat":43.32289,"lon":5.38263,"is_reserved":false,"is_disabled":false,"rental_uris":{"android":"levelo://app?vid=4024c177-e689-450a-884b-5392fcf58a24","ios":"levelo://app?vid=4024c177-e689-450a-884b-5392fcf58a24"},"vehicle_type_id":"4","last_reported":1732208898,"current_range_meters":11200,"station_id":"ce4bhr12rcd13ifvqhqg","pricing_plan_id":"cebpf4jnsgd1na2vs0mg"},{"bike_id":"556e7b3c-aaa6-4792-bdbc-9d75642bda6e","system_id":"levelo_inurba_marseille","lat":43.30532,"lon":5.36708,"is_reserved":false,"is_disabled":false,"rental_uris":{"android":"levelo://app?vid=556e7b3c-aaa6-4792-bdbc-9d75642bda6e","ios":"levelo://app?vid=556e7b3c-aaa6-4792-bdbc-9d75642bda6e"},"vehicle_type_id":"4","last_reported":1732208898,"current_range_meters":36000,"station_id":"ce4bgrp2rcd13ifvqc9g","pricing_plan_id":"cebpf4jnsgd1na2vs0mg"},{"bike_id":"b9fa069b-387f-4d51-aad9-75e146a25174","system_id":"levelo_inurba_marseille","lat":43.30882,"lon":5.39623,"is_reserved":false,"is_disabled":false,"rental_uris":{"android":"levelo://app?vid=b9fa069b-387f-4d51-aad9-75e146a25174","ios":"levelo://app?vid=b9fa069b-387f-4d51-aad9-75e146a25174"},"vehicle_type_id":"4","last_reported":1732208898,"current_range_meters":24400,"station_id":"ce4bh012rcd13ifvqcv0","pricing_plan_id":"cebpf4jnsgd1na2vs0mg"},{"bike_id":"983b5008-1aea-462d-9f94-ca7d239fa86f","system_id":"levelo_inurba_marseille","lat":43.24164,"lon":5.36395,"is_reserved":false,"is_disabled":false,"rental_uris":{"android":"levelo://app?vid=983b5008-1aea-462d-9f94-ca7d239fa86f","ios":"levelo://app?vid=983b5008-1aea-462d-9f94-ca7d239fa86f"},"vehicle_type_id":"4","last_reported":1732208898,"current_range_meters":19200,"station_id":"cpo36qri1sfpv3e86is0","pricing_plan_id":"cebpf4jnsgd1na2vs0mg"},{"bike_id":"3b8eaf87-ea1f-413f-8a9d-0ee89fac4a6f","system_id":"levelo_inurba_marseille","lat":43.30528,"lon":5.36535,"is_reserved":false,"is_disabled":false,"rental_uris":{"android":"levelo://app?vid=3b8eaf87-ea1f-413f-8a9d-0ee89fac4a6f","ios":"levelo://app?vid=3b8eaf87-ea1f-413f-8a9d-0ee89fac4a6f"},"vehicle_type_id":"4","last_reported":1732208898,"current_range_meters":9600,"station_id":"ce4bgs12rcd13ifvqcag","pricing_plan_id":"cebpf4jnsgd1na2vs0mg"},{"bike_id":"3bc7760b-d922-4d1a-9305-9eb425fbcc44","system_id":"levelo_inurba_marseille","lat":43.29063,"lon":5.3716,"is_reserved":false,"is_disabled":false,"rental_uris":{"android":"levelo://app?vid=3bc7760b-d922-4d1a-9305-9eb425fbcc44","ios":"levelo://app?vid=3bc7760b-d922-4d1a-9305-9eb425fbcc44"},"vehicle_type_id":"4","last_reported":1732208898,"current_range_meters":17600,"station_id":"ce4bh5p2rcd13ifvqe4g","pricing_plan_id":"cebpf4jnsgd1na2vs0mg"},{"bike_id":"89429ed2-f839-4749-bcb9-3e5230fe3bfb","system_id":"levelo_inurba_marseille","lat":43.33715,"lon":5.39182,"is_reserved":false,"is_disabled":false,"rental_uris":{"android":"levelo://app?vid=89429ed2-f839-4749-bcb9-3e5230fe3bfb","ios":"levelo://app?vid=89429ed2-f839-4749-bcb9-3e5230fe3bfb"},"vehicle_type_id":"4","last_reported":1732208898,"current_range_meters":39200,"station_id":"ce4bhr92rcd13ifvqhsg","pricing_plan_id":"cebpf4jnsgd1na2vs0mg"},{"bike_id":"c8db655f-b3df-4bb3-b835-fb06b95a1b22","system_id":"levelo_inurba_marseille","lat":43.29607,"lon":5.40135,"is_reserved":false,"is_disabled":false,"rental_uris":{"android":"levelo://app?vid=c8db655f-b3df-4bb3-b835-fb06b95a1b22","ios":"levelo://app?vid=c8db655f-b3df-4bb3-b835-fb06b95a1b22"},"vehicle_type_id":"4","last_reported":1732208898,"current_range_meters":15200,"station_id":"","pricing_plan_id":"cebpf4jnsgd1na2vs0mg"},{"bike_id":"1d183352-1f69-4006-89f0-b9776e06e31d","system_id":"levelo_inurba_marseille","lat":43.29874,"lon":5.39737,"is_reserved":false,"is_disabled":false,"rental_uris":{"android":"levelo://app?vid=1d183352-1f69-4006-89f0-b9776e06e31d","ios":"levelo://app?vid=1d183352-1f69-4006-89f0-b9776e06e31d"},"vehicle_type_id":"4","last_reported":1732208898,"current_range_meters":16400,"station_id":"ce4bh0h2rcd13ifvqd50","pricing_plan_id":"cebpf4jnsgd1na2vs0mg"},{"bike_id":"6cb68eb4-6984-49de-a7ec-9f8d0c764db0","system_id":"levelo_inurba_marseille","lat":43.29296,"lon":5.37453,"is_reserved":false,"is_disabled":false,"rental_uris":{"android":"levelo://app?vid=6cb68eb4-6984-49de-a7ec-9f8d0c764db0","ios":"levelo://app?vid=6cb68eb4-6984-49de-a7ec-9f8d0c764db0"},"vehicle_type_id":"4","last_reported":1732208898,"current_range_meters":38800,"station_id":"ce4bgi12rcd13ifvqb70","pricing_plan_id":"cebpf4jnsgd1na2vs0mg"},{"bike_id":"f74d64e7-8a17-4f3a-883b-565675f40ceb","system_id":"levelo_inurba_marseille","lat":43.26679,"lon":5.3827,"is_reserved":false,"is_disabled":false,"rental_uris":{"android":"levelo://app?vid=f74d64e7-8a17-4f3a-883b-565675f40ceb","ios":"levelo://app?vid=f74d64e7-8a17-4f3a-883b-565675f40ceb"},"vehicle_type_id":"4","last_reported":1732208898,"current_range_meters":36000,"station_id":"ce4bhg92rcd13ifvqf90","pricing_plan_id":"cebpf4jnsgd1na2vs0mg"},{"bike_id":"6d941e85-5142-43a9-863d-c3a4efb11567","system_id":"levelo_inurba_marseille","lat":43.30531,"lon":5.36545,"is_reserved":false,"is_disabled":false,"rental_uris":{"android":"levelo://app?vid=6d941e85-5142-43a9-863d-c3a4efb11567","ios":"levelo://app?vid=6d941e85-5142-43a9-863d-c3a4efb11567"},"vehicle_type_id":"4","last_reported":1732208898,"current_range_meters":27600,"station_id":"ce4bgs12rcd13ifvqcag","pricing_plan_id":"cebpf4jnsgd1na2vs0mg"},{"bike_id":"73a59a86-138e-4954-91d0-f5c92d9accab","system_id":"levelo_inurba_marseille","lat":43.27173,"lon":5.40997,"is_reserved":false,"is_disabled":false,"rental_uris":{"android":"levelo://app?vid=73a59a86-138e-4954-91d0-f5c92d9accab","ios":"levelo://app?vid=73a59a86-138e-4954-91d0-f5c92d9accab"},"vehicle_type_id":"4","last_reported":1732208898,"current_range_meters":33600,"station_id":"ce4bhl12rcd13ifvqgf0","pricing_plan_id":"cebpf4jnsgd1na2vs0mg"},{"bike_id":"61bba262-72de-46f1-a189-a05dbc01f423","system_id":"levelo_inurba_marseille","lat":43.30555,"lon":5.36535,"is_reserved":false,"is_disabled":false,"rental_uris":{"android":"levelo://app?vid=61bba262-72de-46f1-a189-a05dbc01f423","ios":"levelo://app?vid=61bba262-72de-46f1-a189-a05dbc01f423"},"vehicle_type_id":"4","last_reported":1732208898,"current_range_meters":36800,"station_id":"ce4bgs12rcd13ifvqcag","pricing_plan_id":"cebpf4jnsgd1na2vs0mg"},{"bike_id":"7770b1cc-2a54-4d08-8255-6bed2fc397aa","system_id":"levelo_inurba_marseille","lat":43.23198,"lon":5.35548,"is_reserved":false,"is_disabled":false,"rental_uris":{"android":"levelo://app?vid=7770b1cc-2a54-4d08-8255-6bed2fc397aa","ios":"levelo://app?vid=7770b1cc-2a54-4d08-8255-6bed2fc397aa"},"vehicle_type_id":"4","last_reported":1732208898,"current_range_meters":17200,"station_id":"ce4bhu92rcd13ifvqi70","pricing_plan_id":"cebpf4jnsgd1na2vs0mg"},{"bike_id":"ed584ac2-2a5e-441e-8865-ce08621689dc","system_id":"levelo_inurba_marseille","lat":43.28805,"lon":5.39151,"is_reserved":false,"is_disabled":false,"rental_uris":{"android":"levelo://app?vid=ed584ac2-2a5e-441e-8865-ce08621689dc","ios":"levelo://app?vid=ed584ac2-2a5e-441e-8865-ce08621689dc"},"vehicle_type_id":"4","last_reported":1732208898,"current_range_meters":18800,"station_id":"ce4bgrp2rcd13ifvqc9g","pricing_plan_id":"cebpf4jnsgd1na2vs0mg"},{"bike_id":"86210bf7-7f60-4e45-960e-1a86f6b33188","system_id":"levelo_inurba_marseille","lat":43.28222,"lon":5.38166,"is_reserved":false,"is_disabled":true,"rental_uris":{"android":"levelo://app?vid=86210bf7-7f60-4e45-960e-1a86f6b33188","ios":"levelo://app?vid=86210bf7-7f60-4e45-960e-1a86f6b33188"},"vehicle_type_id":"4","last_reported":1732208898,"current_range_meters":27600,"station_id":"","pricing_plan_id":"cebpf4jnsgd1na2vs0mg"},{"bike_id":"f0a4c0a1-3c92-46e9-adec-2ebbf0094077","system_id":"levelo_inurba_marseille","lat":43.29571,"lon":5.39977,"is_reserved":false,"is_disabled":false,"rental_uris":{"android":"levelo://app?vid=f0a4c0a1-3c92-46e9-adec-2ebbf0094077","ios":"levelo://app?vid=f0a4c0a1-3c92-46e9-adec-2ebbf0094077"},"vehicle_type_id":"4","last_reported":1732208898,"current_range_meters":12000,"station_id":"ce4bh312rcd13ifvqdj0","pricing_plan_id":"cebpf4jnsgd1na2vs0mg"},{"bike_id":"505c8ddd-1654-4489-a777-b0a04062ec9e","system_id":"levelo_inurba_marseille","lat":43.29262,"lon":5.38443,"is_reserved":false,"is_disabled":false,"rental_uris":{"android":"levelo://app?vid=505c8ddd-1654-4489-a777-b0a04062ec9e","ios":"levelo://app?vid=505c8ddd-1654-4489-a777-b0a04062ec9e"},"vehicle_type_id":"4","last_reported":1732208898,"current_range_meters":27600,"station_id":"ce4bh692rcd13ifvqea0","pricing_plan_id":"cebpf4jnsgd1na2vs0mg"},{"bike_id":"3d25d818-80cf-415a-996a-afc2d01ce97b","system_id":"levelo_inurba_marseille","lat":43.27793,"lon":5.40723,"is_reserved":false,"is_disabled":true,"rental_uris":{"android":"levelo://app?vid=3d25d818-80cf-415a-996a-afc2d01ce97b","ios":"levelo://app?vid=3d25d818-80cf-415a-996a-afc2d01ce97b"},"vehicle_type_id":"4","last_reported":1732208898,"current_range_meters":3600,"station_id":"ce4bhnh2rcd13ifvqgtg","pricing_plan_id":"cebpf4jnsgd1na2vs0mg"},{"bike_id":"abf7bcba-e4cc-4453-829b-bd2193ccbbaa","system_id":"levelo_inurba_marseille","lat":43.32367,"lon":5.3889,"is_reserved":false,"is_disabled":false,"rental_uris":{"android":"levelo://app?vid=abf7bcba-e4cc-4453-829b-bd2193ccbbaa","ios":"levelo://app?vid=abf7bcba-e4cc-4453-829b-bd2193ccbbaa"},"vehicle_type_id":"4","last_reported":1732208898,"current_range_meters":38400,"station_id":"ce4bhqp2rcd13ifvqhog","pricing_plan_id":"cebpf4jnsgd1na2vs0mg"},{"bike_id":"124fb768-9159-46f5-a27d-5d69194a33bd","system_id":"levelo_inurba_marseille","lat":43.30142,"lon":5.39865,"is_reserved":false,"is_disabled":false,"rental_uris":{"android":"levelo://app?vid=124fb768-9159-46f5-a27d-5d69194a33bd","ios":"levelo://app?vid=124fb768-9159-46f5-a27d-5d69194a33bd"},"vehicle_type_id":"4","last_reported":1732208898,"current_range_meters":25200,"station_id":"ce4bh0h2rcd13ifvqd40","pricing_plan_id":"cebpf4jnsgd1na2vs0mg"},{"bike_id":"c98c80c5-66bf-4cf8-b173-1ce652463387","system_id":"levelo_inurba_marseille","lat":43.30609,"lon":5.37221,"is_reserved":false,"is_disabled":false,"rental_uris":{"android":"levelo://app?vid=c98c80c5-66bf-4cf8-b173-1ce652463387","ios":"levelo://app?vid=c98c80c5-66bf-4cf8-b173-1ce652463387"},"vehicle_type_id":"4","last_reported":1732208898,"current_range_meters":38400,"station_id":"ce4bgqh2rcd13ifvqc4g","pricing_plan_id":"cebpf4jnsgd1na2vs0mg"},{"bike_id":"d08f7f05-c465-4a86-89e7-89688055790c","system_id":"levelo_inurba_marseille","lat":43.28029,"lon":5.36934,"is_reserved":false,"is_disabled":false,"rental_uris":{"android":"levelo://app?vid=d08f7f05-c465-4a86-89e7-89688055790c","ios":"levelo://app?vid=d08f7f05-c465-4a86-89e7-89688055790c"},