{"last_updated":1731776842,"ttl":60,"version":"2.2","data":{"bikes":[{"bike_id":"91b8182b-5335-4b93-9267-3c96c19bc443","system_id":"levelo_inurba_marseille","lat":43.28444,"lon":5.39187,"is_reserved":false,"is_disabled":false,"rental_uris":{"android":"levelo://app?vid=91b8182b-5335-4b93-9267-3c96c19bc443","ios":"levelo://app?vid=91b8182b-5335-4b93-9267-3c96c19bc443"},"vehicle_type_id":"4","last_reported":1731776843,"current_range_meters":10000,"station_id":"ce4bhoh2rcd13ifvqh5g","pricing_plan_id":"cebpf4jnsgd1na2vs0mg"},{"bike_id":"95b474a2-4b45-4add-b50b-857a34b24a2a","system_id":"levelo_inurba_marseille","lat":43.27819,"lon":5.39209,"is_reserved":false,"is_disabled":false,"rental_uris":{"android":"levelo://app?vid=95b474a2-4b45-4add-b50b-857a34b24a2a","ios":"levelo://app?vid=95b474a2-4b45-4add-b50b-857a34b24a2a"},"vehicle_type_id":"4","last_reported":1731776843,"current_range_meters":20800,"station_id":"ce4bhjp2rcd13ifvqga0","pricing_plan_id":"cebpf4jnsgd1na2vs0mg"},{"bike_id":"61c559f9-5319-4750-ac4c-9533dd08a2e3","system_id":"levelo_inurba_marseille","lat":43.271393,"lon":5.386162,"is_reserved":false,"is_disabled":false,"rental_uris":{"android":"levelo://app?vid=61c559f9-5319-4750-ac4c-9533dd08a2e3","ios":"levelo://app?vid=61c559f9-5319-4750-ac4c-9533dd08a2e3"},"vehicle_type_id":"4","last_reported":1731776843,"current_range_meters":12400,"station_id":"","pricing_plan_id":"cebpf4jnsgd1na2vs0mg"},{"bike_id":"12aa5ede-a12c-4041-ba8d-292720f85568","system_id":"levelo_inurba_marseille","lat":43.28928,"lon":5.38391,"is_reserved":false,"is_disabled":false,"rental_uris":{"android":"levelo://app?vid=12aa5ede-a12c-4041-ba8d-292720f85568","ios":"levelo://app?vid=12aa5ede-a12c-4041-ba8d-292720f85568"},"vehicle_type_id":"4","last_reported":1731776843,"current_range_meters":18800,"station_id":"ce4bh612rcd13ifvqe6g","pricing_plan_id":"cebpf4jnsgd1na2vs0mg"},{"bike_id":"6c62e495-4a15-4e60-8c10-813db34ad108","system_id":"levelo_inurba_marseille","lat":43.29538,"lon":5.39401,"is_reserved":false,"is_disabled":false,"rental_uris":{"android":"levelo://app?vid=6c62e495-4a15-4e60-8c10-813db34ad108","ios":"levelo://app?vid=6c62e495-4a15-4e60-8c10-813db34ad108"},"vehicle_type_id":"4","last_reported":1731776843,"current_range_meters":20400,"station_id":"ce4bh292rcd13ifvqdf0","pricing_plan_id":"cebpf4jnsgd1na2vs0mg"},{"bike_id":"bee901b4-7d44-42e9-8459-d44eb2ddd556","system_id":"levelo_inurba_marseille","lat":43.27811,"lon":5.40716,"is_reserved":false,"is_disabled":false,"rental_uris":{"android":"levelo://app?vid=bee901b4-7d44-42e9-8459-d44eb2ddd556","ios":"levelo://app?vid=bee901b4-7d44-42e9-8459-d44eb2ddd556"},"vehicle_type_id":"4","last_reported":1731776843,"current_range_meters":28800,"station_id":"ce4bhnh2rcd13ifvqgtg","pricing_plan_id":"cebpf4jnsgd1na2vs0mg"},{"bike_id":"075a53da-9394-4c31-a08c-6bbe2811953b","system_id":"levelo_inurba_marseille","lat":43.29805,"lon":5.38098,"is_reserved":false,"is_disabled":false,"rental_uris":{"android":"levelo://app?vid=075a53da-9394-4c31-a08c-6bbe2811953b","ios":"levelo://app?vid=075a53da-9394-4c31-a08c-6bbe2811953b"},"vehicle_type_id":"4","last_reported":1731776843,"current_range_meters":16400,"station_id":"ce4bgip2rcd13ifvqbb0","pricing_plan_id":"cebpf4jnsgd1na2vs0mg"},{"bike_id":"43038cfa-c3ef-4248-9250-cdda1bec13e6","system_id":"levelo_inurba_marseille","lat":43.24999,"lon":5.38932,"is_reserved":false,"is_disabled":false,"rental_uris":{"android":"levelo://app?vid=43038cfa-c3ef-4248-9250-cdda1bec13e6","ios":"levelo://app?vid=43038cfa-c3ef-4248-9250-cdda1bec13e6"},"vehicle_type_id":"4","last_reported":1731776843,"current_range_meters":24400,"station_id":"ce4bhgp2rcd13ifvqfd0","pricing_plan_id":"cebpf4jnsgd1na2vs0mg"},{"bike_id":"ab6dc4ee-6007-4de0-8391-e0c3a471920a","system_id":"levelo_inurba_marseille","lat":43.29612,"lon":5.37713,"is_reserved":false,"is_disabled":false,"rental_uris":{"android":"levelo://app?vid=ab6dc4ee-6007-4de0-8391-e0c3a471920a","ios":"levelo://app?vid=ab6dc4ee-6007-4de0-8391-e0c3a471920a"},"vehicle_type_id":"4","last_reported":1731776843,"current_range_meters":25200,"station_id":"ce4bgi92rcd13ifvqb90","pricing_plan_id":"cebpf4jnsgd1na2vs0mg"},{"bike_id":"d9d8a7d9-cde4-4fab-ab69-fcee8fe6a6da","system_id":"levelo_inurba_marseille","lat":43.25023,"lon":5.38925,"is_reserved":false,"is_disabled":false,"rental_uris":{"android":"levelo://app?vid=d9d8a7d9-cde4-4fab-ab69-fcee8fe6a6da","ios":"levelo://app?vid=d9d8a7d9-cde4-4fab-ab69-fcee8fe6a6da"},"vehicle_type_id":"4","last_reported":1731776843,"current_range_meters":12000,"station_id":"ce4bhgp2rcd13ifvqfd0","pricing_plan_id":"cebpf4jnsgd1na2vs0mg"},{"bike_id":"083dbee0-0e04-4a5e-93ff-4f8789a778b7","system_id":"levelo_inurba_marseille","lat":43.22932,"lon":5.35418,"is_reserved":false,"is_disabled":false,"rental_uris":{"android":"levelo://app?vid=083dbee0-0e04-4a5e-93ff-4f8789a778b7","ios":"levelo://app?vid=083dbee0-0e04-4a5e-93ff-4f8789a778b7"},"vehicle_type_id":"4","last_reported":1731776843,"current_range_meters":37600,"station_id":"cpo3532slgdg3j2ikp40","pricing_plan_id":"cebpf4jnsgd1na2vs0mg"},{"bike_id":"ae8de312-49ab-4a66-a325-050287397c97","system_id":"levelo_inurba_marseille","lat":43.29805,"lon":5.40392,"is_reserved":false,"is_disabled":false,"rental_uris":{"android":"levelo://app?vid=ae8de312-49ab-4a66-a325-050287397c97","ios":"levelo://app?vid=ae8de312-49ab-4a66-a325-050287397c97"},"vehicle_type_id":"4","last_reported":1731776843,"current_range_meters":26800,"station_id":"ce4bh112rcd13ifvqd90","pricing_plan_id":"cebpf4jnsgd1na2vs0mg"},{"bike_id":"9a51f72f-3f82-4670-a68e-d2dbc4daf012","system_id":"levelo_inurba_marseille","lat":43.28701,"lon":5.37392,"is_reserved":false,"is_disabled":false,"rental_uris":{"android":"levelo://app?vid=9a51f72f-3f82-4670-a68e-d2dbc4daf012","ios":"levelo://app?vid=9a51f72f-3f82-4670-a68e-d2dbc4daf012"},"vehicle_type_id":"4","last_reported":1731776843,"current_range_meters":39200,"station_id":"ce4bh3p2rcd13ifvqdq0","pricing_plan_id":"cebpf4jnsgd1na2vs0mg"},{"bike_id":"f95bbb1f-f765-4d24-be71-164eb2e9e1b3","system_id":"levelo_inurba_marseille","lat":43.287781,"lon":5.362389,"is_reserved":false,"is_disabled":false,"rental_uris":{"android":"levelo://app?vid=f95bbb1f-f765-4d24-be71-164eb2e9e1b3","ios":"levelo://app?vid=f95bbb1f-f765-4d24-be71-164eb2e9e1b3"},"vehicle_type_id":"4","last_reported":1731776843,"current_range_meters":4800,"station_id":"cki0cbj6b192h4jlfktg","pricing_plan_id":"cebpf4jnsgd1na2vs0mg"},{"bike_id":"236ef31b-0d6c-4260-8635-d2eb0dc28c50","system_id":"levelo_inurba_marseille","lat":43.25872,"lon":5.39896,"is_reserved":false,"is_disabled":false,"rental_uris":{"android":"levelo://app?vid=236ef31b-0d6c-4260-8635-d2eb0dc28c50","ios":"levelo://app?vid=236ef31b-0d6c-4260-8635-d2eb0dc28c50"},"vehicle_type_id":"4","last_reported":1731776843,"current_range_meters":10000,"station_id":"ce4bhl92rcd13ifvqghg","pricing_plan_id":"cebpf4jnsgd1na2vs0mg"},{"bike_id":"5c8f882d-7a6f-41f6-8199-3c87df3d20ef","system_id":"levelo_inurba_marseille","lat":43.34137,"lon":5.40905,"is_reserved":false,"is_disabled":false,"rental_uris":{"android":"levelo://app?vid=5c8f882d-7a6f-41f6-8199-3c87df3d20ef","ios":"levelo://app?vid=5c8f882d-7a6f-41f6-8199-3c87df3d20ef"},"vehicle_type_id":"4","last_reported":1731776843,"current_range_meters":22000,"station_id":"ce4bhqh2rcd13ifvqhlg","pricing_plan_id":"cebpf4jnsgd1na2vs0mg"},{"bike_id":"5ae7e3c7-2e60-4c2e-a57b-8bb7ead14683","system_id":"levelo_inurba_marseille","lat":43.3171,"lon":5.37742,"is_reserved":false,"is_disabled":false,"rental_uris":{"android":"levelo://app?vid=5ae7e3c7-2e60-4c2e-a57b-8bb7ead14683","ios":"levelo://app?vid=5ae7e3c7-2e60-4c2e-a57b-8bb7ead14683"},"vehicle_type_id":"4","last_reported":1731776843,"current_range_meters":29600,"station_id":"ce4bgth2rcd13ifvqch0","pricing_plan_id":"cebpf4jnsgd1na2vs0mg"},{"bike_id":"6b0ea79e-cb12-4a50-9845-e4686b3cacc8","system_id":"levelo_inurba_marseille","lat":43.295751,"lon":5.399791,"is_reserved":false,"is_disabled":false,"rental_uris":{"android":"levelo://app?vid=6b0ea79e-cb12-4a50-9845-e4686b3cacc8","ios":"levelo://app?vid=6b0ea79e-cb12-4a50-9845-e4686b3cacc8"},"vehicle_type_id":"4","last_reported":1731776843,"current_range_meters":13600,"station_id":"","pricing_plan_id":"cebpf4jnsgd1na2vs0mg"},{"bike_id":"dfc52ab5-9541-48ac-95e4-57ddac719ffc","system_id":"levelo_inurba_marseille","lat":43.29566,"lon":5.39984,"is_reserved":false,"is_disabled":false,"rental_uris":{"android":"levelo://app?vid=dfc52ab5-9541-48ac-95e4-57ddac719ffc","ios":"levelo://app?vid=dfc52ab5-9541-48ac-95e4-57ddac719ffc"},"vehicle_type_id":"4","last_reported":1731776843,"current_range_meters":15200,"station_id":"ce4bh312rcd13ifvqdj0","pricing_plan_id":"cebpf4jnsgd1na2vs0mg"},{"bike_id":"a16af875-979b-4edb-af5e-fbe321d5ad22","system_id":"levelo_inurba_marseille","lat":43.27421,"lon":5.39413,"is_reserved":false,"is_disabled":false,"rental_uris":{"android":"levelo://app?vid=a16af875-979b-4edb-af5e-fbe321d5ad22","ios":"levelo://app?vid=a16af875-979b-4edb-af5e-fbe321d5ad22"},"vehicle_type_id":"4","last_reported":1731776843,"current_range_meters":16800,"station_id":"ce4bhdp2rcd13ifvqf20","pricing_plan_id":"cebpf4jnsgd1na2vs0mg"},{"bike_id":"de1803ab-f938-4433-afc7-ff8590d80fb7","system_id":"levelo_inurba_marseille","lat":43.29198,"lon":5.39319,"is_reserved":false,"is_disabled":false,"rental_uris":{"android":"levelo://app?vid=de1803ab-f938-4433-afc7-ff8590d80fb7","ios":"levelo://app?vid=de1803ab-f938-4433-afc7-ff8590d80fb7"},"vehicle_type_id":"4","last_reported":1731776843,"current_range_meters":38400,"station_id":"ce4bh192rcd13ifvqdd0","pricing_plan_id":"cebpf4jnsgd1na2vs0mg"},{"bike_id":"72499688-a320-4333-843e-c093213a74e4","system_id":"levelo_inurba_marseille","lat":43.23061,"lon":5.35493,"is_reserved":false,"is_disabled":false,"rental_uris":{"android":"levelo://app?vid=72499688-a320-4333-843e-c093213a74e4","ios":"levelo://app?vid=72499688-a320-4333-843e-c093213a74e4"},"vehicle_type_id":"4","last_reported":1731776843,"current_range_meters":8400,"station_id":"cpo3342slgdg3j2ifvpg","pricing_plan_id":"cebpf4jnsgd1na2vs0mg"},{"bike_id":"be7b6632-f3b8-440f-b37a-a743de747592","system_id":"levelo_inurba_marseille","lat":43.25002,"lon":5.38929,"is_reserved":false,"is_disabled":false,"rental_uris":{"android":"levelo://app?vid=be7b6632-f3b8-440f-b37a-a743de747592","ios":"levelo://app?vid=be7b6632-f3b8-440f-b37a-a743de747592"},"vehicle_type_id":"4","last_reported":1731776843,"current_range_meters":33600,"station_id":"ce4bhgp2rcd13ifvqfd0","pricing_plan_id":"cebpf4jnsgd1na2vs0mg"},{"bike_id":"f43748cf-5d76-4181-9d91-9a46897abe3d","system_id":"levelo_inurba_marseille","lat":43.283096,"lon":5.350376,"is_reserved":false,"is_disabled":false,"rental_uris":{"android":"levelo://app?vid=f43748cf-5d76-4181-9d91-9a46897abe3d","ios":"levelo://app?vid=f43748cf-5d76-4181-9d91-9a46897abe3d"},"vehicle_type_id":"4","last_reported":1731776843,"current_range_meters":1600,"station_id":"ce4bhbp2rcd13ifvqerg","pricing_plan_id":"cebpf4jnsgd1na2vs0mg"},{"bike_id":"0e1d2e7a-8318-45fe-af1b-31857eb1aac8","system_id":"levelo_inurba_marseille","lat":43.23955,"lon":5.3663,"is_reserved":false,"is_disabled":false,"rental_uris":{"android":"levelo://app?vid=0e1d2e7a-8318-45fe-af1b-31857eb1aac8","ios":"levelo://app?vid=0e1d2e7a-8318-45fe-af1b-31857eb1aac8"},"vehicle_type_id":"4","last_reported":1731776843,"current_range_meters":28400,"station_id":"ce4bhi12rcd13ifvqfp0","pricing_plan_id":"cebpf4jnsgd1na2vs0mg"},{"bike_id":"cf2b71d3-e247-4fa9-939f-9177c93093ca","system_id":"levelo_inurba_marseille","lat":43.29264,"lon":5.38444,"is_reserved":false,"is_disabled":false,"rental_uris":{"android":"levelo://app?vid=cf2b71d3-e247-4fa9-939f-9177c93093ca","ios":"levelo://app?vid=cf2b71d3-e247-4fa9-939f-9177c93093ca"},"vehicle_type_id":"4","last_reported":1731776843,"current_range_meters":4400,"station_id":"ce4bh692rcd13ifvqea0","pricing_plan_id":"cebpf4jnsgd1na2vs0mg"},{"bike_id":"5dec6ec2-c0d1-4d5e-bcfc-d237912cd239","system_id":"levelo_inurba_marseille","lat":43.28673,"lon":5.38666,"is_reserved":false,"is_disabled":false,"rental_uris":{"android":"levelo://app?vid=5dec6ec2-c0d1-4d5e-bcfc-d237912cd239","ios":"levelo://app?vid=5dec6ec2-c0d1-4d5e-bcfc-d237912cd239"},"vehicle_type_id":"4","last_reported":1731776843,"current_range_meters":33600,"station_id":"ce4bh492rcd13ifvqdug","pricing_plan_id":"cebpf4jnsgd1na2vs0mg"},{"bike_id":"02687391-711e-42b3-b2bd-ac70179ae719","system_id":"levelo_inurba_marseille","lat":43.25825,"lon":5.39432,"is_reserved":false,"is_disabled":false,"rental_uris":{"android":"levelo://app?vid=02687391-711e-42b3-b2bd-ac70179ae719","ios":"levelo://app?vid=02687391-711e-42b3-b2bd-ac70179ae719"},"vehicle_type_id":"4","last_reported":1731776843,"current_range_meters":25200,"station_id":"ce4bhip2rcd13ifvqft0","pricing_plan_id":"cebpf4jnsgd1na2vs0mg"},{"bike_id":"9285810a-20e7-4d99-a229-aafe61f891bd","system_id":"levelo_inurba_marseille","lat":43.30308,"lon":5.3863,"is_reserved":false,"is_disabled":false,"rental_uris":{"android":"levelo://app?vid=9285810a-20e7-4d99-a229-aafe61f891bd","ios":"levelo://app?vid=9285810a-20e7-4d99-a229-aafe61f891bd"},"vehicle_type_id":"4","last_reported":1731776843,"current_range_meters":22800,"station_id":"","pricing_plan_id":"cebpf4jnsgd1na2vs0mg"},{"bike_id":"6875c373-3a3e-464e-8826-15cf173d3295","system_id":"levelo_inurba_marseille","lat":43.24174,"lon":5.36392,"is_reserved":false,"is_disabled":false,"rental_uris":{"android":"levelo://app?vid=6875c373-3a3e-464e-8826-15cf173d3295","ios":"levelo://app?vid=6875c373-3a3e-464e-8826-15cf173d3295"},"vehicle_type_id":"4","last_reported":1731776843,"current_range_meters":36800,"station_id":"cpo36qri1sfpv3e86is0","pricing_plan_id":"cebpf4jnsgd1na2vs0mg"},{"bike_id":"7b4d112e-75c8-42d9-b420-467e02cd9b69","system_id":"levelo_inurba_marseille","lat":43.30095,"lon":5.39081,"is_reserved":false,"is_disabled":false,"rental_uris":{"android":"levelo://app?vid=7b4d112e-75c8-42d9-b420-467e02cd9b69","ios":"levelo://app?vid=7b4d112e-75c8-42d9-b420-467e02cd9b69"},"vehicle_type_id":"4","last_reported":1731776843,"current_range_meters":29600,"station_id":"ce4bh192rcd13ifvqdb0","pricing_plan_id":"cebpf4jnsgd1na2vs0mg"},{"bike_id":"3fcbe528-45e3-439d-80db-ce667e24fe73","system_id":"levelo_inurba_marseille","lat":43.23059,"lon":5.35494,"is_reserved":false,"is_disabled":false,"rental_uris":{"android":"levelo://app?vid=3fcbe528-45e3-439d-80db-ce667e24fe73","ios":"levelo://app?vid=3fcbe528-45e3-439d-80db-ce667e24fe73"},"vehicle_type_id":"4","last_reported":1731776843,"current_range_meters":20800,"station_id":"cpo3342slgdg3j2ifvpg","pricing_plan_id":"cebpf4jnsgd1na2vs0mg"},{"bike_id":"da760cdf-1e57-427c-8ca7-6a6edec307fa","system_id":"levelo_inurba_marseille","lat":43.314869,"lon":5.380137,"is_reserved":false,"is_disabled":false,"rental_uris":{"android":"levelo://app?vid=da760cdf-1e57-427c-8ca7-6a6edec307fa","ios":"levelo://app?vid=da760cdf-1e57-427c-8ca7-6a6edec307fa"},"vehicle_type_id":"4","last_reported":1731776843,"current_range_meters":32400,"station_id":"ce4bhsp2rcd13ifvqi50","pricing_plan_id":"cebpf4jnsgd1na2vs0mg"},{"bike_id":"b2f45d15-d036-4f36-a361-a492e289342e","system_id":"levelo_inurba_marseille","lat":43.22924,"lon":5.35374,"is_reserved":false,"is_disabled":false,"rental_uris":{"android":"levelo://app?vid=b2f45d15-d036-4f36-a361-a492e289342e","ios":"levelo://app?vid=b2f45d15-d036-4f36-a361-a492e289342e"},"vehicle_type_id":"4","last_reported":1731776843,"current_range_meters":38800,"station_id":"cpo3532slgdg3j2ikp40","pricing_plan_id":"cebpf4jnsgd1na2vs0mg"},{"bike_id":"738d8a17-d062-45af-9c08-596e79517a35","system_id":"levelo_inurba_marseille","lat":43.31061,"lon":5.38132,"is_reserved":false,"is_disabled":false,"rental_uris":{"android":"levelo://app?vid=738d8a17-d062-45af-9c08-596e79517a35","ios":"levelo://app?vid=738d8a17-d062-45af-9c08-596e79517a35"},"vehicle_type_id":"4","last_reported":1731776843,"current_range_meters":25200,"station_id":"","pricing_plan_id":"cebpf4jnsgd1na2vs0mg"},{"bike_id":"3b4d1d36-ba15-4eb6-a7c5-a9a111c5f1e6","system_id":"levelo_inurba_marseille","lat":43.28481,"lon":5.38418,"is_reserved":false,"is_disabled":false,"rental_uris":{"android":"levelo://app?vid=3b4d1d36-ba15-4eb6-a7c5-a9a111c5f1e6","ios":"levelo://app?vid=3b4d1d36-ba15-4eb6-a7c5-a9a111c5f1e6"},"vehicle_type_id":"4","last_reported":1731776843,"current_range_meters":35600,"station_id":"ce4bh512rcd13ifvqe3g","pricing_plan_id":"cebpf4jnsgd1na2vs0mg"},{"bike_id":"cce74dd4-11ea-4bce-bb9e-a102901991a8","system_id":"levelo_inurba_marseille","lat":43.29597,"lon":5.38109,"is_reserved":false,"is_disabled":false,"rental_uris":{"android":"levelo://app?vid=cce74dd4-11ea-4bce-bb9e-a102901991a8","ios":"levelo://app?vid=cce74dd4-11ea-4bce-bb9e-a102901991a8"},"vehicle_type_id":"4","last_reported":1731776843,"current_range_meters":38800,"station_id":"ce4bgl12rcd13ifvqbo0","pricing_plan_id":"cebpf4jnsgd1na2vs0mg"},{"bike_id":"6d6a0dde-c067-4493-bad2-5ee0d9b9474d","system_id":"levelo_inurba_marseille","lat":43.29287,"lon":5.37454,"is_reserved":false,"is_disabled":false,"rental_uris":{"android":"levelo://app?vid=6d6a0dde-c067-4493-bad2-5ee0d9b9474d","ios":"levelo://app?vid=6d6a0dde-c067-4493-bad2-5ee0d9b9474d"},"vehicle_type_id":"4","last_reported":1731776843,"current_range_meters":35600,"station_id":"ce4bgi12rcd13ifvqb70","pricing_plan_id":"cebpf4jnsgd1na2vs0mg"},{"bike_id":"2a442db1-94b8-4579-85db-15c2003447a6","system_id":"levelo_inurba_marseille","lat":43.29581,"lon":5.36743,"is_reserved":false,"is_disabled":false,"rental_uris":{"android":"levelo://app?vid=2a442db1-94b8-4579-85db-15c2003447a6","ios":"levelo://app?vid=2a442db1-94b8-4579-85db-15c2003447a6"},"vehicle_type_id":"4","last_reported":1731776843,"current_range_meters":8400,"station_id":"ce4bgph2rcd13ifvqc2g","pricing_plan_id":"cebpf4jnsgd1na2vs0mg"},{"bike_id":"9f517b98-b68d-4d6d-9fc3-aedb2693f4b3","system_id":"levelo_inurba_marseille","lat":43.29966,"lon":5.3849,"is_reserved":false,"is_disabled":false,"rental_uris":{"android":"levelo://app?vid=9f517b98-b68d-4d6d-9fc3-aedb2693f4b3","ios":"levelo://app?vid=9f517b98-b68d-4d6d-9fc3-aedb2693f4b3"},"vehicle_type_id":"4","last_reported":1731776843,"current_range_meters":19600,"station_id":"ce4bgj92rcd13ifvqbd0","pricing_plan_id":"cebpf4jnsgd1na2vs0mg"},{"bike_id":"27c4ee8b-bd23-4c1b-992e-935e5437289b","system_id":"levelo_inurba_marseille","lat":43.284648,"lon":5.361532,"is_reserved":false,"is_disabled":false,"rental_uris":{"android":"levelo://app?vid=27c4ee8b-bd23-4c1b-992e-935e5437289b","ios":"levelo://app?vid=27c4ee8b-bd23-4c1b-992e-935e5437289b"},"vehicle_type_id":"4","last_reported":1731776843,"current_range_meters":2800,"station_id":"","pricing_plan_id":"cebpf4jnsgd1na2vs0mg"},{"bike_id":"2423f2a9-c81e-48f6-8baa-d86e2049c321","system_id":"levelo_inurba_marseille","lat":43.29257,"lon":5.40917,"is_reserved":false,"is_disabled":false,"rental_uris":{"android":"levelo://app?vid=2423f2a9-c81e-48f6-8baa-d86e2049c321","ios":"levelo://app?vid=2423f2a9-c81e-48f6-8baa-d86e2049c321"},"vehicle_type_id":"4","last_reported":1731776843,"current_range_meters":27600,"station_id":"ce4bh192rcd13ifvqdc0","pricing_plan_id":"cebpf4jnsgd1na2vs0mg"},{"bike_id":"2db6c99e-074e-4156-a048-7fbf67c5d35b","system_id":"levelo_inurba_marseille","lat":43.29092,"lon":5.38145,"is_reserved":false,"is_disabled":false,"rental_uris":{"android":"levelo://app?vid=2db6c99e-074e-4156-a048-7fbf67c5d35b","ios":"levelo://app?vid=2db6c99e-074e-4156-a048-7fbf67c5d35b"},"vehicle_type_id":"4","last_reported":1731776843,"current_range_meters":30400,"station_id":"ce4bh512rcd13ifvqe2g","pricing_plan_id":"cebpf4jnsgd1na2vs0mg"},{"bike_id":"17a61e4e-a3b9-4828-b36e-7724bb7a4c45","system_id":"levelo_inurba_marseille","lat":43.29786,"lon":5.39341,"is_reserved":false,"is_disabled":false,"rental_uris":{"android":"levelo://app?vid=17a61e4e-a3b9-4828-b36e-7724bb7a4c45","ios":"levelo://app?vid=17a61e4e-a3b9-4828-b36e-7724bb7a4c45"},"vehicle_type_id":"4","last_reported":1731776843,"current_range_meters":16800,"station_id":"chh1huq6cuj3fo74tm60","pricing_plan_id":"cebpf4jnsgd1na2vs0mg"},{"bike_id":"cf575711-4e1c-4ad3-aa96-f86981a17996","system_id":"levelo_inurba_marseille","lat":43.305423,"lon":5.367296,"is_reserved":false,"is_disabled":false,"rental_uris":{"android":"levelo://app?vid=cf575711-4e1c-4ad3-aa96-f86981a17996","ios":"levelo://app?vid=cf575711-4e1c-4ad3-aa96-f86981a17996"},"vehicle_type_id":"4","last_reported":1731776843,"current_range_meters":16800,"station_id":"ce4bgrp2rcd13ifvqc9g","pricing_plan_id":"cebpf4jnsgd1na2vs0mg"},{"bike_id":"0b580216-b07f-4821-a19d-686462be0488","system_id":"levelo_inurba_marseille","lat":43.2293,"lon":5.35381,"is_reserved":false,"is_disabled":false,"rental_uris":{"android":"levelo://app?vid=0b580216-b07f-4821-a19d-686462be0488","ios":"levelo://app?vid=0b580216-b07f-4821-a19d-686462be0488"},"vehicle_type_id":"4","last_reported":1731776843,"current_range_meters":38800,"station_id":"cpo3532slgdg3j2ikp40","pricing_plan_id":"cebpf4jnsgd1na2vs0mg"},{"bike_id":"a59b1ff0-c325-4338-9b5a-2099d71b9047","system_id":"levelo_inurba_marseille","lat":43.29853,"lon":5.36288,"is_reserved":false,"is_disabled":false,"rental_uris":{"android":"levelo://app?vid=a59b1ff0-c325-4338-9b5a-2099d71b9047","ios":"levelo://app?vid=a59b1ff0-c325-4338-9b5a-2099d71b9047"},"vehicle_type_id":"4","last_reported":1731776843,"current_range_meters":30800,"station_id":"ce4bgpp2rcd13ifvqc3g","pricing_plan_id":"cebpf4jnsgd1na2vs0mg"},{"bike_id":"9e80fa8f-f0eb-4404-9b0d-a93074af700f","system_id":"levelo_inurba_marseille","lat":43.24172,"lon":5.36397,"is_reserved":false,"is_disabled":false,"rental_uris":{"android":"levelo://app?vid=9e80fa8f-f0eb-4404-9b0d-a93074af700f","ios":"levelo://app?vid=9e80fa8f-f0eb-4404-9b0d-a93074af700f"},"vehicle_type_id":"4","last_reported":1731776843,"current_range_meters":29600,"station_id":"cpo36qri1sfpv3e86is0","pricing_plan_id":"cebpf4jnsgd1na2vs0mg"},{"bike_id":"4138345b-cc1d-40b0-8916-e8013770729a","system_id":"levelo_inurba_marseille","lat":43.24645,"lon":5.38894,"is_reserved":false,"is_disabled":false,"rental_uris":{"android":"levelo://app?vid=4138345b-cc1d-40b0-8916-e8013770729a","ios":"levelo://app?vid=4138345b-cc1d-40b0-8916-e8013770729a"},"vehicle_type_id":"4","last_reported":1731776843,"current_range_meters":38800,"station_id":"ce4bhg12rcd13ifvqf60","pricing_plan_id":"cebpf4jnsgd1na2vs0mg"},{"bike_id":"9614104b-89c9-47e9-a2a1-c2fc3750493b","system_id":"levelo_inurba_marseille","lat":43.31538,"lon":5.38031,"is_reserved":false,"is_disabled":false,"rental_uris":{"android":"levelo://app?vid=9614104b-89c9-47e9-a2a1-c2fc3750493b","ios":"levelo://app?vid=9614104b-89c9-47e9-a2a1-c2fc3750493b"},"vehicle_type_id":"4","last_reported":1731776843,"current_range_meters":38800,"station_id":"ce4bhsp2rcd13ifvqi50","pricing_plan_id":"cebpf4jnsgd1na2vs0mg"},{"bike_id":"89c7f0b5-420b-46aa-b8b1-97a7a0871666","system_id":"levelo_inurba_marseille","lat":43.31954,"lon":5.38318,"is_reserved":false,"is_disabled":false,"rental_uris":{"android":"levelo://app?vid=89c7f0b5-420b-46aa-b8b1-97a7a0871666","ios":"levelo://app?vid=89c7f0b5-420b-46aa-b8b1-97a7a0871666"},"vehicle_type_id":"4","last_reported":1731776843,"current_range_meters":14000,"station_id":"","pricing_plan_id":"cebpf4jnsgd1na2vs0mg"},{"bike_id":"ca8542a7-392d-4521-8203-879c6d07ae3f","system_id":"levelo_inurba_marseille","lat":43.30806,"lon":5.36987,"is_reserved":false,"is_disabled":false,"rental_uris":{"android":"levelo://app?vid=ca8542a7-392d-4521-8203-879c6d07ae3f","ios":"levelo://app?vid=ca8542a7-392d-4521-8203-879c6d07ae3f"},"vehicle_type_id":"4","last_reported":1731776843,"current_range_meters":32800,"station_id":"","pricing_plan_id":"cebpf4jnsgd1na2vs0mg"},{"bike_id":"bae81943-f1eb-4f58-8fe3-254cd012d472","system_id":"levelo_inurba_marseille","lat":43.25488,"lon":5.37647,"is_reserved":false,"is_disabled":false,"rental_uris":{"android":"levelo://app?vid=bae81943-f1eb-4f58-8fe3-254cd012d472","ios":"levelo://app?vid=bae81943-f1eb-4f58-8fe3-254cd012d472"},"vehicle_type_id":"4","last_reported":1731776843,"current_range_meters":38800,"station_id":"ce4bhh12rcd13ifvqff0","pricing_plan_id":"cebpf4jnsgd1na2vs0mg"},{"bike_id":"46632805-d598-46ca-8978-4f5e71b702c6","system_id":"levelo_inurba_marseille","lat":43.28156,"lon":5.42636,"is_reserved":false,"is_disabled":false,"rental_uris":{"android":"levelo://app?vid=46632805-d598-46ca-8978-4f5e71b702c6","ios":"levelo://app?vid=46632805-d598-46ca-8978-4f5e71b702c6"},"vehicle_type_id":"4","last_reported":1731776843,"current_range_meters":37600,"station_id":"ce4bhnh2rcd13ifvqgug","pricing_plan_id":"cebpf4jnsgd1na2vs0mg"},{"bike_id":"328b03f6-cb56-40ba-adb9-9b7acac37b5d","system_id":"levelo_inurba_marseille","lat":43.29589,"lon":5.38102,"is_reserved":false,"is_disabled":false,"rental_uris":{"android":"levelo://app?vid=328b03f6-cb56-40ba-adb9-9b7acac37b5d","ios":"levelo://app?vid=328b03f6-cb56-40ba-adb9-9b7acac37b5d"},"vehicle_type_id":"4","last_reported":1731776843,"current_range_meters":38800,"station_id":"ce4bgl12rcd13ifvqbo0","pricing_plan_id":"cebpf4jnsgd1na2vs0mg"},{"bike_id":"c5617e1c-6860-4039-a542-d0f55adcfca9","system_id":"levelo_inurba_marseille","lat":43.28693,"lon":5.38681,"is_reserved":false,"is_disabled":false,"rental_uris":{"android":"levelo://app?vid=c5617e1c-6860-4039-a542-d0f55adcfca9","ios":"levelo://app?vid=c5617e1c-6860-4039-a542-d0f55adcfca9"},"vehicle_type_id":"4","last_reported":1731776843,"current_range_meters":36000,"station_id":"ce4bh492rcd13ifvqdug","pricing_plan_id":"cebpf4jnsgd1na2vs0mg"},{"bike_id":"36891079-c574-4349-82b3-60a88c16b23e","system_id":"levelo_inurba_marseille","lat":43.28361,"lon":5.38631,"is_reserved":false,"is_disabled":false,"rental_uris":{"android":"levelo://app?vid=36891079-c574-4349-82b3-60a88c16b23e","ios":"levelo://app?vid=36891079-c574-4349-82b3-60a88c16b23e"},"vehicle_type_id":"4","last_reported":1731776843,"current_range_meters":38000,"station_id":"ce4bh492rcd13ifvqdvg","pricing_plan_id":"cebpf4jnsgd1na2vs0mg"},{"bike_id":"01455dab-09bc-4685-a6d2-51f7563a84a9","system_id":"levelo_inurba_marseille","lat":43.29267,"lon":5.38447,"is_reserved":false,"is_disabled":false,"rental_uris":{"android":"levelo://app?vid=01455dab-09bc-4685-a6d2-51f7563a84a9","ios":"levelo://app?vid=01455dab-09bc-4685-a6d2-51f7563a84a9"},"vehicle_type_id":"4","last_reported":1731776843,"current_range_meters":4400,"station_id":"ce4bh692rcd13ifvqea0","pricing_plan_id":"cebpf4jnsgd1na2vs0mg"},{"bike_id":"09cb9798-9ffd-4b95-9c1a-c7da8c3efec9","system_id":"levelo_inurba_marseille","lat":43.2707,"lon":5.42278,"is_reserved":false,"is_disabled":false,"rental_uris":{"android":"levelo://app?vid=09cb9798-9ffd-4b95-9c1a-c7da8c3efec9","ios":"levelo://app?vid=09cb9798-9ffd-4b95-9c1a-c7da8c3efec9"},"vehicle_type_id":"4","last_reported":1731776843,"current_range_meters":38800,"station_id":"ce4bhk92rcd13ifvqgb0","pricing_plan_id":"cebpf4jnsgd1na2vs0mg"},{"bike_id":"ac54a5d6-3db1-4981-8f47-59368d5d00e0","system_id":"levelo_inurba_marseille","lat":43.29811,"lon":5.38085,"is_reserved":false,"is_disabled":false,"rental_uris":{"android":"levelo://app?vid=ac54a5d6-3db1-4981-8f47-59368d5d00e0","ios":"levelo://app?vid=ac54a5d6-3db1-4981-8f47-59368d5d00e0"},"vehicle_type_id":"4","last_reported":1731776843,"current_range_meters":22400,"station_id":"ce4bgip2rcd13ifvqbb0","pricing_plan_id":"cebpf4jnsgd1na2vs0mg"},{"bike_id":"a14f0625-87c4-47f4-8223-b56140ca85d0","system_id":"levelo_inurba_marseille","lat":43.29036,"lon":5.39972,"is_reserved":false,"is_disabled":false,"rental_uris":{"android":"levelo://app?vid=a14f0625-87c4-47f4-8223-b56140ca85d0","ios":"levelo://app?vid=a14f0625-87c4-47f4-8223-b56140ca85d0"},"vehicle_type_id":"4","last_reported":1731776843,"current_range_meters":36400,"station_id":"ce4bh392rcd13ifvqdm0","pricing_plan_id":"cebpf4jnsgd1na2vs0mg"},{"bike_id":"12867844-fa2a-41b2-8d74-706d4ef15909","system_id":"levelo_inurba_marseille","lat":43.33766,"lon":5.37444,"is_reserved":false,"is_disabled":false,"rental_uris":{"android":"levelo://app?vid=12867844-fa2a-41b2-8d74-706d4ef15909","ios":"levelo://app?vid=12867844-fa2a-41b2-8d74-706d4ef15909"},"vehicle_type_id":"4","last_reported":1731776843,"current_range_meters":37600,"station_id":"","pricing_plan_id":"cebpf4jnsgd1na2vs0mg"},{"bike_id":"069db03c-4a8a-4285-b130-bded008b94ae","system_id":"levelo_inurba_marseille","lat":43.31695,"lon":5.37754,"is_reserved":false,"is_disabled":false,"rental_uris":{"android":"levelo://app?vid=069db03c-4a8a-4285-b130-bded008b94ae","ios":"levelo://app?vid=069db03c-4a8a-4285-b130-bded008b94ae"},"vehicle_type_id":"4","last_reported":1731776843,"current_range_meters":38400,"station_id":"ce4bgth2rcd13ifvqch0","pricing_plan_id":"cebpf4jnsgd1na2vs0mg"},{"bike_id":"936017ae-3835-4b0f-9a32-b054b3d2adb6","system_id":"levelo_inurba_marseille","lat":43.29864,"lon":5.39741,"is_reserved":false,"is_disabled":false,"rental_uris":{"android":"levelo://app?vid=936017ae-3835-4b0f-9a32-b054b3d2adb6","ios":"levelo://app?vid=936017ae-3835-4b0f-9a32-b054b3d2adb6"},"vehicle_type_id":"4","last_reported":1731776843,"current_range_meters":10000,"station_id":"ce4bh0h2rcd13ifvqd50","pricing_plan_id":"cebpf4jnsgd1na2vs0mg"},{"bike_id":"24ee06a8-44f8-4505-8641-4149f315c4fa","system_id":"levelo_inurba_marseille","lat":43.2926,"lon":5.38435,"is_reserved":false,"is_disabled":false,"rental_uris":{"android":"levelo://app?vid=24ee06a8-44f8-4505-8641-4149f315c4fa","ios":"levelo://app?vid=24ee06a8-44f8-4505-8641-4149f315c4fa"},"vehicle_type_id":"4","last_reported":1731776843,"current_range_meters":25600,"station_id":"ce4bh692rcd13ifvqea0","pricing_plan_id":"cebpf4jnsgd1na2vs0mg"},{"bike_id":"b9d77e4f-248c-4f1e-80c9-e1cff783ef95","system_id":"levelo_inurba_marseille","lat":43.29589,"lon":5.38087,"is_reserved":false,"is_disabled":false,"rental_uris":{"android":"levelo://app?vid=b9d77e4f-248c-4f1e-80c9-e1cff783ef95","ios":"levelo://app?vid=b9d77e4f-248c-4f1e-80c9-e1cff783ef95"},"vehicle_type_id":"4","last_reported":1731776843,"current_range_meters":39200,"station_id":"ce4bgl12rcd13ifvqbo0","pricing_plan_id":"cebpf4jnsgd1na2vs0mg"},{"bike_id":"321d2504-7fb8-4709-a3b2-03e3516dc3ef","system_id":"levelo_inurba_marseille","lat":43.26946,"lon":5.40246,"is_reserved":false,"is_disabled":false,"rental_uris":{"android":"levelo://app?vid=321d2504-7fb8-4709-a3b2-03e3516dc3ef","ios":"levelo://app?vid=321d2504-7fb8-4709-a3b2-03e3516dc3ef"},"vehicle_type_id":"4","last_reported":1731776843,"current_range_meters":38800,"station_id":"cjm6bp8fraef2m0cb0m0","pricing_plan_id":"cebpf4jnsgd1na2vs0mg"},{"bike_id":"bacf2516-3426-4024-8f40-ab0ef328f754","system_id":"levelo_inurba_marseille","lat":43.29792,"lon":5.38092,"is_reserved":false,"is_disabled":false,"rental_uris":{"android":"levelo://app?vid=bacf2516-3426-4024-8f40-ab0ef328f754","ios":"levelo://app?vid=bacf2516-3426-4024-8f40-ab0ef328f754"},"vehicle_type_id":"4","last_reported":1731776843,"current_range_meters":28800,"station_id":"ce4bgip2rcd13ifvqbb0","pricing_plan_id":"cebpf4jnsgd1na2vs0mg"},{"bike_id":"1d49c78b-0080-4012-ae77-ba6405c87e81","system_id":"levelo_inurba_marseille","lat":43.29622,"lon":5.37717,"is_reserved":false,"is_disabled":false,"rental_uris":{"android":"levelo://app?vid=1d49c78b-0080-4012-ae77-ba6405c87e81","ios":"levelo://app?vid=1d49c78b-0080-4012-ae77-ba6405c87e81"},"vehicle_type_id":"4","last_reported":1731776843,"current_range_meters":16400,"station_id":"ce4bgi92rcd13ifvqb90","pricing_plan_id":"cebpf4jnsgd1na2vs0mg"},{"bike_id":"89dddfc4-ec44-4327-b3aa-c350546d94f0","system_id":"levelo_inurba_marseille","lat":43.24814,"lon":5.3746,"is_reserved":false,"is_disabled":false,"rental_uris":{"android":"levelo://app?vid=89dddfc4-ec44-4327-b3aa-c350546d94f0","ios":"levelo://app?vid=89dddfc4-ec44-4327-b3aa-c350546d94f0"},"vehicle_type_id":"4","last_reported":1731776843,"current_range_meters":38800,"station_id":"ce4bhgh2rcd13ifvqfb0","pricing_plan_id":"cebpf4jnsgd1na2vs0mg"},{"bike_id":"b4f0c3a0-9b14-4375-8e12-6df631be02a7","system_id":"levelo_inurba_marseille","lat":43.27375,"lon":5.3625,"is_reserved":false,"is_disabled":false,"rental_uris":{"android":"levelo://app?vid=b4f0c3a0-9b14-4375-8e12-6df631be02a7","ios":"levelo://app?vid=b4f0c3a0-9b14-4375-8e12-6df631be02a7"},"vehicle_type_id":"4","last_reported":1731776843,"current_range_meters":38800,"station_id":"ce4bhbh2rcd13ifvqeo0","pricing_plan_id":"cebpf4jnsgd1na2vs0mg"},{"bike_id":"5d5505be-3a03-4d64-8ce2-797d9a3b3a5b","system_id":"levelo_inurba_marseille","lat":43.27814,"lon":5.40715,"is_reserved":false,"is_disabled":false,"rental_uris":{"android":"levelo://app?vid=5d5505be-3a03-4d64-8ce2-797d9a3b3a5b","ios":"levelo://app?vid=5d5505be-3a03-4d64-8ce2-797d9a3b3a5b"},"vehicle_type_id":"4","last_reported":1731776843,"current_range_meters":21600,"station_id":"ce4bhnh2rcd13ifvqgtg","pricing_plan_id":"cebpf4jnsgd1na2vs0mg"},{"bike_id":"6b76da8b-8346-4b5f-a49b-cdde5bffd08b","system_id":"levelo_inurba_marseille","lat":43.27819,"lon":5.40712,"is_reserved":false,"is_disabled":false,"rental_uris":{"android":"levelo://app?vid=6b76da8b-8346-4b5f-a49b-cdde5bffd08b","ios":"levelo://app?vid=6b76da8b-8346-4b5f-a49b-cdde5bffd08b"},"vehicle_type_id":"4","last_reported":1731776843,"current_range_meters":24800,"station_id":"ce4bhnh2rcd13ifvqgtg","pricing_plan_id":"cebpf4jnsgd1na2vs0mg"},{"bike_id":"d3ebdd2e-4a14-4ff5-9433-d20d390a5a41","system_id":"levelo_inurba_marseille","lat":43.29538,"lon":5.38548,"is_reserved":false,"is_disabled":false,"rental_uris":{"android":"levelo://app?vid=d3ebdd2e-4a14-4ff5-9433-d20d390a5a41","ios":"levelo://app?vid=d3ebdd2e-4a14-4ff5-9433-d20d390a5a41"},"vehicle_type_id":"4","last_reported":1731776843,"current_range_meters":30800,"station_id":"ce4bgih2rcd13ifvqba0","pricing_plan_id":"cebpf4jnsgd1na2vs0mg"},{"bike_id":"ad529116-1f14-4dd9-8f70-f734088ae4f5","system_id":"levelo_inurba_marseille","lat":43.29022,"lon":5.38645,"is_reserved":false,"is_disabled":false,"rental_uris":{"android":"levelo://app?vid=ad529116-1f14-4dd9-8f70-f734088ae4f5","ios":"levelo://app?vid=ad529116-1f14-4dd9-8f70-f734088ae4f5"},"vehicle_type_id":"4","last_reported":1731776843,"current_range_meters":7200,"station_id":"ce4bh4p2rcd13ifvqe0g","pricing_plan_id":"cebpf4jnsgd1na2vs0mg"},{"bike_id":"9750b0d3-76d3-45ae-83a9-165fea7815cd","system_id":"levelo_inurba_marseille","lat":43.3248,"lon":5.36566,"is_reserved":false,"is_disabled":false,"rental_uris":{"android":"levelo://app?vid=9750b0d3-76d3-45ae-83a9-165fea7815cd","ios":"levelo://app?vid=9750b0d3-76d3-45ae-83a9-165fea7815cd"},"vehicle_type_id":"4","last_reported":1731776843,"current_range_meters":30000,"station_id":"ce4bhs12rcd13ifvqhvg","pricing_plan_id":"cebpf4jnsgd1na2vs0mg"},{"bike_id":"21488289-f1b9-4bed-aa71-e20c48e54be3","system_id":"levelo_inurba_marseille","lat":43.29727,"lon":5.37671,"is_reserved":false,"is_disabled":false,"rental_uris":{"android":"levelo://app?vid=21488289-f1b9-4bed-aa71-e20c48e54be3","ios":"levelo://app?vid=21488289-f1b9-4bed-aa71-e20c48e54be3"},"vehicle_type_id":"4","last_reported":1731776843,"current_range_meters":22400,"station_id":"ce4bgkh2rcd13ifvqbl0","pricing_plan_id":"cebpf4jnsgd1na2vs0mg"},{"bike_id":"1ffffb37-f582-4f39-8f37-d15d6cbed8ed","system_id":"levelo_inurba_marseille","lat":43.27211,"lon":5.39184,"is_reserved":false,"is_disabled":false,"rental_uris":{"android":"levelo://app?vid=1ffffb37-f582-4f39-8f37-d15d6cbed8ed","ios":"levelo://app?vid=1ffffb37-f582-4f39-8f37-d15d6cbed8ed"},"vehicle_type_id":"4","last_reported":1731776843,"current_range_meters":13600,"station_id":"ce4bhhp2rcd13ifvqfm0","pricing_plan_id":"cebpf4jnsgd1na2vs0mg"},{"bike_id":"aade5a1a-3503-412d-9bd5-36cea7d38e22","system_id":"levelo_inurba_marseille","lat":43.25726,"lon":5.41108,"is_reserved":false,"is_disabled":false,"rental_uris":{"android":"levelo://app?vid=aade5a1a-3503-412d-9bd5-36cea7d38e22","ios":"levelo://app?vid=aade5a1a-3503-412d-9bd5-36cea7d38e22"},"vehicle_type_id":"4","last_reported":1731776843,"current_range_meters":9200,"station_id":"ce4bhkp2rcd13ifvqgd0","pricing_plan_id":"cebpf4jnsgd1na2vs0mg"},{"bike_id":"bf7d5811-6202-4e61-999c-8c2978242977","system_id":"levelo_inurba_marseille","lat":43.27499,"lon":5.42448,"is_reserved":false,"is_disabled":false,"rental_uris":{"android":"levelo://app?vid=bf7d5811-6202-4e61-999c-8c2978242977","ios":"levelo://app?vid=bf7d5811-6202-4e61-999c-8c2978242977"},"vehicle_type_id":"4","last_reported":1731776843,"current_range_meters":32400,"station_id":"ce4bhn92rcd13ifvqgrg","pricing_plan_id":"cebpf4jnsgd1na2vs0mg"},{"bike_id":"c241d30f-8712-424e-8d76-606de76383ff","system_id":"levelo_inurba_marseille","lat":43.29266,"lon":5.3844,"is_reserved":false,"is_disabled":false,"rental_uris":{"android":"levelo://app?vid=c241d30f-8712-424e-8d76-606de76383ff","ios":"levelo://app?vid=c241d30f-8712-424e-8d76-606de76383ff"},"vehicle_type_id":"4","last_reported":1731776843,"current_range_meters":9600,"station_id":"ce4bh692rcd13ifvqea0","pricing_plan_id":"cebpf4jnsgd1na2vs0mg"},{"bike_id":"3612eff4-4d29-4d4c-9bb0-46418db182c1","system_id":"levelo_inurba_marseille","lat":43.27563,"lon":5.38417,"is_reserved":false,"is_disabled":false,"rental_uris":{"android":"levelo://app?vid=3612eff4-4d29-4d4c-9bb0-46418db182c1","ios":"levelo://app?vid=3612eff4-4d29-4d4c-9bb0-46418db182c1"},"vehicle_type_id":"4","last_reported":1731776843,"current_range_meters":38800,"station_id":"ce4bhh92rcd13ifvqfi0","pricing_plan_id":"cebpf4jnsgd1na2vs0mg"},{"bike_id":"b72312a3-0c53-4c51-b2ac-82510a00c53e","system_id":"levelo_inurba_marseille","lat":43.28486,"lon":5.38555,"is_reserved":false,"is_disabled":false,"rental_uris":{"android":"levelo://app?vid=b72312a3-0c53-4c51-b2ac-82510a00c53e","ios":"levelo://app?vid=b72312a3-0c53-4c51-b2ac-82510a00c53e"},"vehicle_type_id":"4","last_reported":1731776843,"current_range_meters":35200,"station_id":"ce4bh8p2rcd13ifvqeb0","pricing_plan_id":"cebpf4jnsgd1na2vs0mg"},{"bike_id":"a6430338-1882-4285-afe1-80d83d3cc15b","system_id":"levelo_inurba_marseille","lat":43.32335,"lon":5.40623,"is_reserved":false,"is_disabled":false,"rental_uris":{"android":"levelo://app?vid=a6430338-1882-4285-afe1-80d83d3cc15b","ios":"levelo://app?vid=a6430338-1882-4285-afe1-80d83d3cc15b"},"vehicle_type_id":"4","last_reported":1731776843,"current_range_meters":34800,"station_id":"ce4bhq92rcd13ifvqhjg","pricing_plan_id":"cebpf4jnsgd1na2vs0mg"},{"bike_id":"7696d878-2f9d-47f7-8a4f-bdf6e30a9ea3","system_id":"levelo_inurba_marseille","lat":43.27563,"lon":5.38425,"is_reserved":false,"is_disabled":false,"rental_uris":{"android":"levelo://app?vid=7696d878-2f9d-47f7-8a4f-bdf6e30a9ea3","ios":"levelo://app?vid=7696d878-2f9d-47f7-8a4f-bdf6e30a9ea3"},"vehicle_type_id":"4","last_reported":1731776843,"current_range_meters":14000,"station_id":"ce4bhh92rcd13ifvqfi0","pricing_plan_id":"cebpf4jnsgd1na2vs0mg"},{"bike_id":"4d119bed-3e68-48aa-ba74-2a93c7e051bb","system_id":"levelo_inurba_marseille","lat":43.28289,"lon":5.396218,"is_reserved":false,"is_disabled":false,"rental_uris":{"android":"levelo://app?vid=4d119bed-3e68-48aa-ba74-2a93c7e051bb","ios":"levelo://app?vid=4d119bed-3e68-48aa-ba74-2a93c7e051bb"},"vehicle_type_id":"4","last_reported":1731776843,"current_range_meters":15200,"station_id":"ce4bho12rcd13ifvqh2g","pricing_plan_id":"cebpf4jnsgd1na2vs0mg"},{"bike_id":"d6029a07-4312-42af-9590-5c6b5c606e61","system_id":"levelo_inurba_marseille","lat":43.25577,"lon":5.38241,"is_reserved":false,"is_disabled":false,"rental_uris":{"android":"levelo://app?vid=d6029a07-4312-42af-9590-5c6b5c606e61","ios":"levelo://app?vid=d6029a07-4312-42af-9590-5c6b5c606e61"},"vehicle_type_id":"4","last_reported":1731776843,"current_range_meters":37600,"station_id":"ce4bhih2rcd13ifvqfs0","pricing_plan_id":"cebpf4jnsgd1na2vs0mg"},{"bike_id":"33edd4e2-b685-46cf-a0fa-b5e055113579","system_id":"levelo_inurba_marseille","lat":43.29589,"lon":5.36744,"is_reserved":false,"is_disabled":false,"rental_uris":{"android":"levelo://app?vid=33edd4e2-b685-46cf-a0fa-b5e055113579","ios":"levelo://app?vid=33edd4e2-b685-46cf-a0fa-b5e055113579"},"vehicle_type_id":"4","last_reported":1731776843,"current_range_meters":3600,"station_id":"ce4bgs12rcd13ifvqcag","pricing_plan_id":"cebpf4jnsgd1na2vs0mg"},{"bike_id":"8f47ed7e-b810-4ee4-91cc-435a588febd0","system_id":"levelo_inurba_marseille","lat":43.2756,"lon":5.3842,"is_reserved":false,"is_disabled":false,"rental_uris":{"android":"levelo://app?vid=8f47ed7e-b810-4ee4-91cc-435a588febd0","ios":"levelo://app?vid=8f47ed7e-b810-4ee4-91cc-435a588febd0"},"vehicle_type_id":"4","last_reported":1731776843,"current_range_meters":8400,"station_id":"ce4bhh92rcd13ifvqfi0","pricing_plan_id":"cebpf4jnsgd1na2vs0mg"},{"bike_id":"b4c2d912-7211-45c9-a9ba-2bb0e6add695","system_id":"levelo_inurba_marseille","lat":43.29963,"lon":5.38504,"is_reserved":false,"is_disabled":false,"rental_uris":{"android":"levelo://app?vid=b4c2d912-7211-45c9-a9ba-2bb0e6add695","ios":"levelo://app?vid=b4c2d912-7211-45c9-a9ba-2bb0e6add695"},"vehicle_type_id":"4","last_reported":1731776843,"current_range_meters":24000,"station_id":"ce4bgj92rcd13ifvqbd0","pricing_plan_id":"cebpf4jnsgd1na2vs0mg"},{"bike_id":"c26153b3-dabb-463a-97e2-9d3e34892dcc","system_id":"levelo_inurba_marseille","lat":43.33024,"lon":5.39049,"is_reserved":false,"is_disabled":false,"rental_uris":{"android":"levelo://app?vid=c26153b3-dabb-463a-97e2-9d3e34892dcc","ios":"levelo://app?vid=c26153b3-dabb-463a-97e2-9d3e34892dcc"},"vehicle_type_id":"4","last_reported":1731776843,"current_range_meters":27600,"station_id":"ce4bhr92rcd13ifvqhrg","pricing_plan_id":"cebpf4jnsgd1na2vs0mg"},{"bike_id":"420ac8e3-d580-4bcb-8ba4-48738772d9f0","system_id":"levelo_inurba_marseille","lat":43.23064,"lon":5.35494,"is_reserved":false,"is_disabled":false,"rental_uris":{"android":"levelo://app?vid=420ac8e3-d580-4bcb-8ba4-48738772d9f0","ios":"levelo://app?vid=420ac8e3-d580-4bcb-8ba4-48738772d9f0"},"vehicle_type_id":"4","last_reported":1731776843,"current_range_meters":38800,"station_id":"cpo3342slgdg3j2ifvpg","pricing_plan_id":"cebpf4jnsgd1na2vs0mg"},{"bike_id":"d54f2dfa-2ad2-469a-8720-163ef98eb87d","system_id":"levelo_inurba_marseille","lat":43.25101,"lon":5.39513,"is_reserved":false,"is_disabled":false,"rental_uris":{"android":"levelo://app?vid=d54f2dfa-2ad2-469a-8720-163ef98eb87d","ios":"levelo://app?vid=d54f2dfa-2ad2-469a-8720-163ef98eb87d"},"vehicle_type_id":"4","last_reported":1731776843,"current_range_meters":22800,"station_id":"ce4bhm12rcd13ifvqgkg","pricing_plan_id":"cebpf4jnsgd1na2vs0mg"},{"bike_id":"00b4a5b7-035c-4d8a-ad01-ee17bcb73f79","system_id":"levelo_inurba_marseille","lat":43.31703,"lon":5.37755,"is_reserved":false,"is_disabled":false,"rental_uris":{"android":"levelo://app?vid=00b4a5b7-035c-4d8a-ad01-ee17bcb73f79","ios":"levelo://app?vid=00b4a5b7-035c-4d8a-ad01-ee17bcb73f79"},"vehicle_type_id":"4","last_reported":1731776843,"current_range_meters":16000,"station_id":"ce4bgth2rcd13ifvqch0","pricing_plan_id":"cebpf4jnsgd1na2vs0mg"},{"bike_id":"b02c36ba-0659-4ccd-8e4a-228122f495fd","system_id":"levelo_inurba_marseille","lat":43.31073,"lon":5.42438,"is_reserved":false,"is_disabled":false,"rental_uris":{"android":"levelo://app?vid=b02c36ba-0659-4ccd-8e4a-228122f495fd","ios":"levelo://app?vid=b02c36ba-0659-4ccd-8e4a-228122f495fd"},"vehicle_type_id":"4","last_reported":1731776843,"current_range_meters":16400,"station_id":"ce4bhp92rcd13ifvqhag","pricing_plan_id":"cebpf4jnsgd1na2vs0mg"},{"bike_id":"6d757fef-4f26-43f9-ac2c-ffab39bf7dae","system_id":"levelo_inurba_marseille","lat":43.32249,"lon":5.36901,"is_reserved":false,"is_disabled":false,"rental_uris":{"android":"levelo://app?vid=6d757fef-4f26-43f9-ac2c-ffab39bf7dae","ios":"levelo://app?vid=6d757fef-4f26-43f9-ac2c-ffab39bf7dae"},"vehicle_type_id":"4","last_reported":1731776843,"current_range_meters":19200,"station_id":"","pricing_plan_id":"cebpf4jnsgd1na2vs0mg"},{"bike_id":"245625cb-28d3-4546-9a0e-6bee225a6e8b","system_id":"levelo_inurba_marseille","lat":43.29553,"lon":5.42285,"is_reserved":false,"is_disabled":false,"rental_uris":{"android":"levelo://app?vid=245625cb-28d3-4546-9a0e-6bee225a6e8b","ios":"levelo://app?vid=245625cb-28d3-4546-9a0e-6bee225a6e8b"},"vehicle_type_id":"4","last_reported":1731776843,"current_range_meters":37600,"station_id":"ce4bhph2rcd13ifvqhdg","pricing_plan_id":"cebpf4jnsgd1na2vs0mg"},{"bike_id":"20f1830f-98c4-40f6-8bdc-f6986cdfa638","system_id":"levelo_inurba_marseille","lat":43.30431,"lon":5.36751,"is_reserved":false,"is_disabled":false,"rental_uris":{"android":"levelo://app?vid=20f1830f-98c4-40f6-8bdc-f6986cdfa638","ios":"levelo://app?vid=20f1830f-98c4-40f6-8bdc-f6986cdfa638"},"vehicle_type_id":"4","last_reported":1731776843,"current_range_meters":36000,"station_id":"","pricing_plan_id":"cebpf4jnsgd1na2vs0mg"},{"bike_id":"25fa1bce-a871-45b5-938d-08e3402ae84a","system_id":"levelo_inurba_marseille","lat":43.28442,"lon":5.39191,"is_reserved":false,"is_disabled":false,"rental_uris":{"android":"levelo://app?vid=25fa1bce-a871-45b5-938d-08e3402ae84a","ios":"levelo://app?vid=25fa1bce-a871-45b5-938d-08e3402ae84a"},"vehicle_type_id":"4","last_reported":1731776843,"current_range_meters":39200,"station_id":"ce4bhoh2rcd13ifvqh5g","pricing_plan_id":"cebpf4jnsgd1na2vs0mg"},{"bike_id":"803c029e-c99c-4697-91ed-abb51c1dcb80","system_id":"levelo_inurba_marseille","lat":43.30535,"lon":5.36558,"is_reserved":false,"is_disabled":false,"rental_uris":{"android":"levelo://app?vid=803c029e-c99c-4697-91ed-abb51c1dcb80","ios":"levelo://app?vid=803c029e-c99c-4697-91ed-abb51c1dcb80"},"vehicle_type_id":"4","last_reported":1731776843,"current_range_meters":27200,"station_id":"ce4bgs12rcd13ifvqcag","pricing_plan_id":"cebpf4jnsgd1na2vs0mg"},{"bike_id":"8189fb6c-b4e6-4556-ac2e-641f318b9d23","system_id":"levelo_inurba_marseille","lat":43.27556,"lon":5.38421,"is_reserved":false,"is_disabled":false,"rental_uris":{"android":"levelo://app?vid=8189fb6c-b4e6-4556-ac2e-641f318b9d23","ios":"levelo://app?vid=8189fb6c-b4e6-4556-ac2e-641f318b9d23"},"vehicle_type_id":"4","last_reported":1731776843,"current_range_meters":18000,"station_id":"ce4bhh92rcd13ifvqfi0","pricing_plan_id":"cebpf4jnsgd1na2vs0mg"},{"bike_id":"3ffc9856-e732-4645-bd19-3a4e8b0838d3","system_id":"levelo_inurba_marseille","lat":43.27421,"lon":5.39409,"is_reserved":false,"is_disabled":false,"rental_uris":{"android":"levelo://app?vid=3ffc9856-e732-4645-bd19-3a4e8b0838d3","ios":"levelo://app?vid=3ffc9856-e732-4645-bd19-3a4e8b0838d3"},"vehicle_type_id":"4","last_reported":1731776843,"current_range_meters":28400,"station_id":"ce4bhdp2rcd13ifvqf20","pricing_plan_id":"cebpf4jnsgd1na2vs0mg"},{"bike_id":"e3fac357-c81d-45d0-ab82-a4c83cd7db82","system_id":"levelo_inurba_marseille","lat":43.30187,"lon":5.36629,"is_reserved":false,"is_disabled":false,"rental_uris":{"android":"levelo://app?vid=e3fac357-c81d-45d0-ab82-a4c83cd7db82","ios":"levelo://app?vid=e3fac357-c81d-45d0-ab82-a4c83cd7db82"},"vehicle_type_id":"4","last_reported":1731776843,"current_range_meters":16800,"station_id":"ce4bgrh2rcd13ifvqc8g","pricing_plan_id":"cebpf4jnsgd1na2vs0mg"},{"bike_id":"3cb028b2-e9b4-4b5d-869e-e3723400af16","system_id":"levelo_inurba_marseille","lat":43.33024,"lon":5.39042,"is_reserved":false,"is_disabled":false,"rental_uris":{"android":"levelo://app?vid=3cb028b2-e9b4-4b5d-869e-e3723400af16","ios":"levelo://app?vid=3cb028b2-e9b4-4b5d-869e-e3723400af16"},"vehicle_type_id":"4","last_reported":1731776843,"current_range_meters":36800,"station_id":"ce4bhr92rcd13ifvqhrg","pricing_plan_id":"cebpf4jnsgd1na2vs0mg"},{"bike_id":"13757e41-af62-4131-bce3-0019547b974e","system_id":"levelo_inurba_marseille","lat":43.298889,"lon":5.388933,"is_reserved":false,"is_disabled":false,"rental_uris":{"android":"levelo://app?vid=13757e41-af62-4131-bce3-0019547b974e","ios":"levelo://app?vid=13757e41-af62-4131-bce3-0019547b974e"},"vehicle_type_id":"4","last_reported":1731776843,"current_range_meters":9200,"station_id":"ce4bh392rcd13ifvqdl0","pricing_plan_id":"cebpf4jnsgd1na2vs0mg"},{"bike_id":"7ba5e855-e8c2-4897-bbd9-9dbd81a5d119","system_id":"levelo_inurba_marseille","lat":43.30417,"lon":5.41274,"is_reserved":false,"is_disabled":false,"rental_uris":{"android":"levelo://app?vid=7ba5e855-e8c2-4897-bbd9-9dbd81a5d119","ios":"levelo://app?vid=7ba5e855-e8c2-4897-bbd9-9dbd81a5d119"},"vehicle_type_id":"4","last_reported":1731776843,"current_range_meters":27200,"station_id":"ce4bhop2rcd13ifvqh8g","pricing_plan_id":"cebpf4jnsgd1na2vs0mg"},{"bike_id":"989ffbae-3cbe-46b5-920d-3a4a5e2689b8","system_id":"levelo_inurba_marseille","lat":43.27608,"lon":5.3611,"is_reserved":false,"is_disabled":false,"rental_uris":{"android":"levelo://app?vid=989ffbae-3cbe-46b5-920d-3a4a5e2689b8","ios":"levelo://app?vid=989ffbae-3cbe-46b5-920d-3a4a5e2689b8"},"vehicle_type_id":"4","last_reported":1731776843,"current_range_meters":34000,"station_id":"ce4bgj92rcd13ifvqbe0","pricing_plan_id":"cebpf4jnsgd1na2vs0mg"},{"bike_id":"a4e8e96c-867e-4521-9861-087b3f6c78bd","system_id":"levelo_inurba_marseille","lat":43.24989,"lon":5.38926,"is_reserved":false,"is_disabled":false,"rental_uris":{"android":"levelo://app?vid=a4e8e96c-867e-4521-9861-087b3f6c78bd","ios":"levelo://app?vid=a4e8e96c-867e-4521-9861-087b3f6c78bd"},"vehicle_type_id":"4","last_reported":1731776843,"current_range_meters":38800,"station_id":"ce4bhgp2rcd13ifvqfd0","pricing_plan_id":"cebpf4jnsgd1na2vs0mg"},{"bike_id":"dcbf46d4-3a96-4091-b51c-f597848c3f90","system_id":"levelo_inurba_marseille","lat":43.27182,"lon":5.40991,"is_reserved":false,"is_disabled":false,"rental_uris":{"android":"levelo://app?vid=dcbf46d4-3a96-4091-b51c-f597848c3f90","ios":"levelo://app?vid=dcbf46d4-3a96-4091-b51c-f597848c3f90"},"vehicle_type_id":"4","last_reported":1731776843,"current_range_meters":38000,"station_id":"ce4bhl12rcd13ifvqgf0","pricing_plan_id":"cebpf4jnsgd1na2vs0mg"},{"bike_id":"13d3793f-04d6-4489-a34b-6ad9b072d82b","system_id":"levelo_inurba_marseille","lat":43.25725,"lon":5.4111,"is_reserved":false,"is_disabled":false,"rental_uris":{"android":"levelo://app?vid=13d3793f-04d6-4489-a34b-6ad9b072d82b","ios":"levelo://app?vid=13d3793f-04d6-4489-a34b-6ad9b072d82b"},"vehicle_type_id":"4","last_reported":1731776843,"current_range_meters":8000,"station_id":"ce4bhkp2rcd13ifvqgd0","pricing_plan_id":"cebpf4jnsgd1na2vs0mg"},{"bike_id":"9b99e18b-1cfb-49eb-9130-93a7c80e7907","system_id":"levelo_inurba_marseille","lat":43.24999,"lon":5.3893,"is_reserved":false,"is_disabled":false,"rental_uris":{"android":"levelo://app?vid=9b99e18b-1cfb-49eb-9130-93a7c80e7907","ios":"levelo://app?vid=9b99e18b-1cfb-49eb-9130-93a7c80e7907"},"vehicle_type_id":"4","last_reported":1731776843,"current_range_meters":38800,"station_id":"ce4bhgp2rcd13ifvqfd0","pricing_plan_id":"cebpf4jnsgd1na2vs0mg"},{"bike_id":"8bb62f2a-1df2-48c6-98d4-2b533eaf1da9","system_id":"levelo_inurba_marseille","lat":43.26063,"lon":5.39395,"is_reserved":false,"is_disabled":false,"rental_uris":{"android":"levelo://app?vid=8bb62f2a-1df2-48c6-98d4-2b533eaf1da9","ios":"levelo://app?vid=8bb62f2a-1df2-48c6-98d4-2b533eaf1da9"},"vehicle_type_id":"4","last_reported":1731776843,"current_range_meters":29600,"station_id":"ce4bhh92rcd13ifvqfj0","pricing_plan_id":"cebpf4jnsgd1na2vs0mg"},{"bike_id":"46bb2ab9-1476-4c99-8279-5d6f26cdb308","system_id":"levelo_inurba_marseille","lat":43.29898,"lon":5.38134,"is_reserved":false,"is_disabled":false,"rental_uris":{"android":"levelo://app?vid=46bb2ab9-1476-4c99-8279-5d6f26cdb308","ios":"levelo://app?vid=46bb2ab9-1476-4c99-8279-5d6f26cdb308"},"vehicle_type_id":"4","last_reported":1731776843,"current_range_meters":12000,"station_id":"ce4bgj12rcd13ifvqbc0","pricing_plan_id":"cebpf4jnsgd1na2vs0mg"},{"bike_id":"3a7c17b5-4cc0-4e80-a2a0-63aac47d0134","system_id":"levelo_inurba_marseille","lat":43.29527,"lon":5.38542,"is_reserved":false,"is_disabled":false,"rental_uris":{"android":"levelo://app?vid=3a7c17b5-4cc0-4e80-a2a0-63aac47d0134","ios":"levelo://app?vid=3a7c17b5-4cc0-4e80-a2a0-63aac47d0134"},"vehicle_type_id":"4","last_reported":1731776843,"current_range_meters":37600,"station_id":"ce4bgih2rcd13ifvqba0","pricing_plan_id":"cebpf4jnsgd1na2vs0mg"},{"bike_id":"55de28cf-e37c-4724-b81f-8a648780c5b9","system_id":"levelo_inurba_marseille","lat":43.231948,"lon":5.355546,"is_reserved":false,"is_disabled":false,"rental_uris":{"android":"levelo://app?vid=55de28cf-e37c-4724-b81f-8a648780c5b9","ios":"levelo://app?vid=55de28cf-e37c-4724-b81f-8a648780c5b9"},"vehicle_type_id":"4","last_reported":1731776843,"current_range_meters":19200,"station_id":"ce4bhu92rcd13ifvqi70","pricing_plan_id":"cebpf4jnsgd1na2vs0mg"},{"bike_id":"9f900b2c-2d1b-474f-bfc9-5b2995097c0a","system_id":"levelo_inurba_marseille","lat":43.25087,"lon":5.39516,"is_reserved":false,"is_disabled":false,"rental_uris":{"android":"levelo://app?vid=9f900b2c-2d1b-474f-bfc9-5b2995097c0a","ios":"levelo://app?vid=9f900b2c-2d1b-474f-bfc9-5b2995097c0a"},"vehicle_type_id":"4","last_reported":1731776843,"current_range_meters":16400,"station_id":"ce4bhm12rcd13ifvqgkg","pricing_plan_id":"cebpf4jnsgd1na2vs0mg"},{"bike_id":"53ac428d-5032-4122-a40e-bee4a2b7f9c2","system_id":"levelo_inurba_marseille","lat":43.29899,"lon":5.38139,"is_reserved":false,"is_disabled":false,"rental_uris":{"android":"levelo://app?vid=53ac428d-5032-4122-a40e-bee4a2b7f9c2","ios":"levelo://app?vid=53ac428d-5032-4122-a40e-bee4a2b7f9c2"},"vehicle_type_id":"4","last_reported":1731776843,"current_range_meters":17600,"station_id":"ce4bgj12rcd13ifvqbc0","pricing_plan_id":"cebpf4jnsgd1na2vs0mg"},{"bike_id":"eb9a84f5-6092-4dc4-a3c0-a07efb437c77","system_id":"levelo_inurba_marseille","lat":43.3376,"lon":5.37412,"is_reserved":false,"is_disabled":false,"rental_uris":{"android":"levelo://app?vid=eb9a84f5-6092-4dc4-a3c0-a07efb437c77","ios":"levelo://app?vid=eb9a84f5-6092-4dc4-a3c0-a07efb437c77"},"vehicle_type_id":"4","last_reported":1731776843,"current_range_meters":10000,"station_id":"","pricing_plan_id":"cebpf4jnsgd1na2vs0mg"},{"bike_id":"417133a1-2200-4403-9da9-4790bc5cc00a","system_id":"levelo_inurba_marseille","lat":43.24181,"lon":5.39727,"is_reserved":false,"is_disabled":false,"rental_uris":{"android":"levelo://app?vid=417133a1-2200-4403-9da9-4790bc5cc00a","ios":"levelo://app?vid=417133a1-2200-4403-9da9-4790bc5cc00a"},"vehicle_type_id":"4","last_reported":1731776843,"current_range_meters":23200,"station_id":"ce4bhn12rcd13ifvqgpg","pricing_plan_id":"cebpf4jnsgd1na2vs0mg"},{"bike_id":"22ea48db-755d-43c3-a7d2-0beff01815d8","system_id":"levelo_inurba_marseille","lat":43.33767,"lon":5.3744,"is_reserved":false,"is_disabled":false,"rental_uris":{"android":"levelo://app?vid=22ea48db-755d-43c3-a7d2-0beff01815d8","ios":"levelo://app?vid=22ea48db-755d-43c3-a7d2-0beff01815d8"},"vehicle_type_id":"4","last_reported":1731776843,"current_range_meters":13600,"station_id":"","pricing_plan_id":"cebpf4jnsgd1na2vs0mg"},{"bike_id":"c25868a7-742b-4928-b5ff-81e2b1e66774","system_id":"levelo_inurba_marseille","lat":43.30535,"lon":5.3657,"is_reserved":false,"is_disabled":false,"rental_uris":{"android":"levelo://app?vid=c25868a7-742b-4928-b5ff-81e2b1e66774","ios":"levelo://app?vid=c25868a7-742b-4928-b5ff-81e2b1e66774"},"vehicle_type_id":"4","last_reported":1731776843,"current_range_meters":22000,"station_id":"ce4bgs12rcd13ifvqcag","pricing_plan_id":"cebpf4jnsgd1na2vs0mg"},{"bike_id":"ef094887-f471-495f-9178-827cc8194c7f","system_id":"levelo_inurba_marseille","lat":43.32482,"lon":5.36568,"is_reserved":false,"is_disabled":false,"rental_uris":{"android":"levelo://app?vid=ef094887-f471-495f-9178-827cc8194c7f","ios":"levelo://app?vid=ef094887-f471-495f-9178-827cc8194c7f"},"vehicle_type_id":"4","last_reported":1731776843,"current_range_meters":18000,"station_id":"ce4bhs12rcd13ifvqhvg","pricing_plan_id":"cebpf4jnsgd1na2vs0mg"},{"bike_id":"a1862017-f597-4949-a306-4d7c53cc8b86","system_id":"levelo_inurba_marseille","lat":43.241699,"lon":5.36403,"is_reserved":false,"is_disabled":false,"rental_uris":{"android":"levelo://app?vid=a1862017-f597-4949-a306-4d7c53cc8b86","ios":"levelo://app?vid=a1862017-f597-4949-a306-4d7c53cc8b86"},"vehicle_type_id":"4","last_reported":1731776843,"current_range_meters":19200,"station_id":"cpo36qri1sfpv3e86is0","pricing_plan_id":"cebpf4jnsgd1na2vs0mg"},{"bike_id":"93d2376b-d24b-4c4a-bf7c-d9d7da5c25f0","system_id":"levelo_inurba_marseille","lat":43.23055,"lon":5.35493,"is_reserved":false,"is_disabled":false,"rental_uris":{"android":"levelo://app?vid=93d2376b-d24b-4c4a-bf7c-d9d7da5c25f0","ios":"levelo://app?vid=93d2376b-d24b-4c4a-bf7c-d9d7da5c25f0"},"vehicle_type_id":"4","last_reported":1731776843,"current_range_meters":15200,"station_id":"cpo3342slgdg3j2ifvpg","pricing_plan_id":"cebpf4jnsgd1na2vs0mg"},{"bike_id":"2960b544-210f-4048-ab5c-a4d2be5ded03","system_id":"levelo_inurba_marseille","lat":43.25826,"lon":5.39426,"is_reserved":false,"is_disabled":false,"rental_uris":{"android":"levelo://app?vid=2960b544-210f-4048-ab5c-a4d2be5ded03","ios":"levelo://app?vid=2960b544-210f-4048-ab5c-a4d2be5ded03"},"vehicle_type_id":"4","last_reported":1731776843,"current_range_meters":25600,"station_id":"ce4bhip2rcd13ifvqft0","pricing_plan_id":"cebpf4jnsgd1na2vs0mg"},{"bike_id":"eb0b6258-25b5-4174-825d-16bccd206154","system_id":"levelo_inurba_marseille","lat":43.33029,"lon":5.39045,"is_reserved":false,"is_disabled":false,"rental_uris":{"android":"levelo://app?vid=eb0b6258-25b5-4174-825d-16bccd206154","ios":"levelo://app?vid=eb0b6258-25b5-4174-825d-16bccd206154"},"vehicle_type_id":"4","last_reported":1731776843,"current_range_meters":8800,"station_id":"ce4bhr92rcd13ifvqhrg","pricing_plan_id":"cebpf4jnsgd1na2vs0mg"},{"bike_id":"ca655f3b-8380-4045-b3f8-8acaa0e83ede","system_id":"levelo_inurba_marseille","lat":43.33739,"lon":5.37423,"is_reserved":false,"is_disabled":false,"rental_uris":{"android":"levelo://app?vid=ca655f3b-8380-4045-b3f8-8acaa0e83ede","ios":"levelo://app?vid=ca655f3b-8380-4045-b3f8-8acaa0e83ede"},"vehicle_type_id":"4","last_reported":1731776843,"current_range_meters":36400,"station_id":"","pricing_plan_id":"cebpf4jnsgd1na2vs0mg"},{"bike_id":"2b31594e-d9b2-4366-95f5-4092b1cf7e51","system_id":"levelo_inurba_marseille","lat":43.28409,"lon":5.37519,"is_reserved":false,"is_disabled":false,"rental_uris":{"android":"levelo://app?vid=2b31594e-d9b2-4366-95f5-4092b1cf7e51","ios":"levelo://app?vid=2b31594e-d9b2-4366-95f5-4092b1cf7e51"},"vehicle_type_id":"4","last_reported":1731776843,"current_range_meters":6800,"station_id":"ce4bh412rcd13ifvqds0","pricing_plan_id":"cebpf4jnsgd1na2vs0mg"},{"bike_id":"3bec9701-1266-4cd8-9789-f238163e8695","system_id":"levelo_inurba_marseille","lat":43.32475,"lon":5.36561,"is_reserved":false,"is_disabled":false,"rental_uris":{"android":"levelo://app?vid=3bec9701-1266-4cd8-9789-f238163e8695","ios":"levelo://app?vid=3bec9701-1266-4cd8-9789-f238163e8695"},"vehicle_type_id":"4","last_reported":1731776843,"current_range_meters":38800,"station_id":"ce4bhs12rcd13ifvqhvg","pricing_plan_id":"cebpf4jnsgd1na2vs0mg"},{"bike_id":"a6b8c285-acc9-4039-9531-1aae39136a33","system_id":"levelo_inurba_marseille","lat":43.312042,"lon":5.367348,"is_reserved":false,"is_disabled":false,"rental_uris":{"android":"levelo://app?vid=a6b8c285-acc9-4039-9531-1aae39136a33","ios":"levelo://app?vid=a6b8c285-acc9-4039-9531-1aae39136a33"},"vehicle_type_id":"4","last_reported":1731776843,"current_range_meters":14000,"station_id":"","pricing_plan_id":"cebpf4jnsgd1na2vs0mg"},{"bike_id":"9bcfed07-c3a6-4c68-8e2e-1c76df283863","system_id":"levelo_inurba_marseille","lat":43.24807,"lon":5.37463,"is_reserved":false,"is_disabled":false,"rental_uris":{"android":"levelo://app?vid=9bcfed07-c3a6-4c68-8e2e-1c76df283863","ios":"levelo://app?vid=9bcfed07-c3a6-4c68-8e2e-1c76df283863"},"vehicle_type_id":"4","last_reported":1731776843,"current_range_meters":28400,"station_id":"ce4bhgh2rcd13ifvqfb0","pricing_plan_id":"cebpf4jnsgd1na2vs0mg"},{"bike_id":"5c254126-8805-4ed8-9520-9f63561143b3","system_id":"levelo_inurba_marseille","lat":43.24167,"lon":5.36401,"is_reserved":false,"is_disabled":false,"rental_uris":{"android":"levelo://app?vid=5c254126-8805-4ed8-9520-9f63561143b3","ios":"levelo://app?vid=5c254126-8805-4ed8-9520-9f63561143b3"},"vehicle_type_id":"4","last_reported":1731776843,"current_range_meters":20000,"station_id":"cpo36qri1sfpv3e86is0","pricing_plan_id":"cebpf4jnsgd1na2vs0mg"},{"bike_id":"a3f1e287-215b-4b07-ac30-26e9ae759a72","system_id":"levelo_inurba_marseille","lat":43.292969,"lon":5.374664,"is_reserved":false,"is_disabled":false,"rental_uris":{"android":"levelo://app?vid=a3f1e287-215b-4b07-ac30-26e9ae759a72","ios":"levelo://app?vid=a3f1e287-215b-4b07-ac30-26e9ae759a72"},"vehicle_type_id":"4","last_reported":1731776843,"current_range_meters":4000,"station_id":"ce4bgi12rcd13ifvqb70","pricing_plan_id":"cebpf4jnsgd1na2vs0mg"},{"bike_id":"b20c2f60-9544-4da8-84fe-236810634080","system_id":"levelo_inurba_marseille","lat":43.25001,"lon":5.38924,"is_reserved":false,"is_disabled":false,"rental_uris":{"android":"levelo://app?vid=b20c2f60-9544-4da8-84fe-236810634080","ios":"levelo://app?vid=b20c2f60-9544-4da8-84fe-236810634080"},"vehicle_type_id":"4","last_reported":1731776843,"current_range_meters":28000,"station_id":"ce4bhgp2rcd13ifvqfd0","pricing_plan_id":"cebpf4jnsgd1na2vs0mg"},{"bike_id":"0a93cdb1-c760-47f2-a904-90aa456f68c2","system_id":"levelo_inurba_marseille","lat":43.26806,"lon":5.40274,"is_reserved":false,"is_disabled":false,"rental_uris":{"android":"levelo://app?vid=0a93cdb1-c760-47f2-a904-90aa456f68c2","ios":"levelo://app?vid=0a93cdb1-c760-47f2-a904-90aa456f68c2"},"vehicle_type_id":"4","last_reported":1731776843,"current_range_meters":34000,"station_id":"ce501612rcd8frsf0b60","pricing_plan_id":"cebpf4jnsgd1na2vs0mg"},{"bike_id":"8f4f2a0d-a993-4b7b-b474-4526cc1dc035","system_id":"levelo_inurba_marseille","lat":43.29629,"lon":5.40603,"is_reserved":false,"is_disabled":false,"rental_uris":{"android":"levelo://app?vid=8f4f2a0d-a993-4b7b-b474-4526cc1dc035","ios":"levelo://app?vid=8f4f2a0d-a993-4b7b-b474-4526cc1dc035"},"vehicle_type_id":"4","last_reported":1731776843,"current_range_meters":38000,"station_id":"ce4bh0h2rcd13ifvqd60","pricing_plan_id":"cebpf4jnsgd1na2vs0mg"},{"bike_id":"921145db-4dbf-4c6a-983c-8370f2e4239c","system_id":"levelo_inurba_marseille","lat":43.29915,"lon":5.38138,"is_reserved":false,"is_disabled":false,"rental_uris":{"android":"levelo://app?vid=921145db-4dbf-4c6a-983c-8370f2e4239c","ios":"levelo://app?vid=921145db-4dbf-4c6a-983c-8370f2e4239c"},"vehicle_type_id":"4","last_reported":1731776843,"current_range_meters":25200,"station_id":"ce4bgj12rcd13ifvqbc0","pricing_plan_id":"cebpf4jnsgd1na2vs0mg"},{"bike_id":"776c19bb-9271-4d1b-b450-71b28ade05f5","system_id":"levelo_inurba_marseille","lat":43.2319,"lon":5.35557,"is_reserved":false,"is_disabled":false,"rental_uris":{"android":"levelo://app?vid=776c19bb-9271-4d1b-b450-71b28ade05f5","ios":"levelo://app?vid=776c19bb-9271-4d1b-b450-71b28ade05f5"},"vehicle_type_id":"4","last_reported":1731776843,"current_range_meters":38800,"station_id":"ce4bhu92rcd13ifvqi70","pricing_plan_id":"cebpf4jnsgd1na2vs0mg"},{"bike_id":"3731846e-2218-45f1-ac96-76a41185ff9d","system_id":"levelo_inurba_marseille","lat":43.24171,"lon":5.36405,"is_reserved":false,"is_disabled":false,"rental_uris":{"android":"levelo://app?vid=3731846e-2218-45f1-ac96-76a41185ff9d","ios":"levelo://app?vid=3731846e-2218-45f1-ac96-76a41185ff9d"},"vehicle_type_id":"4","last_reported":1731776843,"current_range_meters":39200,"station_id":"cpo36qri1sfpv3e86is0","pricing_plan_id":"cebpf4jnsgd1na2vs0mg"},{"bike_id":"a9cacc61-27b6-4f70-8b62-38e7566b3b93","system_id":"levelo_inurba_marseille","lat":43.30359,"lon":5.41884,"is_reserved":false,"is_disabled":false,"rental_uris":{"android":"levelo://app?vid=a9cacc61-27b6-4f70-8b62-38e7566b3b93","ios":"levelo://app?vid=a9cacc61-27b6-4f70-8b62-38e7566b3b93"},"vehicle_type_id":"4","last_reported":1731776843,"current_range_meters":16000,"station_id":"ce4bhop2rcd13ifvqh7g","pricing_plan_id":"cebpf4jnsgd1na2vs0mg"},{"bike_id":"b497c4c1-47c5-46df-89b4-3a0f01d4aeca","system_id":"levelo_inurba_marseille","lat":43.32109,"lon":5.36772,"is_reserved":false,"is_disabled":false,"rental_uris":{"android":"levelo://app?vid=b497c4c1-47c5-46df-89b4-3a0f01d4aeca","ios":"levelo://app?vid=b497c4c1-47c5-46df-89b4-3a0f01d4aeca"},"vehicle_type_id":"4","last_reported":1731776843,"current_range_meters":28000,"station_id":"ce4bhrh2rcd13ifvqhug","pricing_plan_id":"cebpf4jnsgd1na2vs0mg"},{"bike_id":"92ac4858-87d6-4ceb-8f6e-004635a816a8","system_id":"levelo_inurba_marseille","lat":43.27792,"lon":5.40724,"is_reserved":false,"is_disabled":false,"rental_uris":{"android":"levelo://app?vid=92ac4858-87d6-4ceb-8f6e-004635a816a8","ios":"levelo://app?vid=92ac4858-87d6-4ceb-8f6e-004635a816a8"},"vehicle_type_id":"4","last_reported":1731776843,"current_range_meters":30800,"station_id":"ce4bhnh2rcd13ifvqgtg","pricing_plan_id":"cebpf4jnsgd1na2vs0mg"},{"bike_id":"5837896b-5dca-4d49-b05e-cc1583710155","system_id":"levelo_inurba_marseille","lat":43.24994,"lon":5.38932,"is_reserved":false,"is_disabled":false,"rental_uris":{"android":"levelo://app?vid=5837896b-5dca-4d49-b05e-cc1583710155","ios":"levelo://app?vid=5837896b-5dca-4d49-b05e-cc1583710155"},"vehicle_type_id":"4","last_reported":1731776843,"current_range_meters":36000,"station_id":"ce4bhgp2rcd13ifvqfd0","pricing_plan_id":"cebpf4jnsgd1na2vs0mg"},{"bike_id":"41b56539-4f7d-46d8-9fa9-3498d0d1f67f","system_id":"levelo_inurba_marseille","lat":43.24171,"lon":5.36402,"is_reserved":false,"is_disabled":false,"rental_uris":{"android":"levelo://app?vid=41b56539-4f7d-46d8-9fa9-3498d0d1f67f","ios":"levelo://app?vid=41b56539-4f7d-46d8-9fa9-3498d0d1f67f"},"vehicle_type_id":"4","last_reported":1731776843,"current_range_meters":19200,"station_id":"cpo36qri1sfpv3e86is0","pricing_plan_id":"cebpf4jnsgd1na2vs0mg"},{"bike_id":"e5e5604d-67fa-4e7e-b8c6-bc66fefa515d","system_id":"levelo_inurba_marseille","lat":43.30082,"lon":5.38671,"is_reserved":false,"is_disabled":false,"rental_uris":{"android":"levelo://app?vid=e5e5604d-67fa-4e7e-b8c6-bc66fefa515d","ios":"levelo://app?vid=e5e5604d-67fa-4e7e-b8c6-bc66fefa515d"},"vehicle_type_id":"4","last_reported":1731776843,"current_range_meters":2000,"station_id":"ce4bgkh2rcd13ifvqbl0","pricing_plan_id":"cebpf4jnsgd1na2vs0mg"},{"bike_id":"4f072872-5e38-4a4b-9811-1d9e60a837c4","system_id":"levelo_inurba_marseille","lat":43.23072,"lon":5.35495,"is_reserved":false,"is_disabled":false,"rental_uris":{"android":"levelo://app?vid=4f072872-5e38-4a4b-9811-1d9e60a837c4","ios":"levelo://app?vid=4f072872-5e38-4a4b-9811-1d9e60a837c4"},"vehicle_type_id":"4","last_reported":1731776843,"current_range_meters":10000,"station_id":"cpo3342slgdg3j2ifvpg","pricing_plan_id":"cebpf4jnsgd1na2vs0mg"},{"bike_id":"a23a6569-e226-4c36-8d75-0600f67a4db6","system_id":"levelo_inurba_marseille","lat":43.28439,"lon":5.35844,"is_reserved":false,"is_disabled":false,"rental_uris":{"android":"levelo://app?vid=a23a6569-e226-4c36-8d75-0600f67a4db6","ios":"levelo://app?vid=a23a6569-e226-4c36-8d75-0600f67a4db6"},"vehicle_type_id":"4","last_reported":1731776843,"current_range_meters":16400,"station_id":"ce4bhah2rcd13ifvqei0","pricing_plan_id":"cebpf4jnsgd1na2vs0mg"},{"bike_id":"0e6f01aa-5e28-435a-904f-a0c6dc5e690f","system_id":"levelo_inurba_marseille","lat":43.29093,"lon":5.38152,"is_reserved":false,"is_disabled":false,"rental_uris":{"android":"levelo://app?vid=0e6f01aa-5e28-435a-904f-a0c6dc5e690f","ios":"levelo://app?vid=0e6f01aa-5e28-435a-904f-a0c6dc5e690f"},"vehicle_type_id":"4","last_reported":1731776843,"current_range_meters":38800,"station_id":"ce4bh512rcd13ifvqe2g","pricing_plan_id":"cebpf4jnsgd1na2vs0mg"},{"bike_id":"1a4226d5-e99e-413d-988b-d21e0ca45a69","system_id":"levelo_inurba_marseille","lat":43.25867,"lon":5.39898,"is_reserved":false,"is_disabled":false,"rental_uris":{"android":"levelo://app?vid=1a4226d5-e99e-413d-988b-d21e0ca45a69","ios":"levelo://app?vid=1a4226d5-e99e-413d-988b-d21e0ca45a69"},"vehicle_type_id":"4","last_reported":1731776843,"current_range_meters":34000,"station_id":"ce4bhl92rcd13ifvqghg","pricing_plan_id":"cebpf4jnsgd1na2vs0mg"},{"bike_id":"056e85d8-67f6-480c-a847-90deb6634bc6","system_id":"levelo_inurba_marseille","lat":43.29779,"lon":5.3709,"is_reserved":false,"is_disabled":false,"rental_uris":{"android":"levelo://app?vid=056e85d8-67f6-480c-a847-90deb6634bc6","ios":"levelo://app?vid=056e85d8-67f6-480c-a847-90deb6634bc6"},"vehicle_type_id":"4","last_reported":1731776843,"current_range_meters":39200,"station_id":"ce4bgop2rcd13ifvqc1g","pricing_plan_id":"cebpf4jnsgd1na2vs0mg"},{"bike_id":"e79c1d71-1ce6-4d60-8fff-1fc1acef8ee4","system_id":"levelo_inurba_marseille","lat":43.23959,"lon":5.3663,"is_reserved":false,"is_disabled":false,"rental_uris":{"android":"levelo://app?vid=e79c1d71-1ce6-4d60-8fff-1fc1acef8ee4","ios":"levelo://app?vid=e79c1d71-1ce6-4d60-8fff-1fc1acef8ee4"},"vehicle_type_id":"4","last_reported":1731776843,"current_range_meters":23200,"station_id":"ce4bhi12rcd13ifvqfp0","pricing_plan_id":"cebpf4jnsgd1na2vs0mg"},{"bike_id":"a84f5389-258d-4508-9c0f-32ee5d326b43","system_id":"levelo_inurba_marseille","lat":43.33767,"lon":5.37475,"is_reserved":false,"is_disabled":false,"rental_uris":{"android":"levelo://app?vid=a84f5389-258d-4508-9c0f-32ee5d326b43","ios":"levelo://app?vid=a84f5389-258d-4508-9c0f-32ee5d326b43"},"vehicle_type_id":"4","last_reported":1731776843,"current_range_meters":33200,"station_id":"","pricing_plan_id":"cebpf4jnsgd1na2vs0mg"},{"bike_id":"7a650de4-ca88-4b18-b2c5-b956c5277a19","system_id":"levelo_inurba_marseille","lat":43.305765,"lon":5.365143,"is_reserved":false,"is_disabled":false,"rental_uris":{"android":"levelo://app?vid=7a650de4-ca88-4b18-b2c5-b956c5277a19","ios":"levelo://app?vid=7a650de4-ca88-4b18-b2c5-b956c5277a19"},"vehicle_type_id":"4","last_reported":1731776843,"current_range_meters":12000,"station_id":"ce4bgs12rcd13ifvqcag","pricing_plan_id":"cebpf4jnsgd1na2vs0mg"},{"bike_id":"4bc6c2f2-18b1-4581-8342-a31e04936902","system_id":"levelo_inurba_marseille","lat":43.29806,"lon":5.40409,"is_reserved":false,"is_disabled":false,"rental_uris":{"android":"levelo://app?vid=4bc6c2f2-18b1-4581-8342-a31e04936902","ios":"levelo://app?vid=4bc6c2f2-18b1-4581-8342-a31e04936902"},"vehicle_type_id":"4","last_reported":1731776843,"current_range_meters":38800,"station_id":"ce4bh112rcd13ifvqd90","pricing_plan_id":"cebpf4jnsgd1na2vs0mg"},{"bike_id":"ff195d3a-1a4c-4af6-9821-2a3c1433bfb4","system_id":"levelo_inurba_marseille","lat":43.28098,"lon":5.37836,"is_reserved":false,"is_disabled":false,"rental_uris":{"android":"levelo://app?vid=ff195d3a-1a4c-4af6-9821-2a3c1433bfb4","ios":"levelo://app?vid=ff195d3a-1a4c-4af6-9821-2a3c1433bfb4"},"vehicle_type_id":"4","last_reported":1731776843,"current_range_meters":5600,"station_id":"ce4bha12rcd13ifvqee0","pricing_plan_id":"cebpf4jnsgd1na2vs0mg"},{"bike_id":"677b1346-6b24-4862-a336-1a90171c8f18","system_id":"levelo_inurba_marseille","lat":43.25091,"lon":5.39521,"is_reserved":false,"is_disabled":false,"rental_uris":{"android":"levelo://app?vid=677b1346-6b24-4862-a336-1a90171c8f18","ios":"levelo://app?vid=677b1346-6b24-4862-a336-1a90171c8f18"},"vehicle_type_id":"4","last_reported":1731776843,"current_range_meters":37600,"station_id":"ce4bhm12rcd13ifvqgkg","pricing_plan_id":"cebpf4jnsgd1na2vs0mg"},{"bike_id":"382b4f83-5661-4d99-8a45-dd37126a30b9","system_id":"levelo_inurba_marseille","lat":43.29594,"lon":5.38093,"is_reserved":false,"is_disabled":false,"rental_uris":{"android":"levelo://app?vid=382b4f83-5661-4d99-8a45-dd37126a30b9","ios":"levelo://app?vid=382b4f83-5661-4d99-8a45-dd37126a30b9"},"vehicle_type_id":"4","last_reported":1731776843,"current_range_meters":36800,"station_id":"ce4bgl12rcd13ifvqbo0","pricing_plan_id":"cebpf4jnsgd1na2vs0mg"},{"bike_id":"c907c085-d4e6-4ad5-8e02-5021107251af","system_id":"levelo_inurba_marseille","lat":43.24995,"lon":5.38931,"is_reserved":false,"is_disabled":false,"rental_uris":{"android":"levelo://app?vid=c907c085-d4e6-4ad5-8e02-5021107251af","ios":"levelo://app?vid=c907c085-d4e6-4ad5-8e02-5021107251af"},"vehicle_type_id":"4","last_reported":1731776843,"current_range_meters":9600,"station_id":"ce4bhgp2rcd13ifvqfd0","pricing_plan_id":"cebpf4jnsgd1na2vs0mg"},{"bike_id":"82321e41-9a61-4cf5-9301-5ec086c63140","system_id":"levelo_inurba_marseille","lat":43.29259,"lon":5.3844,"is_reserved":false,"is_disabled":false,"rental_uris":{"android":"levelo://app?vid=82321e41-9a61-4cf5-9301-5ec086c63140","ios":"levelo://app?vid=82321e41-9a61-4cf5-9301-5ec086c63140"},"vehicle_type_id":"4","last_reported":1731776843,"current_range_meters":33200,"station_id":"ce4bh692rcd13ifvqea0","pricing_plan_id":"cebpf4jnsgd1na2vs0mg"},{"bike_id":"b5ce9235-4ffb-4d40-a9ab-7ab7ce5a79f6","system_id":"levelo_inurba_marseille","lat":43.24813,"lon":5.37465,"is_reserved":false,"is_disabled":false,"rental_uris":{"android":"levelo://app?vid=b5ce9235-4ffb-4d40-a9ab-7ab7ce5a79f6","ios":"levelo://app?vid=b5ce9235-4ffb-4d40-a9ab-7ab7ce5a79f6"},"vehicle_type_id":"4","last_reported":1731776843,"current_range_meters":38800,"station_id":"ce4bhgh2rcd13ifvqfb0","pricing_plan_id":"cebpf4jnsgd1na2vs0mg"},{"bike_id":"d862b559-fb99-4eb3-8605-e8525624f615","system_id":"levelo_inurba_marseille","lat":43.28448,"lon":5.392,"is_reserved":false,"is_disabled":false,"rental_uris":{"android":"levelo://app?vid=d862b559-fb99-4eb3-8605-e8525624f615","ios":"levelo://app?vid=d862b559-fb99-4eb3-8605-e8525624f615"},"vehicle_type_id":"4","last_reported":1731776843,"current_range_meters":28800,"station_id":"ce4bhoh2rcd13ifvqh5g","pricing_plan_id":"cebpf4jnsgd1na2vs0mg"},{"bike_id":"23dc3eca-7aa2-42ee-a821-5901eae129f9","system_id":"levelo_inurba_marseille","lat":43.32367,"lon":5.38884,"is_reserved":false,"is_disabled":false,"rental_uris":{"android":"levelo://app?vid=23dc3eca-7aa2-42ee-a821-5901eae129f9","ios":"levelo://app?vid=23dc3eca-7aa2-42ee-a821-5901eae129f9"},"vehicle_type_id":"4","last_reported":1731776843,"current_range_meters":14400,"station_id":"ce4bhqp2rcd13ifvqhog","pricing_plan_id":"cebpf4jnsgd1na2vs0mg"},{"bike_id":"6d6992bf-ade3-4a22-a168-306dafdc4544","system_id":"levelo_inurba_marseille","lat":43.2417,"lon":5.36406,"is_reserved":false,"is_disabled":false,"rental_uris":{"android":"levelo://app?vid=6d6992bf-ade3-4a22-a168-306dafdc4544","ios":"levelo://app?vid=6d6992bf-ade3-4a22-a168-306dafdc4544"},"vehicle_type_id":"4","last_reported":1731776843,"current_range_meters":32800,"station_id":"cpo36qri1sfpv3e86is0","pricing_plan_id":"cebpf4jnsgd1na2vs0mg"},{"bike_id":"074c6971-4ae7-4906-8673-1607af29a7e1","system_id":"levelo_inurba_marseille","lat":43.25085,"lon":5.39515,"is_reserved":false,"is_disabled":false,"rental_uris":{"android":"levelo://app?vid=074c6971-4ae7-4906-8673-1607af29a7e1","ios":"levelo://app?vid=074c6971-4ae7-4906-8673-1607af29a7e1"},"vehicle_type_id":"4","last_reported":1731776843,"current_range_meters":32400,"station_id":"ce4bhm12rcd13ifvqgkg","pricing_plan_id":"cebpf4jnsgd1na2vs0mg"},{"bike_id":"6ec0a8f2-a285-489c-87b6-74163e297eb9","system_id":"levelo_inurba_marseille","lat":43.29909,"lon":5.381535,"is_reserved":false,"is_disabled":false,"rental_uris":{"android":"levelo://app?vid=6ec0a8f2-a285-489c-87b6-74163e297eb9","ios":"levelo://app?vid=6ec0a8f2-a285-489c-87b6-74163e297eb9"},"vehicle_type_id":"4","last_reported":1731776843,"current_range_meters":21600,"station_id":"ce4bgj12rcd13ifvqbc0","pricing_plan_id":"cebpf4jnsgd1na2vs0mg"},{"bike_id":"f7612cb9-64e6-456e-b407-47173cb6e342","system_id":"levelo_inurba_marseille","lat":43.28613,"lon":5.37064,"is_reserved":false,"is_disabled":false,"rental_uris":{"android":"levelo://app?vid=f7612cb9-64e6-456e-b407-47173cb6e342","ios":"levelo://app?vid=f7612cb9-64e6-456e-b407-47173cb6e342"},"vehicle_type_id":"4","last_reported":1731776843,"current_range_meters":8800,"station_id":"ce4bht12rcd13ifvqi60","pricing_plan_id":"cebpf4jnsgd1na2vs0mg"},{"bike_id":"bb610d78-1320-4690-8637-7f9d045f2953","system_id":"levelo_inurba_marseille","lat":43.28659,"lon":5.36343,"is_reserved":false,"is_disabled":false,"rental_uris":{"android":"levelo://app?vid=bb610d78-1320-4690-8637-7f9d045f2953","ios":"levelo://app?vid=bb610d78-1320-4690-8637-7f9d045f2953"},"vehicle_type_id":"4","last_reported":1731776843,"current_range_meters":23200,"station_id":"ce4bhah2rcd13ifvqej0","pricing_plan_id":"cebpf4jnsgd1na2vs0mg"},{"bike_id":"482acd37-267b-4949-b903-4eaea1f8103f","system_id":"levelo_inurba_marseille","lat":43.29005,"lon":5.35617,"is_reserved":false,"is_disabled":false,"rental_uris":{"android":"levelo://app?vid=482acd37-267b-4949-b903-4eaea1f8103f","ios":"levelo://app?vid=482acd37-267b-4949-b903-4eaea1f8103f"},"vehicle_type_id":"4","last_reported":1731776843,"current_range_meters":23200,"station_id":"ce4bhb92rcd13ifvqen0","pricing_plan_id":"cebpf4jnsgd1na2vs0mg"},{"bike_id":"f977d484-43b9-4a08-9f25-946507f2ea63","system_id":"levelo_inurba_marseille","lat":43.31434,"lon":5.37412,"is_reserved":false,"is_disabled":false,"rental_uris":{"android":"levelo://app?vid=f977d484-43b9-4a08-9f25-946507f2ea63","ios":"levelo://app?vid=f977d484-43b9-4a08-9f25-946507f2ea63"},"vehicle_type_id":"4","last_reported":1731776843,"current_range_meters":24000,"station_id":"","pricing_plan_id":"cebpf4jnsgd1na2vs0mg"},{"bike_id":"cf4ddce5-1af4-4138-9cd4-debf5b566b4f","system_id":"levelo_inurba_marseille","lat":43.29864,"lon":5.3974,"is_reserved":false,"is_disabled":false,"rental_uris":{"android":"levelo://app?vid=cf4ddce5-1af4-4138-9cd4-debf5b566b4f","ios":"levelo://app?vid=cf4ddce5-1af4-4138-9cd4-debf5b566b4f"},"vehicle_type_id":"4","last_reported":1731776843,"current_range_meters":20800,"station_id":"ce4bh0h2rcd13ifvqd50","pricing_plan_id":"cebpf4jnsgd1na2vs0mg"},{"bike_id":"20f256c9-a4c1-486d-83bc-b5fc0afa0d8f","system_id":"levelo_inurba_marseille","lat":43.308031,"lon":5.435244,"is_reserved":false,"is_disabled":false,"rental_uris":{"android":"levelo://app?vid=20f256c9-a4c1-486d-83bc-b5fc0afa0d8f","ios":"levelo://app?vid=20f256c9-a4c1-486d-83bc-b5fc0afa0d8f"},"vehicle_type_id":"4","last_reported":1731776843,"current_range_meters":38800,"station_id":"ce4bhph2rcd13ifvqheg","pricing_plan_id":"cebpf4jnsgd1na2vs0mg"},{"bike_id":"4ee4605c-22f2-4532-b44d-f5fb03fd5142","system_id":"levelo_inurba_marseille","lat":43.30804,"lon":5.43526,"is_reserved":false,"is_disabled":false,"rental_uris":{"android":"levelo://app?vid=4ee4605c-22f2-4532-b44d-f5fb03fd5142","ios":"levelo://app?vid=4ee4605c-22f2-4532-b44d-f5fb03fd5142"},"vehicle_type_id":"4","last_reported":1731776843,"current_range_meters":14000,"station_id":"ce4bhph2rcd13ifvqheg","pricing_plan_id":"cebpf4jnsgd1na2vs0mg"},{"bike_id":"26dd0e32-3bc8-4288-94d0-d2b0c044fb6d","system_id":"levelo_inurba_marseille","lat":43.29786,"lon":5.38095,"is_reserved":false,"is_disabled":false,"rental_uris":{"android":"levelo://app?vid=26dd0e32-3bc8-4288-94d0-d2b0c044fb6d","ios":"levelo://app?vid=26dd0e32-3bc8-4288-94d0-d2b0c044fb6d"},"vehicle_type_id":"4","last_reported":1731776843,"current_range_meters":22000,"station_id":"ce4bgip2rcd13ifvqbb0","pricing_plan_id":"cebpf4jnsgd1na2vs0mg"},{"bike_id":"d12776dd-7ba2-49d7-a666-159758337c79","system_id":"levelo_inurba_marseille","lat":43.32476,"lon":5.3659,"is_reserved":false,"is_disabled":false,"rental_uris":{"android":"levelo://app?vid=d12776dd-7ba2-49d7-a666-159758337c79","ios":"levelo://app?vid=d12776dd-7ba2-49d7-a666-159758337c79"},"vehicle_type_id":"4","last_reported":1731776843,"current_range_meters":38800,"station_id":"ce4bhs12rcd13ifvqhvg","pricing_plan_id":"cebpf4jnsgd1na2vs0mg"},{"bike_id":"54d47417-0d3f-4d5d-b66f-ac87b7ac5291","system_id":"levelo_inurba_marseille","lat":43.28851,"lon":5.39308,"is_reserved":false,"is_disabled":false,"rental_uris":{"android":"levelo://app?vid=54d47417-0d3f-4d5d-b66f-ac87b7ac5291","ios":"levelo://app?vid=54d47417-0d3f-4d5d-b66f-ac87b7ac5291"},"vehicle_type_id":"4","last_reported":1731776843,"current_range_meters":4000,"station_id":"ce4bh2p2rcd13ifvqdi0","pricing_plan_id":"cebpf4jnsgd1na2vs0mg"},{"bike_id":"ea333e1b-6e47-4f18-9bc0-963156723fce","system_id":"levelo_inurba_marseille","lat":43.29865,"lon":5.39729,"is_reserved":false,"is_disabled":false,"rental_uris":{"android":"levelo://app?vid=ea333e1b-6e47-4f18-9bc0-963156723fce","ios":"levelo://app?vid=ea333e1b-6e47-4f18-9bc0-963156723fce"},"vehicle_type_id":"4","last_reported":1731776843,"current_range_meters":3200,"station_id":"ce4bh0h2rcd13ifvqd50","pricing_plan_id":"cebpf4jnsgd1na2vs0mg"},{"bike_id":"a38ff953-8259-40f3-a82d-6c6cbc444215","system_id":"levelo_inurba_marseille","lat":43.33723,"lon":5.39188,"is_reserved":false,"is_disabled":false,"rental_uris":{"android":"levelo://app?vid=a38ff953-8259-40f3-a82d-6c6cbc444215","ios":"levelo://app?vid=a38ff953-8259-40f3-a82d-6c6cbc444215"},"vehicle_type_id":"4","last_reported":1731776843,"current_range_meters":36400,"station_id":"ce4bhr92rcd13ifvqhsg","pricing_plan_id":"cebpf4jnsgd1na2vs0mg"},{"bike_id":"022f478e-da93-4eda-9d1b-2d0e36905c07","system_id":"levelo_inurba_marseille","lat":43.33756,"lon":5.3744,"is_reserved":false,"is_disabled":false,"rental_uris":{"android":"levelo://app?vid=022f478e-da93-4eda-9d1b-2d0e36905c07","ios":"levelo://app?vid=022f478e-da93-4eda-9d1b-2d0e36905c07"},"vehicle_type_id":"4","last_reported":1731776843,"current_range_meters":16400,"station_id":"","pricing_plan_id":"cebpf4jnsgd1na2vs0mg"},{"bike_id":"3c7108fb-85fe-43b6-95ce-e6a5e6d34b1a","system_id":"levelo_inurba_marseille","lat":43.33704,"lon":5.3918,"is_reserved":false,"is_disabled":false,"rental_uris":{"android":"levelo://app?vid=3c7108fb-85fe-43b6-95ce-e6a5e6d34b1a","ios":"levelo://app?vid=3c7108fb-85fe-43b6-95ce-e6a5e6d34b1a"},"vehicle_type_id":"4","last_reported":1731776843,"current_range_meters":30800,"station_id":"ce4bhr92rcd13ifvqhsg","pricing_plan_id":"cebpf4jnsgd1na2vs0mg"},{"bike_id":"4c8413fa-4191-43dd-abf8-8652722f5b47","system_id":"levelo_inurba_marseille","lat":43.29534,"lon":5.38544,"is_reserved":false,"is_disabled":false,"rental_uris":{"android":"levelo://app?vid=4c8413fa-4191-43dd-abf8-8652722f5b47","ios":"levelo://app?vid=4c8413fa-4191-43dd-abf8-8652722f5b47"},"vehicle_type_id":"4","last_reported":1731776843,"current_range_meters":6400,"station_id":"ce4bgih2rcd13ifvqba0","pricing_plan_id":"cebpf4jnsgd1na2vs0mg"},{"bike_id":"d9e75c21-dc66-4fd7-ba40-f986d1c72d87","system_id":"levelo_inurba_marseille","lat":43.28571,"lon":5.39495,"is_reserved":false,"is_disabled":false,"rental_uris":{"android":"levelo://app?vid=d9e75c21-dc66-4fd7-ba40-f986d1c72d87","ios":"levelo://app?vid=d9e75c21-dc66-4fd7-ba40-f986d1c72d87"},"vehicle_type_id":"4","last_reported":1731776843,"current_range_meters":38400,"station_id":"ce4bh292rcd13ifvqdg0","pricing_plan_id":"cebpf4jnsgd1na2vs0mg"},{"bike_id":"251d8918-1250-4853-9293-89ee39d3be92","system_id":"levelo_inurba_marseille","lat":43.33022,"lon":5.39038,"is_reserved":false,"is_disabled":false,"rental_uris":{"android":"levelo://app?vid=251d8918-1250-4853-9293-89ee39d3be92","ios":"levelo://app?vid=251d8918-1250-4853-9293-89ee39d3be92"},"vehicle_type_id":"4","last_reported":1731776843,"current_range_meters":36000,"station_id":"ce4bhr92rcd13ifvqhrg","pricing_plan_id":"cebpf4jnsgd1na2vs0mg"},{"bike_id":"809471e3-ec39-4f2b-b271-49c8263623d6","system_id":"levelo_inurba_marseille","lat":43.24995,"lon":5.38931,"is_reserved":false,"is_disabled":false,"rental_uris":{"android":"levelo://app?vid=809471e3-ec39-4f2b-b271-49c8263623d6","ios":"levelo://app?vid=809471e3-ec39-4f2b-b271-49c8263623d6"},"vehicle_type_id":"4","last_reported":1731776843,"current_range_meters":38800,"station_id":"ce4bhgp2rcd13ifvqfd0","pricing_plan_id":"cebpf4jnsgd1na2vs0mg"},{"bike_id":"9eaf2874-65b4-4b9f-9d25-b3f029c23088","system_id":"levelo_inurba_marseille","lat":43.27977,"lon":5.3873,"is_reserved":false,"is_disabled":false,"rental_uris":{"android":"levelo://app?vid=9eaf2874-65b4-4b9f-9d25-b3f029c23088","ios":"levelo://app?vid=9eaf2874-65b4-4b9f-9d25-b3f029c23088"},"vehicle_type_id":"4","last_reported":1731776843,"current_range_meters":38400,"station_id":"ce4bhg12rcd13ifvqf80","pricing_plan_id":"cebpf4jnsgd1na2vs0mg"},{"bike_id":"9e5dc250-b6a5-41ce-8a87-894e843c1424","system_id":"levelo_inurba_marseille","lat":43.280405,"lon":5.369484,"is_reserved":false,"is_disabled":false,"rental_uris":{"android":"levelo://app?vid=9e5dc250-b6a5-41ce-8a87-894e843c1424","ios":"levelo://app?vid=9e5dc250-b6a5-41ce-8a87-894e843c1424"},"vehicle_type_id":"4","last_reported":1731776843,"current_range_meters":38800,"station_id":"ce4bha12rcd13ifvqef0","pricing_plan_id":"cebpf4jnsgd1na2vs0mg"},{"bike_id":"ddcf2083-2477-42a7-b76d-c98616de5dcb","system_id":"levelo_inurba_marseille","lat":43.26031,"lon":5.37548,"is_reserved":false,"is_disabled":false,"rental_uris":{"android":"levelo://app?vid=ddcf2083-2477-42a7-b76d-c98616de5dcb","ios":"levelo://app?vid=ddcf2083-2477-42a7-b76d-c98616de5dcb"},"vehicle_type_id":"4","last_reported":1731776843,"current_range_meters":28000,"station_id":"ce4bhgh2rcd13ifvqfa0","pricing_plan_id":"cebpf4jnsgd1na2vs0mg"},{"bike_id":"387da0cf-de7c-4d37-89c9-a7190b5ed9a1","system_id":"levelo_inurba_marseille","lat":43.28842,"lon":5.35873,"is_reserved":false,"is_disabled":false,"rental_uris":{"android":"levelo://app?vid=387da0cf-de7c-4d37-89c9-a7190b5ed9a1","ios":"levelo://app?vid=387da0cf-de7c-4d37-89c9-a7190b5ed9a1"},"vehicle_type_id":"4","last_reported":1731776843,"current_range_meters":15200,"station_id":"ce4bhb12rcd13ifvqem0","pricing_plan_id":"cebpf4jnsgd1na2vs0mg"},{"bike_id":"ff00f73b-a79e-42c6-acbe-193949fdcfc6","system_id":"levelo_inurba_marseille","lat":43.28349,"lon":5.38115,"is_reserved":false,"is_disabled":false,"rental_uris":{"android":"levelo://app?vid=ff00f73b-a79e-42c6-acbe-193949fdcfc6","ios":"levelo://app?vid=ff00f73b-a79e-42c6-acbe-193949fdcfc6"},"vehicle_type_id":"4","last_reported":1731776843,"current_range_meters":18000,"station_id":"ce4bh412rcd13ifvqdr0","pricing_plan_id":"cebpf4jnsgd1na2vs0mg"},{"bike_id":"0defbaaf-820c-412e-8e18-87120d39f4b3","system_id":"levelo_inurba_marseille","lat":43.31998,"lon":5.38151,"is_reserved":false,"is_disabled":false,"rental_uris":{"android":"levelo://app?vid=0defbaaf-820c-412e-8e18-87120d39f4b3","ios":"levelo://app?vid=0defbaaf-820c-412e-8e18-87120d39f4b3"},"vehicle_type_id":"4","last_reported":1731776843,"current_range_meters":38000,"station_id":"ce4bhr12rcd13ifvqhpg","pricing_plan_id":"cebpf4jnsgd1na2vs0mg"},{"bike_id":"b9a0692f-1f3a-4fe8-bf07-b346390bcd78","system_id":"levelo_inurba_marseille","lat":43.323115,"lon":5.385265,"is_reserved":false,"is_disabled":false,"rental_uris":{"android":"levelo://app?vid=b9a0692f-1f3a-4fe8-bf07-b346390bcd78","ios":"levelo://app?vid=b9a0692f-1f3a-4fe8-bf07-b346390bcd78"},"vehicle_type_id":"4","last_reported":1731776843,"current_range_meters":30800,"station_id":"","pricing_plan_id":"cebpf4jnsgd1na2vs0mg"},{"bike_id":"b6cce17f-c8e1-47f7-bbc2-6d8486c80087","system_id":"levelo_inurba_marseille","lat":43.27917,"lon":5.39578,"is_reserved":false,"is_disabled":false,"rental_uris":{"android":"levelo://app?vid=b6cce17f-c8e1-47f7-bbc2-6d8486c80087","ios":"levelo://app?vid=b6cce17f-c8e1-47f7-bbc2-6d8486c80087"},"vehicle_type_id":"4","last_reported":1731776843,"current_range_meters":35600,"station_id":"ce4bhf92rcd13ifvqf40","pricing_plan_id":"cebpf4jnsgd1na2vs0mg"},{"bike_id":"442c0903-f40e-4bdf-be0d-6587cc076f59","system_id":"levelo_inurba_marseille","lat":43.23192,"lon":5.35555,"is_reserved":false,"is_disabled":false,"rental_uris":{"android":"levelo://app?vid=442c0903-f40e-4bdf-be0d-6587cc076f59","ios":"levelo://app?vid=442c0903-f40e-4bdf-be0d-6587cc076f59"},"vehicle_type_id":"4","last_reported":1731776843,"current_range_meters":18800,"station_id":"ce4bhu92rcd13ifvqi70","pricing_plan_id":"cebpf4jnsgd1na2vs0mg"},{"bike_id":"1c4774a7-a2d4-4020-9a1a-c36e307e75d8","system_id":"levelo_inurba_marseille","lat":43.32365,"lon":5.38885,"is_reserved":false,"is_disabled":false,"rental_uris":{"android":"levelo://app?vid=1c4774a7-a2d4-4020-9a1a-c36e307e75d8","ios":"levelo://app?vid=1c4774a7-a2d4-4020-9a1a-c36e307e75d8"},"vehicle_type_id":"4","last_reported":1731776843,"current_range_meters":26000,"station_id":"ce4bhqp2rcd13ifvqhog","pricing_plan_id":"cebpf4jnsgd1na2vs0mg"},{"bike_id":"fe044a61-f10d-4bd7-84b9-a7a5b6d86113","system_id":"levelo_inurba_marseille","lat":43.30802,"lon":5.43521,"is_reserved":false,"is_disabled":false,"rental_uris":{"android":"levelo://app?vid=fe044a61-f10d-4bd7-84b9-a7a5b6d86113","ios":"levelo://app?vid=fe044a61-f10d-4bd7-84b9-a7a5b6d86113"},"vehicle_type_id":"4","last_reported":1731776843,"current_range_meters":38800,"station_id":"ce4bhph2rcd13ifvqheg","pricing_plan_id":"cebpf4jnsgd1na2vs0mg"},{"bike_id":"596f75b7-a1ee-43e2-a784-cfc357496adc","system_id":"levelo_inurba_marseille","lat":43.27844,"lon":5.39207,"is_reserved":false,"is_disabled":false,"rental_uris":{"android":"levelo://app?vid=596f75b7-a1ee-43e2-a784-cfc357496adc","ios":"levelo://app?vid=596f75b7-a1ee-43e2-a784-cfc357496adc"},"vehicle_type_id":"4","last_reported":1731776843,"current_range_meters":24000,"station_id":"ce4bhjp2rcd13ifvqga0","pricing_plan_id":"cebpf4jnsgd1na2vs0mg"},{"bike_id":"a53c34da-0cae-47e8-984d-fd89ae39013d","system_id":"levelo_inurba_marseille","lat":43.29782,"lon":5.37093,"is_reserved":false,"is_disabled":false,"rental_uris":{"android":"levelo://app?vid=a53c34da-0cae-47e8-984d-fd89ae39013d","ios":"levelo://app?vid=a53c34da-0cae-47e8-984d-fd89ae39013d"},"vehicle_type_id":"4","last_reported":1731776843,"current_range_meters":38400,"station_id":"ce4bgop2rcd13ifvqc1g","pricing_plan_id":"cebpf4jnsgd1na2vs0mg"},{"bike_id":"7d7d12f3-12a1-47c8-b4ba-b8a4e0a8b2cd","system_id":"levelo_inurba_marseille","lat":43.24646,"lon":5.38889,"is_reserved":false,"is_disabled":false,"rental_uris":{"android":"levelo://app?vid=7d7d12f3-12a1-47c8-b4ba-b8a4e0a8b2cd","ios":"levelo://app?vid=7d7d12f3-12a1-47c8-b4ba-b8a4e0a8b2cd"},"vehicle_type_id":"4","last_reported":1731776843,"current_range_meters":28000,"station_id":"ce4bhg12rcd13ifvqf60","pricing_plan_id":"cebpf4jnsgd1na2vs0mg"},{"bike_id":"d4e56eb7-19e7-42ab-a0c4-ebff526e3865","system_id":"levelo_inurba_marseille","lat":43.28464,"lon":5.38438,"is_reserved":false,"is_disabled":false,"rental_uris":{"android":"levelo://app?vid=d4e56eb7-19e7-42ab-a0c4-ebff526e3865","ios":"levelo://app?vid=d4e56eb7-19e7-42ab-a0c4-ebff526e3865"},"vehicle_type_id":"4","last_reported":1731776843,"current_range_meters":35200,"station_id":"ce4bh512rcd13ifvqe3g","pricing_plan_id":"cebpf4jnsgd1na2vs0mg"},{"bike_id":"3d1e60ca-0ef4-4d61-bde3-33dddb055cfa","system_id":"levelo_inurba_marseille","lat":43.29534,"lon":5.38547,"is_reserved":false,"is_disabled":false,"rental_uris":{"android":"levelo://app?vid=3d1e60ca-0ef4-4d61-bde3-33dddb055cfa","ios":"levelo://app?vid=3d1e60ca-0ef4-4d61-bde3-33dddb055cfa"},"vehicle_type_id":"4","last_reported":1731776843,"current_range_meters":38800,"station_id":"ce4bgih2rcd13ifvqba0","pricing_plan_id":"cebpf4jnsgd1na2vs0mg"},{"bike_id":"21d98bf0-03c3-4a4e-bc00-2daa40e0d68e","system_id":"levelo_inurba_marseille","lat":43.27809,"lon":5.40712,"is_reserved":false,"is_disabled":false,"rental_uris":{"android":"levelo://app?vid=21d98bf0-03c3-4a4e-bc00-2daa40e0d68e","ios":"levelo://app?vid=21d98bf0-03c3-4a4e-bc00-2daa40e0d68e"},"vehicle_type_id":"4","last_reported":1731776843,"current_range_meters":24800,"station_id":"ce4bhnh2rcd13ifvqgtg","pricing_plan_id":"cebpf4jnsgd1na2vs0mg"},{"bike_id":"a12a4e79-414b-4b20-b699-c57c95143fb6","system_id":"levelo_inurba_marseille","lat":43.29892,"lon":5.38873,"is_reserved":false,"is_disabled":false,"rental_uris":{"android":"levelo://app?vid=a12a4e79-414b-4b20-b699-c57c95143fb6","ios":"levelo://app?vid=a12a4e79-414b-4b20-b699-c57c95143fb6"},"vehicle_type_id":"4","last_reported":1731776843,"current_range_meters":27200,"station_id":"ce4bh392rcd13ifvqdl0","pricing_plan_id":"cebpf4jnsgd1na2vs0mg"},{"bike_id":"be1f2ef1-275c-409e-bf3d-4c8ad113e009","system_id":"levelo_inurba_marseille","lat":43.29559,"lon":5.42282,"is_reserved":false,"is_disabled":false,"rental_uris":{"android":"levelo://app?vid=be1f2ef1-275c-409e-bf3d-4c8ad113e009","ios":"levelo://app?vid=be1f2ef1-275c-409e-bf3d-4c8ad113e009"},"vehicle_type_id":"4","last_reported":1731776843,"current_range_meters":38800,"station_id":"ce4bhph2rcd13ifvqhdg","pricing_plan_id":"cebpf4jnsgd1na2vs0mg"},{"bike_id":"92011ea3-ae4d-4dc6-9f3e-007a6e8ccea5","system_id":"levelo_inurba_marseille","lat":43.27558,"lon":5.38408,"is_reserved":false,"is_disabled":false,"rental_uris":{"android":"levelo://app?vid=92011ea3-ae4d-4dc6-9f3e-007a6e8ccea5","ios":"levelo://app?vid=92011ea3-ae4d-4dc6-9f3e-007a6e8ccea5"},"vehicle_type_id":"4","last_reported":1731776843,"current_range_meters":16800,"station_id":"ce4bhh92rcd13ifvqfi0","pricing_plan_id":"cebpf4jnsgd1na2vs0mg"},{"bike_id":"75bc6927-fea1-40ab-90b4-6bbc9aae7c2c","system_id":"levelo_inurba_marseille","lat":43.31534,"lon":5.38023,"is_reserved":false,"is_disabled":false,"rental_uris":{"android":"levelo://app?vid=75bc6927-fea1-40ab-90b4-6bbc9aae7c2c","ios":"levelo://app?vid=75bc6927-fea1-40ab-90b4-6bbc9aae7c2c"},"vehicle_type_id":"4","last_reported":1731776843,"current_range_meters":38400,"station_id":"ce4bhsp2rcd13ifvqi50","pricing_plan_id":"cebpf4jnsgd1na2vs0mg"},{"bike_id":"ec5a2131-7fe8-48cf-a429-c12762edd959","system_id":"levelo_inurba_marseille","lat":43.29261,"lon":5.38446,"is_reserved":false,"is_disabled":false,"rental_uris":{"android":"levelo://app?vid=ec5a2131-7fe8-48cf-a429-c12762edd959","ios":"levelo://app?vid=ec5a2131-7fe8-48cf-a429-c12762edd959"},"vehicle_type_id":"4","last_reported":1731776843,"current_range_meters":1200,"station_id":"ce4bh692rcd13ifvqea0","pricing_plan_id":"cebpf4jnsgd1na2vs0mg"},{"bike_id":"7b76f7eb-5990-4745-bfda-68fbe5b47b7f","system_id":"levelo_inurba_marseille","lat":43.24179,"lon":5.39731,"is_reserved":false,"is_disabled":false,"rental_uris":{"android":"levelo://app?vid=7b76f7eb-5990-4745-bfda-68fbe5b47b7f","ios":"levelo://app?vid=7b76f7eb-5990-4745-bfda-68fbe5b47b7f"},"vehicle_type_id":"4","last_reported":1731776843,"current_range_meters":12000,"station_id":"ce4bhn12rcd13ifvqgpg","pricing_plan_id":"cebpf4jnsgd1na2vs0mg"},{"bike_id":"8232b410-a141-492c-8078-6135e40e042c","system_id":"levelo_inurba_marseille","lat":43.290466,"lon":5.370433,"is_reserved":false,"is_disabled":false,"rental_uris":{"android":"levelo://app?vid=8232b410-a141-492c-8078-6135e40e042c","ios":"levelo://app?vid=8232b410-a141-492c-8078-6135e40e042c"},"vehicle_type_id":"4","last_reported":1731776843,"current_range_meters":1600,"station_id":"ce4bhap2rcd13ifvqek0","pricing_plan_id":"cebpf4jnsgd1na2vs0mg"},{"bike_id":"52f10d3d-e4ef-47f9-bffd-4c50d936f0d3","system_id":"levelo_inurba_marseille","lat":43.32334,"lon":5.4062,"is_reserved":false,"is_disabled":false,"rental_uris":{"android":"levelo://app?vid=52f10d3d-e4ef-47f9-bffd-4c50d936f0d3","ios":"levelo://app?vid=52f10d3d-e4ef-47f9-bffd-4c50d936f0d3"},"vehicle_type_id":"4","last_reported":1731776843,"current_range_meters":36800,"station_id":"ce4bhq92rcd13ifvqhjg","pricing_plan_id":"cebpf4jnsgd1na2vs0mg"},{"bike_id":"a91f23f7-f251-46d3-97a2-effb836fb255","system_id":"levelo_inurba_marseille","lat":43.24165,"lon":5.36394,"is_reserved":false,"is_disabled":false,"rental_uris":{"android":"levelo://app?vid=a91f23f7-f251-46d3-97a2-effb836fb255","ios":"levelo://app?vid=a91f23f7-f251-46d3-97a2-effb836fb255"},"vehicle_type_id":"4","last_reported":1731776843,"current_range_meters":20000,"station_id":"cpo36qri1sfpv3e86is0","pricing_plan_id":"cebpf4jnsgd1na2vs0mg"},{"bike_id":"918d5a9d-601e-4d3c-8918-a49be0731793","system_id":"levelo_inurba_marseille","lat":43.32365,"lon":5.38882,"is_reserved":false,"is_disabled":false,"rental_uris":{"android":"levelo://app?vid=918d5a9d-601e-4d3c-8918-a49be0731793","ios":"levelo://app?vid=918d5a9d-601e-4d3c-8918-a49be0731793"},"vehicle_type_id":"4","last_reported":1731776843,"current_range_meters":10000,"station_id":"ce4bhqp2rcd13ifvqhog","pricing_plan_id":"cebpf4jnsgd1na2vs0mg"},{"bike_id":"9eedf4b8-a58a-414b-976b-f1bc6c228b63","system_id":"levelo_inurba_marseille","lat":43.3229,"lon":5.38257,"is_reserved":false,"is_disabled":false,"rental_uris":{"android":"levelo://app?vid=9eedf4b8-a58a-414b-976b-f1bc6c228b63","ios":"levelo://app?vid=9eedf4b8-a58a-414b-976b-f1bc6c228b63"},"vehicle_type_id":"4","last_reported":1731776843,"current_range_meters":2800,"station_id":"","pricing_plan_id":"cebpf4jnsgd1na2vs0mg"},{"bike_id":"42ca2e91-eff6-4d6f-be6b-f39dd733b613","system_id":"levelo_inurba_marseille","lat":43.2956,"lon":5.42294,"is_reserved":false,"is_disabled":false,"rental_uris":{"android":"levelo://app?vid=42ca2e91-eff6-4d6f-be6b-f39dd733b613","ios":"levelo://app?vid=42ca2e91-eff6-4d6f-be6b-f39dd733b613"},"vehicle_type_id":"4","last_reported":1731776843,"current_range_meters":30400,"station_id":"","pricing_plan_id":"cebpf4jnsgd1na2vs0mg"},{"bike_id":"eeee0e2c-92d1-4795-a34e-7b6527f69855","system_id":"levelo_inurba_marseille","lat":43.248081,"lon":5.374592,"is_reserved":false,"is_disabled":false,"rental_uris":{"android":"levelo://app?vid=eeee0e2c-92d1-4795-a34e-7b6527f69855","ios":"levelo://app?vid=eeee0e2c-92d1-4795-a34e-7b6527f69855"},"vehicle_type_id":"4","last_reported":1731776843,"current_range_meters":11200,"station_id":"ce4bhgh2rcd13ifvqfb0","pricing_plan_id":"cebpf4jnsgd1na2vs0mg"},{"bike_id":"5cd177d6-438e-4e41-bb81-c9167b611ba9","system_id":"levelo_inurba_marseille","lat":43.24159,"lon":5.36409,"is_reserved":false,"is_disabled":false,"rental_uris":{"android":"levelo://app?vid=5cd177d6-438e-4e41-bb81-c9167b611ba9","ios":"levelo://app?vid=5cd177d6-438e-4e41-bb81-c9167b611ba9"},"vehicle_type_id":"4","last_reported":1731776843,"current_range_meters":38800,"station_id":"cpo36qri1sfpv3e86is0","pricing_plan_id":"cebpf4jnsgd1na2vs0mg"},{"bike_id":"9559d6fc-8bf0-4931-adb1-a5ad354b82d4","system_id":"levelo_inurba_marseille","lat":43.25086,"lon":5.39527,"is_reserved":false,"is_disabled":false,"rental_uris":{"android":"levelo://app?vid=9559d6fc-8bf0-4931-adb1-a5ad354b82d4","ios":"levelo://app?vid=9559d6fc-8bf0-4931-adb1-a5ad354b82d4"},"vehicle_type_id":"4","last_reported":1731776843,"current_range_meters":8400,"station_id":"ce4bhm12rcd13ifvqgkg","pricing_plan_id":"cebpf4jnsgd1na2vs0mg"},{"bike_id":"fa4639a1-63b5-4626-a5c2-1622b8abab6b","system_id":"levelo_inurba_marseille","lat":43.2306,"lon":5.35492,"is_reserved":false,"is_disabled":false,"rental_uris":{"android":"levelo://app?vid=fa4639a1-63b5-4626-a5c2-1622b8abab6b","ios":"levelo://app?vid=fa4639a1-63b5-4626-a5c2-1622b8abab6b"},"vehicle_type_id":"4","last_reported":1731776843,"current_range_meters":35200,"station_id":"cpo3342slgdg3j2ifvpg","pricing_plan_id":"cebpf4jnsgd1na2vs0mg"},{"bike_id":"0f6387fb-87b6-42b1-8f76-cc96f2464a33","system_id":"levelo_inurba_marseille","lat":43.27566,"lon":5.38407,"is_reserved":false,"is_disabled":false,"rental_uris":{"android":"levelo://app?vid=0f6387fb-87b6-42b1-8f76-cc96f2464a33","ios":"levelo://app?vid=0f6387fb-87b6-42b1-8f76-cc96f2464a33"},"vehicle_type_id":"4","last_reported":1731776843,"current_range_meters":33600,"station_id":"ce4bhh92rcd13ifvqfi0","pricing_plan_id":"cebpf4jnsgd1na2vs0mg"},{"bike_id":"7266ba3e-c1ba-4c05-90e5-f98833099daa","system_id":"levelo_inurba_marseille","lat":43.28926,"lon":5.38391,"is_reserved":false,"is_disabled":false,"rental_uris":{"android":"levelo://app?vid=7266ba3e-c1ba-4c05-90e5-f98833099daa","ios":"levelo://app?vid=7266ba3e-c1ba-4c05-90e5-f98833099daa"},"vehicle_type_id":"4","last_reported":1731776843,"current_range_meters":30000,"station_id":"ce4bh612rcd13ifvqe6g","pricing_plan_id":"cebpf4jnsgd1na2vs0mg"},{"bike_id":"281b121e-f475-4dd6-9817-1b9a591b98bb","system_id":"levelo_inurba_marseille","lat":43.29799,"lon":5.38089,"is_reserved":false,"is_disabled":false,"rental_uris":{"android":"levelo://app?vid=281b121e-f475-4dd6-9817-1b9a591b98bb","ios":"levelo://app?vid=281b121e-f475-4dd6-9817-1b9a591b98bb"},"vehicle_type_id":"4","last_reported":1731776843,"current_range_meters":3200,"station_id":"ce4bgip2rcd13ifvqbb0","pricing_plan_id":"cebpf4jnsgd1na2vs0mg"},