{"last_updated":1738004851,"ttl":60,"version":"2.2","data":{"bikes":[{"bike_id":"cb675d55-e5c8-4982-aca6-2a4540f10435","system_id":"levelo_inurba_marseille","lat":43.29864,"lon":5.36227,"is_reserved":false,"is_disabled":false,"rental_uris":{"android":"levelo://app?vid=cb675d55-e5c8-4982-aca6-2a4540f10435","ios":"levelo://app?vid=cb675d55-e5c8-4982-aca6-2a4540f10435"},"vehicle_type_id":"4","last_reported":1738004851,"current_range_meters":11600,"station_id":"ce4bgpp2rcd13ifvqc3g","pricing_plan_id":"cebpf4jnsgd1na2vs0mg"},{"bike_id":"a72af8a2-47bc-4c7a-9e9c-e4668ea19e38","system_id":"levelo_inurba_marseille","lat":43.28565,"lon":5.39518,"is_reserved":false,"is_disabled":false,"rental_uris":{"android":"levelo://app?vid=a72af8a2-47bc-4c7a-9e9c-e4668ea19e38","ios":"levelo://app?vid=a72af8a2-47bc-4c7a-9e9c-e4668ea19e38"},"vehicle_type_id":"4","last_reported":1738004851,"current_range_meters":30800,"station_id":"ce4bh292rcd13ifvqdg0","pricing_plan_id":"cebpf4jnsgd1na2vs0mg"},{"bike_id":"30c54327-1a80-4f74-8e4a-0d1419a810db","system_id":"levelo_inurba_marseille","lat":43.30298,"lon":5.39208,"is_reserved":false,"is_disabled":false,"rental_uris":{"android":"levelo://app?vid=30c54327-1a80-4f74-8e4a-0d1419a810db","ios":"levelo://app?vid=30c54327-1a80-4f74-8e4a-0d1419a810db"},"vehicle_type_id":"4","last_reported":1738004851,"current_range_meters":23200,"station_id":"ce4bgkh2rcd13ifvqbk0","pricing_plan_id":"cebpf4jnsgd1na2vs0mg"},{"bike_id":"ce9c6111-0118-42d1-bfda-6fdbc9033126","system_id":"levelo_inurba_marseille","lat":43.27994,"lon":5.4002,"is_reserved":false,"is_disabled":false,"rental_uris":{"android":"levelo://app?vid=ce9c6111-0118-42d1-bfda-6fdbc9033126","ios":"levelo://app?vid=ce9c6111-0118-42d1-bfda-6fdbc9033126"},"vehicle_type_id":"4","last_reported":1738004851,"current_range_meters":31200,"station_id":"ce4bho92rcd13ifvqh4g","pricing_plan_id":"cebpf4jnsgd1na2vs0mg"},{"bike_id":"8aa4aa51-f18d-4d73-b6fa-fc3281af7a8a","system_id":"levelo_inurba_marseille","lat":43.3055,"lon":5.38422,"is_reserved":false,"is_disabled":false,"rental_uris":{"android":"levelo://app?vid=8aa4aa51-f18d-4d73-b6fa-fc3281af7a8a","ios":"levelo://app?vid=8aa4aa51-f18d-4d73-b6fa-fc3281af7a8a"},"vehicle_type_id":"4","last_reported":1738004851,"current_range_meters":36800,"station_id":"ce4bgg92rcd13ifvqb30","pricing_plan_id":"cebpf4jnsgd1na2vs0mg"},{"bike_id":"8b1098b1-640e-4fd5-a15c-8d21ce3dcecf","system_id":"levelo_inurba_marseille","lat":43.28,"lon":5.40018,"is_reserved":false,"is_disabled":false,"rental_uris":{"android":"levelo://app?vid=8b1098b1-640e-4fd5-a15c-8d21ce3dcecf","ios":"levelo://app?vid=8b1098b1-640e-4fd5-a15c-8d21ce3dcecf"},"vehicle_type_id":"4","last_reported":1738004851,"current_range_meters":39200,"station_id":"ce4bho92rcd13ifvqh4g","pricing_plan_id":"cebpf4jnsgd1na2vs0mg"},{"bike_id":"258b0e8b-4679-4c9c-846b-bc4ab340cf20","system_id":"levelo_inurba_marseille","lat":43.24645,"lon":5.38904,"is_reserved":false,"is_disabled":false,"rental_uris":{"android":"levelo://app?vid=258b0e8b-4679-4c9c-846b-bc4ab340cf20","ios":"levelo://app?vid=258b0e8b-4679-4c9c-846b-bc4ab340cf20"},"vehicle_type_id":"4","last_reported":1738004851,"current_range_meters":12400,"station_id":"ce4bhg12rcd13ifvqf60","pricing_plan_id":"cebpf4jnsgd1na2vs0mg"},{"bike_id":"016df488-a883-41f8-ac53-5f03791bc4fe","system_id":"levelo_inurba_marseille","lat":43.30873,"lon":5.39655,"is_reserved":false,"is_disabled":true,"rental_uris":{"android":"levelo://app?vid=016df488-a883-41f8-ac53-5f03791bc4fe","ios":"levelo://app?vid=016df488-a883-41f8-ac53-5f03791bc4fe"},"vehicle_type_id":"4","last_reported":1738004851,"current_range_meters":400,"station_id":"ce4bh012rcd13ifvqcv0","pricing_plan_id":"cebpf4jnsgd1na2vs0mg"},{"bike_id":"4ede3f2d-b228-47a4-93fe-f46a51705f92","system_id":"levelo_inurba_marseille","lat":43.29261,"lon":5.40874,"is_reserved":false,"is_disabled":false,"rental_uris":{"android":"levelo://app?vid=4ede3f2d-b228-47a4-93fe-f46a51705f92","ios":"levelo://app?vid=4ede3f2d-b228-47a4-93fe-f46a51705f92"},"vehicle_type_id":"4","last_reported":1738004851,"current_range_meters":38800,"station_id":"ce4bh192rcd13ifvqdc0","pricing_plan_id":"cebpf4jnsgd1na2vs0mg"},{"bike_id":"0530cb7c-053b-49d0-b7a6-1800095bf1aa","system_id":"levelo_inurba_marseille","lat":43.29515,"lon":5.39035,"is_reserved":false,"is_disabled":false,"rental_uris":{"android":"levelo://app?vid=0530cb7c-053b-49d0-b7a6-1800095bf1aa","ios":"levelo://app?vid=0530cb7c-053b-49d0-b7a6-1800095bf1aa"},"vehicle_type_id":"4","last_reported":1738004851,"current_range_meters":27600,"station_id":"ce4bh3p2rcd13ifvqdp0","pricing_plan_id":"cebpf4jnsgd1na2vs0mg"},{"bike_id":"d6755dc8-d9a9-49dc-8a8f-22ec6b86e111","system_id":"levelo_inurba_marseille","lat":43.28147,"lon":5.42628,"is_reserved":false,"is_disabled":false,"rental_uris":{"android":"levelo://app?vid=d6755dc8-d9a9-49dc-8a8f-22ec6b86e111","ios":"levelo://app?vid=d6755dc8-d9a9-49dc-8a8f-22ec6b86e111"},"vehicle_type_id":"4","last_reported":1738004851,"current_range_meters":28400,"station_id":"ce4bhnh2rcd13ifvqgug","pricing_plan_id":"cebpf4jnsgd1na2vs0mg"},{"bike_id":"db913c79-4ab1-4c85-b882-18e791694c41","system_id":"levelo_inurba_marseille","lat":43.26559,"lon":5.39026,"is_reserved":false,"is_disabled":false,"rental_uris":{"android":"levelo://app?vid=db913c79-4ab1-4c85-b882-18e791694c41","ios":"levelo://app?vid=db913c79-4ab1-4c85-b882-18e791694c41"},"vehicle_type_id":"4","last_reported":1738004851,"current_range_meters":24800,"station_id":"ce4bhe12rcd13ifvqf30","pricing_plan_id":"cebpf4jnsgd1na2vs0mg"},{"bike_id":"1766969c-93bb-4f2e-85b4-137d694d2edc","system_id":"levelo_inurba_marseille","lat":43.32338,"lon":5.40617,"is_reserved":false,"is_disabled":false,"rental_uris":{"android":"levelo://app?vid=1766969c-93bb-4f2e-85b4-137d694d2edc","ios":"levelo://app?vid=1766969c-93bb-4f2e-85b4-137d694d2edc"},"vehicle_type_id":"4","last_reported":1738004851,"current_range_meters":16400,"station_id":"ce4bhq92rcd13ifvqhjg","pricing_plan_id":"cebpf4jnsgd1na2vs0mg"},{"bike_id":"c96545e6-b3fa-4a6b-836e-d89ea478e5d1","system_id":"levelo_inurba_marseille","lat":43.24998,"lon":5.38934,"is_reserved":false,"is_disabled":false,"rental_uris":{"android":"levelo://app?vid=c96545e6-b3fa-4a6b-836e-d89ea478e5d1","ios":"levelo://app?vid=c96545e6-b3fa-4a6b-836e-d89ea478e5d1"},"vehicle_type_id":"4","last_reported":1738004851,"current_range_meters":39200,"station_id":"ce4bhgp2rcd13ifvqfd0","pricing_plan_id":"cebpf4jnsgd1na2vs0mg"},{"bike_id":"50481764-4b9f-4ae2-9d4d-3410a5a0415c","system_id":"levelo_inurba_marseille","lat":43.28107,"lon":5.37869,"is_reserved":false,"is_disabled":false,"rental_uris":{"android":"levelo://app?vid=50481764-4b9f-4ae2-9d4d-3410a5a0415c","ios":"levelo://app?vid=50481764-4b9f-4ae2-9d4d-3410a5a0415c"},"vehicle_type_id":"4","last_reported":1738004851,"current_range_meters":20400,"station_id":"ce4bha12rcd13ifvqee0","pricing_plan_id":"cebpf4jnsgd1na2vs0mg"},{"bike_id":"cfff1edf-189f-4cb0-80dd-22014a7dc63a","system_id":"levelo_inurba_marseille","lat":43.24827,"lon":5.37431,"is_reserved":false,"is_disabled":false,"rental_uris":{"android":"levelo://app?vid=cfff1edf-189f-4cb0-80dd-22014a7dc63a","ios":"levelo://app?vid=cfff1edf-189f-4cb0-80dd-22014a7dc63a"},"vehicle_type_id":"4","last_reported":1738004851,"current_range_meters":22000,"station_id":"ce4bhgh2rcd13ifvqfb0","pricing_plan_id":"cebpf4jnsgd1na2vs0mg"},{"bike_id":"9374a97d-1050-440d-aa8f-bfed74b00e3e","system_id":"levelo_inurba_marseille","lat":43.29521,"lon":5.38536,"is_reserved":false,"is_disabled":false,"rental_uris":{"android":"levelo://app?vid=9374a97d-1050-440d-aa8f-bfed74b00e3e","ios":"levelo://app?vid=9374a97d-1050-440d-aa8f-bfed74b00e3e"},"vehicle_type_id":"4","last_reported":1738004851,"current_range_meters":22400,"station_id":"ce4bgih2rcd13ifvqba0","pricing_plan_id":"cebpf4jnsgd1na2vs0mg"},{"bike_id":"34daba6c-8e48-48b9-932e-853d6baf1ecf","system_id":"levelo_inurba_marseille","lat":43.29007,"lon":5.38116,"is_reserved":false,"is_disabled":false,"rental_uris":{"android":"levelo://app?vid=34daba6c-8e48-48b9-932e-853d6baf1ecf","ios":"levelo://app?vid=34daba6c-8e48-48b9-932e-853d6baf1ecf"},"vehicle_type_id":"4","last_reported":1738004851,"current_range_meters":16400,"station_id":"ce4bh4p2rcd13ifvqe1g","pricing_plan_id":"cebpf4jnsgd1na2vs0mg"},{"bike_id":"5a6503ca-c2c6-4dbe-a6f7-68e5f1916ac2","system_id":"levelo_inurba_marseille","lat":43.29866,"lon":5.43673,"is_reserved":false,"is_disabled":false,"rental_uris":{"android":"levelo://app?vid=5a6503ca-c2c6-4dbe-a6f7-68e5f1916ac2","ios":"levelo://app?vid=5a6503ca-c2c6-4dbe-a6f7-68e5f1916ac2"},"vehicle_type_id":"4","last_reported":1738004851,"current_range_meters":38800,"station_id":"ce4bhpp2rcd13ifvqhfg","pricing_plan_id":"cebpf4jnsgd1na2vs0mg"},{"bike_id":"5c388708-e3f2-4bbd-88d9-c199a31e81f9","system_id":"levelo_inurba_marseille","lat":43.28709,"lon":5.39985,"is_reserved":false,"is_disabled":true,"rental_uris":{"android":"levelo://app?vid=5c388708-e3f2-4bbd-88d9-c199a31e81f9","ios":"levelo://app?vid=5c388708-e3f2-4bbd-88d9-c199a31e81f9"},"vehicle_type_id":"4","last_reported":1738004851,"current_range_meters":38400,"station_id":"ce4bho92rcd13ifvqh3g","pricing_plan_id":"cebpf4jnsgd1na2vs0mg"},{"bike_id":"c6b2aeea-8be6-4ed0-8019-7e88f71bd8d8","system_id":"levelo_inurba_marseille","lat":43.29857,"lon":5.36289,"is_reserved":false,"is_disabled":true,"rental_uris":{"android":"levelo://app?vid=c6b2aeea-8be6-4ed0-8019-7e88f71bd8d8","ios":"levelo://app?vid=c6b2aeea-8be6-4ed0-8019-7e88f71bd8d8"},"vehicle_type_id":"4","last_reported":1738004851,"current_range_meters":30000,"station_id":"ce4bgpp2rcd13ifvqc3g","pricing_plan_id":"cebpf4jnsgd1na2vs0mg"},{"bike_id":"78d0469b-a6d8-42b5-94c6-9df02b87dea9","system_id":"levelo_inurba_marseille","lat":43.29524,"lon":5.39035,"is_reserved":false,"is_disabled":false,"rental_uris":{"android":"levelo://app?vid=78d0469b-a6d8-42b5-94c6-9df02b87dea9","ios":"levelo://app?vid=78d0469b-a6d8-42b5-94c6-9df02b87dea9"},"vehicle_type_id":"4","last_reported":1738004851,"current_range_meters":39200,"station_id":"ce4bh3p2rcd13ifvqdp0","pricing_plan_id":"cebpf4jnsgd1na2vs0mg"},{"bike_id":"49ac70a6-f431-448f-8b78-0c0b9150bb51","system_id":"levelo_inurba_marseille","lat":43.31272,"lon":5.40176,"is_reserved":false,"is_disabled":false,"rental_uris":{"android":"levelo://app?vid=49ac70a6-f431-448f-8b78-0c0b9150bb51","ios":"levelo://app?vid=49ac70a6-f431-448f-8b78-0c0b9150bb51"},"vehicle_type_id":"4","last_reported":1738004851,"current_range_meters":39200,"station_id":"ce4bh092rcd13ifvqd30","pricing_plan_id":"cebpf4jnsgd1na2vs0mg"},{"bike_id":"508fc828-f6ba-44cf-b339-942ca738842f","system_id":"levelo_inurba_marseille","lat":43.29224,"lon":5.36085,"is_reserved":false,"is_disabled":false,"rental_uris":{"android":"levelo://app?vid=508fc828-f6ba-44cf-b339-942ca738842f","ios":"levelo://app?vid=508fc828-f6ba-44cf-b339-942ca738842f"},"vehicle_type_id":"4","last_reported":1738004851,"current_range_meters":34000,"station_id":"ce4bhbh2rcd13ifvqeqg","pricing_plan_id":"cebpf4jnsgd1na2vs0mg"},{"bike_id":"92a40599-4729-41b6-9504-b7197348389a","system_id":"levelo_inurba_marseille","lat":43.26509,"lon":5.3955,"is_reserved":false,"is_disabled":false,"rental_uris":{"android":"levelo://app?vid=92a40599-4729-41b6-9504-b7197348389a","ios":"levelo://app?vid=92a40599-4729-41b6-9504-b7197348389a"},"vehicle_type_id":"4","last_reported":1738004851,"current_range_meters":38000,"station_id":"ce4bhi12rcd13ifvqfq0","pricing_plan_id":"cebpf4jnsgd1na2vs0mg"},{"bike_id":"75d02e0b-8cde-4e59-97b5-46322e8567fd","system_id":"levelo_inurba_marseille","lat":43.29558,"lon":5.42295,"is_reserved":false,"is_disabled":false,"rental_uris":{"android":"levelo://app?vid=75d02e0b-8cde-4e59-97b5-46322e8567fd","ios":"levelo://app?vid=75d02e0b-8cde-4e59-97b5-46322e8567fd"},"vehicle_type_id":"4","last_reported":1738004851,"current_range_meters":13600,"station_id":"ce4bhph2rcd13ifvqhdg","pricing_plan_id":"cebpf4jnsgd1na2vs0mg"},{"bike_id":"d999bd9f-6214-4f0c-9578-310af25f727d","system_id":"levelo_inurba_marseille","lat":43.2863,"lon":5.35092,"is_reserved":false,"is_disabled":false,"rental_uris":{"android":"levelo://app?vid=d999bd9f-6214-4f0c-9578-310af25f727d","ios":"levelo://app?vid=d999bd9f-6214-4f0c-9578-310af25f727d"},"vehicle_type_id":"4","last_reported":1738004851,"current_range_meters":30400,"station_id":"ce4bhch2rcd13ifvqeug","pricing_plan_id":"cebpf4jnsgd1na2vs0mg"},{"bike_id":"90f8ab31-4d7d-4155-a68f-273bc69bbf04","system_id":"levelo_inurba_marseille","lat":43.29637,"lon":5.40592,"is_reserved":false,"is_disabled":false,"rental_uris":{"android":"levelo://app?vid=90f8ab31-4d7d-4155-a68f-273bc69bbf04","ios":"levelo://app?vid=90f8ab31-4d7d-4155-a68f-273bc69bbf04"},"vehicle_type_id":"4","last_reported":1738004851,"current_range_meters":32400,"station_id":"ce4bh0h2rcd13ifvqd60","pricing_plan_id":"cebpf4jnsgd1na2vs0mg"},{"bike_id":"8453a0c4-33e9-480c-a7ee-1e14bdee2642","system_id":"levelo_inurba_marseille","lat":43.27907,"lon":5.39588,"is_reserved":false,"is_disabled":false,"rental_uris":{"android":"levelo://app?vid=8453a0c4-33e9-480c-a7ee-1e14bdee2642","ios":"levelo://app?vid=8453a0c4-33e9-480c-a7ee-1e14bdee2642"},"vehicle_type_id":"4","last_reported":1738004851,"current_range_meters":2800,"station_id":"ce4bhf92rcd13ifvqf40","pricing_plan_id":"cebpf4jnsgd1na2vs0mg"},{"bike_id":"b92110b7-a00c-4b0a-b2e8-36af254e050e","system_id":"levelo_inurba_marseille","lat":43.30801,"lon":5.4351,"is_reserved":false,"is_disabled":false,"rental_uris":{"android":"levelo://app?vid=b92110b7-a00c-4b0a-b2e8-36af254e050e","ios":"levelo://app?vid=b92110b7-a00c-4b0a-b2e8-36af254e050e"},"vehicle_type_id":"4","last_reported":1738004851,"current_range_meters":22400,"station_id":"ce4bhph2rcd13ifvqheg","pricing_plan_id":"cebpf4jnsgd1na2vs0mg"},{"bike_id":"2ea714b6-0e72-4180-a052-bee7e81cfafa","system_id":"levelo_inurba_marseille","lat":43.29713,"lon":5.36632,"is_reserved":false,"is_disabled":false,"rental_uris":{"android":"levelo://app?vid=2ea714b6-0e72-4180-a052-bee7e81cfafa","ios":"levelo://app?vid=2ea714b6-0e72-4180-a052-bee7e81cfafa"},"vehicle_type_id":"4","last_reported":1738004851,"current_range_meters":26000,"station_id":"ce4bgn12rcd13ifvqbt0","pricing_plan_id":"cebpf4jnsgd1na2vs0mg"},{"bike_id":"e3baa56b-664c-4ea9-a97a-3c2e29103c61","system_id":"levelo_inurba_marseille","lat":43.29162,"lon":5.37163,"is_reserved":false,"is_disabled":false,"rental_uris":{"android":"levelo://app?vid=e3baa56b-664c-4ea9-a97a-3c2e29103c61","ios":"levelo://app?vid=e3baa56b-664c-4ea9-a97a-3c2e29103c61"},"vehicle_type_id":"4","last_reported":1738004851,"current_range_meters":26000,"station_id":"ce4bha92rcd13ifvqeh0","pricing_plan_id":"cebpf4jnsgd1na2vs0mg"},{"bike_id":"2733305c-21a1-4f78-b060-f67256479d58","system_id":"levelo_inurba_marseille","lat":43.24179,"lon":5.39729,"is_reserved":false,"is_disabled":false,"rental_uris":{"android":"levelo://app?vid=2733305c-21a1-4f78-b060-f67256479d58","ios":"levelo://app?vid=2733305c-21a1-4f78-b060-f67256479d58"},"vehicle_type_id":"4","last_reported":1738004851,"current_range_meters":24800,"station_id":"ce4bhn12rcd13ifvqgpg","pricing_plan_id":"cebpf4jnsgd1na2vs0mg"},{"bike_id":"75f78423-7bb1-46bc-9291-8f61438106b2","system_id":"levelo_inurba_marseille","lat":43.33023,"lon":5.3903,"is_reserved":false,"is_disabled":false,"rental_uris":{"android":"levelo://app?vid=75f78423-7bb1-46bc-9291-8f61438106b2","ios":"levelo://app?vid=75f78423-7bb1-46bc-9291-8f61438106b2"},"vehicle_type_id":"4","last_reported":1738004851,"current_range_meters":32800,"station_id":"ce4bhr92rcd13ifvqhrg","pricing_plan_id":"cebpf4jnsgd1na2vs0mg"},{"bike_id":"f3069fef-2cbd-412e-8b88-fd308c97f7cd","system_id":"levelo_inurba_marseille","lat":43.261995,"lon":5.379275,"is_reserved":false,"is_disabled":false,"rental_uris":{"android":"levelo://app?vid=f3069fef-2cbd-412e-8b88-fd308c97f7cd","ios":"levelo://app?vid=f3069fef-2cbd-412e-8b88-fd308c97f7cd"},"vehicle_type_id":"4","last_reported":1738004851,"current_range_meters":19200,"station_id":"ce4bhjp2rcd13ifvqg90","pricing_plan_id":"cebpf4jnsgd1na2vs0mg"},{"bike_id":"2871edc1-4e28-494d-b206-2595f786a8ec","system_id":"levelo_inurba_marseille","lat":43.31115,"lon":5.37781,"is_reserved":false,"is_disabled":false,"rental_uris":{"android":"levelo://app?vid=2871edc1-4e28-494d-b206-2595f786a8ec","ios":"levelo://app?vid=2871edc1-4e28-494d-b206-2595f786a8ec"},"vehicle_type_id":"4","last_reported":1738004851,"current_range_meters":35600,"station_id":"ce4bgt92rcd13ifvqcg0","pricing_plan_id":"cebpf4jnsgd1na2vs0mg"},{"bike_id":"ce275fed-98f8-48c6-91df-9c84e602d48d","system_id":"levelo_inurba_marseille","lat":43.30892,"lon":5.37214,"is_reserved":false,"is_disabled":false,"rental_uris":{"android":"levelo://app?vid=ce275fed-98f8-48c6-91df-9c84e602d48d","ios":"levelo://app?vid=ce275fed-98f8-48c6-91df-9c84e602d48d"},"vehicle_type_id":"4","last_reported":1738004851,"current_range_meters":38800,"station_id":"ce4bguh2rcd13ifvqckg","pricing_plan_id":"cebpf4jnsgd1na2vs0mg"},{"bike_id":"aebdfd3b-e667-4f60-92ad-e93561b39fe8","system_id":"levelo_inurba_marseille","lat":43.29423,"lon":5.38621,"is_reserved":false,"is_disabled":false,"rental_uris":{"android":"levelo://app?vid=aebdfd3b-e667-4f60-92ad-e93561b39fe8","ios":"levelo://app?vid=aebdfd3b-e667-4f60-92ad-e93561b39fe8"},"vehicle_type_id":"4","last_reported":1738004851,"current_range_meters":23200,"station_id":"ce4bh2h2rcd13ifvqdh0","pricing_plan_id":"cebpf4jnsgd1na2vs0mg"},{"bike_id":"d474a662-3a78-44f0-af88-33fb73350cac","system_id":"levelo_inurba_marseille","lat":43.29251,"lon":5.40908,"is_reserved":false,"is_disabled":false,"rental_uris":{"android":"levelo://app?vid=d474a662-3a78-44f0-af88-33fb73350cac","ios":"levelo://app?vid=d474a662-3a78-44f0-af88-33fb73350cac"},"vehicle_type_id":"4","last_reported":1738004851,"current_range_meters":18000,"station_id":"ce4bh192rcd13ifvqdc0","pricing_plan_id":"cebpf4jnsgd1na2vs0mg"},{"bike_id":"7a184209-be60-4d65-b9fd-0a6ab88019c6","system_id":"levelo_inurba_marseille","lat":43.24084,"lon":5.37753,"is_reserved":false,"is_disabled":false,"rental_uris":{"android":"levelo://app?vid=7a184209-be60-4d65-b9fd-0a6ab88019c6","ios":"levelo://app?vid=7a184209-be60-4d65-b9fd-0a6ab88019c6"},"vehicle_type_id":"4","last_reported":1738004851,"current_range_meters":22000,"station_id":"ce4bhnp2rcd13ifvqgvg","pricing_plan_id":"cebpf4jnsgd1na2vs0mg"},{"bike_id":"885cb607-a227-460a-9e27-c666ce0b0da1","system_id":"levelo_inurba_marseille","lat":43.2827,"lon":5.35067,"is_reserved":false,"is_disabled":false,"rental_uris":{"android":"levelo://app?vid=885cb607-a227-460a-9e27-c666ce0b0da1","ios":"levelo://app?vid=885cb607-a227-460a-9e27-c666ce0b0da1"},"vehicle_type_id":"4","last_reported":1738004851,"current_range_meters":31200,"station_id":"ce4bhbp2rcd13ifvqerg","pricing_plan_id":"cebpf4jnsgd1na2vs0mg"},{"bike_id":"a0b9cd6c-c875-49b5-9730-db3796dd717c","system_id":"levelo_inurba_marseille","lat":43.2707,"lon":5.40266,"is_reserved":false,"is_disabled":false,"rental_uris":{"android":"levelo://app?vid=a0b9cd6c-c875-49b5-9730-db3796dd717c","ios":"levelo://app?vid=a0b9cd6c-c875-49b5-9730-db3796dd717c"},"vehicle_type_id":"4","last_reported":1738004851,"current_range_meters":38000,"station_id":"ce4bhk92rcd13ifvqgc0","pricing_plan_id":"cebpf4jnsgd1na2vs0mg"},{"bike_id":"c7830262-ea23-45f4-9a23-990ed17ebf09","system_id":"levelo_inurba_marseille","lat":43.29841,"lon":5.3975,"is_reserved":false,"is_disabled":true,"rental_uris":{"android":"levelo://app?vid=c7830262-ea23-45f4-9a23-990ed17ebf09","ios":"levelo://app?vid=c7830262-ea23-45f4-9a23-990ed17ebf09"},"vehicle_type_id":"4","last_reported":1738004851,"current_range_meters":0,"station_id":"ce4bh0h2rcd13ifvqd50","pricing_plan_id":"cebpf4jnsgd1na2vs0mg"},{"bike_id":"57ae508b-8b5e-4582-92ef-8f8000ce59c7","system_id":"levelo_inurba_marseille","lat":43.27992,"lon":5.40011,"is_reserved":false,"is_disabled":false,"rental_uris":{"android":"levelo://app?vid=57ae508b-8b5e-4582-92ef-8f8000ce59c7","ios":"levelo://app?vid=57ae508b-8b5e-4582-92ef-8f8000ce59c7"},"vehicle_type_id":"4","last_reported":1738004851,"current_range_meters":38800,"station_id":"ce4bho92rcd13ifvqh4g","pricing_plan_id":"cebpf4jnsgd1na2vs0mg"},{"bike_id":"6e81003b-1ed6-4bcc-bd22-c21300ab9348","system_id":"levelo_inurba_marseille","lat":43.28105,"lon":5.37839,"is_reserved":false,"is_disabled":false,"rental_uris":{"android":"levelo://app?vid=6e81003b-1ed6-4bcc-bd22-c21300ab9348","ios":"levelo://app?vid=6e81003b-1ed6-4bcc-bd22-c21300ab9348"},"vehicle_type_id":"4","last_reported":1738004851,"current_range_meters":4000,"station_id":"ce4bha12rcd13ifvqee0","pricing_plan_id":"cebpf4jnsgd1na2vs0mg"},{"bike_id":"74a8ba08-10bd-4bfd-830f-e130dab90166","system_id":"levelo_inurba_marseille","lat":43.2782,"lon":5.40707,"is_reserved":false,"is_disabled":false,"rental_uris":{"android":"levelo://app?vid=74a8ba08-10bd-4bfd-830f-e130dab90166","ios":"levelo://app?vid=74a8ba08-10bd-4bfd-830f-e130dab90166"},"vehicle_type_id":"4","last_reported":1738004851,"current_range_meters":30400,"station_id":"ce4bhnh2rcd13ifvqgtg","pricing_plan_id":"cebpf4jnsgd1na2vs0mg"},{"bike_id":"47ce9f76-20d2-4e32-9ac4-627b684ea49c","system_id":"levelo_inurba_marseille","lat":43.28118,"lon":5.37858,"is_reserved":false,"is_disabled":false,"rental_uris":{"android":"levelo://app?vid=47ce9f76-20d2-4e32-9ac4-627b684ea49c","ios":"levelo://app?vid=47ce9f76-20d2-4e32-9ac4-627b684ea49c"},"vehicle_type_id":"4","last_reported":1738004851,"current_range_meters":37600,"station_id":"ce4bha12rcd13ifvqee0","pricing_plan_id":"cebpf4jnsgd1na2vs0mg"},{"bike_id":"7fc942fc-b8cf-424a-806f-ec87840357cf","system_id":"levelo_inurba_marseille","lat":43.27178,"lon":5.40999,"is_reserved":false,"is_disabled":false,"rental_uris":{"android":"levelo://app?vid=7fc942fc-b8cf-424a-806f-ec87840357cf","ios":"levelo://app?vid=7fc942fc-b8cf-424a-806f-ec87840357cf"},"vehicle_type_id":"4","last_reported":1738004851,"current_range_meters":35600,"station_id":"ce4bhl12rcd13ifvqgf0","pricing_plan_id":"cebpf4jnsgd1na2vs0mg"},{"bike_id":"9a564cc9-7a8d-42d7-a99f-2e5e84a23054","system_id":"levelo_inurba_marseille","lat":43.27071,"lon":5.40239,"is_reserved":false,"is_disabled":false,"rental_uris":{"android":"levelo://app?vid=9a564cc9-7a8d-42d7-a99f-2e5e84a23054","ios":"levelo://app?vid=9a564cc9-7a8d-42d7-a99f-2e5e84a23054"},"vehicle_type_id":"4","last_reported":1738004851,"current_range_meters":16400,"station_id":"ce4bhk92rcd13ifvqgc0","pricing_plan_id":"cebpf4jnsgd1na2vs0mg"},{"bike_id":"0a3c2fc6-3a3b-4b11-853c-a8532910522d","system_id":"levelo_inurba_marseille","lat":43.31762,"lon":5.39021,"is_reserved":false,"is_disabled":false,"rental_uris":{"android":"levelo://app?vid=0a3c2fc6-3a3b-4b11-853c-a8532910522d","ios":"levelo://app?vid=0a3c2fc6-3a3b-4b11-853c-a8532910522d"},"vehicle_type_id":"4","last_reported":1738004851,"current_range_meters":28000,"station_id":"ce4bhqp2rcd13ifvqhng","pricing_plan_id":"cebpf4jnsgd1na2vs0mg"},{"bike_id":"a226971a-01b6-4fce-a188-2c300b70f87a","system_id":"levelo_inurba_marseille","lat":43.29414,"lon":5.38626,"is_reserved":false,"is_disabled":false,"rental_uris":{"android":"levelo://app?vid=a226971a-01b6-4fce-a188-2c300b70f87a","ios":"levelo://app?vid=a226971a-01b6-4fce-a188-2c300b70f87a"},"vehicle_type_id":"4","last_reported":1738004851,"current_range_meters":25200,"station_id":"ce4bh2h2rcd13ifvqdh0","pricing_plan_id":"cebpf4jnsgd1na2vs0mg"},{"bike_id":"8ff849b8-935b-4a73-ab47-41ba3cc8b679","system_id":"levelo_inurba_marseille","lat":43.29414,"lon":5.38622,"is_reserved":false,"is_disabled":false,"rental_uris":{"android":"levelo://app?vid=8ff849b8-935b-4a73-ab47-41ba3cc8b679","ios":"levelo://app?vid=8ff849b8-935b-4a73-ab47-41ba3cc8b679"},"vehicle_type_id":"4","last_reported":1738004851,"current_range_meters":32000,"station_id":"ce4bh2h2rcd13ifvqdh0","pricing_plan_id":"cebpf4jnsgd1na2vs0mg"},{"bike_id":"04eef5f1-9910-4247-adcc-3c9ac71da897","system_id":"levelo_inurba_marseille","lat":43.28659,"lon":5.36359,"is_reserved":false,"is_disabled":false,"rental_uris":{"android":"levelo://app?vid=04eef5f1-9910-4247-adcc-3c9ac71da897","ios":"levelo://app?vid=04eef5f1-9910-4247-adcc-3c9ac71da897"},"vehicle_type_id":"4","last_reported":1738004851,"current_range_meters":38800,"station_id":"ce4bhah2rcd13ifvqej0","pricing_plan_id":"cebpf4jnsgd1na2vs0mg"},{"bike_id":"3ec52b4d-cf80-449d-bd30-9db7519a9ed7","system_id":"levelo_inurba_marseille","lat":43.27034,"lon":5.4029,"is_reserved":false,"is_disabled":false,"rental_uris":{"android":"levelo://app?vid=3ec52b4d-cf80-449d-bd30-9db7519a9ed7","ios":"levelo://app?vid=3ec52b4d-cf80-449d-bd30-9db7519a9ed7"},"vehicle_type_id":"4","last_reported":1738004851,"current_range_meters":10000,"station_id":"ce4bhk92rcd13ifvqgc0","pricing_plan_id":"cebpf4jnsgd1na2vs0mg"},{"bike_id":"dcdd58f1-c264-4524-a17f-80a20d13576c","system_id":"levelo_inurba_marseille","lat":43.27897,"lon":5.3801,"is_reserved":false,"is_disabled":false,"rental_uris":{"android":"levelo://app?vid=dcdd58f1-c264-4524-a17f-80a20d13576c","ios":"levelo://app?vid=dcdd58f1-c264-4524-a17f-80a20d13576c"},"vehicle_type_id":"4","last_reported":1738004851,"current_range_meters":27200,"station_id":"ce4bhf92rcd13ifvqf50","pricing_plan_id":"cebpf4jnsgd1na2vs0mg"},{"bike_id":"a1aa1119-c115-4bd2-b453-11981a3bd34e","system_id":"levelo_inurba_marseille","lat":43.28031,"lon":5.36938,"is_reserved":false,"is_disabled":false,"rental_uris":{"android":"levelo://app?vid=a1aa1119-c115-4bd2-b453-11981a3bd34e","ios":"levelo://app?vid=a1aa1119-c115-4bd2-b453-11981a3bd34e"},"vehicle_type_id":"4","last_reported":1738004851,"current_range_meters":16800,"station_id":"ce4bha12rcd13ifvqef0","pricing_plan_id":"cebpf4jnsgd1na2vs0mg"},{"bike_id":"4ce9eda4-7d12-49f2-aec0-eb18d235e7b8","system_id":"levelo_inurba_marseille","lat":43.27823,"lon":5.40704,"is_reserved":false,"is_disabled":false,"rental_uris":{"android":"levelo://app?vid=4ce9eda4-7d12-49f2-aec0-eb18d235e7b8","ios":"levelo://app?vid=4ce9eda4-7d12-49f2-aec0-eb18d235e7b8"},"vehicle_type_id":"4","last_reported":1738004851,"current_range_meters":6400,"station_id":"ce4bhnh2rcd13ifvqgtg","pricing_plan_id":"cebpf4jnsgd1na2vs0mg"},{"bike_id":"47170eef-7e8a-4b8d-90bc-71d6406c4168","system_id":"levelo_inurba_marseille","lat":43.31752,"lon":5.37206,"is_reserved":false,"is_disabled":true,"rental_uris":{"android":"levelo://app?vid=47170eef-7e8a-4b8d-90bc-71d6406c4168","ios":"levelo://app?vid=47170eef-7e8a-4b8d-90bc-71d6406c4168"},"vehicle_type_id":"4","last_reported":1738004851,"current_range_meters":800,"station_id":"","pricing_plan_id":"cebpf4jnsgd1na2vs0mg"},{"bike_id":"9838cc78-2b53-49d3-ae13-82df62c4fd64","system_id":"levelo_inurba_marseille","lat":43.28412,"lon":5.40934,"is_reserved":false,"is_disabled":true,"rental_uris":{"android":"levelo://app?vid=9838cc78-2b53-49d3-ae13-82df62c4fd64","ios":"levelo://app?vid=9838cc78-2b53-49d3-ae13-82df62c4fd64"},"vehicle_type_id":"4","last_reported":1738004851,"current_range_meters":0,"station_id":"","pricing_plan_id":"cebpf4jnsgd1na2vs0mg"},{"bike_id":"4f88c35f-26e1-455b-b946-e1cd21dd1fe2","system_id":"levelo_inurba_marseille","lat":43.29848,"lon":5.36256,"is_reserved":false,"is_disabled":false,"rental_uris":{"android":"levelo://app?vid=4f88c35f-26e1-455b-b946-e1cd21dd1fe2","ios":"levelo://app?vid=4f88c35f-26e1-455b-b946-e1cd21dd1fe2"},"vehicle_type_id":"4","last_reported":1738004851,"current_range_meters":24000,"station_id":"ce4bgpp2rcd13ifvqc3g","pricing_plan_id":"cebpf4jnsgd1na2vs0mg"},{"bike_id":"f3a886a3-500d-4d32-a120-4a7101c0f911","system_id":"levelo_inurba_marseille","lat":43.26933,"lon":5.40259,"is_reserved":false,"is_disabled":false,"rental_uris":{"android":"levelo://app?vid=f3a886a3-500d-4d32-a120-4a7101c0f911","ios":"levelo://app?vid=f3a886a3-500d-4d32-a120-4a7101c0f911"},"vehicle_type_id":"4","last_reported":1738004851,"current_range_meters":39200,"station_id":"cjm6bp8fraef2m0cb0m0","pricing_plan_id":"cebpf4jnsgd1na2vs0mg"},{"bike_id":"433d6f7c-0677-4bab-90f4-b6c711a23b12","system_id":"levelo_inurba_marseille","lat":43.28662,"lon":5.36358,"is_reserved":false,"is_disabled":false,"rental_uris":{"android":"levelo://app?vid=433d6f7c-0677-4bab-90f4-b6c711a23b12","ios":"levelo://app?vid=433d6f7c-0677-4bab-90f4-b6c711a23b12"},"vehicle_type_id":"4","last_reported":1738004851,"current_range_meters":30400,"station_id":"ce4bhah2rcd13ifvqej0","pricing_plan_id":"cebpf4jnsgd1na2vs0mg"},{"bike_id":"15e179fa-b4d7-4a1e-b397-fb0073f8547e","system_id":"levelo_inurba_marseille","lat":43.30148,"lon":5.38778,"is_reserved":false,"is_disabled":false,"rental_uris":{"android":"levelo://app?vid=15e179fa-b4d7-4a1e-b397-fb0073f8547e","ios":"levelo://app?vid=15e179fa-b4d7-4a1e-b397-fb0073f8547e"},"vehicle_type_id":"4","last_reported":1738004851,"current_range_meters":16800,"station_id":"ce4bhoh2rcd13ifvqh6g","pricing_plan_id":"cebpf4jnsgd1na2vs0mg"},{"bike_id":"aa8a84a8-bbd0-4c16-93e3-81c76940fe1b","system_id":"levelo_inurba_marseille","lat":43.29018,"lon":5.38641,"is_reserved":false,"is_disabled":false,"rental_uris":{"android":"levelo://app?vid=aa8a84a8-bbd0-4c16-93e3-81c76940fe1b","ios":"levelo://app?vid=aa8a84a8-bbd0-4c16-93e3-81c76940fe1b"},"vehicle_type_id":"4","last_reported":1738004851,"current_range_meters":28800,"station_id":"ce4bh4p2rcd13ifvqe0g","pricing_plan_id":"cebpf4jnsgd1na2vs0mg"},{"bike_id":"5fa241af-ff37-49ce-bf70-bbf2d0e80cee","system_id":"levelo_inurba_marseille","lat":43.29189,"lon":5.39354,"is_reserved":false,"is_disabled":false,"rental_uris":{"android":"levelo://app?vid=5fa241af-ff37-49ce-bf70-bbf2d0e80cee","ios":"levelo://app?vid=5fa241af-ff37-49ce-bf70-bbf2d0e80cee"},"vehicle_type_id":"4","last_reported":1738004851,"current_range_meters":22400,"station_id":"","pricing_plan_id":"cebpf4jnsgd1na2vs0mg"},{"bike_id":"4044df78-be9c-49b2-9e9b-8b004ba0cec9","system_id":"levelo_inurba_marseille","lat":43.34146,"lon":5.40906,"is_reserved":false,"is_disabled":false,"rental_uris":{"android":"levelo://app?vid=4044df78-be9c-49b2-9e9b-8b004ba0cec9","ios":"levelo://app?vid=4044df78-be9c-49b2-9e9b-8b004ba0cec9"},"vehicle_type_id":"4","last_reported":1738004851,"current_range_meters":28800,"station_id":"ce4bhqh2rcd13ifvqhlg","pricing_plan_id":"cebpf4jnsgd1na2vs0mg"},{"bike_id":"9dbe908f-59c4-4ff0-b02b-5400c7b52f9d","system_id":"levelo_inurba_marseille","lat":43.29629,"lon":5.40594,"is_reserved":false,"is_disabled":false,"rental_uris":{"android":"levelo://app?vid=9dbe908f-59c4-4ff0-b02b-5400c7b52f9d","ios":"levelo://app?vid=9dbe908f-59c4-4ff0-b02b-5400c7b52f9d"},"vehicle_type_id":"4","last_reported":1738004851,"current_range_meters":39200,"station_id":"ce4bh0h2rcd13ifvqd60","pricing_plan_id":"cebpf4jnsgd1na2vs0mg"},{"bike_id":"aad69bc3-bc1b-4156-a313-be595f833cb2","system_id":"levelo_inurba_marseille","lat":43.27073,"lon":5.42274,"is_reserved":false,"is_disabled":false,"rental_uris":{"android":"levelo://app?vid=aad69bc3-bc1b-4156-a313-be595f833cb2","ios":"levelo://app?vid=aad69bc3-bc1b-4156-a313-be595f833cb2"},"vehicle_type_id":"4","last_reported":1738004851,"current_range_meters":39200,"station_id":"ce4bhk92rcd13ifvqgb0","pricing_plan_id":"cebpf4jnsgd1na2vs0mg"},{"bike_id":"e4f81e6e-bff5-48ee-9cf0-1a2de2d7d1eb","system_id":"levelo_inurba_marseille","lat":43.312722,"lon":5.401533,"is_reserved":false,"is_disabled":false,"rental_uris":{"android":"levelo://app?vid=e4f81e6e-bff5-48ee-9cf0-1a2de2d7d1eb","ios":"levelo://app?vid=e4f81e6e-bff5-48ee-9cf0-1a2de2d7d1eb"},"vehicle_type_id":"4","last_reported":1738004851,"current_range_meters":19600,"station_id":"ce4bh092rcd13ifvqd30","pricing_plan_id":"cebpf4jnsgd1na2vs0mg"},{"bike_id":"2e0a8b86-b457-48a0-8577-213b01080398","system_id":"levelo_inurba_marseille","lat":43.23209,"lon":5.35553,"is_reserved":false,"is_disabled":false,"rental_uris":{"android":"levelo://app?vid=2e0a8b86-b457-48a0-8577-213b01080398","ios":"levelo://app?vid=2e0a8b86-b457-48a0-8577-213b01080398"},"vehicle_type_id":"4","last_reported":1738004851,"current_range_meters":38800,"station_id":"ce4bhu92rcd13ifvqi70","pricing_plan_id":"cebpf4jnsgd1na2vs0mg"},{"bike_id":"eefc26b4-ceeb-447b-96e9-86927bc262df","system_id":"levelo_inurba_marseille","lat":43.2788,"lon":5.38002,"is_reserved":false,"is_disabled":false,"rental_uris":{"android":"levelo://app?vid=eefc26b4-ceeb-447b-96e9-86927bc262df","ios":"levelo://app?vid=eefc26b4-ceeb-447b-96e9-86927bc262df"},"vehicle_type_id":"4","last_reported":1738004851,"current_range_meters":39200,"station_id":"ce4bhf92rcd13ifvqf50","pricing_plan_id":"cebpf4jnsgd1na2vs0mg"},{"bike_id":"d979d8d2-ec65-47af-9229-e4270aab279a","system_id":"levelo_inurba_marseille","lat":43.23061,"lon":5.355,"is_reserved":false,"is_disabled":false,"rental_uris":{"android":"levelo://app?vid=d979d8d2-ec65-47af-9229-e4270aab279a","ios":"levelo://app?vid=d979d8d2-ec65-47af-9229-e4270aab279a"},"vehicle_type_id":"4","last_reported":1738004851,"current_range_meters":27200,"station_id":"cpo3342slgdg3j2ifvpg","pricing_plan_id":"cebpf4jnsgd1na2vs0mg"},{"bike_id":"1f957485-1041-486f-a10a-f53c11a11cde","system_id":"levelo_inurba_marseille","lat":43.28936,"lon":5.36642,"is_reserved":false,"is_disabled":false,"rental_uris":{"android":"levelo://app?vid=1f957485-1041-486f-a10a-f53c11a11cde","ios":"levelo://app?vid=1f957485-1041-486f-a10a-f53c11a11cde"},"vehicle_type_id":"4","last_reported":1738004851,"current_range_meters":16000,"station_id":"ce4bhap2rcd13ifvqek0","pricing_plan_id":"cebpf4jnsgd1na2vs0mg"},{"bike_id":"3032247d-9c57-4ed9-a18a-cfea4d5d8699","system_id":"levelo_inurba_marseille","lat":43.28702,"lon":5.39992,"is_reserved":false,"is_disabled":false,"rental_uris":{"android":"levelo://app?vid=3032247d-9c57-4ed9-a18a-cfea4d5d8699","ios":"levelo://app?vid=3032247d-9c57-4ed9-a18a-cfea4d5d8699"},"vehicle_type_id":"4","last_reported":1738004851,"current_range_meters":35600,"station_id":"ce4bho92rcd13ifvqh3g","pricing_plan_id":"cebpf4jnsgd1na2vs0mg"},{"bike_id":"7430dbdb-8516-48f1-b64f-01ca3d57a44e","system_id":"levelo_inurba_marseille","lat":43.24809,"lon":5.37441,"is_reserved":false,"is_disabled":false,"rental_uris":{"android":"levelo://app?vid=7430dbdb-8516-48f1-b64f-01ca3d57a44e","ios":"levelo://app?vid=7430dbdb-8516-48f1-b64f-01ca3d57a44e"},"vehicle_type_id":"4","last_reported":1738004851,"current_range_meters":38000,"station_id":"ce4bhgh2rcd13ifvqfb0","pricing_plan_id":"cebpf4jnsgd1na2vs0mg"},{"bike_id":"eecca6bf-8b74-40da-aaa1-519ada23f008","system_id":"levelo_inurba_marseille","lat":43.26803,"lon":5.40271,"is_reserved":false,"is_disabled":false,"rental_uris":{"android":"levelo://app?vid=eecca6bf-8b74-40da-aaa1-519ada23f008","ios":"levelo://app?vid=eecca6bf-8b74-40da-aaa1-519ada23f008"},"vehicle_type_id":"4","last_reported":1738004851,"current_range_meters":24800,"station_id":"ce501612rcd8frsf0b60","pricing_plan_id":"cebpf4jnsgd1na2vs0mg"},{"bike_id":"ae00de2f-f31f-40c5-afd5-77a43823ef3d","system_id":"levelo_inurba_marseille","lat":43.33028,"lon":5.39039,"is_reserved":false,"is_disabled":false,"rental_uris":{"android":"levelo://app?vid=ae00de2f-f31f-40c5-afd5-77a43823ef3d","ios":"levelo://app?vid=ae00de2f-f31f-40c5-afd5-77a43823ef3d"},"vehicle_type_id":"4","last_reported":1738004851,"current_range_meters":38800,"station_id":"ce4bhr92rcd13ifvqhrg","pricing_plan_id":"cebpf4jnsgd1na2vs0mg"},{"bike_id":"a55f162c-f5f7-4120-b5f1-60d25ae04aa6","system_id":"levelo_inurba_marseille","lat":43.300967,"lon":5.39072,"is_reserved":false,"is_disabled":false,"rental_uris":{"android":"levelo://app?vid=a55f162c-f5f7-4120-b5f1-60d25ae04aa6","ios":"levelo://app?vid=a55f162c-f5f7-4120-b5f1-60d25ae04aa6"},"vehicle_type_id":"4","last_reported":1738004851,"current_range_meters":38800,"station_id":"ce4bh192rcd13ifvqdb0","pricing_plan_id":"cebpf4jnsgd1na2vs0mg"},{"bike_id":"7f3db98a-d670-4ad0-9409-ade545da9876","system_id":"levelo_inurba_marseille","lat":43.28863,"lon":5.35844,"is_reserved":false,"is_disabled":false,"rental_uris":{"android":"levelo://app?vid=7f3db98a-d670-4ad0-9409-ade545da9876","ios":"levelo://app?vid=7f3db98a-d670-4ad0-9409-ade545da9876"},"vehicle_type_id":"4","last_reported":1738004851,"current_range_meters":37600,"station_id":"ce4bhb12rcd13ifvqem0","pricing_plan_id":"cebpf4jnsgd1na2vs0mg"},{"bike_id":"af426510-f6ef-4ba4-967b-ce9df04523ec","system_id":"levelo_inurba_marseille","lat":43.32368,"lon":5.38872,"is_reserved":false,"is_disabled":false,"rental_uris":{"android":"levelo://app?vid=af426510-f6ef-4ba4-967b-ce9df04523ec","ios":"levelo://app?vid=af426510-f6ef-4ba4-967b-ce9df04523ec"},"vehicle_type_id":"4","last_reported":1738004851,"current_range_meters":8400,"station_id":"ce4bhqp2rcd13ifvqhog","pricing_plan_id":"cebpf4jnsgd1na2vs0mg"},{"bike_id":"75214a19-3086-4aab-8ba6-a177978da634","system_id":"levelo_inurba_marseille","lat":43.29855,"lon":5.43644,"is_reserved":false,"is_disabled":false,"rental_uris":{"android":"levelo://app?vid=75214a19-3086-4aab-8ba6-a177978da634","ios":"levelo://app?vid=75214a19-3086-4aab-8ba6-a177978da634"},"vehicle_type_id":"4","last_reported":1738004851,"current_range_meters":38400,"station_id":"ce4bhpp2rcd13ifvqhfg","pricing_plan_id":"cebpf4jnsgd1na2vs0mg"},{"bike_id":"30bbb00e-1612-4a25-b2e9-c8ad656fb58a","system_id":"levelo_inurba_marseille","lat":43.33722,"lon":5.39195,"is_reserved":false,"is_disabled":false,"rental_uris":{"android":"levelo://app?vid=30bbb00e-1612-4a25-b2e9-c8ad656fb58a","ios":"levelo://app?vid=30bbb00e-1612-4a25-b2e9-c8ad656fb58a"},"vehicle_type_id":"4","last_reported":1738004851,"current_range_meters":38800,"station_id":"ce4bhr92rcd13ifvqhsg","pricing_plan_id":"cebpf4jnsgd1na2vs0mg"},{"bike_id":"cdba9093-1e92-471c-a6ea-8ba6d1c21ef6","system_id":"levelo_inurba_marseille","lat":43.30423,"lon":5.38898,"is_reserved":false,"is_disabled":true,"rental_uris":{"android":"levelo://app?vid=cdba9093-1e92-471c-a6ea-8ba6d1c21ef6","ios":"levelo://app?vid=cdba9093-1e92-471c-a6ea-8ba6d1c21ef6"},"vehicle_type_id":"4","last_reported":1738004851,"current_range_meters":36000,"station_id":"ce4bgk12rcd13ifvqbi0","pricing_plan_id":"cebpf4jnsgd1na2vs0mg"},{"bike_id":"489f6534-c1d5-483f-a648-2a087319e607","system_id":"levelo_inurba_marseille","lat":43.33031,"lon":5.39046,"is_reserved":false,"is_disabled":false,"rental_uris":{"android":"levelo://app?vid=489f6534-c1d5-483f-a648-2a087319e607","ios":"levelo://app?vid=489f6534-c1d5-483f-a648-2a087319e607"},"vehicle_type_id":"4","last_reported":1738004851,"current_range_meters":38800,"station_id":"ce4bhr92rcd13ifvqhrg","pricing_plan_id":"cebpf4jnsgd1na2vs0mg"},{"bike_id":"f91ef97a-a958-4a1c-948d-b1443991db80","system_id":"levelo_inurba_marseille","lat":43.29446,"lon":5.39744,"is_reserved":false,"is_disabled":false,"rental_uris":{"android":"levelo://app?vid=f91ef97a-a958-4a1c-948d-b1443991db80","ios":"levelo://app?vid=f91ef97a-a958-4a1c-948d-b1443991db80"},"vehicle_type_id":"4","last_reported":1738004851,"current_range_meters":11600,"station_id":"ce4bh3h2rcd13ifvqdo0","pricing_plan_id":"cebpf4jnsgd1na2vs0mg"},{"bike_id":"580828f0-3b12-422d-95d2-0d346530f1dd","system_id":"levelo_inurba_marseille","lat":43.25087,"lon":5.39518,"is_reserved":false,"is_disabled":false,"rental_uris":{"android":"levelo://app?vid=580828f0-3b12-422d-95d2-0d346530f1dd","ios":"levelo://app?vid=580828f0-3b12-422d-95d2-0d346530f1dd"},"vehicle_type_id":"4","last_reported":1738004851,"current_range_meters":23200,"station_id":"ce4bhm12rcd13ifvqgkg","pricing_plan_id":"cebpf4jnsgd1na2vs0mg"},{"bike_id":"3816cd89-5ed5-4f57-af75-c6496f460332","system_id":"levelo_inurba_marseille","lat":43.2986,"lon":5.36264,"is_reserved":false,"is_disabled":false,"rental_uris":{"android":"levelo://app?vid=3816cd89-5ed5-4f57-af75-c6496f460332","ios":"levelo://app?vid=3816cd89-5ed5-4f57-af75-c6496f460332"},"vehicle_type_id":"4","last_reported":1738004851,"current_range_meters":38000,"station_id":"ce4bgpp2rcd13ifvqc3g","pricing_plan_id":"cebpf4jnsgd1na2vs0mg"},{"bike_id":"44e2c606-e863-4525-992e-9f501f9c6fa1","system_id":"levelo_inurba_marseille","lat":43.30904,"lon":5.36849,"is_reserved":false,"is_disabled":false,"rental_uris":{"android":"levelo://app?vid=44e2c606-e863-4525-992e-9f501f9c6fa1","ios":"levelo://app?vid=44e2c606-e863-4525-992e-9f501f9c6fa1"},"vehicle_type_id":"4","last_reported":1738004851,"current_range_meters":17200,"station_id":"ce4bgn92rcd13ifvqbvg","pricing_plan_id":"cebpf4jnsgd1na2vs0mg"},{"bike_id":"816b0862-4aea-432a-881f-e434ae607b56","system_id":"levelo_inurba_marseille","lat":43.29867,"lon":5.3629,"is_reserved":false,"is_disabled":true,"rental_uris":{"android":"levelo://app?vid=816b0862-4aea-432a-881f-e434ae607b56","ios":"levelo://app?vid=816b0862-4aea-432a-881f-e434ae607b56"},"vehicle_type_id":"4","last_reported":1738004851,"current_range_meters":2000,"station_id":"ce4bgpp2rcd13ifvqc3g","pricing_plan_id":"cebpf4jnsgd1na2vs0mg"},{"bike_id":"3c9c9088-9c27-4609-bc62-8218c0dc2be8","system_id":"levelo_inurba_marseille","lat":43.23191,"lon":5.35559,"is_reserved":false,"is_disabled":false,"rental_uris":{"android":"levelo://app?vid=3c9c9088-9c27-4609-bc62-8218c0dc2be8","ios":"levelo://app?vid=3c9c9088-9c27-4609-bc62-8218c0dc2be8"},"vehicle_type_id":"4","last_reported":1738004851,"current_range_meters":36400,"station_id":"ce4bhu92rcd13ifvqi70","pricing_plan_id":"cebpf4jnsgd1na2vs0mg"},{"bike_id":"8a4fd9c1-126f-44bd-8919-7cf37f162b5e","system_id":"levelo_inurba_marseille","lat":43.28167,"lon":5.42666,"is_reserved":false,"is_disabled":false,"rental_uris":{"android":"levelo://app?vid=8a4fd9c1-126f-44bd-8919-7cf37f162b5e","ios":"levelo://app?vid=8a4fd9c1-126f-44bd-8919-7cf37f162b5e"},"vehicle_type_id":"4","last_reported":1738004851,"current_range_meters":30400,"station_id":"ce4bhnh2rcd13ifvqgug","pricing_plan_id":"cebpf4jnsgd1na2vs0mg"},{"bike_id":"2070dd69-bac9-4b28-938a-3282a1b78ff4","system_id":"levelo_inurba_marseille","lat":43.31289,"lon":5.40174,"is_reserved":false,"is_disabled":false,"rental_uris":{"android":"levelo://app?vid=2070dd69-bac9-4b28-938a-3282a1b78ff4","ios":"levelo://app?vid=2070dd69-bac9-4b28-938a-3282a1b78ff4"},"vehicle_type_id":"4","last_reported":1738004851,"current_range_meters":27600,"station_id":"ce4bh092rcd13ifvqd30","pricing_plan_id":"cebpf4jnsgd1na2vs0mg"},{"bike_id":"a4ebca99-a7a3-497b-b464-c384db188e87","system_id":"levelo_inurba_marseille","lat":43.28,"lon":5.40003,"is_reserved":false,"is_disabled":false,"rental_uris":{"android":"levelo://app?vid=a4ebca99-a7a3-497b-b464-c384db188e87","ios":"levelo://app?vid=a4ebca99-a7a3-497b-b464-c384db188e87"},"vehicle_type_id":"4","last_reported":1738004851,"current_range_meters":19200,"station_id":"ce4bho92rcd13ifvqh4g","pricing_plan_id":"cebpf4jnsgd1na2vs0mg"},{"bike_id":"f94eb858-2be5-4cb9-9587-f71d2b0ef237","system_id":"levelo_inurba_marseille","lat":43.29855,"lon":5.36268,"is_reserved":false,"is_disabled":false,"rental_uris":{"android":"levelo://app?vid=f94eb858-2be5-4cb9-9587-f71d2b0ef237","ios":"levelo://app?vid=f94eb858-2be5-4cb9-9587-f71d2b0ef237"},"vehicle_type_id":"4","last_reported":1738004851,"current_range_meters":25600,"station_id":"ce4bgpp2rcd13ifvqc3g","pricing_plan_id":"cebpf4jnsgd1na2vs0mg"},{"bike_id":"58f41873-85ad-494b-b738-4a4fd6338412","system_id":"levelo_inurba_marseille","lat":43.29706,"lon":5.37706,"is_reserved":false,"is_disabled":false,"rental_uris":{"android":"levelo://app?vid=58f41873-85ad-494b-b738-4a4fd6338412","ios":"levelo://app?vid=58f41873-85ad-494b-b738-4a4fd6338412"},"vehicle_type_id":"4","last_reported":1738004851,"current_range_meters":28000,"station_id":"ce4bgkh2rcd13ifvqbl0","pricing_plan_id":"cebpf4jnsgd1na2vs0mg"},{"bike_id":"f88f66c1-b973-4eb7-bc64-928cbde2fde7","system_id":"levelo_inurba_marseille","lat":43.28703,"lon":5.39981,"is_reserved":false,"is_disabled":false,"rental_uris":{"android":"levelo://app?vid=f88f66c1-b973-4eb7-bc64-928cbde2fde7","ios":"levelo://app?vid=f88f66c1-b973-4eb7-bc64-928cbde2fde7"},"vehicle_type_id":"4","last_reported":1738004851,"current_range_meters":8400,"station_id":"ce4bho92rcd13ifvqh3g","pricing_plan_id":"cebpf4jnsgd1na2vs0mg"},{"bike_id":"df1440ab-6c98-4811-96ed-60cc1ae214b5","system_id":"levelo_inurba_marseille","lat":43.24071,"lon":5.37736,"is_reserved":false,"is_disabled":false,"rental_uris":{"android":"levelo://app?vid=df1440ab-6c98-4811-96ed-60cc1ae214b5","ios":"levelo://app?vid=df1440ab-6c98-4811-96ed-60cc1ae214b5"},"vehicle_type_id":"4","last_reported":1738004851,"current_range_meters":39200,"station_id":"ce4bhnp2rcd13ifvqgvg","pricing_plan_id":"cebpf4jnsgd1na2vs0mg"},{"bike_id":"47c13c22-8671-4a7b-a0f0-1846e8355cdb","system_id":"levelo_inurba_marseille","lat":43.32288,"lon":5.38308,"is_reserved":false,"is_disabled":false,"rental_uris":{"android":"levelo://app?vid=47c13c22-8671-4a7b-a0f0-1846e8355cdb","ios":"levelo://app?vid=47c13c22-8671-4a7b-a0f0-1846e8355cdb"},"vehicle_type_id":"4","last_reported":1738004851,"current_range_meters":38800,"station_id":"ce4bhr12rcd13ifvqhqg","pricing_plan_id":"cebpf4jnsgd1na2vs0mg"},{"bike_id":"b683f960-ddf6-422e-aa5a-c7c16b4c0531","system_id":"levelo_inurba_marseille","lat":43.28856,"lon":5.39348,"is_reserved":false,"is_disabled":false,"rental_uris":{"android":"levelo://app?vid=b683f960-ddf6-422e-aa5a-c7c16b4c0531","ios":"levelo://app?vid=b683f960-ddf6-422e-aa5a-c7c16b4c0531"},"vehicle_type_id":"4","last_reported":1738004851,"current_range_meters":6800,"station_id":"ce4bh2p2rcd13ifvqdi0","pricing_plan_id":"cebpf4jnsgd1na2vs0mg"},{"bike_id":"726d373c-208a-4390-ad05-3c1be1c3f94a","system_id":"levelo_inurba_marseille","lat":43.29008,"lon":5.38116,"is_reserved":false,"is_disabled":false,"rental_uris":{"android":"levelo://app?vid=726d373c-208a-4390-ad05-3c1be1c3f94a","ios":"levelo://app?vid=726d373c-208a-4390-ad05-3c1be1c3f94a"},"vehicle_type_id":"4","last_reported":1738004851,"current_range_meters":29600,"station_id":"ce4bh4p2rcd13ifvqe1g","pricing_plan_id":"cebpf4jnsgd1na2vs0mg"},{"bike_id":"8707dca8-5fb6-4e35-a1ec-1f30a01fea05","system_id":"levelo_inurba_marseille","lat":43.29552,"lon":5.42288,"is_reserved":false,"is_disabled":false,"rental_uris":{"android":"levelo://app?vid=8707dca8-5fb6-4e35-a1ec-1f30a01fea05","ios":"levelo://app?vid=8707dca8-5fb6-4e35-a1ec-1f30a01fea05"},"vehicle_type_id":"4","last_reported":1738004851,"current_range_meters":38800,"station_id":"ce4bhph2rcd13ifvqhdg","pricing_plan_id":"cebpf4jnsgd1na2vs0mg"},{"bike_id":"b5f9da4a-0440-436b-86f5-ecc367051a64","system_id":"levelo_inurba_marseille","lat":43.29839,"lon":5.36269,"is_reserved":false,"is_disabled":false,"rental_uris":{"android":"levelo://app?vid=b5f9da4a-0440-436b-86f5-ecc367051a64","ios":"levelo://app?vid=b5f9da4a-0440-436b-86f5-ecc367051a64"},"vehicle_type_id":"4","last_reported":1738004851,"current_range_meters":30000,"station_id":"ce4bgpp2rcd13ifvqc3g","pricing_plan_id":"cebpf4jnsgd1na2vs0mg"},{"bike_id":"2aa89283-d1f6-4350-9c22-68a093ab3573","system_id":"levelo_inurba_marseille","lat":43.29201,"lon":5.35796,"is_reserved":false,"is_disabled":false,"rental_uris":{"android":"levelo://app?vid=2aa89283-d1f6-4350-9c22-68a093ab3573","ios":"levelo://app?vid=2aa89283-d1f6-4350-9c22-68a093ab3573"},"vehicle_type_id":"4","last_reported":1738004851,"current_range_meters":37600,"station_id":"ce4bhb12rcd13ifvqel0","pricing_plan_id":"cebpf4jnsgd1na2vs0mg"},{"bike_id":"bd0a4b3a-0002-476a-9750-d6e2675c7bd4","system_id":"levelo_inurba_marseille","lat":43.29199,"lon":5.35797,"is_reserved":false,"is_disabled":false,"rental_uris":{"android":"levelo://app?vid=bd0a4b3a-0002-476a-9750-d6e2675c7bd4","ios":"levelo://app?vid=bd0a4b3a-0002-476a-9750-d6e2675c7bd4"},"vehicle_type_id":"4","last_reported":1738004851,"current_range_meters":38800,"station_id":"ce4bhb12rcd13ifvqel0","pricing_plan_id":"cebpf4jnsgd1na2vs0mg"},{"bike_id":"4ab1c826-01de-4db1-bc4a-2fac2dfbb3c6","system_id":"levelo_inurba_marseille","lat":43.27985,"lon":5.40026,"is_reserved":false,"is_disabled":false,"rental_uris":{"android":"levelo://app?vid=4ab1c826-01de-4db1-bc4a-2fac2dfbb3c6","ios":"levelo://app?vid=4ab1c826-01de-4db1-bc4a-2fac2dfbb3c6"},"vehicle_type_id":"4","last_reported":1738004851,"current_range_meters":38400,"station_id":"ce4bho92rcd13ifvqh4g","pricing_plan_id":"cebpf4jnsgd1na2vs0mg"},{"bike_id":"d44f9aac-075d-42fe-ae0d-e74d09070282","system_id":"levelo_inurba_marseille","lat":43.2953,"lon":5.38544,"is_reserved":false,"is_disabled":false,"rental_uris":{"android":"levelo://app?vid=d44f9aac-075d-42fe-ae0d-e74d09070282","ios":"levelo://app?vid=d44f9aac-075d-42fe-ae0d-e74d09070282"},"vehicle_type_id":"4","last_reported":1738004851,"current_range_meters":38800,"station_id":"ce4bgih2rcd13ifvqba0","pricing_plan_id":"cebpf4jnsgd1na2vs0mg"},{"bike_id":"2256710f-428a-4b6c-afaf-f485da875c48","system_id":"levelo_inurba_marseille","lat":43.28611,"lon":5.35119,"is_reserved":false,"is_disabled":false,"rental_uris":{"android":"levelo://app?vid=2256710f-428a-4b6c-afaf-f485da875c48","ios":"levelo://app?vid=2256710f-428a-4b6c-afaf-f485da875c48"},"vehicle_type_id":"4","last_reported":1738004851,"current_range_meters":18800,"station_id":"ce4bhch2rcd13ifvqeug","pricing_plan_id":"cebpf4jnsgd1na2vs0mg"},{"bike_id":"ab2c796a-c23b-4a3a-9534-777b873d6a05","system_id":"levelo_inurba_marseille","lat":43.241669,"lon":5.36403,"is_reserved":false,"is_disabled":false,"rental_uris":{"android":"levelo://app?vid=ab2c796a-c23b-4a3a-9534-777b873d6a05","ios":"levelo://app?vid=ab2c796a-c23b-4a3a-9534-777b873d6a05"},"vehicle_type_id":"4","last_reported":1738004851,"current_range_meters":24400,"station_id":"cpo36qri1sfpv3e86is0","pricing_plan_id":"cebpf4jnsgd1na2vs0mg"},{"bike_id":"b97e5ebe-a5da-4b6a-bcab-1feef830a30a","system_id":"levelo_inurba_marseille","lat":43.28725,"lon":5.3609,"is_reserved":false,"is_disabled":false,"rental_uris":{"android":"levelo://app?vid=b97e5ebe-a5da-4b6a-bcab-1feef830a30a","ios":"levelo://app?vid=b97e5ebe-a5da-4b6a-bcab-1feef830a30a"},"vehicle_type_id":"4","last_reported":1738004851,"current_range_meters":38800,"station_id":"cki0cbj6b192h4jlfktg","pricing_plan_id":"cebpf4jnsgd1na2vs0mg"},{"bike_id":"506d4c2d-5106-42e0-943d-fbc0f8da12a3","system_id":"levelo_inurba_marseille","lat":43.28361,"lon":5.38639,"is_reserved":false,"is_disabled":false,"rental_uris":{"android":"levelo://app?vid=506d4c2d-5106-42e0-943d-fbc0f8da12a3","ios":"levelo://app?vid=506d4c2d-5106-42e0-943d-fbc0f8da12a3"},"vehicle_type_id":"4","last_reported":1738004851,"current_range_meters":38000,"station_id":"ce4bh492rcd13ifvqdvg","pricing_plan_id":"cebpf4jnsgd1na2vs0mg"},{"bike_id":"529f1ab7-390e-41c3-9180-30692697770e","system_id":"levelo_inurba_marseille","lat":43.28596,"lon":5.35113,"is_reserved":false,"is_disabled":false,"rental_uris":{"android":"levelo://app?vid=529f1ab7-390e-41c3-9180-30692697770e","ios":"levelo://app?vid=529f1ab7-390e-41c3-9180-30692697770e"},"vehicle_type_id":"4","last_reported":1738004851,"current_range_meters":18000,"station_id":"ce4bhch2rcd13ifvqeug","pricing_plan_id":"cebpf4jnsgd1na2vs0mg"},{"bike_id":"d4e2da73-10f4-46c0-a0e8-b84f3919d1cc","system_id":"levelo_inurba_marseille","lat":43.29797,"lon":5.40396,"is_reserved":false,"is_disabled":false,"rental_uris":{"android":"levelo://app?vid=d4e2da73-10f4-46c0-a0e8-b84f3919d1cc","ios":"levelo://app?vid=d4e2da73-10f4-46c0-a0e8-b84f3919d1cc"},"vehicle_type_id":"4","last_reported":1738004851,"current_range_meters":20000,"station_id":"ce4bh112rcd13ifvqd90","pricing_plan_id":"cebpf4jnsgd1na2vs0mg"},{"bike_id":"a60cd7c8-c640-401a-a609-5b6e16bf4426","system_id":"levelo_inurba_marseille","lat":43.28944,"lon":5.36646,"is_reserved":false,"is_disabled":false,"rental_uris":{"android":"levelo://app?vid=a60cd7c8-c640-401a-a609-5b6e16bf4426","ios":"levelo://app?vid=a60cd7c8-c640-401a-a609-5b6e16bf4426"},"vehicle_type_id":"4","last_reported":1738004851,"current_range_meters":20000,"station_id":"ce4bhap2rcd13ifvqek0","pricing_plan_id":"cebpf4jnsgd1na2vs0mg"},{"bike_id":"1bfd3f93-f93f-44ab-9456-242bc679e8ee","system_id":"levelo_inurba_marseille","lat":43.32279,"lon":5.38274,"is_reserved":false,"is_disabled":false,"rental_uris":{"android":"levelo://app?vid=1bfd3f93-f93f-44ab-9456-242bc679e8ee","ios":"levelo://app?vid=1bfd3f93-f93f-44ab-9456-242bc679e8ee"},"vehicle_type_id":"4","last_reported":1738004851,"current_range_meters":24800,"station_id":"ce4bhr12rcd13ifvqhqg","pricing_plan_id":"cebpf4jnsgd1na2vs0mg"},{"bike_id":"caf4fd72-81be-4864-b40d-16ffdca5a851","system_id":"levelo_inurba_marseille","lat":43.3112,"lon":5.37772,"is_reserved":false,"is_disabled":false,"rental_uris":{"android":"levelo://app?vid=caf4fd72-81be-4864-b40d-16ffdca5a851","ios":"levelo://app?vid=caf4fd72-81be-4864-b40d-16ffdca5a851"},"vehicle_type_id":"4","last_reported":1738004851,"current_range_meters":38800,"station_id":"ce4bgt92rcd13ifvqcg0","pricing_plan_id":"cebpf4jnsgd1na2vs0mg"},{"bike_id":"f4acc7eb-fc62-4c52-801d-fa3e960d4b06","system_id":"levelo_inurba_marseille","lat":43.29418,"lon":5.38619,"is_reserved":false,"is_disabled":false,"rental_uris":{"android":"levelo://app?vid=f4acc7eb-fc62-4c52-801d-fa3e960d4b06","ios":"levelo://app?vid=f4acc7eb-fc62-4c52-801d-fa3e960d4b06"},"vehicle_type_id":"4","last_reported":1738004851,"current_range_meters":14400,"station_id":"ce4bh2h2rcd13ifvqdh0","pricing_plan_id":"cebpf4jnsgd1na2vs0mg"},{"bike_id":"4a57ae2d-d6f4-4f42-9476-a8855216e80f","system_id":"levelo_inurba_marseille","lat":43.29269,"lon":5.38448,"is_reserved":false,"is_disabled":false,"rental_uris":{"android":"levelo://app?vid=4a57ae2d-d6f4-4f42-9476-a8855216e80f","ios":"levelo://app?vid=4a57ae2d-d6f4-4f42-9476-a8855216e80f"},"vehicle_type_id":"4","last_reported":1738004851,"current_range_meters":23200,"station_id":"ce4bh692rcd13ifvqea0","pricing_plan_id":"cebpf4jnsgd1na2vs0mg"},{"bike_id":"8054957d-e9d8-4785-ac5e-e2c213834eb7","system_id":"levelo_inurba_marseille","lat":43.29275,"lon":5.38451,"is_reserved":false,"is_disabled":false,"rental_uris":{"android":"levelo://app?vid=8054957d-e9d8-4785-ac5e-e2c213834eb7","ios":"levelo://app?vid=8054957d-e9d8-4785-ac5e-e2c213834eb7"},"vehicle_type_id":"4","last_reported":1738004851,"current_range_meters":17600,"station_id":"ce4bh692rcd13ifvqea0","pricing_plan_id":"cebpf4jnsgd1na2vs0mg"},{"bike_id":"cb0c200f-d580-4e20-ac3f-2c86af3fbe96","system_id":"levelo_inurba_marseille","lat":43.29197,"lon":5.39312,"is_reserved":false,"is_disabled":false,"rental_uris":{"android":"levelo://app?vid=cb0c200f-d580-4e20-ac3f-2c86af3fbe96","ios":"levelo://app?vid=cb0c200f-d580-4e20-ac3f-2c86af3fbe96"},"vehicle_type_id":"4","last_reported":1738004851,"current_range_meters":29600,"station_id":"ce4bh192rcd13ifvqdd0","pricing_plan_id":"cebpf4jnsgd1na2vs0mg"},{"bike_id":"27008ab4-fd65-436d-a4a9-bba5732c5712","system_id":"levelo_inurba_marseille","lat":43.28078,"lon":5.39661,"is_reserved":false,"is_disabled":false,"rental_uris":{"android":"levelo://app?vid=27008ab4-fd65-436d-a4a9-bba5732c5712","ios":"levelo://app?vid=27008ab4-fd65-436d-a4a9-bba5732c5712"},"vehicle_type_id":"4","last_reported":1738004851,"current_range_meters":11200,"station_id":"ce4bho12rcd13ifvqh2g","pricing_plan_id":"cebpf4jnsgd1na2vs0mg"},{"bike_id":"a02db55e-ba47-47e1-9cb6-3610b1989231","system_id":"levelo_inurba_marseille","lat":43.29535,"lon":5.3904,"is_reserved":false,"is_disabled":false,"rental_uris":{"android":"levelo://app?vid=a02db55e-ba47-47e1-9cb6-3610b1989231","ios":"levelo://app?vid=a02db55e-ba47-47e1-9cb6-3610b1989231"},"vehicle_type_id":"4","last_reported":1738004851,"current_range_meters":31200,"station_id":"ce4bh3p2rcd13ifvqdp0","pricing_plan_id":"cebpf4jnsgd1na2vs0mg"},{"bike_id":"fb718f77-42be-4664-9cdd-65305dc1c1ba","system_id":"levelo_inurba_marseille","lat":43.232,"lon":5.39969,"is_reserved":false,"is_disabled":false,"rental_uris":{"android":"levelo://app?vid=fb718f77-42be-4664-9cdd-65305dc1c1ba","ios":"levelo://app?vid=fb718f77-42be-4664-9cdd-65305dc1c1ba"},"vehicle_type_id":"4","last_reported":1738004851,"current_range_meters":39200,"station_id":"ce4bhn12rcd13ifvqgqg","pricing_plan_id":"cebpf4jnsgd1na2vs0mg"},{"bike_id":"6964e9b8-be4d-48ce-8fea-7897babb72f9","system_id":"levelo_inurba_marseille","lat":43.255,"lon":5.37673,"is_reserved":false,"is_disabled":false,"rental_uris":{"android":"levelo://app?vid=6964e9b8-be4d-48ce-8fea-7897babb72f9","ios":"levelo://app?vid=6964e9b8-be4d-48ce-8fea-7897babb72f9"},"vehicle_type_id":"4","last_reported":1738004851,"current_range_meters":19600,"station_id":"ce4bhh12rcd13ifvqff0","pricing_plan_id":"cebpf4jnsgd1na2vs0mg"},{"bike_id":"43cb41c5-439f-4eb6-9ca9-ddeec93fcf1d","system_id":"levelo_inurba_marseille","lat":43.23969,"lon":5.3662,"is_reserved":false,"is_disabled":false,"rental_uris":{"android":"levelo://app?vid=43cb41c5-439f-4eb6-9ca9-ddeec93fcf1d","ios":"levelo://app?vid=43cb41c5-439f-4eb6-9ca9-ddeec93fcf1d"},"vehicle_type_id":"4","last_reported":1738004851,"current_range_meters":9600,"station_id":"ce4bhi12rcd13ifvqfp0","pricing_plan_id":"cebpf4jnsgd1na2vs0mg"},{"bike_id":"8ccef378-70c1-431e-9220-cb8b91a6d43b","system_id":"levelo_inurba_marseille","lat":43.30774,"lon":5.37651,"is_reserved":false,"is_disabled":true,"rental_uris":{"android":"levelo://app?vid=8ccef378-70c1-431e-9220-cb8b91a6d43b","ios":"levelo://app?vid=8ccef378-70c1-431e-9220-cb8b91a6d43b"},"vehicle_type_id":"4","last_reported":1738004851,"current_range_meters":24800,"station_id":"","pricing_plan_id":"cebpf4jnsgd1na2vs0mg"},{"bike_id":"4b4961b5-5e83-4377-a634-c1cb155aefdf","system_id":"levelo_inurba_marseille","lat":43.29229,"lon":5.36067,"is_reserved":false,"is_disabled":false,"rental_uris":{"android":"levelo://app?vid=4b4961b5-5e83-4377-a634-c1cb155aefdf","ios":"levelo://app?vid=4b4961b5-5e83-4377-a634-c1cb155aefdf"},"vehicle_type_id":"4","last_reported":1738004851,"current_range_meters":38800,"station_id":"ce4bhbh2rcd13ifvqeqg","pricing_plan_id":"cebpf4jnsgd1na2vs0mg"},{"bike_id":"9645258e-0985-4a32-9d68-2d9528eebe9c","system_id":"levelo_inurba_marseille","lat":43.29843,"lon":5.36269,"is_reserved":false,"is_disabled":false,"rental_uris":{"android":"levelo://app?vid=9645258e-0985-4a32-9d68-2d9528eebe9c","ios":"levelo://app?vid=9645258e-0985-4a32-9d68-2d9528eebe9c"},"vehicle_type_id":"4","last_reported":1738004851,"current_range_meters":26000,"station_id":"ce4bgpp2rcd13ifvqc3g","pricing_plan_id":"cebpf4jnsgd1na2vs0mg"},{"bike_id":"d24f579f-449d-4f84-bf88-d3b03d265d8b","system_id":"levelo_inurba_marseille","lat":43.29537,"lon":5.38532,"is_reserved":false,"is_disabled":false,"rental_uris":{"android":"levelo://app?vid=d24f579f-449d-4f84-bf88-d3b03d265d8b","ios":"levelo://app?vid=d24f579f-449d-4f84-bf88-d3b03d265d8b"},"vehicle_type_id":"4","last_reported":1738004851,"current_range_meters":17600,"station_id":"ce4bgih2rcd13ifvqba0","pricing_plan_id":"cebpf4jnsgd1na2vs0mg"},{"bike_id":"9b744b95-e734-4df1-a02c-3cfb137358e6","system_id":"levelo_inurba_marseille","lat":43.31458,"lon":5.37379,"is_reserved":false,"is_disabled":true,"rental_uris":{"android":"levelo://app?vid=9b744b95-e734-4df1-a02c-3cfb137358e6","ios":"levelo://app?vid=9b744b95-e734-4df1-a02c-3cfb137358e6"},"vehicle_type_id":"4","last_reported":1738004851,"current_range_meters":1600,"station_id":"","pricing_plan_id":"cebpf4jnsgd1na2vs0mg"},{"bike_id":"76a03fe2-6853-42db-8972-77b89a64555b","system_id":"levelo_inurba_marseille","lat":43.32103,"lon":5.36786,"is_reserved":false,"is_disabled":true,"rental_uris":{"android":"levelo://app?vid=76a03fe2-6853-42db-8972-77b89a64555b","ios":"levelo://app?vid=76a03fe2-6853-42db-8972-77b89a64555b"},"vehicle_type_id":"4","last_reported":1738004851,"current_range_meters":24800,"station_id":"ce4bhrh2rcd13ifvqhug","pricing_plan_id":"cebpf4jnsgd1na2vs0mg"},{"bike_id":"cfc7ac7b-cae1-404b-af3a-22511688b3d2","system_id":"levelo_inurba_marseille","lat":43.2917,"lon":5.37148,"is_reserved":false,"is_disabled":false,"rental_uris":{"android":"levelo://app?vid=cfc7ac7b-cae1-404b-af3a-22511688b3d2","ios":"levelo://app?vid=cfc7ac7b-cae1-404b-af3a-22511688b3d2"},"vehicle_type_id":"4","last_reported":1738004851,"current_range_meters":14800,"station_id":"ce4bha92rcd13ifvqeh0","pricing_plan_id":"cebpf4jnsgd1na2vs0mg"},{"bike_id":"88677356-551f-4c78-976d-d610cc147377","system_id":"levelo_inurba_marseille","lat":43.29219,"lon":5.36067,"is_reserved":false,"is_disabled":true,"rental_uris":{"android":"levelo://app?vid=88677356-551f-4c78-976d-d610cc147377","ios":"levelo://app?vid=88677356-551f-4c78-976d-d610cc147377"},"vehicle_type_id":"4","last_reported":1738004851,"current_range_meters":0,"station_id":"ce4bhbh2rcd13ifvqeqg","pricing_plan_id":"cebpf4jnsgd1na2vs0mg"},{"bike_id":"b01b0706-3a3a-4ff1-ac0d-6b17e48eff7a","system_id":"levelo_inurba_marseille","lat":43.23201,"lon":5.35536,"is_reserved":false,"is_disabled":false,"rental_uris":{"android":"levelo://app?vid=b01b0706-3a3a-4ff1-ac0d-6b17e48eff7a","ios":"levelo://app?vid=b01b0706-3a3a-4ff1-ac0d-6b17e48eff7a"},"vehicle_type_id":"4","last_reported":1738004851,"current_range_meters":36400,"station_id":"ce4bhu92rcd13ifvqi70","pricing_plan_id":"cebpf4jnsgd1na2vs0mg"},{"bike_id":"25927537-ebfd-4ad0-914a-6d68f96d9be7","system_id":"levelo_inurba_marseille","lat":43.30777,"lon":5.37657,"is_reserved":false,"is_disabled":false,"rental_uris":{"android":"levelo://app?vid=25927537-ebfd-4ad0-914a-6d68f96d9be7","ios":"levelo://app?vid=25927537-ebfd-4ad0-914a-6d68f96d9be7"},"vehicle_type_id":"4","last_reported":1738004851,"current_range_meters":38800,"station_id":"ce4bgv92rcd13ifvqcq0","pricing_plan_id":"cebpf4jnsgd1na2vs0mg"},{"bike_id":"d5b23150-6d5e-4e9d-9b9b-13d1d7fe2484","system_id":"levelo_inurba_marseille","lat":43.29188,"lon":5.35798,"is_reserved":false,"is_disabled":false,"rental_uris":{"android":"levelo://app?vid=d5b23150-6d5e-4e9d-9b9b-13d1d7fe2484","ios":"levelo://app?vid=d5b23150-6d5e-4e9d-9b9b-13d1d7fe2484"},"vehicle_type_id":"4","last_reported":1738004851,"current_range_meters":25200,"station_id":"ce4bhb12rcd13ifvqel0","pricing_plan_id":"cebpf4jnsgd1na2vs0mg"},{"bike_id":"0c6fa2a7-0031-47aa-866d-31dbc6d98fec","system_id":"levelo_inurba_marseille","lat":43.24068,"lon":5.37763,"is_reserved":false,"is_disabled":false,"rental_uris":{"android":"levelo://app?vid=0c6fa2a7-0031-47aa-866d-31dbc6d98fec","ios":"levelo://app?vid=0c6fa2a7-0031-47aa-866d-31dbc6d98fec"},"vehicle_type_id":"4","last_reported":1738004851,"current_range_meters":38800,"station_id":"ce4bhnp2rcd13ifvqgvg","pricing_plan_id":"cebpf4jnsgd1na2vs0mg"},{"bike_id":"b392fed4-0fa4-45ae-9eaa-d91de503ec25","system_id":"levelo_inurba_marseille","lat":43.26557,"lon":5.37282,"is_reserved":false,"is_disabled":false,"rental_uris":{"android":"levelo://app?vid=b392fed4-0fa4-45ae-9eaa-d91de503ec25","ios":"levelo://app?vid=b392fed4-0fa4-45ae-9eaa-d91de503ec25"},"vehicle_type_id":"4","last_reported":1738004851,"current_range_meters":17200,"station_id":"ce4bhg12rcd13ifvqf70","pricing_plan_id":"cebpf4jnsgd1na2vs0mg"},{"bike_id":"3533f092-c3d5-4535-ab9a-9de3940a3972","system_id":"levelo_inurba_marseille","lat":43.28433,"lon":5.39183,"is_reserved":false,"is_disabled":false,"rental_uris":{"android":"levelo://app?vid=3533f092-c3d5-4535-ab9a-9de3940a3972","ios":"levelo://app?vid=3533f092-c3d5-4535-ab9a-9de3940a3972"},"vehicle_type_id":"4","last_reported":1738004851,"current_range_meters":32400,"station_id":"ce4bhoh2rcd13ifvqh5g","pricing_plan_id":"cebpf4jnsgd1na2vs0mg"},{"bike_id":"915df6a6-30bf-4e90-9efc-34ebcb795923","system_id":"levelo_inurba_marseille","lat":43.284554,"lon":5.358811,"is_reserved":false,"is_disabled":false,"rental_uris":{"android":"levelo://app?vid=915df6a6-30bf-4e90-9efc-34ebcb795923","ios":"levelo://app?vid=915df6a6-30bf-4e90-9efc-34ebcb795923"},"vehicle_type_id":"4","last_reported":1738004851,"current_range_meters":38800,"station_id":"ce4bhah2rcd13ifvqei0","pricing_plan_id":"cebpf4jnsgd1na2vs0mg"},{"bike_id":"8f0be848-d541-47fe-8086-1d80d5cc52a7","system_id":"levelo_inurba_marseille","lat":43.29788,"lon":5.40392,"is_reserved":false,"is_disabled":false,"rental_uris":{"android":"levelo://app?vid=8f0be848-d541-47fe-8086-1d80d5cc52a7","ios":"levelo://app?vid=8f0be848-d541-47fe-8086-1d80d5cc52a7"},"vehicle_type_id":"4","last_reported":1738004851,"current_range_meters":18800,"station_id":"ce4bh112rcd13ifvqd90","pricing_plan_id":"cebpf4jnsgd1na2vs0mg"},{"bike_id":"7e93f69d-703a-4c02-a965-70a3bbd51b48","system_id":"levelo_inurba_marseille","lat":43.29848,"lon":5.36273,"is_reserved":false,"is_disabled":false,"rental_uris":{"android":"levelo://app?vid=7e93f69d-703a-4c02-a965-70a3bbd51b48","ios":"levelo://app?vid=7e93f69d-703a-4c02-a965-70a3bbd51b48"},"vehicle_type_id":"4","last_reported":1738004851,"current_range_meters":12400,"station_id":"ce4bgpp2rcd13ifvqc3g","pricing_plan_id":"cebpf4jnsgd1na2vs0mg"},{"bike_id":"ecf18d5e-fe06-4d6d-aa21-6d4ba394f980","system_id":"levelo_inurba_marseille","lat":43.28562,"lon":5.39502,"is_reserved":false,"is_disabled":false,"rental_uris":{"android":"levelo://app?vid=ecf18d5e-fe06-4d6d-aa21-6d4ba394f980","ios":"levelo://app?vid=ecf18d5e-fe06-4d6d-aa21-6d4ba394f980"},"vehicle_type_id":"4","last_reported":1738004851,"current_range_meters":24800,"station_id":"ce4bh292rcd13ifvqdg0","pricing_plan_id":"cebpf4jnsgd1na2vs0mg"},{"bike_id":"48eaf086-a58e-442a-ac63-1b1e74c4ac84","system_id":"levelo_inurba_marseille","lat":43.31712,"lon":5.437102,"is_reserved":false,"is_disabled":false,"rental_uris":{"android":"levelo://app?vid=48eaf086-a58e-442a-ac63-1b1e74c4ac84","ios":"levelo://app?vid=48eaf086-a58e-442a-ac63-1b1e74c4ac84"},"vehicle_type_id":"4","last_reported":1738004851,"current_range_meters":38800,"station_id":"ce4bhp92rcd13ifvqhcg","pricing_plan_id":"cebpf4jnsgd1na2vs0mg"},{"bike_id":"438ef96e-576a-42aa-bc1f-ac59ea62970f","system_id":"levelo_inurba_marseille","lat":43.2961,"lon":5.36726,"is_reserved":false,"is_disabled":true,"rental_uris":{"android":"levelo://app?vid=438ef96e-576a-42aa-bc1f-ac59ea62970f","ios":"levelo://app?vid=438ef96e-576a-42aa-bc1f-ac59ea62970f"},"vehicle_type_id":"4","last_reported":1738004851,"current_range_meters":33200,"station_id":"ce4bgph2rcd13ifvqc2g","pricing_plan_id":"cebpf4jnsgd1na2vs0mg"},{"bike_id":"8c5e94e2-a561-47ca-b8e7-b5bb9e37e4e3","system_id":"levelo_inurba_marseille","lat":43.27895,"lon":5.38016,"is_reserved":false,"is_disabled":false,"rental_uris":{"android":"levelo://app?vid=8c5e94e2-a561-47ca-b8e7-b5bb9e37e4e3","ios":"levelo://app?vid=8c5e94e2-a561-47ca-b8e7-b5bb9e37e4e3"},"vehicle_type_id":"4","last_reported":1738004851,"current_range_meters":20800,"station_id":"ce4bhf92rcd13ifvqf50","pricing_plan_id":"cebpf4jnsgd1na2vs0mg"},{"bike_id":"1291d126-7b32-407e-bda6-f5f46bcd2ba9","system_id":"levelo_inurba_marseille","lat":43.30134,"lon":5.38773,"is_reserved":false,"is_disabled":false,"rental_uris":{"android":"levelo://app?vid=1291d126-7b32-407e-bda6-f5f46bcd2ba9","ios":"levelo://app?vid=1291d126-7b32-407e-bda6-f5f46bcd2ba9"},"vehicle_type_id":"4","last_reported":1738004851,"current_range_meters":38400,"station_id":"ce4bhoh2rcd13ifvqh6g","pricing_plan_id":"cebpf4jnsgd1na2vs0mg"},{"bike_id":"ff68af14-5554-4f8d-a3de-4549d987f602","system_id":"levelo_inurba_marseille","lat":43.29905,"lon":5.43674,"is_reserved":false,"is_disabled":false,"rental_uris":{"android":"levelo://app?vid=ff68af14-5554-4f8d-a3de-4549d987f602","ios":"levelo://app?vid=ff68af14-5554-4f8d-a3de-4549d987f602"},"vehicle_type_id":"4","last_reported":1738004851,"current_range_meters":38000,"station_id":"ce4bhpp2rcd13ifvqhfg","pricing_plan_id":"cebpf4jnsgd1na2vs0mg"},{"bike_id":"6490584c-177f-41d8-bcd8-59e3b3b16530","system_id":"levelo_inurba_marseille","lat":43.29538,"lon":5.3854,"is_reserved":false,"is_disabled":false,"rental_uris":{"android":"levelo://app?vid=6490584c-177f-41d8-bcd8-59e3b3b16530","ios":"levelo://app?vid=6490584c-177f-41d8-bcd8-59e3b3b16530"},"vehicle_type_id":"4","last_reported":1738004851,"current_range_meters":4400,"station_id":"ce4bgih2rcd13ifvqba0","pricing_plan_id":"cebpf4jnsgd1na2vs0mg"},{"bike_id":"824a1984-9692-4554-8c47-08be5c6e12b1","system_id":"levelo_inurba_marseille","lat":43.29852,"lon":5.3627,"is_reserved":false,"is_disabled":false,"rental_uris":{"android":"levelo://app?vid=824a1984-9692-4554-8c47-08be5c6e12b1","ios":"levelo://app?vid=824a1984-9692-4554-8c47-08be5c6e12b1"},"vehicle_type_id":"4","last_reported":1738004851,"current_range_meters":16000,"station_id":"ce4bgpp2rcd13ifvqc3g","pricing_plan_id":"cebpf4jnsgd1na2vs0mg"},{"bike_id":"f906edcd-1206-4866-a7bc-c20f2dc6cf44","system_id":"levelo_inurba_marseille","lat":43.29859,"lon":5.36268,"is_reserved":false,"is_disabled":false,"rental_uris":{"android":"levelo://app?vid=f906edcd-1206-4866-a7bc-c20f2dc6cf44","ios":"levelo://app?vid=f906edcd-1206-4866-a7bc-c20f2dc6cf44"},"vehicle_type_id":"4","last_reported":1738004851,"current_range_meters":18000,"station_id":"ce4bgpp2rcd13ifvqc3g","pricing_plan_id":"cebpf4jnsgd1na2vs0mg"},{"bike_id":"d30947d1-2359-4863-a249-f6cc06ea9043","system_id":"levelo_inurba_marseille","lat":43.29627,"lon":5.40598,"is_reserved":false,"is_disabled":false,"rental_uris":{"android":"levelo://app?vid=d30947d1-2359-4863-a249-f6cc06ea9043","ios":"levelo://app?vid=d30947d1-2359-4863-a249-f6cc06ea9043"},"vehicle_type_id":"4","last_reported":1738004851,"current_range_meters":22000,"station_id":"ce4bh0h2rcd13ifvqd60","pricing_plan_id":"cebpf4jnsgd1na2vs0mg"},{"bike_id":"712329f9-e8f5-4533-b06e-8359f5ad199d","system_id":"levelo_inurba_marseille","lat":43.23963,"lon":5.36641,"is_reserved":false,"is_disabled":false,"rental_uris":{"android":"levelo://app?vid=712329f9-e8f5-4533-b06e-8359f5ad199d","ios":"levelo://app?vid=712329f9-e8f5-4533-b06e-8359f5ad199d"},"vehicle_type_id":"4","last_reported":1738004851,"current_range_meters":20000,"station_id":"ce4bhi12rcd13ifvqfp0","pricing_plan_id":"cebpf4jnsgd1na2vs0mg"},{"bike_id":"04add264-7ffa-44ea-8a2f-32324a7ecc6f","system_id":"levelo_inurba_marseille","lat":43.25708,"lon":5.41129,"is_reserved":false,"is_disabled":false,"rental_uris":{"android":"levelo://app?vid=04add264-7ffa-44ea-8a2f-32324a7ecc6f","ios":"levelo://app?vid=04add264-7ffa-44ea-8a2f-32324a7ecc6f"},"vehicle_type_id":"4","last_reported":1738004851,"current_range_meters":15200,"station_id":"ce4bhkp2rcd13ifvqgd0","pricing_plan_id":"cebpf4jnsgd1na2vs0mg"},{"bike_id":"e3c5a10e-948d-477c-91ce-8c835a7fe362","system_id":"levelo_inurba_marseille","lat":43.28103,"lon":5.39642,"is_reserved":false,"is_disabled":true,"rental_uris":{"android":"levelo://app?vid=e3c5a10e-948d-477c-91ce-8c835a7fe362","ios":"levelo://app?vid=e3c5a10e-948d-477c-91ce-8c835a7fe362"},"vehicle_type_id":"4","last_reported":1738004851,"current_range_meters":0,"station_id":"ce4bho12rcd13ifvqh2g","pricing_plan_id":"cebpf4jnsgd1na2vs0mg"},{"bike_id":"d15585fd-7186-4783-baf1-c0d384351fef","system_id":"levelo_inurba_marseille","lat":43.29512,"lon":5.39397,"is_reserved":false,"is_disabled":false,"rental_uris":{"android":"levelo://app?vid=d15585fd-7186-4783-baf1-c0d384351fef","ios":"levelo://app?vid=d15585fd-7186-4783-baf1-c0d384351fef"},"vehicle_type_id":"4","last_reported":1738004851,"current_range_meters":32800,"station_id":"","pricing_plan_id":"cebpf4jnsgd1na2vs0mg"},{"bike_id":"3af33c6a-efb8-4c32-b92f-c273b3ba3228","system_id":"levelo_inurba_marseille","lat":43.2508,"lon":5.39513,"is_reserved":false,"is_disabled":false,"rental_uris":{"android":"levelo://app?vid=3af33c6a-efb8-4c32-b92f-c273b3ba3228","ios":"levelo://app?vid=3af33c6a-efb8-4c32-b92f-c273b3ba3228"},"vehicle_type_id":"4","last_reported":1738004851,"current_range_meters":37600,"station_id":"ce4bhm12rcd13ifvqgkg","pricing_plan_id":"cebpf4jnsgd1na2vs0mg"},{"bike_id":"c69dd111-4a16-47d3-919c-b81c76daeb57","system_id":"levelo_inurba_marseille","lat":43.24856,"lon":5.37484,"is_reserved":false,"is_disabled":false,"rental_uris":{"android":"levelo://app?vid=c69dd111-4a16-47d3-919c-b81c76daeb57","ios":"levelo://app?vid=c69dd111-4a16-47d3-919c-b81c76daeb57"},"vehicle_type_id":"4","last_reported":1738004851,"current_range_meters":36400,"station_id":"ce4bhgh2rcd13ifvqfb0","pricing_plan_id":"cebpf4jnsgd1na2vs0mg"},{"bike_id":"f846d495-effa-4e8f-ae39-f2d7b1fc0ba3","system_id":"levelo_inurba_marseille","lat":43.26792,"lon":5.40257,"is_reserved":false,"is_disabled":false,"rental_uris":{"android":"levelo://app?vid=f846d495-effa-4e8f-ae39-f2d7b1fc0ba3","ios":"levelo://app?vid=f846d495-effa-4e8f-ae39-f2d7b1fc0ba3"},"vehicle_type_id":"4","last_reported":1738004851,"current_range_meters":36400,"station_id":"ce501612rcd8frsf0b60","pricing_plan_id":"cebpf4jnsgd1na2vs0mg"},{"bike_id":"bb99704f-e033-4ae8-a7fb-29e6cc77930e","system_id":"levelo_inurba_marseille","lat":43.28073,"lon":5.39673,"is_reserved":false,"is_disabled":false,"rental_uris":{"android":"levelo://app?vid=bb99704f-e033-4ae8-a7fb-29e6cc77930e","ios":"levelo://app?vid=bb99704f-e033-4ae8-a7fb-29e6cc77930e"},"vehicle_type_id":"4","last_reported":1738004851,"current_range_meters":38000,"station_id":"ce4bho12rcd13ifvqh2g","pricing_plan_id":"cebpf4jnsgd1na2vs0mg"},{"bike_id":"a284be49-bd17-4117-9887-5868a8a4ead4","system_id":"levelo_inurba_marseille","lat":43.31386,"lon":5.38496,"is_reserved":false,"is_disabled":false,"rental_uris":{"android":"levelo://app?vid=a284be49-bd17-4117-9887-5868a8a4ead4","ios":"levelo://app?vid=a284be49-bd17-4117-9887-5868a8a4ead4"},"vehicle_type_id":"4","last_reported":1738004851,"current_range_meters":6000,"station_id":"ce4bgt92rcd13ifvqcf0","pricing_plan_id":"cebpf4jnsgd1na2vs0mg"},{"bike_id":"97b18a4a-bd77-4ae7-9fb5-63f3232dcc4f","system_id":"levelo_inurba_marseille","lat":43.28459,"lon":5.35896,"is_reserved":false,"is_disabled":false,"rental_uris":{"android":"levelo://app?vid=97b18a4a-bd77-4ae7-9fb5-63f3232dcc4f","ios":"levelo://app?vid=97b18a4a-bd77-4ae7-9fb5-63f3232dcc4f"},"vehicle_type_id":"4","last_reported":1738004851,"current_range_meters":38000,"station_id":"","pricing_plan_id":"cebpf4jnsgd1na2vs0mg"},{"bike_id":"f9173de2-2fa5-436f-a76b-3c96bd571284","system_id":"levelo_inurba_marseille","lat":43.29759,"lon":5.4043,"is_reserved":false,"is_disabled":false,"rental_uris":{"android":"levelo://app?vid=f9173de2-2fa5-436f-a76b-3c96bd571284","ios":"levelo://app?vid=f9173de2-2fa5-436f-a76b-3c96bd571284"},"vehicle_type_id":"4","last_reported":1738004851,"current_range_meters":38800,"station_id":"ce4bh112rcd13ifvqd90","pricing_plan_id":"cebpf4jnsgd1na2vs0mg"},{"bike_id":"4324a0dd-735e-442a-817b-b2e1bc0d7ff2","system_id":"levelo_inurba_marseille","lat":43.30336,"lon":5.419,"is_reserved":false,"is_disabled":false,"rental_uris":{"android":"levelo://app?vid=4324a0dd-735e-442a-817b-b2e1bc0d7ff2","ios":"levelo://app?vid=4324a0dd-735e-442a-817b-b2e1bc0d7ff2"},"vehicle_type_id":"4","last_reported":1738004851,"current_range_meters":16800,"station_id":"","pricing_plan_id":"cebpf4jnsgd1na2vs0mg"},{"bike_id":"c2177ef3-70fc-4005-81df-0450a6538815","system_id":"levelo_inurba_marseille","lat":43.28475,"lon":5.38408,"is_reserved":false,"is_disabled":false,"rental_uris":{"android":"levelo://app?vid=c2177ef3-70fc-4005-81df-0450a6538815","ios":"levelo://app?vid=c2177ef3-70fc-4005-81df-0450a6538815"},"vehicle_type_id":"4","last_reported":1738004851,"current_range_meters":38000,"station_id":"ce4bh512rcd13ifvqe3g","pricing_plan_id":"cebpf4jnsgd1na2vs0mg"},{"bike_id":"db3aaaa1-2c83-4416-9be0-650e00b3a100","system_id":"levelo_inurba_marseille","lat":43.317573,"lon":5.390163,"is_reserved":false,"is_disabled":false,"rental_uris":{"android":"levelo://app?vid=db3aaaa1-2c83-4416-9be0-650e00b3a100","ios":"levelo://app?vid=db3aaaa1-2c83-4416-9be0-650e00b3a100"},"vehicle_type_id":"4","last_reported":1738004851,"current_range_meters":8000,"station_id":"ce4bhqp2rcd13ifvqhng","pricing_plan_id":"cebpf4jnsgd1na2vs0mg"},{"bike_id":"4879ae60-bcb1-4ab2-a455-e93c600fc0b3","system_id":"levelo_inurba_marseille","lat":43.30413,"lon":5.38896,"is_reserved":false,"is_disabled":false,"rental_uris":{"android":"levelo://app?vid=4879ae60-bcb1-4ab2-a455-e93c600fc0b3","ios":"levelo://app?vid=4879ae60-bcb1-4ab2-a455-e93c600fc0b3"},"vehicle_type_id":"4","last_reported":1738004851,"current_range_meters":0,"station_id":"ce4bgk12rcd13ifvqbi0","pricing_plan_id":"cebpf4jnsgd1na2vs0mg"},{"bike_id":"ee00a9dd-941e-4f0f-ad3b-62fd438be21c","system_id":"levelo_inurba_marseille","lat":43.27992,"lon":5.40021,"is_reserved":false,"is_disabled":false,"rental_uris":{"android":"levelo://app?vid=ee00a9dd-941e-4f0f-ad3b-62fd438be21c","ios":"levelo://app?vid=ee00a9dd-941e-4f0f-ad3b-62fd438be21c"},"vehicle_type_id":"4","last_reported":1738004851,"current_range_meters":22800,"station_id":"ce4bho92rcd13ifvqh4g","pricing_plan_id":"cebpf4jnsgd1na2vs0mg"},{"bike_id":"7baf64e7-cb5d-43d5-a3de-7bf434415067","system_id":"levelo_inurba_marseille","lat":43.29266,"lon":5.40891,"is_reserved":false,"is_disabled":false,"rental_uris":{"android":"levelo://app?vid=7baf64e7-cb5d-43d5-a3de-7bf434415067","ios":"levelo://app?vid=7baf64e7-cb5d-43d5-a3de-7bf434415067"},"vehicle_type_id":"4","last_reported":1738004851,"current_range_meters":24000,"station_id":"ce4bh192rcd13ifvqdc0","pricing_plan_id":"cebpf4jnsgd1na2vs0mg"},{"bike_id":"dca1b3f1-bf12-4d48-b32e-51e78b8700aa","system_id":"levelo_inurba_marseille","lat":43.33007,"lon":5.39027,"is_reserved":false,"is_disabled":false,"rental_uris":{"android":"levelo://app?vid=dca1b3f1-bf12-4d48-b32e-51e78b8700aa","ios":"levelo://app?vid=dca1b3f1-bf12-4d48-b32e-51e78b8700aa"},"vehicle_type_id":"4","last_reported":1738004851,"current_range_meters":36400,"station_id":"ce4bhr92rcd13ifvqhrg","pricing_plan_id":"cebpf4jnsgd1na2vs0mg"},{"bike_id":"1e1c4345-71bd-4a47-89d4-252f4c570adc","system_id":"levelo_inurba_marseille","lat":43.29845,"lon":5.36261,"is_reserved":false,"is_disabled":false,"rental_uris":{"android":"levelo://app?vid=1e1c4345-71bd-4a47-89d4-252f4c570adc","ios":"levelo://app?vid=1e1c4345-71bd-4a47-89d4-252f4c570adc"},"vehicle_type_id":"4","last_reported":1738004851,"current_range_meters":36800,"station_id":"ce4bgpp2rcd13ifvqc3g","pricing_plan_id":"cebpf4jnsgd1na2vs0mg"},{"bike_id":"e09de9e7-4909-4413-b590-2dea2722814c","system_id":"levelo_inurba_marseille","lat":43.23191,"lon":5.3998,"is_reserved":false,"is_disabled":false,"rental_uris":{"android":"levelo://app?vid=e09de9e7-4909-4413-b590-2dea2722814c","ios":"levelo://app?vid=e09de9e7-4909-4413-b590-2dea2722814c"},"vehicle_type_id":"4","last_reported":1738004851,"current_range_meters":39200,"station_id":"ce4bhn12rcd13ifvqgqg","pricing_plan_id":"cebpf4jnsgd1na2vs0mg"},{"bike_id":"4e819cfc-66d0-44bc-b400-a92f780cb5a7","system_id":"levelo_inurba_marseille","lat":43.32973,"lon":5.39045,"is_reserved":false,"is_disabled":false,"rental_uris":{"android":"levelo://app?vid=4e819cfc-66d0-44bc-b400-a92f780cb5a7","ios":"levelo://app?vid=4e819cfc-66d0-44bc-b400-a92f780cb5a7"},"vehicle_type_id":"4","last_reported":1738004851,"current_range_meters":28800,"station_id":"ce4bhr92rcd13ifvqhrg","pricing_plan_id":"cebpf4jnsgd1na2vs0mg"},{"bike_id":"4ee7a4b2-dea3-4f4a-a76b-2d1e4fcbcafe","system_id":"levelo_inurba_marseille","lat":43.2847,"lon":5.38534,"is_reserved":false,"is_disabled":true,"rental_uris":{"android":"levelo://app?vid=4ee7a4b2-dea3-4f4a-a76b-2d1e4fcbcafe","ios":"levelo://app?vid=4ee7a4b2-dea3-4f4a-a76b-2d1e4fcbcafe"},"vehicle_type_id":"4","last_reported":1738004851,"current_range_meters":800,"station_id":"ce4bh8p2rcd13ifvqeb0","pricing_plan_id":"cebpf4jnsgd1na2vs0mg"},{"bike_id":"f6cff910-bc08-4989-a1d4-fe0be238409e","system_id":"levelo_inurba_marseille","lat":43.31274,"lon":5.40178,"is_reserved":false,"is_disabled":false,"rental_uris":{"android":"levelo://app?vid=f6cff910-bc08-4989-a1d4-fe0be238409e","ios":"levelo://app?vid=f6cff910-bc08-4989-a1d4-fe0be238409e"},"vehicle_type_id":"4","last_reported":1738004851,"current_range_meters":12400,"station_id":"ce4bh092rcd13ifvqd30","pricing_plan_id":"cebpf4jnsgd1na2vs0mg"},{"bike_id":"283c25d8-9fc5-495b-9825-5a72a68442bd","system_id":"levelo_inurba_marseille","lat":43.29249,"lon":5.40912,"is_reserved":false,"is_disabled":true,"rental_uris":{"android":"levelo://app?vid=283c25d8-9fc5-495b-9825-5a72a68442bd","ios":"levelo://app?vid=283c25d8-9fc5-495b-9825-5a72a68442bd"},"vehicle_type_id":"4","last_reported":1738004851,"current_range_meters":1200,"station_id":"ce4bh192rcd13ifvqdc0","pricing_plan_id":"cebpf4jnsgd1na2vs0mg"},{"bike_id":"245a3977-9722-42d3-af5f-09da846dbd2e","system_id":"levelo_inurba_marseille","lat":43.32276,"lon":5.38259,"is_reserved":false,"is_disabled":false,"rental_uris":{"android":"levelo://app?vid=245a3977-9722-42d3-af5f-09da846dbd2e","ios":"levelo://app?vid=245a3977-9722-42d3-af5f-09da846dbd2e"},"vehicle_type_id":"4","last_reported":1738004851,"current_range_meters":9600,"station_id":"ce4bhr12rcd13ifvqhqg","pricing_plan_id":"cebpf4jnsgd1na2vs0mg"},{"bike_id":"e3e26aee-15e1-425c-a48f-db58aa520742","system_id":"levelo_inurba_marseille","lat":43.23072,"lon":5.35497,"is_reserved":false,"is_disabled":false,"rental_uris":{"android":"levelo://app?vid=e3e26aee-15e1-425c-a48f-db58aa520742","ios":"levelo://app?vid=e3e26aee-15e1-425c-a48f-db58aa520742"},"vehicle_type_id":"4","last_reported":1738004851,"current_range_meters":38800,"station_id":"cpo3342slgdg3j2ifvpg","pricing_plan_id":"cebpf4jnsgd1na2vs0mg"},{"bike_id":"9fb813cb-e992-4585-8f3d-d25d13081f3b","system_id":"levelo_inurba_marseille","lat":43.23183,"lon":5.35538,"is_reserved":false,"is_disabled":false,"rental_uris":{"android":"levelo://app?vid=9fb813cb-e992-4585-8f3d-d25d13081f3b","ios":"levelo://app?vid=9fb813cb-e992-4585-8f3d-d25d13081f3b"},"vehicle_type_id":"4","last_reported":1738004851,"current_range_meters":6800,"station_id":"ce4bhu92rcd13ifvqi70","pricing_plan_id":"cebpf4jnsgd1na2vs0mg"},{"bike_id":"e864cbbc-cba7-44b2-84d7-57ee33d77ab6","system_id":"levelo_inurba_marseille","lat":43.24081,"lon":5.37753,"is_reserved":false,"is_disabled":false,"rental_uris":{"android":"levelo://app?vid=e864cbbc-cba7-44b2-84d7-57ee33d77ab6","ios":"levelo://app?vid=e864cbbc-cba7-44b2-84d7-57ee33d77ab6"},"vehicle_type_id":"4","last_reported":1738004851,"current_range_meters":39200,"station_id":"ce4bhnp2rcd13ifvqgvg","pricing_plan_id":"cebpf4jnsgd1na2vs0mg"},{"bike_id":"44d8d786-48b9-4f99-aaad-895a80e022ac","system_id":"levelo_inurba_marseille","lat":43.29868,"lon":5.38912,"is_reserved":false,"is_disabled":false,"rental_uris":{"android":"levelo://app?vid=44d8d786-48b9-4f99-aaad-895a80e022ac","ios":"levelo://app?vid=44d8d786-48b9-4f99-aaad-895a80e022ac"},"vehicle_type_id":"4","last_reported":1738004851,"current_range_meters":16000,"station_id":"ce4bh392rcd13ifvqdl0","pricing_plan_id":"cebpf4jnsgd1na2vs0mg"},{"bike_id":"7c78a755-c7f5-4f07-a96b-621451d47948","system_id":"levelo_inurba_marseille","lat":43.29898,"lon":5.4366,"is_reserved":false,"is_disabled":false,"rental_uris":{"android":"levelo://app?vid=7c78a755-c7f5-4f07-a96b-621451d47948","ios":"levelo://app?vid=7c78a755-c7f5-4f07-a96b-621451d47948"},"vehicle_type_id":"4","last_reported":1738004851,"current_range_meters":26800,"station_id":"ce4bhpp2rcd13ifvqhfg","pricing_plan_id":"cebpf4jnsgd1na2vs0mg"},{"bike_id":"fa29864d-7300-4955-9fb1-25742b31d758","system_id":"levelo_inurba_marseille","lat":43.25,"lon":5.3891,"is_reserved":false,"is_disabled":false,"rental_uris":{"android":"levelo://app?vid=fa29864d-7300-4955-9fb1-25742b31d758","ios":"levelo://app?vid=fa29864d-7300-4955-9fb1-25742b31d758"},"vehicle_type_id":"4","last_reported":1738004851,"current_range_meters":37600,"station_id":"ce4bhgp2rcd13ifvqfd0","pricing_plan_id":"cebpf4jnsgd1na2vs0mg"},{"bike_id":"3fffe134-da5e-428c-b263-dc4df491080a","system_id":"levelo_inurba_marseille","lat":43.29361,"lon":5.37863,"is_reserved":false,"is_disabled":true,"rental_uris":{"android":"levelo://app?vid=3fffe134-da5e-428c-b263-dc4df491080a","ios":"levelo://app?vid=3fffe134-da5e-428c-b263-dc4df491080a"},"vehicle_type_id":"4","last_reported":1738004851,"current_range_meters":38800,"station_id":"ce4bgjh2rcd13ifvqbf0","pricing_plan_id":"cebpf4jnsgd1na2vs0mg"},{"bike_id":"4eebfb7a-3d32-47ca-a63f-6da9d5367627","system_id":"levelo_inurba_marseille","lat":43.23192,"lon":5.39973,"is_reserved":false,"is_disabled":false,"rental_uris":{"android":"levelo://app?vid=4eebfb7a-3d32-47ca-a63f-6da9d5367627","ios":"levelo://app?vid=4eebfb7a-3d32-47ca-a63f-6da9d5367627"},"vehicle_type_id":"4","last_reported":1738004851,"current_range_meters":39200,"station_id":"ce4bhn12rcd13ifvqgqg","pricing_plan_id":"cebpf4jnsgd1na2vs0mg"},{"bike_id":"f5a96ec4-9b39-404f-aac4-0897341a8bef","system_id":"levelo_inurba_marseille","lat":43.28566,"lon":5.39482,"is_reserved":false,"is_disabled":false,"rental_uris":{"android":"levelo://app?vid=f5a96ec4-9b39-404f-aac4-0897341a8bef","ios":"levelo://app?vid=f5a96ec4-9b39-404f-aac4-0897341a8bef"},"vehicle_type_id":"4","last_reported":1738004851,"current_range_meters":25600,"station_id":"ce4bh292rcd13ifvqdg0","pricing_plan_id":"cebpf4jnsgd1na2vs0mg"},{"bike_id":"a48a4fa8-387b-4ecc-bc7a-c3f07822bf47","system_id":"levelo_inurba_marseille","lat":43.27091,"lon":5.39205,"is_reserved":false,"is_disabled":true,"rental_uris":{"android":"levelo://app?vid=a48a4fa8-387b-4ecc-bc7a-c3f07822bf47","ios":"levelo://app?vid=a48a4fa8-387b-4ecc-bc7a-c3f07822bf47"},"vehicle_type_id":"4","last_reported":1738004851,"current_range_meters":0,"station_id":"","pricing_plan_id":"cebpf4jnsgd1na2vs0mg"},{"bike_id":"9c2ae89f-02a9-42fa-92c9-ad67bba43257","system_id":"levelo_inurba_marseille","lat":43.29841,"lon":5.36267,"is_reserved":false,"is_disabled":false,"rental_uris":{"android":"levelo://app?vid=9c2ae89f-02a9-42fa-92c9-ad67bba43257","ios":"levelo://app?vid=9c2ae89f-02a9-42fa-92c9-ad67bba43257"},"vehicle_type_id":"4","last_reported":1738004851,"current_range_meters":22400,"station_id":"ce4bgpp2rcd13ifvqc3g","pricing_plan_id":"cebpf4jnsgd1na2vs0mg"},{"bike_id":"41fadb08-6384-431a-8fb7-83982b88c53e","system_id":"levelo_inurba_marseille","lat":43.30467,"lon":5.37899,"is_reserved":false,"is_disabled":true,"rental_uris":{"android":"levelo://app?vid=41fadb08-6384-431a-8fb7-83982b88c53e","ios":"levelo://app?vid=41fadb08-6384-431a-8fb7-83982b88c53e"},"vehicle_type_id":"4","last_reported":1738004851,"current_range_meters":38800,"station_id":"ce4bgup2rcd13ifvqcn0","pricing_plan_id":"cebpf4jnsgd1na2vs0mg"},{"bike_id":"a8d0380b-0a88-41c3-845f-e00ffb2cbc88","system_id":"levelo_inurba_marseille","lat":43.27989,"lon":5.40012,"is_reserved":false,"is_disabled":true,"rental_uris":{"android":"levelo://app?vid=a8d0380b-0a88-41c3-845f-e00ffb2cbc88","ios":"levelo://app?vid=a8d0380b-0a88-41c3-845f-e00ffb2cbc88"},"vehicle_type_id":"4","last_reported":1738004851,"current_range_meters":28800,"station_id":"ce4bho92rcd13ifvqh4g","pricing_plan_id":"cebpf4jnsgd1na2vs0mg"},{"bike_id":"960c2b1e-93ba-4e0e-baf5-fd8a6baa3c6b","system_id":"levelo_inurba_marseille","lat":43.25864,"lon":5.39889,"is_reserved":false,"is_disabled":true,"rental_uris":{"android":"levelo://app?vid=960c2b1e-93ba-4e0e-baf5-fd8a6baa3c6b","ios":"levelo://app?vid=960c2b1e-93ba-4e0e-baf5-fd8a6baa3c6b"},"vehicle_type_id":"4","last_reported":1738004851,"current_range_meters":35600,"station_id":"ce4bhl92rcd13ifvqghg","pricing_plan_id":"cebpf4jnsgd1na2vs0mg"},{"bike_id":"688eea87-7c36-4baa-b6b9-0ba0449d07a2","system_id":"levelo_inurba_marseille","lat":43.28067,"lon":5.39653,"is_reserved":false,"is_disabled":true,"rental_uris":{"android":"levelo://app?vid=688eea87-7c36-4baa-b6b9-0ba0449d07a2","ios":"levelo://app?vid=688eea87-7c36-4baa-b6b9-0ba0449d07a2"},"vehicle_type_id":"4","last_reported":1738004851,"current_range_meters":7200,"station_id":"ce4bho12rcd13ifvqh2g","pricing_plan_id":"cebpf4jnsgd1na2vs0mg"},{"bike_id":"a623944e-8ffb-4ca5-8cfd-d4f16cf59a61","system_id":"levelo_inurba_marseille","lat":43.25583,"lon":5.38237,"is_reserved":false,"is_disabled":false,"rental_uris":{"android":"levelo://app?vid=a623944e-8ffb-4ca5-8cfd-d4f16cf59a61","ios":"levelo://app?vid=a623944e-8ffb-4ca5-8cfd-d4f16cf59a61"},"vehicle_type_id":"4","last_reported":1738004851,"current_range_meters":34000,"station_id":"ce4bhih2rcd13ifvqfs0","pricing_plan_id":"cebpf4jnsgd1na2vs0mg"},{"bike_id":"f7f37829-122a-41f0-af90-da8e6fdf42f0","system_id":"levelo_inurba_marseille","lat":43.29579,"lon":5.36664,"is_reserved":false,"is_disabled":false,"rental_uris":{"android":"levelo://app?vid=f7f37829-122a-41f0-af90-da8e6fdf42f0","ios":"levelo://app?vid=f7f37829-122a-41f0-af90-da8e6fdf42f0"},"vehicle_type_id":"4","last_reported":1738004851,"current_range_meters":23200,"station_id":"","pricing_plan_id":"cebpf4jnsgd1na2vs0mg"},{"bike_id":"a0647e71-4b64-4904-b96b-b4b0aa493cec","system_id":"levelo_inurba_marseille","lat":43.303281,"lon":5.404356,"is_reserved":false,"is_disabled":false,"rental_uris":{"android":"levelo://app?vid=a0647e71-4b64-4904-b96b-b4b0aa493cec","ios":"levelo://app?vid=a0647e71-4b64-4904-b96b-b4b0aa493cec"},"vehicle_type_id":"4","last_reported":1738004851,"current_range_meters":39200,"station_id":"ce4bh012rcd13ifvqd10","pricing_plan_id":"cebpf4jnsgd1na2vs0mg"},{"bike_id":"950ca279-f0d8-4ca1-a34b-f7e031f58ca6","system_id":"levelo_inurba_marseille","lat":43.29874,"lon":5.38931,"is_reserved":false,"is_disabled":false,"rental_uris":{"android":"levelo://app?vid=950ca279-f0d8-4ca1-a34b-f7e031f58ca6","ios":"levelo://app?vid=950ca279-f0d8-4ca1-a34b-f7e031f58ca6"},"vehicle_type_id":"4","last_reported":1738004851,"current_range_meters":38800,"station_id":"ce4bh392rcd13ifvqdl0","pricing_plan_id":"cebpf4jnsgd1na2vs0mg"},{"bike_id":"c3238790-d7ad-47a5-a35e-3370473de763","system_id":"levelo_inurba_marseille","lat":43.24672,"lon":5.3816,"is_reserved":false,"is_disabled":false,"rental_uris":{"android":"levelo://app?vid=c3238790-d7ad-47a5-a35e-3370473de763","ios":"levelo://app?vid=c3238790-d7ad-47a5-a35e-3370473de763"},"vehicle_type_id":"4","last_reported":1738004851,"current_range_meters":37600,"station_id":"ce4bhih2rcd13ifvqfr0","pricing_plan_id":"cebpf4jnsgd1na2vs0mg"},{"bike_id":"a1b3de43-27e7-4f5d-b1bd-ddd4cb20dc76","system_id":"levelo_inurba_marseille","lat":43.29191,"lon":5.39317,"is_reserved":false,"is_disabled":false,"rental_uris":{"android":"levelo://app?vid=a1b3de43-27e7-4f5d-b1bd-ddd4cb20dc76","ios":"levelo://app?vid=a1b3de43-27e7-4f5d-b1bd-ddd4cb20dc76"},"vehicle_type_id":"4","last_reported":1738004851,"current_range_meters":4000,"station_id":"ce4bh192rcd13ifvqdd0","pricing_plan_id":"cebpf4jnsgd1na2vs0mg"},{"bike_id":"c438c788-2c8f-4eda-8233-a8485c23c4af","system_id":"levelo_inurba_marseille","lat":43.3043,"lon":5.4129,"is_reserved":false,"is_disabled":true,"rental_uris":{"android":"levelo://app?vid=c438c788-2c8f-4eda-8233-a8485c23c4af","ios":"levelo://app?vid=c438c788-2c8f-4eda-8233-a8485c23c4af"},"vehicle_type_id":"4","last_reported":1738004851,"current_range_meters":0,"station_id":"ce4bhop2rcd13ifvqh8g","pricing_plan_id":"cebpf4jnsgd1na2vs0mg"},{"bike_id":"0a5fde81-0685-4894-b805-5edb46505778","system_id":"levelo_inurba_marseille","lat":43.24671,"lon":5.38131,"is_reserved":false,"is_disabled":true,"rental_uris":{"android":"levelo://app?vid=0a5fde81-0685-4894-b805-5edb46505778","ios":"levelo://app?vid=0a5fde81-0685-4894-b805-5edb46505778"},"vehicle_type_id":"4","last_reported":1738004851,"current_range_meters":38800,"station_id":"ce4bhih2rcd13ifvqfr0","pricing_plan_id":"cebpf4jnsgd1na2vs0mg"},{"bike_id":"9c8682a0-e665-42ca-9e8b-8233d9f42b52","system_id":"levelo_inurba_marseille","lat":43.26948,"lon":5.40243,"is_reserved":false,"is_disabled":false,"rental_uris":{"android":"levelo://app?vid=9c8682a0-e665-42ca-9e8b-8233d9f42b52","ios":"levelo://app?vid=9c8682a0-e665-42ca-9e8b-8233d9f42b52"},"vehicle_type_id":"4","last_reported":1738004851,"current_range_meters":9200,"station_id":"cjm6bp8fraef2m0cb0m0","pricing_plan_id":"cebpf4jnsgd1na2vs0mg"},{"bike_id":"556d5f33-9ed1-4b8d-b54c-87c0fefa1454","system_id":"levelo_inurba_marseille","lat":43.33603,"lon":5.41032,"is_reserved":false,"is_disabled":false,"rental_uris":{"android":"levelo://app?vid=556d5f33-9ed1-4b8d-b54c-87c0fefa1454","ios":"levelo://app?vid=556d5f33-9ed1-4b8d-b54c-87c0fefa1454"},"vehicle_type_id":"4","last_reported":1738004851,"current_range_meters":34000,"station_id":"ce4bhqh2rcd13ifvqhmg","pricing_plan_id":"cebpf4jnsgd1na2vs0mg"},{"bike_id":"c4fa4f57-3c30-45c2-a04b-99cce0a9e2f3","system_id":"levelo_inurba_marseille","lat":43.29523,"lon":5.38553,"is_reserved":false,"is_disabled":false,"rental_uris":{"android":"levelo://app?vid=c4fa4f57-3c30-45c2-a04b-99cce0a9e2f3","ios":"levelo://app?vid=c4fa4f57-3c30-45c2-a04b-99cce0a9e2f3"},"vehicle_type_id":"4","last_reported":1738004851,"current_range_meters":28400,"station_id":"ce4bgih2rcd13ifvqba0","pricing_plan_id":"cebpf4jnsgd1na2vs0mg"},{"bike_id":"7dd225c7-0dd6-4324-9d71-381959d8650e","system_id":"levelo_inurba_marseille","lat":43.28563,"lon":5.3949,"is_reserved":false,"is_disabled":false,"rental_uris":{"android":"levelo://app?vid=7dd225c7-0dd6-4324-9d71-381959d8650e","ios":"levelo://app?vid=7dd225c7-0dd6-4324-9d71-381959d8650e"},"vehicle_type_id":"4","last_reported":1738004851,"current_range_meters":39200,"station_id":"ce4bh292rcd13ifvqdg0","pricing_plan_id":"cebpf4jnsgd1na2vs0mg"},{"bike_id":"f381ef19-2051-4752-83c8-9337838d371f","system_id":"levelo_inurba_marseille","lat":43.24387,"lon":5.37055,"is_reserved":false,"is_disabled":false,"rental_uris":{"android":"levelo://app?vid=f381ef19-2051-4752-83c8-9337838d371f","ios":"levelo://app?vid=f381ef19-2051-4752-83c8-9337838d371f"},"vehicle_type_id":"4","last_reported":1738004851,"current_range_meters":22400,"station_id":"ce4bhhh2rcd13ifvqfk0","pricing_plan_id":"cebpf4jnsgd1na2vs0mg"},{"bike_id":"cf4a5092-6049-46ca-b5cd-0fc7b85d357e","system_id":"levelo_inurba_marseille","lat":43.28934,"lon":5.36634,"is_reserved":false,"is_disabled":false,"rental_uris":{"android":"levelo://app?vid=cf4a5092-6049-46ca-b5cd-0fc7b85d357e","ios":"levelo://app?vid=cf4a5092-6049-46ca-b5cd-0fc7b85d357e"},"vehicle_type_id":"4","last_reported":1738004851,"current_range_meters":5600,"station_id":"ce4bhap2rcd13ifvqek0","pricing_plan_id":"cebpf4jnsgd1na2vs0mg"},{"bike_id":"3d98c6ce-e80d-46e8-b577-648cd8c28632","system_id":"levelo_inurba_marseille","lat":43.34699,"lon":5.34741,"is_reserved":false,"is_disabled":true,"rental_uris":{"android":"levelo://app?vid=3d98c6ce-e80d-46e8-b577-648cd8c28632","ios":"levelo://app?vid=3d98c6ce-e80d-46e8-b577-648cd8c28632"},"vehicle_type_id":"4","last_reported":1738004851,"current_range_meters":0,"station_id":"","pricing_plan_id":"cebpf4jnsgd1na2vs0mg"},{"bike_id":"31225d9b-dfe4-4afe-90db-76ff6fb30387","system_id":"levelo_inurba_marseille","lat":43.2705,"lon":5.40231,"is_reserved":false,"is_disabled":false,"rental_uris":{"android":"levelo://app?vid=31225d9b-dfe4-4afe-90db-76ff6fb30387","ios":"levelo://app?vid=31225d9b-dfe4-4afe-90db-76ff6fb30387"},"vehicle_type_id":"4","last_reported":1738004851,"current_range_meters":20800,"station_id":"ce4bhk92rcd13ifvqgc0","pricing_plan_id":"cebpf4jnsgd1na2vs0mg"},{"bike_id":"8c0d8036-b26d-42a2-abdf-bd7af85530cb","system_id":"levelo_inurba_marseille","lat":43.28987,"lon":5.37838,"is_reserved":false,"is_disabled":true,"rental_uris":{"android":"levelo://app?vid=8c0d8036-b26d-42a2-abdf-bd7af85530cb","ios":"levelo://app?vid=8c0d8036-b26d-42a2-abdf-bd7af85530cb"},"vehicle_type_id":"4","last_reported":1738004851,"current_range_meters":36800,"station_id":"ce4bh9p2rcd13ifvqed0","pricing_plan_id":"cebpf4jnsgd1na2vs0mg"},{"bike_id":"16cba4e1-cb10-44ef-b1a1-eca95385335f","system_id":"levelo_inurba_marseille","lat":43.28421,"lon":5.34969,"is_reserved":false,"is_disabled":true,"rental_uris":{"android":"levelo://app?vid=16cba4e1-cb10-44ef-b1a1-eca95385335f","ios":"levelo://app?vid=16cba4e1-cb10-44ef-b1a1-eca95385335f"},"vehicle_type_id":"4","last_reported":1738004851,"current_range_meters":34800,"station_id":"ce4bhbh2rcd13ifvqepg","pricing_plan_id":"cebpf4jnsgd1na2vs0mg"},{"bike_id":"9c6c808c-2344-4484-b654-8a68fb115aa6","system_id":"levelo_inurba_marseille","lat":43.31426,"lon":5.37379,"is_reserved":false,"is_disabled":false,"rental_uris":{"android":"levelo://app?vid=9c6c808c-2344-4484-b654-8a68fb115aa6","ios":"levelo://app?vid=9c6c808c-2344-4484-b654-8a68fb115aa6"},"vehicle_type_id":"4","last_reported":1738004851,"current_range_meters":33200,"station_id":"","pricing_plan_id":"cebpf4jnsgd1na2vs0mg"},{"bike_id":"f18dafe1-3f45-4a08-94f9-e849bfe3564d","system_id":"levelo_inurba_marseille","lat":43.31693,"lon":5.37779,"is_reserved":false,"is_disabled":false,"rental_uris":{"android":"levelo://app?vid=f18dafe1-3f45-4a08-94f9-e849bfe3564d","ios":"levelo://app?vid=f18dafe1-3f45-4a08-94f9-e849bfe3564d"},"vehicle_type_id":"4","last_reported":1738004851,"current_range_meters":38800,"station_id":"ce4bgth2rcd13ifvqch0","pricing_plan_id":"cebpf4jnsgd1na2vs0mg"},{"bike_id":"147c0c28-1299-413c-a3b0-e508aab778ac","system_id":"levelo_inurba_marseille","lat":43.32341,"lon":5.40606,"is_reserved":false,"is_disabled":false,"rental_uris":{"android":"levelo://app?vid=147c0c28-1299-413c-a3b0-e508aab778ac","ios":"levelo://app?vid=147c0c28-1299-413c-a3b0-e508aab778ac"},"vehicle_type_id":"4","last_reported":1738004851,"current_range_meters":39200,"station_id":"ce4bhq92rcd13ifvqhjg","pricing_plan_id":"cebpf4jnsgd1na2vs0mg"},{"bike_id":"8cf860f0-a2cc-4491-a254-8598b582f23a","system_id":"levelo_inurba_marseille","lat":43.26554,"lon":5.37284,"is_reserved":false,"is_disabled":false,"rental_uris":{"android":"levelo://app?vid=8cf860f0-a2cc-4491-a254-8598b582f23a","ios":"levelo://app?vid=8cf860f0-a2cc-4491-a254-8598b582f23a"},"vehicle_type_id":"4","last_reported":1738004851,"current_range_meters":8800,"station_id":"ce4bhg12rcd13ifvqf70","pricing_plan_id":"cebpf4jnsgd1na2vs0mg"},{"bike_id":"8fc5f132-29ed-47c1-bff0-bf17728d82ae","system_id":"levelo_inurba_marseille","lat":43.29376,"lon":5.3785,"is_reserved":false,"is_disabled":true,"rental_uris":{"android":"levelo://app?vid=8fc5f132-29ed-47c1-bff0-bf17728d82ae","ios":"levelo://app?vid=8fc5f132-29ed-47c1-bff0-bf17728d82ae"},"vehicle_type_id":"4","last_reported":1738004851,"current_range_meters":28800,"station_id":"ce4bgjh2rcd13ifvqbf0","pricing_plan_id":"cebpf4jnsgd1na2vs0mg"},{"bike_id":"b93adcff-6c85-4373-95bb-e37235f0b592","system_id":"levelo_inurba_marseille","lat":43.29029,"lon":5.38126,"is_reserved":false,"is_disabled":false,"rental_uris":{"android":"levelo://app?vid=b93adcff-6c85-4373-95bb-e37235f0b592","ios":"levelo://app?vid=b93adcff-6c85-4373-95bb-e37235f0b592"},"vehicle_type_id":"4","last_reported":1738004851,"current_range_meters":9200,"station_id":"ce4bh4p2rcd13ifvqe1g","pricing_plan_id":"cebpf4jnsgd1na2vs0mg"},{"bike_id":"ea665730-ca4f-4b64-8b29-33a46171c919","system_id":"levelo_inurba_marseille","lat":43.29577,"lon":5.36727,"is_reserved":false,"is_disabled":false,"rental_uris":{"android":"levelo://app?vid=ea665730-ca4f-4b64-8b29-33a46171c919","ios":"levelo://app?vid=ea665730-ca4f-4b64-8b29-33a46171c919"},"vehicle_type_id":"4","last_reported":1738004851,"current_range_meters":38800,"station_id":"ce4bgph2rcd13ifvqc2g","pricing_plan_id":"cebpf4jnsgd1na2vs0mg"},{"bike_id":"c51e0877-3027-4004-bc59-85436e33b7d7","system_id":"levelo_inurba_marseille","lat":43.29019,"lon":5.38131,"is_reserved":false,"is_disabled":false,"rental_uris":{"android":"levelo://app?vid=c51e0877-3027-4004-bc59-85436e33b7d7","ios":"levelo://app?vid=c51e0877-3027-4004-bc59-85436e33b7d7"},"vehicle_type_id":"4","last_reported":1738004851,"current_range_meters":36800,"station_id":"ce4bh4p2rcd13ifvqe1g","pricing_plan_id":"cebpf4jnsgd1na2vs0mg"},{"bike_id":"ee8b1df2-1e22-4b48-bd7b-f74172e9fa96","system_id":"levelo_inurba_marseille","lat":43.27815,"lon":5.40709,"is_reserved":false,"is_disabled":false,"rental_uris":{"android":"levelo://app?vid=ee8b1df2-1e22-4b48-bd7b-f74172e9fa96","ios":"levelo://app?vid=ee8b1df2-1e22-4b48-bd7b-f74172e9fa96"},"vehicle_type_id":"4","last_reported":1738004851,"current_range_meters":16800,"station_id":"ce4bhnh2rcd13ifvqgtg","pricing_plan_id":"cebpf4jnsgd1na2vs0mg"},{"bike_id":"63121853-d3ae-48b9-933c-579cf2441cbf","system_id":"levelo_inurba_marseille","lat":43.28466,"lon":5.35864,"is_reserved":false,"is_disabled":false,"rental_uris":{"android":"levelo://app?vid=63121853-d3ae-48b9-933c-579cf2441cbf","ios":"levelo://app?vid=63121853-d3ae-48b9-933c-579cf2441cbf"},"vehicle_type_id":"4","last_reported":1738004851,"current_range_meters":38800,"station_id":"ce4bhah2rcd13ifvqei0","pricing_plan_id":"cebpf4jnsgd1na2vs0mg"},