{"last_updated":1773211098,"ttl":60,"version":"2.2","data":{"bikes":[{"bike_id":"bd334b99-1100-447f-a433-39bd3e02f36e","system_id":"levelo_inurba_marseille","lat":43.24166,"lon":5.36393,"is_reserved":false,"is_disabled":false,"rental_uris":{"android":"levelo://app?vid=bd334b99-1100-447f-a433-39bd3e02f36e","ios":"levelo://app?vid=bd334b99-1100-447f-a433-39bd3e02f36e"},"vehicle_type_id":"4","last_reported":1773211098,"current_range_meters":8400,"station_id":"cpo36qri1sfpv3e86is0","pricing_plan_id":"cebpf4jnsgd1na2vs0mg"},{"bike_id":"c58e631c-2aa0-4562-9b1d-9233b8f93e38","system_id":"levelo_inurba_marseille","lat":43.25871,"lon":5.39901,"is_reserved":false,"is_disabled":false,"rental_uris":{"android":"levelo://app?vid=c58e631c-2aa0-4562-9b1d-9233b8f93e38","ios":"levelo://app?vid=c58e631c-2aa0-4562-9b1d-9233b8f93e38"},"vehicle_type_id":"4","last_reported":1773211098,"current_range_meters":39200,"station_id":"ce4bhl92rcd13ifvqghg","pricing_plan_id":"cebpf4jnsgd1na2vs0mg"},{"bike_id":"1a9ff85a-a9ad-4d80-900c-957be42bcf5f","system_id":"levelo_inurba_marseille","lat":43.29846,"lon":5.36279,"is_reserved":false,"is_disabled":false,"rental_uris":{"android":"levelo://app?vid=1a9ff85a-a9ad-4d80-900c-957be42bcf5f","ios":"levelo://app?vid=1a9ff85a-a9ad-4d80-900c-957be42bcf5f"},"vehicle_type_id":"4","last_reported":1773211098,"current_range_meters":35200,"station_id":"ce4bgpp2rcd13ifvqc3g","pricing_plan_id":"cebpf4jnsgd1na2vs0mg"},{"bike_id":"e3786998-4a91-499c-9dad-71c5f073e127","system_id":"levelo_inurba_marseille","lat":43.2905,"lon":5.37177,"is_reserved":false,"is_disabled":false,"rental_uris":{"android":"levelo://app?vid=e3786998-4a91-499c-9dad-71c5f073e127","ios":"levelo://app?vid=e3786998-4a91-499c-9dad-71c5f073e127"},"vehicle_type_id":"4","last_reported":1773211098,"current_range_meters":8400,"station_id":"ce4bh5p2rcd13ifvqe4g","pricing_plan_id":"cebpf4jnsgd1na2vs0mg"},{"bike_id":"52f6420f-0eb9-4b9f-9fde-0d25053348cb","system_id":"levelo_inurba_marseille","lat":43.30898,"lon":5.39639,"is_reserved":false,"is_disabled":false,"rental_uris":{"android":"levelo://app?vid=52f6420f-0eb9-4b9f-9fde-0d25053348cb","ios":"levelo://app?vid=52f6420f-0eb9-4b9f-9fde-0d25053348cb"},"vehicle_type_id":"4","last_reported":1773211098,"current_range_meters":39200,"station_id":"ce4bh012rcd13ifvqcv0","pricing_plan_id":"cebpf4jnsgd1na2vs0mg"},{"bike_id":"28168c9e-94cc-40db-bcb5-e99ca64661ef","system_id":"levelo_inurba_marseille","lat":43.29538,"lon":5.37494,"is_reserved":false,"is_disabled":false,"rental_uris":{"android":"levelo://app?vid=28168c9e-94cc-40db-bcb5-e99ca64661ef","ios":"levelo://app?vid=28168c9e-94cc-40db-bcb5-e99ca64661ef"},"vehicle_type_id":"4","last_reported":1773211098,"current_range_meters":36000,"station_id":"ce4bgkp2rcd13ifvqbmg","pricing_plan_id":"cebpf4jnsgd1na2vs0mg"},{"bike_id":"3dd345f6-1dc2-4713-883c-b3d71d8a59c7","system_id":"levelo_inurba_marseille","lat":43.29259,"lon":5.40168,"is_reserved":false,"is_disabled":false,"rental_uris":{"android":"levelo://app?vid=3dd345f6-1dc2-4713-883c-b3d71d8a59c7","ios":"levelo://app?vid=3dd345f6-1dc2-4713-883c-b3d71d8a59c7"},"vehicle_type_id":"4","last_reported":1773211098,"current_range_meters":17200,"station_id":"ce4bh312rcd13ifvqdk0","pricing_plan_id":"cebpf4jnsgd1na2vs0mg"},{"bike_id":"beb344ca-4534-4ba9-9c05-5bf124c258c5","system_id":"levelo_inurba_marseille","lat":43.29255,"lon":5.40161,"is_reserved":false,"is_disabled":false,"rental_uris":{"android":"levelo://app?vid=beb344ca-4534-4ba9-9c05-5bf124c258c5","ios":"levelo://app?vid=beb344ca-4534-4ba9-9c05-5bf124c258c5"},"vehicle_type_id":"4","last_reported":1773211098,"current_range_meters":13600,"station_id":"ce4bh312rcd13ifvqdk0","pricing_plan_id":"cebpf4jnsgd1na2vs0mg"},{"bike_id":"976deccc-afe9-442b-83b8-bd4c46028812","system_id":"levelo_inurba_marseille","lat":43.24385,"lon":5.37064,"is_reserved":false,"is_disabled":false,"rental_uris":{"android":"levelo://app?vid=976deccc-afe9-442b-83b8-bd4c46028812","ios":"levelo://app?vid=976deccc-afe9-442b-83b8-bd4c46028812"},"vehicle_type_id":"4","last_reported":1773211098,"current_range_meters":39200,"station_id":"ce4bhhh2rcd13ifvqfk0","pricing_plan_id":"cebpf4jnsgd1na2vs0mg"},{"bike_id":"5061e64b-7a6f-416d-95f6-434ea56b6a99","system_id":"levelo_inurba_marseille","lat":43.3464,"lon":5.36722,"is_reserved":false,"is_disabled":false,"rental_uris":{"android":"levelo://app?vid=5061e64b-7a6f-416d-95f6-434ea56b6a99","ios":"levelo://app?vid=5061e64b-7a6f-416d-95f6-434ea56b6a99"},"vehicle_type_id":"4","last_reported":1773211098,"current_range_meters":30400,"station_id":"","pricing_plan_id":"cebpf4jnsgd1na2vs0mg"},{"bike_id":"2e0998c3-285b-4a51-9d8a-491c28e4b524","system_id":"levelo_inurba_marseille","lat":43.27808,"lon":5.40746,"is_reserved":false,"is_disabled":true,"rental_uris":{"android":"levelo://app?vid=2e0998c3-285b-4a51-9d8a-491c28e4b524","ios":"levelo://app?vid=2e0998c3-285b-4a51-9d8a-491c28e4b524"},"vehicle_type_id":"4","last_reported":1773211098,"current_range_meters":31200,"station_id":"ce4bhnh2rcd13ifvqgtg","pricing_plan_id":"cebpf4jnsgd1na2vs0mg"},{"bike_id":"9faea34b-1c48-4a1b-8f51-2bafe5184a50","system_id":"levelo_inurba_marseille","lat":43.28482,"lon":5.48399,"is_reserved":false,"is_disabled":false,"rental_uris":{"android":"levelo://app?vid=9faea34b-1c48-4a1b-8f51-2bafe5184a50","ios":"levelo://app?vid=9faea34b-1c48-4a1b-8f51-2bafe5184a50"},"vehicle_type_id":"4","last_reported":1773211098,"current_range_meters":36000,"station_id":"st_d3svhcjqgbts73a3dn0g","pricing_plan_id":"cebpf4jnsgd1na2vs0mg"},{"bike_id":"3ed7cc46-dfe0-48b3-b403-50ad5ae704c8","system_id":"levelo_inurba_marseille","lat":43.29938,"lon":5.36542,"is_reserved":false,"is_disabled":false,"rental_uris":{"android":"levelo://app?vid=3ed7cc46-dfe0-48b3-b403-50ad5ae704c8","ios":"levelo://app?vid=3ed7cc46-dfe0-48b3-b403-50ad5ae704c8"},"vehicle_type_id":"4","last_reported":1773211098,"current_range_meters":36400,"station_id":"ce4bgm92rcd13ifvqbr0","pricing_plan_id":"cebpf4jnsgd1na2vs0mg"},{"bike_id":"d427d34d-e739-4c0f-a843-74b85111544b","system_id":"levelo_inurba_marseille","lat":43.33157,"lon":5.37704,"is_reserved":false,"is_disabled":false,"rental_uris":{"android":"levelo://app?vid=d427d34d-e739-4c0f-a843-74b85111544b","ios":"levelo://app?vid=d427d34d-e739-4c0f-a843-74b85111544b"},"vehicle_type_id":"4","last_reported":1773211098,"current_range_meters":29600,"station_id":"st_d46cu089ee8s73dldbu0","pricing_plan_id":"cebpf4jnsgd1na2vs0mg"},{"bike_id":"f8c71ea2-bafc-4c25-8fba-9c4f4612dbff","system_id":"levelo_inurba_marseille","lat":43.30531,"lon":5.36711,"is_reserved":false,"is_disabled":false,"rental_uris":{"android":"levelo://app?vid=f8c71ea2-bafc-4c25-8fba-9c4f4612dbff","ios":"levelo://app?vid=f8c71ea2-bafc-4c25-8fba-9c4f4612dbff"},"vehicle_type_id":"4","last_reported":1773211098,"current_range_meters":38400,"station_id":"ce4bgrp2rcd13ifvqc9g","pricing_plan_id":"cebpf4jnsgd1na2vs0mg"},{"bike_id":"76f2eca3-ac84-438d-878d-901d76cba811","system_id":"levelo_inurba_marseille","lat":43.279905,"lon":5.4001,"is_reserved":false,"is_disabled":false,"rental_uris":{"android":"levelo://app?vid=76f2eca3-ac84-438d-878d-901d76cba811","ios":"levelo://app?vid=76f2eca3-ac84-438d-878d-901d76cba811"},"vehicle_type_id":"4","last_reported":1773211098,"current_range_meters":18000,"station_id":"ce4bho92rcd13ifvqh4g","pricing_plan_id":"cebpf4jnsgd1na2vs0mg"},{"bike_id":"7e613bd5-48ac-4878-808d-242384df6bb0","system_id":"levelo_inurba_marseille","lat":43.30425,"lon":5.39753,"is_reserved":false,"is_disabled":false,"rental_uris":{"android":"levelo://app?vid=7e613bd5-48ac-4878-808d-242384df6bb0","ios":"levelo://app?vid=7e613bd5-48ac-4878-808d-242384df6bb0"},"vehicle_type_id":"4","last_reported":1773211098,"current_range_meters":27600,"station_id":"ce4bh092rcd13ifvqd20","pricing_plan_id":"cebpf4jnsgd1na2vs0mg"},{"bike_id":"c943c8f2-fd97-497f-b02c-47e60712859d","system_id":"levelo_inurba_marseille","lat":43.25833,"lon":5.39447,"is_reserved":false,"is_disabled":false,"rental_uris":{"android":"levelo://app?vid=c943c8f2-fd97-497f-b02c-47e60712859d","ios":"levelo://app?vid=c943c8f2-fd97-497f-b02c-47e60712859d"},"vehicle_type_id":"4","last_reported":1773211098,"current_range_meters":28400,"station_id":"ce4bhip2rcd13ifvqft0","pricing_plan_id":"cebpf4jnsgd1na2vs0mg"},{"bike_id":"96a83a6b-f384-44bb-a23b-ba95d22fb068","system_id":"levelo_inurba_marseille","lat":43.30949,"lon":5.39052,"is_reserved":false,"is_disabled":false,"rental_uris":{"android":"levelo://app?vid=96a83a6b-f384-44bb-a23b-ba95d22fb068","ios":"levelo://app?vid=96a83a6b-f384-44bb-a23b-ba95d22fb068"},"vehicle_type_id":"4","last_reported":1773211098,"current_range_meters":22000,"station_id":"ce4bgup2rcd13ifvqco0","pricing_plan_id":"cebpf4jnsgd1na2vs0mg"},{"bike_id":"88450bb4-cd8a-4cf4-942e-60848487f806","system_id":"levelo_inurba_marseille","lat":43.28279,"lon":5.35093,"is_reserved":false,"is_disabled":false,"rental_uris":{"android":"levelo://app?vid=88450bb4-cd8a-4cf4-942e-60848487f806","ios":"levelo://app?vid=88450bb4-cd8a-4cf4-942e-60848487f806"},"vehicle_type_id":"4","last_reported":1773211098,"current_range_meters":38800,"station_id":"ce4bhbp2rcd13ifvqerg","pricing_plan_id":"cebpf4jnsgd1na2vs0mg"},{"bike_id":"913fb0ac-86ae-420a-9f83-517ee9c2fc7a","system_id":"levelo_inurba_marseille","lat":43.24807,"lon":5.37455,"is_reserved":false,"is_disabled":false,"rental_uris":{"android":"levelo://app?vid=913fb0ac-86ae-420a-9f83-517ee9c2fc7a","ios":"levelo://app?vid=913fb0ac-86ae-420a-9f83-517ee9c2fc7a"},"vehicle_type_id":"4","last_reported":1773211098,"current_range_meters":28400,"station_id":"ce4bhgh2rcd13ifvqfb0","pricing_plan_id":"cebpf4jnsgd1na2vs0mg"},{"bike_id":"5cfc603b-29fb-4936-93b0-d2cfd02c0ab1","system_id":"levelo_inurba_marseille","lat":43.24808,"lon":5.37463,"is_reserved":false,"is_disabled":false,"rental_uris":{"android":"levelo://app?vid=5cfc603b-29fb-4936-93b0-d2cfd02c0ab1","ios":"levelo://app?vid=5cfc603b-29fb-4936-93b0-d2cfd02c0ab1"},"vehicle_type_id":"4","last_reported":1773211098,"current_range_meters":32800,"station_id":"ce4bhgh2rcd13ifvqfb0","pricing_plan_id":"cebpf4jnsgd1na2vs0mg"},{"bike_id":"4be35303-a285-477a-a9f7-112d75dc7eb6","system_id":"levelo_inurba_marseille","lat":43.3097,"lon":5.39034,"is_reserved":false,"is_disabled":false,"rental_uris":{"android":"levelo://app?vid=4be35303-a285-477a-a9f7-112d75dc7eb6","ios":"levelo://app?vid=4be35303-a285-477a-a9f7-112d75dc7eb6"},"vehicle_type_id":"4","last_reported":1773211098,"current_range_meters":40000,"station_id":"ce4bgup2rcd13ifvqco0","pricing_plan_id":"cebpf4jnsgd1na2vs0mg"},{"bike_id":"69937d6b-0ad4-476f-a55d-d6a587fba769","system_id":"levelo_inurba_marseille","lat":43.28529,"lon":5.35793,"is_reserved":false,"is_disabled":false,"rental_uris":{"android":"levelo://app?vid=69937d6b-0ad4-476f-a55d-d6a587fba769","ios":"levelo://app?vid=69937d6b-0ad4-476f-a55d-d6a587fba769"},"vehicle_type_id":"4","last_reported":1773211098,"current_range_meters":22800,"station_id":"","pricing_plan_id":"cebpf4jnsgd1na2vs0mg"},{"bike_id":"9f750502-900e-4298-a083-f138285ae7a6","system_id":"levelo_inurba_marseille","lat":43.30656,"lon":5.40078,"is_reserved":false,"is_disabled":false,"rental_uris":{"android":"levelo://app?vid=9f750502-900e-4298-a083-f138285ae7a6","ios":"levelo://app?vid=9f750502-900e-4298-a083-f138285ae7a6"},"vehicle_type_id":"4","last_reported":1773211098,"current_range_meters":25200,"station_id":"ce4bh112rcd13ifvqda0","pricing_plan_id":"cebpf4jnsgd1na2vs0mg"},{"bike_id":"80d9c585-717b-48ff-bcbe-ef475313aca3","system_id":"levelo_inurba_marseille","lat":43.28082,"lon":5.39659,"is_reserved":false,"is_disabled":false,"rental_uris":{"android":"levelo://app?vid=80d9c585-717b-48ff-bcbe-ef475313aca3","ios":"levelo://app?vid=80d9c585-717b-48ff-bcbe-ef475313aca3"},"vehicle_type_id":"4","last_reported":1773211098,"current_range_meters":36000,"station_id":"ce4bho12rcd13ifvqh2g","pricing_plan_id":"cebpf4jnsgd1na2vs0mg"},{"bike_id":"02ca0b46-1a6b-43db-bf18-3920d1511794","system_id":"levelo_inurba_marseille","lat":43.31488,"lon":5.3732,"is_reserved":false,"is_disabled":false,"rental_uris":{"android":"levelo://app?vid=02ca0b46-1a6b-43db-bf18-3920d1511794","ios":"levelo://app?vid=02ca0b46-1a6b-43db-bf18-3920d1511794"},"vehicle_type_id":"4","last_reported":1773211098,"current_range_meters":34000,"station_id":"ce4bgt12rcd13ifvqcd0","pricing_plan_id":"cebpf4jnsgd1na2vs0mg"},{"bike_id":"ff30073f-a631-474f-8c5b-fcb761d3b229","system_id":"levelo_inurba_marseille","lat":43.28892,"lon":5.39689,"is_reserved":false,"is_disabled":false,"rental_uris":{"android":"levelo://app?vid=ff30073f-a631-474f-8c5b-fcb761d3b229","ios":"levelo://app?vid=ff30073f-a631-474f-8c5b-fcb761d3b229"},"vehicle_type_id":"4","last_reported":1773211098,"current_range_meters":33200,"station_id":"","pricing_plan_id":"cebpf4jnsgd1na2vs0mg"},{"bike_id":"de489262-d353-4529-a718-c34e1bdeed67","system_id":"levelo_inurba_marseille","lat":43.27505,"lon":5.41572,"is_reserved":false,"is_disabled":false,"rental_uris":{"android":"levelo://app?vid=de489262-d353-4529-a718-c34e1bdeed67","ios":"levelo://app?vid=de489262-d353-4529-a718-c34e1bdeed67"},"vehicle_type_id":"4","last_reported":1773211098,"current_range_meters":2800,"station_id":"st_d6im8g6chgec73a5pndg","pricing_plan_id":"cebpf4jnsgd1na2vs0mg"},{"bike_id":"f41cfb42-0ff7-49c2-9aeb-0d17a0584783","system_id":"levelo_inurba_marseille","lat":43.32147,"lon":5.3842,"is_reserved":false,"is_disabled":false,"rental_uris":{"android":"levelo://app?vid=f41cfb42-0ff7-49c2-9aeb-0d17a0584783","ios":"levelo://app?vid=f41cfb42-0ff7-49c2-9aeb-0d17a0584783"},"vehicle_type_id":"4","last_reported":1773211098,"current_range_meters":39200,"station_id":"ce4bhr12rcd13ifvqhqg","pricing_plan_id":"cebpf4jnsgd1na2vs0mg"},{"bike_id":"d758fa9c-0dda-48b5-aa13-54ef9f268249","system_id":"levelo_inurba_marseille","lat":43.29071,"lon":5.37156,"is_reserved":false,"is_disabled":false,"rental_uris":{"android":"levelo://app?vid=d758fa9c-0dda-48b5-aa13-54ef9f268249","ios":"levelo://app?vid=d758fa9c-0dda-48b5-aa13-54ef9f268249"},"vehicle_type_id":"4","last_reported":1773211098,"current_range_meters":37600,"station_id":"ce4bh5p2rcd13ifvqe4g","pricing_plan_id":"cebpf4jnsgd1na2vs0mg"},{"bike_id":"66796482-b4de-4f94-b605-12681c60b721","system_id":"levelo_inurba_marseille","lat":43.3253,"lon":5.41425,"is_reserved":false,"is_disabled":false,"rental_uris":{"android":"levelo://app?vid=66796482-b4de-4f94-b605-12681c60b721","ios":"levelo://app?vid=66796482-b4de-4f94-b605-12681c60b721"},"vehicle_type_id":"4","last_reported":1773211098,"current_range_meters":2800,"station_id":"ce4bhq12rcd13ifvqhhg","pricing_plan_id":"cebpf4jnsgd1na2vs0mg"},{"bike_id":"b07004db-a1f0-4638-af83-4a40c5197895","system_id":"levelo_inurba_marseille","lat":43.27995,"lon":5.40049,"is_reserved":false,"is_disabled":false,"rental_uris":{"android":"levelo://app?vid=b07004db-a1f0-4638-af83-4a40c5197895","ios":"levelo://app?vid=b07004db-a1f0-4638-af83-4a40c5197895"},"vehicle_type_id":"4","last_reported":1773211098,"current_range_meters":38000,"station_id":"ce4bho92rcd13ifvqh4g","pricing_plan_id":"cebpf4jnsgd1na2vs0mg"},{"bike_id":"35a2906d-da0b-44b0-881b-06266109b0eb","system_id":"levelo_inurba_marseille","lat":43.29328,"lon":5.37408,"is_reserved":false,"is_disabled":false,"rental_uris":{"android":"levelo://app?vid=35a2906d-da0b-44b0-881b-06266109b0eb","ios":"levelo://app?vid=35a2906d-da0b-44b0-881b-06266109b0eb"},"vehicle_type_id":"4","last_reported":1773211098,"current_range_meters":38400,"station_id":"","pricing_plan_id":"cebpf4jnsgd1na2vs0mg"},{"bike_id":"d0e204b5-6dd1-4f52-88bc-3b2bdf1cb73b","system_id":"levelo_inurba_marseille","lat":43.2841,"lon":5.34998,"is_reserved":false,"is_disabled":false,"rental_uris":{"android":"levelo://app?vid=d0e204b5-6dd1-4f52-88bc-3b2bdf1cb73b","ios":"levelo://app?vid=d0e204b5-6dd1-4f52-88bc-3b2bdf1cb73b"},"vehicle_type_id":"4","last_reported":1773211098,"current_range_meters":39200,"station_id":"ce4bhbh2rcd13ifvqepg","pricing_plan_id":"cebpf4jnsgd1na2vs0mg"},{"bike_id":"4035076b-e1f7-4550-ba18-40b5d2e4f17a","system_id":"levelo_inurba_marseille","lat":43.25795,"lon":5.3949,"is_reserved":false,"is_disabled":false,"rental_uris":{"android":"levelo://app?vid=4035076b-e1f7-4550-ba18-40b5d2e4f17a","ios":"levelo://app?vid=4035076b-e1f7-4550-ba18-40b5d2e4f17a"},"vehicle_type_id":"4","last_reported":1773211098,"current_range_meters":9600,"station_id":"","pricing_plan_id":"cebpf4jnsgd1na2vs0mg"},{"bike_id":"182a33c2-192b-4c16-af77-c32682d4109b","system_id":"levelo_inurba_marseille","lat":43.24169,"lon":5.39712,"is_reserved":false,"is_disabled":true,"rental_uris":{"android":"levelo://app?vid=182a33c2-192b-4c16-af77-c32682d4109b","ios":"levelo://app?vid=182a33c2-192b-4c16-af77-c32682d4109b"},"vehicle_type_id":"4","last_reported":1773211098,"current_range_meters":36800,"station_id":"ce4bhn12rcd13ifvqgpg","pricing_plan_id":"cebpf4jnsgd1na2vs0mg"},{"bike_id":"1a3a5560-3e07-4e54-8aa7-c954adec59b1","system_id":"levelo_inurba_marseille","lat":43.29173,"lon":5.37148,"is_reserved":false,"is_disabled":false,"rental_uris":{"android":"levelo://app?vid=1a3a5560-3e07-4e54-8aa7-c954adec59b1","ios":"levelo://app?vid=1a3a5560-3e07-4e54-8aa7-c954adec59b1"},"vehicle_type_id":"4","last_reported":1773211098,"current_range_meters":39200,"station_id":"ce4bha92rcd13ifvqeh0","pricing_plan_id":"cebpf4jnsgd1na2vs0mg"},{"bike_id":"539fd7c5-5646-434a-9078-e9a8e1b4bd94","system_id":"levelo_inurba_marseille","lat":43.28503,"lon":5.38433,"is_reserved":false,"is_disabled":true,"rental_uris":{"android":"levelo://app?vid=539fd7c5-5646-434a-9078-e9a8e1b4bd94","ios":"levelo://app?vid=539fd7c5-5646-434a-9078-e9a8e1b4bd94"},"vehicle_type_id":"4","last_reported":1773211098,"current_range_meters":32000,"station_id":"ce4bh512rcd13ifvqe3g","pricing_plan_id":"cebpf4jnsgd1na2vs0mg"},{"bike_id":"94ecc346-3888-4801-96b7-afa97a11f6a0","system_id":"levelo_inurba_marseille","lat":43.24547,"lon":5.39544,"is_reserved":false,"is_disabled":true,"rental_uris":{"android":"levelo://app?vid=94ecc346-3888-4801-96b7-afa97a11f6a0","ios":"levelo://app?vid=94ecc346-3888-4801-96b7-afa97a11f6a0"},"vehicle_type_id":"4","last_reported":1773211098,"current_range_meters":0,"station_id":"ce4bhlp2rcd13ifvqgjg","pricing_plan_id":"cebpf4jnsgd1na2vs0mg"},{"bike_id":"7658921c-6dd4-421f-9684-911a5c663bf7","system_id":"levelo_inurba_marseille","lat":43.26553,"lon":5.37291,"is_reserved":false,"is_disabled":false,"rental_uris":{"android":"levelo://app?vid=7658921c-6dd4-421f-9684-911a5c663bf7","ios":"levelo://app?vid=7658921c-6dd4-421f-9684-911a5c663bf7"},"vehicle_type_id":"4","last_reported":1773211098,"current_range_meters":34800,"station_id":"ce4bhg12rcd13ifvqf70","pricing_plan_id":"cebpf4jnsgd1na2vs0mg"},{"bike_id":"c73fce6b-85a5-4858-bfc7-12c991a48f04","system_id":"levelo_inurba_marseille","lat":43.30303,"lon":5.39211,"is_reserved":false,"is_disabled":false,"rental_uris":{"android":"levelo://app?vid=c73fce6b-85a5-4858-bfc7-12c991a48f04","ios":"levelo://app?vid=c73fce6b-85a5-4858-bfc7-12c991a48f04"},"vehicle_type_id":"4","last_reported":1773211098,"current_range_meters":5600,"station_id":"ce4bgkh2rcd13ifvqbk0","pricing_plan_id":"cebpf4jnsgd1na2vs0mg"},{"bike_id":"e61a72ab-4433-487e-815e-70a2e97ea5c9","system_id":"levelo_inurba_marseille","lat":43.29634,"lon":5.37658,"is_reserved":false,"is_disabled":false,"rental_uris":{"android":"levelo://app?vid=e61a72ab-4433-487e-815e-70a2e97ea5c9","ios":"levelo://app?vid=e61a72ab-4433-487e-815e-70a2e97ea5c9"},"vehicle_type_id":"4","last_reported":1773211098,"current_range_meters":39200,"station_id":"ce4bgi92rcd13ifvqb90","pricing_plan_id":"cebpf4jnsgd1na2vs0mg"},{"bike_id":"faa6004d-cd41-4008-8bcc-b182163123b5","system_id":"levelo_inurba_marseille","lat":43.24158,"lon":5.36411,"is_reserved":false,"is_disabled":false,"rental_uris":{"android":"levelo://app?vid=faa6004d-cd41-4008-8bcc-b182163123b5","ios":"levelo://app?vid=faa6004d-cd41-4008-8bcc-b182163123b5"},"vehicle_type_id":"4","last_reported":1773211098,"current_range_meters":12400,"station_id":"cpo36qri1sfpv3e86is0","pricing_plan_id":"cebpf4jnsgd1na2vs0mg"},{"bike_id":"643a041d-3faf-4dc4-a3ad-d2cb17d6236c","system_id":"levelo_inurba_marseille","lat":43.29912,"lon":5.37472,"is_reserved":false,"is_disabled":false,"rental_uris":{"android":"levelo://app?vid=643a041d-3faf-4dc4-a3ad-d2cb17d6236c","ios":"levelo://app?vid=643a041d-3faf-4dc4-a3ad-d2cb17d6236c"},"vehicle_type_id":"4","last_reported":1773211098,"current_range_meters":38000,"station_id":"ce4bgjh2rcd13ifvqbg0","pricing_plan_id":"cebpf4jnsgd1na2vs0mg"},{"bike_id":"f93178fc-35ef-40b4-bf7c-cf72d287e4f7","system_id":"levelo_inurba_marseille","lat":43.30345,"lon":5.3918,"is_reserved":false,"is_disabled":false,"rental_uris":{"android":"levelo://app?vid=f93178fc-35ef-40b4-bf7c-cf72d287e4f7","ios":"levelo://app?vid=f93178fc-35ef-40b4-bf7c-cf72d287e4f7"},"vehicle_type_id":"4","last_reported":1773211098,"current_range_meters":20400,"station_id":"","pricing_plan_id":"cebpf4jnsgd1na2vs0mg"},{"bike_id":"a98a2ffa-f3fb-4c8b-86b7-609f1d5345a7","system_id":"levelo_inurba_marseille","lat":43.30284,"lon":5.36901,"is_reserved":false,"is_disabled":false,"rental_uris":{"android":"levelo://app?vid=a98a2ffa-f3fb-4c8b-86b7-609f1d5345a7","ios":"levelo://app?vid=a98a2ffa-f3fb-4c8b-86b7-609f1d5345a7"},"vehicle_type_id":"4","last_reported":1773211098,"current_range_meters":30000,"station_id":"ce4bgqh2rcd13ifvqc5g","pricing_plan_id":"cebpf4jnsgd1na2vs0mg"},{"bike_id":"90c21d76-cccc-4252-975d-3a89242c8302","system_id":"levelo_inurba_marseille","lat":43.30596,"lon":5.37218,"is_reserved":false,"is_disabled":false,"rental_uris":{"android":"levelo://app?vid=90c21d76-cccc-4252-975d-3a89242c8302","ios":"levelo://app?vid=90c21d76-cccc-4252-975d-3a89242c8302"},"vehicle_type_id":"4","last_reported":1773211098,"current_range_meters":39200,"station_id":"ce4bgqh2rcd13ifvqc4g","pricing_plan_id":"cebpf4jnsgd1na2vs0mg"},{"bike_id":"17ce7070-d813-4eaf-a544-6259968aa271","system_id":"levelo_inurba_marseille","lat":43.31082,"lon":5.36871,"is_reserved":false,"is_disabled":false,"rental_uris":{"android":"levelo://app?vid=17ce7070-d813-4eaf-a544-6259968aa271","ios":"levelo://app?vid=17ce7070-d813-4eaf-a544-6259968aa271"},"vehicle_type_id":"4","last_reported":1773211098,"current_range_meters":9200,"station_id":"","pricing_plan_id":"cebpf4jnsgd1na2vs0mg"},{"bike_id":"05dc5503-93fd-4015-baaf-7cc076794efb","system_id":"levelo_inurba_marseille","lat":43.25065,"lon":5.39545,"is_reserved":false,"is_disabled":false,"rental_uris":{"android":"levelo://app?vid=05dc5503-93fd-4015-baaf-7cc076794efb","ios":"levelo://app?vid=05dc5503-93fd-4015-baaf-7cc076794efb"},"vehicle_type_id":"4","last_reported":1773211098,"current_range_meters":39200,"station_id":"ce4bhm12rcd13ifvqgkg","pricing_plan_id":"cebpf4jnsgd1na2vs0mg"},{"bike_id":"84edac93-97f0-4f16-980c-7e1b057bc44a","system_id":"levelo_inurba_marseille","lat":43.25824,"lon":5.39448,"is_reserved":false,"is_disabled":false,"rental_uris":{"android":"levelo://app?vid=84edac93-97f0-4f16-980c-7e1b057bc44a","ios":"levelo://app?vid=84edac93-97f0-4f16-980c-7e1b057bc44a"},"vehicle_type_id":"4","last_reported":1773211098,"current_range_meters":27600,"station_id":"ce4bhip2rcd13ifvqft0","pricing_plan_id":"cebpf4jnsgd1na2vs0mg"},{"bike_id":"16ced00d-b75b-480f-bfe3-587817c52078","system_id":"levelo_inurba_marseille","lat":43.2464,"lon":5.38918,"is_reserved":false,"is_disabled":false,"rental_uris":{"android":"levelo://app?vid=16ced00d-b75b-480f-bfe3-587817c52078","ios":"levelo://app?vid=16ced00d-b75b-480f-bfe3-587817c52078"},"vehicle_type_id":"4","last_reported":1773211098,"current_range_meters":38400,"station_id":"ce4bhg12rcd13ifvqf60","pricing_plan_id":"cebpf4jnsgd1na2vs0mg"},{"bike_id":"095740f3-4e12-4adb-8a1a-03aa33c9cd08","system_id":"levelo_inurba_marseille","lat":43.26535,"lon":5.37343,"is_reserved":false,"is_disabled":false,"rental_uris":{"android":"levelo://app?vid=095740f3-4e12-4adb-8a1a-03aa33c9cd08","ios":"levelo://app?vid=095740f3-4e12-4adb-8a1a-03aa33c9cd08"},"vehicle_type_id":"4","last_reported":1773211098,"current_range_meters":14000,"station_id":"","pricing_plan_id":"cebpf4jnsgd1na2vs0mg"},{"bike_id":"07d667a1-20cd-44c6-a08f-d51c851309d8","system_id":"levelo_inurba_marseille","lat":43.29765,"lon":5.37084,"is_reserved":false,"is_disabled":false,"rental_uris":{"android":"levelo://app?vid=07d667a1-20cd-44c6-a08f-d51c851309d8","ios":"levelo://app?vid=07d667a1-20cd-44c6-a08f-d51c851309d8"},"vehicle_type_id":"4","last_reported":1773211098,"current_range_meters":26000,"station_id":"ce4bgop2rcd13ifvqc1g","pricing_plan_id":"cebpf4jnsgd1na2vs0mg"},{"bike_id":"566d1d1a-0852-4e0d-907b-e1334e0d6bf9","system_id":"levelo_inurba_marseille","lat":43.23768,"lon":5.36652,"is_reserved":false,"is_disabled":false,"rental_uris":{"android":"levelo://app?vid=566d1d1a-0852-4e0d-907b-e1334e0d6bf9","ios":"levelo://app?vid=566d1d1a-0852-4e0d-907b-e1334e0d6bf9"},"vehicle_type_id":"4","last_reported":1773211098,"current_range_meters":15200,"station_id":"st_d3nk18o9ro0c73en2l3g","pricing_plan_id":"cebpf4jnsgd1na2vs0mg"},{"bike_id":"dd6d12c4-c00c-4021-839a-f38c2ba6c7b9","system_id":"levelo_inurba_marseille","lat":43.27211,"lon":5.39194,"is_reserved":false,"is_disabled":false,"rental_uris":{"android":"levelo://app?vid=dd6d12c4-c00c-4021-839a-f38c2ba6c7b9","ios":"levelo://app?vid=dd6d12c4-c00c-4021-839a-f38c2ba6c7b9"},"vehicle_type_id":"4","last_reported":1773211098,"current_range_meters":39200,"station_id":"ce4bhhp2rcd13ifvqfm0","pricing_plan_id":"cebpf4jnsgd1na2vs0mg"},{"bike_id":"1f22164f-3f62-4aa1-b979-623a5f5ae5b4","system_id":"levelo_inurba_marseille","lat":43.28272,"lon":5.35092,"is_reserved":false,"is_disabled":false,"rental_uris":{"android":"levelo://app?vid=1f22164f-3f62-4aa1-b979-623a5f5ae5b4","ios":"levelo://app?vid=1f22164f-3f62-4aa1-b979-623a5f5ae5b4"},"vehicle_type_id":"4","last_reported":1773211098,"current_range_meters":39200,"station_id":"ce4bhbp2rcd13ifvqerg","pricing_plan_id":"cebpf4jnsgd1na2vs0mg"},{"bike_id":"13f5d6ee-b5b6-4f72-86db-f808654551b8","system_id":"levelo_inurba_marseille","lat":43.29906,"lon":5.43653,"is_reserved":false,"is_disabled":false,"rental_uris":{"android":"levelo://app?vid=13f5d6ee-b5b6-4f72-86db-f808654551b8","ios":"levelo://app?vid=13f5d6ee-b5b6-4f72-86db-f808654551b8"},"vehicle_type_id":"4","last_reported":1773211098,"current_range_meters":29600,"station_id":"ce4bhpp2rcd13ifvqhfg","pricing_plan_id":"cebpf4jnsgd1na2vs0mg"},{"bike_id":"1c573354-cf53-44d3-9111-eb37080df88e","system_id":"levelo_inurba_marseille","lat":43.31518,"lon":5.37384,"is_reserved":false,"is_disabled":false,"rental_uris":{"android":"levelo://app?vid=1c573354-cf53-44d3-9111-eb37080df88e","ios":"levelo://app?vid=1c573354-cf53-44d3-9111-eb37080df88e"},"vehicle_type_id":"4","last_reported":1773211098,"current_range_meters":18000,"station_id":"","pricing_plan_id":"cebpf4jnsgd1na2vs0mg"},{"bike_id":"4237657a-7cdc-4967-86ba-cfba955c0ea9","system_id":"levelo_inurba_marseille","lat":43.27185,"lon":5.40972,"is_reserved":false,"is_disabled":false,"rental_uris":{"android":"levelo://app?vid=4237657a-7cdc-4967-86ba-cfba955c0ea9","ios":"levelo://app?vid=4237657a-7cdc-4967-86ba-cfba955c0ea9"},"vehicle_type_id":"4","last_reported":1773211098,"current_range_meters":39200,"station_id":"ce4bhl12rcd13ifvqgf0","pricing_plan_id":"cebpf4jnsgd1na2vs0mg"},{"bike_id":"c79bec2b-2f38-46cc-8a35-98ea2a36d591","system_id":"levelo_inurba_marseille","lat":43.30893,"lon":5.39634,"is_reserved":false,"is_disabled":false,"rental_uris":{"android":"levelo://app?vid=c79bec2b-2f38-46cc-8a35-98ea2a36d591","ios":"levelo://app?vid=c79bec2b-2f38-46cc-8a35-98ea2a36d591"},"vehicle_type_id":"4","last_reported":1773211098,"current_range_meters":27600,"station_id":"ce4bh012rcd13ifvqcv0","pricing_plan_id":"cebpf4jnsgd1na2vs0mg"},{"bike_id":"d9ae451b-394d-4600-bc8e-250781c8b682","system_id":"levelo_inurba_marseille","lat":43.26548,"lon":5.37303,"is_reserved":false,"is_disabled":false,"rental_uris":{"android":"levelo://app?vid=d9ae451b-394d-4600-bc8e-250781c8b682","ios":"levelo://app?vid=d9ae451b-394d-4600-bc8e-250781c8b682"},"vehicle_type_id":"4","last_reported":1773211098,"current_range_meters":16400,"station_id":"ce4bhg12rcd13ifvqf70","pricing_plan_id":"cebpf4jnsgd1na2vs0mg"},{"bike_id":"c33732c3-34b3-43cf-9550-258c10091c04","system_id":"levelo_inurba_marseille","lat":43.29903,"lon":5.42099,"is_reserved":false,"is_disabled":false,"rental_uris":{"android":"levelo://app?vid=c33732c3-34b3-43cf-9550-258c10091c04","ios":"levelo://app?vid=c33732c3-34b3-43cf-9550-258c10091c04"},"vehicle_type_id":"4","last_reported":1773211098,"current_range_meters":38800,"station_id":"","pricing_plan_id":"cebpf4jnsgd1na2vs0mg"},{"bike_id":"5e71fadf-3d46-4d3f-8258-74b7144134d8","system_id":"levelo_inurba_marseille","lat":43.27501,"lon":5.41603,"is_reserved":false,"is_disabled":false,"rental_uris":{"android":"levelo://app?vid=5e71fadf-3d46-4d3f-8258-74b7144134d8","ios":"levelo://app?vid=5e71fadf-3d46-4d3f-8258-74b7144134d8"},"vehicle_type_id":"4","last_reported":1773211098,"current_range_meters":22800,"station_id":"st_d6im8g6chgec73a5pndg","pricing_plan_id":"cebpf4jnsgd1na2vs0mg"},{"bike_id":"f4830860-a4cc-475b-9721-23b58b8752d9","system_id":"levelo_inurba_marseille","lat":43.29514,"lon":5.3752,"is_reserved":false,"is_disabled":false,"rental_uris":{"android":"levelo://app?vid=f4830860-a4cc-475b-9721-23b58b8752d9","ios":"levelo://app?vid=f4830860-a4cc-475b-9721-23b58b8752d9"},"vehicle_type_id":"4","last_reported":1773211098,"current_range_meters":28400,"station_id":"ce4bgkp2rcd13ifvqbmg","pricing_plan_id":"cebpf4jnsgd1na2vs0mg"},{"bike_id":"c0f5bd4a-cbc2-427a-92f0-0be45de4abfd","system_id":"levelo_inurba_marseille","lat":43.28536,"lon":5.44124,"is_reserved":false,"is_disabled":false,"rental_uris":{"android":"levelo://app?vid=c0f5bd4a-cbc2-427a-92f0-0be45de4abfd","ios":"levelo://app?vid=c0f5bd4a-cbc2-427a-92f0-0be45de4abfd"},"vehicle_type_id":"4","last_reported":1773211098,"current_range_meters":6800,"station_id":"st_d3j3df2ikq2c7380ej80","pricing_plan_id":"cebpf4jnsgd1na2vs0mg"},{"bike_id":"d404ae44-b78a-4ba8-8f9c-6c43e62ef6b2","system_id":"levelo_inurba_marseille","lat":43.30357,"lon":5.41894,"is_reserved":false,"is_disabled":false,"rental_uris":{"android":"levelo://app?vid=d404ae44-b78a-4ba8-8f9c-6c43e62ef6b2","ios":"levelo://app?vid=d404ae44-b78a-4ba8-8f9c-6c43e62ef6b2"},"vehicle_type_id":"4","last_reported":1773211098,"current_range_meters":39200,"station_id":"ce4bhop2rcd13ifvqh7g","pricing_plan_id":"cebpf4jnsgd1na2vs0mg"},{"bike_id":"251e2fa3-9cee-4a07-883b-96d86c803c28","system_id":"levelo_inurba_marseille","lat":43.23189,"lon":5.3998,"is_reserved":false,"is_disabled":false,"rental_uris":{"android":"levelo://app?vid=251e2fa3-9cee-4a07-883b-96d86c803c28","ios":"levelo://app?vid=251e2fa3-9cee-4a07-883b-96d86c803c28"},"vehicle_type_id":"4","last_reported":1773211098,"current_range_meters":39200,"station_id":"ce4bhn12rcd13ifvqgqg","pricing_plan_id":"cebpf4jnsgd1na2vs0mg"},{"bike_id":"6eaf328c-de35-4b3f-8c0e-4c90d9499b4b","system_id":"levelo_inurba_marseille","lat":43.32136,"lon":5.36758,"is_reserved":false,"is_disabled":false,"rental_uris":{"android":"levelo://app?vid=6eaf328c-de35-4b3f-8c0e-4c90d9499b4b","ios":"levelo://app?vid=6eaf328c-de35-4b3f-8c0e-4c90d9499b4b"},"vehicle_type_id":"4","last_reported":1773211098,"current_range_meters":37600,"station_id":"","pricing_plan_id":"cebpf4jnsgd1na2vs0mg"},{"bike_id":"a5eb7e2e-f45f-42c7-8ba3-bf76c2472338","system_id":"levelo_inurba_marseille","lat":43.30207,"lon":5.39438,"is_reserved":false,"is_disabled":false,"rental_uris":{"android":"levelo://app?vid=a5eb7e2e-f45f-42c7-8ba3-bf76c2472338","ios":"levelo://app?vid=a5eb7e2e-f45f-42c7-8ba3-bf76c2472338"},"vehicle_type_id":"4","last_reported":1773211098,"current_range_meters":25200,"station_id":"ce4bh0p2rcd13ifvqd70","pricing_plan_id":"cebpf4jnsgd1na2vs0mg"},{"bike_id":"bb4d2406-b5bc-49be-9f7c-f47fcdbe593b","system_id":"levelo_inurba_marseille","lat":43.30531,"lon":5.36725,"is_reserved":false,"is_disabled":false,"rental_uris":{"android":"levelo://app?vid=bb4d2406-b5bc-49be-9f7c-f47fcdbe593b","ios":"levelo://app?vid=bb4d2406-b5bc-49be-9f7c-f47fcdbe593b"},"vehicle_type_id":"4","last_reported":1773211098,"current_range_meters":38800,"station_id":"ce4bgrp2rcd13ifvqc9g","pricing_plan_id":"cebpf4jnsgd1na2vs0mg"},{"bike_id":"aaf5f6ab-4feb-4c4b-8925-7136d6493bb8","system_id":"levelo_inurba_marseille","lat":43.30166,"lon":5.36653,"is_reserved":false,"is_disabled":false,"rental_uris":{"android":"levelo://app?vid=aaf5f6ab-4feb-4c4b-8925-7136d6493bb8","ios":"levelo://app?vid=aaf5f6ab-4feb-4c4b-8925-7136d6493bb8"},"vehicle_type_id":"4","last_reported":1773211098,"current_range_meters":38000,"station_id":"ce4bgrh2rcd13ifvqc8g","pricing_plan_id":"cebpf4jnsgd1na2vs0mg"},{"bike_id":"5f72350b-2c43-4ae3-97f1-1beffc338161","system_id":"levelo_inurba_marseille","lat":43.23964,"lon":5.36643,"is_reserved":false,"is_disabled":false,"rental_uris":{"android":"levelo://app?vid=5f72350b-2c43-4ae3-97f1-1beffc338161","ios":"levelo://app?vid=5f72350b-2c43-4ae3-97f1-1beffc338161"},"vehicle_type_id":"4","last_reported":1773211098,"current_range_meters":39200,"station_id":"ce4bhi12rcd13ifvqfp0","pricing_plan_id":"cebpf4jnsgd1na2vs0mg"},{"bike_id":"00adc013-06bc-44f0-92b9-114da8a17fc8","system_id":"levelo_inurba_marseille","lat":43.29654,"lon":5.39372,"is_reserved":false,"is_disabled":false,"rental_uris":{"android":"levelo://app?vid=00adc013-06bc-44f0-92b9-114da8a17fc8","ios":"levelo://app?vid=00adc013-06bc-44f0-92b9-114da8a17fc8"},"vehicle_type_id":"4","last_reported":1773211098,"current_range_meters":9600,"station_id":"","pricing_plan_id":"cebpf4jnsgd1na2vs0mg"},{"bike_id":"a9f2a214-0b28-434f-a80c-334d78dcfe7c","system_id":"levelo_inurba_marseille","lat":43.29214,"lon":5.3609,"is_reserved":false,"is_disabled":false,"rental_uris":{"android":"levelo://app?vid=a9f2a214-0b28-434f-a80c-334d78dcfe7c","ios":"levelo://app?vid=a9f2a214-0b28-434f-a80c-334d78dcfe7c"},"vehicle_type_id":"4","last_reported":1773211098,"current_range_meters":39200,"station_id":"ce4bhbh2rcd13ifvqeqg","pricing_plan_id":"cebpf4jnsgd1na2vs0mg"},{"bike_id":"070cd0a6-749d-436a-bec4-797f07440630","system_id":"levelo_inurba_marseille","lat":43.2889,"lon":5.35847,"is_reserved":false,"is_disabled":false,"rental_uris":{"android":"levelo://app?vid=070cd0a6-749d-436a-bec4-797f07440630","ios":"levelo://app?vid=070cd0a6-749d-436a-bec4-797f07440630"},"vehicle_type_id":"4","last_reported":1773211098,"current_range_meters":29600,"station_id":"ce4bhb12rcd13ifvqem0","pricing_plan_id":"cebpf4jnsgd1na2vs0mg"},{"bike_id":"f27be3cb-d5fc-4498-8e52-861d9b4aac8e","system_id":"levelo_inurba_marseille","lat":43.24808,"lon":5.37461,"is_reserved":false,"is_disabled":false,"rental_uris":{"android":"levelo://app?vid=f27be3cb-d5fc-4498-8e52-861d9b4aac8e","ios":"levelo://app?vid=f27be3cb-d5fc-4498-8e52-861d9b4aac8e"},"vehicle_type_id":"4","last_reported":1773211098,"current_range_meters":37600,"station_id":"ce4bhgh2rcd13ifvqfb0","pricing_plan_id":"cebpf4jnsgd1na2vs0mg"},{"bike_id":"3d7b1bec-2a06-47da-a7d0-796cda99d14f","system_id":"levelo_inurba_marseille","lat":43.27068,"lon":5.38304,"is_reserved":false,"is_disabled":false,"rental_uris":{"android":"levelo://app?vid=3d7b1bec-2a06-47da-a7d0-796cda99d14f","ios":"levelo://app?vid=3d7b1bec-2a06-47da-a7d0-796cda99d14f"},"vehicle_type_id":"4","last_reported":1773211098,"current_range_meters":20400,"station_id":"st_d3n2fo6cfp8s73cte1j0","pricing_plan_id":"cebpf4jnsgd1na2vs0mg"},{"bike_id":"cd68cf1b-5d45-4efe-ae46-93cc692f1578","system_id":"levelo_inurba_marseille","lat":43.28658,"lon":5.36371,"is_reserved":false,"is_disabled":false,"rental_uris":{"android":"levelo://app?vid=cd68cf1b-5d45-4efe-ae46-93cc692f1578","ios":"levelo://app?vid=cd68cf1b-5d45-4efe-ae46-93cc692f1578"},"vehicle_type_id":"4","last_reported":1773211098,"current_range_meters":39200,"station_id":"ce4bhah2rcd13ifvqej0","pricing_plan_id":"cebpf4jnsgd1na2vs0mg"},{"bike_id":"b7ff98bd-9d8c-43f7-a95e-37511af3a427","system_id":"levelo_inurba_marseille","lat":43.29233,"lon":5.3845,"is_reserved":false,"is_disabled":true,"rental_uris":{"android":"levelo://app?vid=b7ff98bd-9d8c-43f7-a95e-37511af3a427","ios":"levelo://app?vid=b7ff98bd-9d8c-43f7-a95e-37511af3a427"},"vehicle_type_id":"4","last_reported":1773211098,"current_range_meters":25600,"station_id":"ce4bh692rcd13ifvqea0","pricing_plan_id":"cebpf4jnsgd1na2vs0mg"},{"bike_id":"2386054f-29f0-4bbb-b4c5-1b35b953f1c0","system_id":"levelo_inurba_marseille","lat":43.25003,"lon":5.38955,"is_reserved":false,"is_disabled":false,"rental_uris":{"android":"levelo://app?vid=2386054f-29f0-4bbb-b4c5-1b35b953f1c0","ios":"levelo://app?vid=2386054f-29f0-4bbb-b4c5-1b35b953f1c0"},"vehicle_type_id":"4","last_reported":1773211098,"current_range_meters":39200,"station_id":"ce4bhgp2rcd13ifvqfd0","pricing_plan_id":"cebpf4jnsgd1na2vs0mg"},{"bike_id":"def9d016-b4f1-4551-9bca-72f9a3613739","system_id":"levelo_inurba_marseille","lat":43.275,"lon":5.41611,"is_reserved":false,"is_disabled":false,"rental_uris":{"android":"levelo://app?vid=def9d016-b4f1-4551-9bca-72f9a3613739","ios":"levelo://app?vid=def9d016-b4f1-4551-9bca-72f9a3613739"},"vehicle_type_id":"4","last_reported":1773211098,"current_range_meters":16400,"station_id":"st_d6im8g6chgec73a5pndg","pricing_plan_id":"cebpf4jnsgd1na2vs0mg"},{"bike_id":"dd854777-f378-4132-94e6-63027cc18b82","system_id":"levelo_inurba_marseille","lat":43.29727,"lon":5.41059,"is_reserved":false,"is_disabled":false,"rental_uris":{"android":"levelo://app?vid=dd854777-f378-4132-94e6-63027cc18b82","ios":"levelo://app?vid=dd854777-f378-4132-94e6-63027cc18b82"},"vehicle_type_id":"4","last_reported":1773211098,"current_range_meters":30000,"station_id":"","pricing_plan_id":"cebpf4jnsgd1na2vs0mg"},{"bike_id":"7732db81-7edd-4ade-8330-a225d49f31bd","system_id":"levelo_inurba_marseille","lat":43.28945,"lon":5.39634,"is_reserved":false,"is_disabled":false,"rental_uris":{"android":"levelo://app?vid=7732db81-7edd-4ade-8330-a225d49f31bd","ios":"levelo://app?vid=7732db81-7edd-4ade-8330-a225d49f31bd"},"vehicle_type_id":"4","last_reported":1773211098,"current_range_meters":33200,"station_id":"ce4bh3h2rcd13ifvqdn0","pricing_plan_id":"cebpf4jnsgd1na2vs0mg"},{"bike_id":"f7c81926-79b6-4bfd-b6cb-bbd29b36b3a4","system_id":"levelo_inurba_marseille","lat":43.28475,"lon":5.38425,"is_reserved":false,"is_disabled":false,"rental_uris":{"android":"levelo://app?vid=f7c81926-79b6-4bfd-b6cb-bbd29b36b3a4","ios":"levelo://app?vid=f7c81926-79b6-4bfd-b6cb-bbd29b36b3a4"},"vehicle_type_id":"4","last_reported":1773211098,"current_range_meters":9600,"station_id":"ce4bh512rcd13ifvqe3g","pricing_plan_id":"cebpf4jnsgd1na2vs0mg"},{"bike_id":"a93201c3-2956-467f-9acb-3f086f7fffa7","system_id":"levelo_inurba_marseille","lat":43.30285,"lon":5.37958,"is_reserved":false,"is_disabled":false,"rental_uris":{"android":"levelo://app?vid=a93201c3-2956-467f-9acb-3f086f7fffa7","ios":"levelo://app?vid=a93201c3-2956-467f-9acb-3f086f7fffa7"},"vehicle_type_id":"4","last_reported":1773211098,"current_range_meters":30000,"station_id":"","pricing_plan_id":"cebpf4jnsgd1na2vs0mg"},{"bike_id":"003d1d08-fcf1-4e48-b79d-cd47497b0244","system_id":"levelo_inurba_marseille","lat":43.29569,"lon":5.37515,"is_reserved":false,"is_disabled":true,"rental_uris":{"android":"levelo://app?vid=003d1d08-fcf1-4e48-b79d-cd47497b0244","ios":"levelo://app?vid=003d1d08-fcf1-4e48-b79d-cd47497b0244"},"vehicle_type_id":"4","last_reported":1773211098,"current_range_meters":36400,"station_id":"ce4bgh92rcd13ifvqb50","pricing_plan_id":"cebpf4jnsgd1na2vs0mg"},{"bike_id":"532f1fe9-6384-4056-88f3-ddfdd084688a","system_id":"levelo_inurba_marseille","lat":43.29811,"lon":5.4188,"is_reserved":false,"is_disabled":false,"rental_uris":{"android":"levelo://app?vid=532f1fe9-6384-4056-88f3-ddfdd084688a","ios":"levelo://app?vid=532f1fe9-6384-4056-88f3-ddfdd084688a"},"vehicle_type_id":"4","last_reported":1773211098,"current_range_meters":30800,"station_id":"","pricing_plan_id":"cebpf4jnsgd1na2vs0mg"},{"bike_id":"955c54e3-e7ad-4355-8ec0-7be239d34285","system_id":"levelo_inurba_marseille","lat":43.28134,"lon":5.37839,"is_reserved":false,"is_disabled":false,"rental_uris":{"android":"levelo://app?vid=955c54e3-e7ad-4355-8ec0-7be239d34285","ios":"levelo://app?vid=955c54e3-e7ad-4355-8ec0-7be239d34285"},"vehicle_type_id":"4","last_reported":1773211098,"current_range_meters":38800,"station_id":"ce4bha12rcd13ifvqee0","pricing_plan_id":"cebpf4jnsgd1na2vs0mg"},{"bike_id":"3c8d6bce-d9c4-4269-82c6-7e6f35ffe4b3","system_id":"levelo_inurba_marseille","lat":43.29591,"lon":5.37481,"is_reserved":false,"is_disabled":false,"rental_uris":{"android":"levelo://app?vid=3c8d6bce-d9c4-4269-82c6-7e6f35ffe4b3","ios":"levelo://app?vid=3c8d6bce-d9c4-4269-82c6-7e6f35ffe4b3"},"vehicle_type_id":"4","last_reported":1773211098,"current_range_meters":12000,"station_id":"ce4bgh92rcd13ifvqb50","pricing_plan_id":"cebpf4jnsgd1na2vs0mg"},{"bike_id":"e5980185-ec26-4b37-ab2d-3a97dcedfd87","system_id":"levelo_inurba_marseille","lat":43.26067,"lon":5.39416,"is_reserved":false,"is_disabled":false,"rental_uris":{"android":"levelo://app?vid=e5980185-ec26-4b37-ab2d-3a97dcedfd87","ios":"levelo://app?vid=e5980185-ec26-4b37-ab2d-3a97dcedfd87"},"vehicle_type_id":"4","last_reported":1773211098,"current_range_meters":18800,"station_id":"ce4bhh92rcd13ifvqfj0","pricing_plan_id":"cebpf4jnsgd1na2vs0mg"},{"bike_id":"c127c5d1-f3ab-44a6-b0be-0d7b280137c1","system_id":"levelo_inurba_marseille","lat":43.29213,"lon":5.36253,"is_reserved":false,"is_disabled":false,"rental_uris":{"android":"levelo://app?vid=c127c5d1-f3ab-44a6-b0be-0d7b280137c1","ios":"levelo://app?vid=c127c5d1-f3ab-44a6-b0be-0d7b280137c1"},"vehicle_type_id":"4","last_reported":1773211098,"current_range_meters":6000,"station_id":"","pricing_plan_id":"cebpf4jnsgd1na2vs0mg"},{"bike_id":"5ff4eed9-cc94-417e-b8b0-f370f495b41d","system_id":"levelo_inurba_marseille","lat":43.28156,"lon":5.42656,"is_reserved":false,"is_disabled":false,"rental_uris":{"android":"levelo://app?vid=5ff4eed9-cc94-417e-b8b0-f370f495b41d","ios":"levelo://app?vid=5ff4eed9-cc94-417e-b8b0-f370f495b41d"},"vehicle_type_id":"4","last_reported":1773211098,"current_range_meters":24000,"station_id":"ce4bhnh2rcd13ifvqgug","pricing_plan_id":"cebpf4jnsgd1na2vs0mg"},{"bike_id":"d64551ee-697a-4ebb-9b15-61b4f07f9484","system_id":"levelo_inurba_marseille","lat":43.30884,"lon":5.3964,"is_reserved":false,"is_disabled":false,"rental_uris":{"android":"levelo://app?vid=d64551ee-697a-4ebb-9b15-61b4f07f9484","ios":"levelo://app?vid=d64551ee-697a-4ebb-9b15-61b4f07f9484"},"vehicle_type_id":"4","last_reported":1773211098,"current_range_meters":30400,"station_id":"ce4bh012rcd13ifvqcv0","pricing_plan_id":"cebpf4jnsgd1na2vs0mg"},{"bike_id":"b94c3b6d-7912-4bb7-bd16-b874ff101a3d","system_id":"levelo_inurba_marseille","lat":43.24799,"lon":5.37455,"is_reserved":false,"is_disabled":false,"rental_uris":{"android":"levelo://app?vid=b94c3b6d-7912-4bb7-bd16-b874ff101a3d","ios":"levelo://app?vid=b94c3b6d-7912-4bb7-bd16-b874ff101a3d"},"vehicle_type_id":"4","last_reported":1773211098,"current_range_meters":29600,"station_id":"ce4bhgh2rcd13ifvqfb0","pricing_plan_id":"cebpf4jnsgd1na2vs0mg"},{"bike_id":"4c16535f-45b7-4219-854d-c74170118360","system_id":"levelo_inurba_marseille","lat":43.24954,"lon":5.40493,"is_reserved":false,"is_disabled":false,"rental_uris":{"android":"levelo://app?vid=4c16535f-45b7-4219-854d-c74170118360","ios":"levelo://app?vid=4c16535f-45b7-4219-854d-c74170118360"},"vehicle_type_id":"4","last_reported":1773211098,"current_range_meters":8000,"station_id":"st_d2ngiaodas8pm72gd1h0","pricing_plan_id":"cebpf4jnsgd1na2vs0mg"},{"bike_id":"75093d5d-7c75-43f4-b526-91360dcb1bc6","system_id":"levelo_inurba_marseille","lat":43.28406,"lon":5.34997,"is_reserved":false,"is_disabled":false,"rental_uris":{"android":"levelo://app?vid=75093d5d-7c75-43f4-b526-91360dcb1bc6","ios":"levelo://app?vid=75093d5d-7c75-43f4-b526-91360dcb1bc6"},"vehicle_type_id":"4","last_reported":1773211098,"current_range_meters":38800,"station_id":"ce4bhbh2rcd13ifvqepg","pricing_plan_id":"cebpf4jnsgd1na2vs0mg"},{"bike_id":"7de6ca69-27cb-4f01-b0b4-5059a464752e","system_id":"levelo_inurba_marseille","lat":43.26717,"lon":5.38227,"is_reserved":false,"is_disabled":false,"rental_uris":{"android":"levelo://app?vid=7de6ca69-27cb-4f01-b0b4-5059a464752e","ios":"levelo://app?vid=7de6ca69-27cb-4f01-b0b4-5059a464752e"},"vehicle_type_id":"4","last_reported":1773211098,"current_range_meters":39200,"station_id":"","pricing_plan_id":"cebpf4jnsgd1na2vs0mg"},{"bike_id":"1571cd23-3e05-4a34-a3fd-964238daee25","system_id":"levelo_inurba_marseille","lat":43.31164,"lon":5.36907,"is_reserved":false,"is_disabled":false,"rental_uris":{"android":"levelo://app?vid=1571cd23-3e05-4a34-a3fd-964238daee25","ios":"levelo://app?vid=1571cd23-3e05-4a34-a3fd-964238daee25"},"vehicle_type_id":"4","last_reported":1773211098,"current_range_meters":3200,"station_id":"ce4bgl92rcd13ifvqbq0","pricing_plan_id":"cebpf4jnsgd1na2vs0mg"},{"bike_id":"22d3c0f2-af52-41d7-b57e-5a82b26cdb80","system_id":"levelo_inurba_marseille","lat":43.30878,"lon":5.37214,"is_reserved":false,"is_disabled":false,"rental_uris":{"android":"levelo://app?vid=22d3c0f2-af52-41d7-b57e-5a82b26cdb80","ios":"levelo://app?vid=22d3c0f2-af52-41d7-b57e-5a82b26cdb80"},"vehicle_type_id":"4","last_reported":1773211098,"current_range_meters":23200,"station_id":"ce4bguh2rcd13ifvqckg","pricing_plan_id":"cebpf4jnsgd1na2vs0mg"},{"bike_id":"dc976c4b-6df9-425c-90dc-d9090f388786","system_id":"levelo_inurba_marseille","lat":43.28378,"lon":5.38635,"is_reserved":false,"is_disabled":false,"rental_uris":{"android":"levelo://app?vid=dc976c4b-6df9-425c-90dc-d9090f388786","ios":"levelo://app?vid=dc976c4b-6df9-425c-90dc-d9090f388786"},"vehicle_type_id":"4","last_reported":1773211098,"current_range_meters":39200,"station_id":"ce4bh492rcd13ifvqdvg","pricing_plan_id":"cebpf4jnsgd1na2vs0mg"},{"bike_id":"0ffd2cf5-a845-41a4-94da-80bb80368fa5","system_id":"levelo_inurba_marseille","lat":43.272,"lon":5.39172,"is_reserved":false,"is_disabled":false,"rental_uris":{"android":"levelo://app?vid=0ffd2cf5-a845-41a4-94da-80bb80368fa5","ios":"levelo://app?vid=0ffd2cf5-a845-41a4-94da-80bb80368fa5"},"vehicle_type_id":"4","last_reported":1773211098,"current_range_meters":37600,"station_id":"ce4bhhp2rcd13ifvqfm0","pricing_plan_id":"cebpf4jnsgd1na2vs0mg"},{"bike_id":"2301d092-fcd2-45f3-804a-bf87c6aa69a3","system_id":"levelo_inurba_marseille","lat":43.29627,"lon":5.37527,"is_reserved":false,"is_disabled":false,"rental_uris":{"android":"levelo://app?vid=2301d092-fcd2-45f3-804a-bf87c6aa69a3","ios":"levelo://app?vid=2301d092-fcd2-45f3-804a-bf87c6aa69a3"},"vehicle_type_id":"4","last_reported":1773211098,"current_range_meters":20000,"station_id":"","pricing_plan_id":"cebpf4jnsgd1na2vs0mg"},{"bike_id":"e1fcee2b-0a2f-425b-90e6-63c8f4b304c7","system_id":"levelo_inurba_marseille","lat":43.25329,"lon":5.42177,"is_reserved":false,"is_disabled":false,"rental_uris":{"android":"levelo://app?vid=e1fcee2b-0a2f-425b-90e6-63c8f4b304c7","ios":"levelo://app?vid=e1fcee2b-0a2f-425b-90e6-63c8f4b304c7"},"vehicle_type_id":"4","last_reported":1773211098,"current_range_meters":32000,"station_id":"st_d2m65c5bi1j21697t3ng","pricing_plan_id":"cebpf4jnsgd1na2vs0mg"},{"bike_id":"3cb4118e-249f-4f7f-8bd1-0ddb85d3d47f","system_id":"levelo_inurba_marseille","lat":43.298,"lon":5.41457,"is_reserved":false,"is_disabled":false,"rental_uris":{"android":"levelo://app?vid=3cb4118e-249f-4f7f-8bd1-0ddb85d3d47f","ios":"levelo://app?vid=3cb4118e-249f-4f7f-8bd1-0ddb85d3d47f"},"vehicle_type_id":"4","last_reported":1773211098,"current_range_meters":38800,"station_id":"","pricing_plan_id":"cebpf4jnsgd1na2vs0mg"},{"bike_id":"251e7265-6da3-486f-9540-4813a6799da8","system_id":"levelo_inurba_marseille","lat":43.29121,"lon":5.35623,"is_reserved":false,"is_disabled":false,"rental_uris":{"android":"levelo://app?vid=251e7265-6da3-486f-9540-4813a6799da8","ios":"levelo://app?vid=251e7265-6da3-486f-9540-4813a6799da8"},"vehicle_type_id":"4","last_reported":1773211098,"current_range_meters":9200,"station_id":"","pricing_plan_id":"cebpf4jnsgd1na2vs0mg"},{"bike_id":"78ccdb19-13f7-409b-8044-f74ab6a3fb78","system_id":"levelo_inurba_marseille","lat":43.24641,"lon":5.38169,"is_reserved":false,"is_disabled":true,"rental_uris":{"android":"levelo://app?vid=78ccdb19-13f7-409b-8044-f74ab6a3fb78","ios":"levelo://app?vid=78ccdb19-13f7-409b-8044-f74ab6a3fb78"},"vehicle_type_id":"4","last_reported":1773211098,"current_range_meters":400,"station_id":"ce4bhih2rcd13ifvqfr0","pricing_plan_id":"cebpf4jnsgd1na2vs0mg"},{"bike_id":"d2f8800f-30c1-4c21-b8e2-ba5c5b2f20f8","system_id":"levelo_inurba_marseille","lat":43.27186,"lon":5.40997,"is_reserved":false,"is_disabled":false,"rental_uris":{"android":"levelo://app?vid=d2f8800f-30c1-4c21-b8e2-ba5c5b2f20f8","ios":"levelo://app?vid=d2f8800f-30c1-4c21-b8e2-ba5c5b2f20f8"},"vehicle_type_id":"4","last_reported":1773211098,"current_range_meters":36400,"station_id":"ce4bhl12rcd13ifvqgf0","pricing_plan_id":"cebpf4jnsgd1na2vs0mg"},{"bike_id":"896440e6-cef8-4268-bb86-ac2c6e2de747","system_id":"levelo_inurba_marseille","lat":43.28476,"lon":5.48401,"is_reserved":false,"is_disabled":false,"rental_uris":{"android":"levelo://app?vid=896440e6-cef8-4268-bb86-ac2c6e2de747","ios":"levelo://app?vid=896440e6-cef8-4268-bb86-ac2c6e2de747"},"vehicle_type_id":"4","last_reported":1773211098,"current_range_meters":30800,"station_id":"","pricing_plan_id":"cebpf4jnsgd1na2vs0mg"},{"bike_id":"0f222d34-3b69-4939-afcf-3b3e64fb5180","system_id":"levelo_inurba_marseille","lat":43.25077,"lon":5.39527,"is_reserved":false,"is_disabled":false,"rental_uris":{"android":"levelo://app?vid=0f222d34-3b69-4939-afcf-3b3e64fb5180","ios":"levelo://app?vid=0f222d34-3b69-4939-afcf-3b3e64fb5180"},"vehicle_type_id":"4","last_reported":1773211098,"current_range_meters":39200,"station_id":"ce4bhm12rcd13ifvqgkg","pricing_plan_id":"cebpf4jnsgd1na2vs0mg"},{"bike_id":"bdff13f0-0040-42f8-a042-90efed8054cb","system_id":"levelo_inurba_marseille","lat":43.27837,"lon":5.39212,"is_reserved":false,"is_disabled":false,"rental_uris":{"android":"levelo://app?vid=bdff13f0-0040-42f8-a042-90efed8054cb","ios":"levelo://app?vid=bdff13f0-0040-42f8-a042-90efed8054cb"},"vehicle_type_id":"4","last_reported":1773211098,"current_range_meters":40000,"station_id":"ce4bhjp2rcd13ifvqga0","pricing_plan_id":"cebpf4jnsgd1na2vs0mg"},{"bike_id":"2c1215f2-9624-4e50-bbbb-a53264cdd31e","system_id":"levelo_inurba_marseille","lat":43.28464,"lon":5.48434,"is_reserved":false,"is_disabled":false,"rental_uris":{"android":"levelo://app?vid=2c1215f2-9624-4e50-bbbb-a53264cdd31e","ios":"levelo://app?vid=2c1215f2-9624-4e50-bbbb-a53264cdd31e"},"vehicle_type_id":"4","last_reported":1773211098,"current_range_meters":29600,"station_id":"st_d3svhcjqgbts73a3dn0g","pricing_plan_id":"cebpf4jnsgd1na2vs0mg"},{"bike_id":"1a207468-e47b-4f76-96da-6b3403b02150","system_id":"levelo_inurba_marseille","lat":43.28447,"lon":5.35912,"is_reserved":false,"is_disabled":false,"rental_uris":{"android":"levelo://app?vid=1a207468-e47b-4f76-96da-6b3403b02150","ios":"levelo://app?vid=1a207468-e47b-4f76-96da-6b3403b02150"},"vehicle_type_id":"4","last_reported":1773211098,"current_range_meters":38400,"station_id":"ce4bhah2rcd13ifvqei0","pricing_plan_id":"cebpf4jnsgd1na2vs0mg"},{"bike_id":"b20e784e-83e8-4171-8c29-5aa2de2d6861","system_id":"levelo_inurba_marseille","lat":43.3209,"lon":5.36807,"is_reserved":false,"is_disabled":false,"rental_uris":{"android":"levelo://app?vid=b20e784e-83e8-4171-8c29-5aa2de2d6861","ios":"levelo://app?vid=b20e784e-83e8-4171-8c29-5aa2de2d6861"},"vehicle_type_id":"4","last_reported":1773211098,"current_range_meters":26800,"station_id":"ce4bhrh2rcd13ifvqhug","pricing_plan_id":"cebpf4jnsgd1na2vs0mg"},{"bike_id":"a0ab89fd-d4e3-4039-8377-577b0acf001d","system_id":"levelo_inurba_marseille","lat":43.24366,"lon":5.44104,"is_reserved":false,"is_disabled":false,"rental_uris":{"android":"levelo://app?vid=a0ab89fd-d4e3-4039-8377-577b0acf001d","ios":"levelo://app?vid=a0ab89fd-d4e3-4039-8377-577b0acf001d"},"vehicle_type_id":"4","last_reported":1773211098,"current_range_meters":10800,"station_id":"","pricing_plan_id":"cebpf4jnsgd1na2vs0mg"},{"bike_id":"b9a3a995-b001-4d18-9713-749fdc308856","system_id":"levelo_inurba_marseille","lat":43.25007,"lon":5.38935,"is_reserved":false,"is_disabled":false,"rental_uris":{"android":"levelo://app?vid=b9a3a995-b001-4d18-9713-749fdc308856","ios":"levelo://app?vid=b9a3a995-b001-4d18-9713-749fdc308856"},"vehicle_type_id":"4","last_reported":1773211098,"current_range_meters":11200,"station_id":"ce4bhgp2rcd13ifvqfd0","pricing_plan_id":"cebpf4jnsgd1na2vs0mg"},{"bike_id":"8b3a1247-9d59-44a7-9472-b0544695073e","system_id":"levelo_inurba_marseille","lat":43.30753,"lon":5.37666,"is_reserved":false,"is_disabled":false,"rental_uris":{"android":"levelo://app?vid=8b3a1247-9d59-44a7-9472-b0544695073e","ios":"levelo://app?vid=8b3a1247-9d59-44a7-9472-b0544695073e"},"vehicle_type_id":"4","last_reported":1773211098,"current_range_meters":39200,"station_id":"ce4bgv92rcd13ifvqcq0","pricing_plan_id":"cebpf4jnsgd1na2vs0mg"},{"bike_id":"688dce1c-cf53-43aa-b22e-8f6ee99a6467","system_id":"levelo_inurba_marseille","lat":43.22945,"lon":5.35389,"is_reserved":false,"is_disabled":false,"rental_uris":{"android":"levelo://app?vid=688dce1c-cf53-43aa-b22e-8f6ee99a6467","ios":"levelo://app?vid=688dce1c-cf53-43aa-b22e-8f6ee99a6467"},"vehicle_type_id":"4","last_reported":1773211098,"current_range_meters":16800,"station_id":"cpo3532slgdg3j2ikp40","pricing_plan_id":"cebpf4jnsgd1na2vs0mg"},{"bike_id":"c9fdec63-7232-4c40-8487-75579466936b","system_id":"levelo_inurba_marseille","lat":43.2667,"lon":5.38283,"is_reserved":false,"is_disabled":false,"rental_uris":{"android":"levelo://app?vid=c9fdec63-7232-4c40-8487-75579466936b","ios":"levelo://app?vid=c9fdec63-7232-4c40-8487-75579466936b"},"vehicle_type_id":"4","last_reported":1773211098,"current_range_meters":30000,"station_id":"ce4bhg92rcd13ifvqf90","pricing_plan_id":"cebpf4jnsgd1na2vs0mg"},{"bike_id":"9e202996-0083-4bce-902f-5362269bb03f","system_id":"levelo_inurba_marseille","lat":43.26951,"lon":5.40263,"is_reserved":false,"is_disabled":false,"rental_uris":{"android":"levelo://app?vid=9e202996-0083-4bce-902f-5362269bb03f","ios":"levelo://app?vid=9e202996-0083-4bce-902f-5362269bb03f"},"vehicle_type_id":"4","last_reported":1773211098,"current_range_meters":39200,"station_id":"cjm6bp8fraef2m0cb0m0","pricing_plan_id":"cebpf4jnsgd1na2vs0mg"},{"bike_id":"e8b7d766-9ece-4870-a1b8-5b316a1b8e67","system_id":"levelo_inurba_marseille","lat":43.22564,"lon":5.41635,"is_reserved":false,"is_disabled":false,"rental_uris":{"android":"levelo://app?vid=e8b7d766-9ece-4870-a1b8-5b316a1b8e67","ios":"levelo://app?vid=e8b7d766-9ece-4870-a1b8-5b316a1b8e67"},"vehicle_type_id":"4","last_reported":1773211098,"current_range_meters":19600,"station_id":"st_d2o4gvlbi1j2169b742g","pricing_plan_id":"cebpf4jnsgd1na2vs0mg"},{"bike_id":"73445b64-da31-4c00-a6bd-a3b91e6f5eb4","system_id":"levelo_inurba_marseille","lat":43.2782,"lon":5.3922,"is_reserved":false,"is_disabled":false,"rental_uris":{"android":"levelo://app?vid=73445b64-da31-4c00-a6bd-a3b91e6f5eb4","ios":"levelo://app?vid=73445b64-da31-4c00-a6bd-a3b91e6f5eb4"},"vehicle_type_id":"4","last_reported":1773211098,"current_range_meters":40000,"station_id":"ce4bhjp2rcd13ifvqga0","pricing_plan_id":"cebpf4jnsgd1na2vs0mg"},{"bike_id":"7fec08d5-ee68-460a-ac18-925555054430","system_id":"levelo_inurba_marseille","lat":43.24164,"lon":5.3639,"is_reserved":false,"is_disabled":false,"rental_uris":{"android":"levelo://app?vid=7fec08d5-ee68-460a-ac18-925555054430","ios":"levelo://app?vid=7fec08d5-ee68-460a-ac18-925555054430"},"vehicle_type_id":"4","last_reported":1773211098,"current_range_meters":17200,"station_id":"cpo36qri1sfpv3e86is0","pricing_plan_id":"cebpf4jnsgd1na2vs0mg"},{"bike_id":"5710dcd1-e745-41ec-96c6-e4d758bdbfca","system_id":"levelo_inurba_marseille","lat":43.29524,"lon":5.39048,"is_reserved":false,"is_disabled":false,"rental_uris":{"android":"levelo://app?vid=5710dcd1-e745-41ec-96c6-e4d758bdbfca","ios":"levelo://app?vid=5710dcd1-e745-41ec-96c6-e4d758bdbfca"},"vehicle_type_id":"4","last_reported":1773211098,"current_range_meters":38800,"station_id":"ce4bh3p2rcd13ifvqdp0","pricing_plan_id":"cebpf4jnsgd1na2vs0mg"},{"bike_id":"3479940f-0567-47ce-9910-7c01560a0ef1","system_id":"levelo_inurba_marseille","lat":43.30885,"lon":5.39647,"is_reserved":false,"is_disabled":false,"rental_uris":{"android":"levelo://app?vid=3479940f-0567-47ce-9910-7c01560a0ef1","ios":"levelo://app?vid=3479940f-0567-47ce-9910-7c01560a0ef1"},"vehicle_type_id":"4","last_reported":1773211098,"current_range_meters":25600,"station_id":"ce4bh012rcd13ifvqcv0","pricing_plan_id":"cebpf4jnsgd1na2vs0mg"},{"bike_id":"fbacc4e2-20d2-440b-8334-f840b8c13084","system_id":"levelo_inurba_marseille","lat":43.2315,"lon":5.43693,"is_reserved":false,"is_disabled":false,"rental_uris":{"android":"levelo://app?vid=fbacc4e2-20d2-440b-8334-f840b8c13084","ios":"levelo://app?vid=fbacc4e2-20d2-440b-8334-f840b8c13084"},"vehicle_type_id":"4","last_reported":1773211098,"current_range_meters":24000,"station_id":"ce4bhmp2rcd13ifvqgog","pricing_plan_id":"cebpf4jnsgd1na2vs0mg"},{"bike_id":"3e5376d1-74e0-493d-8800-a1ee648fb8c9","system_id":"levelo_inurba_marseille","lat":43.30366,"lon":5.42516,"is_reserved":false,"is_disabled":false,"rental_uris":{"android":"levelo://app?vid=3e5376d1-74e0-493d-8800-a1ee648fb8c9","ios":"levelo://app?vid=3e5376d1-74e0-493d-8800-a1ee648fb8c9"},"vehicle_type_id":"4","last_reported":1773211098,"current_range_meters":34800,"station_id":"","pricing_plan_id":"cebpf4jnsgd1na2vs0mg"},{"bike_id":"c95c98b4-d4f4-48f2-b9c6-eaacb07d9cdb","system_id":"levelo_inurba_marseille","lat":43.30258,"lon":5.40094,"is_reserved":false,"is_disabled":false,"rental_uris":{"android":"levelo://app?vid=c95c98b4-d4f4-48f2-b9c6-eaacb07d9cdb","ios":"levelo://app?vid=c95c98b4-d4f4-48f2-b9c6-eaacb07d9cdb"},"vehicle_type_id":"4","last_reported":1773211098,"current_range_meters":39200,"station_id":"ce4bgvh2rcd13ifvqcs0","pricing_plan_id":"cebpf4jnsgd1na2vs0mg"},{"bike_id":"19c585cb-b516-45ee-aa09-cf34d5e1db9f","system_id":"levelo_inurba_marseille","lat":43.31196,"lon":5.37676,"is_reserved":false,"is_disabled":false,"rental_uris":{"android":"levelo://app?vid=19c585cb-b516-45ee-aa09-cf34d5e1db9f","ios":"levelo://app?vid=19c585cb-b516-45ee-aa09-cf34d5e1db9f"},"vehicle_type_id":"4","last_reported":1773211098,"current_range_meters":33200,"station_id":"","pricing_plan_id":"cebpf4jnsgd1na2vs0mg"},{"bike_id":"64db144a-07de-49ea-9432-4bcd2298dea1","system_id":"levelo_inurba_marseille","lat":43.26689,"lon":5.38264,"is_reserved":false,"is_disabled":false,"rental_uris":{"android":"levelo://app?vid=64db144a-07de-49ea-9432-4bcd2298dea1","ios":"levelo://app?vid=64db144a-07de-49ea-9432-4bcd2298dea1"},"vehicle_type_id":"4","last_reported":1773211098,"current_range_meters":18800,"station_id":"ce4bhg92rcd13ifvqf90","pricing_plan_id":"cebpf4jnsgd1na2vs0mg"},{"bike_id":"6c4cf459-9d91-4f06-98a0-e2caa263890b","system_id":"levelo_inurba_marseille","lat":43.29408,"lon":5.37827,"is_reserved":false,"is_disabled":true,"rental_uris":{"android":"levelo://app?vid=6c4cf459-9d91-4f06-98a0-e2caa263890b","ios":"levelo://app?vid=6c4cf459-9d91-4f06-98a0-e2caa263890b"},"vehicle_type_id":"4","last_reported":1773211098,"current_range_meters":26000,"station_id":"","pricing_plan_id":"cebpf4jnsgd1na2vs0mg"},{"bike_id":"170712aa-02a7-45bb-a5f1-55158c8f2d72","system_id":"levelo_inurba_marseille","lat":43.29233,"lon":5.36055,"is_reserved":false,"is_disabled":false,"rental_uris":{"android":"levelo://app?vid=170712aa-02a7-45bb-a5f1-55158c8f2d72","ios":"levelo://app?vid=170712aa-02a7-45bb-a5f1-55158c8f2d72"},"vehicle_type_id":"4","last_reported":1773211098,"current_range_meters":20400,"station_id":"ce4bhbh2rcd13ifvqeqg","pricing_plan_id":"cebpf4jnsgd1na2vs0mg"},{"bike_id":"8818f14b-1671-4f8e-94c0-552bc8e74dd4","system_id":"levelo_inurba_marseille","lat":43.32523,"lon":5.41461,"is_reserved":false,"is_disabled":false,"rental_uris":{"android":"levelo://app?vid=8818f14b-1671-4f8e-94c0-552bc8e74dd4","ios":"levelo://app?vid=8818f14b-1671-4f8e-94c0-552bc8e74dd4"},"vehicle_type_id":"4","last_reported":1773211098,"current_range_meters":30400,"station_id":"ce4bhq12rcd13ifvqhhg","pricing_plan_id":"cebpf4jnsgd1na2vs0mg"},{"bike_id":"e8c4e347-ab07-4c9c-ae8d-bc529eaae694","system_id":"levelo_inurba_marseille","lat":43.2901,"lon":5.35618,"is_reserved":false,"is_disabled":false,"rental_uris":{"android":"levelo://app?vid=e8c4e347-ab07-4c9c-ae8d-bc529eaae694","ios":"levelo://app?vid=e8c4e347-ab07-4c9c-ae8d-bc529eaae694"},"vehicle_type_id":"4","last_reported":1773211098,"current_range_meters":26800,"station_id":"ce4bhb92rcd13ifvqen0","pricing_plan_id":"cebpf4jnsgd1na2vs0mg"},{"bike_id":"0f2c85aa-5e6e-4d7d-9d50-584fced52287","system_id":"levelo_inurba_marseille","lat":43.24657,"lon":5.38884,"is_reserved":false,"is_disabled":false,"rental_uris":{"android":"levelo://app?vid=0f2c85aa-5e6e-4d7d-9d50-584fced52287","ios":"levelo://app?vid=0f2c85aa-5e6e-4d7d-9d50-584fced52287"},"vehicle_type_id":"4","last_reported":1773211098,"current_range_meters":37600,"station_id":"ce4bhg12rcd13ifvqf60","pricing_plan_id":"cebpf4jnsgd1na2vs0mg"},{"bike_id":"794f959c-f1b8-45bf-aaff-93adbc53443c","system_id":"levelo_inurba_marseille","lat":43.30466,"lon":5.37921,"is_reserved":false,"is_disabled":false,"rental_uris":{"android":"levelo://app?vid=794f959c-f1b8-45bf-aaff-93adbc53443c","ios":"levelo://app?vid=794f959c-f1b8-45bf-aaff-93adbc53443c"},"vehicle_type_id":"4","last_reported":1773211098,"current_range_meters":10000,"station_id":"ce4bgup2rcd13ifvqcn0","pricing_plan_id":"cebpf4jnsgd1na2vs0mg"},{"bike_id":"f62cbee2-12e5-4cdd-bfbc-04088f9f32fa","system_id":"levelo_inurba_marseille","lat":43.28487,"lon":5.48387,"is_reserved":false,"is_disabled":false,"rental_uris":{"android":"levelo://app?vid=f62cbee2-12e5-4cdd-bfbc-04088f9f32fa","ios":"levelo://app?vid=f62cbee2-12e5-4cdd-bfbc-04088f9f32fa"},"vehicle_type_id":"4","last_reported":1773211098,"current_range_meters":22800,"station_id":"","pricing_plan_id":"cebpf4jnsgd1na2vs0mg"},{"bike_id":"93664cea-8a8e-43de-8703-e7ab61aea72a","system_id":"levelo_inurba_marseille","lat":43.3015,"lon":5.38077,"is_reserved":false,"is_disabled":false,"rental_uris":{"android":"levelo://app?vid=93664cea-8a8e-43de-8703-e7ab61aea72a","ios":"levelo://app?vid=93664cea-8a8e-43de-8703-e7ab61aea72a"},"vehicle_type_id":"4","last_reported":1773211098,"current_range_meters":33600,"station_id":"ce4bgjp2rcd13ifvqbh0","pricing_plan_id":"cebpf4jnsgd1na2vs0mg"},{"bike_id":"4765d188-4566-4930-842e-1b26707669ea","system_id":"levelo_inurba_marseille","lat":43.29168,"lon":5.37148,"is_reserved":false,"is_disabled":false,"rental_uris":{"android":"levelo://app?vid=4765d188-4566-4930-842e-1b26707669ea","ios":"levelo://app?vid=4765d188-4566-4930-842e-1b26707669ea"},"vehicle_type_id":"4","last_reported":1773211098,"current_range_meters":36400,"station_id":"ce4bha92rcd13ifvqeh0","pricing_plan_id":"cebpf4jnsgd1na2vs0mg"},{"bike_id":"1172ebc8-1241-4960-9b1c-678a2677a210","system_id":"levelo_inurba_marseille","lat":43.28862,"lon":5.42524,"is_reserved":false,"is_disabled":false,"rental_uris":{"android":"levelo://app?vid=1172ebc8-1241-4960-9b1c-678a2677a210","ios":"levelo://app?vid=1172ebc8-1241-4960-9b1c-678a2677a210"},"vehicle_type_id":"4","last_reported":1773211098,"current_range_meters":16800,"station_id":"st_d3b462108ojc7389ooeg","pricing_plan_id":"cebpf4jnsgd1na2vs0mg"},{"bike_id":"4ddf6107-bd9d-4d60-bbe1-44b17ca01c09","system_id":"levelo_inurba_marseille","lat":43.30142,"lon":5.37413,"is_reserved":false,"is_disabled":true,"rental_uris":{"android":"levelo://app?vid=4ddf6107-bd9d-4d60-bbe1-44b17ca01c09","ios":"levelo://app?vid=4ddf6107-bd9d-4d60-bbe1-44b17ca01c09"},"vehicle_type_id":"4","last_reported":1773211098,"current_range_meters":27200,"station_id":"ce4bgs92rcd13ifvqcc0","pricing_plan_id":"cebpf4jnsgd1na2vs0mg"},{"bike_id":"ba3a231f-10a0-4302-b0e7-08f11861cd04","system_id":"levelo_inurba_marseille","lat":43.28481,"lon":5.48393,"is_reserved":false,"is_disabled":false,"rental_uris":{"android":"levelo://app?vid=ba3a231f-10a0-4302-b0e7-08f11861cd04","ios":"levelo://app?vid=ba3a231f-10a0-4302-b0e7-08f11861cd04"},"vehicle_type_id":"4","last_reported":1773211098,"current_range_meters":38800,"station_id":"","pricing_plan_id":"cebpf4jnsgd1na2vs0mg"},{"bike_id":"0b3a6178-c659-4afa-a1c1-935435363474","system_id":"levelo_inurba_marseille","lat":43.23978,"lon":5.36634,"is_reserved":false,"is_disabled":false,"rental_uris":{"android":"levelo://app?vid=0b3a6178-c659-4afa-a1c1-935435363474","ios":"levelo://app?vid=0b3a6178-c659-4afa-a1c1-935435363474"},"vehicle_type_id":"4","last_reported":1773211098,"current_range_meters":38400,"station_id":"ce4bhi12rcd13ifvqfp0","pricing_plan_id":"cebpf4jnsgd1na2vs0mg"},{"bike_id":"c4127bf1-754a-4c52-a275-55f16ba90528","system_id":"levelo_inurba_marseille","lat":43.27944,"lon":5.41085,"is_reserved":false,"is_disabled":false,"rental_uris":{"android":"levelo://app?vid=c4127bf1-754a-4c52-a275-55f16ba90528","ios":"levelo://app?vid=c4127bf1-754a-4c52-a275-55f16ba90528"},"vehicle_type_id":"4","last_reported":1773211098,"current_range_meters":30400,"station_id":"ce4bhnp2rcd13ifvqh0g","pricing_plan_id":"cebpf4jnsgd1na2vs0mg"},{"bike_id":"352c9f7d-89b4-42e5-9e2e-76d972a274bd","system_id":"levelo_inurba_marseille","lat":43.29696,"lon":5.4256,"is_reserved":false,"is_disabled":false,"rental_uris":{"android":"levelo://app?vid=352c9f7d-89b4-42e5-9e2e-76d972a274bd","ios":"levelo://app?vid=352c9f7d-89b4-42e5-9e2e-76d972a274bd"},"vehicle_type_id":"4","last_reported":1773211098,"current_range_meters":11200,"station_id":"","pricing_plan_id":"cebpf4jnsgd1na2vs0mg"},{"bike_id":"04a17b6d-7ebf-4022-9d3a-a2dd2cbb9c97","system_id":"levelo_inurba_marseille","lat":43.3054,"lon":5.36715,"is_reserved":false,"is_disabled":false,"rental_uris":{"android":"levelo://app?vid=04a17b6d-7ebf-4022-9d3a-a2dd2cbb9c97","ios":"levelo://app?vid=04a17b6d-7ebf-4022-9d3a-a2dd2cbb9c97"},"vehicle_type_id":"4","last_reported":1773211098,"current_range_meters":38400,"station_id":"ce4bgrp2rcd13ifvqc9g","pricing_plan_id":"cebpf4jnsgd1na2vs0mg"},{"bike_id":"bfee60c3-8b74-4c9f-aef3-67f690ec877a","system_id":"levelo_inurba_marseille","lat":43.30332,"lon":5.36866,"is_reserved":false,"is_disabled":false,"rental_uris":{"android":"levelo://app?vid=bfee60c3-8b74-4c9f-aef3-67f690ec877a","ios":"levelo://app?vid=bfee60c3-8b74-4c9f-aef3-67f690ec877a"},"vehicle_type_id":"4","last_reported":1773211098,"current_range_meters":14800,"station_id":"ce4bgqh2rcd13ifvqc5g","pricing_plan_id":"cebpf4jnsgd1na2vs0mg"},{"bike_id":"c59a5209-1b70-42df-8250-859beecf23e1","system_id":"levelo_inurba_marseille","lat":43.23191,"lon":5.35544,"is_reserved":false,"is_disabled":false,"rental_uris":{"android":"levelo://app?vid=c59a5209-1b70-42df-8250-859beecf23e1","ios":"levelo://app?vid=c59a5209-1b70-42df-8250-859beecf23e1"},"vehicle_type_id":"4","last_reported":1773211098,"current_range_meters":37600,"station_id":"ce4bhu92rcd13ifvqi70","pricing_plan_id":"cebpf4jnsgd1na2vs0mg"},{"bike_id":"f336589f-866f-46c6-b212-a692ab2ba293","system_id":"levelo_inurba_marseille","lat":43.29677,"lon":5.37107,"is_reserved":false,"is_disabled":false,"rental_uris":{"android":"levelo://app?vid=f336589f-866f-46c6-b212-a692ab2ba293","ios":"levelo://app?vid=f336589f-866f-46c6-b212-a692ab2ba293"},"vehicle_type_id":"4","last_reported":1773211098,"current_range_meters":17200,"station_id":"","pricing_plan_id":"cebpf4jnsgd1na2vs0mg"},{"bike_id":"e309c0de-c44d-4d33-8dac-96754e8fa3cc","system_id":"levelo_inurba_marseille","lat":43.31333,"lon":5.39704,"is_reserved":false,"is_disabled":false,"rental_uris":{"android":"levelo://app?vid=e309c0de-c44d-4d33-8dac-96754e8fa3cc","ios":"levelo://app?vid=e309c0de-c44d-4d33-8dac-96754e8fa3cc"},"vehicle_type_id":"4","last_reported":1773211098,"current_range_meters":39200,"station_id":"ce4bgvp2rcd13ifvqcu0","pricing_plan_id":"cebpf4jnsgd1na2vs0mg"},{"bike_id":"fed428a6-a508-4132-94d7-783075e10fe3","system_id":"levelo_inurba_marseille","lat":43.32364,"lon":5.36758,"is_reserved":false,"is_disabled":false,"rental_uris":{"android":"levelo://app?vid=fed428a6-a508-4132-94d7-783075e10fe3","ios":"levelo://app?vid=fed428a6-a508-4132-94d7-783075e10fe3"},"vehicle_type_id":"4","last_reported":1773211098,"current_range_meters":36400,"station_id":"ce4bhsh2rcd13ifvqi2g","pricing_plan_id":"cebpf4jnsgd1na2vs0mg"},{"bike_id":"906d13d2-107e-403c-827b-672c816f5f28","system_id":"levelo_inurba_marseille","lat":43.31269,"lon":5.40168,"is_reserved":false,"is_disabled":false,"rental_uris":{"android":"levelo://app?vid=906d13d2-107e-403c-827b-672c816f5f28","ios":"levelo://app?vid=906d13d2-107e-403c-827b-672c816f5f28"},"vehicle_type_id":"4","last_reported":1773211098,"current_range_meters":20000,"station_id":"ce4bh092rcd13ifvqd30","pricing_plan_id":"cebpf4jnsgd1na2vs0mg"},{"bike_id":"b77fb604-0801-47d9-99a2-3844aa44df9a","system_id":"levelo_inurba_marseille","lat":43.25329,"lon":5.42171,"is_reserved":false,"is_disabled":false,"rental_uris":{"android":"levelo://app?vid=b77fb604-0801-47d9-99a2-3844aa44df9a","ios":"levelo://app?vid=b77fb604-0801-47d9-99a2-3844aa44df9a"},"vehicle_type_id":"4","last_reported":1773211098,"current_range_meters":29600,"station_id":"st_d2m65c5bi1j21697t3ng","pricing_plan_id":"cebpf4jnsgd1na2vs0mg"},{"bike_id":"dcad9259-a4d3-4cc7-94fc-0c8a7321317d","system_id":"levelo_inurba_marseille","lat":43.27072,"lon":5.38305,"is_reserved":false,"is_disabled":false,"rental_uris":{"android":"levelo://app?vid=dcad9259-a4d3-4cc7-94fc-0c8a7321317d","ios":"levelo://app?vid=dcad9259-a4d3-4cc7-94fc-0c8a7321317d"},"vehicle_type_id":"4","last_reported":1773211098,"current_range_meters":30800,"station_id":"st_d3n2fo6cfp8s73cte1j0","pricing_plan_id":"cebpf4jnsgd1na2vs0mg"},{"bike_id":"54dedf02-9946-4658-9e75-e2e8b7cf4198","system_id":"levelo_inurba_marseille","lat":43.24171,"lon":5.36378,"is_reserved":false,"is_disabled":false,"rental_uris":{"android":"levelo://app?vid=54dedf02-9946-4658-9e75-e2e8b7cf4198","ios":"levelo://app?vid=54dedf02-9946-4658-9e75-e2e8b7cf4198"},"vehicle_type_id":"4","last_reported":1773211098,"current_range_meters":18800,"station_id":"cpo36qri1sfpv3e86is0","pricing_plan_id":"cebpf4jnsgd1na2vs0mg"},{"bike_id":"853d54ba-396f-4604-bb19-6d260a4870cf","system_id":"levelo_inurba_marseille","lat":43.244,"lon":5.37049,"is_reserved":false,"is_disabled":false,"rental_uris":{"android":"levelo://app?vid=853d54ba-396f-4604-bb19-6d260a4870cf","ios":"levelo://app?vid=853d54ba-396f-4604-bb19-6d260a4870cf"},"vehicle_type_id":"4","last_reported":1773211098,"current_range_meters":10000,"station_id":"ce4bhhh2rcd13ifvqfk0","pricing_plan_id":"cebpf4jnsgd1na2vs0mg"},{"bike_id":"0bd65bd6-432d-4f03-9bc1-a502b4962690","system_id":"levelo_inurba_marseille","lat":43.29302,"lon":5.37436,"is_reserved":false,"is_disabled":false,"rental_uris":{"android":"levelo://app?vid=0bd65bd6-432d-4f03-9bc1-a502b4962690","ios":"levelo://app?vid=0bd65bd6-432d-4f03-9bc1-a502b4962690"},"vehicle_type_id":"4","last_reported":1773211098,"current_range_meters":30000,"station_id":"ce4bgi12rcd13ifvqb70","pricing_plan_id":"cebpf4jnsgd1na2vs0mg"},{"bike_id":"b6942993-6967-4f6c-b7e8-d4ca854e4d0e","system_id":"levelo_inurba_marseille","lat":43.24993,"lon":5.38937,"is_reserved":false,"is_disabled":false,"rental_uris":{"android":"levelo://app?vid=b6942993-6967-4f6c-b7e8-d4ca854e4d0e","ios":"levelo://app?vid=b6942993-6967-4f6c-b7e8-d4ca854e4d0e"},"vehicle_type_id":"4","last_reported":1773211098,"current_range_meters":38800,"station_id":"ce4bhgp2rcd13ifvqfd0","pricing_plan_id":"cebpf4jnsgd1na2vs0mg"},{"bike_id":"a540b441-3928-4042-84dc-78cbd8de6fd0","system_id":"levelo_inurba_marseille","lat":43.24393,"lon":5.37083,"is_reserved":false,"is_disabled":false,"rental_uris":{"android":"levelo://app?vid=a540b441-3928-4042-84dc-78cbd8de6fd0","ios":"levelo://app?vid=a540b441-3928-4042-84dc-78cbd8de6fd0"},"vehicle_type_id":"4","last_reported":1773211098,"current_range_meters":35600,"station_id":"ce4bhhh2rcd13ifvqfk0","pricing_plan_id":"cebpf4jnsgd1na2vs0mg"},{"bike_id":"dab334e7-a2a6-4a95-aea0-00ba8c9b639d","system_id":"levelo_inurba_marseille","lat":43.2844,"lon":5.35027,"is_reserved":false,"is_disabled":true,"rental_uris":{"android":"levelo://app?vid=dab334e7-a2a6-4a95-aea0-00ba8c9b639d","ios":"levelo://app?vid=dab334e7-a2a6-4a95-aea0-00ba8c9b639d"},"vehicle_type_id":"4","last_reported":1773211098,"current_range_meters":8000,"station_id":"ce4bhbh2rcd13ifvqepg","pricing_plan_id":"cebpf4jnsgd1na2vs0mg"},{"bike_id":"e04bff39-d6d2-4fb1-b975-a71cd495aa2c","system_id":"levelo_inurba_marseille","lat":43.29312,"lon":5.37179,"is_reserved":false,"is_disabled":false,"rental_uris":{"android":"levelo://app?vid=e04bff39-d6d2-4fb1-b975-a71cd495aa2c","ios":"levelo://app?vid=e04bff39-d6d2-4fb1-b975-a71cd495aa2c"},"vehicle_type_id":"4","last_reported":1773211098,"current_range_meters":35600,"station_id":"ce4bgh92rcd13ifvqb40","pricing_plan_id":"cebpf4jnsgd1na2vs0mg"},{"bike_id":"2ac129ef-0500-4e15-8179-6818cd0eb7ac","system_id":"levelo_inurba_marseille","lat":43.27067,"lon":5.42283,"is_reserved":false,"is_disabled":false,"rental_uris":{"android":"levelo://app?vid=2ac129ef-0500-4e15-8179-6818cd0eb7ac","ios":"levelo://app?vid=2ac129ef-0500-4e15-8179-6818cd0eb7ac"},"vehicle_type_id":"4","last_reported":1773211098,"current_range_meters":8800,"station_id":"ce4bhk92rcd13ifvqgb0","pricing_plan_id":"cebpf4jnsgd1na2vs0mg"},{"bike_id":"09b51f1e-4608-4273-bc57-8753e2939ff2","system_id":"levelo_inurba_marseille","lat":43.29937,"lon":5.36558,"is_reserved":false,"is_disabled":false,"rental_uris":{"android":"levelo://app?vid=09b51f1e-4608-4273-bc57-8753e2939ff2","ios":"levelo://app?vid=09b51f1e-4608-4273-bc57-8753e2939ff2"},"vehicle_type_id":"4","last_reported":1773211098,"current_range_meters":34000,"station_id":"ce4bgm92rcd13ifvqbr0","pricing_plan_id":"cebpf4jnsgd1na2vs0mg"},{"bike_id":"054649f8-1ed7-4fa3-865f-5e5a1694babc","system_id":"levelo_inurba_marseille","lat":43.27832,"lon":5.39205,"is_reserved":false,"is_disabled":false,"rental_uris":{"android":"levelo://app?vid=054649f8-1ed7-4fa3-865f-5e5a1694babc","ios":"levelo://app?vid=054649f8-1ed7-4fa3-865f-5e5a1694babc"},"vehicle_type_id":"4","last_reported":1773211098,"current_range_meters":33200,"station_id":"ce4bhjp2rcd13ifvqga0","pricing_plan_id":"cebpf4jnsgd1na2vs0mg"},{"bike_id":"5d270c1f-ad62-4560-a99d-0b02259edd52","system_id":"levelo_inurba_marseille","lat":43.29877,"lon":5.39738,"is_reserved":false,"is_disabled":false,"rental_uris":{"android":"levelo://app?vid=5d270c1f-ad62-4560-a99d-0b02259edd52","ios":"levelo://app?vid=5d270c1f-ad62-4560-a99d-0b02259edd52"},"vehicle_type_id":"4","last_reported":1773211098,"current_range_meters":19200,"station_id":"ce4bh0h2rcd13ifvqd50","pricing_plan_id":"cebpf4jnsgd1na2vs0mg"},{"bike_id":"ea2b5425-627c-410f-8b17-3b8ea575ed82","system_id":"levelo_inurba_marseille","lat":43.23187,"lon":5.39978,"is_reserved":false,"is_disabled":false,"rental_uris":{"android":"levelo://app?vid=ea2b5425-627c-410f-8b17-3b8ea575ed82","ios":"levelo://app?vid=ea2b5425-627c-410f-8b17-3b8ea575ed82"},"vehicle_type_id":"4","last_reported":1773211098,"current_range_meters":36800,"station_id":"ce4bhn12rcd13ifvqgqg","pricing_plan_id":"cebpf4jnsgd1na2vs0mg"},{"bike_id":"a8ea74be-ed16-4688-baa8-29a77a5d63a7","system_id":"levelo_inurba_marseille","lat":43.24686,"lon":5.38151,"is_reserved":false,"is_disabled":false,"rental_uris":{"android":"levelo://app?vid=a8ea74be-ed16-4688-baa8-29a77a5d63a7","ios":"levelo://app?vid=a8ea74be-ed16-4688-baa8-29a77a5d63a7"},"vehicle_type_id":"4","last_reported":1773211098,"current_range_meters":6400,"station_id":"ce4bhih2rcd13ifvqfr0","pricing_plan_id":"cebpf4jnsgd1na2vs0mg"},{"bike_id":"2b746f58-d2fd-441a-bb71-95546f6fa4a5","system_id":"levelo_inurba_marseille","lat":43.2953,"lon":5.39052,"is_reserved":false,"is_disabled":false,"rental_uris":{"android":"levelo://app?vid=2b746f58-d2fd-441a-bb71-95546f6fa4a5","ios":"levelo://app?vid=2b746f58-d2fd-441a-bb71-95546f6fa4a5"},"vehicle_type_id":"4","last_reported":1773211098,"current_range_meters":15200,"station_id":"ce4bh3p2rcd13ifvqdp0","pricing_plan_id":"cebpf4jnsgd1na2vs0mg"},{"bike_id":"4ecdb169-55e8-48b9-a791-c5eff5aa3f9e","system_id":"levelo_inurba_marseille","lat":43.24398,"lon":5.37048,"is_reserved":false,"is_disabled":false,"rental_uris":{"android":"levelo://app?vid=4ecdb169-55e8-48b9-a791-c5eff5aa3f9e","ios":"levelo://app?vid=4ecdb169-55e8-48b9-a791-c5eff5aa3f9e"},"vehicle_type_id":"4","last_reported":1773211098,"current_range_meters":39200,"station_id":"ce4bhhh2rcd13ifvqfk0","pricing_plan_id":"cebpf4jnsgd1na2vs0mg"},{"bike_id":"0a2f9b28-6219-4106-b011-3026133a767c","system_id":"levelo_inurba_marseille","lat":43.29612,"lon":5.38114,"is_reserved":false,"is_disabled":true,"rental_uris":{"android":"levelo://app?vid=0a2f9b28-6219-4106-b011-3026133a767c","ios":"levelo://app?vid=0a2f9b28-6219-4106-b011-3026133a767c"},"vehicle_type_id":"4","last_reported":1773211098,"current_range_meters":22400,"station_id":"ce4bgl12rcd13ifvqbo0","pricing_plan_id":"cebpf4jnsgd1na2vs0mg"},{"bike_id":"91c6f893-e8a8-4889-8f78-568b49c19ca1","system_id":"levelo_inurba_marseille","lat":43.295535,"lon":5.396624,"is_reserved":false,"is_disabled":false,"rental_uris":{"android":"levelo://app?vid=91c6f893-e8a8-4889-8f78-568b49c19ca1","ios":"levelo://app?vid=91c6f893-e8a8-4889-8f78-568b49c19ca1"},"vehicle_type_id":"4","last_reported":1773211098,"current_range_meters":18800,"station_id":"ce4bgvh2rcd13ifvqcs0","pricing_plan_id":"cebpf4jnsgd1na2vs0mg"},{"bike_id":"333c1115-21ab-4cac-9273-ad709bdfe532","system_id":"levelo_inurba_marseille","lat":43.27491,"lon":5.42482,"is_reserved":false,"is_disabled":false,"rental_uris":{"android":"levelo://app?vid=333c1115-21ab-4cac-9273-ad709bdfe532","ios":"levelo://app?vid=333c1115-21ab-4cac-9273-ad709bdfe532"},"vehicle_type_id":"4","last_reported":1773211098,"current_range_meters":38800,"station_id":"ce4bhn92rcd13ifvqgrg","pricing_plan_id":"cebpf4jnsgd1na2vs0mg"},{"bike_id":"a6ab40bc-7724-4cc9-8319-2038d59cf975","system_id":"levelo_inurba_marseille","lat":43.28551,"lon":5.39543,"is_reserved":false,"is_disabled":false,"rental_uris":{"android":"levelo://app?vid=a6ab40bc-7724-4cc9-8319-2038d59cf975","ios":"levelo://app?vid=a6ab40bc-7724-4cc9-8319-2038d59cf975"},"vehicle_type_id":"4","last_reported":1773211098,"current_range_meters":39200,"station_id":"ce4bh292rcd13ifvqdg0","pricing_plan_id":"cebpf4jnsgd1na2vs0mg"},{"bike_id":"474db209-38e8-4330-b23e-0b51d90d5f0a","system_id":"levelo_inurba_marseille","lat":43.29566,"lon":5.42277,"is_reserved":false,"is_disabled":false,"rental_uris":{"android":"levelo://app?vid=474db209-38e8-4330-b23e-0b51d90d5f0a","ios":"levelo://app?vid=474db209-38e8-4330-b23e-0b51d90d5f0a"},"vehicle_type_id":"4","last_reported":1773211098,"current_range_meters":40000,"station_id":"ce4bhph2rcd13ifvqhdg","pricing_plan_id":"cebpf4jnsgd1na2vs0mg"},{"bike_id":"53ac44cb-67bd-4fe8-b47b-110b609c7a81","system_id":"levelo_inurba_marseille","lat":43.25099,"lon":5.39509,"is_reserved":false,"is_disabled":false,"rental_uris":{"android":"levelo://app?vid=53ac44cb-67bd-4fe8-b47b-110b609c7a81","ios":"levelo://app?vid=53ac44cb-67bd-4fe8-b47b-110b609c7a81"},"vehicle_type_id":"4","last_reported":1773211098,"current_range_meters":38400,"station_id":"ce4bhm12rcd13ifvqgkg","pricing_plan_id":"cebpf4jnsgd1na2vs0mg"},{"bike_id":"de41fd44-36e4-4949-a72f-8ebd158d5853","system_id":"levelo_inurba_marseille","lat":43.28477,"lon":5.35926,"is_reserved":false,"is_disabled":false,"rental_uris":{"android":"levelo://app?vid=de41fd44-36e4-4949-a72f-8ebd158d5853","ios":"levelo://app?vid=de41fd44-36e4-4949-a72f-8ebd158d5853"},"vehicle_type_id":"4","last_reported":1773211098,"current_range_meters":14400,"station_id":"","pricing_plan_id":"cebpf4jnsgd1na2vs0mg"},{"bike_id":"7c18f0e4-d362-4e80-b231-56179e94cd0a","system_id":"levelo_inurba_marseille","lat":43.27815,"lon":5.40737,"is_reserved":false,"is_disabled":false,"rental_uris":{"android":"levelo://app?vid=7c18f0e4-d362-4e80-b231-56179e94cd0a","ios":"levelo://app?vid=7c18f0e4-d362-4e80-b231-56179e94cd0a"},"vehicle_type_id":"4","last_reported":1773211098,"current_range_meters":9600,"station_id":"ce4bhnh2rcd13ifvqgtg","pricing_plan_id":"cebpf4jnsgd1na2vs0mg"},{"bike_id":"00b869e7-522d-483e-8024-0a89e2a09d18","system_id":"levelo_inurba_marseille","lat":43.24168,"lon":5.39729,"is_reserved":false,"is_disabled":false,"rental_uris":{"android":"levelo://app?vid=00b869e7-522d-483e-8024-0a89e2a09d18","ios":"levelo://app?vid=00b869e7-522d-483e-8024-0a89e2a09d18"},"vehicle_type_id":"4","last_reported":1773211098,"current_range_meters":24800,"station_id":"ce4bhn12rcd13ifvqgpg","pricing_plan_id":"cebpf4jnsgd1na2vs0mg"},{"bike_id":"dd6de014-2d89-46e5-af29-4cd0619afb83","system_id":"levelo_inurba_marseille","lat":43.30181,"lon":5.38074,"is_reserved":false,"is_disabled":false,"rental_uris":{"android":"levelo://app?vid=dd6de014-2d89-46e5-af29-4cd0619afb83","ios":"levelo://app?vid=dd6de014-2d89-46e5-af29-4cd0619afb83"},"vehicle_type_id":"4","last_reported":1773211098,"current_range_meters":28800,"station_id":"ce4bgjp2rcd13ifvqbh0","pricing_plan_id":"cebpf4jnsgd1na2vs0mg"},{"bike_id":"7567ece7-d0eb-41af-8836-79be3883e346","system_id":"levelo_inurba_marseille","lat":43.27211,"lon":5.39191,"is_reserved":false,"is_disabled":false,"rental_uris":{"android":"levelo://app?vid=7567ece7-d0eb-41af-8836-79be3883e346","ios":"levelo://app?vid=7567ece7-d0eb-41af-8836-79be3883e346"},"vehicle_type_id":"4","last_reported":1773211098,"current_range_meters":27600,"station_id":"ce4bhhp2rcd13ifvqfm0","pricing_plan_id":"cebpf4jnsgd1na2vs0mg"},{"bike_id":"ebd6088d-ab52-4b6d-b6be-62de3fd47906","system_id":"levelo_inurba_marseille","lat":43.30131,"lon":5.39876,"is_reserved":false,"is_disabled":true,"rental_uris":{"android":"levelo://app?vid=ebd6088d-ab52-4b6d-b6be-62de3fd47906","ios":"levelo://app?vid=ebd6088d-ab52-4b6d-b6be-62de3fd47906"},"vehicle_type_id":"4","last_reported":1773211098,"current_range_meters":18800,"station_id":"ce4bh0h2rcd13ifvqd40","pricing_plan_id":"cebpf4jnsgd1na2vs0mg"},{"bike_id":"a8cec461-37aa-4545-98e4-ad56cc5c20a4","system_id":"levelo_inurba_marseille","lat":43.30618,"lon":5.37215,"is_reserved":false,"is_disabled":false,"rental_uris":{"android":"levelo://app?vid=a8cec461-37aa-4545-98e4-ad56cc5c20a4","ios":"levelo://app?vid=a8cec461-37aa-4545-98e4-ad56cc5c20a4"},"vehicle_type_id":"4","last_reported":1773211098,"current_range_meters":29600,"station_id":"ce4bgqh2rcd13ifvqc4g","pricing_plan_id":"cebpf4jnsgd1na2vs0mg"},{"bike_id":"ceb85dfd-9fcd-4b77-9f66-3415af1cb0f5","system_id":"levelo_inurba_marseille","lat":43.30143,"lon":5.38092,"is_reserved":false,"is_disabled":false,"rental_uris":{"android":"levelo://app?vid=ceb85dfd-9fcd-4b77-9f66-3415af1cb0f5","ios":"levelo://app?vid=ceb85dfd-9fcd-4b77-9f66-3415af1cb0f5"},"vehicle_type_id":"4","last_reported":1773211098,"current_range_meters":29600,"station_id":"ce4bgjp2rcd13ifvqbh0","pricing_plan_id":"cebpf4jnsgd1na2vs0mg"},{"bike_id":"552527b2-3992-442f-8023-61651bb7b9e6","system_id":"levelo_inurba_marseille","lat":43.2454,"lon":5.39535,"is_reserved":false,"is_disabled":true,"rental_uris":{"android":"levelo://app?vid=552527b2-3992-442f-8023-61651bb7b9e6","ios":"levelo://app?vid=552527b2-3992-442f-8023-61651bb7b9e6"},"vehicle_type_id":"4","last_reported":1773211098,"current_range_meters":28800,"station_id":"ce4bhlp2rcd13ifvqgjg","pricing_plan_id":"cebpf4jnsgd1na2vs0mg"},{"bike_id":"4198a94b-b036-48d2-a0ce-1c96a42b9197","system_id":"levelo_inurba_marseille","lat":43.28422,"lon":5.34998,"is_reserved":false,"is_disabled":false,"rental_uris":{"android":"levelo://app?vid=4198a94b-b036-48d2-a0ce-1c96a42b9197","ios":"levelo://app?vid=4198a94b-b036-48d2-a0ce-1c96a42b9197"},"vehicle_type_id":"4","last_reported":1773211098,"current_range_meters":32800,"station_id":"ce4bhbh2rcd13ifvqepg","pricing_plan_id":"cebpf4jnsgd1na2vs0mg"},{"bike_id":"116884d9-4a07-439b-9337-8d3d77ac1c8e","system_id":"levelo_inurba_marseille","lat":43.26065,"lon":5.39392,"is_reserved":false,"is_disabled":false,"rental_uris":{"android":"levelo://app?vid=116884d9-4a07-439b-9337-8d3d77ac1c8e","ios":"levelo://app?vid=116884d9-4a07-439b-9337-8d3d77ac1c8e"},"vehicle_type_id":"4","last_reported":1773211098,"current_range_meters":38800,"station_id":"ce4bhh92rcd13ifvqfj0","pricing_plan_id":"cebpf4jnsgd1na2vs0mg"},{"bike_id":"e50d48ed-53b5-42aa-8d06-2635f15d8cc9","system_id":"levelo_inurba_marseille","lat":43.28453,"lon":5.35898,"is_reserved":false,"is_disabled":true,"rental_uris":{"android":"levelo://app?vid=e50d48ed-53b5-42aa-8d06-2635f15d8cc9","ios":"levelo://app?vid=e50d48ed-53b5-42aa-8d06-2635f15d8cc9"},"vehicle_type_id":"4","last_reported":1773211098,"current_range_meters":2800,"station_id":"ce4bhah2rcd13ifvqei0","pricing_plan_id":"cebpf4jnsgd1na2vs0mg"},{"bike_id":"4a20e97e-2d60-465d-82a2-b054e857494a","system_id":"levelo_inurba_marseille","lat":43.27307,"lon":5.39136,"is_reserved":false,"is_disabled":false,"rental_uris":{"android":"levelo://app?vid=4a20e97e-2d60-465d-82a2-b054e857494a","ios":"levelo://app?vid=4a20e97e-2d60-465d-82a2-b054e857494a"},"vehicle_type_id":"4","last_reported":1773211098,"current_range_meters":8800,"station_id":"","pricing_plan_id":"cebpf4jnsgd1na2vs0mg"},{"bike_id":"a63d22a1-9803-47da-97c5-9eb5069b8019","system_id":"levelo_inurba_marseille","lat":43.25832,"lon":5.39445,"is_reserved":false,"is_disabled":false,"rental_uris":{"android":"levelo://app?vid=a63d22a1-9803-47da-97c5-9eb5069b8019","ios":"levelo://app?vid=a63d22a1-9803-47da-97c5-9eb5069b8019"},"vehicle_type_id":"4","last_reported":1773211098,"current_range_meters":39200,"station_id":"ce4bhip2rcd13ifvqft0","pricing_plan_id":"cebpf4jnsgd1na2vs0mg"},{"bike_id":"2a742de9-c952-4962-9f6a-5c6c22c800ed","system_id":"levelo_inurba_marseille","lat":43.31518,"lon":5.37326,"is_reserved":false,"is_disabled":false,"rental_uris":{"android":"levelo://app?vid=2a742de9-c952-4962-9f6a-5c6c22c800ed","ios":"levelo://app?vid=2a742de9-c952-4962-9f6a-5c6c22c800ed"},"vehicle_type_id":"4","last_reported":1773211098,"current_range_meters":29600,"station_id":"ce4bgt12rcd13ifvqcd0","pricing_plan_id":"cebpf4jnsgd1na2vs0mg"},{"bike_id":"66bcaef7-970d-40e2-9705-c85f3aeb11c5","system_id":"levelo_inurba_marseille","lat":43.30625,"lon":5.39363,"is_reserved":false,"is_disabled":false,"rental_uris":{"android":"levelo://app?vid=66bcaef7-970d-40e2-9705-c85f3aeb11c5","ios":"levelo://app?vid=66bcaef7-970d-40e2-9705-c85f3aeb11c5"},"vehicle_type_id":"4","last_reported":1773211098,"current_range_meters":6400,"station_id":"ce4bh0p2rcd13ifvqd80","pricing_plan_id":"cebpf4jnsgd1na2vs0mg"},{"bike_id":"8f55006e-4935-41c3-901b-3a71809b7777","system_id":"levelo_inurba_marseille","lat":43.29235,"lon":5.37104,"is_reserved":false,"is_disabled":false,"rental_uris":{"android":"levelo://app?vid=8f55006e-4935-41c3-901b-3a71809b7777","ios":"levelo://app?vid=8f55006e-4935-41c3-901b-3a71809b7777"},"vehicle_type_id":"4","last_reported":1773211098,"current_range_meters":17200,"station_id":"","pricing_plan_id":"cebpf4jnsgd1na2vs0mg"},{"bike_id":"e5c6fa89-d98b-49f7-887f-210cb4d3170f","system_id":"levelo_inurba_marseille","lat":43.30476,"lon":5.37908,"is_reserved":false,"is_disabled":false,"rental_uris":{"android":"levelo://app?vid=e5c6fa89-d98b-49f7-887f-210cb4d3170f","ios":"levelo://app?vid=e5c6fa89-d98b-49f7-887f-210cb4d3170f"},"vehicle_type_id":"4","last_reported":1773211098,"current_range_meters":36400,"station_id":"ce4bgup2rcd13ifvqcn0","pricing_plan_id":"cebpf4jnsgd1na2vs0mg"},{"bike_id":"8b2e521b-1101-44fe-9d4a-0344f080c81c","system_id":"levelo_inurba_marseille","lat":43.28476,"lon":5.48405,"is_reserved":false,"is_disabled":false,"rental_uris":{"android":"levelo://app?vid=8b2e521b-1101-44fe-9d4a-0344f080c81c","ios":"levelo://app?vid=8b2e521b-1101-44fe-9d4a-0344f080c81c"},"vehicle_type_id":"4","last_reported":1773211098,"current_range_meters":37600,"station_id":"","pricing_plan_id":"cebpf4jnsgd1na2vs0mg"},{"bike_id":"47211649-8614-4b6a-9490-eec4357ab879","system_id":"levelo_inurba_marseille","lat":43.27666,"lon":5.38884,"is_reserved":false,"is_disabled":true,"rental_uris":{"android":"levelo://app?vid=47211649-8614-4b6a-9490-eec4357ab879","ios":"levelo://app?vid=47211649-8614-4b6a-9490-eec4357ab879"},"vehicle_type_id":"4","last_reported":1773211098,"current_range_meters":0,"station_id":"ce4bhi12rcd13ifvqfo0","pricing_plan_id":"cebpf4jnsgd1na2vs0mg"},{"bike_id":"f83b01a4-2d1c-4875-acf0-cf79725805a2","system_id":"levelo_inurba_marseille","lat":43.28691,"lon":5.37386,"is_reserved":false,"is_disabled":false,"rental_uris":{"android":"levelo://app?vid=f83b01a4-2d1c-4875-acf0-cf79725805a2","ios":"levelo://app?vid=f83b01a4-2d1c-4875-acf0-cf79725805a2"},"vehicle_type_id":"4","last_reported":1773211098,"current_range_meters":38800,"station_id":"ce4bh3p2rcd13ifvqdq0","pricing_plan_id":"cebpf4jnsgd1na2vs0mg"},{"bike_id":"1697678c-c8a4-4c47-ade7-901915c540a8","system_id":"levelo_inurba_marseille","lat":43.29592,"lon":5.38097,"is_reserved":false,"is_disabled":true,"rental_uris":{"android":"levelo://app?vid=1697678c-c8a4-4c47-ade7-901915c540a8","ios":"levelo://app?vid=1697678c-c8a4-4c47-ade7-901915c540a8"},"vehicle_type_id":"4","last_reported":1773211098,"current_range_meters":8000,"station_id":"ce4bgl12rcd13ifvqbo0","pricing_plan_id":"cebpf4jnsgd1na2vs0mg"},{"bike_id":"67f46bf7-bdd0-4a4b-a8fa-3ce501504e47","system_id":"levelo_inurba_marseille","lat":43.31332,"lon":5.38512,"is_reserved":false,"is_disabled":false,"rental_uris":{"android":"levelo://app?vid=67f46bf7-bdd0-4a4b-a8fa-3ce501504e47","ios":"levelo://app?vid=67f46bf7-bdd0-4a4b-a8fa-3ce501504e47"},"vehicle_type_id":"4","last_reported":1773211098,"current_range_meters":39200,"station_id":"ce4bgt92rcd13ifvqcf0","pricing_plan_id":"cebpf4jnsgd1na2vs0mg"},{"bike_id":"cdda2338-2208-404b-81bf-2fc8f9a077ea","system_id":"levelo_inurba_marseille","lat":43.28613,"lon":5.39886,"is_reserved":false,"is_disabled":false,"rental_uris":{"android":"levelo://app?vid=cdda2338-2208-404b-81bf-2fc8f9a077ea","ios":"levelo://app?vid=cdda2338-2208-404b-81bf-2fc8f9a077ea"},"vehicle_type_id":"4","last_reported":1773211098,"current_range_meters":27600,"station_id":"st_d4a7ka997mjs738ck50g","pricing_plan_id":"cebpf4jnsgd1na2vs0mg"},{"bike_id":"ffbacc37-ba5c-44cc-b5a6-4ebb97c9859b","system_id":"levelo_inurba_marseille","lat":43.2979,"lon":5.3935,"is_reserved":false,"is_disabled":false,"rental_uris":{"android":"levelo://app?vid=ffbacc37-ba5c-44cc-b5a6-4ebb97c9859b","ios":"levelo://app?vid=ffbacc37-ba5c-44cc-b5a6-4ebb97c9859b"},"vehicle_type_id":"4","last_reported":1773211098,"current_range_meters":28400,"station_id":"chh1huq6cuj3fo74tm60","pricing_plan_id":"cebpf4jnsgd1na2vs0mg"},{"bike_id":"db8d078e-42eb-4ad3-93fc-b2a69084043d","system_id":"levelo_inurba_marseille","lat":43.27816,"lon":5.40691,"is_reserved":false,"is_disabled":false,"rental_uris":{"android":"levelo://app?vid=db8d078e-42eb-4ad3-93fc-b2a69084043d","ios":"levelo://app?vid=db8d078e-42eb-4ad3-93fc-b2a69084043d"},"vehicle_type_id":"4","last_reported":1773211098,"current_range_meters":38400,"station_id":"ce4bhnh2rcd13ifvqgtg","pricing_plan_id":"cebpf4jnsgd1na2vs0mg"},{"bike_id":"83b676ba-b66b-4d97-a718-db013d4d22c1","system_id":"levelo_inurba_marseille","lat":43.29619,"lon":5.4063,"is_reserved":false,"is_disabled":false,"rental_uris":{"android":"levelo://app?vid=83b676ba-b66b-4d97-a718-db013d4d22c1","ios":"levelo://app?vid=83b676ba-b66b-4d97-a718-db013d4d22c1"},"vehicle_type_id":"4","last_reported":1773211098,"current_range_meters":38800,"station_id":"ce4bh0h2rcd13ifvqd60","pricing_plan_id":"cebpf4jnsgd1na2vs0mg"},{"bike_id":"2436638b-fa42-4103-b807-af930e438fa3","system_id":"levelo_inurba_marseille","lat":43.24651,"lon":5.38892,"is_reserved":false,"is_disabled":false,"rental_uris":{"android":"levelo://app?vid=2436638b-fa42-4103-b807-af930e438fa3","ios":"levelo://app?vid=2436638b-fa42-4103-b807-af930e438fa3"},"vehicle_type_id":"4","last_reported":1773211098,"current_range_meters":14800,"station_id":"ce4bhg12rcd13ifvqf60","pricing_plan_id":"cebpf4jnsgd1na2vs0mg"},{"bike_id":"643d1ac2-0f4c-452e-b5c9-43be99e50796","system_id":"levelo_inurba_marseille","lat":43.29603,"lon":5.39933,"is_reserved":false,"is_disabled":false,"rental_uris":{"android":"levelo://app?vid=643d1ac2-0f4c-452e-b5c9-43be99e50796","ios":"levelo://app?vid=643d1ac2-0f4c-452e-b5c9-43be99e50796"},"vehicle_type_id":"4","last_reported":1773211098,"current_range_meters":38000,"station_id":"ce4bh312rcd13ifvqdj0","pricing_plan_id":"cebpf4jnsgd1na2vs0mg"},{"bike_id":"4100fb04-b5e7-4103-ae43-8af40bfa6185","system_id":"levelo_inurba_marseille","lat":43.31565,"lon":5.3803,"is_reserved":false,"is_disabled":false,"rental_uris":{"android":"levelo://app?vid=4100fb04-b5e7-4103-ae43-8af40bfa6185","ios":"levelo://app?vid=4100fb04-b5e7-4103-ae43-8af40bfa6185"},"vehicle_type_id":"4","last_reported":1773211098,"current_range_meters":38800,"station_id":"ce4bhsp2rcd13ifvqi50","pricing_plan_id":"cebpf4jnsgd1na2vs0mg"},{"bike_id":"0023be4a-f8d7-4119-9902-9d840f983567","system_id":"levelo_inurba_marseille","lat":43.30913,"lon":5.39092,"is_reserved":false,"is_disabled":false,"rental_uris":{"android":"levelo://app?vid=0023be4a-f8d7-4119-9902-9d840f983567","ios":"levelo://app?vid=0023be4a-f8d7-4119-9902-9d840f983567"},"vehicle_type_id":"4","last_reported":1773211098,"current_range_meters":20000,"station_id":"","pricing_plan_id":"cebpf4jnsgd1na2vs0mg"},{"bike_id":"629a5b04-9225-42cf-b2f9-d31afe3f11aa","system_id":"levelo_inurba_marseille","lat":43.2654,"lon":5.37282,"is_reserved":false,"is_disabled":false,"rental_uris":{"android":"levelo://app?vid=629a5b04-9225-42cf-b2f9-d31afe3f11aa","ios":"levelo://app?vid=629a5b04-9225-42cf-b2f9-d31afe3f11aa"},"vehicle_type_id":"4","last_reported":1773211098,"current_range_meters":36800,"station_id":"ce4bhg12rcd13ifvqf70","pricing_plan_id":"cebpf4jnsgd1na2vs0mg"},{"bike_id":"26a6b2e2-002a-4072-a1a2-b594f4e8b66c","system_id":"levelo_inurba_marseille","lat":43.295628,"lon":5.375213,"is_reserved":false,"is_disabled":false,"rental_uris":{"android":"levelo://app?vid=26a6b2e2-002a-4072-a1a2-b594f4e8b66c","ios":"levelo://app?vid=26a6b2e2-002a-4072-a1a2-b594f4e8b66c"},"vehicle_type_id":"4","last_reported":1773211098,"current_range_meters":30400,"station_id":"","pricing_plan_id":"cebpf4jnsgd1na2vs0mg"},{"bike_id":"c0f412de-40e6-4a94-a5dd-7c358ceb2433","system_id":"levelo_inurba_marseille","lat":43.23187,"lon":5.39996,"is_reserved":false,"is_disabled":false,"rental_uris":{"android":"levelo://app?vid=c0f412de-40e6-4a94-a5dd-7c358ceb2433","ios":"levelo://app?vid=c0f412de-40e6-4a94-a5dd-7c358ceb2433"},"vehicle_type_id":"4","last_reported":1773211098,"current_range_meters":38800,"station_id":"ce4bhn12rcd13ifvqgqg","pricing_plan_id":"cebpf4jnsgd1na2vs0mg"},{"bike_id":"34442958-43b2-4a68-9875-0a9f86e4ffcd","system_id":"levelo_inurba_marseille","lat":43.31044,"lon":5.37177,"is_reserved":false,"is_disabled":false,"rental_uris":{"android":"levelo://app?vid=34442958-43b2-4a68-9875-0a9f86e4ffcd","ios":"levelo://app?vid=34442958-43b2-4a68-9875-0a9f86e4ffcd"},"vehicle_type_id":"4","last_reported":1773211098,"current_range_meters":36000,"station_id":"st_d4kl2rp97mjs73e7tdfg","pricing_plan_id":"cebpf4jnsgd1na2vs0mg"},{"bike_id":"59078b86-d101-4d08-9dab-b6f2a351f16a","system_id":"levelo_inurba_marseille","lat":43.27813,"lon":5.40758,"is_reserved":false,"is_disabled":false,"rental_uris":{"android":"levelo://app?vid=59078b86-d101-4d08-9dab-b6f2a351f16a","ios":"levelo://app?vid=59078b86-d101-4d08-9dab-b6f2a351f16a"},"vehicle_type_id":"4","last_reported":1773211098,"current_range_meters":15200,"station_id":"ce4bhnh2rcd13ifvqgtg","pricing_plan_id":"cebpf4jnsgd1na2vs0mg"},{"bike_id":"fd7d5543-5a5d-41d6-9fce-f29d16997315","system_id":"levelo_inurba_marseille","lat":43.249,"lon":5.40472,"is_reserved":false,"is_disabled":false,"rental_uris":{"android":"levelo://app?vid=fd7d5543-5a5d-41d6-9fce-f29d16997315","ios":"levelo://app?vid=fd7d5543-5a5d-41d6-9fce-f29d16997315"},"vehicle_type_id":"4","last_reported":1773211098,"current_range_meters":32000,"station_id":"","pricing_plan_id":"cebpf4jnsgd1na2vs0mg"},{"bike_id":"231581b3-46e8-4052-85e7-dfb6a3c34fca","system_id":"levelo_inurba_marseille","lat":43.31884,"lon":5.40754,"is_reserved":false,"is_disabled":true,"rental_uris":{"android":"levelo://app?vid=231581b3-46e8-4052-85e7-dfb6a3c34fca","ios":"levelo://app?vid=231581b3-46e8-4052-85e7-dfb6a3c34fca"},"vehicle_type_id":"4","last_reported":1773211098,"current_range_meters":36400,"station_id":"ce4bhq12rcd13ifvqhig","pricing_plan_id":"cebpf4jnsgd1na2vs0mg"},{"bike_id":"19a0bf23-67fa-4372-9879-c7acb4fa2ea1","system_id":"levelo_inurba_marseille","lat":43.26762,"lon":5.39442,"is_reserved":false,"is_disabled":false,"rental_uris":{"android":"levelo://app?vid=19a0bf23-67fa-4372-9879-c7acb4fa2ea1","ios":"levelo://app?vid=19a0bf23-67fa-4372-9879-c7acb4fa2ea1"},"vehicle_type_id":"4","last_reported":1773211098,"current_range_meters":38400,"station_id":"ce4bhh12rcd13ifvqfg0","pricing_plan_id":"cebpf4jnsgd1na2vs0mg"},{"bike_id":"634c5174-2fd8-4a2f-9cd6-07b26ccaa62c","system_id":"levelo_inurba_marseille","lat":43.23191,"lon":5.39969,"is_reserved":false,"is_disabled":false,"rental_uris":{"android":"levelo://app?vid=634c5174-2fd8-4a2f-9cd6-07b26ccaa62c","ios":"levelo://app?vid=634c5174-2fd8-4a2f-9cd6-07b26ccaa62c"},"vehicle_type_id":"4","last_reported":1773211098,"current_range_meters":30800,"station_id":"ce4bhn12rcd13ifvqgqg","pricing_plan_id":"cebpf4jnsgd1na2vs0mg"},{"bike_id":"2c5f6e5a-2024-45c2-90c7-7449b094d709","system_id":"levelo_inurba_marseille","lat":43.30869,"lon":5.39672,"is_reserved":false,"is_disabled":false,"rental_uris":{"android":"levelo://app?vid=2c5f6e5a-2024-45c2-90c7-7449b094d709","ios":"levelo://app?vid=2c5f6e5a-2024-45c2-90c7-7449b094d709"},"vehicle_type_id":"4","last_reported":1773211098,"current_range_meters":10800,"station_id":"ce4bh012rcd13ifvqcv0","pricing_plan_id":"cebpf4jnsgd1na2vs0mg"},{"bike_id":"208e77d7-12ce-4d68-ad29-6d45eaf722f6","system_id":"levelo_inurba_marseille","lat":43.28478,"lon":5.48394,"is_reserved":false,"is_disabled":false,"rental_uris":{"android":"levelo://app?vid=208e77d7-12ce-4d68-ad29-6d45eaf722f6","ios":"levelo://app?vid=208e77d7-12ce-4d68-ad29-6d45eaf722f6"},"vehicle_type_id":"4","last_reported":1773211098,"current_range_meters":9200,"station_id":"st_d3svhcjqgbts73a3dn0g","pricing_plan_id":"cebpf4jnsgd1na2vs0mg"},{"bike_id":"354b5bda-3949-4498-85b6-eb76538c91b8","system_id":"levelo_inurba_marseille","lat":43.3089,"lon":5.37195,"is_reserved":false,"is_disabled":true,"rental_uris":{"android":"levelo://app?vid=354b5bda-3949-4498-85b6-eb76538c91b8","ios":"levelo://app?vid=354b5bda-3949-4498-85b6-eb76538c91b8"},"vehicle_type_id":"4","last_reported":1773211098,"current_range_meters":39200,"station_id":"ce4bguh2rcd13ifvqckg","pricing_plan_id":"cebpf4jnsgd1na2vs0mg"},{"bike_id":"31eab7aa-d2ff-4d19-8af0-c2c63f0c6b5f","system_id":"levelo_inurba_marseille","lat":43.23168,"lon":5.35607,"is_reserved":false,"is_disabled":false,"rental_uris":{"android":"levelo://app?vid=31eab7aa-d2ff-4d19-8af0-c2c63f0c6b5f","ios":"levelo://app?vid=31eab7aa-d2ff-4d19-8af0-c2c63f0c6b5f"},"vehicle_type_id":"4","last_reported":1773211098,"current_range_meters":26000,"station_id":"","pricing_plan_id":"cebpf4jnsgd1na2vs0mg"},{"bike_id":"79ecbdb9-5889-49c2-82c8-d38b79c305e0","system_id":"levelo_inurba_marseille","lat":43.32116,"lon":5.36773,"is_reserved":false,"is_disabled":false,"rental_uris":{"android":"levelo://app?vid=79ecbdb9-5889-49c2-82c8-d38b79c305e0","ios":"levelo://app?vid=79ecbdb9-5889-49c2-82c8-d38b79c305e0"},"vehicle_type_id":"4","last_reported":1773211098,"current_range_meters":3600,"station_id":"ce4bhrh2rcd13ifvqhug","pricing_plan_id":"cebpf4jnsgd1na2vs0mg"},