{"last_updated":1737360798,"ttl":60,"version":"2.2","data":{"bikes":[{"bike_id":"54699930-2dbc-4d91-ab1b-41cfe810e817","system_id":"levelo_inurba_marseille","lat":43.2918,"lon":5.39377,"is_reserved":false,"is_disabled":true,"rental_uris":{"android":"levelo://app?vid=54699930-2dbc-4d91-ab1b-41cfe810e817","ios":"levelo://app?vid=54699930-2dbc-4d91-ab1b-41cfe810e817"},"vehicle_type_id":"4","last_reported":1737360798,"current_range_meters":0,"station_id":"","pricing_plan_id":"cebpf4jnsgd1na2vs0mg"},{"bike_id":"d383b76c-b1c5-4112-bf95-e420a42ff72e","system_id":"levelo_inurba_marseille","lat":43.24788,"lon":5.37475,"is_reserved":false,"is_disabled":true,"rental_uris":{"android":"levelo://app?vid=d383b76c-b1c5-4112-bf95-e420a42ff72e","ios":"levelo://app?vid=d383b76c-b1c5-4112-bf95-e420a42ff72e"},"vehicle_type_id":"4","last_reported":1737360798,"current_range_meters":33200,"station_id":"ce4bhgh2rcd13ifvqfb0","pricing_plan_id":"cebpf4jnsgd1na2vs0mg"},{"bike_id":"e841df29-8d21-48cf-a019-18bc26b21d64","system_id":"levelo_inurba_marseille","lat":43.273714,"lon":5.362472,"is_reserved":false,"is_disabled":false,"rental_uris":{"android":"levelo://app?vid=e841df29-8d21-48cf-a019-18bc26b21d64","ios":"levelo://app?vid=e841df29-8d21-48cf-a019-18bc26b21d64"},"vehicle_type_id":"4","last_reported":1737360798,"current_range_meters":39200,"station_id":"ce4bhbh2rcd13ifvqeo0","pricing_plan_id":"cebpf4jnsgd1na2vs0mg"},{"bike_id":"016891d3-d48d-43ea-9d8d-aacd30510a50","system_id":"levelo_inurba_marseille","lat":43.230566,"lon":5.354906,"is_reserved":false,"is_disabled":false,"rental_uris":{"android":"levelo://app?vid=016891d3-d48d-43ea-9d8d-aacd30510a50","ios":"levelo://app?vid=016891d3-d48d-43ea-9d8d-aacd30510a50"},"vehicle_type_id":"4","last_reported":1737360798,"current_range_meters":19600,"station_id":"cpo3342slgdg3j2ifvpg","pricing_plan_id":"cebpf4jnsgd1na2vs0mg"},{"bike_id":"e8aa188b-05e4-4f98-b30e-abe60ca1e9e1","system_id":"levelo_inurba_marseille","lat":43.28444,"lon":5.39194,"is_reserved":false,"is_disabled":true,"rental_uris":{"android":"levelo://app?vid=e8aa188b-05e4-4f98-b30e-abe60ca1e9e1","ios":"levelo://app?vid=e8aa188b-05e4-4f98-b30e-abe60ca1e9e1"},"vehicle_type_id":"4","last_reported":1737360798,"current_range_meters":0,"station_id":"ce4bhoh2rcd13ifvqh5g","pricing_plan_id":"cebpf4jnsgd1na2vs0mg"},{"bike_id":"70ac5e43-1a65-4943-bf4c-9459b26a7429","system_id":"levelo_inurba_marseille","lat":43.25732,"lon":5.41109,"is_reserved":false,"is_disabled":false,"rental_uris":{"android":"levelo://app?vid=70ac5e43-1a65-4943-bf4c-9459b26a7429","ios":"levelo://app?vid=70ac5e43-1a65-4943-bf4c-9459b26a7429"},"vehicle_type_id":"4","last_reported":1737360798,"current_range_meters":16800,"station_id":"ce4bhkp2rcd13ifvqgd0","pricing_plan_id":"cebpf4jnsgd1na2vs0mg"},{"bike_id":"c3a7fbb5-f6ba-423a-9c62-643c9e4ffb25","system_id":"levelo_inurba_marseille","lat":43.31687,"lon":5.40464,"is_reserved":false,"is_disabled":false,"rental_uris":{"android":"levelo://app?vid=c3a7fbb5-f6ba-423a-9c62-643c9e4ffb25","ios":"levelo://app?vid=c3a7fbb5-f6ba-423a-9c62-643c9e4ffb25"},"vehicle_type_id":"4","last_reported":1737360798,"current_range_meters":5600,"station_id":"ce4bh012rcd13ifvqd00","pricing_plan_id":"cebpf4jnsgd1na2vs0mg"},{"bike_id":"f18d3e3b-1d40-4085-ac6a-1f816d51e8b1","system_id":"levelo_inurba_marseille","lat":43.33011,"lon":5.39047,"is_reserved":false,"is_disabled":false,"rental_uris":{"android":"levelo://app?vid=f18d3e3b-1d40-4085-ac6a-1f816d51e8b1","ios":"levelo://app?vid=f18d3e3b-1d40-4085-ac6a-1f816d51e8b1"},"vehicle_type_id":"4","last_reported":1737360798,"current_range_meters":24800,"station_id":"ce4bhr92rcd13ifvqhrg","pricing_plan_id":"cebpf4jnsgd1na2vs0mg"},{"bike_id":"e3d5a69f-7604-4ab5-bfce-dc9cf0dd7b56","system_id":"levelo_inurba_marseille","lat":43.29568,"lon":5.39976,"is_reserved":false,"is_disabled":true,"rental_uris":{"android":"levelo://app?vid=e3d5a69f-7604-4ab5-bfce-dc9cf0dd7b56","ios":"levelo://app?vid=e3d5a69f-7604-4ab5-bfce-dc9cf0dd7b56"},"vehicle_type_id":"4","last_reported":1737360798,"current_range_meters":25600,"station_id":"ce4bh312rcd13ifvqdj0","pricing_plan_id":"cebpf4jnsgd1na2vs0mg"},{"bike_id":"32348f99-1fcf-454f-af80-2887ff634383","system_id":"levelo_inurba_marseille","lat":43.31483,"lon":5.37307,"is_reserved":false,"is_disabled":false,"rental_uris":{"android":"levelo://app?vid=32348f99-1fcf-454f-af80-2887ff634383","ios":"levelo://app?vid=32348f99-1fcf-454f-af80-2887ff634383"},"vehicle_type_id":"4","last_reported":1737360798,"current_range_meters":11600,"station_id":"ce4bgt12rcd13ifvqcd0","pricing_plan_id":"cebpf4jnsgd1na2vs0mg"},{"bike_id":"9d98433c-79bd-46fc-b91b-e31fc151a57e","system_id":"levelo_inurba_marseille","lat":43.25879,"lon":5.40938,"is_reserved":false,"is_disabled":false,"rental_uris":{"android":"levelo://app?vid=9d98433c-79bd-46fc-b91b-e31fc151a57e","ios":"levelo://app?vid=9d98433c-79bd-46fc-b91b-e31fc151a57e"},"vehicle_type_id":"4","last_reported":1737360798,"current_range_meters":32400,"station_id":"","pricing_plan_id":"cebpf4jnsgd1na2vs0mg"},{"bike_id":"6fdbf649-2860-4acb-a6c7-3397c212d0f0","system_id":"levelo_inurba_marseille","lat":43.29918,"lon":5.37468,"is_reserved":false,"is_disabled":false,"rental_uris":{"android":"levelo://app?vid=6fdbf649-2860-4acb-a6c7-3397c212d0f0","ios":"levelo://app?vid=6fdbf649-2860-4acb-a6c7-3397c212d0f0"},"vehicle_type_id":"4","last_reported":1737360798,"current_range_meters":35200,"station_id":"ce4bgjh2rcd13ifvqbg0","pricing_plan_id":"cebpf4jnsgd1na2vs0mg"},{"bike_id":"7686ade4-3aaf-4ba5-9b29-242cbb3cee7c","system_id":"levelo_inurba_marseille","lat":43.28931,"lon":5.36417,"is_reserved":false,"is_disabled":true,"rental_uris":{"android":"levelo://app?vid=7686ade4-3aaf-4ba5-9b29-242cbb3cee7c","ios":"levelo://app?vid=7686ade4-3aaf-4ba5-9b29-242cbb3cee7c"},"vehicle_type_id":"4","last_reported":1737360798,"current_range_meters":32400,"station_id":"ce4bhc92rcd13ifvqetg","pricing_plan_id":"cebpf4jnsgd1na2vs0mg"},{"bike_id":"ece2a919-79d9-49ed-94fc-6fb9b58e5026","system_id":"levelo_inurba_marseille","lat":43.27314,"lon":5.3908,"is_reserved":false,"is_disabled":false,"rental_uris":{"android":"levelo://app?vid=ece2a919-79d9-49ed-94fc-6fb9b58e5026","ios":"levelo://app?vid=ece2a919-79d9-49ed-94fc-6fb9b58e5026"},"vehicle_type_id":"4","last_reported":1737360798,"current_range_meters":31200,"station_id":"ce4bhgp2rcd13ifvqfe0","pricing_plan_id":"cebpf4jnsgd1na2vs0mg"},{"bike_id":"365c623b-5ad5-47e2-a231-fb7961d1cced","system_id":"levelo_inurba_marseille","lat":43.3045,"lon":5.37915,"is_reserved":false,"is_disabled":false,"rental_uris":{"android":"levelo://app?vid=365c623b-5ad5-47e2-a231-fb7961d1cced","ios":"levelo://app?vid=365c623b-5ad5-47e2-a231-fb7961d1cced"},"vehicle_type_id":"4","last_reported":1737360798,"current_range_meters":30800,"station_id":"ce4bgup2rcd13ifvqcn0","pricing_plan_id":"cebpf4jnsgd1na2vs0mg"},{"bike_id":"763ed4fc-16fd-47a0-aedf-62c028daa66f","system_id":"levelo_inurba_marseille","lat":43.363899,"lon":5.355693,"is_reserved":false,"is_disabled":false,"rental_uris":{"android":"levelo://app?vid=763ed4fc-16fd-47a0-aedf-62c028daa66f","ios":"levelo://app?vid=763ed4fc-16fd-47a0-aedf-62c028daa66f"},"vehicle_type_id":"4","last_reported":1737360798,"current_range_meters":9600,"station_id":"","pricing_plan_id":"cebpf4jnsgd1na2vs0mg"},{"bike_id":"54e47bbf-d358-4fc6-9623-23d2eb6b92a9","system_id":"levelo_inurba_marseille","lat":43.276747,"lon":5.388474,"is_reserved":false,"is_disabled":true,"rental_uris":{"android":"levelo://app?vid=54e47bbf-d358-4fc6-9623-23d2eb6b92a9","ios":"levelo://app?vid=54e47bbf-d358-4fc6-9623-23d2eb6b92a9"},"vehicle_type_id":"4","last_reported":1737360798,"current_range_meters":17600,"station_id":"","pricing_plan_id":"cebpf4jnsgd1na2vs0mg"},{"bike_id":"a2771881-b956-4a9a-9bc9-a89642d437c9","system_id":"levelo_inurba_marseille","lat":43.23203,"lon":5.35541,"is_reserved":false,"is_disabled":false,"rental_uris":{"android":"levelo://app?vid=a2771881-b956-4a9a-9bc9-a89642d437c9","ios":"levelo://app?vid=a2771881-b956-4a9a-9bc9-a89642d437c9"},"vehicle_type_id":"4","last_reported":1737360798,"current_range_meters":22800,"station_id":"ce4bhu92rcd13ifvqi70","pricing_plan_id":"cebpf4jnsgd1na2vs0mg"},{"bike_id":"dd3e648d-0c8b-4027-a5f5-caba6b440753","system_id":"levelo_inurba_marseille","lat":43.23188,"lon":5.39984,"is_reserved":false,"is_disabled":false,"rental_uris":{"android":"levelo://app?vid=dd3e648d-0c8b-4027-a5f5-caba6b440753","ios":"levelo://app?vid=dd3e648d-0c8b-4027-a5f5-caba6b440753"},"vehicle_type_id":"4","last_reported":1737360798,"current_range_meters":38800,"station_id":"ce4bhn12rcd13ifvqgqg","pricing_plan_id":"cebpf4jnsgd1na2vs0mg"},{"bike_id":"7f1da8c7-b445-4be3-999e-f37107028e7c","system_id":"levelo_inurba_marseille","lat":43.29775,"lon":5.37122,"is_reserved":false,"is_disabled":false,"rental_uris":{"android":"levelo://app?vid=7f1da8c7-b445-4be3-999e-f37107028e7c","ios":"levelo://app?vid=7f1da8c7-b445-4be3-999e-f37107028e7c"},"vehicle_type_id":"4","last_reported":1737360798,"current_range_meters":14400,"station_id":"ce4bgop2rcd13ifvqc1g","pricing_plan_id":"cebpf4jnsgd1na2vs0mg"},{"bike_id":"f3c94274-f861-4c89-8bb1-1ebe1a531935","system_id":"levelo_inurba_marseille","lat":43.25015,"lon":5.38944,"is_reserved":false,"is_disabled":false,"rental_uris":{"android":"levelo://app?vid=f3c94274-f861-4c89-8bb1-1ebe1a531935","ios":"levelo://app?vid=f3c94274-f861-4c89-8bb1-1ebe1a531935"},"vehicle_type_id":"4","last_reported":1737360798,"current_range_meters":35200,"station_id":"ce4bhgp2rcd13ifvqfd0","pricing_plan_id":"cebpf4jnsgd1na2vs0mg"},{"bike_id":"ce20b50f-12d5-4836-b639-6e8035a54130","system_id":"levelo_inurba_marseille","lat":43.29966,"lon":5.38499,"is_reserved":false,"is_disabled":false,"rental_uris":{"android":"levelo://app?vid=ce20b50f-12d5-4836-b639-6e8035a54130","ios":"levelo://app?vid=ce20b50f-12d5-4836-b639-6e8035a54130"},"vehicle_type_id":"4","last_reported":1737360798,"current_range_meters":25600,"station_id":"ce4bgj92rcd13ifvqbd0","pricing_plan_id":"cebpf4jnsgd1na2vs0mg"},{"bike_id":"ea820ade-d81d-428e-82b9-7f165f7e8e75","system_id":"levelo_inurba_marseille","lat":43.32338,"lon":5.36735,"is_reserved":false,"is_disabled":false,"rental_uris":{"android":"levelo://app?vid=ea820ade-d81d-428e-82b9-7f165f7e8e75","ios":"levelo://app?vid=ea820ade-d81d-428e-82b9-7f165f7e8e75"},"vehicle_type_id":"4","last_reported":1737360798,"current_range_meters":11200,"station_id":"ce4bhsh2rcd13ifvqi2g","pricing_plan_id":"cebpf4jnsgd1na2vs0mg"},{"bike_id":"c29020e0-83ef-4b06-ac4f-c4422257f84a","system_id":"levelo_inurba_marseille","lat":43.363913,"lon":5.356014,"is_reserved":false,"is_disabled":false,"rental_uris":{"android":"levelo://app?vid=c29020e0-83ef-4b06-ac4f-c4422257f84a","ios":"levelo://app?vid=c29020e0-83ef-4b06-ac4f-c4422257f84a"},"vehicle_type_id":"4","last_reported":1737360798,"current_range_meters":14800,"station_id":"","pricing_plan_id":"cebpf4jnsgd1na2vs0mg"},{"bike_id":"9a9f5094-96b5-4ffb-92ab-bc926b485321","system_id":"levelo_inurba_marseille","lat":43.231871,"lon":5.39986,"is_reserved":false,"is_disabled":false,"rental_uris":{"android":"levelo://app?vid=9a9f5094-96b5-4ffb-92ab-bc926b485321","ios":"levelo://app?vid=9a9f5094-96b5-4ffb-92ab-bc926b485321"},"vehicle_type_id":"4","last_reported":1737360798,"current_range_meters":38800,"station_id":"ce4bhn12rcd13ifvqgqg","pricing_plan_id":"cebpf4jnsgd1na2vs0mg"},{"bike_id":"30aea1e8-cd14-4a1a-8643-084e09d158b2","system_id":"levelo_inurba_marseille","lat":43.29269,"lon":5.4089,"is_reserved":false,"is_disabled":false,"rental_uris":{"android":"levelo://app?vid=30aea1e8-cd14-4a1a-8643-084e09d158b2","ios":"levelo://app?vid=30aea1e8-cd14-4a1a-8643-084e09d158b2"},"vehicle_type_id":"4","last_reported":1737360798,"current_range_meters":39200,"station_id":"ce4bh192rcd13ifvqdc0","pricing_plan_id":"cebpf4jnsgd1na2vs0mg"},{"bike_id":"2134fa96-3287-49a0-8c4d-ce46e95d9fc9","system_id":"levelo_inurba_marseille","lat":43.2594,"lon":5.409,"is_reserved":false,"is_disabled":false,"rental_uris":{"android":"levelo://app?vid=2134fa96-3287-49a0-8c4d-ce46e95d9fc9","ios":"levelo://app?vid=2134fa96-3287-49a0-8c4d-ce46e95d9fc9"},"vehicle_type_id":"4","last_reported":1737360798,"current_range_meters":30000,"station_id":"ce4bhm92rcd13ifvqglg","pricing_plan_id":"cebpf4jnsgd1na2vs0mg"},{"bike_id":"d6d9d2de-790c-4ddb-ae75-295bb9ad8667","system_id":"levelo_inurba_marseille","lat":43.31353,"lon":5.36728,"is_reserved":false,"is_disabled":false,"rental_uris":{"android":"levelo://app?vid=d6d9d2de-790c-4ddb-ae75-295bb9ad8667","ios":"levelo://app?vid=d6d9d2de-790c-4ddb-ae75-295bb9ad8667"},"vehicle_type_id":"4","last_reported":1737360798,"current_range_meters":10800,"station_id":"ce4bgr92rcd13ifvqc6g","pricing_plan_id":"cebpf4jnsgd1na2vs0mg"},{"bike_id":"6bf5bd29-3e54-437a-9020-86384919dc04","system_id":"levelo_inurba_marseille","lat":43.32311,"lon":5.38242,"is_reserved":false,"is_disabled":false,"rental_uris":{"android":"levelo://app?vid=6bf5bd29-3e54-437a-9020-86384919dc04","ios":"levelo://app?vid=6bf5bd29-3e54-437a-9020-86384919dc04"},"vehicle_type_id":"4","last_reported":1737360798,"current_range_meters":39200,"station_id":"ce4bhr12rcd13ifvqhqg","pricing_plan_id":"cebpf4jnsgd1na2vs0mg"},{"bike_id":"4bf0f607-593a-4129-99c6-97d6d800314b","system_id":"levelo_inurba_marseille","lat":43.28428,"lon":5.34978,"is_reserved":false,"is_disabled":false,"rental_uris":{"android":"levelo://app?vid=4bf0f607-593a-4129-99c6-97d6d800314b","ios":"levelo://app?vid=4bf0f607-593a-4129-99c6-97d6d800314b"},"vehicle_type_id":"4","last_reported":1737360798,"current_range_meters":22400,"station_id":"ce4bhbh2rcd13ifvqepg","pricing_plan_id":"cebpf4jnsgd1na2vs0mg"},{"bike_id":"c2f1954e-eebc-4f53-ae0c-43b3602a41b2","system_id":"levelo_inurba_marseille","lat":43.28943,"lon":5.36628,"is_reserved":false,"is_disabled":true,"rental_uris":{"android":"levelo://app?vid=c2f1954e-eebc-4f53-ae0c-43b3602a41b2","ios":"levelo://app?vid=c2f1954e-eebc-4f53-ae0c-43b3602a41b2"},"vehicle_type_id":"4","last_reported":1737360798,"current_range_meters":30000,"station_id":"ce4bhap2rcd13ifvqek0","pricing_plan_id":"cebpf4jnsgd1na2vs0mg"},{"bike_id":"c71bc52d-4381-47e2-970b-596ffc588646","system_id":"levelo_inurba_marseille","lat":43.29612,"lon":5.37727,"is_reserved":false,"is_disabled":false,"rental_uris":{"android":"levelo://app?vid=c71bc52d-4381-47e2-970b-596ffc588646","ios":"levelo://app?vid=c71bc52d-4381-47e2-970b-596ffc588646"},"vehicle_type_id":"4","last_reported":1737360798,"current_range_meters":38800,"station_id":"ce4bgi92rcd13ifvqb90","pricing_plan_id":"cebpf4jnsgd1na2vs0mg"},{"bike_id":"722e2d1b-5934-451d-bce8-481fd6d08752","system_id":"levelo_inurba_marseille","lat":43.2668,"lon":5.38265,"is_reserved":false,"is_disabled":false,"rental_uris":{"android":"levelo://app?vid=722e2d1b-5934-451d-bce8-481fd6d08752","ios":"levelo://app?vid=722e2d1b-5934-451d-bce8-481fd6d08752"},"vehicle_type_id":"4","last_reported":1737360798,"current_range_meters":25600,"station_id":"ce4bhg92rcd13ifvqf90","pricing_plan_id":"cebpf4jnsgd1na2vs0mg"},{"bike_id":"04e7f6b2-1170-476d-8eb7-54bc6ab7d23c","system_id":"levelo_inurba_marseille","lat":43.24391,"lon":5.37063,"is_reserved":false,"is_disabled":false,"rental_uris":{"android":"levelo://app?vid=04e7f6b2-1170-476d-8eb7-54bc6ab7d23c","ios":"levelo://app?vid=04e7f6b2-1170-476d-8eb7-54bc6ab7d23c"},"vehicle_type_id":"4","last_reported":1737360798,"current_range_meters":35200,"station_id":"ce4bhhh2rcd13ifvqfk0","pricing_plan_id":"cebpf4jnsgd1na2vs0mg"},{"bike_id":"b087c44b-37b3-4897-aa27-fe472fdbc387","system_id":"levelo_inurba_marseille","lat":43.27325,"lon":5.39081,"is_reserved":false,"is_disabled":false,"rental_uris":{"android":"levelo://app?vid=b087c44b-37b3-4897-aa27-fe472fdbc387","ios":"levelo://app?vid=b087c44b-37b3-4897-aa27-fe472fdbc387"},"vehicle_type_id":"4","last_reported":1737360798,"current_range_meters":25600,"station_id":"ce4bhgp2rcd13ifvqfe0","pricing_plan_id":"cebpf4jnsgd1na2vs0mg"},{"bike_id":"9db64592-0ac0-4e79-9203-6f2484b7841b","system_id":"levelo_inurba_marseille","lat":43.32483,"lon":5.36571,"is_reserved":false,"is_disabled":false,"rental_uris":{"android":"levelo://app?vid=9db64592-0ac0-4e79-9203-6f2484b7841b","ios":"levelo://app?vid=9db64592-0ac0-4e79-9203-6f2484b7841b"},"vehicle_type_id":"4","last_reported":1737360798,"current_range_meters":14800,"station_id":"ce4bhs12rcd13ifvqhvg","pricing_plan_id":"cebpf4jnsgd1na2vs0mg"},{"bike_id":"fa33a2c6-4f77-4b5e-bac7-4776a394adfb","system_id":"levelo_inurba_marseille","lat":43.3361,"lon":5.41035,"is_reserved":false,"is_disabled":false,"rental_uris":{"android":"levelo://app?vid=fa33a2c6-4f77-4b5e-bac7-4776a394adfb","ios":"levelo://app?vid=fa33a2c6-4f77-4b5e-bac7-4776a394adfb"},"vehicle_type_id":"4","last_reported":1737360798,"current_range_meters":28400,"station_id":"ce4bhqh2rcd13ifvqhmg","pricing_plan_id":"cebpf4jnsgd1na2vs0mg"},{"bike_id":"c8fe6bd0-5be5-4ede-8e98-69d8c19fd7cf","system_id":"levelo_inurba_marseille","lat":43.23122,"lon":5.43735,"is_reserved":false,"is_disabled":false,"rental_uris":{"android":"levelo://app?vid=c8fe6bd0-5be5-4ede-8e98-69d8c19fd7cf","ios":"levelo://app?vid=c8fe6bd0-5be5-4ede-8e98-69d8c19fd7cf"},"vehicle_type_id":"4","last_reported":1737360798,"current_range_meters":39200,"station_id":"ce4bhmp2rcd13ifvqgog","pricing_plan_id":"cebpf4jnsgd1na2vs0mg"},{"bike_id":"74b64467-95d9-4bb6-b6bc-ee4ca0ec4ce0","system_id":"levelo_inurba_marseille","lat":43.29936,"lon":5.3655,"is_reserved":false,"is_disabled":false,"rental_uris":{"android":"levelo://app?vid=74b64467-95d9-4bb6-b6bc-ee4ca0ec4ce0","ios":"levelo://app?vid=74b64467-95d9-4bb6-b6bc-ee4ca0ec4ce0"},"vehicle_type_id":"4","last_reported":1737360798,"current_range_meters":3200,"station_id":"ce4bguh2rcd13ifvqckg","pricing_plan_id":"cebpf4jnsgd1na2vs0mg"},{"bike_id":"57b0e606-8fdf-401d-8223-87c7978ca31e","system_id":"levelo_inurba_marseille","lat":43.26223,"lon":5.40441,"is_reserved":false,"is_disabled":false,"rental_uris":{"android":"levelo://app?vid=57b0e606-8fdf-401d-8223-87c7978ca31e","ios":"levelo://app?vid=57b0e606-8fdf-401d-8223-87c7978ca31e"},"vehicle_type_id":"4","last_reported":1737360798,"current_range_meters":32000,"station_id":"","pricing_plan_id":"cebpf4jnsgd1na2vs0mg"},{"bike_id":"d6dda788-2ee0-45e5-a6fd-f8b98f248df1","system_id":"levelo_inurba_marseille","lat":43.23129,"lon":5.43728,"is_reserved":false,"is_disabled":false,"rental_uris":{"android":"levelo://app?vid=d6dda788-2ee0-45e5-a6fd-f8b98f248df1","ios":"levelo://app?vid=d6dda788-2ee0-45e5-a6fd-f8b98f248df1"},"vehicle_type_id":"4","last_reported":1737360798,"current_range_meters":37600,"station_id":"ce4bhmp2rcd13ifvqgog","pricing_plan_id":"cebpf4jnsgd1na2vs0mg"},{"bike_id":"9f231178-3220-4493-bcf9-f1e58adce409","system_id":"levelo_inurba_marseille","lat":43.30557,"lon":5.36553,"is_reserved":false,"is_disabled":false,"rental_uris":{"android":"levelo://app?vid=9f231178-3220-4493-bcf9-f1e58adce409","ios":"levelo://app?vid=9f231178-3220-4493-bcf9-f1e58adce409"},"vehicle_type_id":"4","last_reported":1737360798,"current_range_meters":34800,"station_id":"ce4bgs12rcd13ifvqcag","pricing_plan_id":"cebpf4jnsgd1na2vs0mg"},{"bike_id":"94bdaa84-8d49-464b-898c-663f4980c5b8","system_id":"levelo_inurba_marseille","lat":43.32539,"lon":5.4142,"is_reserved":false,"is_disabled":false,"rental_uris":{"android":"levelo://app?vid=94bdaa84-8d49-464b-898c-663f4980c5b8","ios":"levelo://app?vid=94bdaa84-8d49-464b-898c-663f4980c5b8"},"vehicle_type_id":"4","last_reported":1737360798,"current_range_meters":38800,"station_id":"ce4bhq12rcd13ifvqhhg","pricing_plan_id":"cebpf4jnsgd1na2vs0mg"},{"bike_id":"81112329-1dad-4775-ba9b-1357b51686d0","system_id":"levelo_inurba_marseille","lat":43.31311,"lon":5.37351,"is_reserved":false,"is_disabled":false,"rental_uris":{"android":"levelo://app?vid=81112329-1dad-4775-ba9b-1357b51686d0","ios":"levelo://app?vid=81112329-1dad-4775-ba9b-1357b51686d0"},"vehicle_type_id":"4","last_reported":1737360798,"current_range_meters":33600,"station_id":"","pricing_plan_id":"cebpf4jnsgd1na2vs0mg"},{"bike_id":"d2209cbe-5891-4e53-950a-08fc01a95fa9","system_id":"levelo_inurba_marseille","lat":43.27495,"lon":5.42451,"is_reserved":false,"is_disabled":false,"rental_uris":{"android":"levelo://app?vid=d2209cbe-5891-4e53-950a-08fc01a95fa9","ios":"levelo://app?vid=d2209cbe-5891-4e53-950a-08fc01a95fa9"},"vehicle_type_id":"4","last_reported":1737360798,"current_range_meters":19600,"station_id":"ce4bhn92rcd13ifvqgrg","pricing_plan_id":"cebpf4jnsgd1na2vs0mg"},{"bike_id":"aa58a370-3dfc-419f-ac67-60fe6fa0a1a7","system_id":"levelo_inurba_marseille","lat":43.24671,"lon":5.38164,"is_reserved":false,"is_disabled":false,"rental_uris":{"android":"levelo://app?vid=aa58a370-3dfc-419f-ac67-60fe6fa0a1a7","ios":"levelo://app?vid=aa58a370-3dfc-419f-ac67-60fe6fa0a1a7"},"vehicle_type_id":"4","last_reported":1737360798,"current_range_meters":7200,"station_id":"ce4bhih2rcd13ifvqfr0","pricing_plan_id":"cebpf4jnsgd1na2vs0mg"},{"bike_id":"989683d8-cd1f-443e-bd96-77b49fba450d","system_id":"levelo_inurba_marseille","lat":43.31361,"lon":5.36715,"is_reserved":false,"is_disabled":false,"rental_uris":{"android":"levelo://app?vid=989683d8-cd1f-443e-bd96-77b49fba450d","ios":"levelo://app?vid=989683d8-cd1f-443e-bd96-77b49fba450d"},"vehicle_type_id":"4","last_reported":1737360798,"current_range_meters":27600,"station_id":"ce4bgr92rcd13ifvqc6g","pricing_plan_id":"cebpf4jnsgd1na2vs0mg"},{"bike_id":"dc7e81f7-2f2c-4990-a716-98c793abb363","system_id":"levelo_inurba_marseille","lat":43.24808,"lon":5.37456,"is_reserved":false,"is_disabled":false,"rental_uris":{"android":"levelo://app?vid=dc7e81f7-2f2c-4990-a716-98c793abb363","ios":"levelo://app?vid=dc7e81f7-2f2c-4990-a716-98c793abb363"},"vehicle_type_id":"4","last_reported":1737360798,"current_range_meters":25200,"station_id":"ce4bhgh2rcd13ifvqfb0","pricing_plan_id":"cebpf4jnsgd1na2vs0mg"},{"bike_id":"25a1483f-1859-4f2a-a274-9eb2c53ccd4c","system_id":"levelo_inurba_marseille","lat":43.27477,"lon":5.4247,"is_reserved":false,"is_disabled":false,"rental_uris":{"android":"levelo://app?vid=25a1483f-1859-4f2a-a274-9eb2c53ccd4c","ios":"levelo://app?vid=25a1483f-1859-4f2a-a274-9eb2c53ccd4c"},"vehicle_type_id":"4","last_reported":1737360798,"current_range_meters":24800,"station_id":"ce4bhn92rcd13ifvqgrg","pricing_plan_id":"cebpf4jnsgd1na2vs0mg"},{"bike_id":"0f3b3449-d1c5-4bba-8693-844bae5a59a3","system_id":"levelo_inurba_marseille","lat":43.29031,"lon":5.38132,"is_reserved":false,"is_disabled":false,"rental_uris":{"android":"levelo://app?vid=0f3b3449-d1c5-4bba-8693-844bae5a59a3","ios":"levelo://app?vid=0f3b3449-d1c5-4bba-8693-844bae5a59a3"},"vehicle_type_id":"4","last_reported":1737360798,"current_range_meters":13600,"station_id":"ce4bh4p2rcd13ifvqe1g","pricing_plan_id":"cebpf4jnsgd1na2vs0mg"},{"bike_id":"3860f79b-6390-4baa-9962-103869425bc6","system_id":"levelo_inurba_marseille","lat":43.29904,"lon":5.43669,"is_reserved":false,"is_disabled":false,"rental_uris":{"android":"levelo://app?vid=3860f79b-6390-4baa-9962-103869425bc6","ios":"levelo://app?vid=3860f79b-6390-4baa-9962-103869425bc6"},"vehicle_type_id":"4","last_reported":1737360798,"current_range_meters":18000,"station_id":"ce4bhpp2rcd13ifvqhfg","pricing_plan_id":"cebpf4jnsgd1na2vs0mg"},{"bike_id":"097a7a3f-811c-4421-864c-117b6ce021ed","system_id":"levelo_inurba_marseille","lat":43.2904,"lon":5.39951,"is_reserved":false,"is_disabled":false,"rental_uris":{"android":"levelo://app?vid=097a7a3f-811c-4421-864c-117b6ce021ed","ios":"levelo://app?vid=097a7a3f-811c-4421-864c-117b6ce021ed"},"vehicle_type_id":"4","last_reported":1737360798,"current_range_meters":32800,"station_id":"ce4bh392rcd13ifvqdm0","pricing_plan_id":"cebpf4jnsgd1na2vs0mg"},{"bike_id":"9e3e75b7-e02c-4faa-a086-72240ba06acd","system_id":"levelo_inurba_marseille","lat":43.2603,"lon":5.37553,"is_reserved":false,"is_disabled":true,"rental_uris":{"android":"levelo://app?vid=9e3e75b7-e02c-4faa-a086-72240ba06acd","ios":"levelo://app?vid=9e3e75b7-e02c-4faa-a086-72240ba06acd"},"vehicle_type_id":"4","last_reported":1737360798,"current_range_meters":38400,"station_id":"ce4bhgh2rcd13ifvqfa0","pricing_plan_id":"cebpf4jnsgd1na2vs0mg"},{"bike_id":"018e6ec3-f68a-4719-8d6b-f169fbd23612","system_id":"levelo_inurba_marseille","lat":43.30094,"lon":5.37469,"is_reserved":false,"is_disabled":false,"rental_uris":{"android":"levelo://app?vid=018e6ec3-f68a-4719-8d6b-f169fbd23612","ios":"levelo://app?vid=018e6ec3-f68a-4719-8d6b-f169fbd23612"},"vehicle_type_id":"4","last_reported":1737360798,"current_range_meters":37600,"station_id":"","pricing_plan_id":"cebpf4jnsgd1na2vs0mg"},{"bike_id":"ca8aa51d-4833-4c77-8009-59b7c07323a3","system_id":"levelo_inurba_marseille","lat":43.32344,"lon":5.36742,"is_reserved":false,"is_disabled":false,"rental_uris":{"android":"levelo://app?vid=ca8aa51d-4833-4c77-8009-59b7c07323a3","ios":"levelo://app?vid=ca8aa51d-4833-4c77-8009-59b7c07323a3"},"vehicle_type_id":"4","last_reported":1737360798,"current_range_meters":33200,"station_id":"ce4bhsh2rcd13ifvqi2g","pricing_plan_id":"cebpf4jnsgd1na2vs0mg"},{"bike_id":"fea3d035-eb05-4214-8ec6-00cce9f7ce57","system_id":"levelo_inurba_marseille","lat":43.252634,"lon":5.401956,"is_reserved":false,"is_disabled":false,"rental_uris":{"android":"levelo://app?vid=fea3d035-eb05-4214-8ec6-00cce9f7ce57","ios":"levelo://app?vid=fea3d035-eb05-4214-8ec6-00cce9f7ce57"},"vehicle_type_id":"4","last_reported":1737360798,"current_range_meters":38800,"station_id":"ce4bhhp2rcd13ifvqfm0","pricing_plan_id":"cebpf4jnsgd1na2vs0mg"},{"bike_id":"03146cfa-d1c0-4f14-9819-384a2e47dd87","system_id":"levelo_inurba_marseille","lat":43.29927,"lon":5.38171,"is_reserved":false,"is_disabled":false,"rental_uris":{"android":"levelo://app?vid=03146cfa-d1c0-4f14-9819-384a2e47dd87","ios":"levelo://app?vid=03146cfa-d1c0-4f14-9819-384a2e47dd87"},"vehicle_type_id":"4","last_reported":1737360798,"current_range_meters":38800,"station_id":"ce4bgj12rcd13ifvqbc0","pricing_plan_id":"cebpf4jnsgd1na2vs0mg"},{"bike_id":"ce0ee56d-180c-40a7-8ee4-1ff6fa737784","system_id":"levelo_inurba_marseille","lat":43.29898,"lon":5.43661,"is_reserved":false,"is_disabled":false,"rental_uris":{"android":"levelo://app?vid=ce0ee56d-180c-40a7-8ee4-1ff6fa737784","ios":"levelo://app?vid=ce0ee56d-180c-40a7-8ee4-1ff6fa737784"},"vehicle_type_id":"4","last_reported":1737360798,"current_range_meters":38800,"station_id":"ce4bhpp2rcd13ifvqhfg","pricing_plan_id":"cebpf4jnsgd1na2vs0mg"},{"bike_id":"49edd341-1744-445c-b1f6-ec80c4f617c5","system_id":"levelo_inurba_marseille","lat":43.27055,"lon":5.42283,"is_reserved":false,"is_disabled":false,"rental_uris":{"android":"levelo://app?vid=49edd341-1744-445c-b1f6-ec80c4f617c5","ios":"levelo://app?vid=49edd341-1744-445c-b1f6-ec80c4f617c5"},"vehicle_type_id":"4","last_reported":1737360798,"current_range_meters":39200,"station_id":"ce4bhk92rcd13ifvqgb0","pricing_plan_id":"cebpf4jnsgd1na2vs0mg"},{"bike_id":"51379e9f-1ebd-43ee-bd84-6927ab606473","system_id":"levelo_inurba_marseille","lat":43.24167,"lon":5.36395,"is_reserved":false,"is_disabled":false,"rental_uris":{"android":"levelo://app?vid=51379e9f-1ebd-43ee-bd84-6927ab606473","ios":"levelo://app?vid=51379e9f-1ebd-43ee-bd84-6927ab606473"},"vehicle_type_id":"4","last_reported":1737360798,"current_range_meters":23200,"station_id":"cpo36qri1sfpv3e86is0","pricing_plan_id":"cebpf4jnsgd1na2vs0mg"},{"bike_id":"57d9fa47-e597-4ea4-913f-9b45079bd718","system_id":"levelo_inurba_marseille","lat":43.33002,"lon":5.39065,"is_reserved":false,"is_disabled":false,"rental_uris":{"android":"levelo://app?vid=57d9fa47-e597-4ea4-913f-9b45079bd718","ios":"levelo://app?vid=57d9fa47-e597-4ea4-913f-9b45079bd718"},"vehicle_type_id":"4","last_reported":1737360798,"current_range_meters":38800,"station_id":"ce4bhr92rcd13ifvqhrg","pricing_plan_id":"cebpf4jnsgd1na2vs0mg"},{"bike_id":"852f18ed-4f0e-4de5-a458-d3ed9592d34c","system_id":"levelo_inurba_marseille","lat":43.2408,"lon":5.37745,"is_reserved":false,"is_disabled":false,"rental_uris":{"android":"levelo://app?vid=852f18ed-4f0e-4de5-a458-d3ed9592d34c","ios":"levelo://app?vid=852f18ed-4f0e-4de5-a458-d3ed9592d34c"},"vehicle_type_id":"4","last_reported":1737360798,"current_range_meters":32000,"station_id":"ce4bhnp2rcd13ifvqgvg","pricing_plan_id":"cebpf4jnsgd1na2vs0mg"},{"bike_id":"a6817152-9db4-45be-84b1-a30b6bbc47cf","system_id":"levelo_inurba_marseille","lat":43.24181,"lon":5.39726,"is_reserved":false,"is_disabled":false,"rental_uris":{"android":"levelo://app?vid=a6817152-9db4-45be-84b1-a30b6bbc47cf","ios":"levelo://app?vid=a6817152-9db4-45be-84b1-a30b6bbc47cf"},"vehicle_type_id":"4","last_reported":1737360798,"current_range_meters":3600,"station_id":"ce4bhn12rcd13ifvqgpg","pricing_plan_id":"cebpf4jnsgd1na2vs0mg"},{"bike_id":"d7b57092-5089-4c4a-819e-bef9772d11d8","system_id":"levelo_inurba_marseille","lat":43.31782,"lon":5.37806,"is_reserved":false,"is_disabled":false,"rental_uris":{"android":"levelo://app?vid=d7b57092-5089-4c4a-819e-bef9772d11d8","ios":"levelo://app?vid=d7b57092-5089-4c4a-819e-bef9772d11d8"},"vehicle_type_id":"4","last_reported":1737360798,"current_range_meters":28800,"station_id":"","pricing_plan_id":"cebpf4jnsgd1na2vs0mg"},{"bike_id":"5afb1b34-649e-484c-811f-1250e2832b6a","system_id":"levelo_inurba_marseille","lat":43.26056,"lon":5.39406,"is_reserved":false,"is_disabled":true,"rental_uris":{"android":"levelo://app?vid=5afb1b34-649e-484c-811f-1250e2832b6a","ios":"levelo://app?vid=5afb1b34-649e-484c-811f-1250e2832b6a"},"vehicle_type_id":"4","last_reported":1737360798,"current_range_meters":39200,"station_id":"ce4bhh92rcd13ifvqfj0","pricing_plan_id":"cebpf4jnsgd1na2vs0mg"},{"bike_id":"970eacc2-5e8f-4753-aa3e-5d8cafb72393","system_id":"levelo_inurba_marseille","lat":43.25937,"lon":5.40894,"is_reserved":false,"is_disabled":false,"rental_uris":{"android":"levelo://app?vid=970eacc2-5e8f-4753-aa3e-5d8cafb72393","ios":"levelo://app?vid=970eacc2-5e8f-4753-aa3e-5d8cafb72393"},"vehicle_type_id":"4","last_reported":1737360798,"current_range_meters":32400,"station_id":"ce4bhm92rcd13ifvqglg","pricing_plan_id":"cebpf4jnsgd1na2vs0mg"},{"bike_id":"ae35589b-d85c-4f9a-b98c-9bc44748a230","system_id":"levelo_inurba_marseille","lat":43.25721,"lon":5.41111,"is_reserved":false,"is_disabled":false,"rental_uris":{"android":"levelo://app?vid=ae35589b-d85c-4f9a-b98c-9bc44748a230","ios":"levelo://app?vid=ae35589b-d85c-4f9a-b98c-9bc44748a230"},"vehicle_type_id":"4","last_reported":1737360798,"current_range_meters":16400,"station_id":"ce4bhkp2rcd13ifvqgd0","pricing_plan_id":"cebpf4jnsgd1na2vs0mg"},{"bike_id":"690db51c-a7a2-4ecc-b4f4-c069d27e1fc8","system_id":"levelo_inurba_marseille","lat":43.24078,"lon":5.37754,"is_reserved":false,"is_disabled":false,"rental_uris":{"android":"levelo://app?vid=690db51c-a7a2-4ecc-b4f4-c069d27e1fc8","ios":"levelo://app?vid=690db51c-a7a2-4ecc-b4f4-c069d27e1fc8"},"vehicle_type_id":"4","last_reported":1737360798,"current_range_meters":12800,"station_id":"ce4bhnp2rcd13ifvqgvg","pricing_plan_id":"cebpf4jnsgd1na2vs0mg"},{"bike_id":"4104cbba-088f-4383-b2a0-261d17699731","system_id":"levelo_inurba_marseille","lat":43.239626,"lon":5.366371,"is_reserved":false,"is_disabled":false,"rental_uris":{"android":"levelo://app?vid=4104cbba-088f-4383-b2a0-261d17699731","ios":"levelo://app?vid=4104cbba-088f-4383-b2a0-261d17699731"},"vehicle_type_id":"4","last_reported":1737360798,"current_range_meters":33200,"station_id":"ce4bhi12rcd13ifvqfp0","pricing_plan_id":"cebpf4jnsgd1na2vs0mg"},{"bike_id":"7be810f6-d21f-44ca-8f08-d9a4a9e1b082","system_id":"levelo_inurba_marseille","lat":43.32348,"lon":5.36741,"is_reserved":false,"is_disabled":false,"rental_uris":{"android":"levelo://app?vid=7be810f6-d21f-44ca-8f08-d9a4a9e1b082","ios":"levelo://app?vid=7be810f6-d21f-44ca-8f08-d9a4a9e1b082"},"vehicle_type_id":"4","last_reported":1737360798,"current_range_meters":11200,"station_id":"ce4bhsh2rcd13ifvqi2g","pricing_plan_id":"cebpf4jnsgd1na2vs0mg"},{"bike_id":"4e1c26c2-31fb-4d33-b29c-ef926d9dbfe0","system_id":"levelo_inurba_marseille","lat":43.29925,"lon":5.3748,"is_reserved":false,"is_disabled":false,"rental_uris":{"android":"levelo://app?vid=4e1c26c2-31fb-4d33-b29c-ef926d9dbfe0","ios":"levelo://app?vid=4e1c26c2-31fb-4d33-b29c-ef926d9dbfe0"},"vehicle_type_id":"4","last_reported":1737360798,"current_range_meters":30000,"station_id":"ce4bgjh2rcd13ifvqbg0","pricing_plan_id":"cebpf4jnsgd1na2vs0mg"},{"bike_id":"e769477c-b503-4bb8-b7d3-b7f7ff9ddf2d","system_id":"levelo_inurba_marseille","lat":43.29211,"lon":5.36887,"is_reserved":false,"is_disabled":false,"rental_uris":{"android":"levelo://app?vid=e769477c-b503-4bb8-b7d3-b7f7ff9ddf2d","ios":"levelo://app?vid=e769477c-b503-4bb8-b7d3-b7f7ff9ddf2d"},"vehicle_type_id":"4","last_reported":1737360798,"current_range_meters":16400,"station_id":"","pricing_plan_id":"cebpf4jnsgd1na2vs0mg"},{"bike_id":"87f748ae-200c-46f9-a87e-58da3bbaecae","system_id":"levelo_inurba_marseille","lat":43.3341,"lon":5.42936,"is_reserved":false,"is_disabled":false,"rental_uris":{"android":"levelo://app?vid=87f748ae-200c-46f9-a87e-58da3bbaecae","ios":"levelo://app?vid=87f748ae-200c-46f9-a87e-58da3bbaecae"},"vehicle_type_id":"4","last_reported":1737360798,"current_range_meters":24000,"station_id":"","pricing_plan_id":"cebpf4jnsgd1na2vs0mg"},{"bike_id":"28ef1c1e-dd89-43e8-817b-9b489831397b","system_id":"levelo_inurba_marseille","lat":43.27107,"lon":5.39631,"is_reserved":false,"is_disabled":true,"rental_uris":{"android":"levelo://app?vid=28ef1c1e-dd89-43e8-817b-9b489831397b","ios":"levelo://app?vid=28ef1c1e-dd89-43e8-817b-9b489831397b"},"vehicle_type_id":"4","last_reported":1737360798,"current_range_meters":0,"station_id":"","pricing_plan_id":"cebpf4jnsgd1na2vs0mg"},{"bike_id":"a090d58d-a1fb-4921-bd15-f1d1e2db9ea4","system_id":"levelo_inurba_marseille","lat":43.24182,"lon":5.39735,"is_reserved":false,"is_disabled":false,"rental_uris":{"android":"levelo://app?vid=a090d58d-a1fb-4921-bd15-f1d1e2db9ea4","ios":"levelo://app?vid=a090d58d-a1fb-4921-bd15-f1d1e2db9ea4"},"vehicle_type_id":"4","last_reported":1737360798,"current_range_meters":27600,"station_id":"ce4bhn12rcd13ifvqgpg","pricing_plan_id":"cebpf4jnsgd1na2vs0mg"},{"bike_id":"b8c33cc5-e538-44b1-a7f5-a0c6163b2176","system_id":"levelo_inurba_marseille","lat":43.27203,"lon":5.3918,"is_reserved":false,"is_disabled":true,"rental_uris":{"android":"levelo://app?vid=b8c33cc5-e538-44b1-a7f5-a0c6163b2176","ios":"levelo://app?vid=b8c33cc5-e538-44b1-a7f5-a0c6163b2176"},"vehicle_type_id":"4","last_reported":1737360798,"current_range_meters":26000,"station_id":"ce4bhhp2rcd13ifvqfm0","pricing_plan_id":"cebpf4jnsgd1na2vs0mg"},{"bike_id":"8a253589-66d2-437d-a390-3b4db2de6a94","system_id":"levelo_inurba_marseille","lat":43.2902,"lon":5.38128,"is_reserved":false,"is_disabled":false,"rental_uris":{"android":"levelo://app?vid=8a253589-66d2-437d-a390-3b4db2de6a94","ios":"levelo://app?vid=8a253589-66d2-437d-a390-3b4db2de6a94"},"vehicle_type_id":"4","last_reported":1737360798,"current_range_meters":28000,"station_id":"ce4bh4p2rcd13ifvqe1g","pricing_plan_id":"cebpf4jnsgd1na2vs0mg"},{"bike_id":"bbd6e56f-1a5f-4813-a7fd-d882eb94346c","system_id":"levelo_inurba_marseille","lat":43.3169,"lon":5.43713,"is_reserved":false,"is_disabled":true,"rental_uris":{"android":"levelo://app?vid=bbd6e56f-1a5f-4813-a7fd-d882eb94346c","ios":"levelo://app?vid=bbd6e56f-1a5f-4813-a7fd-d882eb94346c"},"vehicle_type_id":"4","last_reported":1737360798,"current_range_meters":20400,"station_id":"ce4bhp92rcd13ifvqhcg","pricing_plan_id":"cebpf4jnsgd1na2vs0mg"},{"bike_id":"357eaeda-fef2-41f2-9ad0-621ae2cc5c09","system_id":"levelo_inurba_marseille","lat":43.33753,"lon":5.37518,"is_reserved":false,"is_disabled":false,"rental_uris":{"android":"levelo://app?vid=357eaeda-fef2-41f2-9ad0-621ae2cc5c09","ios":"levelo://app?vid=357eaeda-fef2-41f2-9ad0-621ae2cc5c09"},"vehicle_type_id":"4","last_reported":1737360798,"current_range_meters":28800,"station_id":"","pricing_plan_id":"cebpf4jnsgd1na2vs0mg"},{"bike_id":"9591e31e-6673-4bff-8f50-6b7e82a6b9d7","system_id":"levelo_inurba_marseille","lat":43.24057,"lon":5.37765,"is_reserved":false,"is_disabled":false,"rental_uris":{"android":"levelo://app?vid=9591e31e-6673-4bff-8f50-6b7e82a6b9d7","ios":"levelo://app?vid=9591e31e-6673-4bff-8f50-6b7e82a6b9d7"},"vehicle_type_id":"4","last_reported":1737360798,"current_range_meters":39200,"station_id":"ce4bhnp2rcd13ifvqgvg","pricing_plan_id":"cebpf4jnsgd1na2vs0mg"},{"bike_id":"9973c6c9-95c6-48dd-a06a-64a27f6ed06e","system_id":"levelo_inurba_marseille","lat":43.28848,"lon":5.37314,"is_reserved":false,"is_disabled":true,"rental_uris":{"android":"levelo://app?vid=9973c6c9-95c6-48dd-a06a-64a27f6ed06e","ios":"levelo://app?vid=9973c6c9-95c6-48dd-a06a-64a27f6ed06e"},"vehicle_type_id":"4","last_reported":1737360798,"current_range_meters":28400,"station_id":"","pricing_plan_id":"cebpf4jnsgd1na2vs0mg"},{"bike_id":"4ca0c0a8-ebec-4495-a31b-51805b75ee6d","system_id":"levelo_inurba_marseille","lat":43.24645,"lon":5.38918,"is_reserved":false,"is_disabled":false,"rental_uris":{"android":"levelo://app?vid=4ca0c0a8-ebec-4495-a31b-51805b75ee6d","ios":"levelo://app?vid=4ca0c0a8-ebec-4495-a31b-51805b75ee6d"},"vehicle_type_id":"4","last_reported":1737360798,"current_range_meters":39200,"station_id":"ce4bhg12rcd13ifvqf60","pricing_plan_id":"cebpf4jnsgd1na2vs0mg"},{"bike_id":"59573d05-8b25-4d08-928a-2e522ea4e7a5","system_id":"levelo_inurba_marseille","lat":43.31162,"lon":5.3871,"is_reserved":false,"is_disabled":true,"rental_uris":{"android":"levelo://app?vid=59573d05-8b25-4d08-928a-2e522ea4e7a5","ios":"levelo://app?vid=59573d05-8b25-4d08-928a-2e522ea4e7a5"},"vehicle_type_id":"4","last_reported":1737360798,"current_range_meters":38800,"station_id":"ce4bgv12rcd13ifvqcp0","pricing_plan_id":"cebpf4jnsgd1na2vs0mg"},{"bike_id":"d714004e-0a5d-46dc-8f45-dcd4ee7c47a7","system_id":"levelo_inurba_marseille","lat":43.29536,"lon":5.37501,"is_reserved":false,"is_disabled":true,"rental_uris":{"android":"levelo://app?vid=d714004e-0a5d-46dc-8f45-dcd4ee7c47a7","ios":"levelo://app?vid=d714004e-0a5d-46dc-8f45-dcd4ee7c47a7"},"vehicle_type_id":"4","last_reported":1737360798,"current_range_meters":30400,"station_id":"ce4bgkp2rcd13ifvqbmg","pricing_plan_id":"cebpf4jnsgd1na2vs0mg"},{"bike_id":"d1fbee56-a8f7-4480-a4bd-ba66bb143867","system_id":"levelo_inurba_marseille","lat":43.30281,"lon":5.37693,"is_reserved":false,"is_disabled":false,"rental_uris":{"android":"levelo://app?vid=d1fbee56-a8f7-4480-a4bd-ba66bb143867","ios":"levelo://app?vid=d1fbee56-a8f7-4480-a4bd-ba66bb143867"},"vehicle_type_id":"4","last_reported":1737360798,"current_range_meters":37600,"station_id":"ce4bguh2rcd13ifvqcj0","pricing_plan_id":"cebpf4jnsgd1na2vs0mg"},{"bike_id":"7edfec00-4b2e-4f8f-84c8-80dc19a05f65","system_id":"levelo_inurba_marseille","lat":43.2668,"lon":5.38265,"is_reserved":false,"is_disabled":false,"rental_uris":{"android":"levelo://app?vid=7edfec00-4b2e-4f8f-84c8-80dc19a05f65","ios":"levelo://app?vid=7edfec00-4b2e-4f8f-84c8-80dc19a05f65"},"vehicle_type_id":"4","last_reported":1737360798,"current_range_meters":34800,"station_id":"ce4bhg92rcd13ifvqf90","pricing_plan_id":"cebpf4jnsgd1na2vs0mg"},{"bike_id":"d2420bec-3d56-4379-9c60-dccd464e9eac","system_id":"levelo_inurba_marseille","lat":43.266925,"lon":5.394119,"is_reserved":false,"is_disabled":false,"rental_uris":{"android":"levelo://app?vid=d2420bec-3d56-4379-9c60-dccd464e9eac","ios":"levelo://app?vid=d2420bec-3d56-4379-9c60-dccd464e9eac"},"vehicle_type_id":"4","last_reported":1737360798,"current_range_meters":17200,"station_id":"ce4bhh12rcd13ifvqfg0","pricing_plan_id":"cebpf4jnsgd1na2vs0mg"},{"bike_id":"5645ad9c-8592-4d50-b7bd-19710b53f2e9","system_id":"levelo_inurba_marseille","lat":43.31335,"lon":5.36731,"is_reserved":false,"is_disabled":true,"rental_uris":{"android":"levelo://app?vid=5645ad9c-8592-4d50-b7bd-19710b53f2e9","ios":"levelo://app?vid=5645ad9c-8592-4d50-b7bd-19710b53f2e9"},"vehicle_type_id":"4","last_reported":1737360798,"current_range_meters":30000,"station_id":"ce4bgr92rcd13ifvqc6g","pricing_plan_id":"cebpf4jnsgd1na2vs0mg"},{"bike_id":"01a07bd9-36a1-4c19-a88b-7c9e3a6ee490","system_id":"levelo_inurba_marseille","lat":43.25145,"lon":5.3946,"is_reserved":false,"is_disabled":false,"rental_uris":{"android":"levelo://app?vid=01a07bd9-36a1-4c19-a88b-7c9e3a6ee490","ios":"levelo://app?vid=01a07bd9-36a1-4c19-a88b-7c9e3a6ee490"},"vehicle_type_id":"4","last_reported":1737360798,"current_range_meters":29600,"station_id":"","pricing_plan_id":"cebpf4jnsgd1na2vs0mg"},{"bike_id":"b5714621-56f7-41fd-9073-233d6dac88fc","system_id":"levelo_inurba_marseille","lat":43.25821,"lon":5.39438,"is_reserved":false,"is_disabled":false,"rental_uris":{"android":"levelo://app?vid=b5714621-56f7-41fd-9073-233d6dac88fc","ios":"levelo://app?vid=b5714621-56f7-41fd-9073-233d6dac88fc"},"vehicle_type_id":"4","last_reported":1737360798,"current_range_meters":25200,"station_id":"ce4bhip2rcd13ifvqft0","pricing_plan_id":"cebpf4jnsgd1na2vs0mg"},{"bike_id":"e15fab48-1c22-4c3e-aef4-2c91960531b4","system_id":"levelo_inurba_marseille","lat":43.28991,"lon":5.37834,"is_reserved":false,"is_disabled":false,"rental_uris":{"android":"levelo://app?vid=e15fab48-1c22-4c3e-aef4-2c91960531b4","ios":"levelo://app?vid=e15fab48-1c22-4c3e-aef4-2c91960531b4"},"vehicle_type_id":"4","last_reported":1737360798,"current_range_meters":38400,"station_id":"ce4bh9p2rcd13ifvqed0","pricing_plan_id":"cebpf4jnsgd1na2vs0mg"},{"bike_id":"d751e749-afcd-4240-9c1e-54752c62ac8f","system_id":"levelo_inurba_marseille","lat":43.27493,"lon":5.42455,"is_reserved":false,"is_disabled":false,"rental_uris":{"android":"levelo://app?vid=d751e749-afcd-4240-9c1e-54752c62ac8f","ios":"levelo://app?vid=d751e749-afcd-4240-9c1e-54752c62ac8f"},"vehicle_type_id":"4","last_reported":1737360798,"current_range_meters":36800,"station_id":"ce4bhn92rcd13ifvqgrg","pricing_plan_id":"cebpf4jnsgd1na2vs0mg"},{"bike_id":"13e3fa39-2d05-4d2b-ba20-e8f0379cfbe6","system_id":"levelo_inurba_marseille","lat":43.3248,"lon":5.36563,"is_reserved":false,"is_disabled":false,"rental_uris":{"android":"levelo://app?vid=13e3fa39-2d05-4d2b-ba20-e8f0379cfbe6","ios":"levelo://app?vid=13e3fa39-2d05-4d2b-ba20-e8f0379cfbe6"},"vehicle_type_id":"4","last_reported":1737360798,"current_range_meters":16000,"station_id":"ce4bhs12rcd13ifvqhvg","pricing_plan_id":"cebpf4jnsgd1na2vs0mg"},{"bike_id":"1a531580-4efd-49f3-925f-81e7e3768874","system_id":"levelo_inurba_marseille","lat":43.25709,"lon":5.41089,"is_reserved":false,"is_disabled":false,"rental_uris":{"android":"levelo://app?vid=1a531580-4efd-49f3-925f-81e7e3768874","ios":"levelo://app?vid=1a531580-4efd-49f3-925f-81e7e3768874"},"vehicle_type_id":"4","last_reported":1737360798,"current_range_meters":38400,"station_id":"ce4bhkp2rcd13ifvqgd0","pricing_plan_id":"cebpf4jnsgd1na2vs0mg"},{"bike_id":"9af972b2-17c3-4aa9-9268-80d56c2cf43f","system_id":"levelo_inurba_marseille","lat":43.29247,"lon":5.4091,"is_reserved":false,"is_disabled":false,"rental_uris":{"android":"levelo://app?vid=9af972b2-17c3-4aa9-9268-80d56c2cf43f","ios":"levelo://app?vid=9af972b2-17c3-4aa9-9268-80d56c2cf43f"},"vehicle_type_id":"4","last_reported":1737360798,"current_range_meters":38800,"station_id":"ce4bh192rcd13ifvqdc0","pricing_plan_id":"cebpf4jnsgd1na2vs0mg"},{"bike_id":"524072f1-ace1-43cc-8007-f91dc732b1f7","system_id":"levelo_inurba_marseille","lat":43.25084,"lon":5.39513,"is_reserved":false,"is_disabled":false,"rental_uris":{"android":"levelo://app?vid=524072f1-ace1-43cc-8007-f91dc732b1f7","ios":"levelo://app?vid=524072f1-ace1-43cc-8007-f91dc732b1f7"},"vehicle_type_id":"4","last_reported":1737360798,"current_range_meters":27600,"station_id":"ce4bhm12rcd13ifvqgkg","pricing_plan_id":"cebpf4jnsgd1na2vs0mg"},{"bike_id":"c42268c0-a5e0-42b8-b874-93ef21576df8","system_id":"levelo_inurba_marseille","lat":43.281514,"lon":5.426434,"is_reserved":false,"is_disabled":false,"rental_uris":{"android":"levelo://app?vid=c42268c0-a5e0-42b8-b874-93ef21576df8","ios":"levelo://app?vid=c42268c0-a5e0-42b8-b874-93ef21576df8"},"vehicle_type_id":"4","last_reported":1737360798,"current_range_meters":24400,"station_id":"ce4bhnh2rcd13ifvqgug","pricing_plan_id":"cebpf4jnsgd1na2vs0mg"},{"bike_id":"77192f79-2b12-4ff4-874e-f5cab7df388a","system_id":"levelo_inurba_marseille","lat":43.2842,"lon":5.34991,"is_reserved":false,"is_disabled":true,"rental_uris":{"android":"levelo://app?vid=77192f79-2b12-4ff4-874e-f5cab7df388a","ios":"levelo://app?vid=77192f79-2b12-4ff4-874e-f5cab7df388a"},"vehicle_type_id":"4","last_reported":1737360798,"current_range_meters":34000,"station_id":"ce4bhbh2rcd13ifvqepg","pricing_plan_id":"cebpf4jnsgd1na2vs0mg"},{"bike_id":"0f2743d1-4d5e-4f5d-80a9-2ff55d9ea33b","system_id":"levelo_inurba_marseille","lat":43.24069,"lon":5.37765,"is_reserved":false,"is_disabled":true,"rental_uris":{"android":"levelo://app?vid=0f2743d1-4d5e-4f5d-80a9-2ff55d9ea33b","ios":"levelo://app?vid=0f2743d1-4d5e-4f5d-80a9-2ff55d9ea33b"},"vehicle_type_id":"4","last_reported":1737360798,"current_range_meters":33600,"station_id":"ce4bhnp2rcd13ifvqgvg","pricing_plan_id":"cebpf4jnsgd1na2vs0mg"},{"bike_id":"f6477394-37ad-474b-869e-23ecf9fee49a","system_id":"levelo_inurba_marseille","lat":43.24178,"lon":5.39731,"is_reserved":false,"is_disabled":false,"rental_uris":{"android":"levelo://app?vid=f6477394-37ad-474b-869e-23ecf9fee49a","ios":"levelo://app?vid=f6477394-37ad-474b-869e-23ecf9fee49a"},"vehicle_type_id":"4","last_reported":1737360798,"current_range_meters":27200,"station_id":"ce4bhn12rcd13ifvqgpg","pricing_plan_id":"cebpf4jnsgd1na2vs0mg"},{"bike_id":"4291632b-b89c-4c47-8e03-1ac2c74e4815","system_id":"levelo_inurba_marseille","lat":43.24166,"lon":5.3974,"is_reserved":false,"is_disabled":false,"rental_uris":{"android":"levelo://app?vid=4291632b-b89c-4c47-8e03-1ac2c74e4815","ios":"levelo://app?vid=4291632b-b89c-4c47-8e03-1ac2c74e4815"},"vehicle_type_id":"4","last_reported":1737360798,"current_range_meters":35600,"station_id":"ce4bhn12rcd13ifvqgpg","pricing_plan_id":"cebpf4jnsgd1na2vs0mg"},{"bike_id":"30413a28-f6e8-4ebb-b8a3-7197fc2abd3d","system_id":"levelo_inurba_marseille","lat":43.24069,"lon":5.37767,"is_reserved":false,"is_disabled":true,"rental_uris":{"android":"levelo://app?vid=30413a28-f6e8-4ebb-b8a3-7197fc2abd3d","ios":"levelo://app?vid=30413a28-f6e8-4ebb-b8a3-7197fc2abd3d"},"vehicle_type_id":"4","last_reported":1737360798,"current_range_meters":14800,"station_id":"ce4bhnp2rcd13ifvqgvg","pricing_plan_id":"cebpf4jnsgd1na2vs0mg"},{"bike_id":"2c2f029b-75ba-4beb-9e9a-38c9bd9c6b19","system_id":"levelo_inurba_marseille","lat":43.29601,"lon":5.37147,"is_reserved":false,"is_disabled":true,"rental_uris":{"android":"levelo://app?vid=2c2f029b-75ba-4beb-9e9a-38c9bd9c6b19","ios":"levelo://app?vid=2c2f029b-75ba-4beb-9e9a-38c9bd9c6b19"},"vehicle_type_id":"4","last_reported":1737360798,"current_range_meters":25200,"station_id":"ce4bgnh2rcd13ifvqc0g","pricing_plan_id":"cebpf4jnsgd1na2vs0mg"},{"bike_id":"5c355f1f-2346-434b-b0b1-1dbab4b16da7","system_id":"levelo_inurba_marseille","lat":43.30919,"lon":5.36851,"is_reserved":false,"is_disabled":false,"rental_uris":{"android":"levelo://app?vid=5c355f1f-2346-434b-b0b1-1dbab4b16da7","ios":"levelo://app?vid=5c355f1f-2346-434b-b0b1-1dbab4b16da7"},"vehicle_type_id":"4","last_reported":1737360798,"current_range_meters":16000,"station_id":"ce4bgn92rcd13ifvqbvg","pricing_plan_id":"cebpf4jnsgd1na2vs0mg"},{"bike_id":"a928f3f8-500f-4949-9198-e59e77dfdb5f","system_id":"levelo_inurba_marseille","lat":43.25026,"lon":5.38921,"is_reserved":false,"is_disabled":false,"rental_uris":{"android":"levelo://app?vid=a928f3f8-500f-4949-9198-e59e77dfdb5f","ios":"levelo://app?vid=a928f3f8-500f-4949-9198-e59e77dfdb5f"},"vehicle_type_id":"4","last_reported":1737360798,"current_range_meters":25200,"station_id":"ce4bhgp2rcd13ifvqfd0","pricing_plan_id":"cebpf4jnsgd1na2vs0mg"},{"bike_id":"0897e627-1690-4b1c-984d-29cb463c9770","system_id":"levelo_inurba_marseille","lat":43.31877,"lon":5.40742,"is_reserved":false,"is_disabled":true,"rental_uris":{"android":"levelo://app?vid=0897e627-1690-4b1c-984d-29cb463c9770","ios":"levelo://app?vid=0897e627-1690-4b1c-984d-29cb463c9770"},"vehicle_type_id":"4","last_reported":1737360798,"current_range_meters":0,"station_id":"ce4bhq12rcd13ifvqhig","pricing_plan_id":"cebpf4jnsgd1na2vs0mg"},{"bike_id":"80bcc3e7-77de-44a5-8965-f19acb6d7452","system_id":"levelo_inurba_marseille","lat":43.33034,"lon":5.39045,"is_reserved":false,"is_disabled":false,"rental_uris":{"android":"levelo://app?vid=80bcc3e7-77de-44a5-8965-f19acb6d7452","ios":"levelo://app?vid=80bcc3e7-77de-44a5-8965-f19acb6d7452"},"vehicle_type_id":"4","last_reported":1737360798,"current_range_meters":38800,"station_id":"ce4bhr92rcd13ifvqhrg","pricing_plan_id":"cebpf4jnsgd1na2vs0mg"},{"bike_id":"6f2577d2-70b8-4845-b5b9-b8ee004783df","system_id":"levelo_inurba_marseille","lat":43.24085,"lon":5.3773,"is_reserved":false,"is_disabled":false,"rental_uris":{"android":"levelo://app?vid=6f2577d2-70b8-4845-b5b9-b8ee004783df","ios":"levelo://app?vid=6f2577d2-70b8-4845-b5b9-b8ee004783df"},"vehicle_type_id":"4","last_reported":1737360798,"current_range_meters":22000,"station_id":"ce4bhnp2rcd13ifvqgvg","pricing_plan_id":"cebpf4jnsgd1na2vs0mg"},{"bike_id":"f4a4a406-b0a5-42fc-9236-32e93ac6f6b2","system_id":"levelo_inurba_marseille","lat":43.231531,"lon":5.437011,"is_reserved":false,"is_disabled":true,"rental_uris":{"android":"levelo://app?vid=f4a4a406-b0a5-42fc-9236-32e93ac6f6b2","ios":"levelo://app?vid=f4a4a406-b0a5-42fc-9236-32e93ac6f6b2"},"vehicle_type_id":"4","last_reported":1737360798,"current_range_meters":22800,"station_id":"ce4bhmp2rcd13ifvqgog","pricing_plan_id":"cebpf4jnsgd1na2vs0mg"},{"bike_id":"2fdc854c-2f5a-4a11-ba5b-dbe1296c5649","system_id":"levelo_inurba_marseille","lat":43.30654,"lon":5.40075,"is_reserved":false,"is_disabled":false,"rental_uris":{"android":"levelo://app?vid=2fdc854c-2f5a-4a11-ba5b-dbe1296c5649","ios":"levelo://app?vid=2fdc854c-2f5a-4a11-ba5b-dbe1296c5649"},"vehicle_type_id":"4","last_reported":1737360798,"current_range_meters":39200,"station_id":"ce4bh112rcd13ifvqda0","pricing_plan_id":"cebpf4jnsgd1na2vs0mg"},{"bike_id":"210ffe2d-27bf-471a-a897-ba0eb55d9e2b","system_id":"levelo_inurba_marseille","lat":43.27075,"lon":5.42282,"is_reserved":false,"is_disabled":false,"rental_uris":{"android":"levelo://app?vid=210ffe2d-27bf-471a-a897-ba0eb55d9e2b","ios":"levelo://app?vid=210ffe2d-27bf-471a-a897-ba0eb55d9e2b"},"vehicle_type_id":"4","last_reported":1737360798,"current_range_meters":30800,"station_id":"ce4bhk92rcd13ifvqgb0","pricing_plan_id":"cebpf4jnsgd1na2vs0mg"},{"bike_id":"4dad667a-f851-4907-807e-98985f179550","system_id":"levelo_inurba_marseille","lat":43.305411,"lon":5.366993,"is_reserved":false,"is_disabled":false,"rental_uris":{"android":"levelo://app?vid=4dad667a-f851-4907-807e-98985f179550","ios":"levelo://app?vid=4dad667a-f851-4907-807e-98985f179550"},"vehicle_type_id":"4","last_reported":1737360798,"current_range_meters":7200,"station_id":"ce4bgrp2rcd13ifvqc9g","pricing_plan_id":"cebpf4jnsgd1na2vs0mg"},{"bike_id":"e16bfad3-6e5c-42b6-90cd-e77c51d0ba6a","system_id":"levelo_inurba_marseille","lat":43.29907,"lon":5.38143,"is_reserved":false,"is_disabled":true,"rental_uris":{"android":"levelo://app?vid=e16bfad3-6e5c-42b6-90cd-e77c51d0ba6a","ios":"levelo://app?vid=e16bfad3-6e5c-42b6-90cd-e77c51d0ba6a"},"vehicle_type_id":"4","last_reported":1737360798,"current_range_meters":15200,"station_id":"ce4bgj12rcd13ifvqbc0","pricing_plan_id":"cebpf4jnsgd1na2vs0mg"},{"bike_id":"809d4b81-6c4b-4748-a70e-8504aaed0324","system_id":"levelo_inurba_marseille","lat":43.2454,"lon":5.3733,"is_reserved":false,"is_disabled":false,"rental_uris":{"android":"levelo://app?vid=809d4b81-6c4b-4748-a70e-8504aaed0324","ios":"levelo://app?vid=809d4b81-6c4b-4748-a70e-8504aaed0324"},"vehicle_type_id":"4","last_reported":1737360798,"current_range_meters":21600,"station_id":"","pricing_plan_id":"cebpf4jnsgd1na2vs0mg"},{"bike_id":"acedcb23-de95-406a-89f8-5a70e7654940","system_id":"levelo_inurba_marseille","lat":43.28843,"lon":5.35859,"is_reserved":false,"is_disabled":true,"rental_uris":{"android":"levelo://app?vid=acedcb23-de95-406a-89f8-5a70e7654940","ios":"levelo://app?vid=acedcb23-de95-406a-89f8-5a70e7654940"},"vehicle_type_id":"4","last_reported":1737360798,"current_range_meters":39200,"station_id":"ce4bhb12rcd13ifvqem0","pricing_plan_id":"cebpf4jnsgd1na2vs0mg"},{"bike_id":"61b36820-b145-4e18-b82e-a849a960d49b","system_id":"levelo_inurba_marseille","lat":43.28721,"lon":5.3794,"is_reserved":false,"is_disabled":false,"rental_uris":{"android":"levelo://app?vid=61b36820-b145-4e18-b82e-a849a960d49b","ios":"levelo://app?vid=61b36820-b145-4e18-b82e-a849a960d49b"},"vehicle_type_id":"4","last_reported":1737360798,"current_range_meters":16400,"station_id":"ce4bh9p2rcd13ifvqec0","pricing_plan_id":"cebpf4jnsgd1na2vs0mg"},{"bike_id":"50343fe7-b049-4115-b6cd-1d192f0464f8","system_id":"levelo_inurba_marseille","lat":43.2583,"lon":5.39411,"is_reserved":false,"is_disabled":false,"rental_uris":{"android":"levelo://app?vid=50343fe7-b049-4115-b6cd-1d192f0464f8","ios":"levelo://app?vid=50343fe7-b049-4115-b6cd-1d192f0464f8"},"vehicle_type_id":"4","last_reported":1737360798,"current_range_meters":39200,"station_id":"ce4bhip2rcd13ifvqft0","pricing_plan_id":"cebpf4jnsgd1na2vs0mg"},{"bike_id":"cabc6bad-8b1b-43d7-9c91-7ab7b5e05aa2","system_id":"levelo_inurba_marseille","lat":43.27478,"lon":5.4247,"is_reserved":false,"is_disabled":false,"rental_uris":{"android":"levelo://app?vid=cabc6bad-8b1b-43d7-9c91-7ab7b5e05aa2","ios":"levelo://app?vid=cabc6bad-8b1b-43d7-9c91-7ab7b5e05aa2"},"vehicle_type_id":"4","last_reported":1737360798,"current_range_meters":32400,"station_id":"ce4bhn92rcd13ifvqgrg","pricing_plan_id":"cebpf4jnsgd1na2vs0mg"},{"bike_id":"af458128-3a15-449d-adc5-fecdf8732629","system_id":"levelo_inurba_marseille","lat":43.2833,"lon":5.38097,"is_reserved":false,"is_disabled":false,"rental_uris":{"android":"levelo://app?vid=af458128-3a15-449d-adc5-fecdf8732629","ios":"levelo://app?vid=af458128-3a15-449d-adc5-fecdf8732629"},"vehicle_type_id":"4","last_reported":1737360798,"current_range_meters":16800,"station_id":"ce4bh412rcd13ifvqdr0","pricing_plan_id":"cebpf4jnsgd1na2vs0mg"},{"bike_id":"28c5dac0-7f56-4120-8993-2baa3e59ebdd","system_id":"levelo_inurba_marseille","lat":43.304533,"lon":5.378767,"is_reserved":false,"is_disabled":false,"rental_uris":{"android":"levelo://app?vid=28c5dac0-7f56-4120-8993-2baa3e59ebdd","ios":"levelo://app?vid=28c5dac0-7f56-4120-8993-2baa3e59ebdd"},"vehicle_type_id":"4","last_reported":1737360798,"current_range_meters":27200,"station_id":"ce4bgup2rcd13ifvqcn0","pricing_plan_id":"cebpf4jnsgd1na2vs0mg"},{"bike_id":"43ab6a6e-18b0-45a2-bdfd-26946078537a","system_id":"levelo_inurba_marseille","lat":43.24988,"lon":5.3893,"is_reserved":false,"is_disabled":false,"rental_uris":{"android":"levelo://app?vid=43ab6a6e-18b0-45a2-bdfd-26946078537a","ios":"levelo://app?vid=43ab6a6e-18b0-45a2-bdfd-26946078537a"},"vehicle_type_id":"4","last_reported":1737360798,"current_range_meters":38400,"station_id":"ce4bhgp2rcd13ifvqfd0","pricing_plan_id":"cebpf4jnsgd1na2vs0mg"},{"bike_id":"9ab67adb-321b-4a82-805c-9fd59d93d937","system_id":"levelo_inurba_marseille","lat":43.26963,"lon":5.38633,"is_reserved":false,"is_disabled":false,"rental_uris":{"android":"levelo://app?vid=9ab67adb-321b-4a82-805c-9fd59d93d937","ios":"levelo://app?vid=9ab67adb-321b-4a82-805c-9fd59d93d937"},"vehicle_type_id":"4","last_reported":1737360798,"current_range_meters":22400,"station_id":"ce4bhh92rcd13ifvqfh0","pricing_plan_id":"cebpf4jnsgd1na2vs0mg"},{"bike_id":"132fc87b-66f8-4145-b00b-51e6e69ffe9b","system_id":"levelo_inurba_marseille","lat":43.29041,"lon":5.39954,"is_reserved":false,"is_disabled":false,"rental_uris":{"android":"levelo://app?vid=132fc87b-66f8-4145-b00b-51e6e69ffe9b","ios":"levelo://app?vid=132fc87b-66f8-4145-b00b-51e6e69ffe9b"},"vehicle_type_id":"4","last_reported":1737360798,"current_range_meters":6000,"station_id":"ce4bh392rcd13ifvqdm0","pricing_plan_id":"cebpf4jnsgd1na2vs0mg"},{"bike_id":"b69f7b86-d90e-491b-a17d-ddcffba66e34","system_id":"levelo_inurba_marseille","lat":43.29608,"lon":5.37725,"is_reserved":false,"is_disabled":false,"rental_uris":{"android":"levelo://app?vid=b69f7b86-d90e-491b-a17d-ddcffba66e34","ios":"levelo://app?vid=b69f7b86-d90e-491b-a17d-ddcffba66e34"},"vehicle_type_id":"4","last_reported":1737360798,"current_range_meters":38800,"station_id":"ce4bgi92rcd13ifvqb90","pricing_plan_id":"cebpf4jnsgd1na2vs0mg"},{"bike_id":"427adfa9-113c-4817-9db8-65205ccf4edf","system_id":"levelo_inurba_marseille","lat":43.31691,"lon":5.40458,"is_reserved":false,"is_disabled":false,"rental_uris":{"android":"levelo://app?vid=427adfa9-113c-4817-9db8-65205ccf4edf","ios":"levelo://app?vid=427adfa9-113c-4817-9db8-65205ccf4edf"},"vehicle_type_id":"4","last_reported":1737360798,"current_range_meters":38800,"station_id":"ce4bh012rcd13ifvqd00","pricing_plan_id":"cebpf4jnsgd1na2vs0mg"},{"bike_id":"d537bc5e-d3a5-4d6b-9dec-887f1a4cbdf9","system_id":"levelo_inurba_marseille","lat":43.32471,"lon":5.36581,"is_reserved":false,"is_disabled":false,"rental_uris":{"android":"levelo://app?vid=d537bc5e-d3a5-4d6b-9dec-887f1a4cbdf9","ios":"levelo://app?vid=d537bc5e-d3a5-4d6b-9dec-887f1a4cbdf9"},"vehicle_type_id":"4","last_reported":1737360798,"current_range_meters":22400,"station_id":"ce4bhs12rcd13ifvqhvg","pricing_plan_id":"cebpf4jnsgd1na2vs0mg"},{"bike_id":"3eefd8c6-4cdf-47fa-9ddb-2ce61a76ff5d","system_id":"levelo_inurba_marseille","lat":43.27493,"lon":5.42462,"is_reserved":false,"is_disabled":false,"rental_uris":{"android":"levelo://app?vid=3eefd8c6-4cdf-47fa-9ddb-2ce61a76ff5d","ios":"levelo://app?vid=3eefd8c6-4cdf-47fa-9ddb-2ce61a76ff5d"},"vehicle_type_id":"4","last_reported":1737360798,"current_range_meters":30400,"station_id":"ce4bhn92rcd13ifvqgrg","pricing_plan_id":"cebpf4jnsgd1na2vs0mg"},{"bike_id":"5759774f-56fe-4ef4-9310-4288813407ac","system_id":"levelo_inurba_marseille","lat":43.2406,"lon":5.3774,"is_reserved":false,"is_disabled":false,"rental_uris":{"android":"levelo://app?vid=5759774f-56fe-4ef4-9310-4288813407ac","ios":"levelo://app?vid=5759774f-56fe-4ef4-9310-4288813407ac"},"vehicle_type_id":"4","last_reported":1737360798,"current_range_meters":14000,"station_id":"ce4bhnp2rcd13ifvqgvg","pricing_plan_id":"cebpf4jnsgd1na2vs0mg"},{"bike_id":"56b8e9bc-f750-4815-bc98-9098414d16db","system_id":"levelo_inurba_marseille","lat":43.23199,"lon":5.35546,"is_reserved":false,"is_disabled":true,"rental_uris":{"android":"levelo://app?vid=56b8e9bc-f750-4815-bc98-9098414d16db","ios":"levelo://app?vid=56b8e9bc-f750-4815-bc98-9098414d16db"},"vehicle_type_id":"4","last_reported":1737360798,"current_range_meters":0,"station_id":"ce4bhu92rcd13ifvqi70","pricing_plan_id":"cebpf4jnsgd1na2vs0mg"},{"bike_id":"0e91b70c-1e42-4d65-a90a-72cbd40954b0","system_id":"levelo_inurba_marseille","lat":43.32352,"lon":5.36748,"is_reserved":false,"is_disabled":false,"rental_uris":{"android":"levelo://app?vid=0e91b70c-1e42-4d65-a90a-72cbd40954b0","ios":"levelo://app?vid=0e91b70c-1e42-4d65-a90a-72cbd40954b0"},"vehicle_type_id":"4","last_reported":1737360798,"current_range_meters":38400,"station_id":"ce4bhsh2rcd13ifvqi2g","pricing_plan_id":"cebpf4jnsgd1na2vs0mg"},{"bike_id":"809cb738-c150-49d8-8dbb-7ac1d2ee4312","system_id":"levelo_inurba_marseille","lat":43.30192,"lon":5.36582,"is_reserved":false,"is_disabled":false,"rental_uris":{"android":"levelo://app?vid=809cb738-c150-49d8-8dbb-7ac1d2ee4312","ios":"levelo://app?vid=809cb738-c150-49d8-8dbb-7ac1d2ee4312"},"vehicle_type_id":"4","last_reported":1737360798,"current_range_meters":38400,"station_id":"ce4bgrh2rcd13ifvqc8g","pricing_plan_id":"cebpf4jnsgd1na2vs0mg"},{"bike_id":"8a330d55-00fb-48dc-8a23-d21b441d9098","system_id":"levelo_inurba_marseille","lat":43.26952,"lon":5.38638,"is_reserved":false,"is_disabled":false,"rental_uris":{"android":"levelo://app?vid=8a330d55-00fb-48dc-8a23-d21b441d9098","ios":"levelo://app?vid=8a330d55-00fb-48dc-8a23-d21b441d9098"},"vehicle_type_id":"4","last_reported":1737360798,"current_range_meters":24800,"station_id":"ce4bhh92rcd13ifvqfh0","pricing_plan_id":"cebpf4jnsgd1na2vs0mg"},{"bike_id":"7f6908f7-cfcb-4080-a4c3-d5b221bf885b","system_id":"levelo_inurba_marseille","lat":43.32005,"lon":5.41578,"is_reserved":false,"is_disabled":true,"rental_uris":{"android":"levelo://app?vid=7f6908f7-cfcb-4080-a4c3-d5b221bf885b","ios":"levelo://app?vid=7f6908f7-cfcb-4080-a4c3-d5b221bf885b"},"vehicle_type_id":"4","last_reported":1737360798,"current_range_meters":0,"station_id":"ce4bhq92rcd13ifvqhkg","pricing_plan_id":"cebpf4jnsgd1na2vs0mg"},{"bike_id":"146a0fc6-102c-4b68-8436-40e86162d01b","system_id":"levelo_inurba_marseille","lat":43.25941,"lon":5.40901,"is_reserved":false,"is_disabled":false,"rental_uris":{"android":"levelo://app?vid=146a0fc6-102c-4b68-8436-40e86162d01b","ios":"levelo://app?vid=146a0fc6-102c-4b68-8436-40e86162d01b"},"vehicle_type_id":"4","last_reported":1737360798,"current_range_meters":36400,"station_id":"ce4bhm92rcd13ifvqglg","pricing_plan_id":"cebpf4jnsgd1na2vs0mg"},{"bike_id":"7032c95d-bd0d-445f-85a6-06dc9dc7f5e9","system_id":"levelo_inurba_marseille","lat":43.2909,"lon":5.38135,"is_reserved":false,"is_disabled":false,"rental_uris":{"android":"levelo://app?vid=7032c95d-bd0d-445f-85a6-06dc9dc7f5e9","ios":"levelo://app?vid=7032c95d-bd0d-445f-85a6-06dc9dc7f5e9"},"vehicle_type_id":"4","last_reported":1737360798,"current_range_meters":37600,"station_id":"ce4bh512rcd13ifvqe2g","pricing_plan_id":"cebpf4jnsgd1na2vs0mg"},{"bike_id":"02f25583-5bae-4143-b3b2-7b8d3f3e60d9","system_id":"levelo_inurba_marseille","lat":43.28477,"lon":5.38437,"is_reserved":false,"is_disabled":true,"rental_uris":{"android":"levelo://app?vid=02f25583-5bae-4143-b3b2-7b8d3f3e60d9","ios":"levelo://app?vid=02f25583-5bae-4143-b3b2-7b8d3f3e60d9"},"vehicle_type_id":"4","last_reported":1737360798,"current_range_meters":32400,"station_id":"ce4bh512rcd13ifvqe3g","pricing_plan_id":"cebpf4jnsgd1na2vs0mg"},{"bike_id":"1329f425-331c-4e17-b17c-d200df277dd0","system_id":"levelo_inurba_marseille","lat":43.29535,"lon":5.37507,"is_reserved":false,"is_disabled":false,"rental_uris":{"android":"levelo://app?vid=1329f425-331c-4e17-b17c-d200df277dd0","ios":"levelo://app?vid=1329f425-331c-4e17-b17c-d200df277dd0"},"vehicle_type_id":"4","last_reported":1737360798,"current_range_meters":25200,"station_id":"ce4bgkp2rcd13ifvqbmg","pricing_plan_id":"cebpf4jnsgd1na2vs0mg"},{"bike_id":"22465212-93af-4e0b-b803-6ee82bba56d5","system_id":"levelo_inurba_marseille","lat":43.33759,"lon":5.3748,"is_reserved":false,"is_disabled":false,"rental_uris":{"android":"levelo://app?vid=22465212-93af-4e0b-b803-6ee82bba56d5","ios":"levelo://app?vid=22465212-93af-4e0b-b803-6ee82bba56d5"},"vehicle_type_id":"4","last_reported":1737360798,"current_range_meters":24800,"station_id":"","pricing_plan_id":"cebpf4jnsgd1na2vs0mg"},{"bike_id":"d6d1604c-c524-40c9-b4a5-227697805b64","system_id":"levelo_inurba_marseille","lat":43.29881,"lon":5.39768,"is_reserved":false,"is_disabled":true,"rental_uris":{"android":"levelo://app?vid=d6d1604c-c524-40c9-b4a5-227697805b64","ios":"levelo://app?vid=d6d1604c-c524-40c9-b4a5-227697805b64"},"vehicle_type_id":"4","last_reported":1737360798,"current_range_meters":0,"station_id":"ce4bh0h2rcd13ifvqd50","pricing_plan_id":"cebpf4jnsgd1na2vs0mg"},{"bike_id":"48296075-65f0-4f2d-bc40-de3e02ade20f","system_id":"levelo_inurba_marseille","lat":43.28347,"lon":5.38106,"is_reserved":false,"is_disabled":false,"rental_uris":{"android":"levelo://app?vid=48296075-65f0-4f2d-bc40-de3e02ade20f","ios":"levelo://app?vid=48296075-65f0-4f2d-bc40-de3e02ade20f"},"vehicle_type_id":"4","last_reported":1737360798,"current_range_meters":8400,"station_id":"ce4bh412rcd13ifvqdr0","pricing_plan_id":"cebpf4jnsgd1na2vs0mg"},{"bike_id":"4ea4fc18-e318-4026-bf3a-0d337c6435d6","system_id":"levelo_inurba_marseille","lat":43.30422,"lon":5.39745,"is_reserved":false,"is_disabled":false,"rental_uris":{"android":"levelo://app?vid=4ea4fc18-e318-4026-bf3a-0d337c6435d6","ios":"levelo://app?vid=4ea4fc18-e318-4026-bf3a-0d337c6435d6"},"vehicle_type_id":"4","last_reported":1737360798,"current_range_meters":4400,"station_id":"ce4bh092rcd13ifvqd20","pricing_plan_id":"cebpf4jnsgd1na2vs0mg"},{"bike_id":"516bf64b-0596-4300-8776-2924910960a4","system_id":"levelo_inurba_marseille","lat":43.28724,"lon":5.37945,"is_reserved":false,"is_disabled":true,"rental_uris":{"android":"levelo://app?vid=516bf64b-0596-4300-8776-2924910960a4","ios":"levelo://app?vid=516bf64b-0596-4300-8776-2924910960a4"},"vehicle_type_id":"4","last_reported":1737360798,"current_range_meters":0,"station_id":"ce4bh9p2rcd13ifvqec0","pricing_plan_id":"cebpf4jnsgd1na2vs0mg"},{"bike_id":"7944f103-435e-484a-8b2c-2f4ab0a687c2","system_id":"levelo_inurba_marseille","lat":43.24084,"lon":5.37748,"is_reserved":false,"is_disabled":false,"rental_uris":{"android":"levelo://app?vid=7944f103-435e-484a-8b2c-2f4ab0a687c2","ios":"levelo://app?vid=7944f103-435e-484a-8b2c-2f4ab0a687c2"},"vehicle_type_id":"4","last_reported":1737360798,"current_range_meters":5600,"station_id":"ce4bhnp2rcd13ifvqgvg","pricing_plan_id":"cebpf4jnsgd1na2vs0mg"},{"bike_id":"f50183e4-71ca-412a-b3a0-01a0e393ecef","system_id":"levelo_inurba_marseille","lat":43.28148,"lon":5.42643,"is_reserved":false,"is_disabled":false,"rental_uris":{"android":"levelo://app?vid=f50183e4-71ca-412a-b3a0-01a0e393ecef","ios":"levelo://app?vid=f50183e4-71ca-412a-b3a0-01a0e393ecef"},"vehicle_type_id":"4","last_reported":1737360798,"current_range_meters":26800,"station_id":"ce4bhnh2rcd13ifvqgug","pricing_plan_id":"cebpf4jnsgd1na2vs0mg"},{"bike_id":"06815d35-757d-4280-814a-8dba22433ced","system_id":"levelo_inurba_marseille","lat":43.27066,"lon":5.42282,"is_reserved":false,"is_disabled":false,"rental_uris":{"android":"levelo://app?vid=06815d35-757d-4280-814a-8dba22433ced","ios":"levelo://app?vid=06815d35-757d-4280-814a-8dba22433ced"},"vehicle_type_id":"4","last_reported":1737360798,"current_range_meters":36800,"station_id":"ce4bhk92rcd13ifvqgb0","pricing_plan_id":"cebpf4jnsgd1na2vs0mg"},{"bike_id":"34ecc71f-0703-49b4-8e54-6736336974d6","system_id":"levelo_inurba_marseille","lat":43.31438,"lon":5.40318,"is_reserved":false,"is_disabled":false,"rental_uris":{"android":"levelo://app?vid=34ecc71f-0703-49b4-8e54-6736336974d6","ios":"levelo://app?vid=34ecc71f-0703-49b4-8e54-6736336974d6"},"vehicle_type_id":"4","last_reported":1737360798,"current_range_meters":17200,"station_id":"ce4bhq12rcd13ifvqhig","pricing_plan_id":"cebpf4jnsgd1na2vs0mg"},{"bike_id":"16a7176a-24c9-4d21-8155-eb4f5f1f837c","system_id":"levelo_inurba_marseille","lat":43.24662,"lon":5.38148,"is_reserved":false,"is_disabled":true,"rental_uris":{"android":"levelo://app?vid=16a7176a-24c9-4d21-8155-eb4f5f1f837c","ios":"levelo://app?vid=16a7176a-24c9-4d21-8155-eb4f5f1f837c"},"vehicle_type_id":"4","last_reported":1737360798,"current_range_meters":36000,"station_id":"ce4bhih2rcd13ifvqfr0","pricing_plan_id":"cebpf4jnsgd1na2vs0mg"},{"bike_id":"4fde6c0d-a2be-4ca4-af90-6a8c7227354d","system_id":"levelo_inurba_marseille","lat":43.28156,"lon":5.42644,"is_reserved":false,"is_disabled":false,"rental_uris":{"android":"levelo://app?vid=4fde6c0d-a2be-4ca4-af90-6a8c7227354d","ios":"levelo://app?vid=4fde6c0d-a2be-4ca4-af90-6a8c7227354d"},"vehicle_type_id":"4","last_reported":1737360798,"current_range_meters":28400,"station_id":"ce4bhnh2rcd13ifvqgug","pricing_plan_id":"cebpf4jnsgd1na2vs0mg"},{"bike_id":"7a956b0b-b8f6-4389-bb50-97bccab2a50c","system_id":"levelo_inurba_marseille","lat":43.2594,"lon":5.40903,"is_reserved":false,"is_disabled":true,"rental_uris":{"android":"levelo://app?vid=7a956b0b-b8f6-4389-bb50-97bccab2a50c","ios":"levelo://app?vid=7a956b0b-b8f6-4389-bb50-97bccab2a50c"},"vehicle_type_id":"4","last_reported":1737360798,"current_range_meters":0,"station_id":"ce4bhm92rcd13ifvqglg","pricing_plan_id":"cebpf4jnsgd1na2vs0mg"},{"bike_id":"b6266ca1-f670-469e-913b-183d4fe31096","system_id":"levelo_inurba_marseille","lat":43.23181,"lon":5.39989,"is_reserved":false,"is_disabled":false,"rental_uris":{"android":"levelo://app?vid=b6266ca1-f670-469e-913b-183d4fe31096","ios":"levelo://app?vid=b6266ca1-f670-469e-913b-183d4fe31096"},"vehicle_type_id":"4","last_reported":1737360798,"current_range_meters":38800,"station_id":"ce4bhn12rcd13ifvqgqg","pricing_plan_id":"cebpf4jnsgd1na2vs0mg"},{"bike_id":"45b46742-a62d-4855-9ae3-d6f0621cbfdc","system_id":"levelo_inurba_marseille","lat":43.25815,"lon":5.3944,"is_reserved":false,"is_disabled":true,"rental_uris":{"android":"levelo://app?vid=45b46742-a62d-4855-9ae3-d6f0621cbfdc","ios":"levelo://app?vid=45b46742-a62d-4855-9ae3-d6f0621cbfdc"},"vehicle_type_id":"4","last_reported":1737360798,"current_range_meters":37600,"station_id":"ce4bhip2rcd13ifvqft0","pricing_plan_id":"cebpf4jnsgd1na2vs0mg"},{"bike_id":"5b178285-a7f5-4068-a3ef-aecd67e47184","system_id":"levelo_inurba_marseille","lat":43.30924,"lon":5.36845,"is_reserved":false,"is_disabled":false,"rental_uris":{"android":"levelo://app?vid=5b178285-a7f5-4068-a3ef-aecd67e47184","ios":"levelo://app?vid=5b178285-a7f5-4068-a3ef-aecd67e47184"},"vehicle_type_id":"4","last_reported":1737360798,"current_range_meters":32000,"station_id":"ce4bgn92rcd13ifvqbvg","pricing_plan_id":"cebpf4jnsgd1na2vs0mg"},{"bike_id":"92fa69bb-8d79-4a4e-8892-87ec90c4fac1","system_id":"levelo_inurba_marseille","lat":43.31718,"lon":5.37428,"is_reserved":false,"is_disabled":false,"rental_uris":{"android":"levelo://app?vid=92fa69bb-8d79-4a4e-8892-87ec90c4fac1","ios":"levelo://app?vid=92fa69bb-8d79-4a4e-8892-87ec90c4fac1"},"vehicle_type_id":"4","last_reported":1737360798,"current_range_meters":18000,"station_id":"","pricing_plan_id":"cebpf4jnsgd1na2vs0mg"},{"bike_id":"ee744f3a-cd71-45ab-8173-8797352414b8","system_id":"levelo_inurba_marseille","lat":43.29787,"lon":5.38093,"is_reserved":false,"is_disabled":false,"rental_uris":{"android":"levelo://app?vid=ee744f3a-cd71-45ab-8173-8797352414b8","ios":"levelo://app?vid=ee744f3a-cd71-45ab-8173-8797352414b8"},"vehicle_type_id":"4","last_reported":1737360798,"current_range_meters":38800,"station_id":"ce4bgip2rcd13ifvqbb0","pricing_plan_id":"cebpf4jnsgd1na2vs0mg"},{"bike_id":"2b315efb-8e9b-4b47-a41e-9ea63d1a55e6","system_id":"levelo_inurba_marseille","lat":43.28661,"lon":5.38662,"is_reserved":false,"is_disabled":false,"rental_uris":{"android":"levelo://app?vid=2b315efb-8e9b-4b47-a41e-9ea63d1a55e6","ios":"levelo://app?vid=2b315efb-8e9b-4b47-a41e-9ea63d1a55e6"},"vehicle_type_id":"4","last_reported":1737360798,"current_range_meters":16800,"station_id":"ce4bh492rcd13ifvqdug","pricing_plan_id":"cebpf4jnsgd1na2vs0mg"},{"bike_id":"f2390374-e060-4fe1-bcfa-cb2711193e58","system_id":"levelo_inurba_marseille","lat":43.25065,"lon":5.39563,"is_reserved":false,"is_disabled":false,"rental_uris":{"android":"levelo://app?vid=f2390374-e060-4fe1-bcfa-cb2711193e58","ios":"levelo://app?vid=f2390374-e060-4fe1-bcfa-cb2711193e58"},"vehicle_type_id":"4","last_reported":1737360798,"current_range_meters":36400,"station_id":"ce4bhm12rcd13ifvqgkg","pricing_plan_id":"cebpf4jnsgd1na2vs0mg"},{"bike_id":"eff8ce08-e20d-4aca-aa26-405f5c5c11db","system_id":"levelo_inurba_marseille","lat":43.30908,"lon":5.36871,"is_reserved":false,"is_disabled":false,"rental_uris":{"android":"levelo://app?vid=eff8ce08-e20d-4aca-aa26-405f5c5c11db","ios":"levelo://app?vid=eff8ce08-e20d-4aca-aa26-405f5c5c11db"},"vehicle_type_id":"4","last_reported":1737360798,"current_range_meters":34000,"station_id":"ce4bgn92rcd13ifvqbvg","pricing_plan_id":"cebpf4jnsgd1na2vs0mg"},{"bike_id":"701bbc68-3ef2-45d0-96cc-b2ce9e360073","system_id":"levelo_inurba_marseille","lat":43.30152,"lon":5.37419,"is_reserved":false,"is_disabled":false,"rental_uris":{"android":"levelo://app?vid=701bbc68-3ef2-45d0-96cc-b2ce9e360073","ios":"levelo://app?vid=701bbc68-3ef2-45d0-96cc-b2ce9e360073"},"vehicle_type_id":"4","last_reported":1737360798,"current_range_meters":32000,"station_id":"ce4bgs92rcd13ifvqcc0","pricing_plan_id":"cebpf4jnsgd1na2vs0mg"},{"bike_id":"76a67948-e0d0-4720-8934-3556d97efacc","system_id":"levelo_inurba_marseille","lat":43.24098,"lon":5.37738,"is_reserved":false,"is_disabled":false,"rental_uris":{"android":"levelo://app?vid=76a67948-e0d0-4720-8934-3556d97efacc","ios":"levelo://app?vid=76a67948-e0d0-4720-8934-3556d97efacc"},"vehicle_type_id":"4","last_reported":1737360798,"current_range_meters":39200,"station_id":"ce4bhnp2rcd13ifvqgvg","pricing_plan_id":"cebpf4jnsgd1na2vs0mg"},{"bike_id":"9cbcfcb5-6a8d-46c6-a453-9c7e34a9e1a5","system_id":"levelo_inurba_marseille","lat":43.31684,"lon":5.40471,"is_reserved":false,"is_disabled":false,"rental_uris":{"android":"levelo://app?vid=9cbcfcb5-6a8d-46c6-a453-9c7e34a9e1a5","ios":"levelo://app?vid=9cbcfcb5-6a8d-46c6-a453-9c7e34a9e1a5"},"vehicle_type_id":"4","last_reported":1737360798,"current_range_meters":12400,"station_id":"ce4bh012rcd13ifvqd00","pricing_plan_id":"cebpf4jnsgd1na2vs0mg"},{"bike_id":"948a0d36-7930-4c83-89da-81f27ad60806","system_id":"levelo_inurba_marseille","lat":43.28839,"lon":5.39318,"is_reserved":false,"is_disabled":false,"rental_uris":{"android":"levelo://app?vid=948a0d36-7930-4c83-89da-81f27ad60806","ios":"levelo://app?vid=948a0d36-7930-4c83-89da-81f27ad60806"},"vehicle_type_id":"4","last_reported":1737360798,"current_range_meters":6400,"station_id":"ce4bh2p2rcd13ifvqdi0","pricing_plan_id":"cebpf4jnsgd1na2vs0mg"},{"bike_id":"e7e5efb6-7753-4636-9496-83307e65eeb6","system_id":"levelo_inurba_marseille","lat":43.26056,"lon":5.39406,"is_reserved":false,"is_disabled":false,"rental_uris":{"android":"levelo://app?vid=e7e5efb6-7753-4636-9496-83307e65eeb6","ios":"levelo://app?vid=e7e5efb6-7753-4636-9496-83307e65eeb6"},"vehicle_type_id":"4","last_reported":1737360798,"current_range_meters":27600,"station_id":"ce4bhh92rcd13ifvqfj0","pricing_plan_id":"cebpf4jnsgd1na2vs0mg"},{"bike_id":"230a1c97-35a3-4817-b57b-85022d87fcd2","system_id":"levelo_inurba_marseille","lat":43.30542,"lon":5.38432,"is_reserved":false,"is_disabled":false,"rental_uris":{"android":"levelo://app?vid=230a1c97-35a3-4817-b57b-85022d87fcd2","ios":"levelo://app?vid=230a1c97-35a3-4817-b57b-85022d87fcd2"},"vehicle_type_id":"4","last_reported":1737360798,"current_range_meters":35600,"station_id":"ce4bgg92rcd13ifvqb30","pricing_plan_id":"cebpf4jnsgd1na2vs0mg"},{"bike_id":"0aa4a416-5ca3-4c2e-b222-394c6f697f31","system_id":"levelo_inurba_marseille","lat":43.31356,"lon":5.3671,"is_reserved":false,"is_disabled":true,"rental_uris":{"android":"levelo://app?vid=0aa4a416-5ca3-4c2e-b222-394c6f697f31","ios":"levelo://app?vid=0aa4a416-5ca3-4c2e-b222-394c6f697f31"},"vehicle_type_id":"4","last_reported":1737360798,"current_range_meters":38400,"station_id":"ce4bgr92rcd13ifvqc6g","pricing_plan_id":"cebpf4jnsgd1na2vs0mg"},{"bike_id":"9bf222de-11c6-43af-b411-7723a72c482c","system_id":"levelo_inurba_marseille","lat":43.301303,"lon":5.387769,"is_reserved":false,"is_disabled":false,"rental_uris":{"android":"levelo://app?vid=9bf222de-11c6-43af-b411-7723a72c482c","ios":"levelo://app?vid=9bf222de-11c6-43af-b411-7723a72c482c"},"vehicle_type_id":"4","last_reported":1737360798,"current_range_meters":38800,"station_id":"ce4bghh2rcd13ifvqb60","pricing_plan_id":"cebpf4jnsgd1na2vs0mg"},{"bike_id":"f1636dbf-0e88-49e4-b1e2-eda8a71b4e40","system_id":"levelo_inurba_marseille","lat":43.29544,"lon":5.37519,"is_reserved":false,"is_disabled":true,"rental_uris":{"android":"levelo://app?vid=f1636dbf-0e88-49e4-b1e2-eda8a71b4e40","ios":"levelo://app?vid=f1636dbf-0e88-49e4-b1e2-eda8a71b4e40"},"vehicle_type_id":"4","last_reported":1737360798,"current_range_meters":1200,"station_id":"ce4bgkp2rcd13ifvqbmg","pricing_plan_id":"cebpf4jnsgd1na2vs0mg"},{"bike_id":"babf2557-288a-43df-90e6-78391deb32ae","system_id":"levelo_inurba_marseille","lat":43.30258,"lon":5.40078,"is_reserved":false,"is_disabled":false,"rental_uris":{"android":"levelo://app?vid=babf2557-288a-43df-90e6-78391deb32ae","ios":"levelo://app?vid=babf2557-288a-43df-90e6-78391deb32ae"},"vehicle_type_id":"4","last_reported":1737360798,"current_range_meters":11200,"station_id":"ce4bgvh2rcd13ifvqcs0","pricing_plan_id":"cebpf4jnsgd1na2vs0mg"},{"bike_id":"a95248e8-7ba2-479e-9b5c-9fb4d8e98c2b","system_id":"levelo_inurba_marseille","lat":43.28103,"lon":5.42187,"is_reserved":false,"is_disabled":true,"rental_uris":{"android":"levelo://app?vid=a95248e8-7ba2-479e-9b5c-9fb4d8e98c2b","ios":"levelo://app?vid=a95248e8-7ba2-479e-9b5c-9fb4d8e98c2b"},"vehicle_type_id":"4","last_reported":1737360798,"current_range_meters":0,"station_id":"","pricing_plan_id":"cebpf4jnsgd1na2vs0mg"},{"bike_id":"d2c70813-c2dc-439d-aba2-297c3279b67b","system_id":"levelo_inurba_marseille","lat":43.3046,"lon":5.37906,"is_reserved":false,"is_disabled":false,"rental_uris":{"android":"levelo://app?vid=d2c70813-c2dc-439d-aba2-297c3279b67b","ios":"levelo://app?vid=d2c70813-c2dc-439d-aba2-297c3279b67b"},"vehicle_type_id":"4","last_reported":1737360798,"current_range_meters":37600,"station_id":"ce4bgup2rcd13ifvqcn0","pricing_plan_id":"cebpf4jnsgd1na2vs0mg"},{"bike_id":"490838b6-f744-4b79-ac77-a247533aa296","system_id":"levelo_inurba_marseille","lat":43.31681,"lon":5.40482,"is_reserved":false,"is_disabled":false,"rental_uris":{"android":"levelo://app?vid=490838b6-f744-4b79-ac77-a247533aa296","ios":"levelo://app?vid=490838b6-f744-4b79-ac77-a247533aa296"},"vehicle_type_id":"4","last_reported":1737360798,"current_range_meters":38800,"station_id":"ce4bh012rcd13ifvqd00","pricing_plan_id":"cebpf4jnsgd1na2vs0mg"},{"bike_id":"88ce3a2b-343a-48fa-9bfd-c30ff1dbe4e5","system_id":"levelo_inurba_marseille","lat":43.25079,"lon":5.39517,"is_reserved":false,"is_disabled":false,"rental_uris":{"android":"levelo://app?vid=88ce3a2b-343a-48fa-9bfd-c30ff1dbe4e5","ios":"levelo://app?vid=88ce3a2b-343a-48fa-9bfd-c30ff1dbe4e5"},"vehicle_type_id":"4","last_reported":1737360798,"current_range_meters":10800,"station_id":"ce4bhm12rcd13ifvqgkg","pricing_plan_id":"cebpf4jnsgd1na2vs0mg"},{"bike_id":"4f0ff530-dfb4-423a-a949-731343171449","system_id":"levelo_inurba_marseille","lat":43.336,"lon":5.41049,"is_reserved":false,"is_disabled":false,"rental_uris":{"android":"levelo://app?vid=4f0ff530-dfb4-423a-a949-731343171449","ios":"levelo://app?vid=4f0ff530-dfb4-423a-a949-731343171449"},"vehicle_type_id":"4","last_reported":1737360798,"current_range_meters":36800,"station_id":"ce4bhqh2rcd13ifvqhmg","pricing_plan_id":"cebpf4jnsgd1na2vs0mg"},{"bike_id":"5957b55c-bbf3-4d79-a9fa-182e34bda710","system_id":"levelo_inurba_marseille","lat":43.26668,"lon":5.40314,"is_reserved":false,"is_disabled":false,"rental_uris":{"android":"levelo://app?vid=5957b55c-bbf3-4d79-a9fa-182e34bda710","ios":"levelo://app?vid=5957b55c-bbf3-4d79-a9fa-182e34bda710"},"vehicle_type_id":"4","last_reported":1737360798,"current_range_meters":11200,"station_id":"","pricing_plan_id":"cebpf4jnsgd1na2vs0mg"},{"bike_id":"6266632e-d5fc-4b72-9e3f-72ce74fb11a6","system_id":"levelo_inurba_marseille","lat":43.29025,"lon":5.38125,"is_reserved":false,"is_disabled":true,"rental_uris":{"android":"levelo://app?vid=6266632e-d5fc-4b72-9e3f-72ce74fb11a6","ios":"levelo://app?vid=6266632e-d5fc-4b72-9e3f-72ce74fb11a6"},"vehicle_type_id":"4","last_reported":1737360798,"current_range_meters":39200,"station_id":"ce4bh4p2rcd13ifvqe1g","pricing_plan_id":"cebpf4jnsgd1na2vs0mg"},{"bike_id":"2189f33e-4cfd-4f76-9d91-913095d551c4","system_id":"levelo_inurba_marseille","lat":43.30354,"lon":5.39095,"is_reserved":false,"is_disabled":true,"rental_uris":{"android":"levelo://app?vid=2189f33e-4cfd-4f76-9d91-913095d551c4","ios":"levelo://app?vid=2189f33e-4cfd-4f76-9d91-913095d551c4"},"vehicle_type_id":"4","last_reported":1737360798,"current_range_meters":0,"station_id":"","pricing_plan_id":"cebpf4jnsgd1na2vs0mg"},{"bike_id":"2bd2a7cc-ec32-49a7-880c-9292c2df6f25","system_id":"levelo_inurba_marseille","lat":43.30308,"lon":5.36902,"is_reserved":false,"is_disabled":false,"rental_uris":{"android":"levelo://app?vid=2bd2a7cc-ec32-49a7-880c-9292c2df6f25","ios":"levelo://app?vid=2bd2a7cc-ec32-49a7-880c-9292c2df6f25"},"vehicle_type_id":"4","last_reported":1737360798,"current_range_meters":13600,"station_id":"ce4bgqh2rcd13ifvqc5g","pricing_plan_id":"cebpf4jnsgd1na2vs0mg"},{"bike_id":"668f9767-c78d-438a-96bb-c0760f782967","system_id":"levelo_inurba_marseille","lat":43.26193,"lon":5.37941,"is_reserved":false,"is_disabled":false,"rental_uris":{"android":"levelo://app?vid=668f9767-c78d-438a-96bb-c0760f782967","ios":"levelo://app?vid=668f9767-c78d-438a-96bb-c0760f782967"},"vehicle_type_id":"4","last_reported":1737360798,"current_range_meters":32800,"station_id":"ce4bhjp2rcd13ifvqg90","pricing_plan_id":"cebpf4jnsgd1na2vs0mg"},{"bike_id":"b4fa5c01-cecc-49e4-9482-65309291a760","system_id":"levelo_inurba_marseille","lat":43.24999,"lon":5.38925,"is_reserved":false,"is_disabled":false,"rental_uris":{"android":"levelo://app?vid=b4fa5c01-cecc-49e4-9482-65309291a760","ios":"levelo://app?vid=b4fa5c01-cecc-49e4-9482-65309291a760"},"vehicle_type_id":"4","last_reported":1737360798,"current_range_meters":34000,"station_id":"ce4bhgp2rcd13ifvqfd0","pricing_plan_id":"cebpf4jnsgd1na2vs0mg"},{"bike_id":"4ba78888-f624-4afa-9722-a8c1f53332f6","system_id":"levelo_inurba_marseille","lat":43.31371,"lon":5.38494,"is_reserved":false,"is_disabled":false,"rental_uris":{"android":"levelo://app?vid=4ba78888-f624-4afa-9722-a8c1f53332f6","ios":"levelo://app?vid=4ba78888-f624-4afa-9722-a8c1f53332f6"},"vehicle_type_id":"4","last_reported":1737360798,"current_range_meters":39200,"station_id":"ce4bgt92rcd13ifvqcf0","pricing_plan_id":"cebpf4jnsgd1na2vs0mg"},{"bike_id":"dc15ffd4-3c68-4ccb-9006-2bd84ab68413","system_id":"levelo_inurba_marseille","lat":43.29982,"lon":5.38489,"is_reserved":false,"is_disabled":false,"rental_uris":{"android":"levelo://app?vid=dc15ffd4-3c68-4ccb-9006-2bd84ab68413","ios":"levelo://app?vid=dc15ffd4-3c68-4ccb-9006-2bd84ab68413"},"vehicle_type_id":"4","last_reported":1737360798,"current_range_meters":24800,"station_id":"ce4bgj92rcd13ifvqbd0","pricing_plan_id":"cebpf4jnsgd1na2vs0mg"},{"bike_id":"e60bcc88-5ab6-40c5-af7a-e995b02098bd","system_id":"levelo_inurba_marseille","lat":43.2407,"lon":5.37763,"is_reserved":false,"is_disabled":true,"rental_uris":{"android":"levelo://app?vid=e60bcc88-5ab6-40c5-af7a-e995b02098bd","ios":"levelo://app?vid=e60bcc88-5ab6-40c5-af7a-e995b02098bd"},"vehicle_type_id":"4","last_reported":1737360798,"current_range_meters":38800,"station_id":"ce4bhnp2rcd13ifvqgvg","pricing_plan_id":"cebpf4jnsgd1na2vs0mg"},{"bike_id":"0d5bf58b-8962-4322-87c4-754920ec04ac","system_id":"levelo_inurba_marseille","lat":43.31198,"lon":5.38721,"is_reserved":false,"is_disabled":true,"rental_uris":{"android":"levelo://app?vid=0d5bf58b-8962-4322-87c4-754920ec04ac","ios":"levelo://app?vid=0d5bf58b-8962-4322-87c4-754920ec04ac"},"vehicle_type_id":"4","last_reported":1737360798,"current_range_meters":28000,"station_id":"ce4bgv12rcd13ifvqcp0","pricing_plan_id":"cebpf4jnsgd1na2vs0mg"},{"bike_id":"c92cbb9f-5a8c-4f30-b00a-221ba31b944d","system_id":"levelo_inurba_marseille","lat":43.28413,"lon":5.34991,"is_reserved":false,"is_disabled":true,"rental_uris":{"android":"levelo://app?vid=c92cbb9f-5a8c-4f30-b00a-221ba31b944d","ios":"levelo://app?vid=c92cbb9f-5a8c-4f30-b00a-221ba31b944d"},"vehicle_type_id":"4","last_reported":1737360798,"current_range_meters":28000,"station_id":"ce4bhbh2rcd13ifvqepg","pricing_plan_id":"cebpf4jnsgd1na2vs0mg"},{"bike_id":"0494aee5-720b-41bb-9089-898589ae1ece","system_id":"levelo_inurba_marseille","lat":43.32366,"lon":5.38884,"is_reserved":false,"is_disabled":false,"rental_uris":{"android":"levelo://app?vid=0494aee5-720b-41bb-9089-898589ae1ece","ios":"levelo://app?vid=0494aee5-720b-41bb-9089-898589ae1ece"},"vehicle_type_id":"4","last_reported":1737360798,"current_range_meters":34800,"station_id":"ce4bhqp2rcd13ifvqhog","pricing_plan_id":"cebpf4jnsgd1na2vs0mg"},{"bike_id":"62acc3a2-26dd-42f4-94af-656c1bc2ba76","system_id":"levelo_inurba_marseille","lat":43.29176,"lon":5.37149,"is_reserved":false,"is_disabled":false,"rental_uris":{"android":"levelo://app?vid=62acc3a2-26dd-42f4-94af-656c1bc2ba76","ios":"levelo://app?vid=62acc3a2-26dd-42f4-94af-656c1bc2ba76"},"vehicle_type_id":"4","last_reported":1737360798,"current_range_meters":38400,"station_id":"ce4bha92rcd13ifvqeh0","pricing_plan_id":"cebpf4jnsgd1na2vs0mg"},{"bike_id":"2398b642-cd0a-4a16-abf3-3ac0b4a8c4a8","system_id":"levelo_inurba_marseille","lat":43.32475,"lon":5.36573,"is_reserved":false,"is_disabled":false,"rental_uris":{"android":"levelo://app?vid=2398b642-cd0a-4a16-abf3-3ac0b4a8c4a8","ios":"levelo://app?vid=2398b642-cd0a-4a16-abf3-3ac0b4a8c4a8"},"vehicle_type_id":"4","last_reported":1737360798,"current_range_meters":16800,"station_id":"ce4bhs12rcd13ifvqhvg","pricing_plan_id":"cebpf4jnsgd1na2vs0mg"},{"bike_id":"fe90f7a6-3920-456a-9451-50d213b7000f","system_id":"levelo_inurba_marseille","lat":43.28476,"lon":5.3846,"is_reserved":false,"is_disabled":true,"rental_uris":{"android":"levelo://app?vid=fe90f7a6-3920-456a-9451-50d213b7000f","ios":"levelo://app?vid=fe90f7a6-3920-456a-9451-50d213b7000f"},"vehicle_type_id":"4","last_reported":1737360798,"current_range_meters":28400,"station_id":"ce4bh512rcd13ifvqe3g","pricing_plan_id":"cebpf4jnsgd1na2vs0mg"},{"bike_id":"67fe5a2e-d8fb-4c79-a771-ee3875d3a660","system_id":"levelo_inurba_marseille","lat":43.337271,"lon":5.391854,"is_reserved":false,"is_disabled":false,"rental_uris":{"android":"levelo://app?vid=67fe5a2e-d8fb-4c79-a771-ee3875d3a660","ios":"levelo://app?vid=67fe5a2e-d8fb-4c79-a771-ee3875d3a660"},"vehicle_type_id":"4","last_reported":1737360798,"current_range_meters":38800,"station_id":"ce4bhr92rcd13ifvqhsg","pricing_plan_id":"cebpf4jnsgd1na2vs0mg"},{"bike_id":"ed868312-ee35-4b8b-bb0e-7ded591ae493","system_id":"levelo_inurba_marseille","lat":43.30267,"lon":5.37717,"is_reserved":false,"is_disabled":false,"rental_uris":{"android":"levelo://app?vid=ed868312-ee35-4b8b-bb0e-7ded591ae493","ios":"levelo://app?vid=ed868312-ee35-4b8b-bb0e-7ded591ae493"},"vehicle_type_id":"4","last_reported":1737360798,"current_range_meters":34000,"station_id":"ce4bguh2rcd13ifvqcj0","pricing_plan_id":"cebpf4jnsgd1na2vs0mg"},{"bike_id":"aeeb7245-8a7c-4b79-b9ac-efca69f7818a","system_id":"levelo_inurba_marseille","lat":43.321155,"lon":5.367719,"is_reserved":false,"is_disabled":false,"rental_uris":{"android":"levelo://app?vid=aeeb7245-8a7c-4b79-b9ac-efca69f7818a","ios":"levelo://app?vid=aeeb7245-8a7c-4b79-b9ac-efca69f7818a"},"vehicle_type_id":"4","last_reported":1737360798,"current_range_meters":16800,"station_id":"ce4bhrh2rcd13ifvqhug","pricing_plan_id":"cebpf4jnsgd1na2vs0mg"},{"bike_id":"fd7bbc3b-27df-48ca-9ae0-34c871191a0b","system_id":"levelo_inurba_marseille","lat":43.266683,"lon":5.382748,"is_reserved":false,"is_disabled":false,"rental_uris":{"android":"levelo://app?vid=fd7bbc3b-27df-48ca-9ae0-34c871191a0b","ios":"levelo://app?vid=fd7bbc3b-27df-48ca-9ae0-34c871191a0b"},"vehicle_type_id":"4","last_reported":1737360798,"current_range_meters":38000,"station_id":"ce4bhg92rcd13ifvqf90","pricing_plan_id":"cebpf4jnsgd1na2vs0mg"},{"bike_id":"d7ebea74-ea94-4f72-85c3-775497bc315c","system_id":"levelo_inurba_marseille","lat":43.32296,"lon":5.38266,"is_reserved":false,"is_disabled":false,"rental_uris":{"android":"levelo://app?vid=d7ebea74-ea94-4f72-85c3-775497bc315c","ios":"levelo://app?vid=d7ebea74-ea94-4f72-85c3-775497bc315c"},"vehicle_type_id":"4","last_reported":1737360798,"current_range_meters":39200,"station_id":"ce4bhr12rcd13ifvqhqg","pricing_plan_id":"cebpf4jnsgd1na2vs0mg"},{"bike_id":"7b52e969-7498-42fb-aafb-034e09ca2f2a","system_id":"levelo_inurba_marseille","lat":43.308328,"lon":5.435914,"is_reserved":false,"is_disabled":false,"rental_uris":{"android":"levelo://app?vid=7b52e969-7498-42fb-aafb-034e09ca2f2a","ios":"levelo://app?vid=7b52e969-7498-42fb-aafb-034e09ca2f2a"},"vehicle_type_id":"4","last_reported":1737360798,"current_range_meters":27600,"station_id":"","pricing_plan_id":"cebpf4jnsgd1na2vs0mg"},{"bike_id":"63e9baad-2610-4c68-a18e-80fa3e7eb200","system_id":"levelo_inurba_marseille","lat":43.28481,"lon":5.3843,"is_reserved":false,"is_disabled":false,"rental_uris":{"android":"levelo://app?vid=63e9baad-2610-4c68-a18e-80fa3e7eb200","ios":"levelo://app?vid=63e9baad-2610-4c68-a18e-80fa3e7eb200"},"vehicle_type_id":"4","last_reported":1737360798,"current_range_meters":34000,"station_id":"ce4bh512rcd13ifvqe3g","pricing_plan_id":"cebpf4jnsgd1na2vs0mg"},{"bike_id":"9eb335b9-be9e-4d87-ab11-b7aad1d486a4","system_id":"levelo_inurba_marseille","lat":43.23146,"lon":5.43711,"is_reserved":false,"is_disabled":false,"rental_uris":{"android":"levelo://app?vid=9eb335b9-be9e-4d87-ab11-b7aad1d486a4","ios":"levelo://app?vid=9eb335b9-be9e-4d87-ab11-b7aad1d486a4"},"vehicle_type_id":"4","last_reported":1737360798,"current_range_meters":38800,"station_id":"ce4bhmp2rcd13ifvqgog","pricing_plan_id":"cebpf4jnsgd1na2vs0mg"},{"bike_id":"32300581-ab3b-49a8-83ac-b2a1dd536104","system_id":"levelo_inurba_marseille","lat":43.32479,"lon":5.36561,"is_reserved":false,"is_disabled":false,"rental_uris":{"android":"levelo://app?vid=32300581-ab3b-49a8-83ac-b2a1dd536104","ios":"levelo://app?vid=32300581-ab3b-49a8-83ac-b2a1dd536104"},"vehicle_type_id":"4","last_reported":1737360798,"current_range_meters":29600,"station_id":"ce4bhs12rcd13ifvqhvg","pricing_plan_id":"cebpf4jnsgd1na2vs0mg"},{"bike_id":"b6139d96-ffdb-4520-aef7-305d62d3c370","system_id":"levelo_inurba_marseille","lat":43.3122,"lon":5.36841,"is_reserved":false,"is_disabled":false,"rental_uris":{"android":"levelo://app?vid=b6139d96-ffdb-4520-aef7-305d62d3c370","ios":"levelo://app?vid=b6139d96-ffdb-4520-aef7-305d62d3c370"},"vehicle_type_id":"4","last_reported":1737360798,"current_range_meters":16800,"station_id":"ce4bgl92rcd13ifvqbq0","pricing_plan_id":"cebpf4jnsgd1na2vs0mg"},{"bike_id":"c152fc79-1cd4-48b6-9683-75e37b136f35","system_id":"levelo_inurba_marseille","lat":43.25017,"lon":5.38978,"is_reserved":false,"is_disabled":false,"rental_uris":{"android":"levelo://app?vid=c152fc79-1cd4-48b6-9683-75e37b136f35","ios":"levelo://app?vid=c152fc79-1cd4-48b6-9683-75e37b136f35"},"vehicle_type_id":"4","last_reported":1737360798,"current_range_meters":38800,"station_id":"ce4bhgp2rcd13ifvqfd0","pricing_plan_id":"cebpf4jnsgd1na2vs0mg"},{"bike_id":"63a0c470-0e3d-4f46-a361-302d7a67e5d2","system_id":"levelo_inurba_marseille","lat":43.24803,"lon":5.37466,"is_reserved":false,"is_disabled":true,"rental_uris":{"android":"levelo://app?vid=63a0c470-0e3d-4f46-a361-302d7a67e5d2","ios":"levelo://app?vid=63a0c470-0e3d-4f46-a361-302d7a67e5d2"},"vehicle_type_id":"4","last_reported":1737360798,"current_range_meters":36400,"station_id":"ce4bhgh2rcd13ifvqfb0","pricing_plan_id":"cebpf4jnsgd1na2vs0mg"},{"bike_id":"d5a4b84a-471f-4edb-a016-4dd0af7e2137","system_id":"levelo_inurba_marseille","lat":43.25873,"lon":5.39913,"is_reserved":false,"is_disabled":false,"rental_uris":{"android":"levelo://app?vid=d5a4b84a-471f-4edb-a016-4dd0af7e2137","ios":"levelo://app?vid=d5a4b84a-471f-4edb-a016-4dd0af7e2137"},"vehicle_type_id":"4","last_reported":1737360798,"current_range_meters":35200,"station_id":"ce4bhl92rcd13ifvqghg","pricing_plan_id":"cebpf4jnsgd1na2vs0mg"},{"bike_id":"5434439c-80a7-45ef-8e7d-a897cb833684","system_id":"levelo_inurba_marseille","lat":43.32429,"lon":5.36754,"is_reserved":false,"is_disabled":false,"rental_uris":{"android":"levelo://app?vid=5434439c-80a7-45ef-8e7d-a897cb833684","ios":"levelo://app?vid=5434439c-80a7-45ef-8e7d-a897cb833684"},"vehicle_type_id":"4","last_reported":1737360798,"current_range_meters":8000,"station_id":"","pricing_plan_id":"cebpf4jnsgd1na2vs0mg"},{"bike_id":"4b67df20-9582-432d-941a-3038c10ba6db","system_id":"levelo_inurba_marseille","lat":43.24075,"lon":5.37761,"is_reserved":false,"is_disabled":false,"rental_uris":{"android":"levelo://app?vid=4b67df20-9582-432d-941a-3038c10ba6db","ios":"levelo://app?vid=4b67df20-9582-432d-941a-3038c10ba6db"},"vehicle_type_id":"4","last_reported":1737360798,"current_range_meters":36800,"station_id":"ce4bhnp2rcd13ifvqgvg","pricing_plan_id":"cebpf4jnsgd1na2vs0mg"},{"bike_id":"476e06e6-2eeb-4379-aeb7-c49f6afc2fe6","system_id":"levelo_inurba_marseille","lat":43.30475,"lon":5.37898,"is_reserved":false,"is_disabled":false,"rental_uris":{"android":"levelo://app?vid=476e06e6-2eeb-4379-aeb7-c49f6afc2fe6","ios":"levelo://app?vid=476e06e6-2eeb-4379-aeb7-c49f6afc2fe6"},"vehicle_type_id":"4","last_reported":1737360798,"current_range_meters":36800,"station_id":"ce4bgup2rcd13ifvqcn0","pricing_plan_id":"cebpf4jnsgd1na2vs0mg"},{"bike_id":"50267a36-8428-4ee1-ac27-ac6a771a71af","system_id":"levelo_inurba_marseille","lat":43.337156,"lon":5.355803,"is_reserved":false,"is_disabled":true,"rental_uris":{"android":"levelo://app?vid=50267a36-8428-4ee1-ac27-ac6a771a71af","ios":"levelo://app?vid=50267a36-8428-4ee1-ac27-ac6a771a71af"},"vehicle_type_id":"4","last_reported":1737360798,"current_range_meters":1600,"station_id":"","pricing_plan_id":"cebpf4jnsgd1na2vs0mg"},{"bike_id":"309a4f04-04ba-484a-8db1-fa9b345447f8","system_id":"levelo_inurba_marseille","lat":43.243919,"lon":5.370611,"is_reserved":false,"is_disabled":false,"rental_uris":{"android":"levelo://app?vid=309a4f04-04ba-484a-8db1-fa9b345447f8","ios":"levelo://app?vid=309a4f04-04ba-484a-8db1-fa9b345447f8"},"vehicle_type_id":"4","last_reported":1737360798,"current_range_meters":38000,"station_id":"ce4bhhh2rcd13ifvqfk0","pricing_plan_id":"cebpf4jnsgd1na2vs0mg"},{"bike_id":"f5863b18-13a1-4c6e-92de-5668ea912ad3","system_id":"levelo_inurba_marseille","lat":43.26234,"lon":5.40439,"is_reserved":false,"is_disabled":true,"rental_uris":{"android":"levelo://app?vid=f5863b18-13a1-4c6e-92de-5668ea912ad3","ios":"levelo://app?vid=f5863b18-13a1-4c6e-92de-5668ea912ad3"},"vehicle_type_id":"4","last_reported":1737360798,"current_range_meters":0,"station_id":"","pricing_plan_id":"cebpf4jnsgd1na2vs0mg"},{"bike_id":"6dc083cb-a1ec-4e16-afba-f3c0f1b76c34","system_id":"levelo_inurba_marseille","lat":43.31366,"lon":5.36738,"is_reserved":false,"is_disabled":true,"rental_uris":{"android":"levelo://app?vid=6dc083cb-a1ec-4e16-afba-f3c0f1b76c34","ios":"levelo://app?vid=6dc083cb-a1ec-4e16-afba-f3c0f1b76c34"},"vehicle_type_id":"4","last_reported":1737360798,"current_range_meters":37600,"station_id":"ce4bgr92rcd13ifvqc6g","pricing_plan_id":"cebpf4jnsgd1na2vs0mg"},{"bike_id":"9c336568-820a-438c-a771-0680dc3c77f6","system_id":"levelo_inurba_marseille","lat":43.26561,"lon":5.37292,"is_reserved":false,"is_disabled":false,"rental_uris":{"android":"levelo://app?vid=9c336568-820a-438c-a771-0680dc3c77f6","ios":"levelo://app?vid=9c336568-820a-438c-a771-0680dc3c77f6"},"vehicle_type_id":"4","last_reported":1737360798,"current_range_meters":24000,"station_id":"ce4bhg12rcd13ifvqf70","pricing_plan_id":"cebpf4jnsgd1na2vs0mg"},{"bike_id":"aadeea6a-4f60-4f7c-87ee-1d6ddbecb58b","system_id":"levelo_inurba_marseille","lat":43.27495,"lon":5.42453,"is_reserved":false,"is_disabled":false,"rental_uris":{"android":"levelo://app?vid=aadeea6a-4f60-4f7c-87ee-1d6ddbecb58b","ios":"levelo://app?vid=aadeea6a-4f60-4f7c-87ee-1d6ddbecb58b"},"vehicle_type_id":"4","last_reported":1737360798,"current_range_meters":26800,"station_id":"ce4bhn92rcd13ifvqgrg","pricing_plan_id":"cebpf4jnsgd1na2vs0mg"},{"bike_id":"eb6fcbf2-4dba-4dcc-a3a1-6b992d95097c","system_id":"levelo_inurba_marseille","lat":43.239465,"lon":5.366413,"is_reserved":false,"is_disabled":false,"rental_uris":{"android":"levelo://app?vid=eb6fcbf2-4dba-4dcc-a3a1-6b992d95097c","ios":"levelo://app?vid=eb6fcbf2-4dba-4dcc-a3a1-6b992d95097c"},"vehicle_type_id":"4","last_reported":1737360798,"current_range_meters":28800,"station_id":"ce4bhi12rcd13ifvqfp0","pricing_plan_id":"cebpf4jnsgd1na2vs0mg"},{"bike_id":"c160579d-57a0-455c-96db-5193fb7ebdc0","system_id":"levelo_inurba_marseille","lat":43.32993,"lon":5.39053,"is_reserved":false,"is_disabled":false,"rental_uris":{"android":"levelo://app?vid=c160579d-57a0-455c-96db-5193fb7ebdc0","ios":"levelo://app?vid=c160579d-57a0-455c-96db-5193fb7ebdc0"},"vehicle_type_id":"4","last_reported":1737360798,"current_range_meters":12800,"station_id":"ce4bhr92rcd13ifvqhrg","pricing_plan_id":"cebpf4jnsgd1na2vs0mg"},{"bike_id":"6e42a6c7-87c2-403e-84fd-d739a3d405a6","system_id":"levelo_inurba_marseille","lat":43.24588,"lon":5.4201,"is_reserved":false,"is_disabled":true,"rental_uris":{"android":"levelo://app?vid=6e42a6c7-87c2-403e-84fd-d739a3d405a6","ios":"levelo://app?vid=6e42a6c7-87c2-403e-84fd-d739a3d405a6"},"vehicle_type_id":"4","last_reported":1737360798,"current_range_meters":0,"station_id":"","pricing_plan_id":"cebpf4jnsgd1na2vs0mg"},{"bike_id":"701ad8a5-4a2f-4eda-bee4-d8f2c0da4dac","system_id":"levelo_inurba_marseille","lat":43.29875,"lon":5.38906,"is_reserved":false,"is_disabled":true,"rental_uris":{"android":"levelo://app?vid=701ad8a5-4a2f-4eda-bee4-d8f2c0da4dac","ios":"levelo://app?vid=701ad8a5-4a2f-4eda-bee4-d8f2c0da4dac"},"vehicle_type_id":"4","last_reported":1737360798,"current_range_meters":26800,"station_id":"ce4bh392rcd13ifvqdl0","pricing_plan_id":"cebpf4jnsgd1na2vs0mg"},{"bike_id":"94177e82-289e-4229-8245-e61ed1400bb7","system_id":"levelo_inurba_marseille","lat":43.24076,"lon":5.37757,"is_reserved":false,"is_disabled":false,"rental_uris":{"android":"levelo://app?vid=94177e82-289e-4229-8245-e61ed1400bb7","ios":"levelo://app?vid=94177e82-289e-4229-8245-e61ed1400bb7"},"vehicle_type_id":"4","last_reported":1737360798,"current_range_meters":39200,"station_id":"ce4bhnp2rcd13ifvqgvg","pricing_plan_id":"cebpf4jnsgd1na2vs0mg"},{"bike_id":"f0f7ae09-777e-4d19-af74-78fcd2e44652","system_id":"levelo_inurba_marseille","lat":43.25018,"lon":5.38949,"is_reserved":false,"is_disabled":false,"rental_uris":{"android":"levelo://app?vid=f0f7ae09-777e-4d19-af74-78fcd2e44652","ios":"levelo://app?vid=f0f7ae09-777e-4d19-af74-78fcd2e44652"},"vehicle_type_id":"4","last_reported":1737360798,"current_range_meters":11200,"station_id":"ce4bhgp2rcd13ifvqfd0","pricing_plan_id":"cebpf4jnsgd1na2vs0mg"},{"bike_id":"4fe58642-8ec3-4f25-a4fc-eb5dc3dc47a8","system_id":"levelo_inurba_marseille","lat":43.33542,"lon":5.36134,"is_reserved":false,"is_disabled":true,"rental_uris":{"android":"levelo://app?vid=4fe58642-8ec3-4f25-a4fc-eb5dc3dc47a8","ios":"levelo://app?vid=4fe58642-8ec3-4f25-a4fc-eb5dc3dc47a8"},"vehicle_type_id":"4","last_reported":1737360798,"current_range_meters":26800,"station_id":"","pricing_plan_id":"cebpf4jnsgd1na2vs0mg"},{"bike_id":"9cccd2ff-b864-466b-83c6-b52ec2815836","system_id":"levelo_inurba_marseille","lat":43.25708,"lon":5.4114,"is_reserved":false,"is_disabled":false,"rental_uris":{"android":"levelo://app?vid=9cccd2ff-b864-466b-83c6-b52ec2815836","ios":"levelo://app?vid=9cccd2ff-b864-466b-83c6-b52ec2815836"},"vehicle_type_id":"4","last_reported":1737360798,"current_range_meters":33200,"station_id":"ce4bhkp2rcd13ifvqgd0","pricing_plan_id":"cebpf4jnsgd1na2vs0mg"},{"bike_id":"8cf13c99-1a3f-4af0-9874-e5002fe34a54","system_id":"levelo_inurba_marseille","lat":43.24663,"lon":5.38162,"is_reserved":false,"is_disabled":true,"rental_uris":{"android":"levelo://app?vid=8cf13c99-1a3f-4af0-9874-e5002fe34a54","ios":"levelo://app?vid=8cf13c99-1a3f-4af0-9874-e5002fe34a54"},"vehicle_type_id":"4","last_reported":1737360798,"current_range_meters":34000,"station_id":"ce4bhih2rcd13ifvqfr0","pricing_plan_id":"cebpf4jnsgd1na2vs0mg"},{"bike_id":"d5b0a4a7-ba42-4153-b073-725f6196c9bf","system_id":"levelo_inurba_marseille","lat":43.33761,"lon":5.37486,"is_reserved":false,"is_disabled":false,"rental_uris":{"android":"levelo://app?vid=d5b0a4a7-ba42-4153-b073-725f6196c9bf","ios":"levelo://app?vid=d5b0a4a7-ba42-4153-b073-725f6196c9bf"},"vehicle_type_id":"4","last_reported":1737360798,"current_range_meters":14000,"station_id":"","pricing_plan_id":"cebpf4jnsgd1na2vs0mg"},{"bike_id":"de3df30d-f869-4754-9758-dadb6a69ca3a","system_id":"levelo_inurba_marseille","lat":43.29045,"lon":5.39942,"is_reserved":false,"is_disabled":false,"rental_uris":{"android":"levelo://app?vid=de3df30d-f869-4754-9758-dadb6a69ca3a","ios":"levelo://app?vid=de3df30d-f869-4754-9758-dadb6a69ca3a"},"vehicle_type_id":"4","last_reported":1737360798,"current_range_meters":35200,"station_id":"ce4bh392rcd13ifvqdm0","pricing_plan_id":"cebpf4jnsgd1na2vs0mg"},