{"last_updated":1784650494,"ttl":60,"version":"2.2","data":{"bikes":[{"bike_id":"7ef36254-6bb3-448c-8d77-979d957d54b6","system_id":"levelo_inurba_marseille","lat":43.337444,"lon":5.374475,"is_reserved":false,"is_disabled":false,"rental_uris":{"android":"levelo://app?vid=7ef36254-6bb3-448c-8d77-979d957d54b6","ios":"levelo://app?vid=7ef36254-6bb3-448c-8d77-979d957d54b6"},"vehicle_type_id":"4","last_reported":1784650494,"current_range_meters":0,"station_id":"","pricing_plan_id":"cebpf4jnsgd1na2vs0mg"},{"bike_id":"21fe2e98-0432-4b40-a81f-10dd00b0f57d","system_id":"levelo_inurba_marseille","lat":43.337444,"lon":5.374475,"is_reserved":false,"is_disabled":false,"rental_uris":{"android":"levelo://app?vid=21fe2e98-0432-4b40-a81f-10dd00b0f57d","ios":"levelo://app?vid=21fe2e98-0432-4b40-a81f-10dd00b0f57d"},"vehicle_type_id":"4","last_reported":1784650494,"current_range_meters":0,"station_id":"","pricing_plan_id":"cebpf4jnsgd1na2vs0mg"},{"bike_id":"910edd9b-3f88-46ff-af53-0deba1c167b6","system_id":"levelo_inurba_marseille","lat":43.23967,"lon":5.36617,"is_reserved":false,"is_disabled":false,"rental_uris":{"android":"levelo://app?vid=910edd9b-3f88-46ff-af53-0deba1c167b6","ios":"levelo://app?vid=910edd9b-3f88-46ff-af53-0deba1c167b6"},"vehicle_type_id":"4","last_reported":1784650494,"current_range_meters":2800,"station_id":"ce4bhi12rcd13ifvqfp0","pricing_plan_id":"cebpf4jnsgd1na2vs0mg"},{"bike_id":"deab0385-0efa-4bfa-9d6c-fc9e57b19cd0","system_id":"levelo_inurba_marseille","lat":43.30055,"lon":5.36984,"is_reserved":false,"is_disabled":false,"rental_uris":{"android":"levelo://app?vid=deab0385-0efa-4bfa-9d6c-fc9e57b19cd0","ios":"levelo://app?vid=deab0385-0efa-4bfa-9d6c-fc9e57b19cd0"},"vehicle_type_id":"4","last_reported":1784650494,"current_range_meters":2800,"station_id":"","pricing_plan_id":"cebpf4jnsgd1na2vs0mg"},{"bike_id":"5feb6120-99f3-40ac-88a0-a92ec4ec9659","system_id":"levelo_inurba_marseille","lat":43.3169,"lon":5.37593,"is_reserved":false,"is_disabled":false,"rental_uris":{"android":"levelo://app?vid=5feb6120-99f3-40ac-88a0-a92ec4ec9659","ios":"levelo://app?vid=5feb6120-99f3-40ac-88a0-a92ec4ec9659"},"vehicle_type_id":"4","last_reported":1784650494,"current_range_meters":2800,"station_id":"","pricing_plan_id":"cebpf4jnsgd1na2vs0mg"},{"bike_id":"d2e52483-cbf1-4cf5-b95b-f1ea662e72b5","system_id":"levelo_inurba_marseille","lat":43.2902,"lon":5.38159,"is_reserved":false,"is_disabled":false,"rental_uris":{"android":"levelo://app?vid=d2e52483-cbf1-4cf5-b95b-f1ea662e72b5","ios":"levelo://app?vid=d2e52483-cbf1-4cf5-b95b-f1ea662e72b5"},"vehicle_type_id":"4","last_reported":1784650494,"current_range_meters":2800,"station_id":"ce4bh4p2rcd13ifvqe1g","pricing_plan_id":"cebpf4jnsgd1na2vs0mg"},{"bike_id":"15151741-bfb1-4b05-a3b4-9f29cf3ea18f","system_id":"levelo_inurba_marseille","lat":43.21195,"lon":5.35068,"is_reserved":false,"is_disabled":false,"rental_uris":{"android":"levelo://app?vid=15151741-bfb1-4b05-a3b4-9f29cf3ea18f","ios":"levelo://app?vid=15151741-bfb1-4b05-a3b4-9f29cf3ea18f"},"vehicle_type_id":"4","last_reported":1784650494,"current_range_meters":2800,"station_id":"st_cvj6sg6p6f1abm77japg","pricing_plan_id":"cebpf4jnsgd1na2vs0mg"},{"bike_id":"1064ddfb-4ee3-4f35-8e8f-4bda2a3351a0","system_id":"levelo_inurba_marseille","lat":43.298156,"lon":5.440684,"is_reserved":false,"is_disabled":false,"rental_uris":{"android":"levelo://app?vid=1064ddfb-4ee3-4f35-8e8f-4bda2a3351a0","ios":"levelo://app?vid=1064ddfb-4ee3-4f35-8e8f-4bda2a3351a0"},"vehicle_type_id":"4","last_reported":1784650494,"current_range_meters":2800,"station_id":"st_d3jp68qikq2c7381ktn0","pricing_plan_id":"cebpf4jnsgd1na2vs0mg"},{"bike_id":"0d309a6b-3e2c-42ee-b89f-ed34b6006a61","system_id":"levelo_inurba_marseille","lat":43.26803,"lon":5.37526,"is_reserved":false,"is_disabled":false,"rental_uris":{"android":"levelo://app?vid=0d309a6b-3e2c-42ee-b89f-ed34b6006a61","ios":"levelo://app?vid=0d309a6b-3e2c-42ee-b89f-ed34b6006a61"},"vehicle_type_id":"4","last_reported":1784650494,"current_range_meters":2800,"station_id":"","pricing_plan_id":"cebpf4jnsgd1na2vs0mg"},{"bike_id":"bdc95179-e044-4e80-a8ce-81f5dcc41918","system_id":"levelo_inurba_marseille","lat":43.29769,"lon":5.35902,"is_reserved":false,"is_disabled":false,"rental_uris":{"android":"levelo://app?vid=bdc95179-e044-4e80-a8ce-81f5dcc41918","ios":"levelo://app?vid=bdc95179-e044-4e80-a8ce-81f5dcc41918"},"vehicle_type_id":"4","last_reported":1784650494,"current_range_meters":2800,"station_id":"","pricing_plan_id":"cebpf4jnsgd1na2vs0mg"},{"bike_id":"c9b62782-2c33-4db5-8709-a2138d62d05e","system_id":"levelo_inurba_marseille","lat":43.2862,"lon":5.35101,"is_reserved":false,"is_disabled":false,"rental_uris":{"android":"levelo://app?vid=c9b62782-2c33-4db5-8709-a2138d62d05e","ios":"levelo://app?vid=c9b62782-2c33-4db5-8709-a2138d62d05e"},"vehicle_type_id":"4","last_reported":1784650494,"current_range_meters":2800,"station_id":"ce4bhch2rcd13ifvqeug","pricing_plan_id":"cebpf4jnsgd1na2vs0mg"},{"bike_id":"b79b7fe4-ac75-4f21-ac0d-e777a020665a","system_id":"levelo_inurba_marseille","lat":43.29521,"lon":5.39397,"is_reserved":false,"is_disabled":false,"rental_uris":{"android":"levelo://app?vid=b79b7fe4-ac75-4f21-ac0d-e777a020665a","ios":"levelo://app?vid=b79b7fe4-ac75-4f21-ac0d-e777a020665a"},"vehicle_type_id":"4","last_reported":1784650494,"current_range_meters":2800,"station_id":"ce4bh292rcd13ifvqdf0","pricing_plan_id":"cebpf4jnsgd1na2vs0mg"},{"bike_id":"86c704a7-fa26-410b-b0a7-eb2dafcc4aec","system_id":"levelo_inurba_marseille","lat":43.29225,"lon":5.36063,"is_reserved":false,"is_disabled":false,"rental_uris":{"android":"levelo://app?vid=86c704a7-fa26-410b-b0a7-eb2dafcc4aec","ios":"levelo://app?vid=86c704a7-fa26-410b-b0a7-eb2dafcc4aec"},"vehicle_type_id":"4","last_reported":1784650494,"current_range_meters":2800,"station_id":"","pricing_plan_id":"cebpf4jnsgd1na2vs0mg"},{"bike_id":"4141a38c-20e7-4636-89c7-c29aed5d5873","system_id":"levelo_inurba_marseille","lat":43.32298,"lon":5.38253,"is_reserved":false,"is_disabled":false,"rental_uris":{"android":"levelo://app?vid=4141a38c-20e7-4636-89c7-c29aed5d5873","ios":"levelo://app?vid=4141a38c-20e7-4636-89c7-c29aed5d5873"},"vehicle_type_id":"4","last_reported":1784650494,"current_range_meters":2800,"station_id":"ce4bhr12rcd13ifvqhqg","pricing_plan_id":"cebpf4jnsgd1na2vs0mg"},{"bike_id":"f6d05925-1a59-4fe8-ac42-04dce874991d","system_id":"levelo_inurba_marseille","lat":43.303,"lon":5.37691,"is_reserved":false,"is_disabled":true,"rental_uris":{"android":"levelo://app?vid=f6d05925-1a59-4fe8-ac42-04dce874991d","ios":"levelo://app?vid=f6d05925-1a59-4fe8-ac42-04dce874991d"},"vehicle_type_id":"4","last_reported":1784650494,"current_range_meters":2800,"station_id":"ce4bguh2rcd13ifvqcj0","pricing_plan_id":"cebpf4jnsgd1na2vs0mg"},{"bike_id":"425cee52-7ff4-408d-b63f-f1bb20a33257","system_id":"levelo_inurba_marseille","lat":43.27494,"lon":5.42534,"is_reserved":false,"is_disabled":false,"rental_uris":{"android":"levelo://app?vid=425cee52-7ff4-408d-b63f-f1bb20a33257","ios":"levelo://app?vid=425cee52-7ff4-408d-b63f-f1bb20a33257"},"vehicle_type_id":"4","last_reported":1784650494,"current_range_meters":3200,"station_id":"st_d8t4bh7nbrqs73arha60","pricing_plan_id":"cebpf4jnsgd1na2vs0mg"},{"bike_id":"bbb6d84d-52b2-4523-b78b-60cb354411ef","system_id":"levelo_inurba_marseille","lat":43.32101,"lon":5.36765,"is_reserved":false,"is_disabled":false,"rental_uris":{"android":"levelo://app?vid=bbb6d84d-52b2-4523-b78b-60cb354411ef","ios":"levelo://app?vid=bbb6d84d-52b2-4523-b78b-60cb354411ef"},"vehicle_type_id":"4","last_reported":1784650494,"current_range_meters":3200,"station_id":"ce4bhrh2rcd13ifvqhug","pricing_plan_id":"cebpf4jnsgd1na2vs0mg"},{"bike_id":"8faa3a93-5752-43b7-b5de-a664190b7031","system_id":"levelo_inurba_marseille","lat":43.29032,"lon":5.38145,"is_reserved":false,"is_disabled":false,"rental_uris":{"android":"levelo://app?vid=8faa3a93-5752-43b7-b5de-a664190b7031","ios":"levelo://app?vid=8faa3a93-5752-43b7-b5de-a664190b7031"},"vehicle_type_id":"4","last_reported":1784650494,"current_range_meters":3200,"station_id":"ce4bh4p2rcd13ifvqe1g","pricing_plan_id":"cebpf4jnsgd1na2vs0mg"},{"bike_id":"073f10d5-979e-452e-acc8-aae60a2137f1","system_id":"levelo_inurba_marseille","lat":43.3029,"lon":5.36905,"is_reserved":false,"is_disabled":true,"rental_uris":{"android":"levelo://app?vid=073f10d5-979e-452e-acc8-aae60a2137f1","ios":"levelo://app?vid=073f10d5-979e-452e-acc8-aae60a2137f1"},"vehicle_type_id":"4","last_reported":1784650494,"current_range_meters":3200,"station_id":"ce4bgqh2rcd13ifvqc5g","pricing_plan_id":"cebpf4jnsgd1na2vs0mg"},{"bike_id":"ee993008-3520-4145-a892-ac51da19ce9a","system_id":"levelo_inurba_marseille","lat":43.27484,"lon":5.42542,"is_reserved":false,"is_disabled":true,"rental_uris":{"android":"levelo://app?vid=ee993008-3520-4145-a892-ac51da19ce9a","ios":"levelo://app?vid=ee993008-3520-4145-a892-ac51da19ce9a"},"vehicle_type_id":"4","last_reported":1784650494,"current_range_meters":3200,"station_id":"st_d8t4bh7nbrqs73arha60","pricing_plan_id":"cebpf4jnsgd1na2vs0mg"},{"bike_id":"6df878c6-01a5-498c-8a37-94fe25168c0a","system_id":"levelo_inurba_marseille","lat":43.274029,"lon":5.385047,"is_reserved":false,"is_disabled":false,"rental_uris":{"android":"levelo://app?vid=6df878c6-01a5-498c-8a37-94fe25168c0a","ios":"levelo://app?vid=6df878c6-01a5-498c-8a37-94fe25168c0a"},"vehicle_type_id":"4","last_reported":1784650494,"current_range_meters":3200,"station_id":"ce4bhh92rcd13ifvqfi0","pricing_plan_id":"cebpf4jnsgd1na2vs0mg"},{"bike_id":"d991a7e8-9d23-4446-9c57-71b54134ab8f","system_id":"levelo_inurba_marseille","lat":43.29608,"lon":5.38009,"is_reserved":false,"is_disabled":false,"rental_uris":{"android":"levelo://app?vid=d991a7e8-9d23-4446-9c57-71b54134ab8f","ios":"levelo://app?vid=d991a7e8-9d23-4446-9c57-71b54134ab8f"},"vehicle_type_id":"4","last_reported":1784650494,"current_range_meters":3200,"station_id":"","pricing_plan_id":"cebpf4jnsgd1na2vs0mg"},{"bike_id":"39a870ef-6716-4ed3-bec5-74186a5d5483","system_id":"levelo_inurba_marseille","lat":43.23783,"lon":5.36627,"is_reserved":false,"is_disabled":false,"rental_uris":{"android":"levelo://app?vid=39a870ef-6716-4ed3-bec5-74186a5d5483","ios":"levelo://app?vid=39a870ef-6716-4ed3-bec5-74186a5d5483"},"vehicle_type_id":"4","last_reported":1784650494,"current_range_meters":3200,"station_id":"st_d3nk18o9ro0c73en2l3g","pricing_plan_id":"cebpf4jnsgd1na2vs0mg"},{"bike_id":"7e91d50c-fd23-4bd4-8b40-051f564b7271","system_id":"levelo_inurba_marseille","lat":43.31891,"lon":5.3681,"is_reserved":false,"is_disabled":false,"rental_uris":{"android":"levelo://app?vid=7e91d50c-fd23-4bd4-8b40-051f564b7271","ios":"levelo://app?vid=7e91d50c-fd23-4bd4-8b40-051f564b7271"},"vehicle_type_id":"4","last_reported":1784650494,"current_range_meters":3200,"station_id":"st_d6o2h0d0559c73evc1b0","pricing_plan_id":"cebpf4jnsgd1na2vs0mg"},{"bike_id":"5ab1a741-cfbd-478c-849f-acc87ccd9075","system_id":"levelo_inurba_marseille","lat":43.28591,"lon":5.39464,"is_reserved":false,"is_disabled":false,"rental_uris":{"android":"levelo://app?vid=5ab1a741-cfbd-478c-849f-acc87ccd9075","ios":"levelo://app?vid=5ab1a741-cfbd-478c-849f-acc87ccd9075"},"vehicle_type_id":"4","last_reported":1784650494,"current_range_meters":3200,"station_id":"ce4bh292rcd13ifvqdg0","pricing_plan_id":"cebpf4jnsgd1na2vs0mg"},{"bike_id":"c00ab82a-7114-49a9-a944-c8325dce148a","system_id":"levelo_inurba_marseille","lat":43.29516,"lon":5.43325,"is_reserved":false,"is_disabled":false,"rental_uris":{"android":"levelo://app?vid=c00ab82a-7114-49a9-a944-c8325dce148a","ios":"levelo://app?vid=c00ab82a-7114-49a9-a944-c8325dce148a"},"vehicle_type_id":"4","last_reported":1784650494,"current_range_meters":3200,"station_id":"st_d3j5ugp08ojc73fj9d10","pricing_plan_id":"cebpf4jnsgd1na2vs0mg"},{"bike_id":"965c213d-63c4-4cf1-9017-f661f523d87b","system_id":"levelo_inurba_marseille","lat":43.32436,"lon":5.40738,"is_reserved":false,"is_disabled":false,"rental_uris":{"android":"levelo://app?vid=965c213d-63c4-4cf1-9017-f661f523d87b","ios":"levelo://app?vid=965c213d-63c4-4cf1-9017-f661f523d87b"},"vehicle_type_id":"4","last_reported":1784650494,"current_range_meters":3200,"station_id":"","pricing_plan_id":"cebpf4jnsgd1na2vs0mg"},{"bike_id":"c9855b7c-3f08-4b43-a9c1-71113c781f19","system_id":"levelo_inurba_marseille","lat":43.29266,"lon":5.40888,"is_reserved":false,"is_disabled":false,"rental_uris":{"android":"levelo://app?vid=c9855b7c-3f08-4b43-a9c1-71113c781f19","ios":"levelo://app?vid=c9855b7c-3f08-4b43-a9c1-71113c781f19"},"vehicle_type_id":"4","last_reported":1784650494,"current_range_meters":3200,"station_id":"ce4bh192rcd13ifvqdc0","pricing_plan_id":"cebpf4jnsgd1na2vs0mg"},{"bike_id":"f7f41fb8-a9b6-421a-86c6-8a67615da713","system_id":"levelo_inurba_marseille","lat":43.291608,"lon":5.371511,"is_reserved":false,"is_disabled":false,"rental_uris":{"android":"levelo://app?vid=f7f41fb8-a9b6-421a-86c6-8a67615da713","ios":"levelo://app?vid=f7f41fb8-a9b6-421a-86c6-8a67615da713"},"vehicle_type_id":"4","last_reported":1784650494,"current_range_meters":3200,"station_id":"ce4bha92rcd13ifvqeh0","pricing_plan_id":"cebpf4jnsgd1na2vs0mg"},{"bike_id":"5bc72dc3-83be-4a6b-89ac-b484cf13d2ff","system_id":"levelo_inurba_marseille","lat":43.26426,"lon":5.39886,"is_reserved":false,"is_disabled":false,"rental_uris":{"android":"levelo://app?vid=5bc72dc3-83be-4a6b-89ac-b484cf13d2ff","ios":"levelo://app?vid=5bc72dc3-83be-4a6b-89ac-b484cf13d2ff"},"vehicle_type_id":"4","last_reported":1784650494,"current_range_meters":3200,"station_id":"","pricing_plan_id":"cebpf4jnsgd1na2vs0mg"},{"bike_id":"070430dd-37ca-4f63-bdae-040af9740c11","system_id":"levelo_inurba_marseille","lat":43.30459,"lon":5.36686,"is_reserved":false,"is_disabled":false,"rental_uris":{"android":"levelo://app?vid=070430dd-37ca-4f63-bdae-040af9740c11","ios":"levelo://app?vid=070430dd-37ca-4f63-bdae-040af9740c11"},"vehicle_type_id":"4","last_reported":1784650494,"current_range_meters":3200,"station_id":"","pricing_plan_id":"cebpf4jnsgd1na2vs0mg"},{"bike_id":"d29e086e-caf1-4058-b8c5-9266c91b28ba","system_id":"levelo_inurba_marseille","lat":43.30376,"lon":5.42484,"is_reserved":false,"is_disabled":false,"rental_uris":{"android":"levelo://app?vid=d29e086e-caf1-4058-b8c5-9266c91b28ba","ios":"levelo://app?vid=d29e086e-caf1-4058-b8c5-9266c91b28ba"},"vehicle_type_id":"4","last_reported":1784650494,"current_range_meters":3200,"station_id":"ce4bhoh2rcd13ifvqh6g","pricing_plan_id":"cebpf4jnsgd1na2vs0mg"},{"bike_id":"02d16f44-da36-4526-a0fe-7c73f2786c97","system_id":"levelo_inurba_marseille","lat":43.27367,"lon":5.36255,"is_reserved":false,"is_disabled":false,"rental_uris":{"android":"levelo://app?vid=02d16f44-da36-4526-a0fe-7c73f2786c97","ios":"levelo://app?vid=02d16f44-da36-4526-a0fe-7c73f2786c97"},"vehicle_type_id":"4","last_reported":1784650494,"current_range_meters":3200,"station_id":"ce4bhbh2rcd13ifvqeo0","pricing_plan_id":"cebpf4jnsgd1na2vs0mg"},{"bike_id":"face7142-f279-4ee1-ab5d-f7b9404d3fd3","system_id":"levelo_inurba_marseille","lat":43.29901,"lon":5.43667,"is_reserved":false,"is_disabled":false,"rental_uris":{"android":"levelo://app?vid=face7142-f279-4ee1-ab5d-f7b9404d3fd3","ios":"levelo://app?vid=face7142-f279-4ee1-ab5d-f7b9404d3fd3"},"vehicle_type_id":"4","last_reported":1784650494,"current_range_meters":3200,"station_id":"ce4bhpp2rcd13ifvqhfg","pricing_plan_id":"cebpf4jnsgd1na2vs0mg"},{"bike_id":"80aaaaf1-178f-4e09-a43d-0b52fbd2fc53","system_id":"levelo_inurba_marseille","lat":43.28267,"lon":5.35051,"is_reserved":false,"is_disabled":false,"rental_uris":{"android":"levelo://app?vid=80aaaaf1-178f-4e09-a43d-0b52fbd2fc53","ios":"levelo://app?vid=80aaaaf1-178f-4e09-a43d-0b52fbd2fc53"},"vehicle_type_id":"4","last_reported":1784650494,"current_range_meters":3600,"station_id":"ce4bhbp2rcd13ifvqerg","pricing_plan_id":"cebpf4jnsgd1na2vs0mg"},{"bike_id":"be9def7e-1f9e-4a2a-9f18-1b6c8aeefc4f","system_id":"levelo_inurba_marseille","lat":43.31175,"lon":5.38595,"is_reserved":false,"is_disabled":false,"rental_uris":{"android":"levelo://app?vid=be9def7e-1f9e-4a2a-9f18-1b6c8aeefc4f","ios":"levelo://app?vid=be9def7e-1f9e-4a2a-9f18-1b6c8aeefc4f"},"vehicle_type_id":"4","last_reported":1784650494,"current_range_meters":3600,"station_id":"","pricing_plan_id":"cebpf4jnsgd1na2vs0mg"},{"bike_id":"0887bece-2d4f-4e80-973b-13908d13331a","system_id":"levelo_inurba_marseille","lat":43.2487,"lon":5.37312,"is_reserved":false,"is_disabled":false,"rental_uris":{"android":"levelo://app?vid=0887bece-2d4f-4e80-973b-13908d13331a","ios":"levelo://app?vid=0887bece-2d4f-4e80-973b-13908d13331a"},"vehicle_type_id":"4","last_reported":1784650494,"current_range_meters":3600,"station_id":"","pricing_plan_id":"cebpf4jnsgd1na2vs0mg"},{"bike_id":"6437df7f-66ab-4001-b7d7-8525f34b5ea8","system_id":"levelo_inurba_marseille","lat":43.30907,"lon":5.36835,"is_reserved":false,"is_disabled":false,"rental_uris":{"android":"levelo://app?vid=6437df7f-66ab-4001-b7d7-8525f34b5ea8","ios":"levelo://app?vid=6437df7f-66ab-4001-b7d7-8525f34b5ea8"},"vehicle_type_id":"4","last_reported":1784650494,"current_range_meters":3600,"station_id":"ce4bgn92rcd13ifvqbvg","pricing_plan_id":"cebpf4jnsgd1na2vs0mg"},{"bike_id":"6f4d32dd-3458-40de-a570-9315593565a6","system_id":"levelo_inurba_marseille","lat":43.24084,"lon":5.37753,"is_reserved":false,"is_disabled":false,"rental_uris":{"android":"levelo://app?vid=6f4d32dd-3458-40de-a570-9315593565a6","ios":"levelo://app?vid=6f4d32dd-3458-40de-a570-9315593565a6"},"vehicle_type_id":"4","last_reported":1784650494,"current_range_meters":3600,"station_id":"ce4bhnp2rcd13ifvqgvg","pricing_plan_id":"cebpf4jnsgd1na2vs0mg"},{"bike_id":"c959a0d8-a43b-4b91-be9a-464342ecdbcb","system_id":"levelo_inurba_marseille","lat":43.29264,"lon":5.36829,"is_reserved":false,"is_disabled":true,"rental_uris":{"android":"levelo://app?vid=c959a0d8-a43b-4b91-be9a-464342ecdbcb","ios":"levelo://app?vid=c959a0d8-a43b-4b91-be9a-464342ecdbcb"},"vehicle_type_id":"4","last_reported":1784650494,"current_range_meters":3600,"station_id":"","pricing_plan_id":"cebpf4jnsgd1na2vs0mg"},{"bike_id":"9943d5ab-f5d5-4cdd-a453-8cd415413060","system_id":"levelo_inurba_marseille","lat":43.28715,"lon":5.37937,"is_reserved":false,"is_disabled":false,"rental_uris":{"android":"levelo://app?vid=9943d5ab-f5d5-4cdd-a453-8cd415413060","ios":"levelo://app?vid=9943d5ab-f5d5-4cdd-a453-8cd415413060"},"vehicle_type_id":"4","last_reported":1784650494,"current_range_meters":3600,"station_id":"ce4bh9p2rcd13ifvqec0","pricing_plan_id":"cebpf4jnsgd1na2vs0mg"},{"bike_id":"d97e9252-f2ec-42b3-899a-35449d25dc7b","system_id":"levelo_inurba_marseille","lat":43.26023,"lon":5.37542,"is_reserved":false,"is_disabled":false,"rental_uris":{"android":"levelo://app?vid=d97e9252-f2ec-42b3-899a-35449d25dc7b","ios":"levelo://app?vid=d97e9252-f2ec-42b3-899a-35449d25dc7b"},"vehicle_type_id":"4","last_reported":1784650494,"current_range_meters":3600,"station_id":"ce4bhgh2rcd13ifvqfa0","pricing_plan_id":"cebpf4jnsgd1na2vs0mg"},{"bike_id":"906dcd9b-d0e3-4323-a2e4-97c93232838d","system_id":"levelo_inurba_marseille","lat":43.28857,"lon":5.39316,"is_reserved":false,"is_disabled":false,"rental_uris":{"android":"levelo://app?vid=906dcd9b-d0e3-4323-a2e4-97c93232838d","ios":"levelo://app?vid=906dcd9b-d0e3-4323-a2e4-97c93232838d"},"vehicle_type_id":"4","last_reported":1784650494,"current_range_meters":3600,"station_id":"ce4bh2p2rcd13ifvqdi0","pricing_plan_id":"cebpf4jnsgd1na2vs0mg"},{"bike_id":"12a16d67-ce35-4613-831c-478f01f11ae5","system_id":"levelo_inurba_marseille","lat":43.24387,"lon":5.37065,"is_reserved":false,"is_disabled":false,"rental_uris":{"android":"levelo://app?vid=12a16d67-ce35-4613-831c-478f01f11ae5","ios":"levelo://app?vid=12a16d67-ce35-4613-831c-478f01f11ae5"},"vehicle_type_id":"4","last_reported":1784650494,"current_range_meters":3600,"station_id":"ce4bhhh2rcd13ifvqfk0","pricing_plan_id":"cebpf4jnsgd1na2vs0mg"},{"bike_id":"c9ea0748-106e-40e1-aa41-01d81f5f146d","system_id":"levelo_inurba_marseille","lat":43.2176,"lon":5.34609,"is_reserved":false,"is_disabled":false,"rental_uris":{"android":"levelo://app?vid=c9ea0748-106e-40e1-aa41-01d81f5f146d","ios":"levelo://app?vid=c9ea0748-106e-40e1-aa41-01d81f5f146d"},"vehicle_type_id":"4","last_reported":1784650494,"current_range_meters":3600,"station_id":"st_cvj6r9ubvosntc0bgbag","pricing_plan_id":"cebpf4jnsgd1na2vs0mg"},{"bike_id":"66a46e96-f3a8-4f06-9deb-f767afcc03f8","system_id":"levelo_inurba_marseille","lat":43.2622,"lon":5.37444,"is_reserved":false,"is_disabled":false,"rental_uris":{"android":"levelo://app?vid=66a46e96-f3a8-4f06-9deb-f767afcc03f8","ios":"levelo://app?vid=66a46e96-f3a8-4f06-9deb-f767afcc03f8"},"vehicle_type_id":"4","last_reported":1784650494,"current_range_meters":3600,"station_id":"ce4bhgp2rcd13ifvqfc0","pricing_plan_id":"cebpf4jnsgd1na2vs0mg"},{"bike_id":"c78588e5-e842-46d1-9397-b2b42bcbb509","system_id":"levelo_inurba_marseille","lat":43.26718,"lon":5.38739,"is_reserved":false,"is_disabled":false,"rental_uris":{"android":"levelo://app?vid=c78588e5-e842-46d1-9397-b2b42bcbb509","ios":"levelo://app?vid=c78588e5-e842-46d1-9397-b2b42bcbb509"},"vehicle_type_id":"4","last_reported":1784650494,"current_range_meters":3600,"station_id":"","pricing_plan_id":"cebpf4jnsgd1na2vs0mg"},{"bike_id":"af34c908-84c2-4d17-afe7-09e7cc96f658","system_id":"levelo_inurba_marseille","lat":43.2707,"lon":5.42278,"is_reserved":false,"is_disabled":false,"rental_uris":{"android":"levelo://app?vid=af34c908-84c2-4d17-afe7-09e7cc96f658","ios":"levelo://app?vid=af34c908-84c2-4d17-afe7-09e7cc96f658"},"vehicle_type_id":"4","last_reported":1784650494,"current_range_meters":3600,"station_id":"ce4bhk92rcd13ifvqgb0","pricing_plan_id":"cebpf4jnsgd1na2vs0mg"},{"bike_id":"cf6cf4da-0c61-4886-9c51-8c22cee3b3e7","system_id":"levelo_inurba_marseille","lat":43.21192,"lon":5.35068,"is_reserved":false,"is_disabled":false,"rental_uris":{"android":"levelo://app?vid=cf6cf4da-0c61-4886-9c51-8c22cee3b3e7","ios":"levelo://app?vid=cf6cf4da-0c61-4886-9c51-8c22cee3b3e7"},"vehicle_type_id":"4","last_reported":1784650494,"current_range_meters":3600,"station_id":"st_cvj6sg6p6f1abm77japg","pricing_plan_id":"cebpf4jnsgd1na2vs0mg"},{"bike_id":"0ac32533-0f1f-43cc-a51c-ce3d3727e96e","system_id":"levelo_inurba_marseille","lat":43.2803,"lon":5.36091,"is_reserved":false,"is_disabled":false,"rental_uris":{"android":"levelo://app?vid=0ac32533-0f1f-43cc-a51c-ce3d3727e96e","ios":"levelo://app?vid=0ac32533-0f1f-43cc-a51c-ce3d3727e96e"},"vehicle_type_id":"4","last_reported":1784650494,"current_range_meters":3600,"station_id":"","pricing_plan_id":"cebpf4jnsgd1na2vs0mg"},{"bike_id":"2e48653d-2723-4cb3-b14e-3bb39f05e624","system_id":"levelo_inurba_marseille","lat":43.302606,"lon":5.400676,"is_reserved":false,"is_disabled":false,"rental_uris":{"android":"levelo://app?vid=2e48653d-2723-4cb3-b14e-3bb39f05e624","ios":"levelo://app?vid=2e48653d-2723-4cb3-b14e-3bb39f05e624"},"vehicle_type_id":"4","last_reported":1784650494,"current_range_meters":3600,"station_id":"ce4bgvh2rcd13ifvqcs0","pricing_plan_id":"cebpf4jnsgd1na2vs0mg"},{"bike_id":"143b0326-bcc2-41fe-ac94-ce3903ac509a","system_id":"levelo_inurba_marseille","lat":43.30833,"lon":5.4042,"is_reserved":false,"is_disabled":false,"rental_uris":{"android":"levelo://app?vid=143b0326-bcc2-41fe-ac94-ce3903ac509a","ios":"levelo://app?vid=143b0326-bcc2-41fe-ac94-ce3903ac509a"},"vehicle_type_id":"4","last_reported":1784650494,"current_range_meters":4000,"station_id":"","pricing_plan_id":"cebpf4jnsgd1na2vs0mg"},{"bike_id":"1ae20384-5ccd-4145-9a1d-f626b16c7a9e","system_id":"levelo_inurba_marseille","lat":43.31138,"lon":5.46438,"is_reserved":false,"is_disabled":false,"rental_uris":{"android":"levelo://app?vid=1ae20384-5ccd-4145-9a1d-f626b16c7a9e","ios":"levelo://app?vid=1ae20384-5ccd-4145-9a1d-f626b16c7a9e"},"vehicle_type_id":"4","last_reported":1784650494,"current_range_meters":4000,"station_id":"","pricing_plan_id":"cebpf4jnsgd1na2vs0mg"},{"bike_id":"3dc5c94a-91b9-4004-95ec-7064c9b53155","system_id":"levelo_inurba_marseille","lat":43.28704,"lon":5.46682,"is_reserved":false,"is_disabled":false,"rental_uris":{"android":"levelo://app?vid=3dc5c94a-91b9-4004-95ec-7064c9b53155","ios":"levelo://app?vid=3dc5c94a-91b9-4004-95ec-7064c9b53155"},"vehicle_type_id":"4","last_reported":1784650494,"current_range_meters":4000,"station_id":"st_d6tc3vkotcvc738tfjhg","pricing_plan_id":"cebpf4jnsgd1na2vs0mg"},{"bike_id":"648e8863-8a79-4e32-8bae-ee31de6b0289","system_id":"levelo_inurba_marseille","lat":43.28722,"lon":5.36097,"is_reserved":false,"is_disabled":false,"rental_uris":{"android":"levelo://app?vid=648e8863-8a79-4e32-8bae-ee31de6b0289","ios":"levelo://app?vid=648e8863-8a79-4e32-8bae-ee31de6b0289"},"vehicle_type_id":"4","last_reported":1784650494,"current_range_meters":4000,"station_id":"cki0cbj6b192h4jlfktg","pricing_plan_id":"cebpf4jnsgd1na2vs0mg"},{"bike_id":"c356d87f-5267-4bd2-ab01-b783e780e0b1","system_id":"levelo_inurba_marseille","lat":43.21208,"lon":5.35042,"is_reserved":false,"is_disabled":false,"rental_uris":{"android":"levelo://app?vid=c356d87f-5267-4bd2-ab01-b783e780e0b1","ios":"levelo://app?vid=c356d87f-5267-4bd2-ab01-b783e780e0b1"},"vehicle_type_id":"4","last_reported":1784650494,"current_range_meters":4000,"station_id":"st_cvj6sg6p6f1abm77japg","pricing_plan_id":"cebpf4jnsgd1na2vs0mg"},{"bike_id":"75e37ce2-1d0d-442d-ae2f-79ffd0302fc3","system_id":"levelo_inurba_marseille","lat":43.29306,"lon":5.37151,"is_reserved":false,"is_disabled":false,"rental_uris":{"android":"levelo://app?vid=75e37ce2-1d0d-442d-ae2f-79ffd0302fc3","ios":"levelo://app?vid=75e37ce2-1d0d-442d-ae2f-79ffd0302fc3"},"vehicle_type_id":"4","last_reported":1784650494,"current_range_meters":4000,"station_id":"ce4bgh92rcd13ifvqb40","pricing_plan_id":"cebpf4jnsgd1na2vs0mg"},{"bike_id":"14c58f5c-5159-4f74-b24f-cc07dfc07cdb","system_id":"levelo_inurba_marseille","lat":43.22526,"lon":5.4155,"is_reserved":false,"is_disabled":false,"rental_uris":{"android":"levelo://app?vid=14c58f5c-5159-4f74-b24f-cc07dfc07cdb","ios":"levelo://app?vid=14c58f5c-5159-4f74-b24f-cc07dfc07cdb"},"vehicle_type_id":"4","last_reported":1784650494,"current_range_meters":4000,"station_id":"","pricing_plan_id":"cebpf4jnsgd1na2vs0mg"},{"bike_id":"1d9536b0-bb9c-45fd-88cf-878234fc39a5","system_id":"levelo_inurba_marseille","lat":43.24658,"lon":5.41614,"is_reserved":false,"is_disabled":false,"rental_uris":{"android":"levelo://app?vid=1d9536b0-bb9c-45fd-88cf-878234fc39a5","ios":"levelo://app?vid=1d9536b0-bb9c-45fd-88cf-878234fc39a5"},"vehicle_type_id":"4","last_reported":1784650494,"current_range_meters":4000,"station_id":"","pricing_plan_id":"cebpf4jnsgd1na2vs0mg"},{"bike_id":"d3608baf-f2f9-4e70-9b0f-d88c6c1dc37c","system_id":"levelo_inurba_marseille","lat":43.26068,"lon":5.39383,"is_reserved":false,"is_disabled":false,"rental_uris":{"android":"levelo://app?vid=d3608baf-f2f9-4e70-9b0f-d88c6c1dc37c","ios":"levelo://app?vid=d3608baf-f2f9-4e70-9b0f-d88c6c1dc37c"},"vehicle_type_id":"4","last_reported":1784650494,"current_range_meters":4000,"station_id":"ce4bhh92rcd13ifvqfj0","pricing_plan_id":"cebpf4jnsgd1na2vs0mg"},{"bike_id":"46532111-1149-43b1-84fe-2f29ec783709","system_id":"levelo_inurba_marseille","lat":43.29793,"lon":5.38088,"is_reserved":false,"is_disabled":false,"rental_uris":{"android":"levelo://app?vid=46532111-1149-43b1-84fe-2f29ec783709","ios":"levelo://app?vid=46532111-1149-43b1-84fe-2f29ec783709"},"vehicle_type_id":"4","last_reported":1784650494,"current_range_meters":4000,"station_id":"ce4bgip2rcd13ifvqbb0","pricing_plan_id":"cebpf4jnsgd1na2vs0mg"},{"bike_id":"3adaa436-b43b-48cb-8b46-f9ab5d9a6fa2","system_id":"levelo_inurba_marseille","lat":43.29027,"lon":5.43276,"is_reserved":false,"is_disabled":false,"rental_uris":{"android":"levelo://app?vid=3adaa436-b43b-48cb-8b46-f9ab5d9a6fa2","ios":"levelo://app?vid=3adaa436-b43b-48cb-8b46-f9ab5d9a6fa2"},"vehicle_type_id":"4","last_reported":1784650494,"current_range_meters":4000,"station_id":"","pricing_plan_id":"cebpf4jnsgd1na2vs0mg"},{"bike_id":"e5c62589-bae8-4184-ba0f-92e01cc78443","system_id":"levelo_inurba_marseille","lat":43.31754,"lon":5.3902,"is_reserved":false,"is_disabled":false,"rental_uris":{"android":"levelo://app?vid=e5c62589-bae8-4184-ba0f-92e01cc78443","ios":"levelo://app?vid=e5c62589-bae8-4184-ba0f-92e01cc78443"},"vehicle_type_id":"4","last_reported":1784650494,"current_range_meters":4400,"station_id":"ce4bhqp2rcd13ifvqhng","pricing_plan_id":"cebpf4jnsgd1na2vs0mg"},{"bike_id":"22eb538f-e0a2-441a-9ba0-68dc2fb4421c","system_id":"levelo_inurba_marseille","lat":43.303299,"lon":5.404448,"is_reserved":false,"is_disabled":false,"rental_uris":{"android":"levelo://app?vid=22eb538f-e0a2-441a-9ba0-68dc2fb4421c","ios":"levelo://app?vid=22eb538f-e0a2-441a-9ba0-68dc2fb4421c"},"vehicle_type_id":"4","last_reported":1784650494,"current_range_meters":4400,"station_id":"ce4bh012rcd13ifvqd10","pricing_plan_id":"cebpf4jnsgd1na2vs0mg"},{"bike_id":"e03e6219-d721-4992-8b26-a4cd161aebc9","system_id":"levelo_inurba_marseille","lat":43.24787,"lon":5.39914,"is_reserved":false,"is_disabled":false,"rental_uris":{"android":"levelo://app?vid=e03e6219-d721-4992-8b26-a4cd161aebc9","ios":"levelo://app?vid=e03e6219-d721-4992-8b26-a4cd161aebc9"},"vehicle_type_id":"4","last_reported":1784650494,"current_range_meters":4400,"station_id":"","pricing_plan_id":"cebpf4jnsgd1na2vs0mg"},{"bike_id":"1378dd7a-8710-457a-b701-f563e82ed61f","system_id":"levelo_inurba_marseille","lat":43.27366,"lon":5.36246,"is_reserved":false,"is_disabled":false,"rental_uris":{"android":"levelo://app?vid=1378dd7a-8710-457a-b701-f563e82ed61f","ios":"levelo://app?vid=1378dd7a-8710-457a-b701-f563e82ed61f"},"vehicle_type_id":"4","last_reported":1784650494,"current_range_meters":4400,"station_id":"ce4bhbh2rcd13ifvqeo0","pricing_plan_id":"cebpf4jnsgd1na2vs0mg"},{"bike_id":"472db486-7bf9-44da-865a-2d96eba81268","system_id":"levelo_inurba_marseille","lat":43.29529,"lon":5.38134,"is_reserved":false,"is_disabled":false,"rental_uris":{"android":"levelo://app?vid=472db486-7bf9-44da-865a-2d96eba81268","ios":"levelo://app?vid=472db486-7bf9-44da-865a-2d96eba81268"},"vehicle_type_id":"4","last_reported":1784650494,"current_range_meters":4400,"station_id":"","pricing_plan_id":"cebpf4jnsgd1na2vs0mg"},{"bike_id":"359a63b2-7cb7-4424-b9ae-2d365d9e9c02","system_id":"levelo_inurba_marseille","lat":43.29529,"lon":5.39017,"is_reserved":false,"is_disabled":false,"rental_uris":{"android":"levelo://app?vid=359a63b2-7cb7-4424-b9ae-2d365d9e9c02","ios":"levelo://app?vid=359a63b2-7cb7-4424-b9ae-2d365d9e9c02"},"vehicle_type_id":"4","last_reported":1784650494,"current_range_meters":4400,"station_id":"ce4bh3p2rcd13ifvqdp0","pricing_plan_id":"cebpf4jnsgd1na2vs0mg"},{"bike_id":"bcbffe5e-66ce-4f19-be05-d6f900e84145","system_id":"levelo_inurba_marseille","lat":43.30558,"lon":5.38416,"is_reserved":false,"is_disabled":false,"rental_uris":{"android":"levelo://app?vid=bcbffe5e-66ce-4f19-be05-d6f900e84145","ios":"levelo://app?vid=bcbffe5e-66ce-4f19-be05-d6f900e84145"},"vehicle_type_id":"4","last_reported":1784650494,"current_range_meters":4400,"station_id":"ce4bgg92rcd13ifvqb30","pricing_plan_id":"cebpf4jnsgd1na2vs0mg"},{"bike_id":"284d0864-8f6f-4254-98e2-f78082466239","system_id":"levelo_inurba_marseille","lat":43.28728,"lon":5.352,"is_reserved":false,"is_disabled":false,"rental_uris":{"android":"levelo://app?vid=284d0864-8f6f-4254-98e2-f78082466239","ios":"levelo://app?vid=284d0864-8f6f-4254-98e2-f78082466239"},"vehicle_type_id":"4","last_reported":1784650494,"current_range_meters":4800,"station_id":"","pricing_plan_id":"cebpf4jnsgd1na2vs0mg"},{"bike_id":"d2861908-1fc6-40df-93af-8c183c3dbd31","system_id":"levelo_inurba_marseille","lat":43.29789,"lon":5.39348,"is_reserved":false,"is_disabled":true,"rental_uris":{"android":"levelo://app?vid=d2861908-1fc6-40df-93af-8c183c3dbd31","ios":"levelo://app?vid=d2861908-1fc6-40df-93af-8c183c3dbd31"},"vehicle_type_id":"4","last_reported":1784650494,"current_range_meters":4800,"station_id":"chh1huq6cuj3fo74tm60","pricing_plan_id":"cebpf4jnsgd1na2vs0mg"},{"bike_id":"97d170f8-b4d7-4c6f-bccf-c1df5a4c63f6","system_id":"levelo_inurba_marseille","lat":43.28247,"lon":5.35027,"is_reserved":false,"is_disabled":false,"rental_uris":{"android":"levelo://app?vid=97d170f8-b4d7-4c6f-bccf-c1df5a4c63f6","ios":"levelo://app?vid=97d170f8-b4d7-4c6f-bccf-c1df5a4c63f6"},"vehicle_type_id":"4","last_reported":1784650494,"current_range_meters":4800,"station_id":"ce4bhbp2rcd13ifvqerg","pricing_plan_id":"cebpf4jnsgd1na2vs0mg"},{"bike_id":"f07902e8-bab7-4fab-8a5b-abe7dedcfe8a","system_id":"levelo_inurba_marseille","lat":43.22834,"lon":5.44089,"is_reserved":false,"is_disabled":false,"rental_uris":{"android":"levelo://app?vid=f07902e8-bab7-4fab-8a5b-abe7dedcfe8a","ios":"levelo://app?vid=f07902e8-bab7-4fab-8a5b-abe7dedcfe8a"},"vehicle_type_id":"4","last_reported":1784650494,"current_range_meters":4800,"station_id":"","pricing_plan_id":"cebpf4jnsgd1na2vs0mg"},{"bike_id":"d6d75ce0-75b1-4ea5-9186-a24ead3e0e9e","system_id":"levelo_inurba_marseille","lat":43.2989,"lon":5.38897,"is_reserved":false,"is_disabled":false,"rental_uris":{"android":"levelo://app?vid=d6d75ce0-75b1-4ea5-9186-a24ead3e0e9e","ios":"levelo://app?vid=d6d75ce0-75b1-4ea5-9186-a24ead3e0e9e"},"vehicle_type_id":"4","last_reported":1784650494,"current_range_meters":4800,"station_id":"ce4bh392rcd13ifvqdl0","pricing_plan_id":"cebpf4jnsgd1na2vs0mg"},{"bike_id":"2579bf3d-f1f8-4484-8f57-db533dfc4340","system_id":"levelo_inurba_marseille","lat":43.29572,"lon":5.38061,"is_reserved":false,"is_disabled":false,"rental_uris":{"android":"levelo://app?vid=2579bf3d-f1f8-4484-8f57-db533dfc4340","ios":"levelo://app?vid=2579bf3d-f1f8-4484-8f57-db533dfc4340"},"vehicle_type_id":"4","last_reported":1784650494,"current_range_meters":4800,"station_id":"ce4bgl12rcd13ifvqbo0","pricing_plan_id":"cebpf4jnsgd1na2vs0mg"},{"bike_id":"f3da1450-b759-4c75-8515-28cb50f5af77","system_id":"levelo_inurba_marseille","lat":43.31561,"lon":5.40613,"is_reserved":false,"is_disabled":false,"rental_uris":{"android":"levelo://app?vid=f3da1450-b759-4c75-8515-28cb50f5af77","ios":"levelo://app?vid=f3da1450-b759-4c75-8515-28cb50f5af77"},"vehicle_type_id":"4","last_reported":1784650494,"current_range_meters":4800,"station_id":"","pricing_plan_id":"cebpf4jnsgd1na2vs0mg"},{"bike_id":"82c094ba-6621-432a-9b61-3b9614be9311","system_id":"levelo_inurba_marseille","lat":43.27546,"lon":5.40963,"is_reserved":false,"is_disabled":false,"rental_uris":{"android":"levelo://app?vid=82c094ba-6621-432a-9b61-3b9614be9311","ios":"levelo://app?vid=82c094ba-6621-432a-9b61-3b9614be9311"},"vehicle_type_id":"4","last_reported":1784650494,"current_range_meters":4800,"station_id":"","pricing_plan_id":"cebpf4jnsgd1na2vs0mg"},{"bike_id":"d6f5262a-6579-4cf4-98a8-df8791832f58","system_id":"levelo_inurba_marseille","lat":43.28264,"lon":5.35074,"is_reserved":false,"is_disabled":false,"rental_uris":{"android":"levelo://app?vid=d6f5262a-6579-4cf4-98a8-df8791832f58","ios":"levelo://app?vid=d6f5262a-6579-4cf4-98a8-df8791832f58"},"vehicle_type_id":"4","last_reported":1784650494,"current_range_meters":4800,"station_id":"ce4bhbp2rcd13ifvqerg","pricing_plan_id":"cebpf4jnsgd1na2vs0mg"},{"bike_id":"a9962570-c2a2-41c8-a29d-154b817fefaa","system_id":"levelo_inurba_marseille","lat":43.2448,"lon":5.41098,"is_reserved":false,"is_disabled":false,"rental_uris":{"android":"levelo://app?vid=a9962570-c2a2-41c8-a29d-154b817fefaa","ios":"levelo://app?vid=a9962570-c2a2-41c8-a29d-154b817fefaa"},"vehicle_type_id":"4","last_reported":1784650494,"current_range_meters":4800,"station_id":"","pricing_plan_id":"cebpf4jnsgd1na2vs0mg"},{"bike_id":"5af4b468-2fbe-4d44-b4a4-09183f18db8e","system_id":"levelo_inurba_marseille","lat":43.29036,"lon":5.35904,"is_reserved":false,"is_disabled":false,"rental_uris":{"android":"levelo://app?vid=5af4b468-2fbe-4d44-b4a4-09183f18db8e","ios":"levelo://app?vid=5af4b468-2fbe-4d44-b4a4-09183f18db8e"},"vehicle_type_id":"4","last_reported":1784650494,"current_range_meters":4800,"station_id":"ce4bha92rcd13ifvqeg0","pricing_plan_id":"cebpf4jnsgd1na2vs0mg"},{"bike_id":"6501867b-15c4-4a58-890c-6baad7569cb5","system_id":"levelo_inurba_marseille","lat":43.28603,"lon":5.37067,"is_reserved":false,"is_disabled":false,"rental_uris":{"android":"levelo://app?vid=6501867b-15c4-4a58-890c-6baad7569cb5","ios":"levelo://app?vid=6501867b-15c4-4a58-890c-6baad7569cb5"},"vehicle_type_id":"4","last_reported":1784650494,"current_range_meters":4800,"station_id":"ce4bht12rcd13ifvqi60","pricing_plan_id":"cebpf4jnsgd1na2vs0mg"},{"bike_id":"e4a8b9e3-c52a-4443-b1d6-b105c6d39104","system_id":"levelo_inurba_marseille","lat":43.2644,"lon":5.3711,"is_reserved":false,"is_disabled":true,"rental_uris":{"android":"levelo://app?vid=e4a8b9e3-c52a-4443-b1d6-b105c6d39104","ios":"levelo://app?vid=e4a8b9e3-c52a-4443-b1d6-b105c6d39104"},"vehicle_type_id":"4","last_reported":1784650494,"current_range_meters":4800,"station_id":"","pricing_plan_id":"cebpf4jnsgd1na2vs0mg"},{"bike_id":"56e35eae-513e-40ba-a34d-368986699dd6","system_id":"levelo_inurba_marseille","lat":43.25409,"lon":5.37959,"is_reserved":false,"is_disabled":false,"rental_uris":{"android":"levelo://app?vid=56e35eae-513e-40ba-a34d-368986699dd6","ios":"levelo://app?vid=56e35eae-513e-40ba-a34d-368986699dd6"},"vehicle_type_id":"4","last_reported":1784650494,"current_range_meters":4800,"station_id":"","pricing_plan_id":"cebpf4jnsgd1na2vs0mg"},{"bike_id":"d16dc1b5-a1b3-4293-9817-407f0649af4a","system_id":"levelo_inurba_marseille","lat":43.29537,"lon":5.39031,"is_reserved":false,"is_disabled":false,"rental_uris":{"android":"levelo://app?vid=d16dc1b5-a1b3-4293-9817-407f0649af4a","ios":"levelo://app?vid=d16dc1b5-a1b3-4293-9817-407f0649af4a"},"vehicle_type_id":"4","last_reported":1784650494,"current_range_meters":4800,"station_id":"ce4bh3p2rcd13ifvqdp0","pricing_plan_id":"cebpf4jnsgd1na2vs0mg"},{"bike_id":"92f85151-daa2-43c8-9d61-8afa8d01f66f","system_id":"levelo_inurba_marseille","lat":43.27815,"lon":5.40718,"is_reserved":false,"is_disabled":false,"rental_uris":{"android":"levelo://app?vid=92f85151-daa2-43c8-9d61-8afa8d01f66f","ios":"levelo://app?vid=92f85151-daa2-43c8-9d61-8afa8d01f66f"},"vehicle_type_id":"4","last_reported":1784650494,"current_range_meters":4800,"station_id":"ce4bhnh2rcd13ifvqgtg","pricing_plan_id":"cebpf4jnsgd1na2vs0mg"},{"bike_id":"fe0e5e6d-839c-45e5-a2cb-5f7c757a7da5","system_id":"levelo_inurba_marseille","lat":43.24389,"lon":5.37053,"is_reserved":false,"is_disabled":false,"rental_uris":{"android":"levelo://app?vid=fe0e5e6d-839c-45e5-a2cb-5f7c757a7da5","ios":"levelo://app?vid=fe0e5e6d-839c-45e5-a2cb-5f7c757a7da5"},"vehicle_type_id":"4","last_reported":1784650494,"current_range_meters":4800,"station_id":"ce4bhhh2rcd13ifvqfk0","pricing_plan_id":"cebpf4jnsgd1na2vs0mg"},{"bike_id":"d56c02aa-ed7c-48f1-846f-728608fbf5bb","system_id":"levelo_inurba_marseille","lat":43.25109,"lon":5.40319,"is_reserved":false,"is_disabled":false,"rental_uris":{"android":"levelo://app?vid=d56c02aa-ed7c-48f1-846f-728608fbf5bb","ios":"levelo://app?vid=d56c02aa-ed7c-48f1-846f-728608fbf5bb"},"vehicle_type_id":"4","last_reported":1784650494,"current_range_meters":4800,"station_id":"ce4bhlh2rcd13ifvqgig","pricing_plan_id":"cebpf4jnsgd1na2vs0mg"},{"bike_id":"2217caa5-4183-4b2f-96f4-d40721d508cf","system_id":"levelo_inurba_marseille","lat":43.28015,"lon":5.38239,"is_reserved":false,"is_disabled":false,"rental_uris":{"android":"levelo://app?vid=2217caa5-4183-4b2f-96f4-d40721d508cf","ios":"levelo://app?vid=2217caa5-4183-4b2f-96f4-d40721d508cf"},"vehicle_type_id":"4","last_reported":1784650494,"current_range_meters":4800,"station_id":"","pricing_plan_id":"cebpf4jnsgd1na2vs0mg"},{"bike_id":"4c468adf-1d9e-45f4-9455-4a3d97321091","system_id":"levelo_inurba_marseille","lat":43.24358,"lon":5.38455,"is_reserved":false,"is_disabled":false,"rental_uris":{"android":"levelo://app?vid=4c468adf-1d9e-45f4-9455-4a3d97321091","ios":"levelo://app?vid=4c468adf-1d9e-45f4-9455-4a3d97321091"},"vehicle_type_id":"4","last_reported":1784650494,"current_range_meters":4800,"station_id":"","pricing_plan_id":"cebpf4jnsgd1na2vs0mg"},{"bike_id":"6193b969-3961-43c9-bf7c-d68788aa0336","system_id":"levelo_inurba_marseille","lat":43.29007,"lon":5.35623,"is_reserved":false,"is_disabled":false,"rental_uris":{"android":"levelo://app?vid=6193b969-3961-43c9-bf7c-d68788aa0336","ios":"levelo://app?vid=6193b969-3961-43c9-bf7c-d68788aa0336"},"vehicle_type_id":"4","last_reported":1784650494,"current_range_meters":4800,"station_id":"ce4bhb92rcd13ifvqen0","pricing_plan_id":"cebpf4jnsgd1na2vs0mg"},{"bike_id":"fa8d3f44-2898-4555-860f-7b3f9a929035","system_id":"levelo_inurba_marseille","lat":43.26934,"lon":5.38918,"is_reserved":false,"is_disabled":false,"rental_uris":{"android":"levelo://app?vid=fa8d3f44-2898-4555-860f-7b3f9a929035","ios":"levelo://app?vid=fa8d3f44-2898-4555-860f-7b3f9a929035"},"vehicle_type_id":"4","last_reported":1784650494,"current_range_meters":4800,"station_id":"ce4bhhh2rcd13ifvqfl0","pricing_plan_id":"cebpf4jnsgd1na2vs0mg"},{"bike_id":"2d9d0803-4771-496d-8925-5b2e232b4636","system_id":"levelo_inurba_marseille","lat":43.22576,"lon":5.4162,"is_reserved":false,"is_disabled":false,"rental_uris":{"android":"levelo://app?vid=2d9d0803-4771-496d-8925-5b2e232b4636","ios":"levelo://app?vid=2d9d0803-4771-496d-8925-5b2e232b4636"},"vehicle_type_id":"4","last_reported":1784650494,"current_range_meters":4800,"station_id":"st_d2o4gvlbi1j2169b742g","pricing_plan_id":"cebpf4jnsgd1na2vs0mg"},{"bike_id":"65ad9de8-7135-4e55-bf82-697b44118451","system_id":"levelo_inurba_marseille","lat":43.31918,"lon":5.36878,"is_reserved":false,"is_disabled":false,"rental_uris":{"android":"levelo://app?vid=65ad9de8-7135-4e55-bf82-697b44118451","ios":"levelo://app?vid=65ad9de8-7135-4e55-bf82-697b44118451"},"vehicle_type_id":"4","last_reported":1784650494,"current_range_meters":5600,"station_id":"","pricing_plan_id":"cebpf4jnsgd1na2vs0mg"},{"bike_id":"be7033ce-6349-45aa-896a-387ca8ede0b4","system_id":"levelo_inurba_marseille","lat":43.28505,"lon":5.48392,"is_reserved":false,"is_disabled":false,"rental_uris":{"android":"levelo://app?vid=be7033ce-6349-45aa-896a-387ca8ede0b4","ios":"levelo://app?vid=be7033ce-6349-45aa-896a-387ca8ede0b4"},"vehicle_type_id":"4","last_reported":1784650494,"current_range_meters":5600,"station_id":"st_d3svhcjqgbts73a3dn0g","pricing_plan_id":"cebpf4jnsgd1na2vs0mg"},{"bike_id":"c61b03c7-bdcc-4b43-9eb2-16cb8d8e68f6","system_id":"levelo_inurba_marseille","lat":43.33538,"lon":5.37478,"is_reserved":false,"is_disabled":false,"rental_uris":{"android":"levelo://app?vid=c61b03c7-bdcc-4b43-9eb2-16cb8d8e68f6","ios":"levelo://app?vid=c61b03c7-bdcc-4b43-9eb2-16cb8d8e68f6"},"vehicle_type_id":"4","last_reported":1784650494,"current_range_meters":5600,"station_id":"st_d46tts09ee8s73dlu43g","pricing_plan_id":"cebpf4jnsgd1na2vs0mg"},{"bike_id":"489d4e83-3aa3-449d-a2ce-274b8bbe70f0","system_id":"levelo_inurba_marseille","lat":43.30123,"lon":5.43104,"is_reserved":false,"is_disabled":false,"rental_uris":{"android":"levelo://app?vid=489d4e83-3aa3-449d-a2ce-274b8bbe70f0","ios":"levelo://app?vid=489d4e83-3aa3-449d-a2ce-274b8bbe70f0"},"vehicle_type_id":"4","last_reported":1784650494,"current_range_meters":5600,"station_id":"st_d3js3co5814s73ftftug","pricing_plan_id":"cebpf4jnsgd1na2vs0mg"},{"bike_id":"c5f2fb66-30d9-4cc8-ba12-ddf356dbdf5b","system_id":"levelo_inurba_marseille","lat":43.33146,"lon":5.3769,"is_reserved":false,"is_disabled":false,"rental_uris":{"android":"levelo://app?vid=c5f2fb66-30d9-4cc8-ba12-ddf356dbdf5b","ios":"levelo://app?vid=c5f2fb66-30d9-4cc8-ba12-ddf356dbdf5b"},"vehicle_type_id":"4","last_reported":1784650494,"current_range_meters":5600,"station_id":"st_d46cu089ee8s73dldbu0","pricing_plan_id":"cebpf4jnsgd1na2vs0mg"},{"bike_id":"1fc8443c-ce65-4cef-9e27-7a7fe91135f0","system_id":"levelo_inurba_marseille","lat":43.33232,"lon":5.36458,"is_reserved":false,"is_disabled":false,"rental_uris":{"android":"levelo://app?vid=1fc8443c-ce65-4cef-9e27-7a7fe91135f0","ios":"levelo://app?vid=1fc8443c-ce65-4cef-9e27-7a7fe91135f0"},"vehicle_type_id":"4","last_reported":1784650494,"current_range_meters":5600,"station_id":"","pricing_plan_id":"cebpf4jnsgd1na2vs0mg"},{"bike_id":"8923e282-16ce-478e-91d0-b741eab043c7","system_id":"levelo_inurba_marseille","lat":43.24175,"lon":5.36394,"is_reserved":false,"is_disabled":false,"rental_uris":{"android":"levelo://app?vid=8923e282-16ce-478e-91d0-b741eab043c7","ios":"levelo://app?vid=8923e282-16ce-478e-91d0-b741eab043c7"},"vehicle_type_id":"4","last_reported":1784650494,"current_range_meters":5600,"station_id":"cpo36qri1sfpv3e86is0","pricing_plan_id":"cebpf4jnsgd1na2vs0mg"},{"bike_id":"df8f4a4d-9f13-4f28-9bf9-46b162157317","system_id":"levelo_inurba_marseille","lat":43.28619,"lon":5.35101,"is_reserved":false,"is_disabled":false,"rental_uris":{"android":"levelo://app?vid=df8f4a4d-9f13-4f28-9bf9-46b162157317","ios":"levelo://app?vid=df8f4a4d-9f13-4f28-9bf9-46b162157317"},"vehicle_type_id":"4","last_reported":1784650494,"current_range_meters":5600,"station_id":"ce4bhch2rcd13ifvqeug","pricing_plan_id":"cebpf4jnsgd1na2vs0mg"},{"bike_id":"f9a4978c-66bc-414a-b059-ba0305add237","system_id":"levelo_inurba_marseille","lat":43.33108,"lon":5.43143,"is_reserved":false,"is_disabled":false,"rental_uris":{"android":"levelo://app?vid=f9a4978c-66bc-414a-b059-ba0305add237","ios":"levelo://app?vid=f9a4978c-66bc-414a-b059-ba0305add237"},"vehicle_type_id":"4","last_reported":1784650494,"current_range_meters":5600,"station_id":"","pricing_plan_id":"cebpf4jnsgd1na2vs0mg"},{"bike_id":"61f46f00-12a6-469d-86ba-03b4c49102bd","system_id":"levelo_inurba_marseille","lat":43.31359,"lon":5.38653,"is_reserved":false,"is_disabled":false,"rental_uris":{"android":"levelo://app?vid=61f46f00-12a6-469d-86ba-03b4c49102bd","ios":"levelo://app?vid=61f46f00-12a6-469d-86ba-03b4c49102bd"},"vehicle_type_id":"4","last_reported":1784650494,"current_range_meters":5600,"station_id":"","pricing_plan_id":"cebpf4jnsgd1na2vs0mg"},{"bike_id":"31b9fa8f-0c56-44db-819a-77e3937abafe","system_id":"levelo_inurba_marseille","lat":43.29394,"lon":5.37928,"is_reserved":false,"is_disabled":false,"rental_uris":{"android":"levelo://app?vid=31b9fa8f-0c56-44db-819a-77e3937abafe","ios":"levelo://app?vid=31b9fa8f-0c56-44db-819a-77e3937abafe"},"vehicle_type_id":"4","last_reported":1784650494,"current_range_meters":5600,"station_id":"","pricing_plan_id":"cebpf4jnsgd1na2vs0mg"},{"bike_id":"176d9918-da49-4b6f-9f1e-c592ac19ece3","system_id":"levelo_inurba_marseille","lat":43.29631,"lon":5.40598,"is_reserved":false,"is_disabled":false,"rental_uris":{"android":"levelo://app?vid=176d9918-da49-4b6f-9f1e-c592ac19ece3","ios":"levelo://app?vid=176d9918-da49-4b6f-9f1e-c592ac19ece3"},"vehicle_type_id":"4","last_reported":1784650494,"current_range_meters":6000,"station_id":"ce4bh0h2rcd13ifvqd60","pricing_plan_id":"cebpf4jnsgd1na2vs0mg"},{"bike_id":"300434e3-033f-4cfe-afb5-86f6b36b6890","system_id":"levelo_inurba_marseille","lat":43.31435,"lon":5.40541,"is_reserved":false,"is_disabled":false,"rental_uris":{"android":"levelo://app?vid=300434e3-033f-4cfe-afb5-86f6b36b6890","ios":"levelo://app?vid=300434e3-033f-4cfe-afb5-86f6b36b6890"},"vehicle_type_id":"4","last_reported":1784650494,"current_range_meters":6000,"station_id":"","pricing_plan_id":"cebpf4jnsgd1na2vs0mg"},{"bike_id":"973cc9fa-90d1-4339-bfcb-f4d72452c263","system_id":"levelo_inurba_marseille","lat":43.28281,"lon":5.35066,"is_reserved":false,"is_disabled":false,"rental_uris":{"android":"levelo://app?vid=973cc9fa-90d1-4339-bfcb-f4d72452c263","ios":"levelo://app?vid=973cc9fa-90d1-4339-bfcb-f4d72452c263"},"vehicle_type_id":"4","last_reported":1784650494,"current_range_meters":6000,"station_id":"ce4bhbp2rcd13ifvqerg","pricing_plan_id":"cebpf4jnsgd1na2vs0mg"},{"bike_id":"28510ffc-cfd4-4767-bd9c-21b68da4e0a3","system_id":"levelo_inurba_marseille","lat":43.28049,"lon":5.36934,"is_reserved":false,"is_disabled":false,"rental_uris":{"android":"levelo://app?vid=28510ffc-cfd4-4767-bd9c-21b68da4e0a3","ios":"levelo://app?vid=28510ffc-cfd4-4767-bd9c-21b68da4e0a3"},"vehicle_type_id":"4","last_reported":1784650494,"current_range_meters":6000,"station_id":"ce4bha12rcd13ifvqef0","pricing_plan_id":"cebpf4jnsgd1na2vs0mg"},{"bike_id":"d1ef5cf5-8754-40bc-be1e-38c559e312e0","system_id":"levelo_inurba_marseille","lat":43.29179,"lon":5.35799,"is_reserved":false,"is_disabled":false,"rental_uris":{"android":"levelo://app?vid=d1ef5cf5-8754-40bc-be1e-38c559e312e0","ios":"levelo://app?vid=d1ef5cf5-8754-40bc-be1e-38c559e312e0"},"vehicle_type_id":"4","last_reported":1784650494,"current_range_meters":6000,"station_id":"ce4bhb12rcd13ifvqel0","pricing_plan_id":"cebpf4jnsgd1na2vs0mg"},{"bike_id":"4a33b677-455a-4266-82f4-f3aec0f6aea3","system_id":"levelo_inurba_marseille","lat":43.297,"lon":5.36591,"is_reserved":false,"is_disabled":false,"rental_uris":{"android":"levelo://app?vid=4a33b677-455a-4266-82f4-f3aec0f6aea3","ios":"levelo://app?vid=4a33b677-455a-4266-82f4-f3aec0f6aea3"},"vehicle_type_id":"4","last_reported":1784650494,"current_range_meters":6000,"station_id":"ce4bgn12rcd13ifvqbt0","pricing_plan_id":"cebpf4jnsgd1na2vs0mg"},{"bike_id":"ae4bdf5c-d622-4933-80fb-a74dd8cece07","system_id":"levelo_inurba_marseille","lat":43.28447,"lon":5.39179,"is_reserved":false,"is_disabled":false,"rental_uris":{"android":"levelo://app?vid=ae4bdf5c-d622-4933-80fb-a74dd8cece07","ios":"levelo://app?vid=ae4bdf5c-d622-4933-80fb-a74dd8cece07"},"vehicle_type_id":"4","last_reported":1784650494,"current_range_meters":6000,"station_id":"ce4bhoh2rcd13ifvqh5g","pricing_plan_id":"cebpf4jnsgd1na2vs0mg"},{"bike_id":"c7b43435-792d-45e9-90f7-5665284d4451","system_id":"levelo_inurba_marseille","lat":43.26777,"lon":5.39423,"is_reserved":false,"is_disabled":false,"rental_uris":{"android":"levelo://app?vid=c7b43435-792d-45e9-90f7-5665284d4451","ios":"levelo://app?vid=c7b43435-792d-45e9-90f7-5665284d4451"},"vehicle_type_id":"4","last_reported":1784650494,"current_range_meters":6000,"station_id":"ce4bhh12rcd13ifvqfg0","pricing_plan_id":"cebpf4jnsgd1na2vs0mg"},{"bike_id":"573e99fe-8fdd-4c6b-a838-f145357086c5","system_id":"levelo_inurba_marseille","lat":43.24993,"lon":5.38913,"is_reserved":false,"is_disabled":false,"rental_uris":{"android":"levelo://app?vid=573e99fe-8fdd-4c6b-a838-f145357086c5","ios":"levelo://app?vid=573e99fe-8fdd-4c6b-a838-f145357086c5"},"vehicle_type_id":"4","last_reported":1784650494,"current_range_meters":6000,"station_id":"ce4bhgp2rcd13ifvqfd0","pricing_plan_id":"cebpf4jnsgd1na2vs0mg"},{"bike_id":"d849f32d-2d54-4699-94fb-3fe159cbce00","system_id":"levelo_inurba_marseille","lat":43.29193,"lon":5.358,"is_reserved":false,"is_disabled":false,"rental_uris":{"android":"levelo://app?vid=d849f32d-2d54-4699-94fb-3fe159cbce00","ios":"levelo://app?vid=d849f32d-2d54-4699-94fb-3fe159cbce00"},"vehicle_type_id":"4","last_reported":1784650494,"current_range_meters":6000,"station_id":"ce4bhb12rcd13ifvqel0","pricing_plan_id":"cebpf4jnsgd1na2vs0mg"},{"bike_id":"378dc8b4-7b5b-41fb-bb3a-bccf46e50dba","system_id":"levelo_inurba_marseille","lat":43.29515,"lon":5.37831,"is_reserved":false,"is_disabled":false,"rental_uris":{"android":"levelo://app?vid=378dc8b4-7b5b-41fb-bb3a-bccf46e50dba","ios":"levelo://app?vid=378dc8b4-7b5b-41fb-bb3a-bccf46e50dba"},"vehicle_type_id":"4","last_reported":1784650494,"current_range_meters":6000,"station_id":"","pricing_plan_id":"cebpf4jnsgd1na2vs0mg"},{"bike_id":"817d6c44-27e9-4cf4-ae68-1ed7e85f28b6","system_id":"levelo_inurba_marseille","lat":43.2889,"lon":5.36552,"is_reserved":false,"is_disabled":false,"rental_uris":{"android":"levelo://app?vid=817d6c44-27e9-4cf4-ae68-1ed7e85f28b6","ios":"levelo://app?vid=817d6c44-27e9-4cf4-ae68-1ed7e85f28b6"},"vehicle_type_id":"4","last_reported":1784650494,"current_range_meters":6000,"station_id":"","pricing_plan_id":"cebpf4jnsgd1na2vs0mg"},{"bike_id":"baa7342d-b859-4a5f-b112-71653b0c9739","system_id":"levelo_inurba_marseille","lat":43.30132,"lon":5.39855,"is_reserved":false,"is_disabled":false,"rental_uris":{"android":"levelo://app?vid=baa7342d-b859-4a5f-b112-71653b0c9739","ios":"levelo://app?vid=baa7342d-b859-4a5f-b112-71653b0c9739"},"vehicle_type_id":"4","last_reported":1784650494,"current_range_meters":6000,"station_id":"ce4bh0h2rcd13ifvqd40","pricing_plan_id":"cebpf4jnsgd1na2vs0mg"},{"bike_id":"f9c65922-483e-4914-92f4-f7524b9a110d","system_id":"levelo_inurba_marseille","lat":43.32349,"lon":5.36728,"is_reserved":false,"is_disabled":false,"rental_uris":{"android":"levelo://app?vid=f9c65922-483e-4914-92f4-f7524b9a110d","ios":"levelo://app?vid=f9c65922-483e-4914-92f4-f7524b9a110d"},"vehicle_type_id":"4","last_reported":1784650494,"current_range_meters":6400,"station_id":"ce4bhsh2rcd13ifvqi2g","pricing_plan_id":"cebpf4jnsgd1na2vs0mg"},{"bike_id":"73848cff-b9fd-486c-a8ca-6edab09c1df7","system_id":"levelo_inurba_marseille","lat":43.26066,"lon":5.39388,"is_reserved":false,"is_disabled":false,"rental_uris":{"android":"levelo://app?vid=73848cff-b9fd-486c-a8ca-6edab09c1df7","ios":"levelo://app?vid=73848cff-b9fd-486c-a8ca-6edab09c1df7"},"vehicle_type_id":"4","last_reported":1784650494,"current_range_meters":6400,"station_id":"ce4bhh92rcd13ifvqfj0","pricing_plan_id":"cebpf4jnsgd1na2vs0mg"},{"bike_id":"a1035c84-007c-463a-be25-115787863797","system_id":"levelo_inurba_marseille","lat":43.30462,"lon":5.42123,"is_reserved":false,"is_disabled":false,"rental_uris":{"android":"levelo://app?vid=a1035c84-007c-463a-be25-115787863797","ios":"levelo://app?vid=a1035c84-007c-463a-be25-115787863797"},"vehicle_type_id":"4","last_reported":1784650494,"current_range_meters":6400,"station_id":"","pricing_plan_id":"cebpf4jnsgd1na2vs0mg"},{"bike_id":"7e633021-b068-4b5b-af34-f0ea4d63bdfd","system_id":"levelo_inurba_marseille","lat":43.29915,"lon":5.37471,"is_reserved":false,"is_disabled":false,"rental_uris":{"android":"levelo://app?vid=7e633021-b068-4b5b-af34-f0ea4d63bdfd","ios":"levelo://app?vid=7e633021-b068-4b5b-af34-f0ea4d63bdfd"},"vehicle_type_id":"4","last_reported":1784650494,"current_range_meters":6400,"station_id":"ce4bgjh2rcd13ifvqbg0","pricing_plan_id":"cebpf4jnsgd1na2vs0mg"},{"bike_id":"e043adce-eef3-482c-8d47-d20a4c32ef44","system_id":"levelo_inurba_marseille","lat":43.25506,"lon":5.37635,"is_reserved":false,"is_disabled":true,"rental_uris":{"android":"levelo://app?vid=e043adce-eef3-482c-8d47-d20a4c32ef44","ios":"levelo://app?vid=e043adce-eef3-482c-8d47-d20a4c32ef44"},"vehicle_type_id":"4","last_reported":1784650494,"current_range_meters":6400,"station_id":"ce4bhh12rcd13ifvqff0","pricing_plan_id":"cebpf4jnsgd1na2vs0mg"},{"bike_id":"d5dc4047-837c-4903-af6c-3b2812f316bc","system_id":"levelo_inurba_marseille","lat":43.310436,"lon":5.37163,"is_reserved":false,"is_disabled":true,"rental_uris":{"android":"levelo://app?vid=d5dc4047-837c-4903-af6c-3b2812f316bc","ios":"levelo://app?vid=d5dc4047-837c-4903-af6c-3b2812f316bc"},"vehicle_type_id":"4","last_reported":1784650494,"current_range_meters":6400,"station_id":"st_d4kl2rp97mjs73e7tdfg","pricing_plan_id":"cebpf4jnsgd1na2vs0mg"},{"bike_id":"1851f267-3c7a-40a0-a5ac-e447a9a29f87","system_id":"levelo_inurba_marseille","lat":43.28479,"lon":5.48405,"is_reserved":false,"is_disabled":false,"rental_uris":{"android":"levelo://app?vid=1851f267-3c7a-40a0-a5ac-e447a9a29f87","ios":"levelo://app?vid=1851f267-3c7a-40a0-a5ac-e447a9a29f87"},"vehicle_type_id":"4","last_reported":1784650494,"current_range_meters":6400,"station_id":"st_d3svhcjqgbts73a3dn0g","pricing_plan_id":"cebpf4jnsgd1na2vs0mg"},{"bike_id":"d4196743-96d9-47b8-8dcc-14266b2d98c2","system_id":"levelo_inurba_marseille","lat":43.27569,"lon":5.38414,"is_reserved":false,"is_disabled":false,"rental_uris":{"android":"levelo://app?vid=d4196743-96d9-47b8-8dcc-14266b2d98c2","ios":"levelo://app?vid=d4196743-96d9-47b8-8dcc-14266b2d98c2"},"vehicle_type_id":"4","last_reported":1784650494,"current_range_meters":6400,"station_id":"ce4bhh92rcd13ifvqfi0","pricing_plan_id":"cebpf4jnsgd1na2vs0mg"},{"bike_id":"d93ce73f-d9a8-484f-8af7-9781d9aff59b","system_id":"levelo_inurba_marseille","lat":43.24683,"lon":5.38157,"is_reserved":false,"is_disabled":false,"rental_uris":{"android":"levelo://app?vid=d93ce73f-d9a8-484f-8af7-9781d9aff59b","ios":"levelo://app?vid=d93ce73f-d9a8-484f-8af7-9781d9aff59b"},"vehicle_type_id":"4","last_reported":1784650494,"current_range_meters":6400,"station_id":"ce4bhih2rcd13ifvqfr0","pricing_plan_id":"cebpf4jnsgd1na2vs0mg"},{"bike_id":"4bf85544-84dc-4500-9552-7355996688c3","system_id":"levelo_inurba_marseille","lat":43.29137,"lon":5.37675,"is_reserved":false,"is_disabled":false,"rental_uris":{"android":"levelo://app?vid=4bf85544-84dc-4500-9552-7355996688c3","ios":"levelo://app?vid=4bf85544-84dc-4500-9552-7355996688c3"},"vehicle_type_id":"4","last_reported":1784650494,"current_range_meters":6400,"station_id":"","pricing_plan_id":"cebpf4jnsgd1na2vs0mg"},{"bike_id":"a4e15bf9-7b24-4fd8-b187-39ed75273a73","system_id":"levelo_inurba_marseille","lat":43.21757,"lon":5.3459,"is_reserved":false,"is_disabled":false,"rental_uris":{"android":"levelo://app?vid=a4e15bf9-7b24-4fd8-b187-39ed75273a73","ios":"levelo://app?vid=a4e15bf9-7b24-4fd8-b187-39ed75273a73"},"vehicle_type_id":"4","last_reported":1784650494,"current_range_meters":6400,"station_id":"st_cvj6r9ubvosntc0bgbag","pricing_plan_id":"cebpf4jnsgd1na2vs0mg"},{"bike_id":"b2d800e5-3728-49d1-8ac5-c09df2267af1","system_id":"levelo_inurba_marseille","lat":43.26154,"lon":5.38167,"is_reserved":false,"is_disabled":false,"rental_uris":{"android":"levelo://app?vid=b2d800e5-3728-49d1-8ac5-c09df2267af1","ios":"levelo://app?vid=b2d800e5-3728-49d1-8ac5-c09df2267af1"},"vehicle_type_id":"4","last_reported":1784650494,"current_range_meters":6400,"station_id":"","pricing_plan_id":"cebpf4jnsgd1na2vs0mg"},{"bike_id":"fecff0c7-27ae-402e-8587-e1d002834990","system_id":"levelo_inurba_marseille","lat":43.28341,"lon":5.46015,"is_reserved":false,"is_disabled":false,"rental_uris":{"android":"levelo://app?vid=fecff0c7-27ae-402e-8587-e1d002834990","ios":"levelo://app?vid=fecff0c7-27ae-402e-8587-e1d002834990"},"vehicle_type_id":"4","last_reported":1784650494,"current_range_meters":6400,"station_id":"","pricing_plan_id":"cebpf4jnsgd1na2vs0mg"},{"bike_id":"b39e5416-e73c-4625-b770-fd8fd15fa694","system_id":"levelo_inurba_marseille","lat":43.30472,"lon":5.38941,"is_reserved":false,"is_disabled":false,"rental_uris":{"android":"levelo://app?vid=b39e5416-e73c-4625-b770-fd8fd15fa694","ios":"levelo://app?vid=b39e5416-e73c-4625-b770-fd8fd15fa694"},"vehicle_type_id":"4","last_reported":1784650494,"current_range_meters":6800,"station_id":"ce4bgk12rcd13ifvqbi0","pricing_plan_id":"cebpf4jnsgd1na2vs0mg"},{"bike_id":"654e9c62-61d5-4f22-8ad1-0d455ddd0280","system_id":"levelo_inurba_marseille","lat":43.28616,"lon":5.3509,"is_reserved":false,"is_disabled":false,"rental_uris":{"android":"levelo://app?vid=654e9c62-61d5-4f22-8ad1-0d455ddd0280","ios":"levelo://app?vid=654e9c62-61d5-4f22-8ad1-0d455ddd0280"},"vehicle_type_id":"4","last_reported":1784650494,"current_range_meters":6800,"station_id":"ce4bhch2rcd13ifvqeug","pricing_plan_id":"cebpf4jnsgd1na2vs0mg"},{"bike_id":"0a5ea0fc-c8a1-429f-9d8f-ecb1f7bb061c","system_id":"levelo_inurba_marseille","lat":43.28414,"lon":5.34993,"is_reserved":false,"is_disabled":false,"rental_uris":{"android":"levelo://app?vid=0a5ea0fc-c8a1-429f-9d8f-ecb1f7bb061c","ios":"levelo://app?vid=0a5ea0fc-c8a1-429f-9d8f-ecb1f7bb061c"},"vehicle_type_id":"4","last_reported":1784650494,"current_range_meters":6800,"station_id":"ce4bhbh2rcd13ifvqepg","pricing_plan_id":"cebpf4jnsgd1na2vs0mg"},{"bike_id":"df524e8f-9969-4e92-9c37-c1f701f1e33d","system_id":"levelo_inurba_marseille","lat":43.304379,"lon":5.388841,"is_reserved":false,"is_disabled":false,"rental_uris":{"android":"levelo://app?vid=df524e8f-9969-4e92-9c37-c1f701f1e33d","ios":"levelo://app?vid=df524e8f-9969-4e92-9c37-c1f701f1e33d"},"vehicle_type_id":"4","last_reported":1784650494,"current_range_meters":6800,"station_id":"ce4bgk12rcd13ifvqbi0","pricing_plan_id":"cebpf4jnsgd1na2vs0mg"},{"bike_id":"bd9f1f31-465e-430a-9d33-984b9b810f6b","system_id":"levelo_inurba_marseille","lat":43.27622,"lon":5.36123,"is_reserved":false,"is_disabled":false,"rental_uris":{"android":"levelo://app?vid=bd9f1f31-465e-430a-9d33-984b9b810f6b","ios":"levelo://app?vid=bd9f1f31-465e-430a-9d33-984b9b810f6b"},"vehicle_type_id":"4","last_reported":1784650494,"current_range_meters":6800,"station_id":"ce4bgj92rcd13ifvqbe0","pricing_plan_id":"cebpf4jnsgd1na2vs0mg"},{"bike_id":"0da61e56-f933-4a51-8d32-a5da0b16d39b","system_id":"levelo_inurba_marseille","lat":43.23776,"lon":5.3662,"is_reserved":false,"is_disabled":false,"rental_uris":{"android":"levelo://app?vid=0da61e56-f933-4a51-8d32-a5da0b16d39b","ios":"levelo://app?vid=0da61e56-f933-4a51-8d32-a5da0b16d39b"},"vehicle_type_id":"4","last_reported":1784650494,"current_range_meters":6800,"station_id":"st_d3nk18o9ro0c73en2l3g","pricing_plan_id":"cebpf4jnsgd1na2vs0mg"},{"bike_id":"1e42c674-669d-4c56-9517-16bdcca1d9db","system_id":"levelo_inurba_marseille","lat":43.325,"lon":5.38302,"is_reserved":false,"is_disabled":false,"rental_uris":{"android":"levelo://app?vid=1e42c674-669d-4c56-9517-16bdcca1d9db","ios":"levelo://app?vid=1e42c674-669d-4c56-9517-16bdcca1d9db"},"vehicle_type_id":"4","last_reported":1784650494,"current_range_meters":6800,"station_id":"st_d4asgbiv49dc73anf9m0","pricing_plan_id":"cebpf4jnsgd1na2vs0mg"},{"bike_id":"8f990aee-2b29-45f2-96d6-bc76023e9bd7","system_id":"levelo_inurba_marseille","lat":43.23188,"lon":5.35549,"is_reserved":false,"is_disabled":false,"rental_uris":{"android":"levelo://app?vid=8f990aee-2b29-45f2-96d6-bc76023e9bd7","ios":"levelo://app?vid=8f990aee-2b29-45f2-96d6-bc76023e9bd7"},"vehicle_type_id":"4","last_reported":1784650494,"current_range_meters":6800,"station_id":"ce4bhu92rcd13ifvqi70","pricing_plan_id":"cebpf4jnsgd1na2vs0mg"},{"bike_id":"09d9ef3d-9c6f-430a-91c3-bb4831e96fd6","system_id":"levelo_inurba_marseille","lat":43.22802,"lon":5.3492,"is_reserved":false,"is_disabled":false,"rental_uris":{"android":"levelo://app?vid=09d9ef3d-9c6f-430a-91c3-bb4831e96fd6","ios":"levelo://app?vid=09d9ef3d-9c6f-430a-91c3-bb4831e96fd6"},"vehicle_type_id":"4","last_reported":1784650494,"current_range_meters":6800,"station_id":"","pricing_plan_id":"cebpf4jnsgd1na2vs0mg"},{"bike_id":"825de0d1-7be6-41f2-a58a-1dcf1a8629b3","system_id":"levelo_inurba_marseille","lat":43.2859,"lon":5.38786,"is_reserved":false,"is_disabled":false,"rental_uris":{"android":"levelo://app?vid=825de0d1-7be6-41f2-a58a-1dcf1a8629b3","ios":"levelo://app?vid=825de0d1-7be6-41f2-a58a-1dcf1a8629b3"},"vehicle_type_id":"4","last_reported":1784650494,"current_range_meters":6800,"station_id":"","pricing_plan_id":"cebpf4jnsgd1na2vs0mg"},{"bike_id":"efe1a1c6-1569-4879-accc-14f17bba8c6d","system_id":"levelo_inurba_marseille","lat":43.29725,"lon":5.35951,"is_reserved":false,"is_disabled":false,"rental_uris":{"android":"levelo://app?vid=efe1a1c6-1569-4879-accc-14f17bba8c6d","ios":"levelo://app?vid=efe1a1c6-1569-4879-accc-14f17bba8c6d"},"vehicle_type_id":"4","last_reported":1784650494,"current_range_meters":6800,"station_id":"","pricing_plan_id":"cebpf4jnsgd1na2vs0mg"},{"bike_id":"278f3296-4d30-4fe3-b4b6-1124858a6234","system_id":"levelo_inurba_marseille","lat":43.28619,"lon":5.35103,"is_reserved":false,"is_disabled":false,"rental_uris":{"android":"levelo://app?vid=278f3296-4d30-4fe3-b4b6-1124858a6234","ios":"levelo://app?vid=278f3296-4d30-4fe3-b4b6-1124858a6234"},"vehicle_type_id":"4","last_reported":1784650494,"current_range_meters":7200,"station_id":"ce4bhch2rcd13ifvqeug","pricing_plan_id":"cebpf4jnsgd1na2vs0mg"},{"bike_id":"158a2201-0565-428f-809a-867b1b32c3d0","system_id":"levelo_inurba_marseille","lat":43.28263,"lon":5.35074,"is_reserved":false,"is_disabled":false,"rental_uris":{"android":"levelo://app?vid=158a2201-0565-428f-809a-867b1b32c3d0","ios":"levelo://app?vid=158a2201-0565-428f-809a-867b1b32c3d0"},"vehicle_type_id":"4","last_reported":1784650494,"current_range_meters":7200,"station_id":"ce4bhbp2rcd13ifvqerg","pricing_plan_id":"cebpf4jnsgd1na2vs0mg"},{"bike_id":"e7ff1713-1238-4732-a2b7-908c583e178d","system_id":"levelo_inurba_marseille","lat":43.30884,"lon":5.37174,"is_reserved":false,"is_disabled":false,"rental_uris":{"android":"levelo://app?vid=e7ff1713-1238-4732-a2b7-908c583e178d","ios":"levelo://app?vid=e7ff1713-1238-4732-a2b7-908c583e178d"},"vehicle_type_id":"4","last_reported":1784650494,"current_range_meters":7200,"station_id":"ce4bguh2rcd13ifvqckg","pricing_plan_id":"cebpf4jnsgd1na2vs0mg"},{"bike_id":"f1288106-a8c3-4624-ad2a-44299213b3e2","system_id":"levelo_inurba_marseille","lat":43.29566,"lon":5.36782,"is_reserved":false,"is_disabled":true,"rental_uris":{"android":"levelo://app?vid=f1288106-a8c3-4624-ad2a-44299213b3e2","ios":"levelo://app?vid=f1288106-a8c3-4624-ad2a-44299213b3e2"},"vehicle_type_id":"4","last_reported":1784650494,"current_range_meters":7200,"station_id":"","pricing_plan_id":"cebpf4jnsgd1na2vs0mg"},{"bike_id":"9adec930-eb5c-4b3b-b16f-061969c5d4f0","system_id":"levelo_inurba_marseille","lat":43.28254,"lon":5.35073,"is_reserved":false,"is_disabled":false,"rental_uris":{"android":"levelo://app?vid=9adec930-eb5c-4b3b-b16f-061969c5d4f0","ios":"levelo://app?vid=9adec930-eb5c-4b3b-b16f-061969c5d4f0"},"vehicle_type_id":"4","last_reported":1784650494,"current_range_meters":7200,"station_id":"ce4bhbp2rcd13ifvqerg","pricing_plan_id":"cebpf4jnsgd1na2vs0mg"},{"bike_id":"1fada187-c9af-4e67-9b29-63c718fa1661","system_id":"levelo_inurba_marseille","lat":43.25501,"lon":5.37642,"is_reserved":false,"is_disabled":false,"rental_uris":{"android":"levelo://app?vid=1fada187-c9af-4e67-9b29-63c718fa1661","ios":"levelo://app?vid=1fada187-c9af-4e67-9b29-63c718fa1661"},"vehicle_type_id":"4","last_reported":1784650494,"current_range_meters":7200,"station_id":"ce4bhh12rcd13ifvqff0","pricing_plan_id":"cebpf4jnsgd1na2vs0mg"},{"bike_id":"5f3aab80-1eb7-445c-8ee0-1acfe4e76309","system_id":"levelo_inurba_marseille","lat":43.25229,"lon":5.37281,"is_reserved":false,"is_disabled":false,"rental_uris":{"android":"levelo://app?vid=5f3aab80-1eb7-445c-8ee0-1acfe4e76309","ios":"levelo://app?vid=5f3aab80-1eb7-445c-8ee0-1acfe4e76309"},"vehicle_type_id":"4","last_reported":1784650494,"current_range_meters":7200,"station_id":"","pricing_plan_id":"cebpf4jnsgd1na2vs0mg"},{"bike_id":"47f16915-4837-4ed5-b765-ac148cf00d48","system_id":"levelo_inurba_marseille","lat":43.29932,"lon":5.37475,"is_reserved":false,"is_disabled":false,"rental_uris":{"android":"levelo://app?vid=47f16915-4837-4ed5-b765-ac148cf00d48","ios":"levelo://app?vid=47f16915-4837-4ed5-b765-ac148cf00d48"},"vehicle_type_id":"4","last_reported":1784650494,"current_range_meters":7200,"station_id":"ce4bgjh2rcd13ifvqbg0","pricing_plan_id":"cebpf4jnsgd1na2vs0mg"},{"bike_id":"8f9bdf45-12dd-4021-b249-580afdf03556","system_id":"levelo_inurba_marseille","lat":43.2319,"lon":5.35546,"is_reserved":false,"is_disabled":false,"rental_uris":{"android":"levelo://app?vid=8f9bdf45-12dd-4021-b249-580afdf03556","ios":"levelo://app?vid=8f9bdf45-12dd-4021-b249-580afdf03556"},"vehicle_type_id":"4","last_reported":1784650494,"current_range_meters":7200,"station_id":"ce4bhu92rcd13ifvqi70","pricing_plan_id":"cebpf4jnsgd1na2vs0mg"},{"bike_id":"8a867620-8625-40da-aae5-d95d7bca02e8","system_id":"levelo_inurba_marseille","lat":43.31905,"lon":5.36821,"is_reserved":false,"is_disabled":false,"rental_uris":{"android":"levelo://app?vid=8a867620-8625-40da-aae5-d95d7bca02e8","ios":"levelo://app?vid=8a867620-8625-40da-aae5-d95d7bca02e8"},"vehicle_type_id":"4","last_reported":1784650494,"current_range_meters":7200,"station_id":"st_d6o2h0d0559c73evc1b0","pricing_plan_id":"cebpf4jnsgd1na2vs0mg"},{"bike_id":"f0f65092-efe9-46e8-8e63-748f9c256a92","system_id":"levelo_inurba_marseille","lat":43.29004,"lon":5.35606,"is_reserved":false,"is_disabled":false,"rental_uris":{"android":"levelo://app?vid=f0f65092-efe9-46e8-8e63-748f9c256a92","ios":"levelo://app?vid=f0f65092-efe9-46e8-8e63-748f9c256a92"},"vehicle_type_id":"4","last_reported":1784650494,"current_range_meters":7200,"station_id":"ce4bhb92rcd13ifvqen0","pricing_plan_id":"cebpf4jnsgd1na2vs0mg"},{"bike_id":"acb561aa-6134-4f83-a950-421319b29e26","system_id":"levelo_inurba_marseille","lat":43.30537,"lon":5.36719,"is_reserved":false,"is_disabled":false,"rental_uris":{"android":"levelo://app?vid=acb561aa-6134-4f83-a950-421319b29e26","ios":"levelo://app?vid=acb561aa-6134-4f83-a950-421319b29e26"},"vehicle_type_id":"4","last_reported":1784650494,"current_range_meters":7200,"station_id":"ce4bgrp2rcd13ifvqc9g","pricing_plan_id":"cebpf4jnsgd1na2vs0mg"},{"bike_id":"b3d629b1-168c-4183-90f3-3fdf07d3bac2","system_id":"levelo_inurba_marseille","lat":43.2558,"lon":5.38245,"is_reserved":false,"is_disabled":false,"rental_uris":{"android":"levelo://app?vid=b3d629b1-168c-4183-90f3-3fdf07d3bac2","ios":"levelo://app?vid=b3d629b1-168c-4183-90f3-3fdf07d3bac2"},"vehicle_type_id":"4","last_reported":1784650494,"current_range_meters":7200,"station_id":"ce4bhih2rcd13ifvqfs0","pricing_plan_id":"cebpf4jnsgd1na2vs0mg"},{"bike_id":"8c95522f-296c-4289-9635-4e5fc3e75f8c","system_id":"levelo_inurba_marseille","lat":43.27625,"lon":5.36104,"is_reserved":false,"is_disabled":false,"rental_uris":{"android":"levelo://app?vid=8c95522f-296c-4289-9635-4e5fc3e75f8c","ios":"levelo://app?vid=8c95522f-296c-4289-9635-4e5fc3e75f8c"},"vehicle_type_id":"4","last_reported":1784650494,"current_range_meters":7200,"station_id":"ce4bgj92rcd13ifvqbe0","pricing_plan_id":"cebpf4jnsgd1na2vs0mg"},{"bike_id":"700d94ec-8ca6-49b5-9305-bc324b5b00bf","system_id":"levelo_inurba_marseille","lat":43.29311,"lon":5.3718,"is_reserved":false,"is_disabled":true,"rental_uris":{"android":"levelo://app?vid=700d94ec-8ca6-49b5-9305-bc324b5b00bf","ios":"levelo://app?vid=700d94ec-8ca6-49b5-9305-bc324b5b00bf"},"vehicle_type_id":"4","last_reported":1784650494,"current_range_meters":7200,"station_id":"ce4bgh92rcd13ifvqb40","pricing_plan_id":"cebpf4jnsgd1na2vs0mg"},{"bike_id":"f65a22c1-e831-4289-a1e8-55cb1d486699","system_id":"levelo_inurba_marseille","lat":43.29544,"lon":5.37518,"is_reserved":false,"is_disabled":false,"rental_uris":{"android":"levelo://app?vid=f65a22c1-e831-4289-a1e8-55cb1d486699","ios":"levelo://app?vid=f65a22c1-e831-4289-a1e8-55cb1d486699"},"vehicle_type_id":"4","last_reported":1784650494,"current_range_meters":7200,"station_id":"ce4bgkp2rcd13ifvqbmg","pricing_plan_id":"cebpf4jnsgd1na2vs0mg"},{"bike_id":"e2701541-cf25-4239-b843-aa7eb7669457","system_id":"levelo_inurba_marseille","lat":43.28155,"lon":5.37492,"is_reserved":false,"is_disabled":false,"rental_uris":{"android":"levelo://app?vid=e2701541-cf25-4239-b843-aa7eb7669457","ios":"levelo://app?vid=e2701541-cf25-4239-b843-aa7eb7669457"},"vehicle_type_id":"4","last_reported":1784650494,"current_range_meters":7200,"station_id":"","pricing_plan_id":"cebpf4jnsgd1na2vs0mg"},{"bike_id":"9bd440d9-b27a-4958-a9f0-4142986abb18","system_id":"levelo_inurba_marseille","lat":43.24885,"lon":5.39399,"is_reserved":false,"is_disabled":false,"rental_uris":{"android":"levelo://app?vid=9bd440d9-b27a-4958-a9f0-4142986abb18","ios":"levelo://app?vid=9bd440d9-b27a-4958-a9f0-4142986abb18"},"vehicle_type_id":"4","last_reported":1784650494,"current_range_meters":7200,"station_id":"","pricing_plan_id":"cebpf4jnsgd1na2vs0mg"},{"bike_id":"f33493ed-994f-4f08-a4de-95ded251e4a9","system_id":"levelo_inurba_marseille","lat":43.28425,"lon":5.34987,"is_reserved":false,"is_disabled":false,"rental_uris":{"android":"levelo://app?vid=f33493ed-994f-4f08-a4de-95ded251e4a9","ios":"levelo://app?vid=f33493ed-994f-4f08-a4de-95ded251e4a9"},"vehicle_type_id":"4","last_reported":1784650494,"current_range_meters":8000,"station_id":"ce4bhbh2rcd13ifvqepg","pricing_plan_id":"cebpf4jnsgd1na2vs0mg"},{"bike_id":"1c9578c8-5761-4525-94b6-8468277fed60","system_id":"levelo_inurba_marseille","lat":43.29518,"lon":5.3751,"is_reserved":false,"is_disabled":false,"rental_uris":{"android":"levelo://app?vid=1c9578c8-5761-4525-94b6-8468277fed60","ios":"levelo://app?vid=1c9578c8-5761-4525-94b6-8468277fed60"},"vehicle_type_id":"4","last_reported":1784650494,"current_range_meters":8000,"station_id":"ce4bgkp2rcd13ifvqbmg","pricing_plan_id":"cebpf4jnsgd1na2vs0mg"},{"bike_id":"25c0c58e-0461-4450-9a26-93b613135337","system_id":"levelo_inurba_marseille","lat":43.30938,"lon":5.40129,"is_reserved":false,"is_disabled":false,"rental_uris":{"android":"levelo://app?vid=25c0c58e-0461-4450-9a26-93b613135337","ios":"levelo://app?vid=25c0c58e-0461-4450-9a26-93b613135337"},"vehicle_type_id":"4","last_reported":1784650494,"current_range_meters":8000,"station_id":"ce4bgvp2rcd13ifvqct0","pricing_plan_id":"cebpf4jnsgd1na2vs0mg"},{"bike_id":"4cc1cfdd-70ae-4041-8eb5-cc6376043b11","system_id":"levelo_inurba_marseille","lat":43.22556,"lon":5.41625,"is_reserved":false,"is_disabled":false,"rental_uris":{"android":"levelo://app?vid=4cc1cfdd-70ae-4041-8eb5-cc6376043b11","ios":"levelo://app?vid=4cc1cfdd-70ae-4041-8eb5-cc6376043b11"},"vehicle_type_id":"4","last_reported":1784650494,"current_range_meters":8000,"station_id":"st_d2o4gvlbi1j2169b742g","pricing_plan_id":"cebpf4jnsgd1na2vs0mg"},{"bike_id":"a9012715-ec62-4810-a79b-d543ac625b3b","system_id":"levelo_inurba_marseille","lat":43.22591,"lon":5.41683,"is_reserved":false,"is_disabled":false,"rental_uris":{"android":"levelo://app?vid=a9012715-ec62-4810-a79b-d543ac625b3b","ios":"levelo://app?vid=a9012715-ec62-4810-a79b-d543ac625b3b"},"vehicle_type_id":"4","last_reported":1784650494,"current_range_meters":8000,"station_id":"","pricing_plan_id":"cebpf4jnsgd1na2vs0mg"},{"bike_id":"14411d93-18ee-418c-98e4-8a12d35ce0c6","system_id":"levelo_inurba_marseille","lat":43.29194,"lon":5.37261,"is_reserved":false,"is_disabled":false,"rental_uris":{"android":"levelo://app?vid=14411d93-18ee-418c-98e4-8a12d35ce0c6","ios":"levelo://app?vid=14411d93-18ee-418c-98e4-8a12d35ce0c6"},"vehicle_type_id":"4","last_reported":1784650494,"current_range_meters":8000,"station_id":"","pricing_plan_id":"cebpf4jnsgd1na2vs0mg"},{"bike_id":"b88c1f36-35a5-4dfe-8f23-10e63886bbb7","system_id":"levelo_inurba_marseille","lat":43.30078,"lon":5.40077,"is_reserved":false,"is_disabled":false,"rental_uris":{"android":"levelo://app?vid=b88c1f36-35a5-4dfe-8f23-10e63886bbb7","ios":"levelo://app?vid=b88c1f36-35a5-4dfe-8f23-10e63886bbb7"},"vehicle_type_id":"4","last_reported":1784650494,"current_range_meters":8000,"station_id":"","pricing_plan_id":"cebpf4jnsgd1na2vs0mg"},{"bike_id":"ec09dc53-51b6-4bba-ad3c-08eb491766c3","system_id":"levelo_inurba_marseille","lat":43.28433,"lon":5.34986,"is_reserved":false,"is_disabled":false,"rental_uris":{"android":"levelo://app?vid=ec09dc53-51b6-4bba-ad3c-08eb491766c3","ios":"levelo://app?vid=ec09dc53-51b6-4bba-ad3c-08eb491766c3"},"vehicle_type_id":"4","last_reported":1784650494,"current_range_meters":8000,"station_id":"ce4bhbh2rcd13ifvqepg","pricing_plan_id":"cebpf4jnsgd1na2vs0mg"},{"bike_id":"ccbe0418-b41f-4d34-9cbb-722d4bc10aac","system_id":"levelo_inurba_marseille","lat":43.25349,"lon":5.42192,"is_reserved":false,"is_disabled":false,"rental_uris":{"android":"levelo://app?vid=ccbe0418-b41f-4d34-9cbb-722d4bc10aac","ios":"levelo://app?vid=ccbe0418-b41f-4d34-9cbb-722d4bc10aac"},"vehicle_type_id":"4","last_reported":1784650494,"current_range_meters":8000,"station_id":"st_d2m65c5bi1j21697t3ng","pricing_plan_id":"cebpf4jnsgd1na2vs0mg"},{"bike_id":"3d558153-e662-4592-a984-44ba94191f01","system_id":"levelo_inurba_marseille","lat":43.26496,"lon":5.39535,"is_reserved":false,"is_disabled":false,"rental_uris":{"android":"levelo://app?vid=3d558153-e662-4592-a984-44ba94191f01","ios":"levelo://app?vid=3d558153-e662-4592-a984-44ba94191f01"},"vehicle_type_id":"4","last_reported":1784650494,"current_range_meters":8000,"station_id":"ce4bhi12rcd13ifvqfq0","pricing_plan_id":"cebpf4jnsgd1na2vs0mg"},{"bike_id":"9614bda8-5f62-454f-a4e6-b14c6865f64a","system_id":"levelo_inurba_marseille","lat":43.29528,"lon":5.39032,"is_reserved":false,"is_disabled":false,"rental_uris":{"android":"levelo://app?vid=9614bda8-5f62-454f-a4e6-b14c6865f64a","ios":"levelo://app?vid=9614bda8-5f62-454f-a4e6-b14c6865f64a"},"vehicle_type_id":"4","last_reported":1784650494,"current_range_meters":8000,"station_id":"ce4bh3p2rcd13ifvqdp0","pricing_plan_id":"cebpf4jnsgd1na2vs0mg"},{"bike_id":"acbb98df-edc3-4034-9ad8-5fdad2366d1c","system_id":"levelo_inurba_marseille","lat":43.29211,"lon":5.35786,"is_reserved":false,"is_disabled":false,"rental_uris":{"android":"levelo://app?vid=acbb98df-edc3-4034-9ad8-5fdad2366d1c","ios":"levelo://app?vid=acbb98df-edc3-4034-9ad8-5fdad2366d1c"},"vehicle_type_id":"4","last_reported":1784650494,"current_range_meters":8000,"station_id":"ce4bhb12rcd13ifvqel0","pricing_plan_id":"cebpf4jnsgd1na2vs0mg"},{"bike_id":"13ddb3fa-9264-47b3-9e81-f6c0a0654ff4","system_id":"levelo_inurba_marseille","lat":43.26553,"lon":5.40324,"is_reserved":false,"is_disabled":false,"rental_uris":{"android":"levelo://app?vid=13ddb3fa-9264-47b3-9e81-f6c0a0654ff4","ios":"levelo://app?vid=13ddb3fa-9264-47b3-9e81-f6c0a0654ff4"},"vehicle_type_id":"4","last_reported":1784650494,"current_range_meters":8000,"station_id":"ce4bhmp2rcd13ifvqgng","pricing_plan_id":"cebpf4jnsgd1na2vs0mg"},{"bike_id":"42515e5e-51d3-486d-ad16-a4dbf51fbf10","system_id":"levelo_inurba_marseille","lat":43.24926,"lon":5.38866,"is_reserved":false,"is_disabled":false,"rental_uris":{"android":"levelo://app?vid=42515e5e-51d3-486d-ad16-a4dbf51fbf10","ios":"levelo://app?vid=42515e5e-51d3-486d-ad16-a4dbf51fbf10"},"vehicle_type_id":"4","last_reported":1784650494,"current_range_meters":8000,"station_id":"","pricing_plan_id":"cebpf4jnsgd1na2vs0mg"},{"bike_id":"a7c9489a-3c37-4218-bc38-92c335aa3a8a","system_id":"levelo_inurba_marseille","lat":43.28488,"lon":5.48382,"is_reserved":false,"is_disabled":false,"rental_uris":{"android":"levelo://app?vid=a7c9489a-3c37-4218-bc38-92c335aa3a8a","ios":"levelo://app?vid=a7c9489a-3c37-4218-bc38-92c335aa3a8a"},"vehicle_type_id":"4","last_reported":1784650494,"current_range_meters":8400,"station_id":"st_d3svhcjqgbts73a3dn0g","pricing_plan_id":"cebpf4jnsgd1na2vs0mg"},{"bike_id":"1a8f7e32-5d47-4694-89a5-a9089b244299","system_id":"levelo_inurba_marseille","lat":43.28076,"lon":5.38486,"is_reserved":false,"is_disabled":false,"rental_uris":{"android":"levelo://app?vid=1a8f7e32-5d47-4694-89a5-a9089b244299","ios":"levelo://app?vid=1a8f7e32-5d47-4694-89a5-a9089b244299"},"vehicle_type_id":"4","last_reported":1784650494,"current_range_meters":8400,"station_id":"","pricing_plan_id":"cebpf4jnsgd1na2vs0mg"},{"bike_id":"46a9e579-6f1b-4c69-8628-19d804629758","system_id":"levelo_inurba_marseille","lat":43.31891,"lon":5.39987,"is_reserved":false,"is_disabled":false,"rental_uris":{"android":"levelo://app?vid=46a9e579-6f1b-4c69-8628-19d804629758","ios":"levelo://app?vid=46a9e579-6f1b-4c69-8628-19d804629758"},"vehicle_type_id":"4","last_reported":1784650494,"current_range_meters":8400,"station_id":"","pricing_plan_id":"cebpf4jnsgd1na2vs0mg"},{"bike_id":"f5efb3e7-fd08-4524-a878-afdbc8490ff0","system_id":"levelo_inurba_marseille","lat":43.24076,"lon":5.37755,"is_reserved":false,"is_disabled":false,"rental_uris":{"android":"levelo://app?vid=f5efb3e7-fd08-4524-a878-afdbc8490ff0","ios":"levelo://app?vid=f5efb3e7-fd08-4524-a878-afdbc8490ff0"},"vehicle_type_id":"4","last_reported":1784650494,"current_range_meters":8400,"station_id":"ce4bhnp2rcd13ifvqgvg","pricing_plan_id":"cebpf4jnsgd1na2vs0mg"},{"bike_id":"3daa5a7c-1c09-44d3-8ed0-b3776e6061a9","system_id":"levelo_inurba_marseille","lat":43.30595,"lon":5.39355,"is_reserved":false,"is_disabled":false,"rental_uris":{"android":"levelo://app?vid=3daa5a7c-1c09-44d3-8ed0-b3776e6061a9","ios":"levelo://app?vid=3daa5a7c-1c09-44d3-8ed0-b3776e6061a9"},"vehicle_type_id":"4","last_reported":1784650494,"current_range_meters":8400,"station_id":"ce4bh0p2rcd13ifvqd80","pricing_plan_id":"cebpf4jnsgd1na2vs0mg"},{"bike_id":"b2b52ecb-a551-4bdc-96d7-8dbd7f2cdb65","system_id":"levelo_inurba_marseille","lat":43.26685,"lon":5.38273,"is_reserved":false,"is_disabled":false,"rental_uris":{"android":"levelo://app?vid=b2b52ecb-a551-4bdc-96d7-8dbd7f2cdb65","ios":"levelo://app?vid=b2b52ecb-a551-4bdc-96d7-8dbd7f2cdb65"},"vehicle_type_id":"4","last_reported":1784650494,"current_range_meters":8400,"station_id":"ce4bhg92rcd13ifvqf90","pricing_plan_id":"cebpf4jnsgd1na2vs0mg"},{"bike_id":"9c4a2b7c-2e3b-44d9-ab9e-f8f3f7ec735e","system_id":"levelo_inurba_marseille","lat":43.21198,"lon":5.35067,"is_reserved":false,"is_disabled":false,"rental_uris":{"android":"levelo://app?vid=9c4a2b7c-2e3b-44d9-ab9e-f8f3f7ec735e","ios":"levelo://app?vid=9c4a2b7c-2e3b-44d9-ab9e-f8f3f7ec735e"},"vehicle_type_id":"4","last_reported":1784650494,"current_range_meters":8400,"station_id":"st_cvj6sg6p6f1abm77japg","pricing_plan_id":"cebpf4jnsgd1na2vs0mg"},{"bike_id":"f4a10a50-028e-45f5-952f-48cf0af83665","system_id":"levelo_inurba_marseille","lat":43.23246,"lon":5.40376,"is_reserved":false,"is_disabled":false,"rental_uris":{"android":"levelo://app?vid=f4a10a50-028e-45f5-952f-48cf0af83665","ios":"levelo://app?vid=f4a10a50-028e-45f5-952f-48cf0af83665"},"vehicle_type_id":"4","last_reported":1784650494,"current_range_meters":8400,"station_id":"","pricing_plan_id":"cebpf4jnsgd1na2vs0mg"},{"bike_id":"fa570896-6f25-48c8-abd3-6ac2343ee8bd","system_id":"levelo_inurba_marseille","lat":43.29478,"lon":5.38287,"is_reserved":false,"is_disabled":false,"rental_uris":{"android":"levelo://app?vid=fa570896-6f25-48c8-abd3-6ac2343ee8bd","ios":"levelo://app?vid=fa570896-6f25-48c8-abd3-6ac2343ee8bd"},"vehicle_type_id":"4","last_reported":1784650494,"current_range_meters":8400,"station_id":"","pricing_plan_id":"cebpf4jnsgd1na2vs0mg"},{"bike_id":"07edaab3-33a2-4ef3-a5f0-2c83f40c3ba9","system_id":"levelo_inurba_marseille","lat":43.27505,"lon":5.41566,"is_reserved":false,"is_disabled":true,"rental_uris":{"android":"levelo://app?vid=07edaab3-33a2-4ef3-a5f0-2c83f40c3ba9","ios":"levelo://app?vid=07edaab3-33a2-4ef3-a5f0-2c83f40c3ba9"},"vehicle_type_id":"4","last_reported":1784650494,"current_range_meters":8400,"station_id":"st_d6im8g6chgec73a5pndg","pricing_plan_id":"cebpf4jnsgd1na2vs0mg"},{"bike_id":"c8201564-d46a-4936-89ad-4260b8527224","system_id":"levelo_inurba_marseille","lat":43.29966,"lon":5.37174,"is_reserved":false,"is_disabled":false,"rental_uris":{"android":"levelo://app?vid=c8201564-d46a-4936-89ad-4260b8527224","ios":"levelo://app?vid=c8201564-d46a-4936-89ad-4260b8527224"},"vehicle_type_id":"4","last_reported":1784650494,"current_range_meters":8400,"station_id":"ce4bgr92rcd13ifvqc7g","pricing_plan_id":"cebpf4jnsgd1na2vs0mg"},{"bike_id":"c2ffb063-eaa6-4af9-b4d4-da54a453082c","system_id":"levelo_inurba_marseille","lat":43.32664,"lon":5.40711,"is_reserved":false,"is_disabled":false,"rental_uris":{"android":"levelo://app?vid=c2ffb063-eaa6-4af9-b4d4-da54a453082c","ios":"levelo://app?vid=c2ffb063-eaa6-4af9-b4d4-da54a453082c"},"vehicle_type_id":"4","last_reported":1784650494,"current_range_meters":8400,"station_id":"","pricing_plan_id":"cebpf4jnsgd1na2vs0mg"},{"bike_id":"6422cf3d-2df7-4e60-ae6b-3ac54d248869","system_id":"levelo_inurba_marseille","lat":43.21258,"lon":5.34459,"is_reserved":false,"is_disabled":false,"rental_uris":{"android":"levelo://app?vid=6422cf3d-2df7-4e60-ae6b-3ac54d248869","ios":"levelo://app?vid=6422cf3d-2df7-4e60-ae6b-3ac54d248869"},"vehicle_type_id":"4","last_reported":1784650494,"current_range_meters":8400,"station_id":"","pricing_plan_id":"cebpf4jnsgd1na2vs0mg"},{"bike_id":"c0024b18-6094-4eae-bf5b-c52a4e6ef59d","system_id":"levelo_inurba_marseille","lat":43.28476,"lon":5.48383,"is_reserved":false,"is_disabled":false,"rental_uris":{"android":"levelo://app?vid=c0024b18-6094-4eae-bf5b-c52a4e6ef59d","ios":"levelo://app?vid=c0024b18-6094-4eae-bf5b-c52a4e6ef59d"},"vehicle_type_id":"4","last_reported":1784650494,"current_range_meters":8400,"station_id":"st_d3svhcjqgbts73a3dn0g","pricing_plan_id":"cebpf4jnsgd1na2vs0mg"},{"bike_id":"615f65d0-1e5b-4986-8470-ff47ef17fd88","system_id":"levelo_inurba_marseille","lat":43.32364,"lon":5.36749,"is_reserved":false,"is_disabled":false,"rental_uris":{"android":"levelo://app?vid=615f65d0-1e5b-4986-8470-ff47ef17fd88","ios":"levelo://app?vid=615f65d0-1e5b-4986-8470-ff47ef17fd88"},"vehicle_type_id":"4","last_reported":1784650494,"current_range_meters":8400,"station_id":"ce4bhsh2rcd13ifvqi2g","pricing_plan_id":"cebpf4jnsgd1na2vs0mg"},{"bike_id":"9acc47e6-89b8-4553-bd4b-9f67647daf4b","system_id":"levelo_inurba_marseille","lat":43.30355,"lon":5.41875,"is_reserved":false,"is_disabled":false,"rental_uris":{"android":"levelo://app?vid=9acc47e6-89b8-4553-bd4b-9f67647daf4b","ios":"levelo://app?vid=9acc47e6-89b8-4553-bd4b-9f67647daf4b"},"vehicle_type_id":"4","last_reported":1784650494,"current_range_meters":8400,"station_id":"ce4bhop2rcd13ifvqh7g","pricing_plan_id":"cebpf4jnsgd1na2vs0mg"},{"bike_id":"dc208bb0-4b15-4f83-a368-9331e39d3f37","system_id":"levelo_inurba_marseille","lat":43.23167,"lon":5.43694,"is_reserved":false,"is_disabled":false,"rental_uris":{"android":"levelo://app?vid=dc208bb0-4b15-4f83-a368-9331e39d3f37","ios":"levelo://app?vid=dc208bb0-4b15-4f83-a368-9331e39d3f37"},"vehicle_type_id":"4","last_reported":1784650494,"current_range_meters":8800,"station_id":"ce4bhmp2rcd13ifvqgog","pricing_plan_id":"cebpf4jnsgd1na2vs0mg"},{"bike_id":"b51ebdcd-e5e7-41d0-be25-9ddddda1b986","system_id":"levelo_inurba_marseille","lat":43.29193,"lon":5.35804,"is_reserved":false,"is_disabled":false,"rental_uris":{"android":"levelo://app?vid=b51ebdcd-e5e7-41d0-be25-9ddddda1b986","ios":"levelo://app?vid=b51ebdcd-e5e7-41d0-be25-9ddddda1b986"},"vehicle_type_id":"4","last_reported":1784650494,"current_range_meters":8800,"station_id":"ce4bhb12rcd13ifvqel0","pricing_plan_id":"cebpf4jnsgd1na2vs0mg"},{"bike_id":"3d9d3ef2-d39f-40bf-a2c2-1902016ec8f9","system_id":"levelo_inurba_marseille","lat":43.25085,"lon":5.39506,"is_reserved":false,"is_disabled":false,"rental_uris":{"android":"levelo://app?vid=3d9d3ef2-d39f-40bf-a2c2-1902016ec8f9","ios":"levelo://app?vid=3d9d3ef2-d39f-40bf-a2c2-1902016ec8f9"},"vehicle_type_id":"4","last_reported":1784650494,"current_range_meters":8800,"station_id":"ce4bhm12rcd13ifvqgkg","pricing_plan_id":"cebpf4jnsgd1na2vs0mg"},{"bike_id":"a5d5d334-913d-4004-8736-e04a5c6162ae","system_id":"levelo_inurba_marseille","lat":43.2844,"lon":5.34976,"is_reserved":false,"is_disabled":false,"rental_uris":{"android":"levelo://app?vid=a5d5d334-913d-4004-8736-e04a5c6162ae","ios":"levelo://app?vid=a5d5d334-913d-4004-8736-e04a5c6162ae"},"vehicle_type_id":"4","last_reported":1784650494,"current_range_meters":8800,"station_id":"ce4bhbh2rcd13ifvqepg","pricing_plan_id":"cebpf4jnsgd1na2vs0mg"},{"bike_id":"e5384258-5500-43b9-b8f8-03cf72e5db5c","system_id":"levelo_inurba_marseille","lat":43.33756,"lon":5.37456,"is_reserved":false,"is_disabled":false,"rental_uris":{"android":"levelo://app?vid=e5384258-5500-43b9-b8f8-03cf72e5db5c","ios":"levelo://app?vid=e5384258-5500-43b9-b8f8-03cf72e5db5c"},"vehicle_type_id":"4","last_reported":1784650494,"current_range_meters":8800,"station_id":"","pricing_plan_id":"cebpf4jnsgd1na2vs0mg"},{"bike_id":"d7368c3c-0b33-4e02-b7ce-daf4275f6cc8","system_id":"levelo_inurba_marseille","lat":43.26946,"lon":5.38632,"is_reserved":false,"is_disabled":false,"rental_uris":{"android":"levelo://app?vid=d7368c3c-0b33-4e02-b7ce-daf4275f6cc8","ios":"levelo://app?vid=d7368c3c-0b33-4e02-b7ce-daf4275f6cc8"},"vehicle_type_id":"4","last_reported":1784650494,"current_range_meters":8800,"station_id":"ce4bhh92rcd13ifvqfh0","pricing_plan_id":"cebpf4jnsgd1na2vs0mg"},{"bike_id":"9cae4b4a-a214-4196-a7bc-08f6b5150d3a","system_id":"levelo_inurba_marseille","lat":43.27064,"lon":5.42277,"is_reserved":false,"is_disabled":true,"rental_uris":{"android":"levelo://app?vid=9cae4b4a-a214-4196-a7bc-08f6b5150d3a","ios":"levelo://app?vid=9cae4b4a-a214-4196-a7bc-08f6b5150d3a"},"vehicle_type_id":"4","last_reported":1784650494,"current_range_meters":8800,"station_id":"ce4bhk92rcd13ifvqgb0","pricing_plan_id":"cebpf4jnsgd1na2vs0mg"},{"bike_id":"1a463d7f-ab42-4520-8dbe-be9f5ec1be1d","system_id":"levelo_inurba_marseille","lat":43.21199,"lon":5.35065,"is_reserved":false,"is_disabled":false,"rental_uris":{"android":"levelo://app?vid=1a463d7f-ab42-4520-8dbe-be9f5ec1be1d","ios":"levelo://app?vid=1a463d7f-ab42-4520-8dbe-be9f5ec1be1d"},"vehicle_type_id":"4","last_reported":1784650494,"current_range_meters":8800,"station_id":"st_cvj6sg6p6f1abm77japg","pricing_plan_id":"cebpf4jnsgd1na2vs0mg"},{"bike_id":"7b8ec62a-f5d7-4f6d-8280-77a555ca81cd","system_id":"levelo_inurba_marseille","lat":43.28001,"lon":5.38181,"is_reserved":false,"is_disabled":false,"rental_uris":{"android":"levelo://app?vid=7b8ec62a-f5d7-4f6d-8280-77a555ca81cd","ios":"levelo://app?vid=7b8ec62a-f5d7-4f6d-8280-77a555ca81cd"},"vehicle_type_id":"4","last_reported":1784650494,"current_range_meters":8800,"station_id":"","pricing_plan_id":"cebpf4jnsgd1na2vs0mg"},{"bike_id":"6e332e86-de15-4d4d-bca0-6fd68dd8444f","system_id":"levelo_inurba_marseille","lat":43.33298,"lon":5.43701,"is_reserved":false,"is_disabled":false,"rental_uris":{"android":"levelo://app?vid=6e332e86-de15-4d4d-bca0-6fd68dd8444f","ios":"levelo://app?vid=6e332e86-de15-4d4d-bca0-6fd68dd8444f"},"vehicle_type_id":"4","last_reported":1784650494,"current_range_meters":8800,"station_id":"","pricing_plan_id":"cebpf4jnsgd1na2vs0mg"},{"bike_id":"fd57dccb-2e37-4d33-b014-1dbbb3e70825","system_id":"levelo_inurba_marseille","lat":43.28623,"lon":5.35103,"is_reserved":false,"is_disabled":false,"rental_uris":{"android":"levelo://app?vid=fd57dccb-2e37-4d33-b014-1dbbb3e70825","ios":"levelo://app?vid=fd57dccb-2e37-4d33-b014-1dbbb3e70825"},"vehicle_type_id":"4","last_reported":1784650494,"current_range_meters":8800,"station_id":"ce4bhch2rcd13ifvqeug","pricing_plan_id":"cebpf4jnsgd1na2vs0mg"},{"bike_id":"3c77d917-1e16-4f7d-a9fa-2030e3ffc3a3","system_id":"levelo_inurba_marseille","lat":43.2801,"lon":5.41657,"is_reserved":false,"is_disabled":true,"rental_uris":{"android":"levelo://app?vid=3c77d917-1e16-4f7d-a9fa-2030e3ffc3a3","ios":"levelo://app?vid=3c77d917-1e16-4f7d-a9fa-2030e3ffc3a3"},"vehicle_type_id":"4","last_reported":1784650494,"current_range_meters":8800,"station_id":"ce4bho12rcd13ifvqh1g","pricing_plan_id":"cebpf4jnsgd1na2vs0mg"},{"bike_id":"b08d71eb-8d4c-46c8-a828-e019ff4d82ca","system_id":"levelo_inurba_marseille","lat":43.23596,"lon":5.37494,"is_reserved":false,"is_disabled":false,"rental_uris":{"android":"levelo://app?vid=b08d71eb-8d4c-46c8-a828-e019ff4d82ca","ios":"levelo://app?vid=b08d71eb-8d4c-46c8-a828-e019ff4d82ca"},"vehicle_type_id":"4","last_reported":1784650494,"current_range_meters":8800,"station_id":"","pricing_plan_id":"cebpf4jnsgd1na2vs0mg"},{"bike_id":"dbe31519-7fcc-4512-8b9a-98130ab99665","system_id":"levelo_inurba_marseille","lat":43.27619,"lon":5.36108,"is_reserved":false,"is_disabled":false,"rental_uris":{"android":"levelo://app?vid=dbe31519-7fcc-4512-8b9a-98130ab99665","ios":"levelo://app?vid=dbe31519-7fcc-4512-8b9a-98130ab99665"},"vehicle_type_id":"4","last_reported":1784650494,"current_range_meters":8800,"station_id":"ce4bgj92rcd13ifvqbe0","pricing_plan_id":"cebpf4jnsgd1na2vs0mg"},{"bike_id":"ae83300c-494b-4f68-b188-3e0bfe284c3e","system_id":"levelo_inurba_marseille","lat":43.31891,"lon":5.3681,"is_reserved":false,"is_disabled":false,"rental_uris":{"android":"levelo://app?vid=ae83300c-494b-4f68-b188-3e0bfe284c3e","ios":"levelo://app?vid=ae83300c-494b-4f68-b188-3e0bfe284c3e"},"vehicle_type_id":"4","last_reported":1784650494,"current_range_meters":8800,"station_id":"st_d6o2h0d0559c73evc1b0","pricing_plan_id":"cebpf4jnsgd1na2vs0mg"},{"bike_id":"8d34f82c-a637-4e95-a501-23cef7f276a9","system_id":"levelo_inurba_marseille","lat":43.30095,"lon":5.39065,"is_reserved":false,"is_disabled":false,"rental_uris":{"android":"levelo://app?vid=8d34f82c-a637-4e95-a501-23cef7f276a9","ios":"levelo://app?vid=8d34f82c-a637-4e95-a501-23cef7f276a9"},"vehicle_type_id":"4","last_reported":1784650494,"current_range_meters":8800,"station_id":"ce4bh192rcd13ifvqdb0","pricing_plan_id":"cebpf4jnsgd1na2vs0mg"},{"bike_id":"2d4f9b66-e86b-4b44-9acb-68e7b9b2c268","system_id":"levelo_inurba_marseille","lat":43.25582,"lon":5.38227,"is_reserved":false,"is_disabled":false,"rental_uris":{"android":"levelo://app?vid=2d4f9b66-e86b-4b44-9acb-68e7b9b2c268","ios":"levelo://app?vid=2d4f9b66-e86b-4b44-9acb-68e7b9b2c268"},"vehicle_type_id":"4","last_reported":1784650494,"current_range_meters":8800,"station_id":"ce4bhih2rcd13ifvqfs0","pricing_plan_id":"cebpf4jnsgd1na2vs0mg"},{"bike_id":"44f17f29-c4b1-44a0-8ef6-f6a6861404e2","system_id":"levelo_inurba_marseille","lat":43.27051,"lon":5.39459,"is_reserved":false,"is_disabled":false,"rental_uris":{"android":"levelo://app?vid=44f17f29-c4b1-44a0-8ef6-f6a6861404e2","ios":"levelo://app?vid=44f17f29-c4b1-44a0-8ef6-f6a6861404e2"},"vehicle_type_id":"4","last_reported":1784650494,"current_range_meters":8800,"station_id":"","pricing_plan_id":"cebpf4jnsgd1na2vs0mg"},{"bike_id":"ecd2189c-df1e-45a0-8225-c8755954ebfe","system_id":"levelo_inurba_marseille","lat":43.2521,"lon":5.42613,"is_reserved":false,"is_disabled":false,"rental_uris":{"android":"levelo://app?vid=ecd2189c-df1e-45a0-8225-c8755954ebfe","ios":"levelo://app?vid=ecd2189c-df1e-45a0-8225-c8755954ebfe"},"vehicle_type_id":"4","last_reported":1784650494,"current_range_meters":8800,"station_id":"","pricing_plan_id":"cebpf4jnsgd1na2vs0mg"},{"bike_id":"3f849f3c-bf6e-42c8-bbc2-7c1f366e058e","system_id":"levelo_inurba_marseille","lat":43.26202,"lon":5.41651,"is_reserved":false,"is_disabled":false,"rental_uris":{"android":"levelo://app?vid=3f849f3c-bf6e-42c8-bbc2-7c1f366e058e","ios":"levelo://app?vid=3f849f3c-bf6e-42c8-bbc2-7c1f366e058e"},"vehicle_type_id":"4","last_reported":1784650494,"current_range_meters":8800,"station_id":"","pricing_plan_id":"cebpf4jnsgd1na2vs0mg"},{"bike_id":"118ee540-bc00-474f-80f1-98509b714b9c","system_id":"levelo_inurba_marseille","lat":43.24574,"lon":5.37616,"is_reserved":false,"is_disabled":false,"rental_uris":{"android":"levelo://app?vid=118ee540-bc00-474f-80f1-98509b714b9c","ios":"levelo://app?vid=118ee540-bc00-474f-80f1-98509b714b9c"},"vehicle_type_id":"4","last_reported":1784650494,"current_range_meters":8800,"station_id":"","pricing_plan_id":"cebpf4jnsgd1na2vs0mg"},{"bike_id":"72706276-fb69-4388-946e-2b4fb06a5929","system_id":"levelo_inurba_marseille","lat":43.33041,"lon":5.39085,"is_reserved":false,"is_disabled":false,"rental_uris":{"android":"levelo://app?vid=72706276-fb69-4388-946e-2b4fb06a5929","ios":"levelo://app?vid=72706276-fb69-4388-946e-2b4fb06a5929"},"vehicle_type_id":"4","last_reported":1784650494,"current_range_meters":9200,"station_id":"ce4bhr92rcd13ifvqhrg","pricing_plan_id":"cebpf4jnsgd1na2vs0mg"},{"bike_id":"b771a38c-fff7-4674-8b55-41969f60984d","system_id":"levelo_inurba_marseille","lat":43.29004,"lon":5.35623,"is_reserved":false,"is_disabled":false,"rental_uris":{"android":"levelo://app?vid=b771a38c-fff7-4674-8b55-41969f60984d","ios":"levelo://app?vid=b771a38c-fff7-4674-8b55-41969f60984d"},"vehicle_type_id":"4","last_reported":1784650494,"current_range_meters":9200,"station_id":"ce4bhb92rcd13ifvqen0","pricing_plan_id":"cebpf4jnsgd1na2vs0mg"},{"bike_id":"18814497-5724-46e1-ac10-ad46ebd53e18","system_id":"levelo_inurba_marseille","lat":43.31996,"lon":5.36836,"is_reserved":false,"is_disabled":false,"rental_uris":{"android":"levelo://app?vid=18814497-5724-46e1-ac10-ad46ebd53e18","ios":"levelo://app?vid=18814497-5724-46e1-ac10-ad46ebd53e18"},"vehicle_type_id":"4","last_reported":1784650494,"current_range_meters":9200,"station_id":"","pricing_plan_id":"cebpf4jnsgd1na2vs0mg"},{"bike_id":"6f2f462a-d5dd-447a-8032-586cf0bb0556","system_id":"levelo_inurba_marseille","lat":43.23055,"lon":5.3549,"is_reserved":false,"is_disabled":false,"rental_uris":{"android":"levelo://app?vid=6f2f462a-d5dd-447a-8032-586cf0bb0556","ios":"levelo://app?vid=6f2f462a-d5dd-447a-8032-586cf0bb0556"},"vehicle_type_id":"4","last_reported":1784650494,"current_range_meters":9200,"station_id":"cpo3342slgdg3j2ifvpg","pricing_plan_id":"cebpf4jnsgd1na2vs0mg"},{"bike_id":"ec8405d9-956e-4188-ad1f-6edd89c6640d","system_id":"levelo_inurba_marseille","lat":43.29191,"lon":5.35796,"is_reserved":false,"is_disabled":false,"rental_uris":{"android":"levelo://app?vid=ec8405d9-956e-4188-ad1f-6edd89c6640d","ios":"levelo://app?vid=ec8405d9-956e-4188-ad1f-6edd89c6640d"},"vehicle_type_id":"4","last_reported":1784650494,"current_range_meters":9200,"station_id":"ce4bhb12rcd13ifvqel0","pricing_plan_id":"cebpf4jnsgd1na2vs0mg"},{"bike_id":"bb754a96-5c88-46db-9200-ad95ebe8033d","system_id":"levelo_inurba_marseille","lat":43.30309,"lon":5.3689,"is_reserved":false,"is_disabled":false,"rental_uris":{"android":"levelo://app?vid=bb754a96-5c88-46db-9200-ad95ebe8033d","ios":"levelo://app?vid=bb754a96-5c88-46db-9200-ad95ebe8033d"},"vehicle_type_id":"4","last_reported":1784650494,"current_range_meters":9200,"station_id":"ce4bgqh2rcd13ifvqc5g","pricing_plan_id":"cebpf4jnsgd1na2vs0mg"},{"bike_id":"0d4d289e-1bd8-4d17-bbdd-20e3ced3bdf0","system_id":"levelo_inurba_marseille","lat":43.29413,"lon":5.3834,"is_reserved":false,"is_disabled":false,"rental_uris":{"android":"levelo://app?vid=0d4d289e-1bd8-4d17-bbdd-20e3ced3bdf0","ios":"levelo://app?vid=0d4d289e-1bd8-4d17-bbdd-20e3ced3bdf0"},"vehicle_type_id":"4","last_reported":1784650494,"current_range_meters":9200,"station_id":"","pricing_plan_id":"cebpf4jnsgd1na2vs0mg"},{"bike_id":"babfd9c3-f2ea-46d4-b92d-2819526a7834","system_id":"levelo_inurba_marseille","lat":43.29614,"lon":5.36068,"is_reserved":false,"is_disabled":false,"rental_uris":{"android":"levelo://app?vid=babfd9c3-f2ea-46d4-b92d-2819526a7834","ios":"levelo://app?vid=babfd9c3-f2ea-46d4-b92d-2819526a7834"},"vehicle_type_id":"4","last_reported":1784650494,"current_range_meters":9200,"station_id":"","pricing_plan_id":"cebpf4jnsgd1na2vs0mg"},{"bike_id":"c527f41e-94d3-4d8d-8345-450f54b10453","system_id":"levelo_inurba_marseille","lat":43.24988,"lon":5.37925,"is_reserved":false,"is_disabled":false,"rental_uris":{"android":"levelo://app?vid=c527f41e-94d3-4d8d-8345-450f54b10453","ios":"levelo://app?vid=c527f41e-94d3-4d8d-8345-450f54b10453"},"vehicle_type_id":"4","last_reported":1784650494,"current_range_meters":9200,"station_id":"","pricing_plan_id":"cebpf4jnsgd1na2vs0mg"},{"bike_id":"5f69d34c-cb7b-426b-b34d-8051b464bbdd","system_id":"levelo_inurba_marseille","lat":43.30245,"lon":5.44937,"is_reserved":false,"is_disabled":false,"rental_uris":{"android":"levelo://app?vid=5f69d34c-cb7b-426b-b34d-8051b464bbdd","ios":"levelo://app?vid=5f69d34c-cb7b-426b-b34d-8051b464bbdd"},"vehicle_type_id":"4","last_reported":1784650494,"current_range_meters":9200,"station_id":"","pricing_plan_id":"cebpf4jnsgd1na2vs0mg"},{"bike_id":"ec18eb3d-d242-43d6-8cdd-3cccdea8d98e","system_id":"levelo_inurba_marseille","lat":43.28371,"lon":5.3928,"is_reserved":false,"is_disabled":false,"rental_uris":{"android":"levelo://app?vid=ec18eb3d-d242-43d6-8cdd-3cccdea8d98e","ios":"levelo://app?vid=ec18eb3d-d242-43d6-8cdd-3cccdea8d98e"},"vehicle_type_id":"4","last_reported":1784650494,"current_range_meters":9200,"station_id":"ce4bhoh2rcd13ifvqh5g","pricing_plan_id":"cebpf4jnsgd1na2vs0mg"},{"bike_id":"82664cc6-0721-454e-95fe-e4e07f5ad977","system_id":"levelo_inurba_marseille","lat":43.28492,"lon":5.38418,"is_reserved":false,"is_disabled":false,"rental_uris":{"android":"levelo://app?vid=82664cc6-0721-454e-95fe-e4e07f5ad977","ios":"levelo://app?vid=82664cc6-0721-454e-95fe-e4e07f5ad977"},"vehicle_type_id":"4","last_reported":1784650494,"current_range_meters":9200,"station_id":"ce4bh512rcd13ifvqe3g","pricing_plan_id":"cebpf4jnsgd1na2vs0mg"},{"bike_id":"1e81c346-406e-48ea-b3e3-4241ce3fbcf2","system_id":"levelo_inurba_marseille","lat":43.25095,"lon":5.39515,"is_reserved":false,"is_disabled":false,"rental_uris":{"android":"levelo://app?vid=1e81c346-406e-48ea-b3e3-4241ce3fbcf2","ios":"levelo://app?vid=1e81c346-406e-48ea-b3e3-4241ce3fbcf2"},"vehicle_type_id":"4","last_reported":1784650494,"current_range_meters":9200,"station_id":"ce4bhm12rcd13ifvqgkg","pricing_plan_id":"cebpf4jnsgd1na2vs0mg"},