{"last_updated":1760602528,"ttl":60,"version":"2.2","data":{"bikes":[{"bike_id":"1b78d50e-e95b-419e-a5ec-c3093b7e141a","system_id":"levelo_inurba_marseille","lat":43.337444,"lon":5.374475,"is_reserved":false,"is_disabled":true,"rental_uris":{"android":"levelo://app?vid=1b78d50e-e95b-419e-a5ec-c3093b7e141a","ios":"levelo://app?vid=1b78d50e-e95b-419e-a5ec-c3093b7e141a"},"vehicle_type_id":"4","last_reported":1760602528,"current_range_meters":0,"station_id":"","pricing_plan_id":"cebpf4jnsgd1na2vs0mg"},{"bike_id":"84c22208-7ddb-49b8-be8e-b34b5bdf05b2","system_id":"levelo_inurba_marseille","lat":43.33771,"lon":5.37424,"is_reserved":false,"is_disabled":true,"rental_uris":{"android":"levelo://app?vid=84c22208-7ddb-49b8-be8e-b34b5bdf05b2","ios":"levelo://app?vid=84c22208-7ddb-49b8-be8e-b34b5bdf05b2"},"vehicle_type_id":"4","last_reported":1760602528,"current_range_meters":0,"station_id":"","pricing_plan_id":"cebpf4jnsgd1na2vs0mg"},{"bike_id":"da90025a-3512-4db8-9c5c-f808888b7e59","system_id":"levelo_inurba_marseille","lat":43.33751,"lon":5.37456,"is_reserved":false,"is_disabled":true,"rental_uris":{"android":"levelo://app?vid=da90025a-3512-4db8-9c5c-f808888b7e59","ios":"levelo://app?vid=da90025a-3512-4db8-9c5c-f808888b7e59"},"vehicle_type_id":"4","last_reported":1760602528,"current_range_meters":0,"station_id":"","pricing_plan_id":"cebpf4jnsgd1na2vs0mg"},{"bike_id":"783b0905-e73e-4043-b791-e38f037df91f","system_id":"levelo_inurba_marseille","lat":43.33747,"lon":5.37463,"is_reserved":false,"is_disabled":true,"rental_uris":{"android":"levelo://app?vid=783b0905-e73e-4043-b791-e38f037df91f","ios":"levelo://app?vid=783b0905-e73e-4043-b791-e38f037df91f"},"vehicle_type_id":"1","last_reported":1760602528,"current_range_meters":0,"station_id":"","pricing_plan_id":"cebpf4jnsgd1na2vs0mg"},{"bike_id":"8d89ee17-9f9e-4689-8ca8-8bd05eb5782d","system_id":"levelo_inurba_marseille","lat":43.33737,"lon":5.37465,"is_reserved":false,"is_disabled":true,"rental_uris":{"android":"levelo://app?vid=8d89ee17-9f9e-4689-8ca8-8bd05eb5782d","ios":"levelo://app?vid=8d89ee17-9f9e-4689-8ca8-8bd05eb5782d"},"vehicle_type_id":"4","last_reported":1760602528,"current_range_meters":0,"station_id":"","pricing_plan_id":"cebpf4jnsgd1na2vs0mg"},{"bike_id":"0ab0967e-1041-44e0-b599-5f9a08360f34","system_id":"levelo_inurba_marseille","lat":43.33755,"lon":5.37468,"is_reserved":false,"is_disabled":true,"rental_uris":{"android":"levelo://app?vid=0ab0967e-1041-44e0-b599-5f9a08360f34","ios":"levelo://app?vid=0ab0967e-1041-44e0-b599-5f9a08360f34"},"vehicle_type_id":"4","last_reported":1760602528,"current_range_meters":0,"station_id":"","pricing_plan_id":"cebpf4jnsgd1na2vs0mg"},{"bike_id":"44c5d8b8-3b93-4ee7-95d3-747bcabcce2c","system_id":"levelo_inurba_marseille","lat":43.337444,"lon":5.374475,"is_reserved":false,"is_disabled":true,"rental_uris":{"android":"levelo://app?vid=44c5d8b8-3b93-4ee7-95d3-747bcabcce2c","ios":"levelo://app?vid=44c5d8b8-3b93-4ee7-95d3-747bcabcce2c"},"vehicle_type_id":"4","last_reported":1760602528,"current_range_meters":0,"station_id":"","pricing_plan_id":"cebpf4jnsgd1na2vs0mg"},{"bike_id":"29f607de-69fd-4e0e-99ca-072e5b9ced5e","system_id":"levelo_inurba_marseille","lat":43.31737,"lon":5.40547,"is_reserved":false,"is_disabled":true,"rental_uris":{"android":"levelo://app?vid=29f607de-69fd-4e0e-99ca-072e5b9ced5e","ios":"levelo://app?vid=29f607de-69fd-4e0e-99ca-072e5b9ced5e"},"vehicle_type_id":"4","last_reported":1760602528,"current_range_meters":0,"station_id":"","pricing_plan_id":"cebpf4jnsgd1na2vs0mg"},{"bike_id":"132126b7-5666-425a-a1ed-3e9c9286f003","system_id":"levelo_inurba_marseille","lat":43.28008,"lon":5.41006,"is_reserved":false,"is_disabled":true,"rental_uris":{"android":"levelo://app?vid=132126b7-5666-425a-a1ed-3e9c9286f003","ios":"levelo://app?vid=132126b7-5666-425a-a1ed-3e9c9286f003"},"vehicle_type_id":"4","last_reported":1760602528,"current_range_meters":0,"station_id":"","pricing_plan_id":"cebpf4jnsgd1na2vs0mg"},{"bike_id":"48f50893-a784-4606-81fd-1517c053f3f7","system_id":"levelo_inurba_marseille","lat":43.29292,"lon":5.37376,"is_reserved":false,"is_disabled":true,"rental_uris":{"android":"levelo://app?vid=48f50893-a784-4606-81fd-1517c053f3f7","ios":"levelo://app?vid=48f50893-a784-4606-81fd-1517c053f3f7"},"vehicle_type_id":"4","last_reported":1760602528,"current_range_meters":0,"station_id":"","pricing_plan_id":"cebpf4jnsgd1na2vs0mg"},{"bike_id":"af233c89-ff22-4fc0-a87b-2353168c05dd","system_id":"levelo_inurba_marseille","lat":43.27413,"lon":5.41169,"is_reserved":false,"is_disabled":true,"rental_uris":{"android":"levelo://app?vid=af233c89-ff22-4fc0-a87b-2353168c05dd","ios":"levelo://app?vid=af233c89-ff22-4fc0-a87b-2353168c05dd"},"vehicle_type_id":"4","last_reported":1760602528,"current_range_meters":0,"station_id":"","pricing_plan_id":"cebpf4jnsgd1na2vs0mg"},{"bike_id":"e174ec7a-3d90-4146-9085-b8a14d5ce575","system_id":"levelo_inurba_marseille","lat":43.249765,"lon":5.401336,"is_reserved":false,"is_disabled":true,"rental_uris":{"android":"levelo://app?vid=e174ec7a-3d90-4146-9085-b8a14d5ce575","ios":"levelo://app?vid=e174ec7a-3d90-4146-9085-b8a14d5ce575"},"vehicle_type_id":"4","last_reported":1760602528,"current_range_meters":0,"station_id":"","pricing_plan_id":"cebpf4jnsgd1na2vs0mg"},{"bike_id":"c1893587-e5ad-4b72-a3e6-189c91e5c719","system_id":"levelo_inurba_marseille","lat":43.28257,"lon":5.39185,"is_reserved":false,"is_disabled":true,"rental_uris":{"android":"levelo://app?vid=c1893587-e5ad-4b72-a3e6-189c91e5c719","ios":"levelo://app?vid=c1893587-e5ad-4b72-a3e6-189c91e5c719"},"vehicle_type_id":"4","last_reported":1760602528,"current_range_meters":0,"station_id":"","pricing_plan_id":"cebpf4jnsgd1na2vs0mg"},{"bike_id":"83560911-40e0-4475-b727-bda6aeb6ed60","system_id":"levelo_inurba_marseille","lat":43.225331,"lon":5.348328,"is_reserved":false,"is_disabled":true,"rental_uris":{"android":"levelo://app?vid=83560911-40e0-4475-b727-bda6aeb6ed60","ios":"levelo://app?vid=83560911-40e0-4475-b727-bda6aeb6ed60"},"vehicle_type_id":"4","last_reported":1760602528,"current_range_meters":0,"station_id":"","pricing_plan_id":"cebpf4jnsgd1na2vs0mg"},{"bike_id":"3327e998-6a1b-431b-a68a-176444eaf7d0","system_id":"levelo_inurba_marseille","lat":43.29662,"lon":5.36757,"is_reserved":false,"is_disabled":true,"rental_uris":{"android":"levelo://app?vid=3327e998-6a1b-431b-a68a-176444eaf7d0","ios":"levelo://app?vid=3327e998-6a1b-431b-a68a-176444eaf7d0"},"vehicle_type_id":"4","last_reported":1760602528,"current_range_meters":0,"station_id":"","pricing_plan_id":"cebpf4jnsgd1na2vs0mg"},{"bike_id":"eb9fdec9-99d7-422d-ba0b-35ee4d7c324b","system_id":"levelo_inurba_marseille","lat":43.225077,"lon":5.348303,"is_reserved":false,"is_disabled":true,"rental_uris":{"android":"levelo://app?vid=eb9fdec9-99d7-422d-ba0b-35ee4d7c324b","ios":"levelo://app?vid=eb9fdec9-99d7-422d-ba0b-35ee4d7c324b"},"vehicle_type_id":"4","last_reported":1760602528,"current_range_meters":0,"station_id":"","pricing_plan_id":"cebpf4jnsgd1na2vs0mg"},{"bike_id":"4c49ff48-f815-4dd0-8fd4-375b27e08d94","system_id":"levelo_inurba_marseille","lat":43.29141,"lon":5.40821,"is_reserved":false,"is_disabled":true,"rental_uris":{"android":"levelo://app?vid=4c49ff48-f815-4dd0-8fd4-375b27e08d94","ios":"levelo://app?vid=4c49ff48-f815-4dd0-8fd4-375b27e08d94"},"vehicle_type_id":"4","last_reported":1760602528,"current_range_meters":0,"station_id":"","pricing_plan_id":"cebpf4jnsgd1na2vs0mg"},{"bike_id":"e4e3900b-e860-48f7-bded-13ac039f45dd","system_id":"levelo_inurba_marseille","lat":43.238009,"lon":5.430545,"is_reserved":false,"is_disabled":true,"rental_uris":{"android":"levelo://app?vid=e4e3900b-e860-48f7-bded-13ac039f45dd","ios":"levelo://app?vid=e4e3900b-e860-48f7-bded-13ac039f45dd"},"vehicle_type_id":"4","last_reported":1760602528,"current_range_meters":0,"station_id":"","pricing_plan_id":"cebpf4jnsgd1na2vs0mg"},{"bike_id":"6776cb03-734b-4d27-9345-e3fc5cb1d40c","system_id":"levelo_inurba_marseille","lat":43.26343,"lon":5.40102,"is_reserved":false,"is_disabled":true,"rental_uris":{"android":"levelo://app?vid=6776cb03-734b-4d27-9345-e3fc5cb1d40c","ios":"levelo://app?vid=6776cb03-734b-4d27-9345-e3fc5cb1d40c"},"vehicle_type_id":"4","last_reported":1760602528,"current_range_meters":0,"station_id":"","pricing_plan_id":"cebpf4jnsgd1na2vs0mg"},{"bike_id":"3804a29c-a782-4c50-a410-9157f2094310","system_id":"levelo_inurba_marseille","lat":43.27444,"lon":5.38479,"is_reserved":false,"is_disabled":true,"rental_uris":{"android":"levelo://app?vid=3804a29c-a782-4c50-a410-9157f2094310","ios":"levelo://app?vid=3804a29c-a782-4c50-a410-9157f2094310"},"vehicle_type_id":"4","last_reported":1760602528,"current_range_meters":0,"station_id":"","pricing_plan_id":"cebpf4jnsgd1na2vs0mg"},{"bike_id":"c5939fc8-9930-4946-980f-efc9f762c9ae","system_id":"levelo_inurba_marseille","lat":43.25165,"lon":5.375488,"is_reserved":false,"is_disabled":true,"rental_uris":{"android":"levelo://app?vid=c5939fc8-9930-4946-980f-efc9f762c9ae","ios":"levelo://app?vid=c5939fc8-9930-4946-980f-efc9f762c9ae"},"vehicle_type_id":"4","last_reported":1760602528,"current_range_meters":0,"station_id":"","pricing_plan_id":"cebpf4jnsgd1na2vs0mg"},{"bike_id":"4b0f356a-7a97-4f4e-85ee-bd2469184852","system_id":"levelo_inurba_marseille","lat":43.27949,"lon":5.41526,"is_reserved":false,"is_disabled":true,"rental_uris":{"android":"levelo://app?vid=4b0f356a-7a97-4f4e-85ee-bd2469184852","ios":"levelo://app?vid=4b0f356a-7a97-4f4e-85ee-bd2469184852"},"vehicle_type_id":"4","last_reported":1760602528,"current_range_meters":0,"station_id":"","pricing_plan_id":"cebpf4jnsgd1na2vs0mg"},{"bike_id":"124077fa-3fea-4e89-99ac-8687f87c4c44","system_id":"levelo_inurba_marseille","lat":43.2954,"lon":5.383068,"is_reserved":false,"is_disabled":true,"rental_uris":{"android":"levelo://app?vid=124077fa-3fea-4e89-99ac-8687f87c4c44","ios":"levelo://app?vid=124077fa-3fea-4e89-99ac-8687f87c4c44"},"vehicle_type_id":"4","last_reported":1760602528,"current_range_meters":0,"station_id":"","pricing_plan_id":"cebpf4jnsgd1na2vs0mg"},{"bike_id":"14b2c2ae-b21d-4422-a602-7ad9cf908478","system_id":"levelo_inurba_marseille","lat":43.279373,"lon":5.412285,"is_reserved":false,"is_disabled":true,"rental_uris":{"android":"levelo://app?vid=14b2c2ae-b21d-4422-a602-7ad9cf908478","ios":"levelo://app?vid=14b2c2ae-b21d-4422-a602-7ad9cf908478"},"vehicle_type_id":"4","last_reported":1760602528,"current_range_meters":0,"station_id":"","pricing_plan_id":"cebpf4jnsgd1na2vs0mg"},{"bike_id":"528f3c09-446d-4561-9f6f-79d1ade7b327","system_id":"levelo_inurba_marseille","lat":43.31687,"lon":5.40464,"is_reserved":false,"is_disabled":true,"rental_uris":{"android":"levelo://app?vid=528f3c09-446d-4561-9f6f-79d1ade7b327","ios":"levelo://app?vid=528f3c09-446d-4561-9f6f-79d1ade7b327"},"vehicle_type_id":"4","last_reported":1760602528,"current_range_meters":0,"station_id":"ce4bh012rcd13ifvqd00","pricing_plan_id":"cebpf4jnsgd1na2vs0mg"},{"bike_id":"21a18d8d-acf0-4656-ac74-5cb3dd19470a","system_id":"levelo_inurba_marseille","lat":43.29198,"lon":5.3932,"is_reserved":false,"is_disabled":true,"rental_uris":{"android":"levelo://app?vid=21a18d8d-acf0-4656-ac74-5cb3dd19470a","ios":"levelo://app?vid=21a18d8d-acf0-4656-ac74-5cb3dd19470a"},"vehicle_type_id":"4","last_reported":1760602528,"current_range_meters":0,"station_id":"ce4bh192rcd13ifvqdd0","pricing_plan_id":"cebpf4jnsgd1na2vs0mg"},{"bike_id":"2aa20560-0bc2-4868-92b8-8419e3b5cd8d","system_id":"levelo_inurba_marseille","lat":43.265487,"lon":5.372863,"is_reserved":false,"is_disabled":true,"rental_uris":{"android":"levelo://app?vid=2aa20560-0bc2-4868-92b8-8419e3b5cd8d","ios":"levelo://app?vid=2aa20560-0bc2-4868-92b8-8419e3b5cd8d"},"vehicle_type_id":"4","last_reported":1760602528,"current_range_meters":0,"station_id":"ce4bhg12rcd13ifvqf70","pricing_plan_id":"cebpf4jnsgd1na2vs0mg"},{"bike_id":"d61cd621-dfa8-49b8-91d7-6cf52566b083","system_id":"levelo_inurba_marseille","lat":43.24392,"lon":5.37056,"is_reserved":false,"is_disabled":true,"rental_uris":{"android":"levelo://app?vid=d61cd621-dfa8-49b8-91d7-6cf52566b083","ios":"levelo://app?vid=d61cd621-dfa8-49b8-91d7-6cf52566b083"},"vehicle_type_id":"4","last_reported":1760602528,"current_range_meters":0,"station_id":"ce4bhhh2rcd13ifvqfk0","pricing_plan_id":"cebpf4jnsgd1na2vs0mg"},{"bike_id":"b285de3d-26f3-4c5c-9ed2-94af3c4e6672","system_id":"levelo_inurba_marseille","lat":43.24072,"lon":5.37763,"is_reserved":false,"is_disabled":true,"rental_uris":{"android":"levelo://app?vid=b285de3d-26f3-4c5c-9ed2-94af3c4e6672","ios":"levelo://app?vid=b285de3d-26f3-4c5c-9ed2-94af3c4e6672"},"vehicle_type_id":"4","last_reported":1760602528,"current_range_meters":0,"station_id":"ce4bhnp2rcd13ifvqgvg","pricing_plan_id":"cebpf4jnsgd1na2vs0mg"},{"bike_id":"7816e788-0b04-49b2-b832-f93f744de014","system_id":"levelo_inurba_marseille","lat":43.24067,"lon":5.37767,"is_reserved":false,"is_disabled":true,"rental_uris":{"android":"levelo://app?vid=7816e788-0b04-49b2-b832-f93f744de014","ios":"levelo://app?vid=7816e788-0b04-49b2-b832-f93f744de014"},"vehicle_type_id":"4","last_reported":1760602528,"current_range_meters":0,"station_id":"ce4bhnp2rcd13ifvqgvg","pricing_plan_id":"cebpf4jnsgd1na2vs0mg"},{"bike_id":"b674281a-eace-4038-a66b-16c5ca6e6200","system_id":"levelo_inurba_marseille","lat":43.32539,"lon":5.4143,"is_reserved":false,"is_disabled":true,"rental_uris":{"android":"levelo://app?vid=b674281a-eace-4038-a66b-16c5ca6e6200","ios":"levelo://app?vid=b674281a-eace-4038-a66b-16c5ca6e6200"},"vehicle_type_id":"4","last_reported":1760602528,"current_range_meters":0,"station_id":"ce4bhq12rcd13ifvqhhg","pricing_plan_id":"cebpf4jnsgd1na2vs0mg"},{"bike_id":"b58cbbdf-bef0-4233-9af2-f737053b70a4","system_id":"levelo_inurba_marseille","lat":43.28609,"lon":5.37048,"is_reserved":false,"is_disabled":true,"rental_uris":{"android":"levelo://app?vid=b58cbbdf-bef0-4233-9af2-f737053b70a4","ios":"levelo://app?vid=b58cbbdf-bef0-4233-9af2-f737053b70a4"},"vehicle_type_id":"4","last_reported":1760602528,"current_range_meters":0,"station_id":"ce4bht12rcd13ifvqi60","pricing_plan_id":"cebpf4jnsgd1na2vs0mg"},{"bike_id":"30681bed-7873-4c59-941b-9674ada304e3","system_id":"levelo_inurba_marseille","lat":43.30328,"lon":5.36892,"is_reserved":false,"is_disabled":true,"rental_uris":{"android":"levelo://app?vid=30681bed-7873-4c59-941b-9674ada304e3","ios":"levelo://app?vid=30681bed-7873-4c59-941b-9674ada304e3"},"vehicle_type_id":"4","last_reported":1760602528,"current_range_meters":400,"station_id":"ce4bgqh2rcd13ifvqc5g","pricing_plan_id":"cebpf4jnsgd1na2vs0mg"},{"bike_id":"a1376c1a-5ecb-46f1-99dc-a53a48072a14","system_id":"levelo_inurba_marseille","lat":43.308936,"lon":5.372023,"is_reserved":false,"is_disabled":true,"rental_uris":{"android":"levelo://app?vid=a1376c1a-5ecb-46f1-99dc-a53a48072a14","ios":"levelo://app?vid=a1376c1a-5ecb-46f1-99dc-a53a48072a14"},"vehicle_type_id":"4","last_reported":1760602528,"current_range_meters":400,"station_id":"ce4bguh2rcd13ifvqckg","pricing_plan_id":"cebpf4jnsgd1na2vs0mg"},{"bike_id":"7aa4d95c-bca9-4748-b4f4-61191a82b9fe","system_id":"levelo_inurba_marseille","lat":43.28692,"lon":5.37416,"is_reserved":false,"is_disabled":true,"rental_uris":{"android":"levelo://app?vid=7aa4d95c-bca9-4748-b4f4-61191a82b9fe","ios":"levelo://app?vid=7aa4d95c-bca9-4748-b4f4-61191a82b9fe"},"vehicle_type_id":"4","last_reported":1760602528,"current_range_meters":400,"station_id":"ce4bh3p2rcd13ifvqdq0","pricing_plan_id":"cebpf4jnsgd1na2vs0mg"},{"bike_id":"d2dbadef-70ae-4926-8759-9c8d413284cf","system_id":"levelo_inurba_marseille","lat":43.285938,"lon":5.384059,"is_reserved":false,"is_disabled":true,"rental_uris":{"android":"levelo://app?vid=d2dbadef-70ae-4926-8759-9c8d413284cf","ios":"levelo://app?vid=d2dbadef-70ae-4926-8759-9c8d413284cf"},"vehicle_type_id":"4","last_reported":1760602528,"current_range_meters":400,"station_id":"ce4bh492rcd13ifvqdug","pricing_plan_id":"cebpf4jnsgd1na2vs0mg"},{"bike_id":"2a9088af-4241-403d-9c17-2a910cadb8db","system_id":"levelo_inurba_marseille","lat":43.28121,"lon":5.37843,"is_reserved":false,"is_disabled":true,"rental_uris":{"android":"levelo://app?vid=2a9088af-4241-403d-9c17-2a910cadb8db","ios":"levelo://app?vid=2a9088af-4241-403d-9c17-2a910cadb8db"},"vehicle_type_id":"4","last_reported":1760602528,"current_range_meters":400,"station_id":"ce4bha12rcd13ifvqee0","pricing_plan_id":"cebpf4jnsgd1na2vs0mg"},{"bike_id":"b9e54c4d-e68d-4d44-bba3-6118717ddb1b","system_id":"levelo_inurba_marseille","lat":43.29267,"lon":5.3684,"is_reserved":false,"is_disabled":true,"rental_uris":{"android":"levelo://app?vid=b9e54c4d-e68d-4d44-bba3-6118717ddb1b","ios":"levelo://app?vid=b9e54c4d-e68d-4d44-bba3-6118717ddb1b"},"vehicle_type_id":"4","last_reported":1760602528,"current_range_meters":400,"station_id":"ce4bhbp2rcd13ifvqesg","pricing_plan_id":"cebpf4jnsgd1na2vs0mg"},{"bike_id":"cb09a8d9-0bf2-49ff-83d0-ea8c2ce30ced","system_id":"levelo_inurba_marseille","lat":43.26566,"lon":5.40323,"is_reserved":false,"is_disabled":true,"rental_uris":{"android":"levelo://app?vid=cb09a8d9-0bf2-49ff-83d0-ea8c2ce30ced","ios":"levelo://app?vid=cb09a8d9-0bf2-49ff-83d0-ea8c2ce30ced"},"vehicle_type_id":"4","last_reported":1760602528,"current_range_meters":400,"station_id":"ce4bhmp2rcd13ifvqgng","pricing_plan_id":"cebpf4jnsgd1na2vs0mg"},{"bike_id":"f21a055a-8441-46c8-8e8d-906f22c06774","system_id":"levelo_inurba_marseille","lat":43.28217,"lon":5.39064,"is_reserved":false,"is_disabled":true,"rental_uris":{"android":"levelo://app?vid=f21a055a-8441-46c8-8e8d-906f22c06774","ios":"levelo://app?vid=f21a055a-8441-46c8-8e8d-906f22c06774"},"vehicle_type_id":"4","last_reported":1760602528,"current_range_meters":400,"station_id":"ce4bhn92rcd13ifvqgsg","pricing_plan_id":"cebpf4jnsgd1na2vs0mg"},{"bike_id":"62b748d2-7193-4577-81bf-9cdd82f04b30","system_id":"levelo_inurba_marseille","lat":43.3237,"lon":5.36754,"is_reserved":false,"is_disabled":true,"rental_uris":{"android":"levelo://app?vid=62b748d2-7193-4577-81bf-9cdd82f04b30","ios":"levelo://app?vid=62b748d2-7193-4577-81bf-9cdd82f04b30"},"vehicle_type_id":"4","last_reported":1760602528,"current_range_meters":400,"station_id":"ce4bhsh2rcd13ifvqi2g","pricing_plan_id":"cebpf4jnsgd1na2vs0mg"},{"bike_id":"b0a6fbac-89b7-4199-8627-b210815fea76","system_id":"levelo_inurba_marseille","lat":43.26752,"lon":5.39388,"is_reserved":false,"is_disabled":true,"rental_uris":{"android":"levelo://app?vid=b0a6fbac-89b7-4199-8627-b210815fea76","ios":"levelo://app?vid=b0a6fbac-89b7-4199-8627-b210815fea76"},"vehicle_type_id":"4","last_reported":1760602528,"current_range_meters":800,"station_id":"","pricing_plan_id":"cebpf4jnsgd1na2vs0mg"},{"bike_id":"62bcc097-ed67-4321-b493-952c5997167f","system_id":"levelo_inurba_marseille","lat":43.30141,"lon":5.38066,"is_reserved":false,"is_disabled":true,"rental_uris":{"android":"levelo://app?vid=62bcc097-ed67-4321-b493-952c5997167f","ios":"levelo://app?vid=62bcc097-ed67-4321-b493-952c5997167f"},"vehicle_type_id":"4","last_reported":1760602528,"current_range_meters":800,"station_id":"ce4bgjp2rcd13ifvqbh0","pricing_plan_id":"cebpf4jnsgd1na2vs0mg"},{"bike_id":"742310cf-ce83-4a6c-843f-87c2de4f60ea","system_id":"levelo_inurba_marseille","lat":43.3054,"lon":5.3655,"is_reserved":false,"is_disabled":true,"rental_uris":{"android":"levelo://app?vid=742310cf-ce83-4a6c-843f-87c2de4f60ea","ios":"levelo://app?vid=742310cf-ce83-4a6c-843f-87c2de4f60ea"},"vehicle_type_id":"4","last_reported":1760602528,"current_range_meters":800,"station_id":"ce4bgs12rcd13ifvqcag","pricing_plan_id":"cebpf4jnsgd1na2vs0mg"},{"bike_id":"a2ba3e06-10fd-4867-b717-27403fd36eb7","system_id":"levelo_inurba_marseille","lat":43.24804,"lon":5.37453,"is_reserved":false,"is_disabled":true,"rental_uris":{"android":"levelo://app?vid=a2ba3e06-10fd-4867-b717-27403fd36eb7","ios":"levelo://app?vid=a2ba3e06-10fd-4867-b717-27403fd36eb7"},"vehicle_type_id":"4","last_reported":1760602528,"current_range_meters":1200,"station_id":"ce4bhgh2rcd13ifvqfb0","pricing_plan_id":"cebpf4jnsgd1na2vs0mg"},{"bike_id":"94e2cf71-990c-4fc9-ac5b-62eb22ebf95e","system_id":"levelo_inurba_marseille","lat":43.297565,"lon":5.400687,"is_reserved":false,"is_disabled":true,"rental_uris":{"android":"levelo://app?vid=94e2cf71-990c-4fc9-ac5b-62eb22ebf95e","ios":"levelo://app?vid=94e2cf71-990c-4fc9-ac5b-62eb22ebf95e"},"vehicle_type_id":"4","last_reported":1760602528,"current_range_meters":1600,"station_id":"ce4bh312rcd13ifvqdj0","pricing_plan_id":"cebpf4jnsgd1na2vs0mg"},{"bike_id":"c7997c4b-5980-4315-9761-af161b138db7","system_id":"levelo_inurba_marseille","lat":43.24173,"lon":5.36382,"is_reserved":false,"is_disabled":true,"rental_uris":{"android":"levelo://app?vid=c7997c4b-5980-4315-9761-af161b138db7","ios":"levelo://app?vid=c7997c4b-5980-4315-9761-af161b138db7"},"vehicle_type_id":"4","last_reported":1760602528,"current_range_meters":1600,"station_id":"cpo36qri1sfpv3e86is0","pricing_plan_id":"cebpf4jnsgd1na2vs0mg"},{"bike_id":"f3d71a09-5e1a-4427-891f-263641eda5b1","system_id":"levelo_inurba_marseille","lat":43.30956,"lon":5.39037,"is_reserved":false,"is_disabled":true,"rental_uris":{"android":"levelo://app?vid=f3d71a09-5e1a-4427-891f-263641eda5b1","ios":"levelo://app?vid=f3d71a09-5e1a-4427-891f-263641eda5b1"},"vehicle_type_id":"4","last_reported":1760602528,"current_range_meters":2000,"station_id":"ce4bgup2rcd13ifvqco0","pricing_plan_id":"cebpf4jnsgd1na2vs0mg"},{"bike_id":"3d7a457e-8b30-4a74-aa4f-3106a53ec296","system_id":"levelo_inurba_marseille","lat":43.29281,"lon":5.40125,"is_reserved":false,"is_disabled":true,"rental_uris":{"android":"levelo://app?vid=3d7a457e-8b30-4a74-aa4f-3106a53ec296","ios":"levelo://app?vid=3d7a457e-8b30-4a74-aa4f-3106a53ec296"},"vehicle_type_id":"4","last_reported":1760602528,"current_range_meters":2000,"station_id":"ce4bh312rcd13ifvqdk0","pricing_plan_id":"cebpf4jnsgd1na2vs0mg"},{"bike_id":"a54515ce-1671-4521-a6c7-9da7aa68d70c","system_id":"levelo_inurba_marseille","lat":43.27366,"lon":5.36267,"is_reserved":false,"is_disabled":true,"rental_uris":{"android":"levelo://app?vid=a54515ce-1671-4521-a6c7-9da7aa68d70c","ios":"levelo://app?vid=a54515ce-1671-4521-a6c7-9da7aa68d70c"},"vehicle_type_id":"4","last_reported":1760602528,"current_range_meters":2000,"station_id":"ce4bhbh2rcd13ifvqeo0","pricing_plan_id":"cebpf4jnsgd1na2vs0mg"},{"bike_id":"8a1ee572-6f78-41b7-a44a-df4db156121f","system_id":"levelo_inurba_marseille","lat":43.2871,"lon":5.39983,"is_reserved":false,"is_disabled":true,"rental_uris":{"android":"levelo://app?vid=8a1ee572-6f78-41b7-a44a-df4db156121f","ios":"levelo://app?vid=8a1ee572-6f78-41b7-a44a-df4db156121f"},"vehicle_type_id":"4","last_reported":1760602528,"current_range_meters":2000,"station_id":"ce4bho92rcd13ifvqh3g","pricing_plan_id":"cebpf4jnsgd1na2vs0mg"},{"bike_id":"481c51e8-bfe7-4e75-a626-d0063a0f2153","system_id":"levelo_inurba_marseille","lat":43.305264,"lon":5.367002,"is_reserved":false,"is_disabled":false,"rental_uris":{"android":"levelo://app?vid=481c51e8-bfe7-4e75-a626-d0063a0f2153","ios":"levelo://app?vid=481c51e8-bfe7-4e75-a626-d0063a0f2153"},"vehicle_type_id":"4","last_reported":1760602528,"current_range_meters":2800,"station_id":"ce4bgrp2rcd13ifvqc9g","pricing_plan_id":"cebpf4jnsgd1na2vs0mg"},{"bike_id":"622440a9-db45-4600-8c37-69f6e1479cf0","system_id":"levelo_inurba_marseille","lat":43.29265,"lon":5.36854,"is_reserved":false,"is_disabled":false,"rental_uris":{"android":"levelo://app?vid=622440a9-db45-4600-8c37-69f6e1479cf0","ios":"levelo://app?vid=622440a9-db45-4600-8c37-69f6e1479cf0"},"vehicle_type_id":"4","last_reported":1760602528,"current_range_meters":2800,"station_id":"ce4bhbp2rcd13ifvqesg","pricing_plan_id":"cebpf4jnsgd1na2vs0mg"},{"bike_id":"ea5c4ce8-baef-409a-a345-2dfa978352c0","system_id":"levelo_inurba_marseille","lat":43.30145,"lon":5.38068,"is_reserved":false,"is_disabled":false,"rental_uris":{"android":"levelo://app?vid=ea5c4ce8-baef-409a-a345-2dfa978352c0","ios":"levelo://app?vid=ea5c4ce8-baef-409a-a345-2dfa978352c0"},"vehicle_type_id":"4","last_reported":1760602528,"current_range_meters":3600,"station_id":"ce4bgjp2rcd13ifvqbh0","pricing_plan_id":"cebpf4jnsgd1na2vs0mg"},{"bike_id":"b4052f7a-27b6-479b-bdb3-900e233c35a7","system_id":"levelo_inurba_marseille","lat":43.295724,"lon":5.363945,"is_reserved":false,"is_disabled":false,"rental_uris":{"android":"levelo://app?vid=b4052f7a-27b6-479b-bdb3-900e233c35a7","ios":"levelo://app?vid=b4052f7a-27b6-479b-bdb3-900e233c35a7"},"vehicle_type_id":"4","last_reported":1760602528,"current_range_meters":4000,"station_id":"","pricing_plan_id":"cebpf4jnsgd1na2vs0mg"},{"bike_id":"09af0b09-c2b8-49bc-a668-365f8d9f63d9","system_id":"levelo_inurba_marseille","lat":43.291008,"lon":5.381303,"is_reserved":false,"is_disabled":false,"rental_uris":{"android":"levelo://app?vid=09af0b09-c2b8-49bc-a668-365f8d9f63d9","ios":"levelo://app?vid=09af0b09-c2b8-49bc-a668-365f8d9f63d9"},"vehicle_type_id":"4","last_reported":1760602528,"current_range_meters":4000,"station_id":"ce4bh512rcd13ifvqe2g","pricing_plan_id":"cebpf4jnsgd1na2vs0mg"},{"bike_id":"24d9c63e-e14e-475e-b808-608bafd3289f","system_id":"levelo_inurba_marseille","lat":43.22428,"lon":5.34657,"is_reserved":false,"is_disabled":false,"rental_uris":{"android":"levelo://app?vid=24d9c63e-e14e-475e-b808-608bafd3289f","ios":"levelo://app?vid=24d9c63e-e14e-475e-b808-608bafd3289f"},"vehicle_type_id":"4","last_reported":1760602528,"current_range_meters":4800,"station_id":"","pricing_plan_id":"cebpf4jnsgd1na2vs0mg"},{"bike_id":"3c1f4cdc-7c5b-4f70-bbea-946efbd7bd8d","system_id":"levelo_inurba_marseille","lat":43.29976,"lon":5.38495,"is_reserved":false,"is_disabled":false,"rental_uris":{"android":"levelo://app?vid=3c1f4cdc-7c5b-4f70-bbea-946efbd7bd8d","ios":"levelo://app?vid=3c1f4cdc-7c5b-4f70-bbea-946efbd7bd8d"},"vehicle_type_id":"4","last_reported":1760602528,"current_range_meters":4800,"station_id":"ce4bgj92rcd13ifvqbd0","pricing_plan_id":"cebpf4jnsgd1na2vs0mg"},{"bike_id":"bd9e5ceb-1137-4ead-b29c-458daaa877c6","system_id":"levelo_inurba_marseille","lat":43.291717,"lon":5.371567,"is_reserved":false,"is_disabled":false,"rental_uris":{"android":"levelo://app?vid=bd9e5ceb-1137-4ead-b29c-458daaa877c6","ios":"levelo://app?vid=bd9e5ceb-1137-4ead-b29c-458daaa877c6"},"vehicle_type_id":"4","last_reported":1760602528,"current_range_meters":5600,"station_id":"","pricing_plan_id":"cebpf4jnsgd1na2vs0mg"},{"bike_id":"9cffbe07-72ae-4d07-8625-98007d8a776f","system_id":"levelo_inurba_marseille","lat":43.29567,"lon":5.37531,"is_reserved":false,"is_disabled":false,"rental_uris":{"android":"levelo://app?vid=9cffbe07-72ae-4d07-8625-98007d8a776f","ios":"levelo://app?vid=9cffbe07-72ae-4d07-8625-98007d8a776f"},"vehicle_type_id":"4","last_reported":1760602528,"current_range_meters":5600,"station_id":"ce4bgh92rcd13ifvqb50","pricing_plan_id":"cebpf4jnsgd1na2vs0mg"},{"bike_id":"3c8e1f71-5159-4591-a081-74c06643da9c","system_id":"levelo_inurba_marseille","lat":43.28702,"lon":5.39987,"is_reserved":false,"is_disabled":false,"rental_uris":{"android":"levelo://app?vid=3c8e1f71-5159-4591-a081-74c06643da9c","ios":"levelo://app?vid=3c8e1f71-5159-4591-a081-74c06643da9c"},"vehicle_type_id":"4","last_reported":1760602528,"current_range_meters":5600,"station_id":"ce4bho92rcd13ifvqh3g","pricing_plan_id":"cebpf4jnsgd1na2vs0mg"},{"bike_id":"1675bd4f-57b4-4486-aba5-4ee7065cc2b7","system_id":"levelo_inurba_marseille","lat":43.3055,"lon":5.36539,"is_reserved":false,"is_disabled":false,"rental_uris":{"android":"levelo://app?vid=1675bd4f-57b4-4486-aba5-4ee7065cc2b7","ios":"levelo://app?vid=1675bd4f-57b4-4486-aba5-4ee7065cc2b7"},"vehicle_type_id":"4","last_reported":1760602528,"current_range_meters":6000,"station_id":"ce4bgs12rcd13ifvqcag","pricing_plan_id":"cebpf4jnsgd1na2vs0mg"},{"bike_id":"6070840e-0313-4c27-8173-c89100136092","system_id":"levelo_inurba_marseille","lat":43.28275,"lon":5.35057,"is_reserved":false,"is_disabled":false,"rental_uris":{"android":"levelo://app?vid=6070840e-0313-4c27-8173-c89100136092","ios":"levelo://app?vid=6070840e-0313-4c27-8173-c89100136092"},"vehicle_type_id":"4","last_reported":1760602528,"current_range_meters":6000,"station_id":"ce4bhbp2rcd13ifvqerg","pricing_plan_id":"cebpf4jnsgd1na2vs0mg"},{"bike_id":"5ae24abe-04f3-4f06-af51-3d57818d7285","system_id":"levelo_inurba_marseille","lat":43.27917,"lon":5.39578,"is_reserved":false,"is_disabled":false,"rental_uris":{"android":"levelo://app?vid=5ae24abe-04f3-4f06-af51-3d57818d7285","ios":"levelo://app?vid=5ae24abe-04f3-4f06-af51-3d57818d7285"},"vehicle_type_id":"4","last_reported":1760602528,"current_range_meters":6000,"station_id":"ce4bhf92rcd13ifvqf40","pricing_plan_id":"cebpf4jnsgd1na2vs0mg"},{"bike_id":"ea03b3cc-1292-47b4-be02-be7c627b5349","system_id":"levelo_inurba_marseille","lat":43.24999,"lon":5.389229,"is_reserved":false,"is_disabled":false,"rental_uris":{"android":"levelo://app?vid=ea03b3cc-1292-47b4-be02-be7c627b5349","ios":"levelo://app?vid=ea03b3cc-1292-47b4-be02-be7c627b5349"},"vehicle_type_id":"4","last_reported":1760602528,"current_range_meters":6000,"station_id":"ce4bhgp2rcd13ifvqfd0","pricing_plan_id":"cebpf4jnsgd1na2vs0mg"},{"bike_id":"f4159b26-72d5-4d42-bbdf-20180a88a524","system_id":"levelo_inurba_marseille","lat":43.2732,"lon":5.3912,"is_reserved":false,"is_disabled":false,"rental_uris":{"android":"levelo://app?vid=f4159b26-72d5-4d42-bbdf-20180a88a524","ios":"levelo://app?vid=f4159b26-72d5-4d42-bbdf-20180a88a524"},"vehicle_type_id":"4","last_reported":1760602528,"current_range_meters":6000,"station_id":"ce4bhgp2rcd13ifvqfe0","pricing_plan_id":"cebpf4jnsgd1na2vs0mg"},{"bike_id":"28a6c1b6-0ed3-454a-b494-b2c93cbf8df5","system_id":"levelo_inurba_marseille","lat":43.24072,"lon":5.37772,"is_reserved":false,"is_disabled":false,"rental_uris":{"android":"levelo://app?vid=28a6c1b6-0ed3-454a-b494-b2c93cbf8df5","ios":"levelo://app?vid=28a6c1b6-0ed3-454a-b494-b2c93cbf8df5"},"vehicle_type_id":"4","last_reported":1760602528,"current_range_meters":6000,"station_id":"ce4bhnp2rcd13ifvqgvg","pricing_plan_id":"cebpf4jnsgd1na2vs0mg"},{"bike_id":"b17f0837-4cce-4be1-a14f-ec3e739a5541","system_id":"levelo_inurba_marseille","lat":43.280079,"lon":5.400194,"is_reserved":false,"is_disabled":false,"rental_uris":{"android":"levelo://app?vid=b17f0837-4cce-4be1-a14f-ec3e739a5541","ios":"levelo://app?vid=b17f0837-4cce-4be1-a14f-ec3e739a5541"},"vehicle_type_id":"4","last_reported":1760602528,"current_range_meters":6800,"station_id":"","pricing_plan_id":"cebpf4jnsgd1na2vs0mg"},{"bike_id":"859dcf5c-2d93-4226-9c1e-3b58130126c5","system_id":"levelo_inurba_marseille","lat":43.29518,"lon":5.36143,"is_reserved":false,"is_disabled":false,"rental_uris":{"android":"levelo://app?vid=859dcf5c-2d93-4226-9c1e-3b58130126c5","ios":"levelo://app?vid=859dcf5c-2d93-4226-9c1e-3b58130126c5"},"vehicle_type_id":"4","last_reported":1760602528,"current_range_meters":6800,"station_id":"","pricing_plan_id":"cebpf4jnsgd1na2vs0mg"},{"bike_id":"c6a75cb8-49de-4a87-a2e2-9255d4e772d2","system_id":"levelo_inurba_marseille","lat":43.31218,"lon":5.36854,"is_reserved":false,"is_disabled":false,"rental_uris":{"android":"levelo://app?vid=c6a75cb8-49de-4a87-a2e2-9255d4e772d2","ios":"levelo://app?vid=c6a75cb8-49de-4a87-a2e2-9255d4e772d2"},"vehicle_type_id":"4","last_reported":1760602528,"current_range_meters":6800,"station_id":"ce4bgl92rcd13ifvqbq0","pricing_plan_id":"cebpf4jnsgd1na2vs0mg"},{"bike_id":"96e14c87-e6f9-4ba5-9f9e-4896430f8dbe","system_id":"levelo_inurba_marseille","lat":43.30146,"lon":5.37408,"is_reserved":false,"is_disabled":false,"rental_uris":{"android":"levelo://app?vid=96e14c87-e6f9-4ba5-9f9e-4896430f8dbe","ios":"levelo://app?vid=96e14c87-e6f9-4ba5-9f9e-4896430f8dbe"},"vehicle_type_id":"4","last_reported":1760602528,"current_range_meters":6800,"station_id":"ce4bgs92rcd13ifvqcc0","pricing_plan_id":"cebpf4jnsgd1na2vs0mg"},{"bike_id":"b07eb4e8-bc79-486c-931c-7ea6b62d55b5","system_id":"levelo_inurba_marseille","lat":43.30425,"lon":5.39744,"is_reserved":false,"is_disabled":false,"rental_uris":{"android":"levelo://app?vid=b07eb4e8-bc79-486c-931c-7ea6b62d55b5","ios":"levelo://app?vid=b07eb4e8-bc79-486c-931c-7ea6b62d55b5"},"vehicle_type_id":"4","last_reported":1760602528,"current_range_meters":6800,"station_id":"ce4bh092rcd13ifvqd20","pricing_plan_id":"cebpf4jnsgd1na2vs0mg"},{"bike_id":"3622549e-f4be-4321-b425-762f9adcc854","system_id":"levelo_inurba_marseille","lat":43.31887,"lon":5.40727,"is_reserved":false,"is_disabled":false,"rental_uris":{"android":"levelo://app?vid=3622549e-f4be-4321-b425-762f9adcc854","ios":"levelo://app?vid=3622549e-f4be-4321-b425-762f9adcc854"},"vehicle_type_id":"4","last_reported":1760602528,"current_range_meters":6800,"station_id":"ce4bhq12rcd13ifvqhig","pricing_plan_id":"cebpf4jnsgd1na2vs0mg"},{"bike_id":"26545edc-91b5-4eb9-98b7-e06eae770ff2","system_id":"levelo_inurba_marseille","lat":43.31732,"lon":5.43913,"is_reserved":false,"is_disabled":false,"rental_uris":{"android":"levelo://app?vid=26545edc-91b5-4eb9-98b7-e06eae770ff2","ios":"levelo://app?vid=26545edc-91b5-4eb9-98b7-e06eae770ff2"},"vehicle_type_id":"4","last_reported":1760602528,"current_range_meters":7200,"station_id":"","pricing_plan_id":"cebpf4jnsgd1na2vs0mg"},{"bike_id":"942b9f4c-c6a4-4c5e-9c45-66bcbe6c8922","system_id":"levelo_inurba_marseille","lat":43.29789,"lon":5.3809,"is_reserved":false,"is_disabled":false,"rental_uris":{"android":"levelo://app?vid=942b9f4c-c6a4-4c5e-9c45-66bcbe6c8922","ios":"levelo://app?vid=942b9f4c-c6a4-4c5e-9c45-66bcbe6c8922"},"vehicle_type_id":"4","last_reported":1760602528,"current_range_meters":7200,"station_id":"ce4bgip2rcd13ifvqbb0","pricing_plan_id":"cebpf4jnsgd1na2vs0mg"},{"bike_id":"52e27c0f-b72f-4ad8-9e66-b75becc21f13","system_id":"levelo_inurba_marseille","lat":43.3043,"lon":5.38891,"is_reserved":false,"is_disabled":false,"rental_uris":{"android":"levelo://app?vid=52e27c0f-b72f-4ad8-9e66-b75becc21f13","ios":"levelo://app?vid=52e27c0f-b72f-4ad8-9e66-b75becc21f13"},"vehicle_type_id":"4","last_reported":1760602528,"current_range_meters":7200,"station_id":"ce4bgk12rcd13ifvqbi0","pricing_plan_id":"cebpf4jnsgd1na2vs0mg"},{"bike_id":"f6437fbf-b29d-4f22-9fc3-ea1e7629d4df","system_id":"levelo_inurba_marseille","lat":43.304613,"lon":5.379036,"is_reserved":false,"is_disabled":false,"rental_uris":{"android":"levelo://app?vid=f6437fbf-b29d-4f22-9fc3-ea1e7629d4df","ios":"levelo://app?vid=f6437fbf-b29d-4f22-9fc3-ea1e7629d4df"},"vehicle_type_id":"4","last_reported":1760602528,"current_range_meters":7200,"station_id":"ce4bgup2rcd13ifvqcn0","pricing_plan_id":"cebpf4jnsgd1na2vs0mg"},{"bike_id":"f770d7b3-2cc6-4272-ae65-d16f81649011","system_id":"levelo_inurba_marseille","lat":43.27319,"lon":5.39065,"is_reserved":false,"is_disabled":false,"rental_uris":{"android":"levelo://app?vid=f770d7b3-2cc6-4272-ae65-d16f81649011","ios":"levelo://app?vid=f770d7b3-2cc6-4272-ae65-d16f81649011"},"vehicle_type_id":"4","last_reported":1760602528,"current_range_meters":7200,"station_id":"ce4bhgp2rcd13ifvqfe0","pricing_plan_id":"cebpf4jnsgd1na2vs0mg"},{"bike_id":"7a9c55bb-fb5e-4814-bf4d-bde4ba2d52dc","system_id":"levelo_inurba_marseille","lat":43.29916,"lon":5.37477,"is_reserved":false,"is_disabled":false,"rental_uris":{"android":"levelo://app?vid=7a9c55bb-fb5e-4814-bf4d-bde4ba2d52dc","ios":"levelo://app?vid=7a9c55bb-fb5e-4814-bf4d-bde4ba2d52dc"},"vehicle_type_id":"4","last_reported":1760602528,"current_range_meters":8000,"station_id":"ce4bgjh2rcd13ifvqbg0","pricing_plan_id":"cebpf4jnsgd1na2vs0mg"},{"bike_id":"019419fe-82e1-4d3e-8bc2-0dedf61c1029","system_id":"levelo_inurba_marseille","lat":43.29223,"lon":5.39258,"is_reserved":false,"is_disabled":false,"rental_uris":{"android":"levelo://app?vid=019419fe-82e1-4d3e-8bc2-0dedf61c1029","ios":"levelo://app?vid=019419fe-82e1-4d3e-8bc2-0dedf61c1029"},"vehicle_type_id":"4","last_reported":1760602528,"current_range_meters":8000,"station_id":"ce4bh192rcd13ifvqdd0","pricing_plan_id":"cebpf4jnsgd1na2vs0mg"},{"bike_id":"56a1a51c-ce2f-41c3-a5ae-53e1f7461212","system_id":"levelo_inurba_marseille","lat":43.28711,"lon":5.37929,"is_reserved":false,"is_disabled":false,"rental_uris":{"android":"levelo://app?vid=56a1a51c-ce2f-41c3-a5ae-53e1f7461212","ios":"levelo://app?vid=56a1a51c-ce2f-41c3-a5ae-53e1f7461212"},"vehicle_type_id":"4","last_reported":1760602528,"current_range_meters":8000,"station_id":"ce4bh9p2rcd13ifvqec0","pricing_plan_id":"cebpf4jnsgd1na2vs0mg"},{"bike_id":"70a1a5e0-cbcd-422d-995c-db37f724e728","system_id":"levelo_inurba_marseille","lat":43.24387,"lon":5.37051,"is_reserved":false,"is_disabled":false,"rental_uris":{"android":"levelo://app?vid=70a1a5e0-cbcd-422d-995c-db37f724e728","ios":"levelo://app?vid=70a1a5e0-cbcd-422d-995c-db37f724e728"},"vehicle_type_id":"4","last_reported":1760602528,"current_range_meters":8000,"station_id":"ce4bhhh2rcd13ifvqfk0","pricing_plan_id":"cebpf4jnsgd1na2vs0mg"},{"bike_id":"e0863f88-6065-41da-9ecd-468f1156f9d8","system_id":"levelo_inurba_marseille","lat":43.27337,"lon":5.41418,"is_reserved":false,"is_disabled":false,"rental_uris":{"android":"levelo://app?vid=e0863f88-6065-41da-9ecd-468f1156f9d8","ios":"levelo://app?vid=e0863f88-6065-41da-9ecd-468f1156f9d8"},"vehicle_type_id":"4","last_reported":1760602528,"current_range_meters":8400,"station_id":"","pricing_plan_id":"cebpf4jnsgd1na2vs0mg"},{"bike_id":"f4446fcb-8e31-443a-b978-3a32bb192da6","system_id":"levelo_inurba_marseille","lat":43.283826,"lon":5.394538,"is_reserved":false,"is_disabled":false,"rental_uris":{"android":"levelo://app?vid=f4446fcb-8e31-443a-b978-3a32bb192da6","ios":"levelo://app?vid=f4446fcb-8e31-443a-b978-3a32bb192da6"},"vehicle_type_id":"4","last_reported":1760602528,"current_range_meters":8400,"station_id":"ce4bgh92rcd13ifvqb50","pricing_plan_id":"cebpf4jnsgd1na2vs0mg"},{"bike_id":"28da5b4e-f99f-4f24-9f45-721012a88385","system_id":"levelo_inurba_marseille","lat":43.31339,"lon":5.36718,"is_reserved":false,"is_disabled":false,"rental_uris":{"android":"levelo://app?vid=28da5b4e-f99f-4f24-9f45-721012a88385","ios":"levelo://app?vid=28da5b4e-f99f-4f24-9f45-721012a88385"},"vehicle_type_id":"4","last_reported":1760602528,"current_range_meters":8400,"station_id":"ce4bgr92rcd13ifvqc6g","pricing_plan_id":"cebpf4jnsgd1na2vs0mg"},{"bike_id":"6f77f2fa-8f7b-4987-9d8b-abffd6f4d76f","system_id":"levelo_inurba_marseille","lat":43.30459,"lon":5.37907,"is_reserved":false,"is_disabled":false,"rental_uris":{"android":"levelo://app?vid=6f77f2fa-8f7b-4987-9d8b-abffd6f4d76f","ios":"levelo://app?vid=6f77f2fa-8f7b-4987-9d8b-abffd6f4d76f"},"vehicle_type_id":"4","last_reported":1760602528,"current_range_meters":8400,"station_id":"ce4bgup2rcd13ifvqcn0","pricing_plan_id":"cebpf4jnsgd1na2vs0mg"},{"bike_id":"cc96f581-785c-4d18-98c1-bcf64c0f2ecf","system_id":"levelo_inurba_marseille","lat":43.2901,"lon":5.38157,"is_reserved":false,"is_disabled":false,"rental_uris":{"android":"levelo://app?vid=cc96f581-785c-4d18-98c1-bcf64c0f2ecf","ios":"levelo://app?vid=cc96f581-785c-4d18-98c1-bcf64c0f2ecf"},"vehicle_type_id":"4","last_reported":1760602528,"current_range_meters":8400,"station_id":"ce4bh4p2rcd13ifvqe1g","pricing_plan_id":"cebpf4jnsgd1na2vs0mg"},{"bike_id":"74d695f0-f392-4eef-b9a3-5fdaac1eb388","system_id":"levelo_inurba_marseille","lat":43.31882,"lon":5.40739,"is_reserved":false,"is_disabled":false,"rental_uris":{"android":"levelo://app?vid=74d695f0-f392-4eef-b9a3-5fdaac1eb388","ios":"levelo://app?vid=74d695f0-f392-4eef-b9a3-5fdaac1eb388"},"vehicle_type_id":"4","last_reported":1760602528,"current_range_meters":8400,"station_id":"ce4bhq12rcd13ifvqhig","pricing_plan_id":"cebpf4jnsgd1na2vs0mg"},{"bike_id":"56e8f168-0239-4dab-a231-9caf80fb776c","system_id":"levelo_inurba_marseille","lat":43.292676,"lon":5.376168,"is_reserved":false,"is_disabled":false,"rental_uris":{"android":"levelo://app?vid=56e8f168-0239-4dab-a231-9caf80fb776c","ios":"levelo://app?vid=56e8f168-0239-4dab-a231-9caf80fb776c"},"vehicle_type_id":"4","last_reported":1760602528,"current_range_meters":8800,"station_id":"","pricing_plan_id":"cebpf4jnsgd1na2vs0mg"},{"bike_id":"f26d01ee-6f0e-415b-a813-f6851d8866dc","system_id":"levelo_inurba_marseille","lat":43.301213,"lon":5.398596,"is_reserved":false,"is_disabled":false,"rental_uris":{"android":"levelo://app?vid=f26d01ee-6f0e-415b-a813-f6851d8866dc","ios":"levelo://app?vid=f26d01ee-6f0e-415b-a813-f6851d8866dc"},"vehicle_type_id":"4","last_reported":1760602528,"current_range_meters":8800,"station_id":"","pricing_plan_id":"cebpf4jnsgd1na2vs0mg"},{"bike_id":"afd3a141-6f64-4928-ba91-fca21b7af038","system_id":"levelo_inurba_marseille","lat":43.29574,"lon":5.36399,"is_reserved":false,"is_disabled":false,"rental_uris":{"android":"levelo://app?vid=afd3a141-6f64-4928-ba91-fca21b7af038","ios":"levelo://app?vid=afd3a141-6f64-4928-ba91-fca21b7af038"},"vehicle_type_id":"4","last_reported":1760602528,"current_range_meters":8800,"station_id":"","pricing_plan_id":"cebpf4jnsgd1na2vs0mg"},{"bike_id":"b518401d-14f5-4c78-9e5c-f0f0c12d0c63","system_id":"levelo_inurba_marseille","lat":43.297096,"lon":5.376891,"is_reserved":false,"is_disabled":false,"rental_uris":{"android":"levelo://app?vid=b518401d-14f5-4c78-9e5c-f0f0c12d0c63","ios":"levelo://app?vid=b518401d-14f5-4c78-9e5c-f0f0c12d0c63"},"vehicle_type_id":"4","last_reported":1760602528,"current_range_meters":8800,"station_id":"ce4bgkh2rcd13ifvqbl0","pricing_plan_id":"cebpf4jnsgd1na2vs0mg"},{"bike_id":"79f1d456-1b44-46c3-9ddb-c2f9b5922fa6","system_id":"levelo_inurba_marseille","lat":43.2993,"lon":5.36551,"is_reserved":false,"is_disabled":false,"rental_uris":{"android":"levelo://app?vid=79f1d456-1b44-46c3-9ddb-c2f9b5922fa6","ios":"levelo://app?vid=79f1d456-1b44-46c3-9ddb-c2f9b5922fa6"},"vehicle_type_id":"4","last_reported":1760602528,"current_range_meters":8800,"station_id":"ce4bgm92rcd13ifvqbr0","pricing_plan_id":"cebpf4jnsgd1na2vs0mg"},{"bike_id":"a2216bdc-60c9-40f0-b243-99c6143fec79","system_id":"levelo_inurba_marseille","lat":43.26197,"lon":5.37931,"is_reserved":false,"is_disabled":false,"rental_uris":{"android":"levelo://app?vid=a2216bdc-60c9-40f0-b243-99c6143fec79","ios":"levelo://app?vid=a2216bdc-60c9-40f0-b243-99c6143fec79"},"vehicle_type_id":"4","last_reported":1760602528,"current_range_meters":8800,"station_id":"ce4bhjp2rcd13ifvqg90","pricing_plan_id":"cebpf4jnsgd1na2vs0mg"},{"bike_id":"fe11f225-9f83-4925-a52f-ae067bd83c88","system_id":"levelo_inurba_marseille","lat":43.27989,"lon":5.41658,"is_reserved":false,"is_disabled":false,"rental_uris":{"android":"levelo://app?vid=fe11f225-9f83-4925-a52f-ae067bd83c88","ios":"levelo://app?vid=fe11f225-9f83-4925-a52f-ae067bd83c88"},"vehicle_type_id":"4","last_reported":1760602528,"current_range_meters":8800,"station_id":"ce4bho12rcd13ifvqh1g","pricing_plan_id":"cebpf4jnsgd1na2vs0mg"},{"bike_id":"4d30771e-9482-47d7-89c8-c0acaf4c5eea","system_id":"levelo_inurba_marseille","lat":43.33606,"lon":5.41024,"is_reserved":false,"is_disabled":false,"rental_uris":{"android":"levelo://app?vid=4d30771e-9482-47d7-89c8-c0acaf4c5eea","ios":"levelo://app?vid=4d30771e-9482-47d7-89c8-c0acaf4c5eea"},"vehicle_type_id":"4","last_reported":1760602528,"current_range_meters":8800,"station_id":"ce4bhqh2rcd13ifvqhmg","pricing_plan_id":"cebpf4jnsgd1na2vs0mg"},{"bike_id":"b0e3fac0-2cba-43db-8a27-05393f9977ec","system_id":"levelo_inurba_marseille","lat":43.297242,"lon":5.373265,"is_reserved":false,"is_disabled":false,"rental_uris":{"android":"levelo://app?vid=b0e3fac0-2cba-43db-8a27-05393f9977ec","ios":"levelo://app?vid=b0e3fac0-2cba-43db-8a27-05393f9977ec"},"vehicle_type_id":"4","last_reported":1760602528,"current_range_meters":9200,"station_id":"","pricing_plan_id":"cebpf4jnsgd1na2vs0mg"},{"bike_id":"f0622547-115c-4aab-a330-c8c9f80dea9e","system_id":"levelo_inurba_marseille","lat":43.28074,"lon":5.35234,"is_reserved":false,"is_disabled":false,"rental_uris":{"android":"levelo://app?vid=f0622547-115c-4aab-a330-c8c9f80dea9e","ios":"levelo://app?vid=f0622547-115c-4aab-a330-c8c9f80dea9e"},"vehicle_type_id":"4","last_reported":1760602528,"current_range_meters":9200,"station_id":"","pricing_plan_id":"cebpf4jnsgd1na2vs0mg"},{"bike_id":"be6c66fe-c715-4d8d-8674-044da9ef5bc3","system_id":"levelo_inurba_marseille","lat":43.31243,"lon":5.36881,"is_reserved":false,"is_disabled":false,"rental_uris":{"android":"levelo://app?vid=be6c66fe-c715-4d8d-8674-044da9ef5bc3","ios":"levelo://app?vid=be6c66fe-c715-4d8d-8674-044da9ef5bc3"},"vehicle_type_id":"4","last_reported":1760602528,"current_range_meters":9200,"station_id":"ce4bgl92rcd13ifvqbq0","pricing_plan_id":"cebpf4jnsgd1na2vs0mg"},{"bike_id":"6d0cbaa7-ce68-440d-8265-54ba0eac65b9","system_id":"levelo_inurba_marseille","lat":43.31338,"lon":5.36732,"is_reserved":false,"is_disabled":false,"rental_uris":{"android":"levelo://app?vid=6d0cbaa7-ce68-440d-8265-54ba0eac65b9","ios":"levelo://app?vid=6d0cbaa7-ce68-440d-8265-54ba0eac65b9"},"vehicle_type_id":"4","last_reported":1760602528,"current_range_meters":9200,"station_id":"ce4bgr92rcd13ifvqc6g","pricing_plan_id":"cebpf4jnsgd1na2vs0mg"},{"bike_id":"75e91a31-a1d7-420d-aed9-2331f7a8f191","system_id":"levelo_inurba_marseille","lat":43.28713,"lon":5.37937,"is_reserved":false,"is_disabled":false,"rental_uris":{"android":"levelo://app?vid=75e91a31-a1d7-420d-aed9-2331f7a8f191","ios":"levelo://app?vid=75e91a31-a1d7-420d-aed9-2331f7a8f191"},"vehicle_type_id":"4","last_reported":1760602528,"current_range_meters":9200,"station_id":"ce4bh9p2rcd13ifvqec0","pricing_plan_id":"cebpf4jnsgd1na2vs0mg"},{"bike_id":"c5104aad-d988-4ab9-9a15-9d706b138fd1","system_id":"levelo_inurba_marseille","lat":43.241674,"lon":5.397173,"is_reserved":false,"is_disabled":false,"rental_uris":{"android":"levelo://app?vid=c5104aad-d988-4ab9-9a15-9d706b138fd1","ios":"levelo://app?vid=c5104aad-d988-4ab9-9a15-9d706b138fd1"},"vehicle_type_id":"4","last_reported":1760602528,"current_range_meters":9200,"station_id":"ce4bhn12rcd13ifvqgpg","pricing_plan_id":"cebpf4jnsgd1na2vs0mg"},{"bike_id":"ec4fb415-781f-4034-a538-677784e99659","system_id":"levelo_inurba_marseille","lat":43.240724,"lon":5.377456,"is_reserved":false,"is_disabled":false,"rental_uris":{"android":"levelo://app?vid=ec4fb415-781f-4034-a538-677784e99659","ios":"levelo://app?vid=ec4fb415-781f-4034-a538-677784e99659"},"vehicle_type_id":"4","last_reported":1760602528,"current_range_meters":9200,"station_id":"ce4bhnp2rcd13ifvqgvg","pricing_plan_id":"cebpf4jnsgd1na2vs0mg"},{"bike_id":"8436a874-ff8a-4b94-b322-77532a1c08ea","system_id":"levelo_inurba_marseille","lat":43.261107,"lon":5.416366,"is_reserved":false,"is_disabled":false,"rental_uris":{"android":"levelo://app?vid=8436a874-ff8a-4b94-b322-77532a1c08ea","ios":"levelo://app?vid=8436a874-ff8a-4b94-b322-77532a1c08ea"},"vehicle_type_id":"4","last_reported":1760602528,"current_range_meters":9600,"station_id":"","pricing_plan_id":"cebpf4jnsgd1na2vs0mg"},{"bike_id":"888532e3-8dff-4083-96c9-cb159c428b8b","system_id":"levelo_inurba_marseille","lat":43.29283,"lon":5.38025,"is_reserved":false,"is_disabled":false,"rental_uris":{"android":"levelo://app?vid=888532e3-8dff-4083-96c9-cb159c428b8b","ios":"levelo://app?vid=888532e3-8dff-4083-96c9-cb159c428b8b"},"vehicle_type_id":"4","last_reported":1760602528,"current_range_meters":9600,"station_id":"","pricing_plan_id":"cebpf4jnsgd1na2vs0mg"},{"bike_id":"010e390a-1e5d-4acc-8c6c-4165a4b42de1","system_id":"levelo_inurba_marseille","lat":43.29368,"lon":5.378377,"is_reserved":false,"is_disabled":false,"rental_uris":{"android":"levelo://app?vid=010e390a-1e5d-4acc-8c6c-4165a4b42de1","ios":"levelo://app?vid=010e390a-1e5d-4acc-8c6c-4165a4b42de1"},"vehicle_type_id":"4","last_reported":1760602528,"current_range_meters":9600,"station_id":"ce4bgjh2rcd13ifvqbf0","pricing_plan_id":"cebpf4jnsgd1na2vs0mg"},{"bike_id":"4fb75ee6-9393-4e44-8278-5e7488278e32","system_id":"levelo_inurba_marseille","lat":43.31357,"lon":5.36725,"is_reserved":false,"is_disabled":false,"rental_uris":{"android":"levelo://app?vid=4fb75ee6-9393-4e44-8278-5e7488278e32","ios":"levelo://app?vid=4fb75ee6-9393-4e44-8278-5e7488278e32"},"vehicle_type_id":"4","last_reported":1760602528,"current_range_meters":9600,"station_id":"ce4bgr92rcd13ifvqc6g","pricing_plan_id":"cebpf4jnsgd1na2vs0mg"},{"bike_id":"8b201c7f-350b-4b11-a189-db8bab3bb0b3","system_id":"levelo_inurba_marseille","lat":43.34126,"lon":5.40896,"is_reserved":false,"is_disabled":false,"rental_uris":{"android":"levelo://app?vid=8b201c7f-350b-4b11-a189-db8bab3bb0b3","ios":"levelo://app?vid=8b201c7f-350b-4b11-a189-db8bab3bb0b3"},"vehicle_type_id":"4","last_reported":1760602528,"current_range_meters":9600,"station_id":"ce4bhqh2rcd13ifvqhlg","pricing_plan_id":"cebpf4jnsgd1na2vs0mg"},{"bike_id":"06862740-f78a-4cd0-9f58-8ae222b43890","system_id":"levelo_inurba_marseille","lat":43.241591,"lon":5.364052,"is_reserved":false,"is_disabled":false,"rental_uris":{"android":"levelo://app?vid=06862740-f78a-4cd0-9f58-8ae222b43890","ios":"levelo://app?vid=06862740-f78a-4cd0-9f58-8ae222b43890"},"vehicle_type_id":"4","last_reported":1760602528,"current_range_meters":9600,"station_id":"cpo36qri1sfpv3e86is0","pricing_plan_id":"cebpf4jnsgd1na2vs0mg"},{"bike_id":"6d02532e-4cb4-4048-bfac-6338972aaf99","system_id":"levelo_inurba_marseille","lat":43.34303,"lon":5.3502,"is_reserved":false,"is_disabled":false,"rental_uris":{"android":"levelo://app?vid=6d02532e-4cb4-4048-bfac-6338972aaf99","ios":"levelo://app?vid=6d02532e-4cb4-4048-bfac-6338972aaf99"},"vehicle_type_id":"4","last_reported":1760602528,"current_range_meters":10000,"station_id":"","pricing_plan_id":"cebpf4jnsgd1na2vs0mg"},{"bike_id":"ccc61e7e-918b-4559-8256-03b675174c2d","system_id":"levelo_inurba_marseille","lat":43.24077,"lon":5.37753,"is_reserved":false,"is_disabled":false,"rental_uris":{"android":"levelo://app?vid=ccc61e7e-918b-4559-8256-03b675174c2d","ios":"levelo://app?vid=ccc61e7e-918b-4559-8256-03b675174c2d"},"vehicle_type_id":"4","last_reported":1760602528,"current_range_meters":10000,"station_id":"ce4bhnp2rcd13ifvqgvg","pricing_plan_id":"cebpf4jnsgd1na2vs0mg"},{"bike_id":"eff63beb-67c8-4150-9310-8213259ab4af","system_id":"levelo_inurba_marseille","lat":43.30542,"lon":5.36711,"is_reserved":false,"is_disabled":false,"rental_uris":{"android":"levelo://app?vid=eff63beb-67c8-4150-9310-8213259ab4af","ios":"levelo://app?vid=eff63beb-67c8-4150-9310-8213259ab4af"},"vehicle_type_id":"4","last_reported":1760602528,"current_range_meters":10800,"station_id":"ce4bgrp2rcd13ifvqc9g","pricing_plan_id":"cebpf4jnsgd1na2vs0mg"},{"bike_id":"6688320b-bde0-492b-8709-969ceca7d30a","system_id":"levelo_inurba_marseille","lat":43.291657,"lon":5.371546,"is_reserved":false,"is_disabled":false,"rental_uris":{"android":"levelo://app?vid=6688320b-bde0-492b-8709-969ceca7d30a","ios":"levelo://app?vid=6688320b-bde0-492b-8709-969ceca7d30a"},"vehicle_type_id":"4","last_reported":1760602528,"current_range_meters":10800,"station_id":"ce4bha92rcd13ifvqeh0","pricing_plan_id":"cebpf4jnsgd1na2vs0mg"},{"bike_id":"8df1a00b-9a9e-47ce-9336-dae6d9a45d11","system_id":"levelo_inurba_marseille","lat":43.24801,"lon":5.37477,"is_reserved":false,"is_disabled":false,"rental_uris":{"android":"levelo://app?vid=8df1a00b-9a9e-47ce-9336-dae6d9a45d11","ios":"levelo://app?vid=8df1a00b-9a9e-47ce-9336-dae6d9a45d11"},"vehicle_type_id":"4","last_reported":1760602528,"current_range_meters":10800,"station_id":"ce4bhgh2rcd13ifvqfb0","pricing_plan_id":"cebpf4jnsgd1na2vs0mg"},{"bike_id":"e892d517-9a78-4cba-a0ce-4839b25ed8f9","system_id":"levelo_inurba_marseille","lat":43.27209,"lon":5.39184,"is_reserved":false,"is_disabled":false,"rental_uris":{"android":"levelo://app?vid=e892d517-9a78-4cba-a0ce-4839b25ed8f9","ios":"levelo://app?vid=e892d517-9a78-4cba-a0ce-4839b25ed8f9"},"vehicle_type_id":"4","last_reported":1760602528,"current_range_meters":10800,"station_id":"ce4bhhp2rcd13ifvqfm0","pricing_plan_id":"cebpf4jnsgd1na2vs0mg"},{"bike_id":"818f59ad-2fca-4d71-b390-cd016749060e","system_id":"levelo_inurba_marseille","lat":43.24063,"lon":5.37764,"is_reserved":false,"is_disabled":false,"rental_uris":{"android":"levelo://app?vid=818f59ad-2fca-4d71-b390-cd016749060e","ios":"levelo://app?vid=818f59ad-2fca-4d71-b390-cd016749060e"},"vehicle_type_id":"4","last_reported":1760602528,"current_range_meters":10800,"station_id":"ce4bhnp2rcd13ifvqgvg","pricing_plan_id":"cebpf4jnsgd1na2vs0mg"},{"bike_id":"c7b72f18-789f-4aae-b4c4-dd159cab4056","system_id":"levelo_inurba_marseille","lat":43.22562,"lon":5.41627,"is_reserved":false,"is_disabled":false,"rental_uris":{"android":"levelo://app?vid=c7b72f18-789f-4aae-b4c4-dd159cab4056","ios":"levelo://app?vid=c7b72f18-789f-4aae-b4c4-dd159cab4056"},"vehicle_type_id":"4","last_reported":1760602528,"current_range_meters":10800,"station_id":"st_d2o4gvlbi1j2169b742g","pricing_plan_id":"cebpf4jnsgd1na2vs0mg"},{"bike_id":"a3cb4bd9-3634-4eb3-803c-69ae7465a7d5","system_id":"levelo_inurba_marseille","lat":43.30507,"lon":5.3825,"is_reserved":false,"is_disabled":false,"rental_uris":{"android":"levelo://app?vid=a3cb4bd9-3634-4eb3-803c-69ae7465a7d5","ios":"levelo://app?vid=a3cb4bd9-3634-4eb3-803c-69ae7465a7d5"},"vehicle_type_id":"4","last_reported":1760602528,"current_range_meters":11200,"station_id":"","pricing_plan_id":"cebpf4jnsgd1na2vs0mg"},{"bike_id":"7a63795d-d6ae-4db3-866d-c16b2af002f1","system_id":"levelo_inurba_marseille","lat":43.29914,"lon":5.37476,"is_reserved":false,"is_disabled":false,"rental_uris":{"android":"levelo://app?vid=7a63795d-d6ae-4db3-866d-c16b2af002f1","ios":"levelo://app?vid=7a63795d-d6ae-4db3-866d-c16b2af002f1"},"vehicle_type_id":"4","last_reported":1760602528,"current_range_meters":11200,"station_id":"ce4bgjh2rcd13ifvqbg0","pricing_plan_id":"cebpf4jnsgd1na2vs0mg"},{"bike_id":"5b18402f-0c12-4c7b-bdbc-bf1004f70657","system_id":"levelo_inurba_marseille","lat":43.30542,"lon":5.36534,"is_reserved":false,"is_disabled":false,"rental_uris":{"android":"levelo://app?vid=5b18402f-0c12-4c7b-bdbc-bf1004f70657","ios":"levelo://app?vid=5b18402f-0c12-4c7b-bdbc-bf1004f70657"},"vehicle_type_id":"4","last_reported":1760602528,"current_range_meters":11200,"station_id":"ce4bgs12rcd13ifvqcag","pricing_plan_id":"cebpf4jnsgd1na2vs0mg"},{"bike_id":"39042eec-42c8-4369-b00e-be2cb8bf461b","system_id":"levelo_inurba_marseille","lat":43.30424,"lon":5.39741,"is_reserved":false,"is_disabled":false,"rental_uris":{"android":"levelo://app?vid=39042eec-42c8-4369-b00e-be2cb8bf461b","ios":"levelo://app?vid=39042eec-42c8-4369-b00e-be2cb8bf461b"},"vehicle_type_id":"4","last_reported":1760602528,"current_range_meters":11200,"station_id":"ce4bh092rcd13ifvqd20","pricing_plan_id":"cebpf4jnsgd1na2vs0mg"},{"bike_id":"2133d1a6-102f-478e-8fe7-f1b611edfd5c","system_id":"levelo_inurba_marseille","lat":43.26677,"lon":5.38266,"is_reserved":false,"is_disabled":false,"rental_uris":{"android":"levelo://app?vid=2133d1a6-102f-478e-8fe7-f1b611edfd5c","ios":"levelo://app?vid=2133d1a6-102f-478e-8fe7-f1b611edfd5c"},"vehicle_type_id":"4","last_reported":1760602528,"current_range_meters":11200,"station_id":"ce4bhg92rcd13ifvqf90","pricing_plan_id":"cebpf4jnsgd1na2vs0mg"},{"bike_id":"13821bae-7fa7-47a9-8673-75cdb308af3a","system_id":"levelo_inurba_marseille","lat":43.32549,"lon":5.41433,"is_reserved":false,"is_disabled":false,"rental_uris":{"android":"levelo://app?vid=13821bae-7fa7-47a9-8673-75cdb308af3a","ios":"levelo://app?vid=13821bae-7fa7-47a9-8673-75cdb308af3a"},"vehicle_type_id":"4","last_reported":1760602528,"current_range_meters":11200,"station_id":"ce4bhq12rcd13ifvqhhg","pricing_plan_id":"cebpf4jnsgd1na2vs0mg"},{"bike_id":"10b9399d-66f1-4536-b25f-4c33f24aaf44","system_id":"levelo_inurba_marseille","lat":43.32102,"lon":5.367858,"is_reserved":false,"is_disabled":false,"rental_uris":{"android":"levelo://app?vid=10b9399d-66f1-4536-b25f-4c33f24aaf44","ios":"levelo://app?vid=10b9399d-66f1-4536-b25f-4c33f24aaf44"},"vehicle_type_id":"4","last_reported":1760602528,"current_range_meters":11200,"station_id":"ce4bhrh2rcd13ifvqhug","pricing_plan_id":"cebpf4jnsgd1na2vs0mg"},{"bike_id":"39360dea-0fa4-4b0f-a3a7-7d9406dc4bf5","system_id":"levelo_inurba_marseille","lat":43.32351,"lon":5.3674,"is_reserved":false,"is_disabled":false,"rental_uris":{"android":"levelo://app?vid=39360dea-0fa4-4b0f-a3a7-7d9406dc4bf5","ios":"levelo://app?vid=39360dea-0fa4-4b0f-a3a7-7d9406dc4bf5"},"vehicle_type_id":"4","last_reported":1760602528,"current_range_meters":11200,"station_id":"ce4bhsh2rcd13ifvqi2g","pricing_plan_id":"cebpf4jnsgd1na2vs0mg"},{"bike_id":"d36aad05-df41-4fbc-959a-1a460a05a767","system_id":"levelo_inurba_marseille","lat":43.2549,"lon":5.37652,"is_reserved":false,"is_disabled":false,"rental_uris":{"android":"levelo://app?vid=d36aad05-df41-4fbc-959a-1a460a05a767","ios":"levelo://app?vid=d36aad05-df41-4fbc-959a-1a460a05a767"},"vehicle_type_id":"4","last_reported":1760602528,"current_range_meters":11600,"station_id":"","pricing_plan_id":"cebpf4jnsgd1na2vs0mg"},{"bike_id":"a0dc9ecb-01f6-46da-a6eb-0e309f7c0c88","system_id":"levelo_inurba_marseille","lat":43.29554,"lon":5.42291,"is_reserved":false,"is_disabled":false,"rental_uris":{"android":"levelo://app?vid=a0dc9ecb-01f6-46da-a6eb-0e309f7c0c88","ios":"levelo://app?vid=a0dc9ecb-01f6-46da-a6eb-0e309f7c0c88"},"vehicle_type_id":"4","last_reported":1760602528,"current_range_meters":11600,"station_id":"ce4bhph2rcd13ifvqhdg","pricing_plan_id":"cebpf4jnsgd1na2vs0mg"},{"bike_id":"9401f0ca-6f34-492c-8b1c-3cf4c999483e","system_id":"levelo_inurba_marseille","lat":43.32285,"lon":5.38274,"is_reserved":false,"is_disabled":false,"rental_uris":{"android":"levelo://app?vid=9401f0ca-6f34-492c-8b1c-3cf4c999483e","ios":"levelo://app?vid=9401f0ca-6f34-492c-8b1c-3cf4c999483e"},"vehicle_type_id":"4","last_reported":1760602528,"current_range_meters":11600,"station_id":"ce4bhr12rcd13ifvqhqg","pricing_plan_id":"cebpf4jnsgd1na2vs0mg"},{"bike_id":"9ed496f8-b157-4138-8c87-2906cda03afd","system_id":"levelo_inurba_marseille","lat":43.32357,"lon":5.36738,"is_reserved":false,"is_disabled":false,"rental_uris":{"android":"levelo://app?vid=9ed496f8-b157-4138-8c87-2906cda03afd","ios":"levelo://app?vid=9ed496f8-b157-4138-8c87-2906cda03afd"},"vehicle_type_id":"4","last_reported":1760602528,"current_range_meters":11600,"station_id":"ce4bhsh2rcd13ifvqi2g","pricing_plan_id":"cebpf4jnsgd1na2vs0mg"},{"bike_id":"69498116-c619-4c18-bdcc-044f697eb141","system_id":"levelo_inurba_marseille","lat":43.288836,"lon":5.38212,"is_reserved":false,"is_disabled":false,"rental_uris":{"android":"levelo://app?vid=69498116-c619-4c18-bdcc-044f697eb141","ios":"levelo://app?vid=69498116-c619-4c18-bdcc-044f697eb141"},"vehicle_type_id":"4","last_reported":1760602528,"current_range_meters":12000,"station_id":"","pricing_plan_id":"cebpf4jnsgd1na2vs0mg"},{"bike_id":"ba6f1b47-ec52-42e1-a787-0d97d6319baa","system_id":"levelo_inurba_marseille","lat":43.30299,"lon":5.36878,"is_reserved":false,"is_disabled":false,"rental_uris":{"android":"levelo://app?vid=ba6f1b47-ec52-42e1-a787-0d97d6319baa","ios":"levelo://app?vid=ba6f1b47-ec52-42e1-a787-0d97d6319baa"},"vehicle_type_id":"4","last_reported":1760602528,"current_range_meters":12000,"station_id":"ce4bgqh2rcd13ifvqc5g","pricing_plan_id":"cebpf4jnsgd1na2vs0mg"},{"bike_id":"c1c0e50b-f65d-46a7-b426-9cd4af393104","system_id":"levelo_inurba_marseille","lat":43.30546,"lon":5.365637,"is_reserved":false,"is_disabled":false,"rental_uris":{"android":"levelo://app?vid=c1c0e50b-f65d-46a7-b426-9cd4af393104","ios":"levelo://app?vid=c1c0e50b-f65d-46a7-b426-9cd4af393104"},"vehicle_type_id":"4","last_reported":1760602528,"current_range_meters":12000,"station_id":"ce4bgs12rcd13ifvqcag","pricing_plan_id":"cebpf4jnsgd1na2vs0mg"},{"bike_id":"cd8f6651-499b-4f36-95da-6c2071c98113","system_id":"levelo_inurba_marseille","lat":43.24077,"lon":5.37753,"is_reserved":false,"is_disabled":false,"rental_uris":{"android":"levelo://app?vid=cd8f6651-499b-4f36-95da-6c2071c98113","ios":"levelo://app?vid=cd8f6651-499b-4f36-95da-6c2071c98113"},"vehicle_type_id":"4","last_reported":1760602528,"current_range_meters":12000,"station_id":"ce4bhnp2rcd13ifvqgvg","pricing_plan_id":"cebpf4jnsgd1na2vs0mg"},{"bike_id":"c43c5736-7715-4776-9f25-180a73c21d32","system_id":"levelo_inurba_marseille","lat":43.32117,"lon":5.36799,"is_reserved":false,"is_disabled":false,"rental_uris":{"android":"levelo://app?vid=c43c5736-7715-4776-9f25-180a73c21d32","ios":"levelo://app?vid=c43c5736-7715-4776-9f25-180a73c21d32"},"vehicle_type_id":"4","last_reported":1760602528,"current_range_meters":12000,"station_id":"ce4bhrh2rcd13ifvqhug","pricing_plan_id":"cebpf4jnsgd1na2vs0mg"},{"bike_id":"c871ca87-9ea0-4c82-8f96-1d74fe568265","system_id":"levelo_inurba_marseille","lat":43.28566,"lon":5.41476,"is_reserved":false,"is_disabled":false,"rental_uris":{"android":"levelo://app?vid=c871ca87-9ea0-4c82-8f96-1d74fe568265","ios":"levelo://app?vid=c871ca87-9ea0-4c82-8f96-1d74fe568265"},"vehicle_type_id":"4","last_reported":1760602528,"current_range_meters":12400,"station_id":"","pricing_plan_id":"cebpf4jnsgd1na2vs0mg"},{"bike_id":"42a33f35-f175-4754-bcb1-82390c83f287","system_id":"levelo_inurba_marseille","lat":43.27966,"lon":5.38738,"is_reserved":false,"is_disabled":false,"rental_uris":{"android":"levelo://app?vid=42a33f35-f175-4754-bcb1-82390c83f287","ios":"levelo://app?vid=42a33f35-f175-4754-bcb1-82390c83f287"},"vehicle_type_id":"4","last_reported":1760602528,"current_range_meters":12400,"station_id":"ce4bhg12rcd13ifvqf80","pricing_plan_id":"cebpf4jnsgd1na2vs0mg"},{"bike_id":"dea435d8-2b16-46b3-bfa3-02385420bdb9","system_id":"levelo_inurba_marseille","lat":43.31705,"lon":5.43712,"is_reserved":false,"is_disabled":false,"rental_uris":{"android":"levelo://app?vid=dea435d8-2b16-46b3-bfa3-02385420bdb9","ios":"levelo://app?vid=dea435d8-2b16-46b3-bfa3-02385420bdb9"},"vehicle_type_id":"4","last_reported":1760602528,"current_range_meters":12400,"station_id":"ce4bhp92rcd13ifvqhcg","pricing_plan_id":"cebpf4jnsgd1na2vs0mg"},{"bike_id":"baccb37c-42e4-499a-b3b9-0a40e0da0c3e","system_id":"levelo_inurba_marseille","lat":43.241656,"lon":5.363975,"is_reserved":false,"is_disabled":false,"rental_uris":{"android":"levelo://app?vid=baccb37c-42e4-499a-b3b9-0a40e0da0c3e","ios":"levelo://app?vid=baccb37c-42e4-499a-b3b9-0a40e0da0c3e"},"vehicle_type_id":"4","last_reported":1760602528,"current_range_meters":12400,"station_id":"cpo36qri1sfpv3e86is0","pricing_plan_id":"cebpf4jnsgd1na2vs0mg"},{"bike_id":"ca1d1e8f-040d-42c7-83c9-ed9fe8fe65f2","system_id":"levelo_inurba_marseille","lat":43.26557,"lon":5.37284,"is_reserved":false,"is_disabled":false,"rental_uris":{"android":"levelo://app?vid=ca1d1e8f-040d-42c7-83c9-ed9fe8fe65f2","ios":"levelo://app?vid=ca1d1e8f-040d-42c7-83c9-ed9fe8fe65f2"},"vehicle_type_id":"4","last_reported":1760602528,"current_range_meters":12800,"station_id":"ce4bhg12rcd13ifvqf70","pricing_plan_id":"cebpf4jnsgd1na2vs0mg"},{"bike_id":"c770fdeb-53d1-4e91-a3e6-ecaeae0ef7ea","system_id":"levelo_inurba_marseille","lat":43.25496,"lon":5.37651,"is_reserved":false,"is_disabled":false,"rental_uris":{"android":"levelo://app?vid=c770fdeb-53d1-4e91-a3e6-ecaeae0ef7ea","ios":"levelo://app?vid=c770fdeb-53d1-4e91-a3e6-ecaeae0ef7ea"},"vehicle_type_id":"4","last_reported":1760602528,"current_range_meters":12800,"station_id":"ce4bhh12rcd13ifvqff0","pricing_plan_id":"cebpf4jnsgd1na2vs0mg"},{"bike_id":"32c184f8-ece0-4bc2-aeb6-005257a2ab7c","system_id":"levelo_inurba_marseille","lat":43.26944,"lon":5.386324,"is_reserved":false,"is_disabled":false,"rental_uris":{"android":"levelo://app?vid=32c184f8-ece0-4bc2-aeb6-005257a2ab7c","ios":"levelo://app?vid=32c184f8-ece0-4bc2-aeb6-005257a2ab7c"},"vehicle_type_id":"4","last_reported":1760602528,"current_range_meters":12800,"station_id":"ce4bhh92rcd13ifvqfh0","pricing_plan_id":"cebpf4jnsgd1na2vs0mg"},{"bike_id":"6ad55051-fa95-4f44-9f1b-58f6f1863f9e","system_id":"levelo_inurba_marseille","lat":43.32484,"lon":5.36559,"is_reserved":false,"is_disabled":false,"rental_uris":{"android":"levelo://app?vid=6ad55051-fa95-4f44-9f1b-58f6f1863f9e","ios":"levelo://app?vid=6ad55051-fa95-4f44-9f1b-58f6f1863f9e"},"vehicle_type_id":"4","last_reported":1760602528,"current_range_meters":12800,"station_id":"ce4bhs12rcd13ifvqhvg","pricing_plan_id":"cebpf4jnsgd1na2vs0mg"},{"bike_id":"8a79a6a3-168d-4097-9128-70b470c3fe43","system_id":"levelo_inurba_marseille","lat":43.3139,"lon":5.36681,"is_reserved":false,"is_disabled":false,"rental_uris":{"android":"levelo://app?vid=8a79a6a3-168d-4097-9128-70b470c3fe43","ios":"levelo://app?vid=8a79a6a3-168d-4097-9128-70b470c3fe43"},"vehicle_type_id":"4","last_reported":1760602528,"current_range_meters":13600,"station_id":"","pricing_plan_id":"cebpf4jnsgd1na2vs0mg"},{"bike_id":"85edce40-0779-4d03-9fdd-b91af036aadf","system_id":"levelo_inurba_marseille","lat":43.294531,"lon":5.381388,"is_reserved":false,"is_disabled":false,"rental_uris":{"android":"levelo://app?vid=85edce40-0779-4d03-9fdd-b91af036aadf","ios":"levelo://app?vid=85edce40-0779-4d03-9fdd-b91af036aadf"},"vehicle_type_id":"4","last_reported":1760602528,"current_range_meters":13600,"station_id":"","pricing_plan_id":"cebpf4jnsgd1na2vs0mg"},{"bike_id":"d9225e5f-d0b3-4a23-aab7-73396a176fe7","system_id":"levelo_inurba_marseille","lat":43.265438,"lon":5.39013,"is_reserved":false,"is_disabled":false,"rental_uris":{"android":"levelo://app?vid=d9225e5f-d0b3-4a23-aab7-73396a176fe7","ios":"levelo://app?vid=d9225e5f-d0b3-4a23-aab7-73396a176fe7"},"vehicle_type_id":"4","last_reported":1760602528,"current_range_meters":13600,"station_id":"ce4bhe12rcd13ifvqf30","pricing_plan_id":"cebpf4jnsgd1na2vs0mg"},{"bike_id":"a85975f9-49ce-45b1-8bc2-627d0d782c7c","system_id":"levelo_inurba_marseille","lat":43.250084,"lon":5.389266,"is_reserved":false,"is_disabled":false,"rental_uris":{"android":"levelo://app?vid=a85975f9-49ce-45b1-8bc2-627d0d782c7c","ios":"levelo://app?vid=a85975f9-49ce-45b1-8bc2-627d0d782c7c"},"vehicle_type_id":"4","last_reported":1760602528,"current_range_meters":13600,"station_id":"ce4bhgp2rcd13ifvqfd0","pricing_plan_id":"cebpf4jnsgd1na2vs0mg"},{"bike_id":"f6741c9c-9991-44e9-9fee-3bb56a4d0ee1","system_id":"levelo_inurba_marseille","lat":43.285379,"lon":5.441216,"is_reserved":false,"is_disabled":false,"rental_uris":{"android":"levelo://app?vid=f6741c9c-9991-44e9-9fee-3bb56a4d0ee1","ios":"levelo://app?vid=f6741c9c-9991-44e9-9fee-3bb56a4d0ee1"},"vehicle_type_id":"4","last_reported":1760602528,"current_range_meters":13600,"station_id":"st_d3j3df2ikq2c7380ej80","pricing_plan_id":"cebpf4jnsgd1na2vs0mg"},{"bike_id":"20bd5b3f-94a5-49c2-9117-0a5c47535f8a","system_id":"levelo_inurba_marseille","lat":43.30145,"lon":5.37423,"is_reserved":false,"is_disabled":false,"rental_uris":{"android":"levelo://app?vid=20bd5b3f-94a5-49c2-9117-0a5c47535f8a","ios":"levelo://app?vid=20bd5b3f-94a5-49c2-9117-0a5c47535f8a"},"vehicle_type_id":"4","last_reported":1760602528,"current_range_meters":14000,"station_id":"ce4bgs92rcd13ifvqcc0","pricing_plan_id":"cebpf4jnsgd1na2vs0mg"},{"bike_id":"5ac42d56-5c84-462a-9ae4-ae01512446c6","system_id":"levelo_inurba_marseille","lat":43.32346,"lon":5.40975,"is_reserved":false,"is_disabled":false,"rental_uris":{"android":"levelo://app?vid=5ac42d56-5c84-462a-9ae4-ae01512446c6","ios":"levelo://app?vid=5ac42d56-5c84-462a-9ae4-ae01512446c6"},"vehicle_type_id":"4","last_reported":1760602528,"current_range_meters":14000,"station_id":"ce4bgup2rcd13ifvqco0","pricing_plan_id":"cebpf4jnsgd1na2vs0mg"},{"bike_id":"91ea4082-bdae-48f5-8f11-d3cd7c63c118","system_id":"levelo_inurba_marseille","lat":43.29002,"lon":5.35616,"is_reserved":false,"is_disabled":false,"rental_uris":{"android":"levelo://app?vid=91ea4082-bdae-48f5-8f11-d3cd7c63c118","ios":"levelo://app?vid=91ea4082-bdae-48f5-8f11-d3cd7c63c118"},"vehicle_type_id":"4","last_reported":1760602528,"current_range_meters":14000,"station_id":"ce4bhb92rcd13ifvqen0","pricing_plan_id":"cebpf4jnsgd1na2vs0mg"},{"bike_id":"c5527736-003d-471c-b87f-c49bf05eed69","system_id":"levelo_inurba_marseille","lat":43.26553,"lon":5.37282,"is_reserved":false,"is_disabled":false,"rental_uris":{"android":"levelo://app?vid=c5527736-003d-471c-b87f-c49bf05eed69","ios":"levelo://app?vid=c5527736-003d-471c-b87f-c49bf05eed69"},"vehicle_type_id":"4","last_reported":1760602528,"current_range_meters":14000,"station_id":"ce4bhg12rcd13ifvqf70","pricing_plan_id":"cebpf4jnsgd1na2vs0mg"},{"bike_id":"c7de96ac-5658-4b00-b02a-354671d9d898","system_id":"levelo_inurba_marseille","lat":43.29882,"lon":5.4364,"is_reserved":false,"is_disabled":false,"rental_uris":{"android":"levelo://app?vid=c7de96ac-5658-4b00-b02a-354671d9d898","ios":"levelo://app?vid=c7de96ac-5658-4b00-b02a-354671d9d898"},"vehicle_type_id":"4","last_reported":1760602528,"current_range_meters":14000,"station_id":"ce4bhpp2rcd13ifvqhfg","pricing_plan_id":"cebpf4jnsgd1na2vs0mg"},{"bike_id":"68883d99-7f94-4425-81c5-f981ad5dfd2d","system_id":"levelo_inurba_marseille","lat":43.27936,"lon":5.39575,"is_reserved":false,"is_disabled":false,"rental_uris":{"android":"levelo://app?vid=68883d99-7f94-4425-81c5-f981ad5dfd2d","ios":"levelo://app?vid=68883d99-7f94-4425-81c5-f981ad5dfd2d"},"vehicle_type_id":"4","last_reported":1760602528,"current_range_meters":14400,"station_id":"","pricing_plan_id":"cebpf4jnsgd1na2vs0mg"},{"bike_id":"d68b41be-366f-40d7-a414-434cfe0517a5","system_id":"levelo_inurba_marseille","lat":43.31762,"lon":5.42239,"is_reserved":false,"is_disabled":false,"rental_uris":{"android":"levelo://app?vid=d68b41be-366f-40d7-a414-434cfe0517a5","ios":"levelo://app?vid=d68b41be-366f-40d7-a414-434cfe0517a5"},"vehicle_type_id":"4","last_reported":1760602528,"current_range_meters":14400,"station_id":"","pricing_plan_id":"cebpf4jnsgd1na2vs0mg"},{"bike_id":"f846f329-5896-44d6-83fe-c8b97f1e4c27","system_id":"levelo_inurba_marseille","lat":43.32969,"lon":5.39115,"is_reserved":false,"is_disabled":false,"rental_uris":{"android":"levelo://app?vid=f846f329-5896-44d6-83fe-c8b97f1e4c27","ios":"levelo://app?vid=f846f329-5896-44d6-83fe-c8b97f1e4c27"},"vehicle_type_id":"4","last_reported":1760602528,"current_range_meters":14400,"station_id":"","pricing_plan_id":"cebpf4jnsgd1na2vs0mg"},{"bike_id":"21c3a9fe-adfc-4375-8283-33ee1b7e74f0","system_id":"levelo_inurba_marseille","lat":43.31331,"lon":5.36756,"is_reserved":false,"is_disabled":false,"rental_uris":{"android":"levelo://app?vid=21c3a9fe-adfc-4375-8283-33ee1b7e74f0","ios":"levelo://app?vid=21c3a9fe-adfc-4375-8283-33ee1b7e74f0"},"vehicle_type_id":"4","last_reported":1760602528,"current_range_meters":14400,"station_id":"ce4bgr92rcd13ifvqc6g","pricing_plan_id":"cebpf4jnsgd1na2vs0mg"},{"bike_id":"e9f5cf93-be71-4bc8-9e82-947756c4decc","system_id":"levelo_inurba_marseille","lat":43.2667,"lon":5.38267,"is_reserved":false,"is_disabled":false,"rental_uris":{"android":"levelo://app?vid=e9f5cf93-be71-4bc8-9e82-947756c4decc","ios":"levelo://app?vid=e9f5cf93-be71-4bc8-9e82-947756c4decc"},"vehicle_type_id":"4","last_reported":1760602528,"current_range_meters":14400,"station_id":"ce4bhg92rcd13ifvqf90","pricing_plan_id":"cebpf4jnsgd1na2vs0mg"},{"bike_id":"891b72c5-9fa0-4786-a84f-49af752153e7","system_id":"levelo_inurba_marseille","lat":43.2396,"lon":5.36629,"is_reserved":false,"is_disabled":false,"rental_uris":{"android":"levelo://app?vid=891b72c5-9fa0-4786-a84f-49af752153e7","ios":"levelo://app?vid=891b72c5-9fa0-4786-a84f-49af752153e7"},"vehicle_type_id":"4","last_reported":1760602528,"current_range_meters":14400,"station_id":"ce4bhi12rcd13ifvqfp0","pricing_plan_id":"cebpf4jnsgd1na2vs0mg"},{"bike_id":"d5f0350e-9058-44b1-88d4-c1916365e1fc","system_id":"levelo_inurba_marseille","lat":43.23186,"lon":5.39975,"is_reserved":false,"is_disabled":false,"rental_uris":{"android":"levelo://app?vid=d5f0350e-9058-44b1-88d4-c1916365e1fc","ios":"levelo://app?vid=d5f0350e-9058-44b1-88d4-c1916365e1fc"},"vehicle_type_id":"4","last_reported":1760602528,"current_range_meters":14400,"station_id":"ce4bhn12rcd13ifvqgqg","pricing_plan_id":"cebpf4jnsgd1na2vs0mg"},{"bike_id":"bc71feef-2554-47a6-9fd6-282c5776bacc","system_id":"levelo_inurba_marseille","lat":43.24058,"lon":5.37776,"is_reserved":false,"is_disabled":false,"rental_uris":{"android":"levelo://app?vid=bc71feef-2554-47a6-9fd6-282c5776bacc","ios":"levelo://app?vid=bc71feef-2554-47a6-9fd6-282c5776bacc"},"vehicle_type_id":"4","last_reported":1760602528,"current_range_meters":14400,"station_id":"ce4bhnp2rcd13ifvqgvg","pricing_plan_id":"cebpf4jnsgd1na2vs0mg"},{"bike_id":"749d8efb-a568-45ea-82d3-794871251568","system_id":"levelo_inurba_marseille","lat":43.34156,"lon":5.40902,"is_reserved":false,"is_disabled":false,"rental_uris":{"android":"levelo://app?vid=749d8efb-a568-45ea-82d3-794871251568","ios":"levelo://app?vid=749d8efb-a568-45ea-82d3-794871251568"},"vehicle_type_id":"4","last_reported":1760602528,"current_range_meters":14400,"station_id":"ce4bhqh2rcd13ifvqhlg","pricing_plan_id":"cebpf4jnsgd1na2vs0mg"},{"bike_id":"f0367073-c1d4-456f-99cc-f7fa281d4c2a","system_id":"levelo_inurba_marseille","lat":43.33605,"lon":5.41031,"is_reserved":false,"is_disabled":false,"rental_uris":{"android":"levelo://app?vid=f0367073-c1d4-456f-99cc-f7fa281d4c2a","ios":"levelo://app?vid=f0367073-c1d4-456f-99cc-f7fa281d4c2a"},"vehicle_type_id":"4","last_reported":1760602528,"current_range_meters":14400,"station_id":"ce4bhqh2rcd13ifvqhmg","pricing_plan_id":"cebpf4jnsgd1na2vs0mg"},{"bike_id":"6918a742-e604-4ec9-b942-8bff044a719e","system_id":"levelo_inurba_marseille","lat":43.32344,"lon":5.36753,"is_reserved":false,"is_disabled":false,"rental_uris":{"android":"levelo://app?vid=6918a742-e604-4ec9-b942-8bff044a719e","ios":"levelo://app?vid=6918a742-e604-4ec9-b942-8bff044a719e"},"vehicle_type_id":"4","last_reported":1760602528,"current_range_meters":14400,"station_id":"ce4bhsh2rcd13ifvqi2g","pricing_plan_id":"cebpf4jnsgd1na2vs0mg"},{"bike_id":"e257a5c9-b99e-4af1-ac4f-b017f1c8b418","system_id":"levelo_inurba_marseille","lat":43.33759,"lon":5.37438,"is_reserved":false,"is_disabled":false,"rental_uris":{"android":"levelo://app?vid=e257a5c9-b99e-4af1-ac4f-b017f1c8b418","ios":"levelo://app?vid=e257a5c9-b99e-4af1-ac4f-b017f1c8b418"},"vehicle_type_id":"4","last_reported":1760602528,"current_range_meters":14800,"station_id":"","pricing_plan_id":"cebpf4jnsgd1na2vs0mg"},{"bike_id":"4891eedb-f977-4c04-91df-3fd6d68f9c5f","system_id":"levelo_inurba_marseille","lat":43.309074,"lon":5.368474,"is_reserved":false,"is_disabled":false,"rental_uris":{"android":"levelo://app?vid=4891eedb-f977-4c04-91df-3fd6d68f9c5f","ios":"levelo://app?vid=4891eedb-f977-4c04-91df-3fd6d68f9c5f"},"vehicle_type_id":"4","last_reported":1760602528,"current_range_meters":14800,"station_id":"ce4bgn92rcd13ifvqbvg","pricing_plan_id":"cebpf4jnsgd1na2vs0mg"},{"bike_id":"7607907f-3ffc-4685-aab4-77663f2d85cb","system_id":"levelo_inurba_marseille","lat":43.30906,"lon":5.36828,"is_reserved":false,"is_disabled":false,"rental_uris":{"android":"levelo://app?vid=7607907f-3ffc-4685-aab4-77663f2d85cb","ios":"levelo://app?vid=7607907f-3ffc-4685-aab4-77663f2d85cb"},"vehicle_type_id":"4","last_reported":1760602528,"current_range_meters":14800,"station_id":"ce4bgn92rcd13ifvqbvg","pricing_plan_id":"cebpf4jnsgd1na2vs0mg"},{"bike_id":"7ef24fa0-1894-4de5-b44a-7b66743e1eda","system_id":"levelo_inurba_marseille","lat":43.25927,"lon":5.4089,"is_reserved":false,"is_disabled":false,"rental_uris":{"android":"levelo://app?vid=7ef24fa0-1894-4de5-b44a-7b66743e1eda","ios":"levelo://app?vid=7ef24fa0-1894-4de5-b44a-7b66743e1eda"},"vehicle_type_id":"4","last_reported":1760602528,"current_range_meters":14800,"station_id":"ce4bhm92rcd13ifvqglg","pricing_plan_id":"cebpf4jnsgd1na2vs0mg"},{"bike_id":"6dadc5c6-61ac-48c9-b5e9-17768e7cd162","system_id":"levelo_inurba_marseille","lat":43.323514,"lon":5.367613,"is_reserved":false,"is_disabled":false,"rental_uris":{"android":"levelo://app?vid=6dadc5c6-61ac-48c9-b5e9-17768e7cd162","ios":"levelo://app?vid=6dadc5c6-61ac-48c9-b5e9-17768e7cd162"},"vehicle_type_id":"4","last_reported":1760602528,"current_range_meters":14800,"station_id":"ce4bhsh2rcd13ifvqi2g","pricing_plan_id":"cebpf4jnsgd1na2vs0mg"},{"bike_id":"2935fa5a-befe-4d3d-aa8a-64f80dc3a048","system_id":"levelo_inurba_marseille","lat":43.274527,"lon":5.407324,"is_reserved":false,"is_disabled":false,"rental_uris":{"android":"levelo://app?vid=2935fa5a-befe-4d3d-aa8a-64f80dc3a048","ios":"levelo://app?vid=2935fa5a-befe-4d3d-aa8a-64f80dc3a048"},"vehicle_type_id":"4","last_reported":1760602528,"current_range_meters":15200,"station_id":"","pricing_plan_id":"cebpf4jnsgd1na2vs0mg"},{"bike_id":"64b6e032-64b1-44f9-bf5b-5626b6800d05","system_id":"levelo_inurba_marseille","lat":43.23141,"lon":5.43756,"is_reserved":false,"is_disabled":false,"rental_uris":{"android":"levelo://app?vid=64b6e032-64b1-44f9-bf5b-5626b6800d05","ios":"levelo://app?vid=64b6e032-64b1-44f9-bf5b-5626b6800d05"},"vehicle_type_id":"4","last_reported":1760602528,"current_range_meters":15200,"station_id":"","pricing_plan_id":"cebpf4jnsgd1na2vs0mg"},{"bike_id":"44828835-2276-44f7-a486-2748b1c35ae9","system_id":"levelo_inurba_marseille","lat":43.25582,"lon":5.38233,"is_reserved":false,"is_disabled":false,"rental_uris":{"android":"levelo://app?vid=44828835-2276-44f7-a486-2748b1c35ae9","ios":"levelo://app?vid=44828835-2276-44f7-a486-2748b1c35ae9"},"vehicle_type_id":"4","last_reported":1760602528,"current_range_meters":15200,"station_id":"ce4bhih2rcd13ifvqfs0","pricing_plan_id":"cebpf4jnsgd1na2vs0mg"},{"bike_id":"c49d56b4-7fb0-40b0-9ddd-26687c012cad","system_id":"levelo_inurba_marseille","lat":43.241584,"lon":5.364184,"is_reserved":false,"is_disabled":false,"rental_uris":{"android":"levelo://app?vid=c49d56b4-7fb0-40b0-9ddd-26687c012cad","ios":"levelo://app?vid=c49d56b4-7fb0-40b0-9ddd-26687c012cad"},"vehicle_type_id":"4","last_reported":1760602528,"current_range_meters":15200,"station_id":"cpo36qri1sfpv3e86is0","pricing_plan_id":"cebpf4jnsgd1na2vs0mg"},{"bike_id":"2a5498ee-d604-476f-a7c3-7260eebaa7f3","system_id":"levelo_inurba_marseille","lat":43.29571,"lon":5.37426,"is_reserved":false,"is_disabled":false,"rental_uris":{"android":"levelo://app?vid=2a5498ee-d604-476f-a7c3-7260eebaa7f3","ios":"levelo://app?vid=2a5498ee-d604-476f-a7c3-7260eebaa7f3"},"vehicle_type_id":"4","last_reported":1760602528,"current_range_meters":16000,"station_id":"","pricing_plan_id":"cebpf4jnsgd1na2vs0mg"},{"bike_id":"d04a8279-bd2a-49fe-9acd-5f293d5135e1","system_id":"levelo_inurba_marseille","lat":43.30296,"lon":5.36923,"is_reserved":false,"is_disabled":false,"rental_uris":{"android":"levelo://app?vid=d04a8279-bd2a-49fe-9acd-5f293d5135e1","ios":"levelo://app?vid=d04a8279-bd2a-49fe-9acd-5f293d5135e1"},"vehicle_type_id":"4","last_reported":1760602528,"current_range_meters":16000,"station_id":"ce4bgqh2rcd13ifvqc5g","pricing_plan_id":"cebpf4jnsgd1na2vs0mg"},{"bike_id":"fc37aa56-10b6-4194-8937-b4ef43f7cd27","system_id":"levelo_inurba_marseille","lat":43.24801,"lon":5.37467,"is_reserved":false,"is_disabled":false,"rental_uris":{"android":"levelo://app?vid=fc37aa56-10b6-4194-8937-b4ef43f7cd27","ios":"levelo://app?vid=fc37aa56-10b6-4194-8937-b4ef43f7cd27"},"vehicle_type_id":"4","last_reported":1760602528,"current_range_meters":16000,"station_id":"ce4bhgh2rcd13ifvqfb0","pricing_plan_id":"cebpf4jnsgd1na2vs0mg"},{"bike_id":"fe8701c1-ef64-474e-ac4f-019af85d5c43","system_id":"levelo_inurba_marseille","lat":43.24075,"lon":5.37741,"is_reserved":false,"is_disabled":false,"rental_uris":{"android":"levelo://app?vid=fe8701c1-ef64-474e-ac4f-019af85d5c43","ios":"levelo://app?vid=fe8701c1-ef64-474e-ac4f-019af85d5c43"},"vehicle_type_id":"4","last_reported":1760602528,"current_range_meters":16000,"station_id":"ce4bhnp2rcd13ifvqgvg","pricing_plan_id":"cebpf4jnsgd1na2vs0mg"},{"bike_id":"8bf7353c-2f46-4205-8152-363735351897","system_id":"levelo_inurba_marseille","lat":43.3135,"lon":5.36639,"is_reserved":false,"is_disabled":false,"rental_uris":{"android":"levelo://app?vid=8bf7353c-2f46-4205-8152-363735351897","ios":"levelo://app?vid=8bf7353c-2f46-4205-8152-363735351897"},"vehicle_type_id":"4","last_reported":1760602528,"current_range_meters":16400,"station_id":"","pricing_plan_id":"cebpf4jnsgd1na2vs0mg"},{"bike_id":"24d82d64-1145-442f-a9f5-19238b0b39ef","system_id":"levelo_inurba_marseille","lat":43.272133,"lon":5.391866,"is_reserved":false,"is_disabled":false,"rental_uris":{"android":"levelo://app?vid=24d82d64-1145-442f-a9f5-19238b0b39ef","ios":"levelo://app?vid=24d82d64-1145-442f-a9f5-19238b0b39ef"},"vehicle_type_id":"4","last_reported":1760602528,"current_range_meters":16400,"station_id":"","pricing_plan_id":"cebpf4jnsgd1na2vs0mg"},{"bike_id":"44b6c243-d961-4fa2-a350-b5a19797250b","system_id":"levelo_inurba_marseille","lat":43.29284,"lon":5.37152,"is_reserved":false,"is_disabled":false,"rental_uris":{"android":"levelo://app?vid=44b6c243-d961-4fa2-a350-b5a19797250b","ios":"levelo://app?vid=44b6c243-d961-4fa2-a350-b5a19797250b"},"vehicle_type_id":"4","last_reported":1760602528,"current_range_meters":16400,"station_id":"ce4bgh92rcd13ifvqb40","pricing_plan_id":"cebpf4jnsgd1na2vs0mg"},{"bike_id":"5dd33ced-d6b9-4b2a-a636-4b126887eb49","system_id":"levelo_inurba_marseille","lat":43.312231,"lon":5.368617,"is_reserved":false,"is_disabled":false,"rental_uris":{"android":"levelo://app?vid=5dd33ced-d6b9-4b2a-a636-4b126887eb49","ios":"levelo://app?vid=5dd33ced-d6b9-4b2a-a636-4b126887eb49"},"vehicle_type_id":"4","last_reported":1760602528,"current_range_meters":16400,"station_id":"ce4bgl92rcd13ifvqbq0","pricing_plan_id":"cebpf4jnsgd1na2vs0mg"},{"bike_id":"497f26d6-474e-4866-89f9-43e23e4bc8da","system_id":"levelo_inurba_marseille","lat":43.25811,"lon":5.38142,"is_reserved":false,"is_disabled":false,"rental_uris":{"android":"levelo://app?vid=497f26d6-474e-4866-89f9-43e23e4bc8da","ios":"levelo://app?vid=497f26d6-474e-4866-89f9-43e23e4bc8da"},"vehicle_type_id":"4","last_reported":1760602528,"current_range_meters":16400,"station_id":"ce4bhih2rcd13ifvqfs0","pricing_plan_id":"cebpf4jnsgd1na2vs0mg"},{"bike_id":"c86a2a61-c698-4b0e-9c84-3647c6c1777b","system_id":"levelo_inurba_marseille","lat":43.24068,"lon":5.37767,"is_reserved":false,"is_disabled":false,"rental_uris":{"android":"levelo://app?vid=c86a2a61-c698-4b0e-9c84-3647c6c1777b","ios":"levelo://app?vid=c86a2a61-c698-4b0e-9c84-3647c6c1777b"},"vehicle_type_id":"4","last_reported":1760602528,"current_range_meters":16400,"station_id":"ce4bhnp2rcd13ifvqgvg","pricing_plan_id":"cebpf4jnsgd1na2vs0mg"},{"bike_id":"19c4b376-4a33-457b-806f-be31273b18b7","system_id":"levelo_inurba_marseille","lat":43.23192,"lon":5.35551,"is_reserved":false,"is_disabled":false,"rental_uris":{"android":"levelo://app?vid=19c4b376-4a33-457b-806f-be31273b18b7","ios":"levelo://app?vid=19c4b376-4a33-457b-806f-be31273b18b7"},"vehicle_type_id":"4","last_reported":1760602528,"current_range_meters":16400,"station_id":"ce4bhu92rcd13ifvqi70","pricing_plan_id":"cebpf4jnsgd1na2vs0mg"},{"bike_id":"2b807c77-ceba-4d12-b13e-a47dec63d2bf","system_id":"levelo_inurba_marseille","lat":43.29792,"lon":5.38098,"is_reserved":false,"is_disabled":false,"rental_uris":{"android":"levelo://app?vid=2b807c77-ceba-4d12-b13e-a47dec63d2bf","ios":"levelo://app?vid=2b807c77-ceba-4d12-b13e-a47dec63d2bf"},"vehicle_type_id":"4","last_reported":1760602528,"current_range_meters":16800,"station_id":"ce4bgip2rcd13ifvqbb0","pricing_plan_id":"cebpf4jnsgd1na2vs0mg"},{"bike_id":"bc797872-520f-46d4-880b-28b9556ebe3c","system_id":"levelo_inurba_marseille","lat":43.25495,"lon":5.37648,"is_reserved":false,"is_disabled":false,"rental_uris":{"android":"levelo://app?vid=bc797872-520f-46d4-880b-28b9556ebe3c","ios":"levelo://app?vid=bc797872-520f-46d4-880b-28b9556ebe3c"},"vehicle_type_id":"4","last_reported":1760602528,"current_range_meters":16800,"station_id":"ce4bhh12rcd13ifvqff0","pricing_plan_id":"cebpf4jnsgd1na2vs0mg"},{"bike_id":"7cc02410-c0e1-4b8b-921f-bd42aabdbf6d","system_id":"levelo_inurba_marseille","lat":43.30362,"lon":5.42498,"is_reserved":false,"is_disabled":false,"rental_uris":{"android":"levelo://app?vid=7cc02410-c0e1-4b8b-921f-bd42aabdbf6d","ios":"levelo://app?vid=7cc02410-c0e1-4b8b-921f-bd42aabdbf6d"},"vehicle_type_id":"4","last_reported":1760602528,"current_range_meters":16800,"station_id":"ce4bhoh2rcd13ifvqh6g","pricing_plan_id":"cebpf4jnsgd1na2vs0mg"},{"bike_id":"416f580b-31c7-4ade-8604-dbd86eb8155f","system_id":"levelo_inurba_marseille","lat":43.281629,"lon":5.421245,"is_reserved":false,"is_disabled":false,"rental_uris":{"android":"levelo://app?vid=416f580b-31c7-4ade-8604-dbd86eb8155f","ios":"levelo://app?vid=416f580b-31c7-4ade-8604-dbd86eb8155f"},"vehicle_type_id":"4","last_reported":1760602528,"current_range_meters":17200,"station_id":"","pricing_plan_id":"cebpf4jnsgd1na2vs0mg"},{"bike_id":"5fe6e873-dba1-40dd-bc65-77de126f2710","system_id":"levelo_inurba_marseille","lat":43.332893,"lon":5.395256,"is_reserved":false,"is_disabled":false,"rental_uris":{"android":"levelo://app?vid=5fe6e873-dba1-40dd-bc65-77de126f2710","ios":"levelo://app?vid=5fe6e873-dba1-40dd-bc65-77de126f2710"},"vehicle_type_id":"4","last_reported":1760602528,"current_range_meters":17200,"station_id":"","pricing_plan_id":"cebpf4jnsgd1na2vs0mg"},{"bike_id":"3460470d-7b2a-428d-b357-2346f2a689c6","system_id":"levelo_inurba_marseille","lat":43.30142,"lon":5.37415,"is_reserved":false,"is_disabled":false,"rental_uris":{"android":"levelo://app?vid=3460470d-7b2a-428d-b357-2346f2a689c6","ios":"levelo://app?vid=3460470d-7b2a-428d-b357-2346f2a689c6"},"vehicle_type_id":"4","last_reported":1760602528,"current_range_meters":17200,"station_id":"ce4bgs92rcd13ifvqcc0","pricing_plan_id":"cebpf4jnsgd1na2vs0mg"},{"bike_id":"e26e4b6e-6ade-42e4-8c3c-edbd043c2e3d","system_id":"levelo_inurba_marseille","lat":43.3028,"lon":5.37693,"is_reserved":false,"is_disabled":false,"rental_uris":{"android":"levelo://app?vid=e26e4b6e-6ade-42e4-8c3c-edbd043c2e3d","ios":"levelo://app?vid=e26e4b6e-6ade-42e4-8c3c-edbd043c2e3d"},"vehicle_type_id":"4","last_reported":1760602528,"current_range_meters":17200,"station_id":"ce4bguh2rcd13ifvqcj0","pricing_plan_id":"cebpf4jnsgd1na2vs0mg"},{"bike_id":"ec666fcf-19e4-4e4d-b022-11edb1133fda","system_id":"levelo_inurba_marseille","lat":43.30292,"lon":5.37759,"is_reserved":false,"is_disabled":false,"rental_uris":{"android":"levelo://app?vid=ec666fcf-19e4-4e4d-b022-11edb1133fda","ios":"levelo://app?vid=ec666fcf-19e4-4e4d-b022-11edb1133fda"},"vehicle_type_id":"4","last_reported":1760602528,"current_range_meters":17200,"station_id":"ce4bguh2rcd13ifvqcj0","pricing_plan_id":"cebpf4jnsgd1na2vs0mg"},{"bike_id":"b5f02c00-a5b4-4ed0-8372-430c4ec0a05f","system_id":"levelo_inurba_marseille","lat":43.28034,"lon":5.36957,"is_reserved":false,"is_disabled":false,"rental_uris":{"android":"levelo://app?vid=b5f02c00-a5b4-4ed0-8372-430c4ec0a05f","ios":"levelo://app?vid=b5f02c00-a5b4-4ed0-8372-430c4ec0a05f"},"vehicle_type_id":"4","last_reported":1760602528,"current_range_meters":17200,"station_id":"ce4bha12rcd13ifvqef0","pricing_plan_id":"cebpf4jnsgd1na2vs0mg"},{"bike_id":"41bf04a8-6adf-4f12-92c2-1444ceebe2ae","system_id":"levelo_inurba_marseille","lat":43.28719,"lon":5.37928,"is_reserved":false,"is_disabled":false,"rental_uris":{"android":"levelo://app?vid=41bf04a8-6adf-4f12-92c2-1444ceebe2ae","ios":"levelo://app?vid=41bf04a8-6adf-4f12-92c2-1444ceebe2ae"},"vehicle_type_id":"4","last_reported":1760602528,"current_range_meters":17600,"station_id":"ce4bh9p2rcd13ifvqec0","pricing_plan_id":"cebpf4jnsgd1na2vs0mg"},{"bike_id":"74f627d1-4201-49e7-88b0-a80c014c37df","system_id":"levelo_inurba_marseille","lat":43.2407,"lon":5.37755,"is_reserved":false,"is_disabled":false,"rental_uris":{"android":"levelo://app?vid=74f627d1-4201-49e7-88b0-a80c014c37df","ios":"levelo://app?vid=74f627d1-4201-49e7-88b0-a80c014c37df"},"vehicle_type_id":"4","last_reported":1760602528,"current_range_meters":17600,"station_id":"ce4bhnp2rcd13ifvqgvg","pricing_plan_id":"cebpf4jnsgd1na2vs0mg"},{"bike_id":"f6fd5406-9f55-4abd-98cc-c7543c7dd5b5","system_id":"levelo_inurba_marseille","lat":43.3235,"lon":5.36737,"is_reserved":false,"is_disabled":false,"rental_uris":{"android":"levelo://app?vid=f6fd5406-9f55-4abd-98cc-c7543c7dd5b5","ios":"levelo://app?vid=f6fd5406-9f55-4abd-98cc-c7543c7dd5b5"},"vehicle_type_id":"4","last_reported":1760602528,"current_range_meters":17600,"station_id":"ce4bhsh2rcd13ifvqi2g","pricing_plan_id":"cebpf4jnsgd1na2vs0mg"},{"bike_id":"c1d36e69-ad27-420c-952f-2a4ac66ec73b","system_id":"levelo_inurba_marseille","lat":43.27368,"lon":5.3913,"is_reserved":false,"is_disabled":false,"rental_uris":{"android":"levelo://app?vid=c1d36e69-ad27-420c-952f-2a4ac66ec73b","ios":"levelo://app?vid=c1d36e69-ad27-420c-952f-2a4ac66ec73b"},"vehicle_type_id":"4","last_reported":1760602528,"current_range_meters":18000,"station_id":"","pricing_plan_id":"cebpf4jnsgd1na2vs0mg"},{"bike_id":"ce8cb95b-4a71-4403-95ec-e293ae4be259","system_id":"levelo_inurba_marseille","lat":43.32147,"lon":5.36822,"is_reserved":false,"is_disabled":false,"rental_uris":{"android":"levelo://app?vid=ce8cb95b-4a71-4403-95ec-e293ae4be259","ios":"levelo://app?vid=ce8cb95b-4a71-4403-95ec-e293ae4be259"},"vehicle_type_id":"4","last_reported":1760602528,"current_range_meters":18000,"station_id":"","pricing_plan_id":"cebpf4jnsgd1na2vs0mg"},{"bike_id":"be097747-7e72-47c4-a686-c09408cd20b3","system_id":"levelo_inurba_marseille","lat":43.296028,"lon":5.380996,"is_reserved":false,"is_disabled":false,"rental_uris":{"android":"levelo://app?vid=be097747-7e72-47c4-a686-c09408cd20b3","ios":"levelo://app?vid=be097747-7e72-47c4-a686-c09408cd20b3"},"vehicle_type_id":"4","last_reported":1760602528,"current_range_meters":18000,"station_id":"ce4bgl12rcd13ifvqbo0","pricing_plan_id":"cebpf4jnsgd1na2vs0mg"},{"bike_id":"75bded2f-c84d-49a6-992c-0e366df463a6","system_id":"levelo_inurba_marseille","lat":43.31476,"lon":5.37324,"is_reserved":false,"is_disabled":false,"rental_uris":{"android":"levelo://app?vid=75bded2f-c84d-49a6-992c-0e366df463a6","ios":"levelo://app?vid=75bded2f-c84d-49a6-992c-0e366df463a6"},"vehicle_type_id":"4","last_reported":1760602528,"current_range_meters":18000,"station_id":"ce4bgt12rcd13ifvqcd0","pricing_plan_id":"cebpf4jnsgd1na2vs0mg"},{"bike_id":"33688d26-4443-4655-9d86-9b34867cb44d","system_id":"levelo_inurba_marseille","lat":43.30951,"lon":5.39023,"is_reserved":false,"is_disabled":false,"rental_uris":{"android":"levelo://app?vid=33688d26-4443-4655-9d86-9b34867cb44d","ios":"levelo://app?vid=33688d26-4443-4655-9d86-9b34867cb44d"},"vehicle_type_id":"4","last_reported":1760602528,"current_range_meters":18000,"station_id":"ce4bgup2rcd13ifvqco0","pricing_plan_id":"cebpf4jnsgd1na2vs0mg"},{"bike_id":"738356f7-06a7-4238-82b6-59c726780f32","system_id":"levelo_inurba_marseille","lat":43.290295,"lon":5.386476,"is_reserved":false,"is_disabled":false,"rental_uris":{"android":"levelo://app?vid=738356f7-06a7-4238-82b6-59c726780f32","ios":"levelo://app?vid=738356f7-06a7-4238-82b6-59c726780f32"},"vehicle_type_id":"4","last_reported":1760602528,"current_range_meters":18000,"station_id":"ce4bh4p2rcd13ifvqe0g","pricing_plan_id":"cebpf4jnsgd1na2vs0mg"},{"bike_id":"28911e58-f405-43c5-967f-e6336bab18ed","system_id":"levelo_inurba_marseille","lat":43.25575,"lon":5.38242,"is_reserved":false,"is_disabled":false,"rental_uris":{"android":"levelo://app?vid=28911e58-f405-43c5-967f-e6336bab18ed","ios":"levelo://app?vid=28911e58-f405-43c5-967f-e6336bab18ed"},"vehicle_type_id":"4","last_reported":1760602528,"current_range_meters":18000,"station_id":"ce4bhih2rcd13ifvqfs0","pricing_plan_id":"cebpf4jnsgd1na2vs0mg"},{"bike_id":"939cd55c-d317-437d-862c-54cd6b079a94","system_id":"levelo_inurba_marseille","lat":43.25912,"lon":5.40925,"is_reserved":false,"is_disabled":false,"rental_uris":{"android":"levelo://app?vid=939cd55c-d317-437d-862c-54cd6b079a94","ios":"levelo://app?vid=939cd55c-d317-437d-862c-54cd6b079a94"},"vehicle_type_id":"4","last_reported":1760602528,"current_range_meters":18000,"station_id":"ce4bhm92rcd13ifvqglg","pricing_plan_id":"cebpf4jnsgd1na2vs0mg"},{"bike_id":"55119544-a935-4445-ae25-d47eaabe3650","system_id":"levelo_inurba_marseille","lat":43.31081,"lon":5.42427,"is_reserved":false,"is_disabled":false,"rental_uris":{"android":"levelo://app?vid=55119544-a935-4445-ae25-d47eaabe3650","ios":"levelo://app?vid=55119544-a935-4445-ae25-d47eaabe3650"},"vehicle_type_id":"4","last_reported":1760602528,"current_range_meters":18000,"station_id":"ce4bhp92rcd13ifvqhag","pricing_plan_id":"cebpf4jnsgd1na2vs0mg"},{"bike_id":"b383546c-2463-4aa3-b11e-e8974bd911d3","system_id":"levelo_inurba_marseille","lat":43.29884,"lon":5.43668,"is_reserved":false,"is_disabled":false,"rental_uris":{"android":"levelo://app?vid=b383546c-2463-4aa3-b11e-e8974bd911d3","ios":"levelo://app?vid=b383546c-2463-4aa3-b11e-e8974bd911d3"},"vehicle_type_id":"4","last_reported":1760602528,"current_range_meters":18000,"station_id":"ce4bhpp2rcd13ifvqhfg","pricing_plan_id":"cebpf4jnsgd1na2vs0mg"},{"bike_id":"0c846e67-0582-45d6-bcf2-0f3c49e0db38","system_id":"levelo_inurba_marseille","lat":43.287608,"lon":5.362181,"is_reserved":false,"is_disabled":false,"rental_uris":{"android":"levelo://app?vid=0c846e67-0582-45d6-bcf2-0f3c49e0db38","ios":"levelo://app?vid=0c846e67-0582-45d6-bcf2-0f3c49e0db38"},"vehicle_type_id":"4","last_reported":1760602528,"current_range_meters":18000,"station_id":"cki0cbj6b192h4jlfktg","pricing_plan_id":"cebpf4jnsgd1na2vs0mg"},{"bike_id":"9c8c09bc-c7c8-42f3-a58c-f9b511bacd18","system_id":"levelo_inurba_marseille","lat":43.28861,"lon":5.42547,"is_reserved":false,"is_disabled":false,"rental_uris":{"android":"levelo://app?vid=9c8c09bc-c7c8-42f3-a58c-f9b511bacd18","ios":"levelo://app?vid=9c8c09bc-c7c8-42f3-a58c-f9b511bacd18"},"vehicle_type_id":"4","last_reported":1760602528,"current_range_meters":18000,"station_id":"st_d3b462108ojc7389ooeg","pricing_plan_id":"cebpf4jnsgd1na2vs0mg"},{"bike_id":"94f60e57-4ea5-4506-9b0b-d49e351bbd01","system_id":"levelo_inurba_marseille","lat":43.29389,"lon":5.38319,"is_reserved":false,"is_disabled":false,"rental_uris":{"android":"levelo://app?vid=94f60e57-4ea5-4506-9b0b-d49e351bbd01","ios":"levelo://app?vid=94f60e57-4ea5-4506-9b0b-d49e351bbd01"},"vehicle_type_id":"4","last_reported":1760602528,"current_range_meters":18800,"station_id":"","pricing_plan_id":"cebpf4jnsgd1na2vs0mg"},{"bike_id":"d726aa05-c27a-4d53-9925-b6947857fad6","system_id":"levelo_inurba_marseille","lat":43.30543,"lon":5.36556,"is_reserved":false,"is_disabled":false,"rental_uris":{"android":"levelo://app?vid=d726aa05-c27a-4d53-9925-b6947857fad6","ios":"levelo://app?vid=d726aa05-c27a-4d53-9925-b6947857fad6"},"vehicle_type_id":"4","last_reported":1760602528,"current_range_meters":18800,"station_id":"ce4bgs12rcd13ifvqcag","pricing_plan_id":"cebpf4jnsgd1na2vs0mg"},{"bike_id":"14ed3bf9-9f9e-4fe2-8ffe-ea8ba0c6c21d","system_id":"levelo_inurba_marseille","lat":43.30872,"lon":5.37224,"is_reserved":false,"is_disabled":false,"rental_uris":{"android":"levelo://app?vid=14ed3bf9-9f9e-4fe2-8ffe-ea8ba0c6c21d","ios":"levelo://app?vid=14ed3bf9-9f9e-4fe2-8ffe-ea8ba0c6c21d"},"vehicle_type_id":"4","last_reported":1760602528,"current_range_meters":18800,"station_id":"ce4bguh2rcd13ifvqckg","pricing_plan_id":"cebpf4jnsgd1na2vs0mg"},{"bike_id":"8538e4e1-a971-4f5c-a555-9374346b3e7c","system_id":"levelo_inurba_marseille","lat":43.28852,"lon":5.35848,"is_reserved":false,"is_disabled":false,"rental_uris":{"android":"levelo://app?vid=8538e4e1-a971-4f5c-a555-9374346b3e7c","ios":"levelo://app?vid=8538e4e1-a971-4f5c-a555-9374346b3e7c"},"vehicle_type_id":"4","last_reported":1760602528,"current_range_meters":18800,"station_id":"ce4bhb12rcd13ifvqem0","pricing_plan_id":"cebpf4jnsgd1na2vs0mg"},{"bike_id":"03d57b88-4929-47e8-b5a3-4f6c90e19e00","system_id":"levelo_inurba_marseille","lat":43.32104,"lon":5.36797,"is_reserved":false,"is_disabled":false,"rental_uris":{"android":"levelo://app?vid=03d57b88-4929-47e8-b5a3-4f6c90e19e00","ios":"levelo://app?vid=03d57b88-4929-47e8-b5a3-4f6c90e19e00"},"vehicle_type_id":"4","last_reported":1760602528,"current_range_meters":18800,"station_id":"ce4bhrh2rcd13ifvqhug","pricing_plan_id":"cebpf4jnsgd1na2vs0mg"},{"bike_id":"326abcf7-82f1-445c-98c3-62320670121e","system_id":"levelo_inurba_marseille","lat":43.32487,"lon":5.36545,"is_reserved":false,"is_disabled":false,"rental_uris":{"android":"levelo://app?vid=326abcf7-82f1-445c-98c3-62320670121e","ios":"levelo://app?vid=326abcf7-82f1-445c-98c3-62320670121e"},"vehicle_type_id":"4","last_reported":1760602528,"current_range_meters":18800,"station_id":"ce4bhs12rcd13ifvqhvg","pricing_plan_id":"cebpf4jnsgd1na2vs0mg"},{"bike_id":"ce9e5475-eff7-4630-a971-6e9631230857","system_id":"levelo_inurba_marseille","lat":43.32479,"lon":5.36562,"is_reserved":false,"is_disabled":false,"rental_uris":{"android":"levelo://app?vid=ce9e5475-eff7-4630-a971-6e9631230857","ios":"levelo://app?vid=ce9e5475-eff7-4630-a971-6e9631230857"},"vehicle_type_id":"4","last_reported":1760602528,"current_range_meters":18800,"station_id":"ce4bhs12rcd13ifvqhvg","pricing_plan_id":"cebpf4jnsgd1na2vs0mg"},{"bike_id":"1d3ab4d5-2901-402a-ae78-c1bd4b87f1bc","system_id":"levelo_inurba_marseille","lat":43.231941,"lon":5.355558,"is_reserved":false,"is_disabled":false,"rental_uris":{"android":"levelo://app?vid=1d3ab4d5-2901-402a-ae78-c1bd4b87f1bc","ios":"levelo://app?vid=1d3ab4d5-2901-402a-ae78-c1bd4b87f1bc"},"vehicle_type_id":"4","last_reported":1760602528,"current_range_meters":18800,"station_id":"ce4bhu92rcd13ifvqi70","pricing_plan_id":"cebpf4jnsgd1na2vs0mg"},{"bike_id":"42bc3f62-34df-4095-87cc-aeefd3ee2f7a","system_id":"levelo_inurba_marseille","lat":43.241688,"lon":5.364274,"is_reserved":false,"is_disabled":false,"rental_uris":{"android":"levelo://app?vid=42bc3f62-34df-4095-87cc-aeefd3ee2f7a","ios":"levelo://app?vid=42bc3f62-34df-4095-87cc-aeefd3ee2f7a"},"vehicle_type_id":"4","last_reported":1760602528,"current_range_meters":18800,"station_id":"cpo36qri1sfpv3e86is0","pricing_plan_id":"cebpf4jnsgd1na2vs0mg"},{"bike_id":"27757e1d-5700-4389-9001-aa12dff96a92","system_id":"levelo_inurba_marseille","lat":43.25509,"lon":5.37636,"is_reserved":false,"is_disabled":false,"rental_uris":{"android":"levelo://app?vid=27757e1d-5700-4389-9001-aa12dff96a92","ios":"levelo://app?vid=27757e1d-5700-4389-9001-aa12dff96a92"},"vehicle_type_id":"4","last_reported":1760602528,"current_range_meters":19200,"station_id":"","pricing_plan_id":"cebpf4jnsgd1na2vs0mg"},{"bike_id":"d6e33a0f-af3e-45ae-a5c9-68401d39b4b3","system_id":"levelo_inurba_marseille","lat":43.323615,"lon":5.367561,"is_reserved":false,"is_disabled":false,"rental_uris":{"android":"levelo://app?vid=d6e33a0f-af3e-45ae-a5c9-68401d39b4b3","ios":"levelo://app?vid=d6e33a0f-af3e-45ae-a5c9-68401d39b4b3"},"vehicle_type_id":"4","last_reported":1760602528,"current_range_meters":19200,"station_id":"","pricing_plan_id":"cebpf4jnsgd1na2vs0mg"},{"bike_id":"c972ea9e-75a7-4406-a585-e899ae940d8e","system_id":"levelo_inurba_marseille","lat":43.313435,"lon":5.367146,"is_reserved":false,"is_disabled":false,"rental_uris":{"android":"levelo://app?vid=c972ea9e-75a7-4406-a585-e899ae940d8e","ios":"levelo://app?vid=c972ea9e-75a7-4406-a585-e899ae940d8e"},"vehicle_type_id":"4","last_reported":1760602528,"current_range_meters":19200,"station_id":"","pricing_plan_id":"cebpf4jnsgd1na2vs0mg"},{"bike_id":"19526fef-f61f-44e0-b029-99e6711d9053","system_id":"levelo_inurba_marseille","lat":43.2593,"lon":5.40911,"is_reserved":false,"is_disabled":false,"rental_uris":{"android":"levelo://app?vid=19526fef-f61f-44e0-b029-99e6711d9053","ios":"levelo://app?vid=19526fef-f61f-44e0-b029-99e6711d9053"},"vehicle_type_id":"4","last_reported":1760602528,"current_range_meters":19200,"station_id":"ce4bhm92rcd13ifvqglg","pricing_plan_id":"cebpf4jnsgd1na2vs0mg"},{"bike_id":"2476723a-5d91-4b4a-90fe-b71038579e01","system_id":"levelo_inurba_marseille","lat":43.28158,"lon":5.42643,"is_reserved":false,"is_disabled":false,"rental_uris":{"android":"levelo://app?vid=2476723a-5d91-4b4a-90fe-b71038579e01","ios":"levelo://app?vid=2476723a-5d91-4b4a-90fe-b71038579e01"},"vehicle_type_id":"4","last_reported":1760602528,"current_range_meters":19200,"station_id":"ce4bhnh2rcd13ifvqgug","pricing_plan_id":"cebpf4jnsgd1na2vs0mg"},{"bike_id":"26b06a9b-e085-41df-804d-fe7d794c2f4c","system_id":"levelo_inurba_marseille","lat":43.32536,"lon":5.41427,"is_reserved":false,"is_disabled":false,"rental_uris":{"android":"levelo://app?vid=26b06a9b-e085-41df-804d-fe7d794c2f4c","ios":"levelo://app?vid=26b06a9b-e085-41df-804d-fe7d794c2f4c"},