{"last_updated":1738915972,"ttl":60,"version":"2.2","data":{"bikes":[{"bike_id":"7baf2fa6-2108-491c-932b-30477a4a9a93","system_id":"levelo_inurba_marseille","lat":43.28965,"lon":5.37847,"is_reserved":false,"is_disabled":false,"rental_uris":{"android":"levelo://app?vid=7baf2fa6-2108-491c-932b-30477a4a9a93","ios":"levelo://app?vid=7baf2fa6-2108-491c-932b-30477a4a9a93"},"vehicle_type_id":"4","last_reported":1738915973,"current_range_meters":39200,"station_id":"ce4bh9p2rcd13ifvqed0","pricing_plan_id":"cebpf4jnsgd1na2vs0mg"},{"bike_id":"1a0e67de-9597-4d47-8182-41732e9786f3","system_id":"levelo_inurba_marseille","lat":43.32478,"lon":5.3656,"is_reserved":false,"is_disabled":true,"rental_uris":{"android":"levelo://app?vid=1a0e67de-9597-4d47-8182-41732e9786f3","ios":"levelo://app?vid=1a0e67de-9597-4d47-8182-41732e9786f3"},"vehicle_type_id":"4","last_reported":1738915973,"current_range_meters":400,"station_id":"ce4bhs12rcd13ifvqhvg","pricing_plan_id":"cebpf4jnsgd1na2vs0mg"},{"bike_id":"dc0d8996-ffcf-4544-98ed-43b2e4ccf0cd","system_id":"levelo_inurba_marseille","lat":43.32536,"lon":5.41436,"is_reserved":false,"is_disabled":false,"rental_uris":{"android":"levelo://app?vid=dc0d8996-ffcf-4544-98ed-43b2e4ccf0cd","ios":"levelo://app?vid=dc0d8996-ffcf-4544-98ed-43b2e4ccf0cd"},"vehicle_type_id":"4","last_reported":1738915973,"current_range_meters":39200,"station_id":"ce4bhq12rcd13ifvqhhg","pricing_plan_id":"cebpf4jnsgd1na2vs0mg"},{"bike_id":"665ac7cf-15eb-4109-b67b-da3fa6c857ca","system_id":"levelo_inurba_marseille","lat":43.30537,"lon":5.36722,"is_reserved":false,"is_disabled":false,"rental_uris":{"android":"levelo://app?vid=665ac7cf-15eb-4109-b67b-da3fa6c857ca","ios":"levelo://app?vid=665ac7cf-15eb-4109-b67b-da3fa6c857ca"},"vehicle_type_id":"4","last_reported":1738915973,"current_range_meters":39200,"station_id":"ce4bgrp2rcd13ifvqc9g","pricing_plan_id":"cebpf4jnsgd1na2vs0mg"},{"bike_id":"ab892e41-9cc7-4b06-9f7e-c61761202cb3","system_id":"levelo_inurba_marseille","lat":43.28353,"lon":5.3811,"is_reserved":false,"is_disabled":false,"rental_uris":{"android":"levelo://app?vid=ab892e41-9cc7-4b06-9f7e-c61761202cb3","ios":"levelo://app?vid=ab892e41-9cc7-4b06-9f7e-c61761202cb3"},"vehicle_type_id":"4","last_reported":1738915973,"current_range_meters":3200,"station_id":"ce4bh412rcd13ifvqdr0","pricing_plan_id":"cebpf4jnsgd1na2vs0mg"},{"bike_id":"6f1b8212-3f5a-4978-864e-5e174cc6fd25","system_id":"levelo_inurba_marseille","lat":43.29551,"lon":5.42306,"is_reserved":false,"is_disabled":false,"rental_uris":{"android":"levelo://app?vid=6f1b8212-3f5a-4978-864e-5e174cc6fd25","ios":"levelo://app?vid=6f1b8212-3f5a-4978-864e-5e174cc6fd25"},"vehicle_type_id":"4","last_reported":1738915973,"current_range_meters":38800,"station_id":"ce4bhph2rcd13ifvqhdg","pricing_plan_id":"cebpf4jnsgd1na2vs0mg"},{"bike_id":"0b370460-2bdc-4346-a1f4-7aeb9dd2a707","system_id":"levelo_inurba_marseille","lat":43.28632,"lon":5.39138,"is_reserved":false,"is_disabled":true,"rental_uris":{"android":"levelo://app?vid=0b370460-2bdc-4346-a1f4-7aeb9dd2a707","ios":"levelo://app?vid=0b370460-2bdc-4346-a1f4-7aeb9dd2a707"},"vehicle_type_id":"4","last_reported":1738915973,"current_range_meters":16000,"station_id":"","pricing_plan_id":"cebpf4jnsgd1na2vs0mg"},{"bike_id":"9d31fb59-26e0-4e13-8364-dc44fa582ce7","system_id":"levelo_inurba_marseille","lat":43.28017,"lon":5.36971,"is_reserved":false,"is_disabled":false,"rental_uris":{"android":"levelo://app?vid=9d31fb59-26e0-4e13-8364-dc44fa582ce7","ios":"levelo://app?vid=9d31fb59-26e0-4e13-8364-dc44fa582ce7"},"vehicle_type_id":"4","last_reported":1738915973,"current_range_meters":37600,"station_id":"ce4bha12rcd13ifvqef0","pricing_plan_id":"cebpf4jnsgd1na2vs0mg"},{"bike_id":"c9cdb5e2-6331-40ad-bf40-96563397df39","system_id":"levelo_inurba_marseille","lat":43.29093,"lon":5.38123,"is_reserved":false,"is_disabled":false,"rental_uris":{"android":"levelo://app?vid=c9cdb5e2-6331-40ad-bf40-96563397df39","ios":"levelo://app?vid=c9cdb5e2-6331-40ad-bf40-96563397df39"},"vehicle_type_id":"4","last_reported":1738915973,"current_range_meters":28400,"station_id":"ce4bh512rcd13ifvqe2g","pricing_plan_id":"cebpf4jnsgd1na2vs0mg"},{"bike_id":"e0c5e844-cf3d-4c0a-a0f4-f0ded2743cff","system_id":"levelo_inurba_marseille","lat":43.29035,"lon":5.40015,"is_reserved":false,"is_disabled":false,"rental_uris":{"android":"levelo://app?vid=e0c5e844-cf3d-4c0a-a0f4-f0ded2743cff","ios":"levelo://app?vid=e0c5e844-cf3d-4c0a-a0f4-f0ded2743cff"},"vehicle_type_id":"4","last_reported":1738915973,"current_range_meters":38400,"station_id":"ce4bh392rcd13ifvqdm0","pricing_plan_id":"cebpf4jnsgd1na2vs0mg"},{"bike_id":"cdd38823-51c7-44f0-b54f-a9c4558b6ae9","system_id":"levelo_inurba_marseille","lat":43.24073,"lon":5.37768,"is_reserved":false,"is_disabled":false,"rental_uris":{"android":"levelo://app?vid=cdd38823-51c7-44f0-b54f-a9c4558b6ae9","ios":"levelo://app?vid=cdd38823-51c7-44f0-b54f-a9c4558b6ae9"},"vehicle_type_id":"4","last_reported":1738915973,"current_range_meters":36800,"station_id":"ce4bhnp2rcd13ifvqgvg","pricing_plan_id":"cebpf4jnsgd1na2vs0mg"},{"bike_id":"d1a6efa9-c1b4-4e9d-982a-5e40253d1c7d","system_id":"levelo_inurba_marseille","lat":43.28454,"lon":5.39192,"is_reserved":false,"is_disabled":true,"rental_uris":{"android":"levelo://app?vid=d1a6efa9-c1b4-4e9d-982a-5e40253d1c7d","ios":"levelo://app?vid=d1a6efa9-c1b4-4e9d-982a-5e40253d1c7d"},"vehicle_type_id":"4","last_reported":1738915973,"current_range_meters":2000,"station_id":"ce4bhoh2rcd13ifvqh5g","pricing_plan_id":"cebpf4jnsgd1na2vs0mg"},{"bike_id":"0a84bc02-c535-4ad2-bd8f-bafd16ec85e8","system_id":"levelo_inurba_marseille","lat":43.25941,"lon":5.40905,"is_reserved":false,"is_disabled":false,"rental_uris":{"android":"levelo://app?vid=0a84bc02-c535-4ad2-bd8f-bafd16ec85e8","ios":"levelo://app?vid=0a84bc02-c535-4ad2-bd8f-bafd16ec85e8"},"vehicle_type_id":"4","last_reported":1738915973,"current_range_meters":32400,"station_id":"ce4bhm92rcd13ifvqglg","pricing_plan_id":"cebpf4jnsgd1na2vs0mg"},{"bike_id":"0e3e205c-def0-409b-93d1-6bd9975a7ce8","system_id":"levelo_inurba_marseille","lat":43.33756,"lon":5.37442,"is_reserved":false,"is_disabled":false,"rental_uris":{"android":"levelo://app?vid=0e3e205c-def0-409b-93d1-6bd9975a7ce8","ios":"levelo://app?vid=0e3e205c-def0-409b-93d1-6bd9975a7ce8"},"vehicle_type_id":"4","last_reported":1738915973,"current_range_meters":7200,"station_id":"","pricing_plan_id":"cebpf4jnsgd1na2vs0mg"},{"bike_id":"e811ae85-1e87-4fd1-9321-3665da8f84b4","system_id":"levelo_inurba_marseille","lat":43.24075,"lon":5.37758,"is_reserved":false,"is_disabled":false,"rental_uris":{"android":"levelo://app?vid=e811ae85-1e87-4fd1-9321-3665da8f84b4","ios":"levelo://app?vid=e811ae85-1e87-4fd1-9321-3665da8f84b4"},"vehicle_type_id":"4","last_reported":1738915973,"current_range_meters":20000,"station_id":"ce4bhnp2rcd13ifvqgvg","pricing_plan_id":"cebpf4jnsgd1na2vs0mg"},{"bike_id":"a8a870dd-8031-4173-980a-4bcdc56efc26","system_id":"levelo_inurba_marseille","lat":43.29918,"lon":5.38144,"is_reserved":false,"is_disabled":false,"rental_uris":{"android":"levelo://app?vid=a8a870dd-8031-4173-980a-4bcdc56efc26","ios":"levelo://app?vid=a8a870dd-8031-4173-980a-4bcdc56efc26"},"vehicle_type_id":"4","last_reported":1738915973,"current_range_meters":30400,"station_id":"ce4bgj12rcd13ifvqbc0","pricing_plan_id":"cebpf4jnsgd1na2vs0mg"},{"bike_id":"6bd15c5e-d6b2-43ab-8fc9-854cbe9e9385","system_id":"levelo_inurba_marseille","lat":43.2605,"lon":5.39399,"is_reserved":false,"is_disabled":false,"rental_uris":{"android":"levelo://app?vid=6bd15c5e-d6b2-43ab-8fc9-854cbe9e9385","ios":"levelo://app?vid=6bd15c5e-d6b2-43ab-8fc9-854cbe9e9385"},"vehicle_type_id":"4","last_reported":1738915973,"current_range_meters":39200,"station_id":"ce4bhh92rcd13ifvqfj0","pricing_plan_id":"cebpf4jnsgd1na2vs0mg"},{"bike_id":"86bcf1ed-d2c5-4727-99c4-b3a66163bb87","system_id":"levelo_inurba_marseille","lat":43.30938,"lon":5.39039,"is_reserved":false,"is_disabled":false,"rental_uris":{"android":"levelo://app?vid=86bcf1ed-d2c5-4727-99c4-b3a66163bb87","ios":"levelo://app?vid=86bcf1ed-d2c5-4727-99c4-b3a66163bb87"},"vehicle_type_id":"4","last_reported":1738915973,"current_range_meters":25600,"station_id":"ce4bgup2rcd13ifvqco0","pricing_plan_id":"cebpf4jnsgd1na2vs0mg"},{"bike_id":"3528aa62-06b4-44de-92de-1aa1318d56b7","system_id":"levelo_inurba_marseille","lat":43.26211,"lon":5.37445,"is_reserved":false,"is_disabled":false,"rental_uris":{"android":"levelo://app?vid=3528aa62-06b4-44de-92de-1aa1318d56b7","ios":"levelo://app?vid=3528aa62-06b4-44de-92de-1aa1318d56b7"},"vehicle_type_id":"4","last_reported":1738915973,"current_range_meters":36800,"station_id":"ce4bhgp2rcd13ifvqfc0","pricing_plan_id":"cebpf4jnsgd1na2vs0mg"},{"bike_id":"fc6c23c2-a7a4-4811-bd89-66094e3d78d2","system_id":"levelo_inurba_marseille","lat":43.265009,"lon":5.395332,"is_reserved":false,"is_disabled":true,"rental_uris":{"android":"levelo://app?vid=fc6c23c2-a7a4-4811-bd89-66094e3d78d2","ios":"levelo://app?vid=fc6c23c2-a7a4-4811-bd89-66094e3d78d2"},"vehicle_type_id":"4","last_reported":1738915973,"current_range_meters":34800,"station_id":"ce4bhi12rcd13ifvqfq0","pricing_plan_id":"cebpf4jnsgd1na2vs0mg"},{"bike_id":"aa874f21-4899-4c94-ac56-d6c355723cbb","system_id":"levelo_inurba_marseille","lat":43.23185,"lon":5.39992,"is_reserved":false,"is_disabled":false,"rental_uris":{"android":"levelo://app?vid=aa874f21-4899-4c94-ac56-d6c355723cbb","ios":"levelo://app?vid=aa874f21-4899-4c94-ac56-d6c355723cbb"},"vehicle_type_id":"4","last_reported":1738915973,"current_range_meters":34800,"station_id":"ce4bhn12rcd13ifvqgqg","pricing_plan_id":"cebpf4jnsgd1na2vs0mg"},{"bike_id":"19b11498-b7da-498a-a065-c091cc335a9f","system_id":"levelo_inurba_marseille","lat":43.23172,"lon":5.39981,"is_reserved":false,"is_disabled":false,"rental_uris":{"android":"levelo://app?vid=19b11498-b7da-498a-a065-c091cc335a9f","ios":"levelo://app?vid=19b11498-b7da-498a-a065-c091cc335a9f"},"vehicle_type_id":"4","last_reported":1738915973,"current_range_meters":32000,"station_id":"ce4bhn12rcd13ifvqgqg","pricing_plan_id":"cebpf4jnsgd1na2vs0mg"},{"bike_id":"ff76c6e9-316d-475d-9f19-7e3b447f3b23","system_id":"levelo_inurba_marseille","lat":43.30309,"lon":5.36904,"is_reserved":false,"is_disabled":false,"rental_uris":{"android":"levelo://app?vid=ff76c6e9-316d-475d-9f19-7e3b447f3b23","ios":"levelo://app?vid=ff76c6e9-316d-475d-9f19-7e3b447f3b23"},"vehicle_type_id":"4","last_reported":1738915973,"current_range_meters":23200,"station_id":"ce4bgqh2rcd13ifvqc5g","pricing_plan_id":"cebpf4jnsgd1na2vs0mg"},{"bike_id":"18f1cef3-3663-430c-bbc1-84c95be2f643","system_id":"levelo_inurba_marseille","lat":43.28095,"lon":5.39663,"is_reserved":false,"is_disabled":false,"rental_uris":{"android":"levelo://app?vid=18f1cef3-3663-430c-bbc1-84c95be2f643","ios":"levelo://app?vid=18f1cef3-3663-430c-bbc1-84c95be2f643"},"vehicle_type_id":"4","last_reported":1738915973,"current_range_meters":37600,"station_id":"ce4bho12rcd13ifvqh2g","pricing_plan_id":"cebpf4jnsgd1na2vs0mg"},{"bike_id":"b6254094-b915-4e2d-b770-80c33376c09e","system_id":"levelo_inurba_marseille","lat":43.29271,"lon":5.36844,"is_reserved":false,"is_disabled":false,"rental_uris":{"android":"levelo://app?vid=b6254094-b915-4e2d-b770-80c33376c09e","ios":"levelo://app?vid=b6254094-b915-4e2d-b770-80c33376c09e"},"vehicle_type_id":"4","last_reported":1738915973,"current_range_meters":38800,"station_id":"ce4bhbp2rcd13ifvqesg","pricing_plan_id":"cebpf4jnsgd1na2vs0mg"},{"bike_id":"422d1ae9-3f23-4c23-952d-112dc4aaa449","system_id":"levelo_inurba_marseille","lat":43.29759,"lon":5.380556,"is_reserved":false,"is_disabled":false,"rental_uris":{"android":"levelo://app?vid=422d1ae9-3f23-4c23-952d-112dc4aaa449","ios":"levelo://app?vid=422d1ae9-3f23-4c23-952d-112dc4aaa449"},"vehicle_type_id":"4","last_reported":1738915973,"current_range_meters":10000,"station_id":"","pricing_plan_id":"cebpf4jnsgd1na2vs0mg"},{"bike_id":"73040312-c166-43ba-a41a-fb3b6a2beca6","system_id":"levelo_inurba_marseille","lat":43.337444,"lon":5.374475,"is_reserved":false,"is_disabled":false,"rental_uris":{"android":"levelo://app?vid=73040312-c166-43ba-a41a-fb3b6a2beca6","ios":"levelo://app?vid=73040312-c166-43ba-a41a-fb3b6a2beca6"},"vehicle_type_id":"4","last_reported":1738915973,"current_range_meters":29600,"station_id":"ce4bhgp2rcd13ifvqfc0","pricing_plan_id":"cebpf4jnsgd1na2vs0mg"},{"bike_id":"a1341899-4f3a-4823-b10a-9027870c66dc","system_id":"levelo_inurba_marseille","lat":43.29792,"lon":5.38106,"is_reserved":false,"is_disabled":false,"rental_uris":{"android":"levelo://app?vid=a1341899-4f3a-4823-b10a-9027870c66dc","ios":"levelo://app?vid=a1341899-4f3a-4823-b10a-9027870c66dc"},"vehicle_type_id":"4","last_reported":1738915973,"current_range_meters":22400,"station_id":"ce4bgip2rcd13ifvqbb0","pricing_plan_id":"cebpf4jnsgd1na2vs0mg"},{"bike_id":"93474376-1f87-4b0b-987e-3e2a472dffc8","system_id":"levelo_inurba_marseille","lat":43.299704,"lon":5.384782,"is_reserved":false,"is_disabled":false,"rental_uris":{"android":"levelo://app?vid=93474376-1f87-4b0b-987e-3e2a472dffc8","ios":"levelo://app?vid=93474376-1f87-4b0b-987e-3e2a472dffc8"},"vehicle_type_id":"4","last_reported":1738915973,"current_range_meters":38800,"station_id":"ce4bgop2rcd13ifvqc1g","pricing_plan_id":"cebpf4jnsgd1na2vs0mg"},{"bike_id":"f1067d17-a424-4230-ae9f-44f3b2dc5e74","system_id":"levelo_inurba_marseille","lat":43.24541,"lon":5.39534,"is_reserved":false,"is_disabled":false,"rental_uris":{"android":"levelo://app?vid=f1067d17-a424-4230-ae9f-44f3b2dc5e74","ios":"levelo://app?vid=f1067d17-a424-4230-ae9f-44f3b2dc5e74"},"vehicle_type_id":"4","last_reported":1738915973,"current_range_meters":38800,"station_id":"ce4bhlp2rcd13ifvqgjg","pricing_plan_id":"cebpf4jnsgd1na2vs0mg"},{"bike_id":"098d220b-e449-43ea-8d6d-9fc78e0abad9","system_id":"levelo_inurba_marseille","lat":43.22916,"lon":5.35397,"is_reserved":false,"is_disabled":false,"rental_uris":{"android":"levelo://app?vid=098d220b-e449-43ea-8d6d-9fc78e0abad9","ios":"levelo://app?vid=098d220b-e449-43ea-8d6d-9fc78e0abad9"},"vehicle_type_id":"4","last_reported":1738915973,"current_range_meters":38800,"station_id":"cpo3532slgdg3j2ikp40","pricing_plan_id":"cebpf4jnsgd1na2vs0mg"},{"bike_id":"3de2a62f-ee8b-4633-8581-80f610f7d857","system_id":"levelo_inurba_marseille","lat":43.24545,"lon":5.39534,"is_reserved":false,"is_disabled":true,"rental_uris":{"android":"levelo://app?vid=3de2a62f-ee8b-4633-8581-80f610f7d857","ios":"levelo://app?vid=3de2a62f-ee8b-4633-8581-80f610f7d857"},"vehicle_type_id":"4","last_reported":1738915973,"current_range_meters":0,"station_id":"ce4bhlp2rcd13ifvqgjg","pricing_plan_id":"cebpf4jnsgd1na2vs0mg"},{"bike_id":"c833eddb-9922-4231-8de9-3b5b20da4485","system_id":"levelo_inurba_marseille","lat":43.28966,"lon":5.37836,"is_reserved":false,"is_disabled":false,"rental_uris":{"android":"levelo://app?vid=c833eddb-9922-4231-8de9-3b5b20da4485","ios":"levelo://app?vid=c833eddb-9922-4231-8de9-3b5b20da4485"},"vehicle_type_id":"4","last_reported":1738915973,"current_range_meters":24800,"station_id":"ce4bh9p2rcd13ifvqed0","pricing_plan_id":"cebpf4jnsgd1na2vs0mg"},{"bike_id":"25265f47-6177-48e9-b4ee-d5d5e25bf867","system_id":"levelo_inurba_marseille","lat":43.25727,"lon":5.41113,"is_reserved":false,"is_disabled":false,"rental_uris":{"android":"levelo://app?vid=25265f47-6177-48e9-b4ee-d5d5e25bf867","ios":"levelo://app?vid=25265f47-6177-48e9-b4ee-d5d5e25bf867"},"vehicle_type_id":"4","last_reported":1738915973,"current_range_meters":17600,"station_id":"ce4bhkp2rcd13ifvqgd0","pricing_plan_id":"cebpf4jnsgd1na2vs0mg"},{"bike_id":"8134c42b-15c7-43df-91b1-9cea8c89299b","system_id":"levelo_inurba_marseille","lat":43.25866,"lon":5.39941,"is_reserved":false,"is_disabled":true,"rental_uris":{"android":"levelo://app?vid=8134c42b-15c7-43df-91b1-9cea8c89299b","ios":"levelo://app?vid=8134c42b-15c7-43df-91b1-9cea8c89299b"},"vehicle_type_id":"4","last_reported":1738915973,"current_range_meters":30000,"station_id":"ce4bhl92rcd13ifvqghg","pricing_plan_id":"cebpf4jnsgd1na2vs0mg"},{"bike_id":"d7ead273-bf60-49f8-8869-552a00114485","system_id":"levelo_inurba_marseille","lat":43.30805,"lon":5.38171,"is_reserved":false,"is_disabled":true,"rental_uris":{"android":"levelo://app?vid=d7ead273-bf60-49f8-8869-552a00114485","ios":"levelo://app?vid=d7ead273-bf60-49f8-8869-552a00114485"},"vehicle_type_id":"4","last_reported":1738915973,"current_range_meters":38800,"station_id":"ce4bgt12rcd13ifvqce0","pricing_plan_id":"cebpf4jnsgd1na2vs0mg"},{"bike_id":"b30fab70-12f2-49ab-a214-4a4a525bde59","system_id":"levelo_inurba_marseille","lat":43.28707,"lon":5.39994,"is_reserved":false,"is_disabled":false,"rental_uris":{"android":"levelo://app?vid=b30fab70-12f2-49ab-a214-4a4a525bde59","ios":"levelo://app?vid=b30fab70-12f2-49ab-a214-4a4a525bde59"},"vehicle_type_id":"4","last_reported":1738915973,"current_range_meters":3600,"station_id":"ce4bho92rcd13ifvqh3g","pricing_plan_id":"cebpf4jnsgd1na2vs0mg"},{"bike_id":"af40deb1-f640-4b70-95d2-0b44fe79a0b8","system_id":"levelo_inurba_marseille","lat":43.23191,"lon":5.39996,"is_reserved":false,"is_disabled":false,"rental_uris":{"android":"levelo://app?vid=af40deb1-f640-4b70-95d2-0b44fe79a0b8","ios":"levelo://app?vid=af40deb1-f640-4b70-95d2-0b44fe79a0b8"},"vehicle_type_id":"4","last_reported":1738915973,"current_range_meters":22400,"station_id":"ce4bhn12rcd13ifvqgqg","pricing_plan_id":"cebpf4jnsgd1na2vs0mg"},{"bike_id":"9057801f-44f9-4b62-92da-c1aac083a184","system_id":"levelo_inurba_marseille","lat":43.29587,"lon":5.38115,"is_reserved":false,"is_disabled":false,"rental_uris":{"android":"levelo://app?vid=9057801f-44f9-4b62-92da-c1aac083a184","ios":"levelo://app?vid=9057801f-44f9-4b62-92da-c1aac083a184"},"vehicle_type_id":"4","last_reported":1738915973,"current_range_meters":19200,"station_id":"ce4bgl12rcd13ifvqbo0","pricing_plan_id":"cebpf4jnsgd1na2vs0mg"},{"bike_id":"6850b23e-5e80-4fd6-856a-27e743c90765","system_id":"levelo_inurba_marseille","lat":43.29841,"lon":5.3627,"is_reserved":false,"is_disabled":false,"rental_uris":{"android":"levelo://app?vid=6850b23e-5e80-4fd6-856a-27e743c90765","ios":"levelo://app?vid=6850b23e-5e80-4fd6-856a-27e743c90765"},"vehicle_type_id":"4","last_reported":1738915973,"current_range_meters":38800,"station_id":"ce4bgpp2rcd13ifvqc3g","pricing_plan_id":"cebpf4jnsgd1na2vs0mg"},{"bike_id":"b850e4c1-db22-4686-94e4-7658941c19dd","system_id":"levelo_inurba_marseille","lat":43.30585,"lon":5.39343,"is_reserved":false,"is_disabled":false,"rental_uris":{"android":"levelo://app?vid=b850e4c1-db22-4686-94e4-7658941c19dd","ios":"levelo://app?vid=b850e4c1-db22-4686-94e4-7658941c19dd"},"vehicle_type_id":"4","last_reported":1738915973,"current_range_meters":16800,"station_id":"ce4bh0p2rcd13ifvqd80","pricing_plan_id":"cebpf4jnsgd1na2vs0mg"},{"bike_id":"3078e8ce-5d59-4082-8b1a-8d753b4f6935","system_id":"levelo_inurba_marseille","lat":43.23199,"lon":5.39982,"is_reserved":false,"is_disabled":false,"rental_uris":{"android":"levelo://app?vid=3078e8ce-5d59-4082-8b1a-8d753b4f6935","ios":"levelo://app?vid=3078e8ce-5d59-4082-8b1a-8d753b4f6935"},"vehicle_type_id":"4","last_reported":1738915973,"current_range_meters":39200,"station_id":"ce4bhn12rcd13ifvqgqg","pricing_plan_id":"cebpf4jnsgd1na2vs0mg"},{"bike_id":"d63dd219-1986-4b43-9904-d72ec9015c63","system_id":"levelo_inurba_marseille","lat":43.29838,"lon":5.3627,"is_reserved":false,"is_disabled":false,"rental_uris":{"android":"levelo://app?vid=d63dd219-1986-4b43-9904-d72ec9015c63","ios":"levelo://app?vid=d63dd219-1986-4b43-9904-d72ec9015c63"},"vehicle_type_id":"4","last_reported":1738915973,"current_range_meters":12800,"station_id":"ce4bgpp2rcd13ifvqc3g","pricing_plan_id":"cebpf4jnsgd1na2vs0mg"},{"bike_id":"d436f97b-4f0f-4a19-835a-94a98842eb84","system_id":"levelo_inurba_marseille","lat":43.3013,"lon":5.39886,"is_reserved":false,"is_disabled":false,"rental_uris":{"android":"levelo://app?vid=d436f97b-4f0f-4a19-835a-94a98842eb84","ios":"levelo://app?vid=d436f97b-4f0f-4a19-835a-94a98842eb84"},"vehicle_type_id":"4","last_reported":1738915973,"current_range_meters":10000,"station_id":"ce4bh0h2rcd13ifvqd40","pricing_plan_id":"cebpf4jnsgd1na2vs0mg"},{"bike_id":"d9ab6823-bbd8-43e6-9a6b-b0e016f7c723","system_id":"levelo_inurba_marseille","lat":43.25942,"lon":5.40904,"is_reserved":false,"is_disabled":false,"rental_uris":{"android":"levelo://app?vid=d9ab6823-bbd8-43e6-9a6b-b0e016f7c723","ios":"levelo://app?vid=d9ab6823-bbd8-43e6-9a6b-b0e016f7c723"},"vehicle_type_id":"4","last_reported":1738915973,"current_range_meters":8000,"station_id":"ce4bhm92rcd13ifvqglg","pricing_plan_id":"cebpf4jnsgd1na2vs0mg"},{"bike_id":"a6f2f0f5-d28b-4dfa-9ebc-81f9a099a0e7","system_id":"levelo_inurba_marseille","lat":43.28474,"lon":5.38441,"is_reserved":false,"is_disabled":true,"rental_uris":{"android":"levelo://app?vid=a6f2f0f5-d28b-4dfa-9ebc-81f9a099a0e7","ios":"levelo://app?vid=a6f2f0f5-d28b-4dfa-9ebc-81f9a099a0e7"},"vehicle_type_id":"4","last_reported":1738915973,"current_range_meters":0,"station_id":"ce4bh512rcd13ifvqe3g","pricing_plan_id":"cebpf4jnsgd1na2vs0mg"},{"bike_id":"c1a7df6c-1872-498d-9cb5-5f5c18ba5d2c","system_id":"levelo_inurba_marseille","lat":43.30462,"lon":5.3792,"is_reserved":false,"is_disabled":false,"rental_uris":{"android":"levelo://app?vid=c1a7df6c-1872-498d-9cb5-5f5c18ba5d2c","ios":"levelo://app?vid=c1a7df6c-1872-498d-9cb5-5f5c18ba5d2c"},"vehicle_type_id":"4","last_reported":1738915973,"current_range_meters":39200,"station_id":"ce4bgup2rcd13ifvqcn0","pricing_plan_id":"cebpf4jnsgd1na2vs0mg"},{"bike_id":"eaa9b364-119d-4647-ab82-b75e23b137a6","system_id":"levelo_inurba_marseille","lat":43.30593,"lon":5.39363,"is_reserved":false,"is_disabled":false,"rental_uris":{"android":"levelo://app?vid=eaa9b364-119d-4647-ab82-b75e23b137a6","ios":"levelo://app?vid=eaa9b364-119d-4647-ab82-b75e23b137a6"},"vehicle_type_id":"4","last_reported":1738915973,"current_range_meters":36800,"station_id":"ce4bh0p2rcd13ifvqd80","pricing_plan_id":"cebpf4jnsgd1na2vs0mg"},{"bike_id":"846128a2-c79d-4f22-8b7e-bd8125590138","system_id":"levelo_inurba_marseille","lat":43.30054,"lon":5.37856,"is_reserved":false,"is_disabled":false,"rental_uris":{"android":"levelo://app?vid=846128a2-c79d-4f22-8b7e-bd8125590138","ios":"levelo://app?vid=846128a2-c79d-4f22-8b7e-bd8125590138"},"vehicle_type_id":"4","last_reported":1738915973,"current_range_meters":24800,"station_id":"ce4bgs92rcd13ifvqcc0","pricing_plan_id":"cebpf4jnsgd1na2vs0mg"},{"bike_id":"89912e32-c5f0-448f-82d2-e236e4d6d653","system_id":"levelo_inurba_marseille","lat":43.27794,"lon":5.39876,"is_reserved":false,"is_disabled":true,"rental_uris":{"android":"levelo://app?vid=89912e32-c5f0-448f-82d2-e236e4d6d653","ios":"levelo://app?vid=89912e32-c5f0-448f-82d2-e236e4d6d653"},"vehicle_type_id":"4","last_reported":1738915973,"current_range_meters":6000,"station_id":"","pricing_plan_id":"cebpf4jnsgd1na2vs0mg"},{"bike_id":"6d2f3de3-74af-4680-a313-63b0427a0851","system_id":"levelo_inurba_marseille","lat":43.28712,"lon":5.39945,"is_reserved":false,"is_disabled":false,"rental_uris":{"android":"levelo://app?vid=6d2f3de3-74af-4680-a313-63b0427a0851","ios":"levelo://app?vid=6d2f3de3-74af-4680-a313-63b0427a0851"},"vehicle_type_id":"4","last_reported":1738915973,"current_range_meters":39200,"station_id":"ce4bho92rcd13ifvqh3g","pricing_plan_id":"cebpf4jnsgd1na2vs0mg"},{"bike_id":"cca80919-b73f-431e-8d2d-b5618fa256de","system_id":"levelo_inurba_marseille","lat":43.26197,"lon":5.37934,"is_reserved":false,"is_disabled":false,"rental_uris":{"android":"levelo://app?vid=cca80919-b73f-431e-8d2d-b5618fa256de","ios":"levelo://app?vid=cca80919-b73f-431e-8d2d-b5618fa256de"},"vehicle_type_id":"4","last_reported":1738915973,"current_range_meters":18000,"station_id":"ce4bhjp2rcd13ifvqg90","pricing_plan_id":"cebpf4jnsgd1na2vs0mg"},{"bike_id":"e56f0830-a623-484a-9c87-c58f06f713c5","system_id":"levelo_inurba_marseille","lat":43.264992,"lon":5.395495,"is_reserved":false,"is_disabled":false,"rental_uris":{"android":"levelo://app?vid=e56f0830-a623-484a-9c87-c58f06f713c5","ios":"levelo://app?vid=e56f0830-a623-484a-9c87-c58f06f713c5"},"vehicle_type_id":"4","last_reported":1738915973,"current_range_meters":22800,"station_id":"ce4bhi12rcd13ifvqfq0","pricing_plan_id":"cebpf4jnsgd1na2vs0mg"},{"bike_id":"26883686-8096-471a-ae67-bf5a565acd76","system_id":"levelo_inurba_marseille","lat":43.28967,"lon":5.37833,"is_reserved":false,"is_disabled":false,"rental_uris":{"android":"levelo://app?vid=26883686-8096-471a-ae67-bf5a565acd76","ios":"levelo://app?vid=26883686-8096-471a-ae67-bf5a565acd76"},"vehicle_type_id":"4","last_reported":1738915973,"current_range_meters":35200,"station_id":"ce4bh9p2rcd13ifvqed0","pricing_plan_id":"cebpf4jnsgd1na2vs0mg"},{"bike_id":"23143502-ceee-44da-89f0-72f6c6ad3c2a","system_id":"levelo_inurba_marseille","lat":43.26678,"lon":5.3827,"is_reserved":false,"is_disabled":false,"rental_uris":{"android":"levelo://app?vid=23143502-ceee-44da-89f0-72f6c6ad3c2a","ios":"levelo://app?vid=23143502-ceee-44da-89f0-72f6c6ad3c2a"},"vehicle_type_id":"4","last_reported":1738915973,"current_range_meters":22400,"station_id":"ce4bhg92rcd13ifvqf90","pricing_plan_id":"cebpf4jnsgd1na2vs0mg"},{"bike_id":"fb5a704f-a51b-458c-a6e9-f5586a789b94","system_id":"levelo_inurba_marseille","lat":43.24173,"lon":5.36422,"is_reserved":false,"is_disabled":false,"rental_uris":{"android":"levelo://app?vid=fb5a704f-a51b-458c-a6e9-f5586a789b94","ios":"levelo://app?vid=fb5a704f-a51b-458c-a6e9-f5586a789b94"},"vehicle_type_id":"4","last_reported":1738915973,"current_range_meters":6400,"station_id":"cpo36qri1sfpv3e86is0","pricing_plan_id":"cebpf4jnsgd1na2vs0mg"},{"bike_id":"c86ba7d9-08ba-4230-97bc-cd484889e3a1","system_id":"levelo_inurba_marseille","lat":43.3042,"lon":5.412873,"is_reserved":false,"is_disabled":false,"rental_uris":{"android":"levelo://app?vid=c86ba7d9-08ba-4230-97bc-cd484889e3a1","ios":"levelo://app?vid=c86ba7d9-08ba-4230-97bc-cd484889e3a1"},"vehicle_type_id":"4","last_reported":1738915973,"current_range_meters":26800,"station_id":"ce4bhop2rcd13ifvqh8g","pricing_plan_id":"cebpf4jnsgd1na2vs0mg"},{"bike_id":"107b5376-262d-4bec-9e77-51815e2c0924","system_id":"levelo_inurba_marseille","lat":43.31719,"lon":5.40456,"is_reserved":false,"is_disabled":false,"rental_uris":{"android":"levelo://app?vid=107b5376-262d-4bec-9e77-51815e2c0924","ios":"levelo://app?vid=107b5376-262d-4bec-9e77-51815e2c0924"},"vehicle_type_id":"4","last_reported":1738915973,"current_range_meters":14400,"station_id":"ce4bh012rcd13ifvqd00","pricing_plan_id":"cebpf4jnsgd1na2vs0mg"},{"bike_id":"b73937ba-05e4-41c7-8959-6f24613e2797","system_id":"levelo_inurba_marseille","lat":43.22931,"lon":5.35384,"is_reserved":false,"is_disabled":false,"rental_uris":{"android":"levelo://app?vid=b73937ba-05e4-41c7-8959-6f24613e2797","ios":"levelo://app?vid=b73937ba-05e4-41c7-8959-6f24613e2797"},"vehicle_type_id":"4","last_reported":1738915973,"current_range_meters":35200,"station_id":"cpo3532slgdg3j2ikp40","pricing_plan_id":"cebpf4jnsgd1na2vs0mg"},{"bike_id":"57d2f359-aa56-45f0-bd2e-b5ed21f9da83","system_id":"levelo_inurba_marseille","lat":43.30299,"lon":5.36905,"is_reserved":false,"is_disabled":false,"rental_uris":{"android":"levelo://app?vid=57d2f359-aa56-45f0-bd2e-b5ed21f9da83","ios":"levelo://app?vid=57d2f359-aa56-45f0-bd2e-b5ed21f9da83"},"vehicle_type_id":"4","last_reported":1738915973,"current_range_meters":18000,"station_id":"ce4bgqh2rcd13ifvqc5g","pricing_plan_id":"cebpf4jnsgd1na2vs0mg"},{"bike_id":"9dbc66af-ff64-41a8-a57c-5ef86f5cb77a","system_id":"levelo_inurba_marseille","lat":43.26818,"lon":5.40249,"is_reserved":false,"is_disabled":true,"rental_uris":{"android":"levelo://app?vid=9dbc66af-ff64-41a8-a57c-5ef86f5cb77a","ios":"levelo://app?vid=9dbc66af-ff64-41a8-a57c-5ef86f5cb77a"},"vehicle_type_id":"4","last_reported":1738915973,"current_range_meters":38800,"station_id":"ce501612rcd8frsf0b60","pricing_plan_id":"cebpf4jnsgd1na2vs0mg"},{"bike_id":"ab54e2d0-4c2c-486a-84c7-811ed9008ddc","system_id":"levelo_inurba_marseille","lat":43.278576,"lon":5.425457,"is_reserved":false,"is_disabled":true,"rental_uris":{"android":"levelo://app?vid=ab54e2d0-4c2c-486a-84c7-811ed9008ddc","ios":"levelo://app?vid=ab54e2d0-4c2c-486a-84c7-811ed9008ddc"},"vehicle_type_id":"4","last_reported":1738915973,"current_range_meters":400,"station_id":"","pricing_plan_id":"cebpf4jnsgd1na2vs0mg"},{"bike_id":"f1e9399a-c62d-4210-bc5f-f431eced8b39","system_id":"levelo_inurba_marseille","lat":43.3235,"lon":5.36767,"is_reserved":false,"is_disabled":false,"rental_uris":{"android":"levelo://app?vid=f1e9399a-c62d-4210-bc5f-f431eced8b39","ios":"levelo://app?vid=f1e9399a-c62d-4210-bc5f-f431eced8b39"},"vehicle_type_id":"4","last_reported":1738915973,"current_range_meters":8000,"station_id":"ce4bhsh2rcd13ifvqi2g","pricing_plan_id":"cebpf4jnsgd1na2vs0mg"},{"bike_id":"fae5ed03-2be2-4e2f-ae1a-9dae265ccade","system_id":"levelo_inurba_marseille","lat":43.32355,"lon":5.38908,"is_reserved":false,"is_disabled":false,"rental_uris":{"android":"levelo://app?vid=fae5ed03-2be2-4e2f-ae1a-9dae265ccade","ios":"levelo://app?vid=fae5ed03-2be2-4e2f-ae1a-9dae265ccade"},"vehicle_type_id":"4","last_reported":1738915973,"current_range_meters":18800,"station_id":"ce4bhqp2rcd13ifvqhog","pricing_plan_id":"cebpf4jnsgd1na2vs0mg"},{"bike_id":"85423e3e-4144-454b-a03d-159c22f85bad","system_id":"levelo_inurba_marseille","lat":43.30144,"lon":5.37422,"is_reserved":false,"is_disabled":false,"rental_uris":{"android":"levelo://app?vid=85423e3e-4144-454b-a03d-159c22f85bad","ios":"levelo://app?vid=85423e3e-4144-454b-a03d-159c22f85bad"},"vehicle_type_id":"4","last_reported":1738915973,"current_range_meters":18800,"station_id":"ce4bgs92rcd13ifvqcc0","pricing_plan_id":"cebpf4jnsgd1na2vs0mg"},{"bike_id":"e539e183-c0f1-49ba-8dd6-c6872560b272","system_id":"levelo_inurba_marseille","lat":43.33601,"lon":5.41014,"is_reserved":false,"is_disabled":false,"rental_uris":{"android":"levelo://app?vid=e539e183-c0f1-49ba-8dd6-c6872560b272","ios":"levelo://app?vid=e539e183-c0f1-49ba-8dd6-c6872560b272"},"vehicle_type_id":"4","last_reported":1738915973,"current_range_meters":38800,"station_id":"ce4bhqh2rcd13ifvqhmg","pricing_plan_id":"cebpf4jnsgd1na2vs0mg"},{"bike_id":"64317173-07fa-458c-b0d3-fc63dd5b24f4","system_id":"levelo_inurba_marseille","lat":43.28353,"lon":5.38103,"is_reserved":false,"is_disabled":false,"rental_uris":{"android":"levelo://app?vid=64317173-07fa-458c-b0d3-fc63dd5b24f4","ios":"levelo://app?vid=64317173-07fa-458c-b0d3-fc63dd5b24f4"},"vehicle_type_id":"4","last_reported":1738915973,"current_range_meters":35600,"station_id":"ce4bh412rcd13ifvqdr0","pricing_plan_id":"cebpf4jnsgd1na2vs0mg"},{"bike_id":"24392016-8a9e-48fb-8327-45890cdb792a","system_id":"levelo_inurba_marseille","lat":43.290141,"lon":5.399394,"is_reserved":false,"is_disabled":false,"rental_uris":{"android":"levelo://app?vid=24392016-8a9e-48fb-8327-45890cdb792a","ios":"levelo://app?vid=24392016-8a9e-48fb-8327-45890cdb792a"},"vehicle_type_id":"4","last_reported":1738915973,"current_range_meters":3200,"station_id":"ce4bh392rcd13ifvqdm0","pricing_plan_id":"cebpf4jnsgd1na2vs0mg"},{"bike_id":"363f89dc-7a31-4716-bf7c-5e8b960f961f","system_id":"levelo_inurba_marseille","lat":43.31084,"lon":5.42436,"is_reserved":false,"is_disabled":false,"rental_uris":{"android":"levelo://app?vid=363f89dc-7a31-4716-bf7c-5e8b960f961f","ios":"levelo://app?vid=363f89dc-7a31-4716-bf7c-5e8b960f961f"},"vehicle_type_id":"4","last_reported":1738915973,"current_range_meters":39200,"station_id":"ce4bhp92rcd13ifvqhag","pricing_plan_id":"cebpf4jnsgd1na2vs0mg"},{"bike_id":"772f2036-1a91-43e3-9f0c-335ec8ae4934","system_id":"levelo_inurba_marseille","lat":43.26193,"lon":5.3745,"is_reserved":false,"is_disabled":false,"rental_uris":{"android":"levelo://app?vid=772f2036-1a91-43e3-9f0c-335ec8ae4934","ios":"levelo://app?vid=772f2036-1a91-43e3-9f0c-335ec8ae4934"},"vehicle_type_id":"4","last_reported":1738915973,"current_range_meters":25200,"station_id":"ce4bhgp2rcd13ifvqfc0","pricing_plan_id":"cebpf4jnsgd1na2vs0mg"},{"bike_id":"830d7107-636e-4156-9051-ab563c81092e","system_id":"levelo_inurba_marseille","lat":43.2706,"lon":5.42291,"is_reserved":false,"is_disabled":false,"rental_uris":{"android":"levelo://app?vid=830d7107-636e-4156-9051-ab563c81092e","ios":"levelo://app?vid=830d7107-636e-4156-9051-ab563c81092e"},"vehicle_type_id":"4","last_reported":1738915973,"current_range_meters":38800,"station_id":"ce4bhk92rcd13ifvqgb0","pricing_plan_id":"cebpf4jnsgd1na2vs0mg"},{"bike_id":"b608ac6d-caea-4a1e-ad39-b306e357721c","system_id":"levelo_inurba_marseille","lat":43.31348,"lon":5.36757,"is_reserved":false,"is_disabled":false,"rental_uris":{"android":"levelo://app?vid=b608ac6d-caea-4a1e-ad39-b306e357721c","ios":"levelo://app?vid=b608ac6d-caea-4a1e-ad39-b306e357721c"},"vehicle_type_id":"4","last_reported":1738915973,"current_range_meters":6400,"station_id":"ce4bgr92rcd13ifvqc6g","pricing_plan_id":"cebpf4jnsgd1na2vs0mg"},{"bike_id":"b8829ab2-1487-4b8c-ae59-08c14afad745","system_id":"levelo_inurba_marseille","lat":43.323634,"lon":5.388856,"is_reserved":false,"is_disabled":false,"rental_uris":{"android":"levelo://app?vid=b8829ab2-1487-4b8c-ae59-08c14afad745","ios":"levelo://app?vid=b8829ab2-1487-4b8c-ae59-08c14afad745"},"vehicle_type_id":"4","last_reported":1738915973,"current_range_meters":20400,"station_id":"ce4bhqp2rcd13ifvqhog","pricing_plan_id":"cebpf4jnsgd1na2vs0mg"},{"bike_id":"6c34a106-2c27-4724-9913-75fff9854dd6","system_id":"levelo_inurba_marseille","lat":43.23964,"lon":5.36628,"is_reserved":false,"is_disabled":false,"rental_uris":{"android":"levelo://app?vid=6c34a106-2c27-4724-9913-75fff9854dd6","ios":"levelo://app?vid=6c34a106-2c27-4724-9913-75fff9854dd6"},"vehicle_type_id":"4","last_reported":1738915973,"current_range_meters":29600,"station_id":"ce4bhi12rcd13ifvqfp0","pricing_plan_id":"cebpf4jnsgd1na2vs0mg"},{"bike_id":"1aafd4aa-ba2a-4c94-bc8a-0a2b42d0be90","system_id":"levelo_inurba_marseille","lat":43.27816,"lon":5.40718,"is_reserved":false,"is_disabled":false,"rental_uris":{"android":"levelo://app?vid=1aafd4aa-ba2a-4c94-bc8a-0a2b42d0be90","ios":"levelo://app?vid=1aafd4aa-ba2a-4c94-bc8a-0a2b42d0be90"},"vehicle_type_id":"4","last_reported":1738915973,"current_range_meters":8800,"station_id":"ce4bhnh2rcd13ifvqgtg","pricing_plan_id":"cebpf4jnsgd1na2vs0mg"},{"bike_id":"99edfd39-ea2c-4152-9a67-579e3aa4a733","system_id":"levelo_inurba_marseille","lat":43.23963,"lon":5.36632,"is_reserved":false,"is_disabled":false,"rental_uris":{"android":"levelo://app?vid=99edfd39-ea2c-4152-9a67-579e3aa4a733","ios":"levelo://app?vid=99edfd39-ea2c-4152-9a67-579e3aa4a733"},"vehicle_type_id":"4","last_reported":1738915973,"current_range_meters":38800,"station_id":"ce4bhi12rcd13ifvqfp0","pricing_plan_id":"cebpf4jnsgd1na2vs0mg"},{"bike_id":"134b7d5f-18cf-4a5f-8b9e-60b9671db7fc","system_id":"levelo_inurba_marseille","lat":43.2979,"lon":5.38101,"is_reserved":false,"is_disabled":false,"rental_uris":{"android":"levelo://app?vid=134b7d5f-18cf-4a5f-8b9e-60b9671db7fc","ios":"levelo://app?vid=134b7d5f-18cf-4a5f-8b9e-60b9671db7fc"},"vehicle_type_id":"4","last_reported":1738915973,"current_range_meters":29600,"station_id":"ce4bgip2rcd13ifvqbb0","pricing_plan_id":"cebpf4jnsgd1na2vs0mg"},{"bike_id":"0c0d27ed-abbf-462e-95c3-0ee9772f2ccc","system_id":"levelo_inurba_marseille","lat":43.29627,"lon":5.40599,"is_reserved":false,"is_disabled":false,"rental_uris":{"android":"levelo://app?vid=0c0d27ed-abbf-462e-95c3-0ee9772f2ccc","ios":"levelo://app?vid=0c0d27ed-abbf-462e-95c3-0ee9772f2ccc"},"vehicle_type_id":"4","last_reported":1738915973,"current_range_meters":37600,"station_id":"ce4bh0h2rcd13ifvqd60","pricing_plan_id":"cebpf4jnsgd1na2vs0mg"},{"bike_id":"8d626e1d-566e-4dba-9b3d-96b5652b7b2d","system_id":"levelo_inurba_marseille","lat":43.3136,"lon":5.38494,"is_reserved":false,"is_disabled":false,"rental_uris":{"android":"levelo://app?vid=8d626e1d-566e-4dba-9b3d-96b5652b7b2d","ios":"levelo://app?vid=8d626e1d-566e-4dba-9b3d-96b5652b7b2d"},"vehicle_type_id":"4","last_reported":1738915973,"current_range_meters":32400,"station_id":"ce4bgt92rcd13ifvqcf0","pricing_plan_id":"cebpf4jnsgd1na2vs0mg"},{"bike_id":"48dd95a1-cb77-40df-8db7-fa70c0505132","system_id":"levelo_inurba_marseille","lat":43.30812,"lon":5.38152,"is_reserved":false,"is_disabled":false,"rental_uris":{"android":"levelo://app?vid=48dd95a1-cb77-40df-8db7-fa70c0505132","ios":"levelo://app?vid=48dd95a1-cb77-40df-8db7-fa70c0505132"},"vehicle_type_id":"4","last_reported":1738915973,"current_range_meters":39200,"station_id":"ce4bgt12rcd13ifvqce0","pricing_plan_id":"cebpf4jnsgd1na2vs0mg"},{"bike_id":"d094da60-0121-4672-b5b0-817285625761","system_id":"levelo_inurba_marseille","lat":43.30142,"lon":5.37433,"is_reserved":false,"is_disabled":false,"rental_uris":{"android":"levelo://app?vid=d094da60-0121-4672-b5b0-817285625761","ios":"levelo://app?vid=d094da60-0121-4672-b5b0-817285625761"},"vehicle_type_id":"4","last_reported":1738915973,"current_range_meters":27200,"station_id":"ce4bgs92rcd13ifvqcc0","pricing_plan_id":"cebpf4jnsgd1na2vs0mg"},{"bike_id":"4ccd7a71-f983-472a-bdc7-c6e21e34264c","system_id":"levelo_inurba_marseille","lat":43.29374,"lon":5.37832,"is_reserved":false,"is_disabled":false,"rental_uris":{"android":"levelo://app?vid=4ccd7a71-f983-472a-bdc7-c6e21e34264c","ios":"levelo://app?vid=4ccd7a71-f983-472a-bdc7-c6e21e34264c"},"vehicle_type_id":"4","last_reported":1738915973,"current_range_meters":36400,"station_id":"ce4bgjh2rcd13ifvqbf0","pricing_plan_id":"cebpf4jnsgd1na2vs0mg"},{"bike_id":"4b44671c-15f3-402b-89fc-7fed4cccabaf","system_id":"levelo_inurba_marseille","lat":43.30275,"lon":5.37707,"is_reserved":false,"is_disabled":false,"rental_uris":{"android":"levelo://app?vid=4b44671c-15f3-402b-89fc-7fed4cccabaf","ios":"levelo://app?vid=4b44671c-15f3-402b-89fc-7fed4cccabaf"},"vehicle_type_id":"4","last_reported":1738915973,"current_range_meters":26800,"station_id":"ce4bguh2rcd13ifvqcj0","pricing_plan_id":"cebpf4jnsgd1na2vs0mg"},{"bike_id":"aabe1f0b-89a1-4652-9d45-ac5bc92d0c24","system_id":"levelo_inurba_marseille","lat":43.30135,"lon":5.37404,"is_reserved":false,"is_disabled":false,"rental_uris":{"android":"levelo://app?vid=aabe1f0b-89a1-4652-9d45-ac5bc92d0c24","ios":"levelo://app?vid=aabe1f0b-89a1-4652-9d45-ac5bc92d0c24"},"vehicle_type_id":"4","last_reported":1738915973,"current_range_meters":8800,"station_id":"ce4bgs92rcd13ifvqcc0","pricing_plan_id":"cebpf4jnsgd1na2vs0mg"},{"bike_id":"e81a4a62-81b7-4479-9c8d-a642c25de152","system_id":"levelo_inurba_marseille","lat":43.31347,"lon":5.36714,"is_reserved":false,"is_disabled":false,"rental_uris":{"android":"levelo://app?vid=e81a4a62-81b7-4479-9c8d-a642c25de152","ios":"levelo://app?vid=e81a4a62-81b7-4479-9c8d-a642c25de152"},"vehicle_type_id":"4","last_reported":1738915973,"current_range_meters":32000,"station_id":"ce4bgr92rcd13ifvqc6g","pricing_plan_id":"cebpf4jnsgd1na2vs0mg"},{"bike_id":"7e33b631-2c72-4ce9-95d9-ad17f00376cb","system_id":"levelo_inurba_marseille","lat":43.3055,"lon":5.36713,"is_reserved":false,"is_disabled":false,"rental_uris":{"android":"levelo://app?vid=7e33b631-2c72-4ce9-95d9-ad17f00376cb","ios":"levelo://app?vid=7e33b631-2c72-4ce9-95d9-ad17f00376cb"},"vehicle_type_id":"4","last_reported":1738915973,"current_range_meters":26000,"station_id":"ce4bgrp2rcd13ifvqc9g","pricing_plan_id":"cebpf4jnsgd1na2vs0mg"},{"bike_id":"73525c1d-a4a8-43be-9032-5138cf9566c3","system_id":"levelo_inurba_marseille","lat":43.23159,"lon":5.43716,"is_reserved":false,"is_disabled":false,"rental_uris":{"android":"levelo://app?vid=73525c1d-a4a8-43be-9032-5138cf9566c3","ios":"levelo://app?vid=73525c1d-a4a8-43be-9032-5138cf9566c3"},"vehicle_type_id":"4","last_reported":1738915973,"current_range_meters":38400,"station_id":"ce4bhmp2rcd13ifvqgog","pricing_plan_id":"cebpf4jnsgd1na2vs0mg"},{"bike_id":"db322422-c517-446e-a70d-da6e38f4bd2f","system_id":"levelo_inurba_marseille","lat":43.24176,"lon":5.39736,"is_reserved":false,"is_disabled":false,"rental_uris":{"android":"levelo://app?vid=db322422-c517-446e-a70d-da6e38f4bd2f","ios":"levelo://app?vid=db322422-c517-446e-a70d-da6e38f4bd2f"},"vehicle_type_id":"4","last_reported":1738915973,"current_range_meters":30400,"station_id":"ce4bhn12rcd13ifvqgpg","pricing_plan_id":"cebpf4jnsgd1na2vs0mg"},{"bike_id":"30756525-4dc6-4b98-be38-af7c3a5a3250","system_id":"levelo_inurba_marseille","lat":43.290414,"lon":5.399622,"is_reserved":false,"is_disabled":false,"rental_uris":{"android":"levelo://app?vid=30756525-4dc6-4b98-be38-af7c3a5a3250","ios":"levelo://app?vid=30756525-4dc6-4b98-be38-af7c3a5a3250"},"vehicle_type_id":"4","last_reported":1738915973,"current_range_meters":6800,"station_id":"ce4bh392rcd13ifvqdm0","pricing_plan_id":"cebpf4jnsgd1na2vs0mg"},{"bike_id":"6ae9536b-b876-4434-afdc-d08881b5e652","system_id":"levelo_inurba_marseille","lat":43.287107,"lon":5.40001,"is_reserved":false,"is_disabled":false,"rental_uris":{"android":"levelo://app?vid=6ae9536b-b876-4434-afdc-d08881b5e652","ios":"levelo://app?vid=6ae9536b-b876-4434-afdc-d08881b5e652"},"vehicle_type_id":"4","last_reported":1738915973,"current_range_meters":17200,"station_id":"ce4bho92rcd13ifvqh3g","pricing_plan_id":"cebpf4jnsgd1na2vs0mg"},{"bike_id":"f67b7531-6c63-4f46-a9d4-4fdf588facb0","system_id":"levelo_inurba_marseille","lat":43.27868,"lon":5.40642,"is_reserved":false,"is_disabled":true,"rental_uris":{"android":"levelo://app?vid=f67b7531-6c63-4f46-a9d4-4fdf588facb0","ios":"levelo://app?vid=f67b7531-6c63-4f46-a9d4-4fdf588facb0"},"vehicle_type_id":"4","last_reported":1738915973,"current_range_meters":800,"station_id":"","pricing_plan_id":"cebpf4jnsgd1na2vs0mg"},{"bike_id":"d9eff926-2d4a-417c-9178-221575c14456","system_id":"levelo_inurba_marseille","lat":43.23154,"lon":5.43709,"is_reserved":false,"is_disabled":false,"rental_uris":{"android":"levelo://app?vid=d9eff926-2d4a-417c-9178-221575c14456","ios":"levelo://app?vid=d9eff926-2d4a-417c-9178-221575c14456"},"vehicle_type_id":"4","last_reported":1738915973,"current_range_meters":27600,"station_id":"ce4bhmp2rcd13ifvqgog","pricing_plan_id":"cebpf4jnsgd1na2vs0mg"},{"bike_id":"ccc0d99a-4f06-4847-88ea-bfbf26a9a708","system_id":"levelo_inurba_marseille","lat":43.27363,"lon":5.36241,"is_reserved":false,"is_disabled":false,"rental_uris":{"android":"levelo://app?vid=ccc0d99a-4f06-4847-88ea-bfbf26a9a708","ios":"levelo://app?vid=ccc0d99a-4f06-4847-88ea-bfbf26a9a708"},"vehicle_type_id":"4","last_reported":1738915973,"current_range_meters":38800,"station_id":"ce4bhbh2rcd13ifvqeo0","pricing_plan_id":"cebpf4jnsgd1na2vs0mg"},{"bike_id":"eb334662-88cc-4ee0-9692-5c72e540acea","system_id":"levelo_inurba_marseille","lat":43.30472,"lon":5.37917,"is_reserved":false,"is_disabled":false,"rental_uris":{"android":"levelo://app?vid=eb334662-88cc-4ee0-9692-5c72e540acea","ios":"levelo://app?vid=eb334662-88cc-4ee0-9692-5c72e540acea"},"vehicle_type_id":"4","last_reported":1738915973,"current_range_meters":6000,"station_id":"ce4bgup2rcd13ifvqcn0","pricing_plan_id":"cebpf4jnsgd1na2vs0mg"},{"bike_id":"d90800d2-0b28-4666-b04d-68e5f6c3e9ab","system_id":"levelo_inurba_marseille","lat":43.23191,"lon":5.39988,"is_reserved":false,"is_disabled":false,"rental_uris":{"android":"levelo://app?vid=d90800d2-0b28-4666-b04d-68e5f6c3e9ab","ios":"levelo://app?vid=d90800d2-0b28-4666-b04d-68e5f6c3e9ab"},"vehicle_type_id":"4","last_reported":1738915973,"current_range_meters":37600,"station_id":"ce4bhn12rcd13ifvqgqg","pricing_plan_id":"cebpf4jnsgd1na2vs0mg"},{"bike_id":"6cc68393-2968-48f2-be7a-592b2c199f01","system_id":"levelo_inurba_marseille","lat":43.29039,"lon":5.39963,"is_reserved":false,"is_disabled":false,"rental_uris":{"android":"levelo://app?vid=6cc68393-2968-48f2-be7a-592b2c199f01","ios":"levelo://app?vid=6cc68393-2968-48f2-be7a-592b2c199f01"},"vehicle_type_id":"4","last_reported":1738915973,"current_range_meters":17200,"station_id":"ce4bh392rcd13ifvqdm0","pricing_plan_id":"cebpf4jnsgd1na2vs0mg"},{"bike_id":"530d3cae-aa9a-4844-8494-c6334be27ce7","system_id":"levelo_inurba_marseille","lat":43.24175,"lon":5.39729,"is_reserved":false,"is_disabled":false,"rental_uris":{"android":"levelo://app?vid=530d3cae-aa9a-4844-8494-c6334be27ce7","ios":"levelo://app?vid=530d3cae-aa9a-4844-8494-c6334be27ce7"},"vehicle_type_id":"4","last_reported":1738915973,"current_range_meters":38800,"station_id":"ce4bhn12rcd13ifvqgpg","pricing_plan_id":"cebpf4jnsgd1na2vs0mg"},{"bike_id":"55c531ba-cb99-413a-81f9-84f3b3d5979e","system_id":"levelo_inurba_marseille","lat":43.22937,"lon":5.3542,"is_reserved":false,"is_disabled":false,"rental_uris":{"android":"levelo://app?vid=55c531ba-cb99-413a-81f9-84f3b3d5979e","ios":"levelo://app?vid=55c531ba-cb99-413a-81f9-84f3b3d5979e"},"vehicle_type_id":"4","last_reported":1738915973,"current_range_meters":26000,"station_id":"cpo3532slgdg3j2ikp40","pricing_plan_id":"cebpf4jnsgd1na2vs0mg"},{"bike_id":"87f30560-634c-49d8-ba85-e93929718657","system_id":"levelo_inurba_marseille","lat":43.31111,"lon":5.37786,"is_reserved":false,"is_disabled":true,"rental_uris":{"android":"levelo://app?vid=87f30560-634c-49d8-ba85-e93929718657","ios":"levelo://app?vid=87f30560-634c-49d8-ba85-e93929718657"},"vehicle_type_id":"4","last_reported":1738915973,"current_range_meters":38800,"station_id":"ce4bgt92rcd13ifvqcg0","pricing_plan_id":"cebpf4jnsgd1na2vs0mg"},{"bike_id":"4d6c931f-72da-462d-8d3e-100511fce5c7","system_id":"levelo_inurba_marseille","lat":43.30942,"lon":5.37812,"is_reserved":false,"is_disabled":false,"rental_uris":{"android":"levelo://app?vid=4d6c931f-72da-462d-8d3e-100511fce5c7","ios":"levelo://app?vid=4d6c931f-72da-462d-8d3e-100511fce5c7"},"vehicle_type_id":"4","last_reported":1738915973,"current_range_meters":8000,"station_id":"","pricing_plan_id":"cebpf4jnsgd1na2vs0mg"},{"bike_id":"5ad540a3-b781-4f0b-9a54-34c9f470ae38","system_id":"levelo_inurba_marseille","lat":43.24072,"lon":5.37767,"is_reserved":false,"is_disabled":false,"rental_uris":{"android":"levelo://app?vid=5ad540a3-b781-4f0b-9a54-34c9f470ae38","ios":"levelo://app?vid=5ad540a3-b781-4f0b-9a54-34c9f470ae38"},"vehicle_type_id":"4","last_reported":1738915973,"current_range_meters":35200,"station_id":"ce4bhnp2rcd13ifvqgvg","pricing_plan_id":"cebpf4jnsgd1na2vs0mg"},{"bike_id":"3b6fc1a1-1e64-4698-a113-588a2563418f","system_id":"levelo_inurba_marseille","lat":43.28029,"lon":5.36949,"is_reserved":false,"is_disabled":false,"rental_uris":{"android":"levelo://app?vid=3b6fc1a1-1e64-4698-a113-588a2563418f","ios":"levelo://app?vid=3b6fc1a1-1e64-4698-a113-588a2563418f"},"vehicle_type_id":"4","last_reported":1738915973,"current_range_meters":38800,"station_id":"ce4bha12rcd13ifvqef0","pricing_plan_id":"cebpf4jnsgd1na2vs0mg"},{"bike_id":"42b00d6b-70d0-4750-bdd2-377deb18497e","system_id":"levelo_inurba_marseille","lat":43.229304,"lon":5.353866,"is_reserved":false,"is_disabled":false,"rental_uris":{"android":"levelo://app?vid=42b00d6b-70d0-4750-bdd2-377deb18497e","ios":"levelo://app?vid=42b00d6b-70d0-4750-bdd2-377deb18497e"},"vehicle_type_id":"4","last_reported":1738915973,"current_range_meters":28400,"station_id":"cpo3532slgdg3j2ikp40","pricing_plan_id":"cebpf4jnsgd1na2vs0mg"},{"bike_id":"339a4f18-78ea-4e7f-a4c8-410d2cd87ef8","system_id":"levelo_inurba_marseille","lat":43.27671,"lon":5.38898,"is_reserved":false,"is_disabled":true,"rental_uris":{"android":"levelo://app?vid=339a4f18-78ea-4e7f-a4c8-410d2cd87ef8","ios":"levelo://app?vid=339a4f18-78ea-4e7f-a4c8-410d2cd87ef8"},"vehicle_type_id":"4","last_reported":1738915973,"current_range_meters":29600,"station_id":"ce4bhi12rcd13ifvqfo0","pricing_plan_id":"cebpf4jnsgd1na2vs0mg"},{"bike_id":"e0dd7050-657b-435d-8e69-83dc339c6c06","system_id":"levelo_inurba_marseille","lat":43.281493,"lon":5.42657,"is_reserved":false,"is_disabled":false,"rental_uris":{"android":"levelo://app?vid=e0dd7050-657b-435d-8e69-83dc339c6c06","ios":"levelo://app?vid=e0dd7050-657b-435d-8e69-83dc339c6c06"},"vehicle_type_id":"4","last_reported":1738915973,"current_range_meters":25200,"station_id":"ce4bhnh2rcd13ifvqgug","pricing_plan_id":"cebpf4jnsgd1na2vs0mg"},{"bike_id":"f1bbac45-5b32-4b97-b4ef-d7ee065546b1","system_id":"levelo_inurba_marseille","lat":43.26024,"lon":5.37562,"is_reserved":false,"is_disabled":false,"rental_uris":{"android":"levelo://app?vid=f1bbac45-5b32-4b97-b4ef-d7ee065546b1","ios":"levelo://app?vid=f1bbac45-5b32-4b97-b4ef-d7ee065546b1"},"vehicle_type_id":"4","last_reported":1738915973,"current_range_meters":38000,"station_id":"ce4bhgh2rcd13ifvqfa0","pricing_plan_id":"cebpf4jnsgd1na2vs0mg"},{"bike_id":"bfddda29-c6a5-427f-9426-0af31d6793a1","system_id":"levelo_inurba_marseille","lat":43.26491,"lon":5.39571,"is_reserved":false,"is_disabled":false,"rental_uris":{"android":"levelo://app?vid=bfddda29-c6a5-427f-9426-0af31d6793a1","ios":"levelo://app?vid=bfddda29-c6a5-427f-9426-0af31d6793a1"},"vehicle_type_id":"4","last_reported":1738915973,"current_range_meters":38800,"station_id":"ce4bhi12rcd13ifvqfq0","pricing_plan_id":"cebpf4jnsgd1na2vs0mg"},{"bike_id":"5eb997aa-ba06-470a-b7fd-cd40e9642b35","system_id":"levelo_inurba_marseille","lat":43.23189,"lon":5.39991,"is_reserved":false,"is_disabled":false,"rental_uris":{"android":"levelo://app?vid=5eb997aa-ba06-470a-b7fd-cd40e9642b35","ios":"levelo://app?vid=5eb997aa-ba06-470a-b7fd-cd40e9642b35"},"vehicle_type_id":"4","last_reported":1738915973,"current_range_meters":38400,"station_id":"ce4bhn12rcd13ifvqgqg","pricing_plan_id":"cebpf4jnsgd1na2vs0mg"},{"bike_id":"74e03b58-092f-49df-8d5a-96d67891a646","system_id":"levelo_inurba_marseille","lat":43.29048,"lon":5.39965,"is_reserved":false,"is_disabled":false,"rental_uris":{"android":"levelo://app?vid=74e03b58-092f-49df-8d5a-96d67891a646","ios":"levelo://app?vid=74e03b58-092f-49df-8d5a-96d67891a646"},"vehicle_type_id":"4","last_reported":1738915973,"current_range_meters":20000,"station_id":"ce4bh392rcd13ifvqdm0","pricing_plan_id":"cebpf4jnsgd1na2vs0mg"},{"bike_id":"c6fc4b4a-5347-4905-8d96-67ea4d004656","system_id":"levelo_inurba_marseille","lat":43.23195,"lon":5.35571,"is_reserved":false,"is_disabled":false,"rental_uris":{"android":"levelo://app?vid=c6fc4b4a-5347-4905-8d96-67ea4d004656","ios":"levelo://app?vid=c6fc4b4a-5347-4905-8d96-67ea4d004656"},"vehicle_type_id":"4","last_reported":1738915973,"current_range_meters":11600,"station_id":"ce4bhu92rcd13ifvqi70","pricing_plan_id":"cebpf4jnsgd1na2vs0mg"},{"bike_id":"1da8b17b-ad28-4780-a711-431647c244ed","system_id":"levelo_inurba_marseille","lat":43.23957,"lon":5.366281,"is_reserved":false,"is_disabled":false,"rental_uris":{"android":"levelo://app?vid=1da8b17b-ad28-4780-a711-431647c244ed","ios":"levelo://app?vid=1da8b17b-ad28-4780-a711-431647c244ed"},"vehicle_type_id":"4","last_reported":1738915973,"current_range_meters":28800,"station_id":"ce4bhi12rcd13ifvqfp0","pricing_plan_id":"cebpf4jnsgd1na2vs0mg"},{"bike_id":"d0ecee38-6bfe-4129-8c37-08ec31b87aff","system_id":"levelo_inurba_marseille","lat":43.29032,"lon":5.39993,"is_reserved":false,"is_disabled":false,"rental_uris":{"android":"levelo://app?vid=d0ecee38-6bfe-4129-8c37-08ec31b87aff","ios":"levelo://app?vid=d0ecee38-6bfe-4129-8c37-08ec31b87aff"},"vehicle_type_id":"4","last_reported":1738915973,"current_range_meters":13600,"station_id":"ce4bh392rcd13ifvqdm0","pricing_plan_id":"cebpf4jnsgd1na2vs0mg"},{"bike_id":"54630ec0-92ce-4c84-ba54-45269fbd607e","system_id":"levelo_inurba_marseille","lat":43.30356,"lon":5.41876,"is_reserved":false,"is_disabled":false,"rental_uris":{"android":"levelo://app?vid=54630ec0-92ce-4c84-ba54-45269fbd607e","ios":"levelo://app?vid=54630ec0-92ce-4c84-ba54-45269fbd607e"},"vehicle_type_id":"4","last_reported":1738915973,"current_range_meters":38800,"station_id":"ce4bhop2rcd13ifvqh7g","pricing_plan_id":"cebpf4jnsgd1na2vs0mg"},{"bike_id":"1760277b-3e55-4dea-a20c-4b62fbffeda3","system_id":"levelo_inurba_marseille","lat":43.24389,"lon":5.37062,"is_reserved":false,"is_disabled":false,"rental_uris":{"android":"levelo://app?vid=1760277b-3e55-4dea-a20c-4b62fbffeda3","ios":"levelo://app?vid=1760277b-3e55-4dea-a20c-4b62fbffeda3"},"vehicle_type_id":"4","last_reported":1738915973,"current_range_meters":36800,"station_id":"ce4bhhh2rcd13ifvqfk0","pricing_plan_id":"cebpf4jnsgd1na2vs0mg"},{"bike_id":"f951176f-0b25-49e1-b6cb-8147ffeb7fe1","system_id":"levelo_inurba_marseille","lat":43.251119,"lon":5.403144,"is_reserved":false,"is_disabled":false,"rental_uris":{"android":"levelo://app?vid=f951176f-0b25-49e1-b6cb-8147ffeb7fe1","ios":"levelo://app?vid=f951176f-0b25-49e1-b6cb-8147ffeb7fe1"},"vehicle_type_id":"4","last_reported":1738915973,"current_range_meters":9600,"station_id":"ce4bhlh2rcd13ifvqgig","pricing_plan_id":"cebpf4jnsgd1na2vs0mg"},{"bike_id":"b49e677c-3e48-4e1d-86b1-fa17f0e39ea8","system_id":"levelo_inurba_marseille","lat":43.26208,"lon":5.37444,"is_reserved":false,"is_disabled":false,"rental_uris":{"android":"levelo://app?vid=b49e677c-3e48-4e1d-86b1-fa17f0e39ea8","ios":"levelo://app?vid=b49e677c-3e48-4e1d-86b1-fa17f0e39ea8"},"vehicle_type_id":"4","last_reported":1738915973,"current_range_meters":36000,"station_id":"ce4bhgp2rcd13ifvqfc0","pricing_plan_id":"cebpf4jnsgd1na2vs0mg"},{"bike_id":"e408d721-1719-4f3b-bfb2-ee76b97560c7","system_id":"levelo_inurba_marseille","lat":43.24643,"lon":5.38897,"is_reserved":false,"is_disabled":true,"rental_uris":{"android":"levelo://app?vid=e408d721-1719-4f3b-bfb2-ee76b97560c7","ios":"levelo://app?vid=e408d721-1719-4f3b-bfb2-ee76b97560c7"},"vehicle_type_id":"4","last_reported":1738915973,"current_range_meters":38800,"station_id":"ce4bhg12rcd13ifvqf60","pricing_plan_id":"cebpf4jnsgd1na2vs0mg"},{"bike_id":"943eb673-c399-4501-9459-4e2f171a7665","system_id":"levelo_inurba_marseille","lat":43.30171,"lon":5.38084,"is_reserved":false,"is_disabled":false,"rental_uris":{"android":"levelo://app?vid=943eb673-c399-4501-9459-4e2f171a7665","ios":"levelo://app?vid=943eb673-c399-4501-9459-4e2f171a7665"},"vehicle_type_id":"4","last_reported":1738915973,"current_range_meters":39200,"station_id":"ce4bgjp2rcd13ifvqbh0","pricing_plan_id":"cebpf4jnsgd1na2vs0mg"},{"bike_id":"a7e2494c-4fcf-45ec-9d7e-c2e2256264e9","system_id":"levelo_inurba_marseille","lat":43.32538,"lon":5.41421,"is_reserved":false,"is_disabled":false,"rental_uris":{"android":"levelo://app?vid=a7e2494c-4fcf-45ec-9d7e-c2e2256264e9","ios":"levelo://app?vid=a7e2494c-4fcf-45ec-9d7e-c2e2256264e9"},"vehicle_type_id":"4","last_reported":1738915973,"current_range_meters":4000,"station_id":"ce4bhq12rcd13ifvqhhg","pricing_plan_id":"cebpf4jnsgd1na2vs0mg"},{"bike_id":"2b671ea3-0fd8-49ca-add6-64b6d7709dd0","system_id":"levelo_inurba_marseille","lat":43.31308,"lon":5.38535,"is_reserved":false,"is_disabled":false,"rental_uris":{"android":"levelo://app?vid=2b671ea3-0fd8-49ca-add6-64b6d7709dd0","ios":"levelo://app?vid=2b671ea3-0fd8-49ca-add6-64b6d7709dd0"},"vehicle_type_id":"4","last_reported":1738915973,"current_range_meters":4800,"station_id":"","pricing_plan_id":"cebpf4jnsgd1na2vs0mg"},{"bike_id":"d2243453-0fdd-44e2-b094-902ca8b1c6d1","system_id":"levelo_inurba_marseille","lat":43.27708,"lon":5.3892,"is_reserved":false,"is_disabled":false,"rental_uris":{"android":"levelo://app?vid=d2243453-0fdd-44e2-b094-902ca8b1c6d1","ios":"levelo://app?vid=d2243453-0fdd-44e2-b094-902ca8b1c6d1"},"vehicle_type_id":"4","last_reported":1738915973,"current_range_meters":39200,"station_id":"ce4bhi12rcd13ifvqfo0","pricing_plan_id":"cebpf4jnsgd1na2vs0mg"},{"bike_id":"4ec91a03-0b7a-4541-ae67-818a8ad7927e","system_id":"levelo_inurba_marseille","lat":43.29979,"lon":5.38477,"is_reserved":false,"is_disabled":false,"rental_uris":{"android":"levelo://app?vid=4ec91a03-0b7a-4541-ae67-818a8ad7927e","ios":"levelo://app?vid=4ec91a03-0b7a-4541-ae67-818a8ad7927e"},"vehicle_type_id":"4","last_reported":1738915973,"current_range_meters":38800,"station_id":"ce4bgj92rcd13ifvqbd0","pricing_plan_id":"cebpf4jnsgd1na2vs0mg"},{"bike_id":"08ffa993-1e19-448c-8dd1-1a3f14f07887","system_id":"levelo_inurba_marseille","lat":43.33018,"lon":5.39043,"is_reserved":false,"is_disabled":false,"rental_uris":{"android":"levelo://app?vid=08ffa993-1e19-448c-8dd1-1a3f14f07887","ios":"levelo://app?vid=08ffa993-1e19-448c-8dd1-1a3f14f07887"},"vehicle_type_id":"4","last_reported":1738915973,"current_range_meters":38400,"station_id":"ce4bhr92rcd13ifvqhrg","pricing_plan_id":"cebpf4jnsgd1na2vs0mg"},{"bike_id":"29b89577-5ba4-4a1c-a2ad-cff10e490f1a","system_id":"levelo_inurba_marseille","lat":43.24076,"lon":5.37747,"is_reserved":false,"is_disabled":false,"rental_uris":{"android":"levelo://app?vid=29b89577-5ba4-4a1c-a2ad-cff10e490f1a","ios":"levelo://app?vid=29b89577-5ba4-4a1c-a2ad-cff10e490f1a"},"vehicle_type_id":"4","last_reported":1738915973,"current_range_meters":20800,"station_id":"ce4bhnp2rcd13ifvqgvg","pricing_plan_id":"cebpf4jnsgd1na2vs0mg"},{"bike_id":"cfc6d84c-2030-49fa-bd57-83b6275518c2","system_id":"levelo_inurba_marseille","lat":43.24079,"lon":5.37752,"is_reserved":false,"is_disabled":false,"rental_uris":{"android":"levelo://app?vid=cfc6d84c-2030-49fa-bd57-83b6275518c2","ios":"levelo://app?vid=cfc6d84c-2030-49fa-bd57-83b6275518c2"},"vehicle_type_id":"4","last_reported":1738915973,"current_range_meters":17200,"station_id":"ce4bhnp2rcd13ifvqgvg","pricing_plan_id":"cebpf4jnsgd1na2vs0mg"},{"bike_id":"4a11aa7a-530e-4944-adf6-ac0beb92c9f5","system_id":"levelo_inurba_marseille","lat":43.3011,"lon":5.39851,"is_reserved":false,"is_disabled":false,"rental_uris":{"android":"levelo://app?vid=4a11aa7a-530e-4944-adf6-ac0beb92c9f5","ios":"levelo://app?vid=4a11aa7a-530e-4944-adf6-ac0beb92c9f5"},"vehicle_type_id":"4","last_reported":1738915973,"current_range_meters":27600,"station_id":"ce4bh0h2rcd13ifvqd40","pricing_plan_id":"cebpf4jnsgd1na2vs0mg"},{"bike_id":"6964e144-0c20-439f-8e52-e9a10a7db7cf","system_id":"levelo_inurba_marseille","lat":43.30275,"lon":5.37722,"is_reserved":false,"is_disabled":false,"rental_uris":{"android":"levelo://app?vid=6964e144-0c20-439f-8e52-e9a10a7db7cf","ios":"levelo://app?vid=6964e144-0c20-439f-8e52-e9a10a7db7cf"},"vehicle_type_id":"4","last_reported":1738915973,"current_range_meters":32400,"station_id":"ce4bguh2rcd13ifvqcj0","pricing_plan_id":"cebpf4jnsgd1na2vs0mg"},{"bike_id":"0bc38e38-92c3-4ed1-b28d-79cb5f04f246","system_id":"levelo_inurba_marseille","lat":43.26682,"lon":5.38273,"is_reserved":false,"is_disabled":false,"rental_uris":{"android":"levelo://app?vid=0bc38e38-92c3-4ed1-b28d-79cb5f04f246","ios":"levelo://app?vid=0bc38e38-92c3-4ed1-b28d-79cb5f04f246"},"vehicle_type_id":"4","last_reported":1738915973,"current_range_meters":29600,"station_id":"ce4bhg92rcd13ifvqf90","pricing_plan_id":"cebpf4jnsgd1na2vs0mg"},{"bike_id":"da10d3b6-6e7d-4a1f-958a-0b25eceb1fc4","system_id":"levelo_inurba_marseille","lat":43.33016,"lon":5.39043,"is_reserved":false,"is_disabled":false,"rental_uris":{"android":"levelo://app?vid=da10d3b6-6e7d-4a1f-958a-0b25eceb1fc4","ios":"levelo://app?vid=da10d3b6-6e7d-4a1f-958a-0b25eceb1fc4"},"vehicle_type_id":"4","last_reported":1738915973,"current_range_meters":38800,"station_id":"ce4bhr92rcd13ifvqhrg","pricing_plan_id":"cebpf4jnsgd1na2vs0mg"},{"bike_id":"bfc38b46-153a-44ce-99e3-211465e11907","system_id":"levelo_inurba_marseille","lat":43.31343,"lon":5.36722,"is_reserved":false,"is_disabled":false,"rental_uris":{"android":"levelo://app?vid=bfc38b46-153a-44ce-99e3-211465e11907","ios":"levelo://app?vid=bfc38b46-153a-44ce-99e3-211465e11907"},"vehicle_type_id":"4","last_reported":1738915973,"current_range_meters":36400,"station_id":"ce4bgr92rcd13ifvqc6g","pricing_plan_id":"cebpf4jnsgd1na2vs0mg"},{"bike_id":"ff367720-d345-4894-b2da-040da08574ca","system_id":"levelo_inurba_marseille","lat":43.30533,"lon":5.36721,"is_reserved":false,"is_disabled":false,"rental_uris":{"android":"levelo://app?vid=ff367720-d345-4894-b2da-040da08574ca","ios":"levelo://app?vid=ff367720-d345-4894-b2da-040da08574ca"},"vehicle_type_id":"4","last_reported":1738915973,"current_range_meters":16800,"station_id":"ce4bgrp2rcd13ifvqc9g","pricing_plan_id":"cebpf4jnsgd1na2vs0mg"},{"bike_id":"c509343b-62b9-4ef6-832f-e5765a857aaf","system_id":"levelo_inurba_marseille","lat":43.31266,"lon":5.36827,"is_reserved":false,"is_disabled":false,"rental_uris":{"android":"levelo://app?vid=c509343b-62b9-4ef6-832f-e5765a857aaf","ios":"levelo://app?vid=c509343b-62b9-4ef6-832f-e5765a857aaf"},"vehicle_type_id":"4","last_reported":1738915973,"current_range_meters":30000,"station_id":"","pricing_plan_id":"cebpf4jnsgd1na2vs0mg"},{"bike_id":"f6e36dd0-6e67-421a-9873-e68da406d5dc","system_id":"levelo_inurba_marseille","lat":43.27834,"lon":5.39209,"is_reserved":false,"is_disabled":false,"rental_uris":{"android":"levelo://app?vid=f6e36dd0-6e67-421a-9873-e68da406d5dc","ios":"levelo://app?vid=f6e36dd0-6e67-421a-9873-e68da406d5dc"},"vehicle_type_id":"4","last_reported":1738915973,"current_range_meters":38400,"station_id":"ce4bhjp2rcd13ifvqga0","pricing_plan_id":"cebpf4jnsgd1na2vs0mg"},{"bike_id":"664962be-acc7-4677-844a-5178817526eb","system_id":"levelo_inurba_marseille","lat":43.34146,"lon":5.40898,"is_reserved":false,"is_disabled":false,"rental_uris":{"android":"levelo://app?vid=664962be-acc7-4677-844a-5178817526eb","ios":"levelo://app?vid=664962be-acc7-4677-844a-5178817526eb"},"vehicle_type_id":"4","last_reported":1738915973,"current_range_meters":26000,"station_id":"ce4bhqh2rcd13ifvqhlg","pricing_plan_id":"cebpf4jnsgd1na2vs0mg"},{"bike_id":"9c0ce03a-5b91-4a8b-a474-9dd4d17d8d50","system_id":"levelo_inurba_marseille","lat":43.26563,"lon":5.39029,"is_reserved":false,"is_disabled":true,"rental_uris":{"android":"levelo://app?vid=9c0ce03a-5b91-4a8b-a474-9dd4d17d8d50","ios":"levelo://app?vid=9c0ce03a-5b91-4a8b-a474-9dd4d17d8d50"},"vehicle_type_id":"4","last_reported":1738915973,"current_range_meters":18800,"station_id":"ce4bhe12rcd13ifvqf30","pricing_plan_id":"cebpf4jnsgd1na2vs0mg"},{"bike_id":"0fc2b2ac-22e8-4906-aedc-cd11dcfd1df7","system_id":"levelo_inurba_marseille","lat":43.27484,"lon":5.42462,"is_reserved":false,"is_disabled":false,"rental_uris":{"android":"levelo://app?vid=0fc2b2ac-22e8-4906-aedc-cd11dcfd1df7","ios":"levelo://app?vid=0fc2b2ac-22e8-4906-aedc-cd11dcfd1df7"},"vehicle_type_id":"4","last_reported":1738915973,"current_range_meters":33200,"station_id":"ce4bhn92rcd13ifvqgrg","pricing_plan_id":"cebpf4jnsgd1na2vs0mg"},{"bike_id":"d24de62b-f43d-4ee9-8636-eae3f9e1d596","system_id":"levelo_inurba_marseille","lat":43.271814,"lon":5.409978,"is_reserved":false,"is_disabled":false,"rental_uris":{"android":"levelo://app?vid=d24de62b-f43d-4ee9-8636-eae3f9e1d596","ios":"levelo://app?vid=d24de62b-f43d-4ee9-8636-eae3f9e1d596"},"vehicle_type_id":"4","last_reported":1738915973,"current_range_meters":33600,"station_id":"ce4bhl12rcd13ifvqgf0","pricing_plan_id":"cebpf4jnsgd1na2vs0mg"},{"bike_id":"b0b2e4a5-cf7b-4a0d-bb9f-3bd141029616","system_id":"levelo_inurba_marseille","lat":43.309,"lon":5.37208,"is_reserved":false,"is_disabled":false,"rental_uris":{"android":"levelo://app?vid=b0b2e4a5-cf7b-4a0d-bb9f-3bd141029616","ios":"levelo://app?vid=b0b2e4a5-cf7b-4a0d-bb9f-3bd141029616"},"vehicle_type_id":"4","last_reported":1738915973,"current_range_meters":38800,"station_id":"ce4bguh2rcd13ifvqckg","pricing_plan_id":"cebpf4jnsgd1na2vs0mg"},{"bike_id":"2849b7f6-52af-4ac8-9db1-b17b0910ec1a","system_id":"levelo_inurba_marseille","lat":43.27837,"lon":5.39219,"is_reserved":false,"is_disabled":false,"rental_uris":{"android":"levelo://app?vid=2849b7f6-52af-4ac8-9db1-b17b0910ec1a","ios":"levelo://app?vid=2849b7f6-52af-4ac8-9db1-b17b0910ec1a"},"vehicle_type_id":"4","last_reported":1738915973,"current_range_meters":34000,"station_id":"ce4bhjp2rcd13ifvqga0","pricing_plan_id":"cebpf4jnsgd1na2vs0mg"},{"bike_id":"71b303fc-7207-42a2-965f-796bb2557c58","system_id":"levelo_inurba_marseille","lat":43.30606,"lon":5.37227,"is_reserved":false,"is_disabled":false,"rental_uris":{"android":"levelo://app?vid=71b303fc-7207-42a2-965f-796bb2557c58","ios":"levelo://app?vid=71b303fc-7207-42a2-965f-796bb2557c58"},"vehicle_type_id":"4","last_reported":1738915973,"current_range_meters":19200,"station_id":"ce4bgqh2rcd13ifvqc4g","pricing_plan_id":"cebpf4jnsgd1na2vs0mg"},{"bike_id":"775e7c57-7e2a-41a4-bb53-8e81069898dc","system_id":"levelo_inurba_marseille","lat":43.25569,"lon":5.38248,"is_reserved":false,"is_disabled":false,"rental_uris":{"android":"levelo://app?vid=775e7c57-7e2a-41a4-bb53-8e81069898dc","ios":"levelo://app?vid=775e7c57-7e2a-41a4-bb53-8e81069898dc"},"vehicle_type_id":"4","last_reported":1738915973,"current_range_meters":4800,"station_id":"ce4bhih2rcd13ifvqfs0","pricing_plan_id":"cebpf4jnsgd1na2vs0mg"},{"bike_id":"b7797d4f-31f2-436c-a839-e5bb000de077","system_id":"levelo_inurba_marseille","lat":43.31111,"lon":5.3778,"is_reserved":false,"is_disabled":false,"rental_uris":{"android":"levelo://app?vid=b7797d4f-31f2-436c-a839-e5bb000de077","ios":"levelo://app?vid=b7797d4f-31f2-436c-a839-e5bb000de077"},"vehicle_type_id":"4","last_reported":1738915973,"current_range_meters":5600,"station_id":"ce4bgt92rcd13ifvqcg0","pricing_plan_id":"cebpf4jnsgd1na2vs0mg"},{"bike_id":"e5303a04-91c7-4fb5-8a8d-548491569627","system_id":"levelo_inurba_marseille","lat":43.28721,"lon":5.37945,"is_reserved":false,"is_disabled":false,"rental_uris":{"android":"levelo://app?vid=e5303a04-91c7-4fb5-8a8d-548491569627","ios":"levelo://app?vid=e5303a04-91c7-4fb5-8a8d-548491569627"},"vehicle_type_id":"4","last_reported":1738915973,"current_range_meters":31200,"station_id":"ce4bh9p2rcd13ifvqec0","pricing_plan_id":"cebpf4jnsgd1na2vs0mg"},{"bike_id":"a8120dd7-dd72-41ed-b9ed-3da276a92a20","system_id":"levelo_inurba_marseille","lat":43.31698,"lon":5.40463,"is_reserved":false,"is_disabled":false,"rental_uris":{"android":"levelo://app?vid=a8120dd7-dd72-41ed-b9ed-3da276a92a20","ios":"levelo://app?vid=a8120dd7-dd72-41ed-b9ed-3da276a92a20"},"vehicle_type_id":"4","last_reported":1738915973,"current_range_meters":39200,"station_id":"ce4bh012rcd13ifvqd00","pricing_plan_id":"cebpf4jnsgd1na2vs0mg"},{"bike_id":"c5a15e5c-d630-4830-9fdb-1d7095bb44fa","system_id":"levelo_inurba_marseille","lat":43.30582,"lon":5.39375,"is_reserved":false,"is_disabled":false,"rental_uris":{"android":"levelo://app?vid=c5a15e5c-d630-4830-9fdb-1d7095bb44fa","ios":"levelo://app?vid=c5a15e5c-d630-4830-9fdb-1d7095bb44fa"},"vehicle_type_id":"4","last_reported":1738915973,"current_range_meters":20400,"station_id":"ce4bh0p2rcd13ifvqd80","pricing_plan_id":"cebpf4jnsgd1na2vs0mg"},{"bike_id":"70680240-c0ce-4c00-ba26-bfa78895a67c","system_id":"levelo_inurba_marseille","lat":43.28611,"lon":5.37105,"is_reserved":false,"is_disabled":true,"rental_uris":{"android":"levelo://app?vid=70680240-c0ce-4c00-ba26-bfa78895a67c","ios":"levelo://app?vid=70680240-c0ce-4c00-ba26-bfa78895a67c"},"vehicle_type_id":"4","last_reported":1738915973,"current_range_meters":38400,"station_id":"ce4bht12rcd13ifvqi60","pricing_plan_id":"cebpf4jnsgd1na2vs0mg"},{"bike_id":"89faeef0-abdc-4a3f-8ea3-05026ae088c2","system_id":"levelo_inurba_marseille","lat":43.31692,"lon":5.40471,"is_reserved":false,"is_disabled":false,"rental_uris":{"android":"levelo://app?vid=89faeef0-abdc-4a3f-8ea3-05026ae088c2","ios":"levelo://app?vid=89faeef0-abdc-4a3f-8ea3-05026ae088c2"},"vehicle_type_id":"4","last_reported":1738915973,"current_range_meters":36800,"station_id":"ce4bh012rcd13ifvqd00","pricing_plan_id":"cebpf4jnsgd1na2vs0mg"},{"bike_id":"ef9b62b4-8d02-4e23-970e-3e7fcb88040b","system_id":"levelo_inurba_marseille","lat":43.262283,"lon":5.388218,"is_reserved":false,"is_disabled":false,"rental_uris":{"android":"levelo://app?vid=ef9b62b4-8d02-4e23-970e-3e7fcb88040b","ios":"levelo://app?vid=ef9b62b4-8d02-4e23-970e-3e7fcb88040b"},"vehicle_type_id":"4","last_reported":1738915973,"current_range_meters":11600,"station_id":"","pricing_plan_id":"cebpf4jnsgd1na2vs0mg"},{"bike_id":"e385d642-48aa-4e8d-9486-5f57838c0307","system_id":"levelo_inurba_marseille","lat":43.30363,"lon":5.41898,"is_reserved":false,"is_disabled":false,"rental_uris":{"android":"levelo://app?vid=e385d642-48aa-4e8d-9486-5f57838c0307","ios":"levelo://app?vid=e385d642-48aa-4e8d-9486-5f57838c0307"},"vehicle_type_id":"4","last_reported":1738915973,"current_range_meters":38800,"station_id":"ce4bhop2rcd13ifvqh7g","pricing_plan_id":"cebpf4jnsgd1na2vs0mg"},{"bike_id":"c36d5697-b0ce-42ba-a6ad-3875b078c9c6","system_id":"levelo_inurba_marseille","lat":43.27815,"lon":5.40709,"is_reserved":false,"is_disabled":false,"rental_uris":{"android":"levelo://app?vid=c36d5697-b0ce-42ba-a6ad-3875b078c9c6","ios":"levelo://app?vid=c36d5697-b0ce-42ba-a6ad-3875b078c9c6"},"vehicle_type_id":"4","last_reported":1738915973,"current_range_meters":38800,"station_id":"ce4bhnh2rcd13ifvqgtg","pricing_plan_id":"cebpf4jnsgd1na2vs0mg"},{"bike_id":"eb3fd904-badc-499a-a549-c5ec6801c1d1","system_id":"levelo_inurba_marseille","lat":43.30147,"lon":5.38097,"is_reserved":false,"is_disabled":false,"rental_uris":{"android":"levelo://app?vid=eb3fd904-badc-499a-a549-c5ec6801c1d1","ios":"levelo://app?vid=eb3fd904-badc-499a-a549-c5ec6801c1d1"},"vehicle_type_id":"4","last_reported":1738915973,"current_range_meters":39200,"station_id":"ce4bgjp2rcd13ifvqbh0","pricing_plan_id":"cebpf4jnsgd1na2vs0mg"},{"bike_id":"e0c0d5bd-2c3b-46d9-9a6c-42bde9a7c747","system_id":"levelo_inurba_marseille","lat":43.2815,"lon":5.42669,"is_reserved":false,"is_disabled":false,"rental_uris":{"android":"levelo://app?vid=e0c0d5bd-2c3b-46d9-9a6c-42bde9a7c747","ios":"levelo://app?vid=e0c0d5bd-2c3b-46d9-9a6c-42bde9a7c747"},"vehicle_type_id":"4","last_reported":1738915973,"current_range_meters":8800,"station_id":"ce4bhnh2rcd13ifvqgug","pricing_plan_id":"cebpf4jnsgd1na2vs0mg"},{"bike_id":"ca965a61-e12f-48bd-9363-df0c2564d157","system_id":"levelo_inurba_marseille","lat":43.31174,"lon":5.38706,"is_reserved":false,"is_disabled":false,"rental_uris":{"android":"levelo://app?vid=ca965a61-e12f-48bd-9363-df0c2564d157","ios":"levelo://app?vid=ca965a61-e12f-48bd-9363-df0c2564d157"},"vehicle_type_id":"4","last_reported":1738915973,"current_range_meters":21600,"station_id":"ce4bgv12rcd13ifvqcp0","pricing_plan_id":"cebpf4jnsgd1na2vs0mg"},{"bike_id":"c204f03f-a67e-4bd0-a04c-f14ecf273ff1","system_id":"levelo_inurba_marseille","lat":43.26954,"lon":5.38632,"is_reserved":false,"is_disabled":false,"rental_uris":{"android":"levelo://app?vid=c204f03f-a67e-4bd0-a04c-f14ecf273ff1","ios":"levelo://app?vid=c204f03f-a67e-4bd0-a04c-f14ecf273ff1"},"vehicle_type_id":"4","last_reported":1738915973,"current_range_meters":8400,"station_id":"ce4bhh92rcd13ifvqfh0","pricing_plan_id":"cebpf4jnsgd1na2vs0mg"},{"bike_id":"33f37d6b-08fe-4642-b4da-79d2133e4243","system_id":"levelo_inurba_marseille","lat":43.27308,"lon":5.42311,"is_reserved":false,"is_disabled":true,"rental_uris":{"android":"levelo://app?vid=33f37d6b-08fe-4642-b4da-79d2133e4243","ios":"levelo://app?vid=33f37d6b-08fe-4642-b4da-79d2133e4243"},"vehicle_type_id":"4","last_reported":1738915973,"current_range_meters":2000,"station_id":"","pricing_plan_id":"cebpf4jnsgd1na2vs0mg"},{"bike_id":"61fa4b26-20c8-466a-9fd1-66899d5ff713","system_id":"levelo_inurba_marseille","lat":43.32354,"lon":5.40619,"is_reserved":false,"is_disabled":false,"rental_uris":{"android":"levelo://app?vid=61fa4b26-20c8-466a-9fd1-66899d5ff713","ios":"levelo://app?vid=61fa4b26-20c8-466a-9fd1-66899d5ff713"},"vehicle_type_id":"4","last_reported":1738915973,"current_range_meters":24400,"station_id":"ce4bhq92rcd13ifvqhjg","pricing_plan_id":"cebpf4jnsgd1na2vs0mg"},{"bike_id":"7bc2d4b6-7844-46be-a947-040b3c3e100d","system_id":"levelo_inurba_marseille","lat":43.27912,"lon":5.39581,"is_reserved":false,"is_disabled":false,"rental_uris":{"android":"levelo://app?vid=7bc2d4b6-7844-46be-a947-040b3c3e100d","ios":"levelo://app?vid=7bc2d4b6-7844-46be-a947-040b3c3e100d"},"vehicle_type_id":"4","last_reported":1738915973,"current_range_meters":37600,"station_id":"ce4bhf92rcd13ifvqf40","pricing_plan_id":"cebpf4jnsgd1na2vs0mg"},{"bike_id":"254048ed-538f-43db-8dbf-2f9d8ee68a52","system_id":"levelo_inurba_marseille","lat":43.2718,"lon":5.41022,"is_reserved":false,"is_disabled":false,"rental_uris":{"android":"levelo://app?vid=254048ed-538f-43db-8dbf-2f9d8ee68a52","ios":"levelo://app?vid=254048ed-538f-43db-8dbf-2f9d8ee68a52"},"vehicle_type_id":"4","last_reported":1738915973,"current_range_meters":35200,"station_id":"ce4bhl12rcd13ifvqgf0","pricing_plan_id":"cebpf4jnsgd1na2vs0mg"},{"bike_id":"570e43dd-e616-4888-9e3c-236fbdf74433","system_id":"levelo_inurba_marseille","lat":43.30363,"lon":5.41888,"is_reserved":false,"is_disabled":false,"rental_uris":{"android":"levelo://app?vid=570e43dd-e616-4888-9e3c-236fbdf74433","ios":"levelo://app?vid=570e43dd-e616-4888-9e3c-236fbdf74433"},"vehicle_type_id":"4","last_reported":1738915973,"current_range_meters":38800,"station_id":"ce4bhop2rcd13ifvqh7g","pricing_plan_id":"cebpf4jnsgd1na2vs0mg"},{"bike_id":"ad020ba2-eda2-4423-b877-c9c57e07ce7e","system_id":"levelo_inurba_marseille","lat":43.27835,"lon":5.39206,"is_reserved":false,"is_disabled":false,"rental_uris":{"android":"levelo://app?vid=ad020ba2-eda2-4423-b877-c9c57e07ce7e","ios":"levelo://app?vid=ad020ba2-eda2-4423-b877-c9c57e07ce7e"},"vehicle_type_id":"4","last_reported":1738915973,"current_range_meters":33600,"station_id":"ce4bhjp2rcd13ifvqga0","pricing_plan_id":"cebpf4jnsgd1na2vs0mg"},{"bike_id":"1d305b6d-1ae6-41b2-998c-ed657734f1aa","system_id":"levelo_inurba_marseille","lat":43.29797,"lon":5.38088,"is_reserved":false,"is_disabled":false,"rental_uris":{"android":"levelo://app?vid=1d305b6d-1ae6-41b2-998c-ed657734f1aa","ios":"levelo://app?vid=1d305b6d-1ae6-41b2-998c-ed657734f1aa"},"vehicle_type_id":"4","last_reported":1738915973,"current_range_meters":28400,"station_id":"ce4bgip2rcd13ifvqbb0","pricing_plan_id":"cebpf4jnsgd1na2vs0mg"},{"bike_id":"0d2768c4-ffd3-49e6-ae50-223632ef44ad","system_id":"levelo_inurba_marseille","lat":43.29705,"lon":5.37301,"is_reserved":false,"is_disabled":true,"rental_uris":{"android":"levelo://app?vid=0d2768c4-ffd3-49e6-ae50-223632ef44ad","ios":"levelo://app?vid=0d2768c4-ffd3-49e6-ae50-223632ef44ad"},"vehicle_type_id":"4","last_reported":1738915973,"current_range_meters":9600,"station_id":"ce4bho92rcd13ifvqh3g","pricing_plan_id":"cebpf4jnsgd1na2vs0mg"},{"bike_id":"11140891-7b8f-4745-b36a-8f38e226797c","system_id":"levelo_inurba_marseille","lat":43.27494,"lon":5.42454,"is_reserved":false,"is_disabled":false,"rental_uris":{"android":"levelo://app?vid=11140891-7b8f-4745-b36a-8f38e226797c","ios":"levelo://app?vid=11140891-7b8f-4745-b36a-8f38e226797c"},"vehicle_type_id":"4","last_reported":1738915973,"current_range_meters":25600,"station_id":"ce4bhn92rcd13ifvqgrg","pricing_plan_id":"cebpf4jnsgd1na2vs0mg"},{"bike_id":"adea3fe0-0d5f-493f-bc7a-8db19cd779cc","system_id":"levelo_inurba_marseille","lat":43.26191,"lon":5.37933,"is_reserved":false,"is_disabled":false,"rental_uris":{"android":"levelo://app?vid=adea3fe0-0d5f-493f-bc7a-8db19cd779cc","ios":"levelo://app?vid=adea3fe0-0d5f-493f-bc7a-8db19cd779cc"},"vehicle_type_id":"4","last_reported":1738915973,"current_range_meters":37600,"station_id":"ce4bhjp2rcd13ifvqg90","pricing_plan_id":"cebpf4jnsgd1na2vs0mg"},{"bike_id":"51de6889-b180-4464-aff8-03e8a0c73f3a","system_id":"levelo_inurba_marseille","lat":43.3091,"lon":5.37187,"is_reserved":false,"is_disabled":false,"rental_uris":{"android":"levelo://app?vid=51de6889-b180-4464-aff8-03e8a0c73f3a","ios":"levelo://app?vid=51de6889-b180-4464-aff8-03e8a0c73f3a"},"vehicle_type_id":"4","last_reported":1738915973,"current_range_meters":38400,"station_id":"ce4bguh2rcd13ifvqckg","pricing_plan_id":"cebpf4jnsgd1na2vs0mg"},{"bike_id":"07bbbb02-8103-472b-8e2d-b8e1fb21467e","system_id":"levelo_inurba_marseille","lat":43.26588,"lon":5.39067,"is_reserved":false,"is_disabled":false,"rental_uris":{"android":"levelo://app?vid=07bbbb02-8103-472b-8e2d-b8e1fb21467e","ios":"levelo://app?vid=07bbbb02-8103-472b-8e2d-b8e1fb21467e"},"vehicle_type_id":"4","last_reported":1738915973,"current_range_meters":20400,"station_id":"ce4bhe12rcd13ifvqf30","pricing_plan_id":"cebpf4jnsgd1na2vs0mg"},{"bike_id":"c24a0944-9686-4c99-bfcb-6448fb0e1bb6","system_id":"levelo_inurba_marseille","lat":43.240746,"lon":5.377529,"is_reserved":false,"is_disabled":false,"rental_uris":{"android":"levelo://app?vid=c24a0944-9686-4c99-bfcb-6448fb0e1bb6","ios":"levelo://app?vid=c24a0944-9686-4c99-bfcb-6448fb0e1bb6"},"vehicle_type_id":"4","last_reported":1738915973,"current_range_meters":28800,"station_id":"ce4bhnp2rcd13ifvqgvg","pricing_plan_id":"cebpf4jnsgd1na2vs0mg"},{"bike_id":"8b11bba1-d0cf-40c9-9463-3c4eba99b678","system_id":"levelo_inurba_marseille","lat":43.30139,"lon":5.38063,"is_reserved":false,"is_disabled":false,"rental_uris":{"android":"levelo://app?vid=8b11bba1-d0cf-40c9-9463-3c4eba99b678","ios":"levelo://app?vid=8b11bba1-d0cf-40c9-9463-3c4eba99b678"},"vehicle_type_id":"4","last_reported":1738915973,"current_range_meters":24000,"station_id":"ce4bgjp2rcd13ifvqbh0","pricing_plan_id":"cebpf4jnsgd1na2vs0mg"},{"bike_id":"0c7b73f6-06cf-4f30-a5b5-cc680ecfa71d","system_id":"levelo_inurba_marseille","lat":43.33606,"lon":5.41032,"is_reserved":false,"is_disabled":true,"rental_uris":{"android":"levelo://app?vid=0c7b73f6-06cf-4f30-a5b5-cc680ecfa71d","ios":"levelo://app?vid=0c7b73f6-06cf-4f30-a5b5-cc680ecfa71d"},"vehicle_type_id":"4","last_reported":1738915973,"current_range_meters":0,"station_id":"ce4bhqh2rcd13ifvqhmg","pricing_plan_id":"cebpf4jnsgd1na2vs0mg"},{"bike_id":"f2df57fd-48fb-42b4-9b53-5e639c9b06ad","system_id":"levelo_inurba_marseille","lat":43.3235,"lon":5.389,"is_reserved":false,"is_disabled":false,"rental_uris":{"android":"levelo://app?vid=f2df57fd-48fb-42b4-9b53-5e639c9b06ad","ios":"levelo://app?vid=f2df57fd-48fb-42b4-9b53-5e639c9b06ad"},"vehicle_type_id":"4","last_reported":1738915973,"current_range_meters":38400,"station_id":"ce4bhqp2rcd13ifvqhog","pricing_plan_id":"cebpf4jnsgd1na2vs0mg"},{"bike_id":"f54a2a53-72a3-4644-ad4d-8a46cecaf8f8","system_id":"levelo_inurba_marseille","lat":43.29036,"lon":5.39945,"is_reserved":false,"is_disabled":false,"rental_uris":{"android":"levelo://app?vid=f54a2a53-72a3-4644-ad4d-8a46cecaf8f8","ios":"levelo://app?vid=f54a2a53-72a3-4644-ad4d-8a46cecaf8f8"},"vehicle_type_id":"4","last_reported":1738915973,"current_range_meters":8400,"station_id":"ce4bh392rcd13ifvqdm0","pricing_plan_id":"cebpf4jnsgd1na2vs0mg"},{"bike_id":"adb2cda0-13e6-4e5f-85aa-420cd5b71939","system_id":"levelo_inurba_marseille","lat":43.27502,"lon":5.42475,"is_reserved":false,"is_disabled":false,"rental_uris":{"android":"levelo://app?vid=adb2cda0-13e6-4e5f-85aa-420cd5b71939","ios":"levelo://app?vid=adb2cda0-13e6-4e5f-85aa-420cd5b71939"},"vehicle_type_id":"4","last_reported":1738915973,"current_range_meters":17600,"station_id":"ce4bhn92rcd13ifvqgrg","pricing_plan_id":"cebpf4jnsgd1na2vs0mg"},{"bike_id":"4afa9066-9db7-432f-902b-b8ce24b14f7b","system_id":"levelo_inurba_marseille","lat":43.29375,"lon":5.37228,"is_reserved":false,"is_disabled":false,"rental_uris":{"android":"levelo://app?vid=4afa9066-9db7-432f-902b-b8ce24b14f7b","ios":"levelo://app?vid=4afa9066-9db7-432f-902b-b8ce24b14f7b"},"vehicle_type_id":"4","last_reported":1738915973,"current_range_meters":20800,"station_id":"","pricing_plan_id":"cebpf4jnsgd1na2vs0mg"},{"bike_id":"30848e21-3842-49e6-b9e8-e3d9163bf6f6","system_id":"levelo_inurba_marseille","lat":43.25937,"lon":5.40905,"is_reserved":false,"is_disabled":false,"rental_uris":{"android":"levelo://app?vid=30848e21-3842-49e6-b9e8-e3d9163bf6f6","ios":"levelo://app?vid=30848e21-3842-49e6-b9e8-e3d9163bf6f6"},"vehicle_type_id":"4","last_reported":1738915973,"current_range_meters":24400,"station_id":"ce4bhm92rcd13ifvqglg","pricing_plan_id":"cebpf4jnsgd1na2vs0mg"},{"bike_id":"59db9156-837c-4bef-bdf0-6cb05d00fb23","system_id":"levelo_inurba_marseille","lat":43.24167,"lon":5.36416,"is_reserved":false,"is_disabled":false,"rental_uris":{"android":"levelo://app?vid=59db9156-837c-4bef-bdf0-6cb05d00fb23","ios":"levelo://app?vid=59db9156-837c-4bef-bdf0-6cb05d00fb23"},"vehicle_type_id":"4","last_reported":1738915973,"current_range_meters":32400,"station_id":"cpo36qri1sfpv3e86is0","pricing_plan_id":"cebpf4jnsgd1na2vs0mg"},{"bike_id":"8a67da58-cf32-4163-a9c0-454a297e60c9","system_id":"levelo_inurba_marseille","lat":43.29534,"lon":5.42258,"is_reserved":false,"is_disabled":false,"rental_uris":{"android":"levelo://app?vid=8a67da58-cf32-4163-a9c0-454a297e60c9","ios":"levelo://app?vid=8a67da58-cf32-4163-a9c0-454a297e60c9"},"vehicle_type_id":"4","last_reported":1738915973,"current_range_meters":16400,"station_id":"ce4bhph2rcd13ifvqhdg","pricing_plan_id":"cebpf4jnsgd1na2vs0mg"},{"bike_id":"f4bb6310-503b-4031-bc2a-b8d2cc2fc4bd","system_id":"levelo_inurba_marseille","lat":43.27494,"lon":5.42466,"is_reserved":false,"is_disabled":false,"rental_uris":{"android":"levelo://app?vid=f4bb6310-503b-4031-bc2a-b8d2cc2fc4bd","ios":"levelo://app?vid=f4bb6310-503b-4031-bc2a-b8d2cc2fc4bd"},"vehicle_type_id":"4","last_reported":1738915973,"current_range_meters":6800,"station_id":"ce4bhn92rcd13ifvqgrg","pricing_plan_id":"cebpf4jnsgd1na2vs0mg"},{"bike_id":"19c91191-64ee-4803-94d7-14a4a66340df","system_id":"levelo_inurba_marseille","lat":43.317058,"lon":5.424067,"is_reserved":false,"is_disabled":true,"rental_uris":{"android":"levelo://app?vid=19c91191-64ee-4803-94d7-14a4a66340df","ios":"levelo://app?vid=19c91191-64ee-4803-94d7-14a4a66340df"},"vehicle_type_id":"4","last_reported":1738915973,"current_range_meters":0,"station_id":"ce4bhp92rcd13ifvqhbg","pricing_plan_id":"cebpf4jnsgd1na2vs0mg"},{"bike_id":"0a6a90a0-b9a1-4553-942b-9cc8f0c94f66","system_id":"levelo_inurba_marseille","lat":43.29235,"lon":5.40919,"is_reserved":false,"is_disabled":true,"rental_uris":{"android":"levelo://app?vid=0a6a90a0-b9a1-4553-942b-9cc8f0c94f66","ios":"levelo://app?vid=0a6a90a0-b9a1-4553-942b-9cc8f0c94f66"},"vehicle_type_id":"4","last_reported":1738915973,"current_range_meters":15200,"station_id":"ce4bh192rcd13ifvqdc0","pricing_plan_id":"cebpf4jnsgd1na2vs0mg"},{"bike_id":"6f10b0ee-c204-4d91-8e09-ca16841ca9d1","system_id":"levelo_inurba_marseille","lat":43.27201,"lon":5.39184,"is_reserved":false,"is_disabled":false,"rental_uris":{"android":"levelo://app?vid=6f10b0ee-c204-4d91-8e09-ca16841ca9d1","ios":"levelo://app?vid=6f10b0ee-c204-4d91-8e09-ca16841ca9d1"},"vehicle_type_id":"4","last_reported":1738915973,"current_range_meters":39200,"station_id":"ce4bhhp2rcd13ifvqfm0","pricing_plan_id":"cebpf4jnsgd1na2vs0mg"},{"bike_id":"fef1bd1d-2ad2-48f6-a1bb-d87aafe8c512","system_id":"levelo_inurba_marseille","lat":43.28909,"lon":5.36426,"is_reserved":false,"is_disabled":true,"rental_uris":{"android":"levelo://app?vid=fef1bd1d-2ad2-48f6-a1bb-d87aafe8c512","ios":"levelo://app?vid=fef1bd1d-2ad2-48f6-a1bb-d87aafe8c512"},"vehicle_type_id":"4","last_reported":1738915973,"current_range_meters":0,"station_id":"","pricing_plan_id":"cebpf4jnsgd1na2vs0mg"},{"bike_id":"fdc0526f-366e-433f-b95a-53c358ff12c7","system_id":"levelo_inurba_marseille","lat":43.25496,"lon":5.37648,"is_reserved":false,"is_disabled":false,"rental_uris":{"android":"levelo://app?vid=fdc0526f-366e-433f-b95a-53c358ff12c7","ios":"levelo://app?vid=fdc0526f-366e-433f-b95a-53c358ff12c7"},"vehicle_type_id":"4","last_reported":1738915973,"current_range_meters":38800,"station_id":"ce4bhh12rcd13ifvqff0","pricing_plan_id":"cebpf4jnsgd1na2vs0mg"},{"bike_id":"1df03635-8b6b-4117-9c9b-a2afa7bb927f","system_id":"levelo_inurba_marseille","lat":43.23182,"lon":5.39987,"is_reserved":false,"is_disabled":false,"rental_uris":{"android":"levelo://app?vid=1df03635-8b6b-4117-9c9b-a2afa7bb927f","ios":"levelo://app?vid=1df03635-8b6b-4117-9c9b-a2afa7bb927f"},"vehicle_type_id":"4","last_reported":1738915973,"current_range_meters":20000,"station_id":"ce4bhn12rcd13ifvqgqg","pricing_plan_id":"cebpf4jnsgd1na2vs0mg"},{"bike_id":"c2254ed0-0838-424f-99f8-8eb5410c1ec3","system_id":"levelo_inurba_marseille","lat":43.24156,"lon":5.36393,"is_reserved":false,"is_disabled":false,"rental_uris":{"android":"levelo://app?vid=c2254ed0-0838-424f-99f8-8eb5410c1ec3","ios":"levelo://app?vid=c2254ed0-0838-424f-99f8-8eb5410c1ec3"},"vehicle_type_id":"4","last_reported":1738915973,"current_range_meters":30400,"station_id":"cpo36qri1sfpv3e86is0","pricing_plan_id":"cebpf4jnsgd1na2vs0mg"},{"bike_id":"63502e7d-71b3-44d6-b82d-6352b6e3809f","system_id":"levelo_inurba_marseille","lat":43.25817,"lon":5.39459,"is_reserved":false,"is_disabled":false,"rental_uris":{"android":"levelo://app?vid=63502e7d-71b3-44d6-b82d-6352b6e3809f","ios":"levelo://app?vid=63502e7d-71b3-44d6-b82d-6352b6e3809f"},"vehicle_type_id":"4","last_reported":1738915973,"current_range_meters":38000,"station_id":"ce4bhip2rcd13ifvqft0","pricing_plan_id":"cebpf4jnsgd1na2vs0mg"},{"bike_id":"aa20ddd3-fab3-4250-b35b-41c0ae9e33eb","system_id":"levelo_inurba_marseille","lat":43.245333,"lon":5.372984,"is_reserved":false,"is_disabled":false,"rental_uris":{"android":"levelo://app?vid=aa20ddd3-fab3-4250-b35b-41c0ae9e33eb","ios":"levelo://app?vid=aa20ddd3-fab3-4250-b35b-41c0ae9e33eb"},"vehicle_type_id":"4","last_reported":1738915973,"current_range_meters":12800,"station_id":"","pricing_plan_id":"cebpf4jnsgd1na2vs0mg"},{"bike_id":"d77db434-8b7a-4532-8701-fa3236c1cc15","system_id":"levelo_inurba_marseille","lat":43.31478,"lon":5.3732,"is_reserved":false,"is_disabled":false,"rental_uris":{"android":"levelo://app?vid=d77db434-8b7a-4532-8701-fa3236c1cc15","ios":"levelo://app?vid=d77db434-8b7a-4532-8701-fa3236c1cc15"},"vehicle_type_id":"4","last_reported":1738915973,"current_range_meters":37600,"station_id":"ce4bgt12rcd13ifvqcd0","pricing_plan_id":"cebpf4jnsgd1na2vs0mg"},{"bike_id":"1ee45343-9eb3-4093-af39-176108dbf5fc","system_id":"levelo_inurba_marseille","lat":43.32469,"lon":5.36567,"is_reserved":false,"is_disabled":false,"rental_uris":{"android":"levelo://app?vid=1ee45343-9eb3-4093-af39-176108dbf5fc","ios":"levelo://app?vid=1ee45343-9eb3-4093-af39-176108dbf5fc"},"vehicle_type_id":"4","last_reported":1738915973,"current_range_meters":28800,"station_id":"ce4bhs12rcd13ifvqhvg","pricing_plan_id":"cebpf4jnsgd1na2vs0mg"},{"bike_id":"744f4122-a65c-499d-80ba-7729a1ce92fe","system_id":"levelo_inurba_marseille","lat":43.28427,"lon":5.39204,"is_reserved":false,"is_disabled":true,"rental_uris":{"android":"levelo://app?vid=744f4122-a65c-499d-80ba-7729a1ce92fe","ios":"levelo://app?vid=744f4122-a65c-499d-80ba-7729a1ce92fe"},"vehicle_type_id":"4","last_reported":1738915973,"current_range_meters":36800,"station_id":"ce4bhoh2rcd13ifvqh5g","pricing_plan_id":"cebpf4jnsgd1na2vs0mg"},{"bike_id":"0e2ba579-8a6a-4848-b615-bb63d85e0b3c","system_id":"levelo_inurba_marseille","lat":43.27321,"lon":5.39088,"is_reserved":false,"is_disabled":true,"rental_uris":{"android":"levelo://app?vid=0e2ba579-8a6a-4848-b615-bb63d85e0b3c","ios":"levelo://app?vid=0e2ba579-8a6a-4848-b615-bb63d85e0b3c"},"vehicle_type_id":"4","last_reported":1738915973,"current_range_meters":37600,"station_id":"ce4bhgp2rcd13ifvqfe0","pricing_plan_id":"cebpf4jnsgd1na2vs0mg"},{"bike_id":"5d1dacf3-3fa1-40ba-8373-ce163dd2d283","system_id":"levelo_inurba_marseille","lat":43.26191,"lon":5.37958,"is_reserved":false,"is_disabled":false,"rental_uris":{"android":"levelo://app?vid=5d1dacf3-3fa1-40ba-8373-ce163dd2d283","ios":"levelo://app?vid=5d1dacf3-3fa1-40ba-8373-ce163dd2d283"},"vehicle_type_id":"4","last_reported":1738915973,"current_range_meters":39200,"station_id":"ce4bhjp2rcd13ifvqg90","pricing_plan_id":"cebpf4jnsgd1na2vs0mg"},{"bike_id":"060a4ff1-665e-4d86-8eef-d19188356a04","system_id":"levelo_inurba_marseille","lat":43.30534,"lon":5.36714,"is_reserved":false,"is_disabled":false,"rental_uris":{"android":"levelo://app?vid=060a4ff1-665e-4d86-8eef-d19188356a04","ios":"levelo://app?vid=060a4ff1-665e-4d86-8eef-d19188356a04"},"vehicle_type_id":"4","last_reported":1738915973,"current_range_meters":22800,"station_id":"ce4bgrp2rcd13ifvqc9g","pricing_plan_id":"cebpf4jnsgd1na2vs0mg"},{"bike_id":"e608cc64-2730-4a71-8ccf-956d2b8dc5e0","system_id":"levelo_inurba_marseille","lat":43.30915,"lon":5.36864,"is_reserved":false,"is_disabled":false,"rental_uris":{"android":"levelo://app?vid=e608cc64-2730-4a71-8ccf-956d2b8dc5e0","ios":"levelo://app?vid=e608cc64-2730-4a71-8ccf-956d2b8dc5e0"},"vehicle_type_id":"4","last_reported":1738915973,"current_range_meters":6000,"station_id":"ce4bgn92rcd13ifvqbvg","pricing_plan_id":"cebpf4jnsgd1na2vs0mg"},{"bike_id":"d02b1b99-4136-423d-aefb-e422ed04f983","system_id":"levelo_inurba_marseille","lat":43.28847,"lon":5.39319,"is_reserved":false,"is_disabled":false,"rental_uris":{"android":"levelo://app?vid=d02b1b99-4136-423d-aefb-e422ed04f983","ios":"levelo://app?vid=d02b1b99-4136-423d-aefb-e422ed04f983"},"vehicle_type_id":"4","last_reported":1738915973,"current_range_meters":34000,"station_id":"ce4bh2p2rcd13ifvqdi0","pricing_plan_id":"cebpf4jnsgd1na2vs0mg"},{"bike_id":"394fb33f-d9d4-4f64-9580-174995fc4b80","system_id":"levelo_inurba_marseille","lat":43.30552,"lon":5.36556,"is_reserved":false,"is_disabled":false,"rental_uris":{"android":"levelo://app?vid=394fb33f-d9d4-4f64-9580-174995fc4b80","ios":"levelo://app?vid=394fb33f-d9d4-4f64-9580-174995fc4b80"},"vehicle_type_id":"4","last_reported":1738915973,"current_range_meters":33200,"station_id":"ce4bgs12rcd13ifvqcag","pricing_plan_id":"cebpf4jnsgd1na2vs0mg"},{"bike_id":"77878ebe-fac7-4acf-beea-b400f4d95da7","system_id":"levelo_inurba_marseille","lat":43.2749,"lon":5.42447,"is_reserved":false,"is_disabled":false,"rental_uris":{"android":"levelo://app?vid=77878ebe-fac7-4acf-beea-b400f4d95da7","ios":"levelo://app?vid=77878ebe-fac7-4acf-beea-b400f4d95da7"},"vehicle_type_id":"4","last_reported":1738915973,"current_range_meters":25600,"station_id":"ce4bhn92rcd13ifvqgrg","pricing_plan_id":"cebpf4jnsgd1na2vs0mg"},{"bike_id":"1bd0ed6d-66a1-4d24-8429-2532d0103fd2","system_id":"levelo_inurba_marseille","lat":43.26214,"lon":5.37438,"is_reserved":false,"is_disabled":false,"rental_uris":{"android":"levelo://app?vid=1bd0ed6d-66a1-4d24-8429-2532d0103fd2","ios":"levelo://app?vid=1bd0ed6d-66a1-4d24-8429-2532d0103fd2"},"vehicle_type_id":"4","last_reported":1738915973,"current_range_meters":26800,"station_id":"ce4bhgp2rcd13ifvqfc0","pricing_plan_id":"cebpf4jnsgd1na2vs0mg"},{"bike_id":"09a9ac53-cd06-4438-9a55-77242cbf0611","system_id":"levelo_inurba_marseille","lat":43.24164,"lon":5.39717,"is_reserved":false,"is_disabled":false,"rental_uris":{"android":"levelo://app?vid=09a9ac53-cd06-4438-9a55-77242cbf0611","ios":"levelo://app?vid=09a9ac53-cd06-4438-9a55-77242cbf0611"},"vehicle_type_id":"4","last_reported":1738915973,"current_range_meters":38800,"station_id":"ce4bhn12rcd13ifvqgpg","pricing_plan_id":"cebpf4jnsgd1na2vs0mg"},{"bike_id":"905a0a6f-e23f-4739-b7f6-f6d060d3728c","system_id":"levelo_inurba_marseille","lat":43.29979,"lon":5.38476,"is_reserved":false,"is_disabled":false,"rental_uris":{"android":"levelo://app?vid=905a0a6f-e23f-4739-b7f6-f6d060d3728c","ios":"levelo://app?vid=905a0a6f-e23f-4739-b7f6-f6d060d3728c"},"vehicle_type_id":"4","last_reported":1738915973,"current_range_meters":24800,"station_id":"ce4bgj92rcd13ifvqbd0","pricing_plan_id":"cebpf4jnsgd1na2vs0mg"},{"bike_id":"528241cb-7275-47c1-85e9-ff7a37a61cca","system_id":"levelo_inurba_marseille","lat":43.30465,"lon":5.37907,"is_reserved":false,"is_disabled":false,"rental_uris":{"android":"levelo://app?vid=528241cb-7275-47c1-85e9-ff7a37a61cca","ios":"levelo://app?vid=528241cb-7275-47c1-85e9-ff7a37a61cca"},"vehicle_type_id":"4","last_reported":1738915973,"current_range_meters":32400,"station_id":"ce4bgup2rcd13ifvqcn0","pricing_plan_id":"cebpf4jnsgd1na2vs0mg"},{"bike_id":"36c52c37-af86-417c-a6d6-8455df1d3135","system_id":"levelo_inurba_marseille","lat":43.23956,"lon":5.36638,"is_reserved":false,"is_disabled":false,"rental_uris":{"android":"levelo://app?vid=36c52c37-af86-417c-a6d6-8455df1d3135","ios":"levelo://app?vid=36c52c37-af86-417c-a6d6-8455df1d3135"},"vehicle_type_id":"4","last_reported":1738915973,"current_range_meters":19600,"station_id":"ce4bhi12rcd13ifvqfp0","pricing_plan_id":"cebpf4jnsgd1na2vs0mg"},{"bike_id":"f0ae8042-9c93-49df-858b-a0f2df7c0604","system_id":"levelo_inurba_marseille","lat":43.29033,"lon":5.4002,"is_reserved":false,"is_disabled":true,"rental_uris":{"android":"levelo://app?vid=f0ae8042-9c93-49df-858b-a0f2df7c0604","ios":"levelo://app?vid=f0ae8042-9c93-49df-858b-a0f2df7c0604"},"vehicle_type_id":"4","last_reported":1738915973,"current_range_meters":36400,"station_id":"ce4bh392rcd13ifvqdm0","pricing_plan_id":"cebpf4jnsgd1na2vs0mg"},{"bike_id":"fcdbb18e-f443-4be8-a446-f8efb19b4bab","system_id":"levelo_inurba_marseille","lat":43.30401,"lon":5.41277,"is_reserved":false,"is_disabled":false,"rental_uris":{"android":"levelo://app?vid=fcdbb18e-f443-4be8-a446-f8efb19b4bab","ios":"levelo://app?vid=fcdbb18e-f443-4be8-a446-f8efb19b4bab"},"vehicle_type_id":"4","last_reported":1738915973,"current_range_meters":39200,"station_id":"ce4bhop2rcd13ifvqh8g","pricing_plan_id":"cebpf4jnsgd1na2vs0mg"},{"bike_id":"04fd108b-ac27-4f4f-bb01-1a3a4f96b7e7","system_id":"levelo_inurba_marseille","lat":43.31485,"lon":5.37255,"is_reserved":false,"is_disabled":false,"rental_uris":{"android":"levelo://app?vid=04fd108b-ac27-4f4f-bb01-1a3a4f96b7e7","ios":"levelo://app?vid=04fd108b-ac27-4f4f-bb01-1a3a4f96b7e7"},"vehicle_type_id":"4","last_reported":1738915973,"current_range_meters":38800,"station_id":"ce4bgt12rcd13ifvqcd0","pricing_plan_id":"cebpf4jnsgd1na2vs0mg"},{"bike_id":"68e9a066-cbda-4c4a-ba53-d9d3393ee82f","system_id":"levelo_inurba_marseille","lat":43.28705,"lon":5.40012,"is_reserved":false,"is_disabled":false,"rental_uris":{"android":"levelo://app?vid=68e9a066-cbda-4c4a-ba53-d9d3393ee82f","ios":"levelo://app?vid=68e9a066-cbda-4c4a-ba53-d9d3393ee82f"},"vehicle_type_id":"4","last_reported":1738915973,"current_range_meters":5600,"station_id":"ce4bho92rcd13ifvqh3g","pricing_plan_id":"cebpf4jnsgd1na2vs0mg"},{"bike_id":"fe146960-7d51-43a8-8d5f-97dd150b0e2d","system_id":"levelo_inurba_marseille","lat":43.260581,"lon":5.39399,"is_reserved":false,"is_disabled":false,"rental_uris":{"android":"levelo://app?vid=fe146960-7d51-43a8-8d5f-97dd150b0e2d","ios":"levelo://app?vid=fe146960-7d51-43a8-8d5f-97dd150b0e2d"},"vehicle_type_id":"4","last_reported":1738915973,"current_range_meters":38800,"station_id":"ce4bhh92rcd13ifvqfj0","pricing_plan_id":"cebpf4jnsgd1na2vs0mg"},{"bike_id":"01a95261-9045-4884-9657-6e55b795110e","system_id":"levelo_inurba_marseille","lat":43.308789,"lon":5.396475,"is_reserved":false,"is_disabled":false,"rental_uris":{"android":"levelo://app?vid=01a95261-9045-4884-9657-6e55b795110e","ios":"levelo://app?vid=01a95261-9045-4884-9657-6e55b795110e"},"vehicle_type_id":"4","last_reported":1738915973,"current_range_meters":29600,"station_id":"ce4bh012rcd13ifvqcv0","pricing_plan_id":"cebpf4jnsgd1na2vs0mg"},{"bike_id":"79eab85b-411d-47b7-ba8c-c70679ea549f","system_id":"levelo_inurba_marseille","lat":43.23166,"lon":5.3999,"is_reserved":false,"is_disabled":false,"rental_uris":{"android":"levelo://app?vid=79eab85b-411d-47b7-ba8c-c70679ea549f","ios":"levelo://app?vid=79eab85b-411d-47b7-ba8c-c70679ea549f"},"vehicle_type_id":"4","last_reported":1738915973,"current_range_meters":38800,"station_id":"ce4bhn12rcd13ifvqgqg","pricing_plan_id":"cebpf4jnsgd1na2vs0mg"},{"bike_id":"bec99846-c6d9-4983-8a05-58ed5efc4a7e","system_id":"levelo_inurba_marseille","lat":43.30544,"lon":5.36713,"is_reserved":false,"is_disabled":false,"rental_uris":{"android":"levelo://app?vid=bec99846-c6d9-4983-8a05-58ed5efc4a7e","ios":"levelo://app?vid=bec99846-c6d9-4983-8a05-58ed5efc4a7e"},"vehicle_type_id":"4","last_reported":1738915973,"current_range_meters":38800,"station_id":"ce4bgrp2rcd13ifvqc9g","pricing_plan_id":"cebpf4jnsgd1na2vs0mg"},{"bike_id":"0b1868a8-af44-41b2-ad81-b59c1c92136a","system_id":"levelo_inurba_marseille","lat":43.30531,"lon":5.36537,"is_reserved":false,"is_disabled":false,"rental_uris":{"android":"levelo://app?vid=0b1868a8-af44-41b2-ad81-b59c1c92136a","ios":"levelo://app?vid=0b1868a8-af44-41b2-ad81-b59c1c92136a"},"vehicle_type_id":"4","last_reported":1738915973,"current_range_meters":30400,"station_id":"ce4bgs12rcd13ifvqcag","pricing_plan_id":"cebpf4jnsgd1na2vs0mg"},{"bike_id":"341067f4-d7ed-4f99-954f-691c64a92e97","system_id":"levelo_inurba_marseille","lat":43.23189,"lon":5.39984,"is_reserved":false,"is_disabled":false,"rental_uris":{"android":"levelo://app?vid=341067f4-d7ed-4f99-954f-691c64a92e97","ios":"levelo://app?vid=341067f4-d7ed-4f99-954f-691c64a92e97"},"vehicle_type_id":"4","last_reported":1738915973,"current_range_meters":14800,"station_id":"ce4bhn12rcd13ifvqgqg","pricing_plan_id":"cebpf4jnsgd1na2vs0mg"},{"bike_id":"de5eff32-3927-4129-b9d6-666b55380b1f","system_id":"levelo_inurba_marseille","lat":43.27485,"lon":5.42445,"is_reserved":false,"is_disabled":false,"rental_uris":{"android":"levelo://app?vid=de5eff32-3927-4129-b9d6-666b55380b1f","ios":"levelo://app?vid=de5eff32-3927-4129-b9d6-666b55380b1f"},"vehicle_type_id":"4","last_reported":1738915973,"current_range_meters":36400,"station_id":"ce4bhn92rcd13ifvqgrg","pricing_plan_id":"cebpf4jnsgd1na2vs0mg"},{"bike_id":"0fe3222f-8b2d-4209-a4f2-ed9fbf102aea","system_id":"levelo_inurba_marseille","lat":43.240677,"lon":5.377595,"is_reserved":false,"is_disabled":false,"rental_uris":{"android":"levelo://app?vid=0fe3222f-8b2d-4209-a4f2-ed9fbf102aea","ios":"levelo://app?vid=0fe3222f-8b2d-4209-a4f2-ed9fbf102aea"},"vehicle_type_id":"4","last_reported":1738915973,"current_range_meters":18000,"station_id":"ce4bhnp2rcd13ifvqgvg","pricing_plan_id":"cebpf4jnsgd1na2vs0mg"},{"bike_id":"248b8c36-84d5-41e0-9820-4a4f31f462bd","system_id":"levelo_inurba_marseille","lat":43.30951,"lon":5.39037,"is_reserved":false,"is_disabled":false,"rental_uris":{"android":"levelo://app?vid=248b8c36-84d5-41e0-9820-4a4f31f462bd","ios":"levelo://app?vid=248b8c36-84d5-41e0-9820-4a4f31f462bd"},"vehicle_type_id":"4","last_reported":1738915973,"current_range_meters":37600,"station_id":"ce4bgup2rcd13ifvqco0","pricing_plan_id":"cebpf4jnsgd1na2vs0mg"},{"bike_id":"af9c3a20-54ae-472f-9a0a-906102c5cfd0","system_id":"levelo_inurba_marseille","lat":43.32464,"lon":5.36614,"is_reserved":false,"is_disabled":false,"rental_uris":{"android":"levelo://app?vid=af9c3a20-54ae-472f-9a0a-906102c5cfd0","ios":"levelo://app?vid=af9c3a20-54ae-472f-9a0a-906102c5cfd0"},"vehicle_type_id":"4","last_reported":1738915973,"current_range_meters":6800,"station_id":"ce4bhs12rcd13ifvqhvg","pricing_plan_id":"cebpf4jnsgd1na2vs0mg"},{"bike_id":"1b9a8dba-7e53-488a-9044-94fa9cf858c0","system_id":"levelo_inurba_marseille","lat":43.29967,"lon":5.38498,"is_reserved":false,"is_disabled":false,"rental_uris":{"android":"levelo://app?vid=1b9a8dba-7e53-488a-9044-94fa9cf858c0","ios":"levelo://app?vid=1b9a8dba-7e53-488a-9044-94fa9cf858c0"},"vehicle_type_id":"4","last_reported":1738915973,"current_range_meters":13600,"station_id":"ce4bgj92rcd13ifvqbd0","pricing_plan_id":"cebpf4jnsgd1na2vs0mg"},{"bike_id":"a95cf637-2c24-4b07-9685-7d2b46d8531a","system_id":"levelo_inurba_marseille","lat":43.30205,"lon":5.39477,"is_reserved":false,"is_disabled":true,"rental_uris":{"android":"levelo://app?vid=a95cf637-2c24-4b07-9685-7d2b46d8531a","ios":"levelo://app?vid=a95cf637-2c24-4b07-9685-7d2b46d8531a"},"vehicle_type_id":"4","last_reported":1738915973,"current_range_meters":1600,"station_id":"ce4bh0p2rcd13ifvqd70","pricing_plan_id":"cebpf4jnsgd1na2vs0mg"},{"bike_id":"39495718-31ff-4fb1-859a-bd357584ae98","system_id":"levelo_inurba_marseille","lat":43.29973,"lon":5.38485,"is_reserved":false,"is_disabled":false,"rental_uris":{"android":"levelo://app?vid=39495718-31ff-4fb1-859a-bd357584ae98","ios":"levelo://app?vid=39495718-31ff-4fb1-859a-bd357584ae98"},"vehicle_type_id":"4","last_reported":1738915973,"current_range_meters":34000,"station_id":"ce4bgj92rcd13ifvqbd0","pricing_plan_id":"cebpf4jnsgd1na2vs0mg"},{"bike_id":"d39a2685-ff1f-4a95-b7fe-802902b67914","system_id":"levelo_inurba_marseille","lat":43.321073,"lon":5.367708,"is_reserved":false,"is_disabled":false,"rental_uris":{"android":"levelo://app?vid=d39a2685-ff1f-4a95-b7fe-802902b67914","ios":"levelo://app?vid=d39a2685-ff1f-4a95-b7fe-802902b67914"},"vehicle_type_id":"4","last_reported":1738915973,"current_range_meters":25600,"station_id":"ce4bhrh2rcd13ifvqhug","pricing_plan_id":"cebpf4jnsgd1na2vs0mg"},