{"last_updated":1739556724,"ttl":60,"version":"2.2","data":{"bikes":[{"bike_id":"07129200-6445-4031-903d-a1861e87bf23","system_id":"levelo_inurba_marseille","lat":43.29077,"lon":5.37179,"is_reserved":false,"is_disabled":false,"rental_uris":{"android":"levelo://app?vid=07129200-6445-4031-903d-a1861e87bf23","ios":"levelo://app?vid=07129200-6445-4031-903d-a1861e87bf23"},"vehicle_type_id":"4","last_reported":1739556724,"current_range_meters":22400,"station_id":"ce4bh5p2rcd13ifvqe4g","pricing_plan_id":"cebpf4jnsgd1na2vs0mg"},{"bike_id":"686110bb-b39e-4f3f-8a57-e12ea6aa9af8","system_id":"levelo_inurba_marseille","lat":43.27803,"lon":5.40749,"is_reserved":false,"is_disabled":false,"rental_uris":{"android":"levelo://app?vid=686110bb-b39e-4f3f-8a57-e12ea6aa9af8","ios":"levelo://app?vid=686110bb-b39e-4f3f-8a57-e12ea6aa9af8"},"vehicle_type_id":"4","last_reported":1739556724,"current_range_meters":31200,"station_id":"ce4bhnh2rcd13ifvqgtg","pricing_plan_id":"cebpf4jnsgd1na2vs0mg"},{"bike_id":"72376f6e-a208-4a20-92fe-58cdd5092d6e","system_id":"levelo_inurba_marseille","lat":43.2928,"lon":5.37443,"is_reserved":false,"is_disabled":false,"rental_uris":{"android":"levelo://app?vid=72376f6e-a208-4a20-92fe-58cdd5092d6e","ios":"levelo://app?vid=72376f6e-a208-4a20-92fe-58cdd5092d6e"},"vehicle_type_id":"4","last_reported":1739556724,"current_range_meters":32800,"station_id":"ce4bgi12rcd13ifvqb70","pricing_plan_id":"cebpf4jnsgd1na2vs0mg"},{"bike_id":"719a875a-0651-4af4-9cdb-36248ea3b24a","system_id":"levelo_inurba_marseille","lat":43.28403,"lon":5.38992,"is_reserved":false,"is_disabled":false,"rental_uris":{"android":"levelo://app?vid=719a875a-0651-4af4-9cdb-36248ea3b24a","ios":"levelo://app?vid=719a875a-0651-4af4-9cdb-36248ea3b24a"},"vehicle_type_id":"4","last_reported":1739556724,"current_range_meters":16000,"station_id":"","pricing_plan_id":"cebpf4jnsgd1na2vs0mg"},{"bike_id":"ff64e48a-ce2d-4e2b-b0a5-40e7acca936f","system_id":"levelo_inurba_marseille","lat":43.28962,"lon":5.37836,"is_reserved":false,"is_disabled":false,"rental_uris":{"android":"levelo://app?vid=ff64e48a-ce2d-4e2b-b0a5-40e7acca936f","ios":"levelo://app?vid=ff64e48a-ce2d-4e2b-b0a5-40e7acca936f"},"vehicle_type_id":"4","last_reported":1739556724,"current_range_meters":38800,"station_id":"ce4bh9p2rcd13ifvqed0","pricing_plan_id":"cebpf4jnsgd1na2vs0mg"},{"bike_id":"aeeb603c-9e21-471f-a3b4-471a46d5c228","system_id":"levelo_inurba_marseille","lat":43.24166,"lon":5.36378,"is_reserved":false,"is_disabled":false,"rental_uris":{"android":"levelo://app?vid=aeeb603c-9e21-471f-a3b4-471a46d5c228","ios":"levelo://app?vid=aeeb603c-9e21-471f-a3b4-471a46d5c228"},"vehicle_type_id":"4","last_reported":1739556724,"current_range_meters":20800,"station_id":"cpo36qri1sfpv3e86is0","pricing_plan_id":"cebpf4jnsgd1na2vs0mg"},{"bike_id":"1d4165b9-e8af-42e7-8e88-54a0f84b4f26","system_id":"levelo_inurba_marseille","lat":43.23191,"lon":5.39978,"is_reserved":false,"is_disabled":false,"rental_uris":{"android":"levelo://app?vid=1d4165b9-e8af-42e7-8e88-54a0f84b4f26","ios":"levelo://app?vid=1d4165b9-e8af-42e7-8e88-54a0f84b4f26"},"vehicle_type_id":"4","last_reported":1739556724,"current_range_meters":28800,"station_id":"ce4bhn12rcd13ifvqgqg","pricing_plan_id":"cebpf4jnsgd1na2vs0mg"},{"bike_id":"c1e76274-801b-4893-b793-e635178d8b86","system_id":"levelo_inurba_marseille","lat":43.23969,"lon":5.3662,"is_reserved":false,"is_disabled":false,"rental_uris":{"android":"levelo://app?vid=c1e76274-801b-4893-b793-e635178d8b86","ios":"levelo://app?vid=c1e76274-801b-4893-b793-e635178d8b86"},"vehicle_type_id":"4","last_reported":1739556724,"current_range_meters":38800,"station_id":"ce4bhi12rcd13ifvqfp0","pricing_plan_id":"cebpf4jnsgd1na2vs0mg"},{"bike_id":"8403ee2c-5691-454e-9880-9097389ba23d","system_id":"levelo_inurba_marseille","lat":43.28348,"lon":5.38631,"is_reserved":false,"is_disabled":false,"rental_uris":{"android":"levelo://app?vid=8403ee2c-5691-454e-9880-9097389ba23d","ios":"levelo://app?vid=8403ee2c-5691-454e-9880-9097389ba23d"},"vehicle_type_id":"4","last_reported":1739556724,"current_range_meters":36400,"station_id":"ce4bh492rcd13ifvqdvg","pricing_plan_id":"cebpf4jnsgd1na2vs0mg"},{"bike_id":"3d55dfbc-79dc-4a16-8c46-cf49fec8982e","system_id":"levelo_inurba_marseille","lat":43.24389,"lon":5.37055,"is_reserved":false,"is_disabled":false,"rental_uris":{"android":"levelo://app?vid=3d55dfbc-79dc-4a16-8c46-cf49fec8982e","ios":"levelo://app?vid=3d55dfbc-79dc-4a16-8c46-cf49fec8982e"},"vehicle_type_id":"4","last_reported":1739556724,"current_range_meters":39200,"station_id":"ce4bhhh2rcd13ifvqfk0","pricing_plan_id":"cebpf4jnsgd1na2vs0mg"},{"bike_id":"971ea11e-3586-4e99-837f-ffe6455b1bb5","system_id":"levelo_inurba_marseille","lat":43.30877,"lon":5.37193,"is_reserved":false,"is_disabled":false,"rental_uris":{"android":"levelo://app?vid=971ea11e-3586-4e99-837f-ffe6455b1bb5","ios":"levelo://app?vid=971ea11e-3586-4e99-837f-ffe6455b1bb5"},"vehicle_type_id":"4","last_reported":1739556724,"current_range_meters":26000,"station_id":"ce4bguh2rcd13ifvqckg","pricing_plan_id":"cebpf4jnsgd1na2vs0mg"},{"bike_id":"c74f8124-73dc-4bd8-a98e-9fa42c510bc4","system_id":"levelo_inurba_marseille","lat":43.23194,"lon":5.39967,"is_reserved":false,"is_disabled":false,"rental_uris":{"android":"levelo://app?vid=c74f8124-73dc-4bd8-a98e-9fa42c510bc4","ios":"levelo://app?vid=c74f8124-73dc-4bd8-a98e-9fa42c510bc4"},"vehicle_type_id":"4","last_reported":1739556724,"current_range_meters":28000,"station_id":"ce4bhn12rcd13ifvqgqg","pricing_plan_id":"cebpf4jnsgd1na2vs0mg"},{"bike_id":"eace11fc-366d-49db-ab9f-2f957d528477","system_id":"levelo_inurba_marseille","lat":43.25503,"lon":5.37656,"is_reserved":false,"is_disabled":false,"rental_uris":{"android":"levelo://app?vid=eace11fc-366d-49db-ab9f-2f957d528477","ios":"levelo://app?vid=eace11fc-366d-49db-ab9f-2f957d528477"},"vehicle_type_id":"4","last_reported":1739556724,"current_range_meters":38400,"station_id":"ce4bhh12rcd13ifvqff0","pricing_plan_id":"cebpf4jnsgd1na2vs0mg"},{"bike_id":"5d2484e8-d08f-4bba-ae77-36cb31e97e9b","system_id":"levelo_inurba_marseille","lat":43.29559,"lon":5.4229,"is_reserved":false,"is_disabled":false,"rental_uris":{"android":"levelo://app?vid=5d2484e8-d08f-4bba-ae77-36cb31e97e9b","ios":"levelo://app?vid=5d2484e8-d08f-4bba-ae77-36cb31e97e9b"},"vehicle_type_id":"4","last_reported":1739556724,"current_range_meters":39200,"station_id":"ce4bhph2rcd13ifvqhdg","pricing_plan_id":"cebpf4jnsgd1na2vs0mg"},{"bike_id":"6b42f4f1-2360-420a-81a5-fa8f868ac30d","system_id":"levelo_inurba_marseille","lat":43.27153,"lon":5.39032,"is_reserved":false,"is_disabled":false,"rental_uris":{"android":"levelo://app?vid=6b42f4f1-2360-420a-81a5-fa8f868ac30d","ios":"levelo://app?vid=6b42f4f1-2360-420a-81a5-fa8f868ac30d"},"vehicle_type_id":"4","last_reported":1739556724,"current_range_meters":36800,"station_id":"","pricing_plan_id":"cebpf4jnsgd1na2vs0mg"},{"bike_id":"c3fc4d9c-9722-4fad-8d64-356a520f9340","system_id":"levelo_inurba_marseille","lat":43.301,"lon":5.39056,"is_reserved":false,"is_disabled":false,"rental_uris":{"android":"levelo://app?vid=c3fc4d9c-9722-4fad-8d64-356a520f9340","ios":"levelo://app?vid=c3fc4d9c-9722-4fad-8d64-356a520f9340"},"vehicle_type_id":"4","last_reported":1739556724,"current_range_meters":36800,"station_id":"ce4bh192rcd13ifvqdb0","pricing_plan_id":"cebpf4jnsgd1na2vs0mg"},{"bike_id":"253778a5-7f6b-4a87-ba8c-1f1945cb6cd4","system_id":"levelo_inurba_marseille","lat":43.29017,"lon":5.38135,"is_reserved":false,"is_disabled":false,"rental_uris":{"android":"levelo://app?vid=253778a5-7f6b-4a87-ba8c-1f1945cb6cd4","ios":"levelo://app?vid=253778a5-7f6b-4a87-ba8c-1f1945cb6cd4"},"vehicle_type_id":"4","last_reported":1739556724,"current_range_meters":38800,"station_id":"ce4bh4p2rcd13ifvqe1g","pricing_plan_id":"cebpf4jnsgd1na2vs0mg"},{"bike_id":"fb969db9-a139-43bb-9aa1-23bb52a7fb3f","system_id":"levelo_inurba_marseille","lat":43.2926,"lon":5.3843,"is_reserved":false,"is_disabled":false,"rental_uris":{"android":"levelo://app?vid=fb969db9-a139-43bb-9aa1-23bb52a7fb3f","ios":"levelo://app?vid=fb969db9-a139-43bb-9aa1-23bb52a7fb3f"},"vehicle_type_id":"4","last_reported":1739556724,"current_range_meters":32800,"station_id":"ce4bh692rcd13ifvqea0","pricing_plan_id":"cebpf4jnsgd1na2vs0mg"},{"bike_id":"0b6f0a15-c917-40b7-b542-331e68506ed3","system_id":"levelo_inurba_marseille","lat":43.31889,"lon":5.40742,"is_reserved":false,"is_disabled":false,"rental_uris":{"android":"levelo://app?vid=0b6f0a15-c917-40b7-b542-331e68506ed3","ios":"levelo://app?vid=0b6f0a15-c917-40b7-b542-331e68506ed3"},"vehicle_type_id":"4","last_reported":1739556724,"current_range_meters":19600,"station_id":"ce4bhq12rcd13ifvqhig","pricing_plan_id":"cebpf4jnsgd1na2vs0mg"},{"bike_id":"b34c6303-752a-46a1-93ad-ddbc991e20b6","system_id":"levelo_inurba_marseille","lat":43.2307,"lon":5.35506,"is_reserved":false,"is_disabled":false,"rental_uris":{"android":"levelo://app?vid=b34c6303-752a-46a1-93ad-ddbc991e20b6","ios":"levelo://app?vid=b34c6303-752a-46a1-93ad-ddbc991e20b6"},"vehicle_type_id":"4","last_reported":1739556724,"current_range_meters":38800,"station_id":"cpo3342slgdg3j2ifvpg","pricing_plan_id":"cebpf4jnsgd1na2vs0mg"},{"bike_id":"23ea1881-b5db-4cdb-bbd6-c1b9908534b3","system_id":"levelo_inurba_marseille","lat":43.297,"lon":5.366,"is_reserved":false,"is_disabled":false,"rental_uris":{"android":"levelo://app?vid=23ea1881-b5db-4cdb-bbd6-c1b9908534b3","ios":"levelo://app?vid=23ea1881-b5db-4cdb-bbd6-c1b9908534b3"},"vehicle_type_id":"4","last_reported":1739556724,"current_range_meters":26800,"station_id":"ce4bgn12rcd13ifvqbt0","pricing_plan_id":"cebpf4jnsgd1na2vs0mg"},{"bike_id":"e281aaf6-2aac-4d5c-ac7c-b5c666ddd22c","system_id":"levelo_inurba_marseille","lat":43.2916,"lon":5.37159,"is_reserved":false,"is_disabled":false,"rental_uris":{"android":"levelo://app?vid=e281aaf6-2aac-4d5c-ac7c-b5c666ddd22c","ios":"levelo://app?vid=e281aaf6-2aac-4d5c-ac7c-b5c666ddd22c"},"vehicle_type_id":"4","last_reported":1739556724,"current_range_meters":38800,"station_id":"ce4bha92rcd13ifvqeh0","pricing_plan_id":"cebpf4jnsgd1na2vs0mg"},{"bike_id":"1300f95a-15ad-4299-a221-177495e93e42","system_id":"levelo_inurba_marseille","lat":43.32678,"lon":5.40981,"is_reserved":false,"is_disabled":false,"rental_uris":{"android":"levelo://app?vid=1300f95a-15ad-4299-a221-177495e93e42","ios":"levelo://app?vid=1300f95a-15ad-4299-a221-177495e93e42"},"vehicle_type_id":"4","last_reported":1739556724,"current_range_meters":25600,"station_id":"ce4bhpp2rcd13ifvqhgg","pricing_plan_id":"cebpf4jnsgd1na2vs0mg"},{"bike_id":"59234d21-556f-417c-805c-86ab04d4b499","system_id":"levelo_inurba_marseille","lat":43.29269,"lon":5.38441,"is_reserved":false,"is_disabled":false,"rental_uris":{"android":"levelo://app?vid=59234d21-556f-417c-805c-86ab04d4b499","ios":"levelo://app?vid=59234d21-556f-417c-805c-86ab04d4b499"},"vehicle_type_id":"4","last_reported":1739556724,"current_range_meters":36800,"station_id":"ce4bh692rcd13ifvqea0","pricing_plan_id":"cebpf4jnsgd1na2vs0mg"},{"bike_id":"db0c59a5-e36c-460d-a199-b553cfb8a418","system_id":"levelo_inurba_marseille","lat":43.28358,"lon":5.42975,"is_reserved":false,"is_disabled":false,"rental_uris":{"android":"levelo://app?vid=db0c59a5-e36c-460d-a199-b553cfb8a418","ios":"levelo://app?vid=db0c59a5-e36c-460d-a199-b553cfb8a418"},"vehicle_type_id":"4","last_reported":1739556724,"current_range_meters":24800,"station_id":"","pricing_plan_id":"cebpf4jnsgd1na2vs0mg"},{"bike_id":"5b94872e-e8e0-48b1-a4f8-764a45f452f2","system_id":"levelo_inurba_marseille","lat":43.30573,"lon":5.36706,"is_reserved":false,"is_disabled":false,"rental_uris":{"android":"levelo://app?vid=5b94872e-e8e0-48b1-a4f8-764a45f452f2","ios":"levelo://app?vid=5b94872e-e8e0-48b1-a4f8-764a45f452f2"},"vehicle_type_id":"4","last_reported":1739556724,"current_range_meters":38800,"station_id":"ce4bgrp2rcd13ifvqc9g","pricing_plan_id":"cebpf4jnsgd1na2vs0mg"},{"bike_id":"2075c5c7-5213-4173-9599-5ca66a8e5b15","system_id":"levelo_inurba_marseille","lat":43.30537,"lon":5.36698,"is_reserved":false,"is_disabled":false,"rental_uris":{"android":"levelo://app?vid=2075c5c7-5213-4173-9599-5ca66a8e5b15","ios":"levelo://app?vid=2075c5c7-5213-4173-9599-5ca66a8e5b15"},"vehicle_type_id":"4","last_reported":1739556724,"current_range_meters":9200,"station_id":"ce4bgrp2rcd13ifvqc9g","pricing_plan_id":"cebpf4jnsgd1na2vs0mg"},{"bike_id":"d430bbf5-dcb4-4006-8220-7af0587abbc5","system_id":"levelo_inurba_marseille","lat":43.25075,"lon":5.39496,"is_reserved":false,"is_disabled":false,"rental_uris":{"android":"levelo://app?vid=d430bbf5-dcb4-4006-8220-7af0587abbc5","ios":"levelo://app?vid=d430bbf5-dcb4-4006-8220-7af0587abbc5"},"vehicle_type_id":"4","last_reported":1739556724,"current_range_meters":38800,"station_id":"ce4bhm12rcd13ifvqgkg","pricing_plan_id":"cebpf4jnsgd1na2vs0mg"},{"bike_id":"f1c49cdb-c423-415c-badc-8e4cfb5c6b43","system_id":"levelo_inurba_marseille","lat":43.29713,"lon":5.37697,"is_reserved":false,"is_disabled":false,"rental_uris":{"android":"levelo://app?vid=f1c49cdb-c423-415c-badc-8e4cfb5c6b43","ios":"levelo://app?vid=f1c49cdb-c423-415c-badc-8e4cfb5c6b43"},"vehicle_type_id":"4","last_reported":1739556724,"current_range_meters":20000,"station_id":"ce4bgkh2rcd13ifvqbl0","pricing_plan_id":"cebpf4jnsgd1na2vs0mg"},{"bike_id":"5ac1b3e9-6624-4bab-a598-45ab544a1b2f","system_id":"levelo_inurba_marseille","lat":43.26688,"lon":5.38275,"is_reserved":false,"is_disabled":false,"rental_uris":{"android":"levelo://app?vid=5ac1b3e9-6624-4bab-a598-45ab544a1b2f","ios":"levelo://app?vid=5ac1b3e9-6624-4bab-a598-45ab544a1b2f"},"vehicle_type_id":"4","last_reported":1739556724,"current_range_meters":8400,"station_id":"ce4bhg92rcd13ifvqf90","pricing_plan_id":"cebpf4jnsgd1na2vs0mg"},{"bike_id":"a2b8b535-68ab-48b4-8f05-9e1a3fd245cc","system_id":"levelo_inurba_marseille","lat":43.31754,"lon":5.39018,"is_reserved":false,"is_disabled":false,"rental_uris":{"android":"levelo://app?vid=a2b8b535-68ab-48b4-8f05-9e1a3fd245cc","ios":"levelo://app?vid=a2b8b535-68ab-48b4-8f05-9e1a3fd245cc"},"vehicle_type_id":"4","last_reported":1739556724,"current_range_meters":26000,"station_id":"ce4bhqp2rcd13ifvqhng","pricing_plan_id":"cebpf4jnsgd1na2vs0mg"},{"bike_id":"6efd9de7-fb29-4972-be54-1e784b49d1b0","system_id":"levelo_inurba_marseille","lat":43.24813,"lon":5.37454,"is_reserved":false,"is_disabled":false,"rental_uris":{"android":"levelo://app?vid=6efd9de7-fb29-4972-be54-1e784b49d1b0","ios":"levelo://app?vid=6efd9de7-fb29-4972-be54-1e784b49d1b0"},"vehicle_type_id":"4","last_reported":1739556724,"current_range_meters":36400,"station_id":"ce4bhgh2rcd13ifvqfb0","pricing_plan_id":"cebpf4jnsgd1na2vs0mg"},{"bike_id":"2de3d260-2417-4bc8-86ce-3bc3b1a20af3","system_id":"levelo_inurba_marseille","lat":43.25495,"lon":5.37663,"is_reserved":false,"is_disabled":false,"rental_uris":{"android":"levelo://app?vid=2de3d260-2417-4bc8-86ce-3bc3b1a20af3","ios":"levelo://app?vid=2de3d260-2417-4bc8-86ce-3bc3b1a20af3"},"vehicle_type_id":"4","last_reported":1739556724,"current_range_meters":39200,"station_id":"ce4bhh12rcd13ifvqff0","pricing_plan_id":"cebpf4jnsgd1na2vs0mg"},{"bike_id":"6e595a5a-187a-43fe-8209-fb98c46cdcb6","system_id":"levelo_inurba_marseille","lat":43.29205,"lon":5.3933,"is_reserved":false,"is_disabled":false,"rental_uris":{"android":"levelo://app?vid=6e595a5a-187a-43fe-8209-fb98c46cdcb6","ios":"levelo://app?vid=6e595a5a-187a-43fe-8209-fb98c46cdcb6"},"vehicle_type_id":"4","last_reported":1739556724,"current_range_meters":27600,"station_id":"ce4bh192rcd13ifvqdd0","pricing_plan_id":"cebpf4jnsgd1na2vs0mg"},{"bike_id":"f1cbce3a-0b78-4887-bb21-3bbbc1be7407","system_id":"levelo_inurba_marseille","lat":43.26498,"lon":5.39538,"is_reserved":false,"is_disabled":false,"rental_uris":{"android":"levelo://app?vid=f1cbce3a-0b78-4887-bb21-3bbbc1be7407","ios":"levelo://app?vid=f1cbce3a-0b78-4887-bb21-3bbbc1be7407"},"vehicle_type_id":"4","last_reported":1739556724,"current_range_meters":12400,"station_id":"ce4bhi12rcd13ifvqfq0","pricing_plan_id":"cebpf4jnsgd1na2vs0mg"},{"bike_id":"ffa06973-e6cb-4ee9-9a8d-792431d4e71b","system_id":"levelo_inurba_marseille","lat":43.29421,"lon":5.38624,"is_reserved":false,"is_disabled":false,"rental_uris":{"android":"levelo://app?vid=ffa06973-e6cb-4ee9-9a8d-792431d4e71b","ios":"levelo://app?vid=ffa06973-e6cb-4ee9-9a8d-792431d4e71b"},"vehicle_type_id":"4","last_reported":1739556724,"current_range_meters":5600,"station_id":"ce4bh2h2rcd13ifvqdh0","pricing_plan_id":"cebpf4jnsgd1na2vs0mg"},{"bike_id":"1d31b2b1-b803-40b2-a44e-d7eb43c92877","system_id":"levelo_inurba_marseille","lat":43.23962,"lon":5.36628,"is_reserved":false,"is_disabled":false,"rental_uris":{"android":"levelo://app?vid=1d31b2b1-b803-40b2-a44e-d7eb43c92877","ios":"levelo://app?vid=1d31b2b1-b803-40b2-a44e-d7eb43c92877"},"vehicle_type_id":"4","last_reported":1739556724,"current_range_meters":16800,"station_id":"ce4bhi12rcd13ifvqfp0","pricing_plan_id":"cebpf4jnsgd1na2vs0mg"},{"bike_id":"0495ae58-ffe2-4172-8694-460bdd27c456","system_id":"levelo_inurba_marseille","lat":43.3046,"lon":5.379,"is_reserved":false,"is_disabled":false,"rental_uris":{"android":"levelo://app?vid=0495ae58-ffe2-4172-8694-460bdd27c456","ios":"levelo://app?vid=0495ae58-ffe2-4172-8694-460bdd27c456"},"vehicle_type_id":"4","last_reported":1739556724,"current_range_meters":22800,"station_id":"ce4bgup2rcd13ifvqcn0","pricing_plan_id":"cebpf4jnsgd1na2vs0mg"},{"bike_id":"3563b106-006c-46a8-83e7-d550bb4e6ace","system_id":"levelo_inurba_marseille","lat":43.29582,"lon":5.36747,"is_reserved":false,"is_disabled":false,"rental_uris":{"android":"levelo://app?vid=3563b106-006c-46a8-83e7-d550bb4e6ace","ios":"levelo://app?vid=3563b106-006c-46a8-83e7-d550bb4e6ace"},"vehicle_type_id":"4","last_reported":1739556724,"current_range_meters":17200,"station_id":"ce4bgph2rcd13ifvqc2g","pricing_plan_id":"cebpf4jnsgd1na2vs0mg"},{"bike_id":"0d8e84fa-134b-4731-8b03-74c5d19a0d0d","system_id":"levelo_inurba_marseille","lat":43.30458,"lon":5.37898,"is_reserved":false,"is_disabled":false,"rental_uris":{"android":"levelo://app?vid=0d8e84fa-134b-4731-8b03-74c5d19a0d0d","ios":"levelo://app?vid=0d8e84fa-134b-4731-8b03-74c5d19a0d0d"},"vehicle_type_id":"4","last_reported":1739556724,"current_range_meters":14400,"station_id":"ce4bgup2rcd13ifvqcn0","pricing_plan_id":"cebpf4jnsgd1na2vs0mg"},{"bike_id":"f92e748a-9f9b-4e54-8084-07e33515f3d5","system_id":"levelo_inurba_marseille","lat":43.27078,"lon":5.39318,"is_reserved":false,"is_disabled":true,"rental_uris":{"android":"levelo://app?vid=f92e748a-9f9b-4e54-8084-07e33515f3d5","ios":"levelo://app?vid=f92e748a-9f9b-4e54-8084-07e33515f3d5"},"vehicle_type_id":"4","last_reported":1739556724,"current_range_meters":0,"station_id":"","pricing_plan_id":"cebpf4jnsgd1na2vs0mg"},{"bike_id":"704ec19d-e7c0-4858-a423-dcfa560220a5","system_id":"levelo_inurba_marseille","lat":43.23167,"lon":5.40042,"is_reserved":false,"is_disabled":false,"rental_uris":{"android":"levelo://app?vid=704ec19d-e7c0-4858-a423-dcfa560220a5","ios":"levelo://app?vid=704ec19d-e7c0-4858-a423-dcfa560220a5"},"vehicle_type_id":"4","last_reported":1739556724,"current_range_meters":32800,"station_id":"ce4bhn12rcd13ifvqgqg","pricing_plan_id":"cebpf4jnsgd1na2vs0mg"},{"bike_id":"190dec22-0cb7-45f1-8633-559b8c1913e5","system_id":"levelo_inurba_marseille","lat":43.27569,"lon":5.3844,"is_reserved":false,"is_disabled":false,"rental_uris":{"android":"levelo://app?vid=190dec22-0cb7-45f1-8633-559b8c1913e5","ios":"levelo://app?vid=190dec22-0cb7-45f1-8633-559b8c1913e5"},"vehicle_type_id":"4","last_reported":1739556724,"current_range_meters":39200,"station_id":"ce4bhh92rcd13ifvqfi0","pricing_plan_id":"cebpf4jnsgd1na2vs0mg"},{"bike_id":"89928975-399d-4ba4-aff5-70af6d110ce1","system_id":"levelo_inurba_marseille","lat":43.31227,"lon":5.36856,"is_reserved":false,"is_disabled":false,"rental_uris":{"android":"levelo://app?vid=89928975-399d-4ba4-aff5-70af6d110ce1","ios":"levelo://app?vid=89928975-399d-4ba4-aff5-70af6d110ce1"},"vehicle_type_id":"4","last_reported":1739556724,"current_range_meters":29600,"station_id":"ce4bgl92rcd13ifvqbq0","pricing_plan_id":"cebpf4jnsgd1na2vs0mg"},{"bike_id":"ac8dde57-0274-480f-b484-2422ffeb743c","system_id":"levelo_inurba_marseille","lat":43.29719,"lon":5.36616,"is_reserved":false,"is_disabled":false,"rental_uris":{"android":"levelo://app?vid=ac8dde57-0274-480f-b484-2422ffeb743c","ios":"levelo://app?vid=ac8dde57-0274-480f-b484-2422ffeb743c"},"vehicle_type_id":"4","last_reported":1739556724,"current_range_meters":38800,"station_id":"ce4bgn12rcd13ifvqbt0","pricing_plan_id":"cebpf4jnsgd1na2vs0mg"},{"bike_id":"184ba64c-32a7-43f4-9f48-1f659be66ef5","system_id":"levelo_inurba_marseille","lat":43.28933,"lon":5.39631,"is_reserved":false,"is_disabled":false,"rental_uris":{"android":"levelo://app?vid=184ba64c-32a7-43f4-9f48-1f659be66ef5","ios":"levelo://app?vid=184ba64c-32a7-43f4-9f48-1f659be66ef5"},"vehicle_type_id":"4","last_reported":1739556724,"current_range_meters":30400,"station_id":"ce4bh3h2rcd13ifvqdn0","pricing_plan_id":"cebpf4jnsgd1na2vs0mg"},{"bike_id":"9cf8e6d9-67b8-441b-8ab4-08ef8560d2b0","system_id":"levelo_inurba_marseille","lat":43.33514,"lon":5.35585,"is_reserved":false,"is_disabled":true,"rental_uris":{"android":"levelo://app?vid=9cf8e6d9-67b8-441b-8ab4-08ef8560d2b0","ios":"levelo://app?vid=9cf8e6d9-67b8-441b-8ab4-08ef8560d2b0"},"vehicle_type_id":"4","last_reported":1739556724,"current_range_meters":0,"station_id":"","pricing_plan_id":"cebpf4jnsgd1na2vs0mg"},{"bike_id":"2ca07810-b31a-498e-b0c4-e9a416f427da","system_id":"levelo_inurba_marseille","lat":43.30605,"lon":5.40085,"is_reserved":false,"is_disabled":false,"rental_uris":{"android":"levelo://app?vid=2ca07810-b31a-498e-b0c4-e9a416f427da","ios":"levelo://app?vid=2ca07810-b31a-498e-b0c4-e9a416f427da"},"vehicle_type_id":"4","last_reported":1739556724,"current_range_meters":33600,"station_id":"ce4bh112rcd13ifvqda0","pricing_plan_id":"cebpf4jnsgd1na2vs0mg"},{"bike_id":"65ab21a6-945a-4135-95b3-ed0b44af68ea","system_id":"levelo_inurba_marseille","lat":43.30301,"lon":5.39224,"is_reserved":false,"is_disabled":false,"rental_uris":{"android":"levelo://app?vid=65ab21a6-945a-4135-95b3-ed0b44af68ea","ios":"levelo://app?vid=65ab21a6-945a-4135-95b3-ed0b44af68ea"},"vehicle_type_id":"4","last_reported":1739556724,"current_range_meters":24800,"station_id":"ce4bgkh2rcd13ifvqbk0","pricing_plan_id":"cebpf4jnsgd1na2vs0mg"},{"bike_id":"6279f888-1d4b-4ebb-b3f2-c7248902b00f","system_id":"levelo_inurba_marseille","lat":43.25509,"lon":5.37647,"is_reserved":false,"is_disabled":false,"rental_uris":{"android":"levelo://app?vid=6279f888-1d4b-4ebb-b3f2-c7248902b00f","ios":"levelo://app?vid=6279f888-1d4b-4ebb-b3f2-c7248902b00f"},"vehicle_type_id":"4","last_reported":1739556724,"current_range_meters":16400,"station_id":"ce4bhh12rcd13ifvqff0","pricing_plan_id":"cebpf4jnsgd1na2vs0mg"},{"bike_id":"bb392dab-df23-4c05-bdbf-1abb3cd2b6b0","system_id":"levelo_inurba_marseille","lat":43.26929,"lon":5.3892,"is_reserved":false,"is_disabled":false,"rental_uris":{"android":"levelo://app?vid=bb392dab-df23-4c05-bdbf-1abb3cd2b6b0","ios":"levelo://app?vid=bb392dab-df23-4c05-bdbf-1abb3cd2b6b0"},"vehicle_type_id":"4","last_reported":1739556724,"current_range_meters":28800,"station_id":"ce4bhhh2rcd13ifvqfl0","pricing_plan_id":"cebpf4jnsgd1na2vs0mg"},{"bike_id":"1235fee4-9918-4d74-af9c-81427795fc99","system_id":"levelo_inurba_marseille","lat":43.29931,"lon":5.36553,"is_reserved":false,"is_disabled":false,"rental_uris":{"android":"levelo://app?vid=1235fee4-9918-4d74-af9c-81427795fc99","ios":"levelo://app?vid=1235fee4-9918-4d74-af9c-81427795fc99"},"vehicle_type_id":"4","last_reported":1739556724,"current_range_meters":10000,"station_id":"ce4bgm92rcd13ifvqbr0","pricing_plan_id":"cebpf4jnsgd1na2vs0mg"},{"bike_id":"702279ff-6173-4c74-a6c6-d3df78622bd6","system_id":"levelo_inurba_marseille","lat":43.309618,"lon":5.390382,"is_reserved":false,"is_disabled":true,"rental_uris":{"android":"levelo://app?vid=702279ff-6173-4c74-a6c6-d3df78622bd6","ios":"levelo://app?vid=702279ff-6173-4c74-a6c6-d3df78622bd6"},"vehicle_type_id":"4","last_reported":1739556724,"current_range_meters":13600,"station_id":"ce4bgup2rcd13ifvqco0","pricing_plan_id":"cebpf4jnsgd1na2vs0mg"},{"bike_id":"51ab7186-5043-4bed-baca-73708608a302","system_id":"levelo_inurba_marseille","lat":43.29584,"lon":5.37026,"is_reserved":false,"is_disabled":true,"rental_uris":{"android":"levelo://app?vid=51ab7186-5043-4bed-baca-73708608a302","ios":"levelo://app?vid=51ab7186-5043-4bed-baca-73708608a302"},"vehicle_type_id":"4","last_reported":1739556724,"current_range_meters":0,"station_id":"","pricing_plan_id":"cebpf4jnsgd1na2vs0mg"},{"bike_id":"b8636b77-951f-4296-9531-3f61fad7e007","system_id":"levelo_inurba_marseille","lat":43.33024,"lon":5.39041,"is_reserved":false,"is_disabled":false,"rental_uris":{"android":"levelo://app?vid=b8636b77-951f-4296-9531-3f61fad7e007","ios":"levelo://app?vid=b8636b77-951f-4296-9531-3f61fad7e007"},"vehicle_type_id":"4","last_reported":1739556724,"current_range_meters":12000,"station_id":"ce4bhr92rcd13ifvqhrg","pricing_plan_id":"cebpf4jnsgd1na2vs0mg"},{"bike_id":"e4f39a50-646e-457a-bead-9a1d8a8ba699","system_id":"levelo_inurba_marseille","lat":43.29708,"lon":5.37697,"is_reserved":false,"is_disabled":false,"rental_uris":{"android":"levelo://app?vid=e4f39a50-646e-457a-bead-9a1d8a8ba699","ios":"levelo://app?vid=e4f39a50-646e-457a-bead-9a1d8a8ba699"},"vehicle_type_id":"4","last_reported":1739556724,"current_range_meters":24400,"station_id":"ce4bgkh2rcd13ifvqbl0","pricing_plan_id":"cebpf4jnsgd1na2vs0mg"},{"bike_id":"d3fc5f7e-9983-4343-a9af-f36df7d45f29","system_id":"levelo_inurba_marseille","lat":43.23161,"lon":5.40061,"is_reserved":false,"is_disabled":false,"rental_uris":{"android":"levelo://app?vid=d3fc5f7e-9983-4343-a9af-f36df7d45f29","ios":"levelo://app?vid=d3fc5f7e-9983-4343-a9af-f36df7d45f29"},"vehicle_type_id":"4","last_reported":1739556724,"current_range_meters":18000,"station_id":"ce4bhn12rcd13ifvqgqg","pricing_plan_id":"cebpf4jnsgd1na2vs0mg"},{"bike_id":"bac6969b-52bc-48cc-ad44-24e52b62e686","system_id":"levelo_inurba_marseille","lat":43.25001,"lon":5.38926,"is_reserved":false,"is_disabled":false,"rental_uris":{"android":"levelo://app?vid=bac6969b-52bc-48cc-ad44-24e52b62e686","ios":"levelo://app?vid=bac6969b-52bc-48cc-ad44-24e52b62e686"},"vehicle_type_id":"4","last_reported":1739556724,"current_range_meters":22800,"station_id":"ce4bhgp2rcd13ifvqfd0","pricing_plan_id":"cebpf4jnsgd1na2vs0mg"},{"bike_id":"3726052c-435c-4e9a-97b4-6741247fd797","system_id":"levelo_inurba_marseille","lat":43.28425,"lon":5.34985,"is_reserved":false,"is_disabled":false,"rental_uris":{"android":"levelo://app?vid=3726052c-435c-4e9a-97b4-6741247fd797","ios":"levelo://app?vid=3726052c-435c-4e9a-97b4-6741247fd797"},"vehicle_type_id":"4","last_reported":1739556724,"current_range_meters":32000,"station_id":"ce4bhbh2rcd13ifvqepg","pricing_plan_id":"cebpf4jnsgd1na2vs0mg"},{"bike_id":"49cc0574-de3f-448a-b9a7-ad9a49e727aa","system_id":"levelo_inurba_marseille","lat":43.27992,"lon":5.41666,"is_reserved":false,"is_disabled":false,"rental_uris":{"android":"levelo://app?vid=49cc0574-de3f-448a-b9a7-ad9a49e727aa","ios":"levelo://app?vid=49cc0574-de3f-448a-b9a7-ad9a49e727aa"},"vehicle_type_id":"4","last_reported":1739556724,"current_range_meters":24800,"station_id":"ce4bho12rcd13ifvqh1g","pricing_plan_id":"cebpf4jnsgd1na2vs0mg"},{"bike_id":"2f4e9f13-2aba-4e8f-aa80-47bac9e182ed","system_id":"levelo_inurba_marseille","lat":43.28348,"lon":5.3811,"is_reserved":false,"is_disabled":false,"rental_uris":{"android":"levelo://app?vid=2f4e9f13-2aba-4e8f-aa80-47bac9e182ed","ios":"levelo://app?vid=2f4e9f13-2aba-4e8f-aa80-47bac9e182ed"},"vehicle_type_id":"4","last_reported":1739556724,"current_range_meters":36800,"station_id":"ce4bh412rcd13ifvqdr0","pricing_plan_id":"cebpf4jnsgd1na2vs0mg"},{"bike_id":"c40e2cb9-b89c-4dbd-956b-535ef79f1d37","system_id":"levelo_inurba_marseille","lat":43.24814,"lon":5.37456,"is_reserved":false,"is_disabled":false,"rental_uris":{"android":"levelo://app?vid=c40e2cb9-b89c-4dbd-956b-535ef79f1d37","ios":"levelo://app?vid=c40e2cb9-b89c-4dbd-956b-535ef79f1d37"},"vehicle_type_id":"4","last_reported":1739556724,"current_range_meters":27200,"station_id":"ce4bhgh2rcd13ifvqfb0","pricing_plan_id":"cebpf4jnsgd1na2vs0mg"},{"bike_id":"97fd041f-8c60-424a-b5ae-0602fb75ba6a","system_id":"levelo_inurba_marseille","lat":43.29535,"lon":5.39022,"is_reserved":false,"is_disabled":false,"rental_uris":{"android":"levelo://app?vid=97fd041f-8c60-424a-b5ae-0602fb75ba6a","ios":"levelo://app?vid=97fd041f-8c60-424a-b5ae-0602fb75ba6a"},"vehicle_type_id":"4","last_reported":1739556724,"current_range_meters":6400,"station_id":"ce4bh3p2rcd13ifvqdp0","pricing_plan_id":"cebpf4jnsgd1na2vs0mg"},{"bike_id":"6d14ffd0-8cb0-40f3-8b6f-5b79b4098bae","system_id":"levelo_inurba_marseille","lat":43.28132,"lon":5.37839,"is_reserved":false,"is_disabled":false,"rental_uris":{"android":"levelo://app?vid=6d14ffd0-8cb0-40f3-8b6f-5b79b4098bae","ios":"levelo://app?vid=6d14ffd0-8cb0-40f3-8b6f-5b79b4098bae"},"vehicle_type_id":"4","last_reported":1739556724,"current_range_meters":36400,"station_id":"ce4bha12rcd13ifvqee0","pricing_plan_id":"cebpf4jnsgd1na2vs0mg"},{"bike_id":"333946c8-1518-4495-85da-e9172c26eb3f","system_id":"levelo_inurba_marseille","lat":43.28698,"lon":5.37399,"is_reserved":false,"is_disabled":false,"rental_uris":{"android":"levelo://app?vid=333946c8-1518-4495-85da-e9172c26eb3f","ios":"levelo://app?vid=333946c8-1518-4495-85da-e9172c26eb3f"},"vehicle_type_id":"4","last_reported":1739556724,"current_range_meters":28800,"station_id":"ce4bh3p2rcd13ifvqdq0","pricing_plan_id":"cebpf4jnsgd1na2vs0mg"},{"bike_id":"24f49b1d-f018-4b50-9ffd-66b887dbd99f","system_id":"levelo_inurba_marseille","lat":43.26956,"lon":5.38853,"is_reserved":false,"is_disabled":false,"rental_uris":{"android":"levelo://app?vid=24f49b1d-f018-4b50-9ffd-66b887dbd99f","ios":"levelo://app?vid=24f49b1d-f018-4b50-9ffd-66b887dbd99f"},"vehicle_type_id":"4","last_reported":1739556724,"current_range_meters":22800,"station_id":"ce4bhhh2rcd13ifvqfl0","pricing_plan_id":"cebpf4jnsgd1na2vs0mg"},{"bike_id":"feb81031-ecb8-4db8-9c13-5977ea4c30a9","system_id":"levelo_inurba_marseille","lat":43.29522,"lon":5.37504,"is_reserved":false,"is_disabled":false,"rental_uris":{"android":"levelo://app?vid=feb81031-ecb8-4db8-9c13-5977ea4c30a9","ios":"levelo://app?vid=feb81031-ecb8-4db8-9c13-5977ea4c30a9"},"vehicle_type_id":"4","last_reported":1739556724,"current_range_meters":22400,"station_id":"ce4bgkp2rcd13ifvqbmg","pricing_plan_id":"cebpf4jnsgd1na2vs0mg"},{"bike_id":"03c94369-bf15-48a9-b444-b51263606ff2","system_id":"levelo_inurba_marseille","lat":43.30342,"lon":5.40436,"is_reserved":false,"is_disabled":false,"rental_uris":{"android":"levelo://app?vid=03c94369-bf15-48a9-b444-b51263606ff2","ios":"levelo://app?vid=03c94369-bf15-48a9-b444-b51263606ff2"},"vehicle_type_id":"4","last_reported":1739556724,"current_range_meters":6400,"station_id":"ce4bh012rcd13ifvqd10","pricing_plan_id":"cebpf4jnsgd1na2vs0mg"},{"bike_id":"c8c0516c-62b0-4cbf-88f8-60819aff6581","system_id":"levelo_inurba_marseille","lat":43.25501,"lon":5.37608,"is_reserved":false,"is_disabled":true,"rental_uris":{"android":"levelo://app?vid=c8c0516c-62b0-4cbf-88f8-60819aff6581","ios":"levelo://app?vid=c8c0516c-62b0-4cbf-88f8-60819aff6581"},"vehicle_type_id":"4","last_reported":1739556724,"current_range_meters":16800,"station_id":"ce4bhh12rcd13ifvqff0","pricing_plan_id":"cebpf4jnsgd1na2vs0mg"},{"bike_id":"0bd1a399-2480-469c-91cd-e64288e63568","system_id":"levelo_inurba_marseille","lat":43.30356,"lon":5.41872,"is_reserved":false,"is_disabled":false,"rental_uris":{"android":"levelo://app?vid=0bd1a399-2480-469c-91cd-e64288e63568","ios":"levelo://app?vid=0bd1a399-2480-469c-91cd-e64288e63568"},"vehicle_type_id":"4","last_reported":1739556724,"current_range_meters":38800,"station_id":"ce4bhop2rcd13ifvqh7g","pricing_plan_id":"cebpf4jnsgd1na2vs0mg"},{"bike_id":"1e059a21-f6ec-4591-9ae0-dced5b8bf4f6","system_id":"levelo_inurba_marseille","lat":43.30099,"lon":5.3907,"is_reserved":false,"is_disabled":false,"rental_uris":{"android":"levelo://app?vid=1e059a21-f6ec-4591-9ae0-dced5b8bf4f6","ios":"levelo://app?vid=1e059a21-f6ec-4591-9ae0-dced5b8bf4f6"},"vehicle_type_id":"4","last_reported":1739556724,"current_range_meters":36800,"station_id":"ce4bh192rcd13ifvqdb0","pricing_plan_id":"cebpf4jnsgd1na2vs0mg"},{"bike_id":"2e8fc403-db89-4ec8-942c-727343aeca53","system_id":"levelo_inurba_marseille","lat":43.28996,"lon":5.35606,"is_reserved":false,"is_disabled":false,"rental_uris":{"android":"levelo://app?vid=2e8fc403-db89-4ec8-942c-727343aeca53","ios":"levelo://app?vid=2e8fc403-db89-4ec8-942c-727343aeca53"},"vehicle_type_id":"4","last_reported":1739556724,"current_range_meters":39200,"station_id":"ce4bhb92rcd13ifvqen0","pricing_plan_id":"cebpf4jnsgd1na2vs0mg"},{"bike_id":"2d4913bd-a714-4d5f-8263-dd063d2bbf2b","system_id":"levelo_inurba_marseille","lat":43.2581,"lon":5.39435,"is_reserved":false,"is_disabled":false,"rental_uris":{"android":"levelo://app?vid=2d4913bd-a714-4d5f-8263-dd063d2bbf2b","ios":"levelo://app?vid=2d4913bd-a714-4d5f-8263-dd063d2bbf2b"},"vehicle_type_id":"4","last_reported":1739556724,"current_range_meters":11200,"station_id":"ce4bhip2rcd13ifvqft0","pricing_plan_id":"cebpf4jnsgd1na2vs0mg"},{"bike_id":"a70729f0-bf50-486d-acf1-77ab278c9efb","system_id":"levelo_inurba_marseille","lat":43.27453,"lon":5.41036,"is_reserved":false,"is_disabled":false,"rental_uris":{"android":"levelo://app?vid=a70729f0-bf50-486d-acf1-77ab278c9efb","ios":"levelo://app?vid=a70729f0-bf50-486d-acf1-77ab278c9efb"},"vehicle_type_id":"4","last_reported":1739556724,"current_range_meters":16800,"station_id":"","pricing_plan_id":"cebpf4jnsgd1na2vs0mg"},{"bike_id":"cb2c880d-6099-4e99-b126-5db2ed775e84","system_id":"levelo_inurba_marseille","lat":43.25023,"lon":5.38938,"is_reserved":false,"is_disabled":false,"rental_uris":{"android":"levelo://app?vid=cb2c880d-6099-4e99-b126-5db2ed775e84","ios":"levelo://app?vid=cb2c880d-6099-4e99-b126-5db2ed775e84"},"vehicle_type_id":"4","last_reported":1739556724,"current_range_meters":38800,"station_id":"ce4bhgp2rcd13ifvqfd0","pricing_plan_id":"cebpf4jnsgd1na2vs0mg"},{"bike_id":"838d55fb-dd91-42c0-bd0a-19319617ddba","system_id":"levelo_inurba_marseille","lat":43.28158,"lon":5.42662,"is_reserved":false,"is_disabled":true,"rental_uris":{"android":"levelo://app?vid=838d55fb-dd91-42c0-bd0a-19319617ddba","ios":"levelo://app?vid=838d55fb-dd91-42c0-bd0a-19319617ddba"},"vehicle_type_id":"4","last_reported":1739556724,"current_range_meters":0,"station_id":"ce4bhnh2rcd13ifvqgug","pricing_plan_id":"cebpf4jnsgd1na2vs0mg"},{"bike_id":"07cce0e4-c34c-4c6c-b7f3-11be90ceb56c","system_id":"levelo_inurba_marseille","lat":43.3027,"lon":5.39641,"is_reserved":false,"is_disabled":false,"rental_uris":{"android":"levelo://app?vid=07cce0e4-c34c-4c6c-b7f3-11be90ceb56c","ios":"levelo://app?vid=07cce0e4-c34c-4c6c-b7f3-11be90ceb56c"},"vehicle_type_id":"4","last_reported":1739556724,"current_range_meters":12000,"station_id":"","pricing_plan_id":"cebpf4jnsgd1na2vs0mg"},{"bike_id":"eb4b5a8a-7ccb-401a-ae98-94e0934d6e44","system_id":"levelo_inurba_marseille","lat":43.27992,"lon":5.4167,"is_reserved":false,"is_disabled":false,"rental_uris":{"android":"levelo://app?vid=eb4b5a8a-7ccb-401a-ae98-94e0934d6e44","ios":"levelo://app?vid=eb4b5a8a-7ccb-401a-ae98-94e0934d6e44"},"vehicle_type_id":"4","last_reported":1739556724,"current_range_meters":30800,"station_id":"ce4bho12rcd13ifvqh1g","pricing_plan_id":"cebpf4jnsgd1na2vs0mg"},{"bike_id":"2533b922-bc35-4de8-9109-768b6e8dc037","system_id":"levelo_inurba_marseille","lat":43.29259,"lon":5.38448,"is_reserved":false,"is_disabled":false,"rental_uris":{"android":"levelo://app?vid=2533b922-bc35-4de8-9109-768b6e8dc037","ios":"levelo://app?vid=2533b922-bc35-4de8-9109-768b6e8dc037"},"vehicle_type_id":"4","last_reported":1739556724,"current_range_meters":38800,"station_id":"ce4bh692rcd13ifvqea0","pricing_plan_id":"cebpf4jnsgd1na2vs0mg"},{"bike_id":"f95c598b-73a5-4793-bd58-d5ddde21f497","system_id":"levelo_inurba_marseille","lat":43.28618,"lon":5.35107,"is_reserved":false,"is_disabled":false,"rental_uris":{"android":"levelo://app?vid=f95c598b-73a5-4793-bd58-d5ddde21f497","ios":"levelo://app?vid=f95c598b-73a5-4793-bd58-d5ddde21f497"},"vehicle_type_id":"4","last_reported":1739556724,"current_range_meters":18800,"station_id":"ce4bhch2rcd13ifvqeug","pricing_plan_id":"cebpf4jnsgd1na2vs0mg"},{"bike_id":"fb664545-ab38-45f6-8244-b76e351a8baa","system_id":"levelo_inurba_marseille","lat":43.30265,"lon":5.37689,"is_reserved":false,"is_disabled":false,"rental_uris":{"android":"levelo://app?vid=fb664545-ab38-45f6-8244-b76e351a8baa","ios":"levelo://app?vid=fb664545-ab38-45f6-8244-b76e351a8baa"},"vehicle_type_id":"4","last_reported":1739556724,"current_range_meters":38800,"station_id":"ce4bguh2rcd13ifvqcj0","pricing_plan_id":"cebpf4jnsgd1na2vs0mg"},{"bike_id":"f7722aa8-7dbb-40b4-8785-faf5a2e7b631","system_id":"levelo_inurba_marseille","lat":43.25008,"lon":5.38936,"is_reserved":false,"is_disabled":false,"rental_uris":{"android":"levelo://app?vid=f7722aa8-7dbb-40b4-8785-faf5a2e7b631","ios":"levelo://app?vid=f7722aa8-7dbb-40b4-8785-faf5a2e7b631"},"vehicle_type_id":"4","last_reported":1739556724,"current_range_meters":38800,"station_id":"ce4bhgp2rcd13ifvqfd0","pricing_plan_id":"cebpf4jnsgd1na2vs0mg"},{"bike_id":"78580374-70a8-4853-ac6b-e6acdbe16ef7","system_id":"levelo_inurba_marseille","lat":43.24806,"lon":5.37458,"is_reserved":false,"is_disabled":true,"rental_uris":{"android":"levelo://app?vid=78580374-70a8-4853-ac6b-e6acdbe16ef7","ios":"levelo://app?vid=78580374-70a8-4853-ac6b-e6acdbe16ef7"},"vehicle_type_id":"4","last_reported":1739556724,"current_range_meters":38800,"station_id":"ce4bhgh2rcd13ifvqfb0","pricing_plan_id":"cebpf4jnsgd1na2vs0mg"},{"bike_id":"f98b3cf7-0cb7-4bcf-83bb-ea4a678cea92","system_id":"levelo_inurba_marseille","lat":43.29256,"lon":5.38441,"is_reserved":false,"is_disabled":false,"rental_uris":{"android":"levelo://app?vid=f98b3cf7-0cb7-4bcf-83bb-ea4a678cea92","ios":"levelo://app?vid=f98b3cf7-0cb7-4bcf-83bb-ea4a678cea92"},"vehicle_type_id":"4","last_reported":1739556724,"current_range_meters":28400,"station_id":"ce4bh692rcd13ifvqea0","pricing_plan_id":"cebpf4jnsgd1na2vs0mg"},{"bike_id":"fbdcdc53-8f85-434d-8b26-70a82b6baba8","system_id":"levelo_inurba_marseille","lat":43.28676,"lon":5.38676,"is_reserved":false,"is_disabled":false,"rental_uris":{"android":"levelo://app?vid=fbdcdc53-8f85-434d-8b26-70a82b6baba8","ios":"levelo://app?vid=fbdcdc53-8f85-434d-8b26-70a82b6baba8"},"vehicle_type_id":"4","last_reported":1739556724,"current_range_meters":29600,"station_id":"ce4bh492rcd13ifvqdug","pricing_plan_id":"cebpf4jnsgd1na2vs0mg"},{"bike_id":"203fb8aa-7299-4114-85f2-8be5b5414709","system_id":"levelo_inurba_marseille","lat":43.31123,"lon":5.37779,"is_reserved":false,"is_disabled":false,"rental_uris":{"android":"levelo://app?vid=203fb8aa-7299-4114-85f2-8be5b5414709","ios":"levelo://app?vid=203fb8aa-7299-4114-85f2-8be5b5414709"},"vehicle_type_id":"4","last_reported":1739556724,"current_range_meters":4800,"station_id":"ce4bgt92rcd13ifvqcg0","pricing_plan_id":"cebpf4jnsgd1na2vs0mg"},{"bike_id":"23849fcd-4bc4-44f6-8337-e9a9a16fe0e7","system_id":"levelo_inurba_marseille","lat":43.29742,"lon":5.47954,"is_reserved":false,"is_disabled":true,"rental_uris":{"android":"levelo://app?vid=23849fcd-4bc4-44f6-8337-e9a9a16fe0e7","ios":"levelo://app?vid=23849fcd-4bc4-44f6-8337-e9a9a16fe0e7"},"vehicle_type_id":"4","last_reported":1739556724,"current_range_meters":2000,"station_id":"","pricing_plan_id":"cebpf4jnsgd1na2vs0mg"},{"bike_id":"f90431ca-9acf-43b8-8a76-bd65cc4fc0e4","system_id":"levelo_inurba_marseille","lat":43.29967,"lon":5.37172,"is_reserved":false,"is_disabled":false,"rental_uris":{"android":"levelo://app?vid=f90431ca-9acf-43b8-8a76-bd65cc4fc0e4","ios":"levelo://app?vid=f90431ca-9acf-43b8-8a76-bd65cc4fc0e4"},"vehicle_type_id":"4","last_reported":1739556724,"current_range_meters":37600,"station_id":"ce4bgr92rcd13ifvqc7g","pricing_plan_id":"cebpf4jnsgd1na2vs0mg"},{"bike_id":"cfe0acf1-54da-47d0-bd99-eef3449563be","system_id":"levelo_inurba_marseille","lat":43.28615,"lon":5.35115,"is_reserved":false,"is_disabled":false,"rental_uris":{"android":"levelo://app?vid=cfe0acf1-54da-47d0-bd99-eef3449563be","ios":"levelo://app?vid=cfe0acf1-54da-47d0-bd99-eef3449563be"},"vehicle_type_id":"4","last_reported":1739556724,"current_range_meters":38800,"station_id":"ce4bhch2rcd13ifvqeug","pricing_plan_id":"cebpf4jnsgd1na2vs0mg"},{"bike_id":"25a0020e-c454-4908-a019-edd94f18a655","system_id":"levelo_inurba_marseille","lat":43.31329,"lon":5.39679,"is_reserved":false,"is_disabled":false,"rental_uris":{"android":"levelo://app?vid=25a0020e-c454-4908-a019-edd94f18a655","ios":"levelo://app?vid=25a0020e-c454-4908-a019-edd94f18a655"},"vehicle_type_id":"4","last_reported":1739556724,"current_range_meters":29600,"station_id":"ce4bgvp2rcd13ifvqcu0","pricing_plan_id":"cebpf4jnsgd1na2vs0mg"},{"bike_id":"08a65f40-8890-47c5-8c4a-2a9286687d99","system_id":"levelo_inurba_marseille","lat":43.29711,"lon":5.37694,"is_reserved":false,"is_disabled":false,"rental_uris":{"android":"levelo://app?vid=08a65f40-8890-47c5-8c4a-2a9286687d99","ios":"levelo://app?vid=08a65f40-8890-47c5-8c4a-2a9286687d99"},"vehicle_type_id":"4","last_reported":1739556724,"current_range_meters":7200,"station_id":"ce4bgkh2rcd13ifvqbl0","pricing_plan_id":"cebpf4jnsgd1na2vs0mg"},{"bike_id":"d1b7e7c3-d876-4585-aa93-a701646b8c19","system_id":"levelo_inurba_marseille","lat":43.23187,"lon":5.39988,"is_reserved":false,"is_disabled":false,"rental_uris":{"android":"levelo://app?vid=d1b7e7c3-d876-4585-aa93-a701646b8c19","ios":"levelo://app?vid=d1b7e7c3-d876-4585-aa93-a701646b8c19"},"vehicle_type_id":"4","last_reported":1739556724,"current_range_meters":33200,"station_id":"ce4bhn12rcd13ifvqgqg","pricing_plan_id":"cebpf4jnsgd1na2vs0mg"},{"bike_id":"dc4fc55f-0ea9-49a1-bb39-4722eda2c2cd","system_id":"levelo_inurba_marseille","lat":43.29922,"lon":5.3766,"is_reserved":false,"is_disabled":false,"rental_uris":{"android":"levelo://app?vid=dc4fc55f-0ea9-49a1-bb39-4722eda2c2cd","ios":"levelo://app?vid=dc4fc55f-0ea9-49a1-bb39-4722eda2c2cd"},"vehicle_type_id":"4","last_reported":1739556724,"current_range_meters":20800,"station_id":"","pricing_plan_id":"cebpf4jnsgd1na2vs0mg"},{"bike_id":"287553a1-b10a-4645-a9a1-48b5b7f00d14","system_id":"levelo_inurba_marseille","lat":43.30132,"lon":5.38781,"is_reserved":false,"is_disabled":false,"rental_uris":{"android":"levelo://app?vid=287553a1-b10a-4645-a9a1-48b5b7f00d14","ios":"levelo://app?vid=287553a1-b10a-4645-a9a1-48b5b7f00d14"},"vehicle_type_id":"4","last_reported":1739556724,"current_range_meters":9200,"station_id":"ce4bghh2rcd13ifvqb60","pricing_plan_id":"cebpf4jnsgd1na2vs0mg"},{"bike_id":"f4819c25-3e00-41ce-8105-106f04d74119","system_id":"levelo_inurba_marseille","lat":43.25577,"lon":5.38222,"is_reserved":false,"is_disabled":false,"rental_uris":{"android":"levelo://app?vid=f4819c25-3e00-41ce-8105-106f04d74119","ios":"levelo://app?vid=f4819c25-3e00-41ce-8105-106f04d74119"},"vehicle_type_id":"4","last_reported":1739556724,"current_range_meters":38800,"station_id":"ce4bhih2rcd13ifvqfs0","pricing_plan_id":"cebpf4jnsgd1na2vs0mg"},{"bike_id":"60ecf81d-270a-4c81-90cc-fe7ff8ae2501","system_id":"levelo_inurba_marseille","lat":43.29166,"lon":5.37168,"is_reserved":false,"is_disabled":false,"rental_uris":{"android":"levelo://app?vid=60ecf81d-270a-4c81-90cc-fe7ff8ae2501","ios":"levelo://app?vid=60ecf81d-270a-4c81-90cc-fe7ff8ae2501"},"vehicle_type_id":"4","last_reported":1739556724,"current_range_meters":36400,"station_id":"ce4bha92rcd13ifvqeh0","pricing_plan_id":"cebpf4jnsgd1na2vs0mg"},{"bike_id":"4ad51a02-f2dd-46e4-a406-ba69455ffee4","system_id":"levelo_inurba_marseille","lat":43.28024,"lon":5.40846,"is_reserved":false,"is_disabled":false,"rental_uris":{"android":"levelo://app?vid=4ad51a02-f2dd-46e4-a406-ba69455ffee4","ios":"levelo://app?vid=4ad51a02-f2dd-46e4-a406-ba69455ffee4"},"vehicle_type_id":"4","last_reported":1739556724,"current_range_meters":11200,"station_id":"","pricing_plan_id":"cebpf4jnsgd1na2vs0mg"},{"bike_id":"c4df4f16-0512-464a-a719-0bb1f3feadb0","system_id":"levelo_inurba_marseille","lat":43.32339,"lon":5.40625,"is_reserved":false,"is_disabled":false,"rental_uris":{"android":"levelo://app?vid=c4df4f16-0512-464a-a719-0bb1f3feadb0","ios":"levelo://app?vid=c4df4f16-0512-464a-a719-0bb1f3feadb0"},"vehicle_type_id":"4","last_reported":1739556724,"current_range_meters":18800,"station_id":"ce4bhq92rcd13ifvqhjg","pricing_plan_id":"cebpf4jnsgd1na2vs0mg"},{"bike_id":"bf7d337c-6423-4c9f-92a3-1b70d110e15a","system_id":"levelo_inurba_marseille","lat":43.25499,"lon":5.37657,"is_reserved":false,"is_disabled":false,"rental_uris":{"android":"levelo://app?vid=bf7d337c-6423-4c9f-92a3-1b70d110e15a","ios":"levelo://app?vid=bf7d337c-6423-4c9f-92a3-1b70d110e15a"},"vehicle_type_id":"4","last_reported":1739556724,"current_range_meters":27600,"station_id":"ce4bhh12rcd13ifvqff0","pricing_plan_id":"cebpf4jnsgd1na2vs0mg"},{"bike_id":"00a4e08f-061f-446d-9506-371f75a97092","system_id":"levelo_inurba_marseille","lat":43.27991,"lon":5.40037,"is_reserved":false,"is_disabled":false,"rental_uris":{"android":"levelo://app?vid=00a4e08f-061f-446d-9506-371f75a97092","ios":"levelo://app?vid=00a4e08f-061f-446d-9506-371f75a97092"},"vehicle_type_id":"4","last_reported":1739556724,"current_range_meters":20800,"station_id":"ce4bho92rcd13ifvqh4g","pricing_plan_id":"cebpf4jnsgd1na2vs0mg"},{"bike_id":"22c7f762-057b-4ab1-b757-5dbab998e19d","system_id":"levelo_inurba_marseille","lat":43.28485,"lon":5.38411,"is_reserved":false,"is_disabled":false,"rental_uris":{"android":"levelo://app?vid=22c7f762-057b-4ab1-b757-5dbab998e19d","ios":"levelo://app?vid=22c7f762-057b-4ab1-b757-5dbab998e19d"},"vehicle_type_id":"4","last_reported":1739556724,"current_range_meters":36000,"station_id":"ce4bh512rcd13ifvqe3g","pricing_plan_id":"cebpf4jnsgd1na2vs0mg"},{"bike_id":"03eba1d0-92c1-4e6e-a4d0-7c546f2439c0","system_id":"levelo_inurba_marseille","lat":43.337444,"lon":5.374475,"is_reserved":false,"is_disabled":true,"rental_uris":{"android":"levelo://app?vid=03eba1d0-92c1-4e6e-a4d0-7c546f2439c0","ios":"levelo://app?vid=03eba1d0-92c1-4e6e-a4d0-7c546f2439c0"},"vehicle_type_id":"4","last_reported":1739556724,"current_range_meters":0,"station_id":"","pricing_plan_id":"cebpf4jnsgd1na2vs0mg"},{"bike_id":"1504eae3-2c47-4bb5-8078-902e9ea1cb61","system_id":"levelo_inurba_marseille","lat":43.27324,"lon":5.3907,"is_reserved":false,"is_disabled":false,"rental_uris":{"android":"levelo://app?vid=1504eae3-2c47-4bb5-8078-902e9ea1cb61","ios":"levelo://app?vid=1504eae3-2c47-4bb5-8078-902e9ea1cb61"},"vehicle_type_id":"4","last_reported":1739556724,"current_range_meters":29600,"station_id":"ce4bhgp2rcd13ifvqfe0","pricing_plan_id":"cebpf4jnsgd1na2vs0mg"},{"bike_id":"37d274bc-7488-45e2-be26-b72715489ecd","system_id":"levelo_inurba_marseille","lat":43.2844,"lon":5.39191,"is_reserved":false,"is_disabled":true,"rental_uris":{"android":"levelo://app?vid=37d274bc-7488-45e2-be26-b72715489ecd","ios":"levelo://app?vid=37d274bc-7488-45e2-be26-b72715489ecd"},"vehicle_type_id":"4","last_reported":1739556724,"current_range_meters":38800,"station_id":"ce4bhoh2rcd13ifvqh5g","pricing_plan_id":"cebpf4jnsgd1na2vs0mg"},{"bike_id":"8208b9be-b2fb-4d4a-9708-6254e17f01c5","system_id":"levelo_inurba_marseille","lat":43.25498,"lon":5.37621,"is_reserved":false,"is_disabled":false,"rental_uris":{"android":"levelo://app?vid=8208b9be-b2fb-4d4a-9708-6254e17f01c5","ios":"levelo://app?vid=8208b9be-b2fb-4d4a-9708-6254e17f01c5"},"vehicle_type_id":"4","last_reported":1739556724,"current_range_meters":36800,"station_id":"ce4bhh12rcd13ifvqff0","pricing_plan_id":"cebpf4jnsgd1na2vs0mg"},{"bike_id":"298b78b8-4711-4491-8ae5-3ff7e249ae10","system_id":"levelo_inurba_marseille","lat":43.31062,"lon":5.38346,"is_reserved":false,"is_disabled":true,"rental_uris":{"android":"levelo://app?vid=298b78b8-4711-4491-8ae5-3ff7e249ae10","ios":"levelo://app?vid=298b78b8-4711-4491-8ae5-3ff7e249ae10"},"vehicle_type_id":"4","last_reported":1739556724,"current_range_meters":0,"station_id":"ce4bgv92rcd13ifvqcr0","pricing_plan_id":"cebpf4jnsgd1na2vs0mg"},{"bike_id":"5016e875-414a-41bd-8f00-6a5845e39ba6","system_id":"levelo_inurba_marseille","lat":43.30791,"lon":5.43525,"is_reserved":false,"is_disabled":false,"rental_uris":{"android":"levelo://app?vid=5016e875-414a-41bd-8f00-6a5845e39ba6","ios":"levelo://app?vid=5016e875-414a-41bd-8f00-6a5845e39ba6"},"vehicle_type_id":"4","last_reported":1739556724,"current_range_meters":33200,"station_id":"ce4bhph2rcd13ifvqheg","pricing_plan_id":"cebpf4jnsgd1na2vs0mg"},{"bike_id":"283e69ea-73d2-4b99-bf14-5bf7704cdaf0","system_id":"levelo_inurba_marseille","lat":43.2508,"lon":5.39517,"is_reserved":false,"is_disabled":false,"rental_uris":{"android":"levelo://app?vid=283e69ea-73d2-4b99-bf14-5bf7704cdaf0","ios":"levelo://app?vid=283e69ea-73d2-4b99-bf14-5bf7704cdaf0"},"vehicle_type_id":"4","last_reported":1739556724,"current_range_meters":37600,"station_id":"ce4bhm12rcd13ifvqgkg","pricing_plan_id":"cebpf4jnsgd1na2vs0mg"},{"bike_id":"0e27a273-b179-4c27-8c6c-b607691a0412","system_id":"levelo_inurba_marseille","lat":43.29093,"lon":5.38185,"is_reserved":false,"is_disabled":false,"rental_uris":{"android":"levelo://app?vid=0e27a273-b179-4c27-8c6c-b607691a0412","ios":"levelo://app?vid=0e27a273-b179-4c27-8c6c-b607691a0412"},"vehicle_type_id":"4","last_reported":1739556724,"current_range_meters":39200,"station_id":"ce4bh512rcd13ifvqe2g","pricing_plan_id":"cebpf4jnsgd1na2vs0mg"},{"bike_id":"4b087907-7192-4276-99d8-c0bfb8a98ca3","system_id":"levelo_inurba_marseille","lat":43.23187,"lon":5.39987,"is_reserved":false,"is_disabled":false,"rental_uris":{"android":"levelo://app?vid=4b087907-7192-4276-99d8-c0bfb8a98ca3","ios":"levelo://app?vid=4b087907-7192-4276-99d8-c0bfb8a98ca3"},"vehicle_type_id":"4","last_reported":1739556724,"current_range_meters":35600,"station_id":"ce4bhn12rcd13ifvqgqg","pricing_plan_id":"cebpf4jnsgd1na2vs0mg"},{"bike_id":"3e87dcc7-7cea-4475-a5fb-757c699c3604","system_id":"levelo_inurba_marseille","lat":43.29875,"lon":5.39738,"is_reserved":false,"is_disabled":false,"rental_uris":{"android":"levelo://app?vid=3e87dcc7-7cea-4475-a5fb-757c699c3604","ios":"levelo://app?vid=3e87dcc7-7cea-4475-a5fb-757c699c3604"},"vehicle_type_id":"4","last_reported":1739556724,"current_range_meters":37600,"station_id":"ce4bh0h2rcd13ifvqd50","pricing_plan_id":"cebpf4jnsgd1na2vs0mg"},{"bike_id":"81a2d1b2-362e-4266-bef4-92a13b7e7baf","system_id":"levelo_inurba_marseille","lat":43.29707,"lon":5.377,"is_reserved":false,"is_disabled":false,"rental_uris":{"android":"levelo://app?vid=81a2d1b2-362e-4266-bef4-92a13b7e7baf","ios":"levelo://app?vid=81a2d1b2-362e-4266-bef4-92a13b7e7baf"},"vehicle_type_id":"4","last_reported":1739556724,"current_range_meters":26000,"station_id":"ce4bgkh2rcd13ifvqbl0","pricing_plan_id":"cebpf4jnsgd1na2vs0mg"},{"bike_id":"bd1fbd17-5ecd-4c2a-9290-d1ffd1a70214","system_id":"levelo_inurba_marseille","lat":43.29555,"lon":5.42285,"is_reserved":false,"is_disabled":false,"rental_uris":{"android":"levelo://app?vid=bd1fbd17-5ecd-4c2a-9290-d1ffd1a70214","ios":"levelo://app?vid=bd1fbd17-5ecd-4c2a-9290-d1ffd1a70214"},"vehicle_type_id":"4","last_reported":1739556724,"current_range_meters":36400,"station_id":"ce4bhph2rcd13ifvqhdg","pricing_plan_id":"cebpf4jnsgd1na2vs0mg"},{"bike_id":"c58964e4-b2ad-4578-8258-349f3f2a6b52","system_id":"levelo_inurba_marseille","lat":43.28434,"lon":5.39204,"is_reserved":false,"is_disabled":false,"rental_uris":{"android":"levelo://app?vid=c58964e4-b2ad-4578-8258-349f3f2a6b52","ios":"levelo://app?vid=c58964e4-b2ad-4578-8258-349f3f2a6b52"},"vehicle_type_id":"4","last_reported":1739556724,"current_range_meters":21600,"station_id":"ce4bhoh2rcd13ifvqh5g","pricing_plan_id":"cebpf4jnsgd1na2vs0mg"},{"bike_id":"3890a62e-0c8e-4ac8-97d5-3124804ec3f0","system_id":"levelo_inurba_marseille","lat":43.27063,"lon":5.40262,"is_reserved":false,"is_disabled":true,"rental_uris":{"android":"levelo://app?vid=3890a62e-0c8e-4ac8-97d5-3124804ec3f0","ios":"levelo://app?vid=3890a62e-0c8e-4ac8-97d5-3124804ec3f0"},"vehicle_type_id":"4","last_reported":1739556724,"current_range_meters":0,"station_id":"ce4bhk92rcd13ifvqgc0","pricing_plan_id":"cebpf4jnsgd1na2vs0mg"},{"bike_id":"aed7b3c6-3691-40cd-8f44-30286ce8d740","system_id":"levelo_inurba_marseille","lat":43.2963,"lon":5.37742,"is_reserved":false,"is_disabled":false,"rental_uris":{"android":"levelo://app?vid=aed7b3c6-3691-40cd-8f44-30286ce8d740","ios":"levelo://app?vid=aed7b3c6-3691-40cd-8f44-30286ce8d740"},"vehicle_type_id":"4","last_reported":1739556724,"current_range_meters":27600,"station_id":"ce4bgi92rcd13ifvqb90","pricing_plan_id":"cebpf4jnsgd1na2vs0mg"},{"bike_id":"59f1ac15-b8d7-4194-8b6b-5db0a84196af","system_id":"levelo_inurba_marseille","lat":43.27985,"lon":5.40032,"is_reserved":false,"is_disabled":false,"rental_uris":{"android":"levelo://app?vid=59f1ac15-b8d7-4194-8b6b-5db0a84196af","ios":"levelo://app?vid=59f1ac15-b8d7-4194-8b6b-5db0a84196af"},"vehicle_type_id":"4","last_reported":1739556724,"current_range_meters":10800,"station_id":"ce4bho92rcd13ifvqh4g","pricing_plan_id":"cebpf4jnsgd1na2vs0mg"},{"bike_id":"4a952340-3ff3-422a-8e56-52faffd8c272","system_id":"levelo_inurba_marseille","lat":43.30095,"lon":5.39093,"is_reserved":false,"is_disabled":false,"rental_uris":{"android":"levelo://app?vid=4a952340-3ff3-422a-8e56-52faffd8c272","ios":"levelo://app?vid=4a952340-3ff3-422a-8e56-52faffd8c272"},"vehicle_type_id":"4","last_reported":1739556724,"current_range_meters":38800,"station_id":"ce4bh192rcd13ifvqdb0","pricing_plan_id":"cebpf4jnsgd1na2vs0mg"},{"bike_id":"ff489825-db76-49d3-aa98-c1c0aaa6bdad","system_id":"levelo_inurba_marseille","lat":43.29221,"lon":5.36665,"is_reserved":false,"is_disabled":false,"rental_uris":{"android":"levelo://app?vid=ff489825-db76-49d3-aa98-c1c0aaa6bdad","ios":"levelo://app?vid=ff489825-db76-49d3-aa98-c1c0aaa6bdad"},"vehicle_type_id":"4","last_reported":1739556724,"current_range_meters":6400,"station_id":"","pricing_plan_id":"cebpf4jnsgd1na2vs0mg"},{"bike_id":"e4d8f5ec-8217-4deb-ab62-f8007dafd4f0","system_id":"levelo_inurba_marseille","lat":43.29095,"lon":5.3816,"is_reserved":false,"is_disabled":false,"rental_uris":{"android":"levelo://app?vid=e4d8f5ec-8217-4deb-ab62-f8007dafd4f0","ios":"levelo://app?vid=e4d8f5ec-8217-4deb-ab62-f8007dafd4f0"},"vehicle_type_id":"4","last_reported":1739556724,"current_range_meters":27600,"station_id":"ce4bh512rcd13ifvqe2g","pricing_plan_id":"cebpf4jnsgd1na2vs0mg"},{"bike_id":"8afabee6-63e2-412b-8a06-4286892f224b","system_id":"levelo_inurba_marseille","lat":43.29529,"lon":5.39048,"is_reserved":false,"is_disabled":false,"rental_uris":{"android":"levelo://app?vid=8afabee6-63e2-412b-8a06-4286892f224b","ios":"levelo://app?vid=8afabee6-63e2-412b-8a06-4286892f224b"},"vehicle_type_id":"4","last_reported":1739556724,"current_range_meters":34000,"station_id":"ce4bh3p2rcd13ifvqdp0","pricing_plan_id":"cebpf4jnsgd1na2vs0mg"},{"bike_id":"2777950c-b8ef-4405-bddc-dcd04a885d48","system_id":"levelo_inurba_marseille","lat":43.2902,"lon":5.35591,"is_reserved":false,"is_disabled":false,"rental_uris":{"android":"levelo://app?vid=2777950c-b8ef-4405-bddc-dcd04a885d48","ios":"levelo://app?vid=2777950c-b8ef-4405-bddc-dcd04a885d48"},"vehicle_type_id":"4","last_reported":1739556724,"current_range_meters":16000,"station_id":"ce4bhb92rcd13ifvqen0","pricing_plan_id":"cebpf4jnsgd1na2vs0mg"},{"bike_id":"080f4dc5-2f5e-4c26-a3d8-bdcf20760c0b","system_id":"levelo_inurba_marseille","lat":43.29901,"lon":5.38137,"is_reserved":false,"is_disabled":false,"rental_uris":{"android":"levelo://app?vid=080f4dc5-2f5e-4c26-a3d8-bdcf20760c0b","ios":"levelo://app?vid=080f4dc5-2f5e-4c26-a3d8-bdcf20760c0b"},"vehicle_type_id":"4","last_reported":1739556724,"current_range_meters":16000,"station_id":"ce4bgj12rcd13ifvqbc0","pricing_plan_id":"cebpf4jnsgd1na2vs0mg"},{"bike_id":"85d24a4d-5b3f-4a2c-957d-09d3f550ee51","system_id":"levelo_inurba_marseille","lat":43.27941,"lon":5.39571,"is_reserved":false,"is_disabled":true,"rental_uris":{"android":"levelo://app?vid=85d24a4d-5b3f-4a2c-957d-09d3f550ee51","ios":"levelo://app?vid=85d24a4d-5b3f-4a2c-957d-09d3f550ee51"},"vehicle_type_id":"4","last_reported":1739556724,"current_range_meters":0,"station_id":"ce4bhf92rcd13ifvqf40","pricing_plan_id":"cebpf4jnsgd1na2vs0mg"},{"bike_id":"58852762-4a05-4f80-9bdf-b9b987cc064b","system_id":"levelo_inurba_marseille","lat":43.29557,"lon":5.37503,"is_reserved":false,"is_disabled":false,"rental_uris":{"android":"levelo://app?vid=58852762-4a05-4f80-9bdf-b9b987cc064b","ios":"levelo://app?vid=58852762-4a05-4f80-9bdf-b9b987cc064b"},"vehicle_type_id":"4","last_reported":1739556724,"current_range_meters":32800,"station_id":"ce4bgkp2rcd13ifvqbmg","pricing_plan_id":"cebpf4jnsgd1na2vs0mg"},{"bike_id":"64827720-c2e5-4d81-bfed-1c4da7e9a69c","system_id":"levelo_inurba_marseille","lat":43.26499,"lon":5.39539,"is_reserved":false,"is_disabled":false,"rental_uris":{"android":"levelo://app?vid=64827720-c2e5-4d81-bfed-1c4da7e9a69c","ios":"levelo://app?vid=64827720-c2e5-4d81-bfed-1c4da7e9a69c"},"vehicle_type_id":"4","last_reported":1739556724,"current_range_meters":17600,"station_id":"ce4bhi12rcd13ifvqfq0","pricing_plan_id":"cebpf4jnsgd1na2vs0mg"},{"bike_id":"34d190c8-c9ae-47ad-8f5a-8fd7ee28b595","system_id":"levelo_inurba_marseille","lat":43.28858,"lon":5.35857,"is_reserved":false,"is_disabled":false,"rental_uris":{"android":"levelo://app?vid=34d190c8-c9ae-47ad-8f5a-8fd7ee28b595","ios":"levelo://app?vid=34d190c8-c9ae-47ad-8f5a-8fd7ee28b595"},"vehicle_type_id":"4","last_reported":1739556724,"current_range_meters":30000,"station_id":"ce4bhb12rcd13ifvqem0","pricing_plan_id":"cebpf4jnsgd1na2vs0mg"},{"bike_id":"7bb3c3c1-6da2-4ce4-8250-65715dd162df","system_id":"levelo_inurba_marseille","lat":43.27436,"lon":5.39419,"is_reserved":false,"is_disabled":true,"rental_uris":{"android":"levelo://app?vid=7bb3c3c1-6da2-4ce4-8250-65715dd162df","ios":"levelo://app?vid=7bb3c3c1-6da2-4ce4-8250-65715dd162df"},"vehicle_type_id":"4","last_reported":1739556724,"current_range_meters":0,"station_id":"ce4bhdp2rcd13ifvqf20","pricing_plan_id":"cebpf4jnsgd1na2vs0mg"},{"bike_id":"db081ba9-176b-4fc9-8df9-e8e41a9487a5","system_id":"levelo_inurba_marseille","lat":43.29878,"lon":5.38905,"is_reserved":false,"is_disabled":false,"rental_uris":{"android":"levelo://app?vid=db081ba9-176b-4fc9-8df9-e8e41a9487a5","ios":"levelo://app?vid=db081ba9-176b-4fc9-8df9-e8e41a9487a5"},"vehicle_type_id":"4","last_reported":1739556724,"current_range_meters":39200,"station_id":"ce4bh392rcd13ifvqdl0","pricing_plan_id":"cebpf4jnsgd1na2vs0mg"},{"bike_id":"564e4ed5-f649-48be-9fea-a5c4e638ce90","system_id":"levelo_inurba_marseille","lat":43.27064,"lon":5.40257,"is_reserved":false,"is_disabled":false,"rental_uris":{"android":"levelo://app?vid=564e4ed5-f649-48be-9fea-a5c4e638ce90","ios":"levelo://app?vid=564e4ed5-f649-48be-9fea-a5c4e638ce90"},"vehicle_type_id":"4","last_reported":1739556724,"current_range_meters":31200,"station_id":"ce4bhk92rcd13ifvqgc0","pricing_plan_id":"cebpf4jnsgd1na2vs0mg"},{"bike_id":"469df817-c238-4d61-8781-dabb1a74fb52","system_id":"levelo_inurba_marseille","lat":43.30606,"lon":5.3722,"is_reserved":false,"is_disabled":false,"rental_uris":{"android":"levelo://app?vid=469df817-c238-4d61-8781-dabb1a74fb52","ios":"levelo://app?vid=469df817-c238-4d61-8781-dabb1a74fb52"},"vehicle_type_id":"4","last_reported":1739556724,"current_range_meters":36800,"station_id":"ce4bgqh2rcd13ifvqc4g","pricing_plan_id":"cebpf4jnsgd1na2vs0mg"},{"bike_id":"e444e49e-a9e0-4183-b573-4550baa4a888","system_id":"levelo_inurba_marseille","lat":43.29275,"lon":5.36844,"is_reserved":false,"is_disabled":false,"rental_uris":{"android":"levelo://app?vid=e444e49e-a9e0-4183-b573-4550baa4a888","ios":"levelo://app?vid=e444e49e-a9e0-4183-b573-4550baa4a888"},"vehicle_type_id":"4","last_reported":1739556724,"current_range_meters":27600,"station_id":"ce4bhbp2rcd13ifvqesg","pricing_plan_id":"cebpf4jnsgd1na2vs0mg"},{"bike_id":"5429a055-5c17-4863-ac08-ee7234bc7af8","system_id":"levelo_inurba_marseille","lat":43.32267,"lon":5.36841,"is_reserved":false,"is_disabled":false,"rental_uris":{"android":"levelo://app?vid=5429a055-5c17-4863-ac08-ee7234bc7af8","ios":"levelo://app?vid=5429a055-5c17-4863-ac08-ee7234bc7af8"},"vehicle_type_id":"4","last_reported":1739556724,"current_range_meters":36400,"station_id":"","pricing_plan_id":"cebpf4jnsgd1na2vs0mg"},{"bike_id":"83b4b289-b3c2-476b-869c-b6f97376787d","system_id":"levelo_inurba_marseille","lat":43.30608,"lon":5.37226,"is_reserved":false,"is_disabled":false,"rental_uris":{"android":"levelo://app?vid=83b4b289-b3c2-476b-869c-b6f97376787d","ios":"levelo://app?vid=83b4b289-b3c2-476b-869c-b6f97376787d"},"vehicle_type_id":"4","last_reported":1739556724,"current_range_meters":12800,"station_id":"ce4bgqh2rcd13ifvqc4g","pricing_plan_id":"cebpf4jnsgd1na2vs0mg"},{"bike_id":"6c54bd98-99ce-4c61-b914-dd19c3edf238","system_id":"levelo_inurba_marseille","lat":43.24802,"lon":5.37452,"is_reserved":false,"is_disabled":false,"rental_uris":{"android":"levelo://app?vid=6c54bd98-99ce-4c61-b914-dd19c3edf238","ios":"levelo://app?vid=6c54bd98-99ce-4c61-b914-dd19c3edf238"},"vehicle_type_id":"4","last_reported":1739556724,"current_range_meters":39200,"station_id":"ce4bhgh2rcd13ifvqfb0","pricing_plan_id":"cebpf4jnsgd1na2vs0mg"},{"bike_id":"859c79c3-9c5b-47b3-94ad-94355d1f1457","system_id":"levelo_inurba_marseille","lat":43.24395,"lon":5.37065,"is_reserved":false,"is_disabled":false,"rental_uris":{"android":"levelo://app?vid=859c79c3-9c5b-47b3-94ad-94355d1f1457","ios":"levelo://app?vid=859c79c3-9c5b-47b3-94ad-94355d1f1457"},"vehicle_type_id":"4","last_reported":1739556724,"current_range_meters":11200,"station_id":"ce4bhhh2rcd13ifvqfk0","pricing_plan_id":"cebpf4jnsgd1na2vs0mg"},{"bike_id":"085d3b28-d10c-4b86-9755-e0c0f5278ea1","system_id":"levelo_inurba_marseille","lat":43.29936,"lon":5.36521,"is_reserved":false,"is_disabled":false,"rental_uris":{"android":"levelo://app?vid=085d3b28-d10c-4b86-9755-e0c0f5278ea1","ios":"levelo://app?vid=085d3b28-d10c-4b86-9755-e0c0f5278ea1"},"vehicle_type_id":"4","last_reported":1739556724,"current_range_meters":20000,"station_id":"ce4bgm92rcd13ifvqbr0","pricing_plan_id":"cebpf4jnsgd1na2vs0mg"},{"bike_id":"cf4f09d7-b22d-4fcb-88dd-59b90fb0e334","system_id":"levelo_inurba_marseille","lat":43.28404,"lon":5.37522,"is_reserved":false,"is_disabled":false,"rental_uris":{"android":"levelo://app?vid=cf4f09d7-b22d-4fcb-88dd-59b90fb0e334","ios":"levelo://app?vid=cf4f09d7-b22d-4fcb-88dd-59b90fb0e334"},"vehicle_type_id":"4","last_reported":1739556724,"current_range_meters":12800,"station_id":"ce4bh412rcd13ifvqds0","pricing_plan_id":"cebpf4jnsgd1na2vs0mg"},{"bike_id":"93b2bead-6d7d-47b0-acbc-2c4d6703f671","system_id":"levelo_inurba_marseille","lat":43.29859,"lon":5.36261,"is_reserved":false,"is_disabled":false,"rental_uris":{"android":"levelo://app?vid=93b2bead-6d7d-47b0-acbc-2c4d6703f671","ios":"levelo://app?vid=93b2bead-6d7d-47b0-acbc-2c4d6703f671"},"vehicle_type_id":"4","last_reported":1739556724,"current_range_meters":38800,"station_id":"ce4bgpp2rcd13ifvqc3g","pricing_plan_id":"cebpf4jnsgd1na2vs0mg"},{"bike_id":"981f0c84-c763-4744-ab7e-6d6374d30546","system_id":"levelo_inurba_marseille","lat":43.25505,"lon":5.37649,"is_reserved":false,"is_disabled":false,"rental_uris":{"android":"levelo://app?vid=981f0c84-c763-4744-ab7e-6d6374d30546","ios":"levelo://app?vid=981f0c84-c763-4744-ab7e-6d6374d30546"},"vehicle_type_id":"4","last_reported":1739556724,"current_range_meters":37600,"station_id":"ce4bhh12rcd13ifvqff0","pricing_plan_id":"cebpf4jnsgd1na2vs0mg"},{"bike_id":"cf32f974-176f-413e-ae8d-12ed37a9cd2b","system_id":"levelo_inurba_marseille","lat":43.28903,"lon":5.42869,"is_reserved":false,"is_disabled":false,"rental_uris":{"android":"levelo://app?vid=cf32f974-176f-413e-ae8d-12ed37a9cd2b","ios":"levelo://app?vid=cf32f974-176f-413e-ae8d-12ed37a9cd2b"},"vehicle_type_id":"4","last_reported":1739556724,"current_range_meters":10000,"station_id":"","pricing_plan_id":"cebpf4jnsgd1na2vs0mg"},{"bike_id":"4c17efce-6413-4534-8267-7be847b3cdde","system_id":"levelo_inurba_marseille","lat":43.30105,"lon":5.39067,"is_reserved":false,"is_disabled":false,"rental_uris":{"android":"levelo://app?vid=4c17efce-6413-4534-8267-7be847b3cdde","ios":"levelo://app?vid=4c17efce-6413-4534-8267-7be847b3cdde"},"vehicle_type_id":"4","last_reported":1739556724,"current_range_meters":38800,"station_id":"ce4bh192rcd13ifvqdb0","pricing_plan_id":"cebpf4jnsgd1na2vs0mg"},{"bike_id":"24c9fd7a-dfb5-4755-9c33-7fb2bb66a39c","system_id":"levelo_inurba_marseille","lat":43.31234,"lon":5.37385,"is_reserved":false,"is_disabled":false,"rental_uris":{"android":"levelo://app?vid=24c9fd7a-dfb5-4755-9c33-7fb2bb66a39c","ios":"levelo://app?vid=24c9fd7a-dfb5-4755-9c33-7fb2bb66a39c"},"vehicle_type_id":"4","last_reported":1739556724,"current_range_meters":7200,"station_id":"","pricing_plan_id":"cebpf4jnsgd1na2vs0mg"},{"bike_id":"f3577e40-d3b4-4c9c-af82-d1b37865ee10","system_id":"levelo_inurba_marseille","lat":43.25593,"lon":5.38211,"is_reserved":false,"is_disabled":false,"rental_uris":{"android":"levelo://app?vid=f3577e40-d3b4-4c9c-af82-d1b37865ee10","ios":"levelo://app?vid=f3577e40-d3b4-4c9c-af82-d1b37865ee10"},"vehicle_type_id":"4","last_reported":1739556724,"current_range_meters":8000,"station_id":"ce4bhih2rcd13ifvqfs0","pricing_plan_id":"cebpf4jnsgd1na2vs0mg"},{"bike_id":"ea977bff-c574-41da-a32a-2b37e0b6d131","system_id":"levelo_inurba_marseille","lat":43.29966,"lon":5.37181,"is_reserved":false,"is_disabled":false,"rental_uris":{"android":"levelo://app?vid=ea977bff-c574-41da-a32a-2b37e0b6d131","ios":"levelo://app?vid=ea977bff-c574-41da-a32a-2b37e0b6d131"},"vehicle_type_id":"4","last_reported":1739556724,"current_range_meters":14000,"station_id":"ce4bgr92rcd13ifvqc7g","pricing_plan_id":"cebpf4jnsgd1na2vs0mg"},{"bike_id":"02dd5004-90f6-4274-b567-f6406bd72f04","system_id":"levelo_inurba_marseille","lat":43.27797,"lon":5.40704,"is_reserved":false,"is_disabled":false,"rental_uris":{"android":"levelo://app?vid=02dd5004-90f6-4274-b567-f6406bd72f04","ios":"levelo://app?vid=02dd5004-90f6-4274-b567-f6406bd72f04"},"vehicle_type_id":"4","last_reported":1739556724,"current_range_meters":8000,"station_id":"ce4bhnh2rcd13ifvqgtg","pricing_plan_id":"cebpf4jnsgd1na2vs0mg"},{"bike_id":"a8cb174b-a028-4d1e-9d57-786b91606ee0","system_id":"levelo_inurba_marseille","lat":43.27181,"lon":5.40999,"is_reserved":false,"is_disabled":false,"rental_uris":{"android":"levelo://app?vid=a8cb174b-a028-4d1e-9d57-786b91606ee0","ios":"levelo://app?vid=a8cb174b-a028-4d1e-9d57-786b91606ee0"},"vehicle_type_id":"4","last_reported":1739556724,"current_range_meters":23200,"station_id":"ce4bhl12rcd13ifvqgf0","pricing_plan_id":"cebpf4jnsgd1na2vs0mg"},{"bike_id":"a0b5fc8f-c939-4ac7-b932-de16b49d87dc","system_id":"levelo_inurba_marseille","lat":43.30318,"lon":5.40442,"is_reserved":false,"is_disabled":false,"rental_uris":{"android":"levelo://app?vid=a0b5fc8f-c939-4ac7-b932-de16b49d87dc","ios":"levelo://app?vid=a0b5fc8f-c939-4ac7-b932-de16b49d87dc"},"vehicle_type_id":"4","last_reported":1739556724,"current_range_meters":37600,"station_id":"ce4bh012rcd13ifvqd10","pricing_plan_id":"cebpf4jnsgd1na2vs0mg"},{"bike_id":"a165ab07-3ac6-4703-a691-5ef5cc8170aa","system_id":"levelo_inurba_marseille","lat":43.26798,"lon":5.3941,"is_reserved":false,"is_disabled":false,"rental_uris":{"android":"levelo://app?vid=a165ab07-3ac6-4703-a691-5ef5cc8170aa","ios":"levelo://app?vid=a165ab07-3ac6-4703-a691-5ef5cc8170aa"},"vehicle_type_id":"4","last_reported":1739556724,"current_range_meters":34800,"station_id":"ce4bhh12rcd13ifvqfg0","pricing_plan_id":"cebpf4jnsgd1na2vs0mg"},{"bike_id":"fbacade7-4243-4c7f-937a-cb6285583ca9","system_id":"levelo_inurba_marseille","lat":43.29021,"lon":5.38135,"is_reserved":false,"is_disabled":false,"rental_uris":{"android":"levelo://app?vid=fbacade7-4243-4c7f-937a-cb6285583ca9","ios":"levelo://app?vid=fbacade7-4243-4c7f-937a-cb6285583ca9"},"vehicle_type_id":"4","last_reported":1739556724,"current_range_meters":36400,"station_id":"ce4bh4p2rcd13ifvqe1g","pricing_plan_id":"cebpf4jnsgd1na2vs0mg"},{"bike_id":"9ca4262e-1f55-43a1-8034-df86233e1596","system_id":"levelo_inurba_marseille","lat":43.29608,"lon":5.38102,"is_reserved":false,"is_disabled":false,"rental_uris":{"android":"levelo://app?vid=9ca4262e-1f55-43a1-8034-df86233e1596","ios":"levelo://app?vid=9ca4262e-1f55-43a1-8034-df86233e1596"},"vehicle_type_id":"4","last_reported":1739556724,"current_range_meters":19200,"station_id":"ce4bgl12rcd13ifvqbo0","pricing_plan_id":"cebpf4jnsgd1na2vs0mg"},{"bike_id":"46f5d451-43bc-4724-ba4c-4c1a9fede2df","system_id":"levelo_inurba_marseille","lat":43.28398,"lon":5.37519,"is_reserved":false,"is_disabled":false,"rental_uris":{"android":"levelo://app?vid=46f5d451-43bc-4724-ba4c-4c1a9fede2df","ios":"levelo://app?vid=46f5d451-43bc-4724-ba4c-4c1a9fede2df"},"vehicle_type_id":"4","last_reported":1739556724,"current_range_meters":22400,"station_id":"ce4bh412rcd13ifvqds0","pricing_plan_id":"cebpf4jnsgd1na2vs0mg"},{"bike_id":"e5e5a17e-27a5-454b-904b-e271a7fe6a76","system_id":"levelo_inurba_marseille","lat":43.28077,"lon":5.39656,"is_reserved":false,"is_disabled":false,"rental_uris":{"android":"levelo://app?vid=e5e5a17e-27a5-454b-904b-e271a7fe6a76","ios":"levelo://app?vid=e5e5a17e-27a5-454b-904b-e271a7fe6a76"},"vehicle_type_id":"4","last_reported":1739556724,"current_range_meters":28000,"station_id":"ce4bho12rcd13ifvqh2g","pricing_plan_id":"cebpf4jnsgd1na2vs0mg"},{"bike_id":"6583cb8c-929c-4879-839e-98fda62a9258","system_id":"levelo_inurba_marseille","lat":43.32288,"lon":5.38274,"is_reserved":false,"is_disabled":false,"rental_uris":{"android":"levelo://app?vid=6583cb8c-929c-4879-839e-98fda62a9258","ios":"levelo://app?vid=6583cb8c-929c-4879-839e-98fda62a9258"},"vehicle_type_id":"4","last_reported":1739556724,"current_range_meters":32000,"station_id":"ce4bhr12rcd13ifvqhqg","pricing_plan_id":"cebpf4jnsgd1na2vs0mg"},{"bike_id":"ddf1d674-41d6-443f-b0f1-1da7df267862","system_id":"levelo_inurba_marseille","lat":43.23052,"lon":5.35492,"is_reserved":false,"is_disabled":false,"rental_uris":{"android":"levelo://app?vid=ddf1d674-41d6-443f-b0f1-1da7df267862","ios":"levelo://app?vid=ddf1d674-41d6-443f-b0f1-1da7df267862"},"vehicle_type_id":"4","last_reported":1739556724,"current_range_meters":24800,"station_id":"cpo3342slgdg3j2ifvpg","pricing_plan_id":"cebpf4jnsgd1na2vs0mg"},{"bike_id":"5b87e34f-e9bb-47d0-829d-382e7c8b0a92","system_id":"levelo_inurba_marseille","lat":43.2465,"lon":5.38891,"is_reserved":false,"is_disabled":false,"rental_uris":{"android":"levelo://app?vid=5b87e34f-e9bb-47d0-829d-382e7c8b0a92","ios":"levelo://app?vid=5b87e34f-e9bb-47d0-829d-382e7c8b0a92"},"vehicle_type_id":"4","last_reported":1739556724,"current_range_meters":8800,"station_id":"ce4bhg12rcd13ifvqf60","pricing_plan_id":"cebpf4jnsgd1na2vs0mg"},{"bike_id":"1a1cb256-3b19-4e4f-b9dc-dae154ac3702","system_id":"levelo_inurba_marseille","lat":43.26199,"lon":5.37421,"is_reserved":false,"is_disabled":false,"rental_uris":{"android":"levelo://app?vid=1a1cb256-3b19-4e4f-b9dc-dae154ac3702","ios":"levelo://app?vid=1a1cb256-3b19-4e4f-b9dc-dae154ac3702"},"vehicle_type_id":"4","last_reported":1739556724,"current_range_meters":32000,"station_id":"ce4bhgp2rcd13ifvqfc0","pricing_plan_id":"cebpf4jnsgd1na2vs0mg"},{"bike_id":"937cd538-e234-4f86-a106-ee5632801ba6","system_id":"levelo_inurba_marseille","lat":43.23963,"lon":5.36647,"is_reserved":false,"is_disabled":false,"rental_uris":{"android":"levelo://app?vid=937cd538-e234-4f86-a106-ee5632801ba6","ios":"levelo://app?vid=937cd538-e234-4f86-a106-ee5632801ba6"},"vehicle_type_id":"4","last_reported":1739556724,"current_range_meters":38800,"station_id":"ce4bhi12rcd13ifvqfp0","pricing_plan_id":"cebpf4jnsgd1na2vs0mg"},{"bike_id":"d5ac7109-59f6-4ff0-8806-946816e19be5","system_id":"levelo_inurba_marseille","lat":43.29879,"lon":5.38898,"is_reserved":false,"is_disabled":false,"rental_uris":{"android":"levelo://app?vid=d5ac7109-59f6-4ff0-8806-946816e19be5","ios":"levelo://app?vid=d5ac7109-59f6-4ff0-8806-946816e19be5"},"vehicle_type_id":"4","last_reported":1739556724,"current_range_meters":8800,"station_id":"ce4bh392rcd13ifvqdl0","pricing_plan_id":"cebpf4jnsgd1na2vs0mg"},{"bike_id":"92aea044-4d8b-44cf-9d27-ca06a665dde5","system_id":"levelo_inurba_marseille","lat":43.30874,"lon":5.37184,"is_reserved":false,"is_disabled":false,"rental_uris":{"android":"levelo://app?vid=92aea044-4d8b-44cf-9d27-ca06a665dde5","ios":"levelo://app?vid=92aea044-4d8b-44cf-9d27-ca06a665dde5"},"vehicle_type_id":"4","last_reported":1739556724,"current_range_meters":30000,"station_id":"ce4bguh2rcd13ifvqckg","pricing_plan_id":"cebpf4jnsgd1na2vs0mg"},{"bike_id":"c9645a26-5874-480f-a11e-46d2257542e0","system_id":"levelo_inurba_marseille","lat":43.27544,"lon":5.3869,"is_reserved":false,"is_disabled":false,"rental_uris":{"android":"levelo://app?vid=c9645a26-5874-480f-a11e-46d2257542e0","ios":"levelo://app?vid=c9645a26-5874-480f-a11e-46d2257542e0"},"vehicle_type_id":"4","last_reported":1739556724,"current_range_meters":32800,"station_id":"","pricing_plan_id":"cebpf4jnsgd1na2vs0mg"},{"bike_id":"4450d397-c7c4-4c68-aed9-fa811598c082","system_id":"levelo_inurba_marseille","lat":43.32539,"lon":5.365,"is_reserved":false,"is_disabled":false,"rental_uris":{"android":"levelo://app?vid=4450d397-c7c4-4c68-aed9-fa811598c082","ios":"levelo://app?vid=4450d397-c7c4-4c68-aed9-fa811598c082"},"vehicle_type_id":"4","last_reported":1739556724,"current_range_meters":29600,"station_id":"","pricing_plan_id":"cebpf4jnsgd1na2vs0mg"},{"bike_id":"d27b74ac-113c-4fd0-b908-2d78c11f3530","system_id":"levelo_inurba_marseille","lat":43.30438,"lon":5.38883,"is_reserved":false,"is_disabled":false,"rental_uris":{"android":"levelo://app?vid=d27b74ac-113c-4fd0-b908-2d78c11f3530","ios":"levelo://app?vid=d27b74ac-113c-4fd0-b908-2d78c11f3530"},"vehicle_type_id":"4","last_reported":1739556724,"current_range_meters":18000,"station_id":"ce4bgk12rcd13ifvqbi0","pricing_plan_id":"cebpf4jnsgd1na2vs0mg"},{"bike_id":"28a16aee-71d6-4cb1-b35a-d4320a6bf584","system_id":"levelo_inurba_marseille","lat":43.32354,"lon":5.38876,"is_reserved":false,"is_disabled":false,"rental_uris":{"android":"levelo://app?vid=28a16aee-71d6-4cb1-b35a-d4320a6bf584","ios":"levelo://app?vid=28a16aee-71d6-4cb1-b35a-d4320a6bf584"},"vehicle_type_id":"4","last_reported":1739556724,"current_range_meters":22800,"station_id":"ce4bhqp2rcd13ifvqhog","pricing_plan_id":"cebpf4jnsgd1na2vs0mg"},{"bike_id":"59cb679e-245c-46b7-bc74-dfa7c14bb16c","system_id":"levelo_inurba_marseille","lat":43.290034,"lon":5.356088,"is_reserved":false,"is_disabled":true,"rental_uris":{"android":"levelo://app?vid=59cb679e-245c-46b7-bc74-dfa7c14bb16c","ios":"levelo://app?vid=59cb679e-245c-46b7-bc74-dfa7c14bb16c"},"vehicle_type_id":"4","last_reported":1739556724,"current_range_meters":38800,"station_id":"ce4bhb92rcd13ifvqen0","pricing_plan_id":"cebpf4jnsgd1na2vs0mg"},{"bike_id":"c83b34fa-a86b-48bc-aa8e-1d8e5efb2d51","system_id":"levelo_inurba_marseille","lat":43.29198,"lon":5.39321,"is_reserved":false,"is_disabled":false,"rental_uris":{"android":"levelo://app?vid=c83b34fa-a86b-48bc-aa8e-1d8e5efb2d51","ios":"levelo://app?vid=c83b34fa-a86b-48bc-aa8e-1d8e5efb2d51"},"vehicle_type_id":"4","last_reported":1739556724,"current_range_meters":27200,"station_id":"ce4bh192rcd13ifvqdd0","pricing_plan_id":"cebpf4jnsgd1na2vs0mg"},{"bike_id":"a8bc8483-ceef-456e-92ec-efcc9ae8cb95","system_id":"levelo_inurba_marseille","lat":43.27615,"lon":5.36117,"is_reserved":false,"is_disabled":false,"rental_uris":{"android":"levelo://app?vid=a8bc8483-ceef-456e-92ec-efcc9ae8cb95","ios":"levelo://app?vid=a8bc8483-ceef-456e-92ec-efcc9ae8cb95"},"vehicle_type_id":"4","last_reported":1739556724,"current_range_meters":37600,"station_id":"ce4bgj92rcd13ifvqbe0","pricing_plan_id":"cebpf4jnsgd1na2vs0mg"},{"bike_id":"62782877-d4c7-43e3-b7c0-213664038074","system_id":"levelo_inurba_marseille","lat":43.27866,"lon":5.40744,"is_reserved":false,"is_disabled":false,"rental_uris":{"android":"levelo://app?vid=62782877-d4c7-43e3-b7c0-213664038074","ios":"levelo://app?vid=62782877-d4c7-43e3-b7c0-213664038074"},"vehicle_type_id":"4","last_reported":1739556724,"current_range_meters":19200,"station_id":"","pricing_plan_id":"cebpf4jnsgd1na2vs0mg"},{"bike_id":"6b656e81-a99f-458b-b133-2509327cf097","system_id":"levelo_inurba_marseille","lat":43.2825,"lon":5.36088,"is_reserved":false,"is_disabled":false,"rental_uris":{"android":"levelo://app?vid=6b656e81-a99f-458b-b133-2509327cf097","ios":"levelo://app?vid=6b656e81-a99f-458b-b133-2509327cf097"},"vehicle_type_id":"4","last_reported":1739556724,"current_range_meters":12400,"station_id":"","pricing_plan_id":"cebpf4jnsgd1na2vs0mg"},{"bike_id":"fb27585c-d37a-46e8-9dff-7cf672c65eab","system_id":"levelo_inurba_marseille","lat":43.30154,"lon":5.37392,"is_reserved":false,"is_disabled":false,"rental_uris":{"android":"levelo://app?vid=fb27585c-d37a-46e8-9dff-7cf672c65eab","ios":"levelo://app?vid=fb27585c-d37a-46e8-9dff-7cf672c65eab"},"vehicle_type_id":"4","last_reported":1739556724,"current_range_meters":26000,"station_id":"ce4bgs92rcd13ifvqcc0","pricing_plan_id":"cebpf4jnsgd1na2vs0mg"},{"bike_id":"b7675672-ea91-4212-a3c2-1e75ea117425","system_id":"levelo_inurba_marseille","lat":43.28155,"lon":5.42634,"is_reserved":false,"is_disabled":true,"rental_uris":{"android":"levelo://app?vid=b7675672-ea91-4212-a3c2-1e75ea117425","ios":"levelo://app?vid=b7675672-ea91-4212-a3c2-1e75ea117425"},"vehicle_type_id":"4","last_reported":1739556724,"current_range_meters":0,"station_id":"ce4bhnh2rcd13ifvqgug","pricing_plan_id":"cebpf4jnsgd1na2vs0mg"},{"bike_id":"8cd34743-59ad-4597-983e-df465622bf8b","system_id":"levelo_inurba_marseille","lat":43.286903,"lon":5.38668,"is_reserved":false,"is_disabled":false,"rental_uris":{"android":"levelo://app?vid=8cd34743-59ad-4597-983e-df465622bf8b","ios":"levelo://app?vid=8cd34743-59ad-4597-983e-df465622bf8b"},"vehicle_type_id":"4","last_reported":1739556724,"current_range_meters":39200,"station_id":"ce4bh492rcd13ifvqdug","pricing_plan_id":"cebpf4jnsgd1na2vs0mg"},{"bike_id":"e1361caa-3d30-4fe9-a1c9-9b0637192280","system_id":"levelo_inurba_marseille","lat":43.29556,"lon":5.42289,"is_reserved":false,"is_disabled":false,"rental_uris":{"android":"levelo://app?vid=e1361caa-3d30-4fe9-a1c9-9b0637192280","ios":"levelo://app?vid=e1361caa-3d30-4fe9-a1c9-9b0637192280"},"vehicle_type_id":"4","last_reported":1739556724,"current_range_meters":21600,"station_id":"ce4bhph2rcd13ifvqhdg","pricing_plan_id":"cebpf4jnsgd1na2vs0mg"},{"bike_id":"7678bbd9-1737-475a-a5c1-14efe837ac2d","system_id":"levelo_inurba_marseille","lat":43.278395,"lon":5.392114,"is_reserved":false,"is_disabled":false,"rental_uris":{"android":"levelo://app?vid=7678bbd9-1737-475a-a5c1-14efe837ac2d","ios":"levelo://app?vid=7678bbd9-1737-475a-a5c1-14efe837ac2d"},"vehicle_type_id":"4","last_reported":1739556724,"current_range_meters":38000,"station_id":"ce4bhjp2rcd13ifvqga0","pricing_plan_id":"cebpf4jnsgd1na2vs0mg"},{"bike_id":"7f1ff432-75de-4716-9c52-be31412327d8","system_id":"levelo_inurba_marseille","lat":43.30883,"lon":5.37204,"is_reserved":false,"is_disabled":false,"rental_uris":{"android":"levelo://app?vid=7f1ff432-75de-4716-9c52-be31412327d8","ios":"levelo://app?vid=7f1ff432-75de-4716-9c52-be31412327d8"},"vehicle_type_id":"4","last_reported":1739556724,"current_range_meters":12000,"station_id":"ce4bguh2rcd13ifvqckg","pricing_plan_id":"cebpf4jnsgd1na2vs0mg"},{"bike_id":"e88ea47a-b87e-442f-9ae4-1457ad8a4462","system_id":"levelo_inurba_marseille","lat":43.28852,"lon":5.39327,"is_reserved":false,"is_disabled":false,"rental_uris":{"android":"levelo://app?vid=e88ea47a-b87e-442f-9ae4-1457ad8a4462","ios":"levelo://app?vid=e88ea47a-b87e-442f-9ae4-1457ad8a4462"},"vehicle_type_id":"4","last_reported":1739556724,"current_range_meters":6000,"station_id":"ce4bh2p2rcd13ifvqdi0","pricing_plan_id":"cebpf4jnsgd1na2vs0mg"},{"bike_id":"62862006-05b4-4c32-b74d-3d73ca0f3a49","system_id":"levelo_inurba_marseille","lat":43.29493,"lon":5.36395,"is_reserved":false,"is_disabled":true,"rental_uris":{"android":"levelo://app?vid=62862006-05b4-4c32-b74d-3d73ca0f3a49","ios":"levelo://app?vid=62862006-05b4-4c32-b74d-3d73ca0f3a49"},"vehicle_type_id":"4","last_reported":1739556724,"current_range_meters":25600,"station_id":"","pricing_plan_id":"cebpf4jnsgd1na2vs0mg"},{"bike_id":"92d1ee13-e974-447f-aca6-7b5bff8f8b19","system_id":"levelo_inurba_marseille","lat":43.28077,"lon":5.39658,"is_reserved":false,"is_disabled":false,"rental_uris":{"android":"levelo://app?vid=92d1ee13-e974-447f-aca6-7b5bff8f8b19","ios":"levelo://app?vid=92d1ee13-e974-447f-aca6-7b5bff8f8b19"},"vehicle_type_id":"4","last_reported":1739556724,"current_range_meters":32400,"station_id":"ce4bho12rcd13ifvqh2g","pricing_plan_id":"cebpf4jnsgd1na2vs0mg"},{"bike_id":"55c71887-75ae-440f-aed8-5a0380896118","system_id":"levelo_inurba_marseille","lat":43.298501,"lon":5.362921,"is_reserved":false,"is_disabled":true,"rental_uris":{"android":"levelo://app?vid=55c71887-75ae-440f-aed8-5a0380896118","ios":"levelo://app?vid=55c71887-75ae-440f-aed8-5a0380896118"},"vehicle_type_id":"4","last_reported":1739556724,"current_range_meters":36000,"station_id":"ce4bgpp2rcd13ifvqc3g","pricing_plan_id":"cebpf4jnsgd1na2vs0mg"},{"bike_id":"d53dfbe1-e8b6-48e2-bf13-5a5bbc2c73e4","system_id":"levelo_inurba_marseille","lat":43.30466,"lon":5.38867,"is_reserved":false,"is_disabled":false,"rental_uris":{"android":"levelo://app?vid=d53dfbe1-e8b6-48e2-bf13-5a5bbc2c73e4","ios":"levelo://app?vid=d53dfbe1-e8b6-48e2-bf13-5a5bbc2c73e4"},"vehicle_type_id":"4","last_reported":1739556724,"current_range_meters":37600,"station_id":"ce4bgk12rcd13ifvqbi0","pricing_plan_id":"cebpf4jnsgd1na2vs0mg"},{"bike_id":"f09ab301-7b82-4a74-8472-e44c432e02e7","system_id":"levelo_inurba_marseille","lat":43.29526,"lon":5.39041,"is_reserved":false,"is_disabled":false,"rental_uris":{"android":"levelo://app?vid=f09ab301-7b82-4a74-8472-e44c432e02e7","ios":"levelo://app?vid=f09ab301-7b82-4a74-8472-e44c432e02e7"},"vehicle_type_id":"4","last_reported":1739556724,"current_range_meters":38800,"station_id":"ce4bh3p2rcd13ifvqdp0","pricing_plan_id":"cebpf4jnsgd1na2vs0mg"},{"bike_id":"5f431628-1b2d-4a9e-9493-29ef6605563f","system_id":"levelo_inurba_marseille","lat":43.29519,"lon":5.39028,"is_reserved":false,"is_disabled":true,"rental_uris":{"android":"levelo://app?vid=5f431628-1b2d-4a9e-9493-29ef6605563f","ios":"levelo://app?vid=5f431628-1b2d-4a9e-9493-29ef6605563f"},"vehicle_type_id":"4","last_reported":1739556724,"current_range_meters":38800,"station_id":"ce4bh3p2rcd13ifvqdp0","pricing_plan_id":"cebpf4jnsgd1na2vs0mg"},{"bike_id":"3760be46-9947-4266-a54f-ee253cc823c2","system_id":"levelo_inurba_marseille","lat":43.287,"lon":5.37421,"is_reserved":false,"is_disabled":false,"rental_uris":{"android":"levelo://app?vid=3760be46-9947-4266-a54f-ee253cc823c2","ios":"levelo://app?vid=3760be46-9947-4266-a54f-ee253cc823c2"},"vehicle_type_id":"4","last_reported":1739556724,"current_range_meters":38400,"station_id":"ce4bh3p2rcd13ifvqdq0","pricing_plan_id":"cebpf4jnsgd1na2vs0mg"},{"bike_id":"ffa53e0c-83d0-4a21-a78d-2a45c01c4a0b","system_id":"levelo_inurba_marseille","lat":43.29571,"lon":5.37524,"is_reserved":false,"is_disabled":false,"rental_uris":{"android":"levelo://app?vid=ffa53e0c-83d0-4a21-a78d-2a45c01c4a0b","ios":"levelo://app?vid=ffa53e0c-83d0-4a21-a78d-2a45c01c4a0b"},"vehicle_type_id":"4","last_reported":1739556724,"current_range_meters":28800,"station_id":"ce4bgh92rcd13ifvqb50","pricing_plan_id":"cebpf4jnsgd1na2vs0mg"},{"bike_id":"2473cc94-4bcc-4a8d-9eb8-d2b25dddfb16","system_id":"levelo_inurba_marseille","lat":43.24809,"lon":5.3746,"is_reserved":false,"is_disabled":false,"rental_uris":{"android":"levelo://app?vid=2473cc94-4bcc-4a8d-9eb8-d2b25dddfb16","ios":"levelo://app?vid=2473cc94-4bcc-4a8d-9eb8-d2b25dddfb16"},"vehicle_type_id":"4","last_reported":1739556724,"current_range_meters":39200,"station_id":"ce4bhgh2rcd13ifvqfb0","pricing_plan_id":"cebpf4jnsgd1na2vs0mg"},{"bike_id":"e031351b-efdb-4640-8255-b69e1640bbff","system_id":"levelo_inurba_marseille","lat":43.24162,"lon":5.36394,"is_reserved":false,"is_disabled":false,"rental_uris":{"android":"levelo://app?vid=e031351b-efdb-4640-8255-b69e1640bbff","ios":"levelo://app?vid=e031351b-efdb-4640-8255-b69e1640bbff"},"vehicle_type_id":"4","last_reported":1739556724,"current_range_meters":33200,"station_id":"cpo36qri1sfpv3e86is0","pricing_plan_id":"cebpf4jnsgd1na2vs0mg"},{"bike_id":"c49fbe2c-7e7c-4dbb-8b74-0294a8e3fee5","system_id":"levelo_inurba_marseille","lat":43.29222,"lon":5.36052,"is_reserved":false,"is_disabled":false,"rental_uris":{"android":"levelo://app?vid=c49fbe2c-7e7c-4dbb-8b74-0294a8e3fee5","ios":"levelo://app?vid=c49fbe2c-7e7c-4dbb-8b74-0294a8e3fee5"},"vehicle_type_id":"4","last_reported":1739556724,"current_range_meters":38800,"station_id":"ce4bhbh2rcd13ifvqeqg","pricing_plan_id":"cebpf4jnsgd1na2vs0mg"},{"bike_id":"c159cea5-51cc-4c79-b782-4a4f30004ebd","system_id":"levelo_inurba_marseille","lat":43.26816,"lon":5.40266,"is_reserved":false,"is_disabled":false,"rental_uris":{"android":"levelo://app?vid=c159cea5-51cc-4c79-b782-4a4f30004ebd","ios":"levelo://app?vid=c159cea5-51cc-4c79-b782-4a4f30004ebd"},"vehicle_type_id":"4","last_reported":1739556724,"current_range_meters":28400,"station_id":"ce501612rcd8frsf0b60","pricing_plan_id":"cebpf4jnsgd1na2vs0mg"},{"bike_id":"ee566f3d-0e78-4ced-ac1b-e3b33c18e89e","system_id":"levelo_inurba_marseille","lat":43.24393,"lon":5.37049,"is_reserved":false,"is_disabled":false,"rental_uris":{"android":"levelo://app?vid=ee566f3d-0e78-4ced-ac1b-e3b33c18e89e","ios":"levelo://app?vid=ee566f3d-0e78-4ced-ac1b-e3b33c18e89e"},"vehicle_type_id":"4","last_reported":1739556724,"current_range_meters":16400,"station_id":"ce4bhhh2rcd13ifvqfk0","pricing_plan_id":"cebpf4jnsgd1na2vs0mg"},{"bike_id":"3db59d0b-9726-43a0-8b94-28667c8160f7","system_id":"levelo_inurba_marseille","lat":43.29276,"lon":5.38446,"is_reserved":false,"is_disabled":false,"rental_uris":{"android":"levelo://app?vid=3db59d0b-9726-43a0-8b94-28667c8160f7","ios":"levelo://app?vid=3db59d0b-9726-43a0-8b94-28667c8160f7"},"vehicle_type_id":"4","last_reported":1739556724,"current_range_meters":10000,"station_id":"ce4bh692rcd13ifvqea0","pricing_plan_id":"cebpf4jnsgd1na2vs0mg"},{"bike_id":"fe2f6787-4ebb-4359-8526-74fd6a592b79","system_id":"levelo_inurba_marseille","lat":43.26943,"lon":5.38916,"is_reserved":false,"is_disabled":false,"rental_uris":{"android":"levelo://app?vid=fe2f6787-4ebb-4359-8526-74fd6a592b79","ios":"levelo://app?vid=fe2f6787-4ebb-4359-8526-74fd6a592b79"},"vehicle_type_id":"4","last_reported":1739556724,"current_range_meters":38800,"station_id":"ce4bhhh2rcd13ifvqfl0","pricing_plan_id":"cebpf4jnsgd1na2vs0mg"},{"bike_id":"bbeb47d8-43a0-4ae4-8001-a6f885f91a00","system_id":"levelo_inurba_marseille","lat":43.24074,"lon":5.37764,"is_reserved":false,"is_disabled":false,"rental_uris":{"android":"levelo://app?vid=bbeb47d8-43a0-4ae4-8001-a6f885f91a00","ios":"levelo://app?vid=bbeb47d8-43a0-4ae4-8001-a6f885f91a00"},"vehicle_type_id":"4","last_reported":1739556724,"current_range_meters":24400,"station_id":"ce4bhnp2rcd13ifvqgvg","pricing_plan_id":"cebpf4jnsgd1na2vs0mg"},{"bike_id":"5b76ad3a-410f-4799-991b-536d5aafe407","system_id":"levelo_inurba_marseille","lat":43.30545,"lon":5.36708,"is_reserved":false,"is_disabled":true,"rental_uris":{"android":"levelo://app?vid=5b76ad3a-410f-4799-991b-536d5aafe407","ios":"levelo://app?vid=5b76ad3a-410f-4799-991b-536d5aafe407"},"vehicle_type_id":"4","last_reported":1739556724,"current_range_meters":22800,"station_id":"ce4bgrp2rcd13ifvqc9g","pricing_plan_id":"cebpf4jnsgd1na2vs0mg"},{"bike_id":"c98fbd39-9533-47b4-bdc2-e871bb76c58d","system_id":"levelo_inurba_marseille","lat":43.27556,"lon":5.38419,"is_reserved":false,"is_disabled":false,"rental_uris":{"android":"levelo://app?vid=c98fbd39-9533-47b4-bdc2-e871bb76c58d","ios":"levelo://app?vid=c98fbd39-9533-47b4-bdc2-e871bb76c58d"},"vehicle_type_id":"4","last_reported":1739556724,"current_range_meters":26800,"station_id":"ce4bhh92rcd13ifvqfi0","pricing_plan_id":"cebpf4jnsgd1na2vs0mg"},{"bike_id":"39d0e179-386d-413b-9b81-9a7c1cadc994","system_id":"levelo_inurba_marseille","lat":43.30245,"lon":5.40073,"is_reserved":false,"is_disabled":false,"rental_uris":{"android":"levelo://app?vid=39d0e179-386d-413b-9b81-9a7c1cadc994","ios":"levelo://app?vid=39d0e179-386d-413b-9b81-9a7c1cadc994"},"vehicle_type_id":"4","last_reported":1739556724,"current_range_meters":32400,"station_id":"ce4bgvh2rcd13ifvqcs0","pricing_plan_id":"cebpf4jnsgd1na2vs0mg"},{"bike_id":"8a7bc75d-10c3-4a2a-bdf5-2acc704632a1","system_id":"levelo_inurba_marseille","lat":43.28401,"lon":5.37513,"is_reserved":false,"is_disabled":false,"rental_uris":{"android":"levelo://app?vid=8a7bc75d-10c3-4a2a-bdf5-2acc704632a1","ios":"levelo://app?vid=8a7bc75d-10c3-4a2a-bdf5-2acc704632a1"},"vehicle_type_id":"4","last_reported":1739556724,"current_range_meters":34800,"station_id":"ce4bh412rcd13ifvqds0","pricing_plan_id":"cebpf4jnsgd1na2vs0mg"},{"bike_id":"d61b535d-dc41-47cd-b998-2449198d56eb","system_id":"levelo_inurba_marseille","lat":43.29058,"lon":5.37166,"is_reserved":false,"is_disabled":false,"rental_uris":{"android":"levelo://app?vid=d61b535d-dc41-47cd-b998-2449198d56eb","ios":"levelo://app?vid=d61b535d-dc41-47cd-b998-2449198d56eb"},"vehicle_type_id":"4","last_reported":1739556724,"current_range_meters":25200,"station_id":"ce4bh5p2rcd13ifvqe4g","pricing_plan_id":"cebpf4jnsgd1na2vs0mg"},{"bike_id":"a5541ec0-8cb6-4cd4-9cad-08b3e9b15c0d","system_id":"levelo_inurba_marseille","lat":43.306,"lon":5.37222,"is_reserved":false,"is_disabled":false,"rental_uris":{"android":"levelo://app?vid=a5541ec0-8cb6-4cd4-9cad-08b3e9b15c0d","ios":"levelo://app?vid=a5541ec0-8cb6-4cd4-9cad-08b3e9b15c0d"},"vehicle_type_id":"4","last_reported":1739556724,"current_range_meters":26000,"station_id":"ce4bgqh2rcd13ifvqc4g","pricing_plan_id":"cebpf4jnsgd1na2vs0mg"},{"bike_id":"6fcb5d51-2e29-42ae-bc04-5bc8deaf1ddc","system_id":"levelo_inurba_marseille","lat":43.26697,"lon":5.38969,"is_reserved":false,"is_disabled":false,"rental_uris":{"android":"levelo://app?vid=6fcb5d51-2e29-42ae-bc04-5bc8deaf1ddc","ios":"levelo://app?vid=6fcb5d51-2e29-42ae-bc04-5bc8deaf1ddc"},"vehicle_type_id":"4","last_reported":1739556724,"current_range_meters":9200,"station_id":"ce4bhip2rcd13ifvqft0","pricing_plan_id":"cebpf4jnsgd1na2vs0mg"},{"bike_id":"fc1cdf3d-f624-44fc-b746-766fd54a496e","system_id":"levelo_inurba_marseille","lat":43.29215,"lon":5.36079,"is_reserved":false,"is_disabled":false,"rental_uris":{"android":"levelo://app?vid=fc1cdf3d-f624-44fc-b746-766fd54a496e","ios":"levelo://app?vid=fc1cdf3d-f624-44fc-b746-766fd54a496e"},"vehicle_type_id":"4","last_reported":1739556724,"current_range_meters":22000,"station_id":"ce4bhbh2rcd13ifvqeqg","pricing_plan_id":"cebpf4jnsgd1na2vs0mg"},{"bike_id":"3643e00e-d557-45c3-9c3a-156a3faa0884","system_id":"levelo_inurba_marseille","lat":43.24386,"lon":5.37067,"is_reserved":false,"is_disabled":false,"rental_uris":{"android":"levelo://app?vid=3643e00e-d557-45c3-9c3a-156a3faa0884","ios":"levelo://app?vid=3643e00e-d557-45c3-9c3a-156a3faa0884"},"vehicle_type_id":"4","last_reported":1739556724,"current_range_meters":22000,"station_id":"ce4bhhh2rcd13ifvqfk0","pricing_plan_id":"cebpf4jnsgd1na2vs0mg"},{"bike_id":"a0f3b484-b0e7-4ed2-8c7c-86fc1fec1e14","system_id":"levelo_inurba_marseille","lat":43.29629,"lon":5.37207,"is_reserved":false,"is_disabled":false,"rental_uris":{"android":"levelo://app?vid=a0f3b484-b0e7-4ed2-8c7c-86fc1fec1e14","ios":"levelo://app?vid=a0f3b484-b0e7-4ed2-8c7c-86fc1fec1e14"},"vehicle_type_id":"4","last_reported":1739556724,"current_range_meters":32000,"station_id":"ce4bgnh2rcd13ifvqc0g","pricing_plan_id":"cebpf4jnsgd1na2vs0mg"},{"bike_id":"198dea8d-dec4-476c-9d7a-ccb0c5114e88","system_id":"levelo_inurba_marseille","lat":43.29524,"lon":5.39047,"is_reserved":false,"is_disabled":false,"rental_uris":{"android":"levelo://app?vid=198dea8d-dec4-476c-9d7a-ccb0c5114e88","ios":"levelo://app?vid=198dea8d-dec4-476c-9d7a-ccb0c5114e88"},"vehicle_type_id":"4","last_reported":1739556724,"current_range_meters":38800,"station_id":"ce4bh3p2rcd13ifvqdp0","pricing_plan_id":"cebpf4jnsgd1na2vs0mg"},{"bike_id":"4a860be5-f1f3-4789-b420-cf4e5e70ff75","system_id":"levelo_inurba_marseille","lat":43.29892,"lon":5.38134,"is_reserved":false,"is_disabled":false,"rental_uris":{"android":"levelo://app?vid=4a860be5-f1f3-4789-b420-cf4e5e70ff75","ios":"levelo://app?vid=4a860be5-f1f3-4789-b420-cf4e5e70ff75"},"vehicle_type_id":"4","last_reported":1739556724,"current_range_meters":38400,"station_id":"ce4bgj12rcd13ifvqbc0","pricing_plan_id":"cebpf4jnsgd1na2vs0mg"},{"bike_id":"caba4a46-ac8a-4cd5-a6f7-23d339aea856","system_id":"levelo_inurba_marseille","lat":43.2953,"lon":5.39033,"is_reserved":false,"is_disabled":false,"rental_uris":{"android":"levelo://app?vid=caba4a46-ac8a-4cd5-a6f7-23d339aea856","ios":"levelo://app?vid=caba4a46-ac8a-4cd5-a6f7-23d339aea856"},"vehicle_type_id":"4","last_reported":1739556724,"current_range_meters":12400,"station_id":"ce4bh3p2rcd13ifvqdp0","pricing_plan_id":"cebpf4jnsgd1na2vs0mg"},{"bike_id":"8fa3ee2c-dcfa-4c9c-9db9-03cce9394f2a","system_id":"levelo_inurba_marseille","lat":43.29524,"lon":5.3903,"is_reserved":false,"is_disabled":false,"rental_uris":{"android":"levelo://app?vid=8fa3ee2c-dcfa-4c9c-9db9-03cce9394f2a","ios":"levelo://app?vid=8fa3ee2c-dcfa-4c9c-9db9-03cce9394f2a"},"vehicle_type_id":"4","last_reported":1739556724,"current_range_meters":30000,"station_id":"ce4bh3p2rcd13ifvqdp0","pricing_plan_id":"cebpf4jnsgd1na2vs0mg"},{"bike_id":"783fdc0f-84d3-441e-8165-a2718fde3d52","system_id":"levelo_inurba_marseille","lat":43.29566,"lon":5.39962,"is_reserved":false,"is_disabled":false,"rental_uris":{"android":"levelo://app?vid=783fdc0f-84d3-441e-8165-a2718fde3d52","ios":"levelo://app?vid=783fdc0f-84d3-441e-8165-a2718fde3d52"},"vehicle_type_id":"4","last_reported":1739556724,"current_range_meters":39200,"station_id":"ce4bh312rcd13ifvqdj0","pricing_plan_id":"cebpf4jnsgd1na2vs0mg"},{"bike_id":"4b3b058c-c5a1-4062-abcf-879b0c789eeb","system_id":"levelo_inurba_marseille","lat":43.29528,"lon":5.39043,"is_reserved":false,"is_disabled":false,"rental_uris":{"android":"levelo://app?vid=4b3b058c-c5a1-4062-abcf-879b0c789eeb","ios":"levelo://app?vid=4b3b058c-c5a1-4062-abcf-879b0c789eeb"},"vehicle_type_id":"4","last_reported":1739556724,"current_range_meters":39200,"station_id":"ce4bh3p2rcd13ifvqdp0","pricing_plan_id":"cebpf4jnsgd1na2vs0mg"},{"bike_id":"670ff0cb-6ab4-4521-8054-c372c22f71fd","system_id":"levelo_inurba_marseille","lat":43.27941,"lon":5.41052,"is_reserved":false,"is_disabled":false,"rental_uris":{"android":"levelo://app?vid=670ff0cb-6ab4-4521-8054-c372c22f71fd","ios":"levelo://app?vid=670ff0cb-6ab4-4521-8054-c372c22f71fd"},"vehicle_type_id":"4","last_reported":1739556724,"current_range_meters":38800,"station_id":"ce4bhnp2rcd13ifvqh0g","pricing_plan_id":"cebpf4jnsgd1na2vs0mg"},{"bike_id":"90d6b28b-d2ff-499b-949c-5a4f2ff008b1","system_id":"levelo_inurba_marseille","lat":43.24383,"lon":5.37054,"is_reserved":false,"is_disabled":false,"rental_uris":{"android":"levelo://app?vid=90d6b28b-d2ff-499b-949c-5a4f2ff008b1","ios":"levelo://app?vid=90d6b28b-d2ff-499b-949c-5a4f2ff008b1"},"vehicle_type_id":"4","last_reported":1739556724,"current_range_meters":39200,"station_id":"ce4bhhh2rcd13ifvqfk0","pricing_plan_id":"cebpf4jnsgd1na2vs0mg"},{"bike_id":"ede02a92-5563-4946-af58-3f1a2d1437f5","system_id":"levelo_inurba_marseille","lat":43.29878,"lon":5.39739,"is_reserved":false,"is_disabled":false,"rental_uris":{"android":"levelo://app?vid=ede02a92-5563-4946-af58-3f1a2d1437f5","ios":"levelo://app?vid=ede02a92-5563-4946-af58-3f1a2d1437f5"},"vehicle_type_id":"4","last_reported":1739556724,"current_range_meters":30000,"station_id":"ce4bh0h2rcd13ifvqd50","pricing_plan_id":"cebpf4jnsgd1na2vs0mg"},{"bike_id":"ce1d2da2-d47c-473e-8683-f1c20d8469ae","system_id":"levelo_inurba_marseille","lat":43.24811,"lon":5.37456,"is_reserved":false,"is_disabled":false,"rental_uris":{"android":"levelo://app?vid=ce1d2da2-d47c-473e-8683-f1c20d8469ae","ios":"levelo://app?vid=ce1d2da2-d47c-473e-8683-f1c20d8469ae"},"vehicle_type_id":"4","last_reported":1739556724,"current_range_meters":25200,"station_id":"ce4bhgh2rcd13ifvqfb0","pricing_plan_id":"cebpf4jnsgd1na2vs0mg"},{"bike_id":"c1665b9a-8804-49fb-a2e7-87ab5bdd8b6d","system_id":"levelo_inurba_marseille","lat":43.3375,"lon":5.39147,"is_reserved":false,"is_disabled":false,"rental_uris":{"android":"levelo://app?vid=c1665b9a-8804-49fb-a2e7-87ab5bdd8b6d","ios":"levelo://app?vid=c1665b9a-8804-49fb-a2e7-87ab5bdd8b6d"},"vehicle_type_id":"4","last_reported":1739556724,"current_range_meters":38800,"station_id":"ce4bhr92rcd13ifvqhsg","pricing_plan_id":"cebpf4jnsgd1na2vs0mg"},{"bike_id":"0acb1619-1c35-4041-b0bc-57a55fad3912","system_id":"levelo_inurba_marseille","lat":43.27321,"lon":5.39087,"is_reserved":false,"is_disabled":false,"rental_uris":{"android":"levelo://app?vid=0acb1619-1c35-4041-b0bc-57a55fad3912","ios":"levelo://app?vid=0acb1619-1c35-4041-b0bc-57a55fad3912"},"vehicle_type_id":"4","last_reported":1739556724,"current_range_meters":22000,"station_id":"ce4bhgp2rcd13ifvqfe0","pricing_plan_id":"cebpf4jnsgd1na2vs0mg"},{"bike_id":"d0a88b11-bca1-4712-9e8c-9901ab424e05","system_id":"levelo_inurba_marseille","lat":43.31548,"lon":5.38777,"is_reserved":false,"is_disabled":false,"rental_uris":{"android":"levelo://app?vid=d0a88b11-bca1-4712-9e8c-9901ab424e05","ios":"levelo://app?vid=d0a88b11-bca1-4712-9e8c-9901ab424e05"},"vehicle_type_id":"4","last_reported":1739556724,"current_range_meters":8400,"station_id":"","pricing_plan_id":"cebpf4jnsgd1na2vs0mg"},{"bike_id":"00a9b395-5eba-4228-a0ec-e5ac2b419ee7","system_id":"levelo_inurba_marseille","lat":43.29019,"lon":5.38631,"is_reserved":false,"is_disabled":false,"rental_uris":{"android":"levelo://app?vid=00a9b395-5eba-4228-a0ec-e5ac2b419ee7","ios":"levelo://app?vid=00a9b395-5eba-4228-a0ec-e5ac2b419ee7"},"vehicle_type_id":"4","last_reported":1739556724,"current_range_meters":9200,"station_id":"ce4bh4p2rcd13ifvqe0g","pricing_plan_id":"cebpf4jnsgd1na2vs0mg"},{"bike_id":"64c7168e-82b8-4b00-9cf5-4a986aa8eae4","system_id":"levelo_inurba_marseille","lat":43.28404,"lon":5.37514,"is_reserved":false,"is_disabled":false,"rental_uris":{"android":"levelo://app?vid=64c7168e-82b8-4b00-9cf5-4a986aa8eae4","ios":"levelo://app?vid=64c7168e-82b8-4b00-9cf5-4a986aa8eae4"},"vehicle_type_id":"4","last_reported":1739556724,"current_range_meters":22800,"station_id":"ce4bh412rcd13ifvqds0","pricing_plan_id":"cebpf4jnsgd1na2vs0mg"},{"bike_id":"318f54ce-be01-47d6-829a-f493e582e806","system_id":"levelo_inurba_marseille","lat":43.321078,"lon":5.367739,"is_reserved":false,"is_disabled":false,"rental_uris":{"android":"levelo://app?vid=318f54ce-be01-47d6-829a-f493e582e806","ios":"levelo://app?vid=318f54ce-be01-47d6-829a-f493e582e806"},"vehicle_type_id":"4","last_reported":1739556724,"current_range_meters":38800,"station_id":"ce4bhrh2rcd13ifvqhug","pricing_plan_id":"cebpf4jnsgd1na2vs0mg"},{"bike_id":"b0b54132-5866-4eb5-9de1-ef831ce38c7f","system_id":"levelo_inurba_marseille","lat":43.29693,"lon":5.36609,"is_reserved":false,"is_disabled":false,"rental_uris":{"android":"levelo://app?vid=b0b54132-5866-4eb5-9de1-ef831ce38c7f","ios":"levelo://app?vid=b0b54132-5866-4eb5-9de1-ef831ce38c7f"},"vehicle_type_id":"4","last_reported":1739556724,"current_range_meters":6000,"station_id":"ce4bgn12rcd13ifvqbt0","pricing_plan_id":"cebpf4jnsgd1na2vs0mg"},{"bike_id":"d157203c-3a5b-4bbc-9638-6eefce740d5e","system_id":"levelo_inurba_marseille","lat":43.23197,"lon":5.355572,"is_reserved":false,"is_disabled":false,"rental_uris":{"android":"levelo://app?vid=d157203c-3a5b-4bbc-9638-6eefce740d5e","ios":"levelo://app?vid=d157203c-3a5b-4bbc-9638-6eefce740d5e"},