{"last_updated":1739182258,"ttl":60,"version":"2.2","data":{"bikes":[{"bike_id":"9b232bcd-84e3-4ef9-b08f-211b12d665ca","system_id":"levelo_inurba_marseille","lat":43.29863,"lon":5.36346,"is_reserved":false,"is_disabled":false,"rental_uris":{"android":"levelo://app?vid=9b232bcd-84e3-4ef9-b08f-211b12d665ca","ios":"levelo://app?vid=9b232bcd-84e3-4ef9-b08f-211b12d665ca"},"vehicle_type_id":"4","last_reported":1739182258,"current_range_meters":30000,"station_id":"","pricing_plan_id":"cebpf4jnsgd1na2vs0mg"},{"bike_id":"945b57f2-2454-4832-b66c-a251e27aa4a7","system_id":"levelo_inurba_marseille","lat":43.30542,"lon":5.38446,"is_reserved":false,"is_disabled":false,"rental_uris":{"android":"levelo://app?vid=945b57f2-2454-4832-b66c-a251e27aa4a7","ios":"levelo://app?vid=945b57f2-2454-4832-b66c-a251e27aa4a7"},"vehicle_type_id":"4","last_reported":1739182258,"current_range_meters":20800,"station_id":"ce4bgg92rcd13ifvqb30","pricing_plan_id":"cebpf4jnsgd1na2vs0mg"},{"bike_id":"dc69b6ce-4f29-41fc-bb71-87b19b25f9f1","system_id":"levelo_inurba_marseille","lat":43.30459,"lon":5.37922,"is_reserved":false,"is_disabled":false,"rental_uris":{"android":"levelo://app?vid=dc69b6ce-4f29-41fc-bb71-87b19b25f9f1","ios":"levelo://app?vid=dc69b6ce-4f29-41fc-bb71-87b19b25f9f1"},"vehicle_type_id":"4","last_reported":1739182258,"current_range_meters":14000,"station_id":"ce4bgup2rcd13ifvqcn0","pricing_plan_id":"cebpf4jnsgd1na2vs0mg"},{"bike_id":"9144fded-e5c8-4434-a033-6a7428b34557","system_id":"levelo_inurba_marseille","lat":43.23967,"lon":5.36636,"is_reserved":false,"is_disabled":false,"rental_uris":{"android":"levelo://app?vid=9144fded-e5c8-4434-a033-6a7428b34557","ios":"levelo://app?vid=9144fded-e5c8-4434-a033-6a7428b34557"},"vehicle_type_id":"4","last_reported":1739182258,"current_range_meters":8400,"station_id":"ce4bhi12rcd13ifvqfp0","pricing_plan_id":"cebpf4jnsgd1na2vs0mg"},{"bike_id":"cfd52737-4bdd-4656-ace1-4b393564196e","system_id":"levelo_inurba_marseille","lat":43.26485,"lon":5.3955,"is_reserved":false,"is_disabled":true,"rental_uris":{"android":"levelo://app?vid=cfd52737-4bdd-4656-ace1-4b393564196e","ios":"levelo://app?vid=cfd52737-4bdd-4656-ace1-4b393564196e"},"vehicle_type_id":"4","last_reported":1739182258,"current_range_meters":6000,"station_id":"","pricing_plan_id":"cebpf4jnsgd1na2vs0mg"},{"bike_id":"222ed28d-f68c-48a1-8141-246ac0d9571f","system_id":"levelo_inurba_marseille","lat":43.30134,"lon":5.37437,"is_reserved":false,"is_disabled":false,"rental_uris":{"android":"levelo://app?vid=222ed28d-f68c-48a1-8141-246ac0d9571f","ios":"levelo://app?vid=222ed28d-f68c-48a1-8141-246ac0d9571f"},"vehicle_type_id":"4","last_reported":1739182258,"current_range_meters":37600,"station_id":"ce4bgs92rcd13ifvqcc0","pricing_plan_id":"cebpf4jnsgd1na2vs0mg"},{"bike_id":"a7cfb898-c168-4772-adb6-d7ea991ef424","system_id":"levelo_inurba_marseille","lat":43.2439,"lon":5.37091,"is_reserved":false,"is_disabled":false,"rental_uris":{"android":"levelo://app?vid=a7cfb898-c168-4772-adb6-d7ea991ef424","ios":"levelo://app?vid=a7cfb898-c168-4772-adb6-d7ea991ef424"},"vehicle_type_id":"4","last_reported":1739182258,"current_range_meters":37600,"station_id":"ce4bhhh2rcd13ifvqfk0","pricing_plan_id":"cebpf4jnsgd1na2vs0mg"},{"bike_id":"cd0ebd4f-6385-4615-8d6b-6b3cfeed5bc2","system_id":"levelo_inurba_marseille","lat":43.26784,"lon":5.39435,"is_reserved":false,"is_disabled":false,"rental_uris":{"android":"levelo://app?vid=cd0ebd4f-6385-4615-8d6b-6b3cfeed5bc2","ios":"levelo://app?vid=cd0ebd4f-6385-4615-8d6b-6b3cfeed5bc2"},"vehicle_type_id":"4","last_reported":1739182258,"current_range_meters":38800,"station_id":"ce4bhh12rcd13ifvqfg0","pricing_plan_id":"cebpf4jnsgd1na2vs0mg"},{"bike_id":"c821a5a7-7d37-4ed1-9337-8dde6a7c2aeb","system_id":"levelo_inurba_marseille","lat":43.32079,"lon":5.41468,"is_reserved":false,"is_disabled":false,"rental_uris":{"android":"levelo://app?vid=c821a5a7-7d37-4ed1-9337-8dde6a7c2aeb","ios":"levelo://app?vid=c821a5a7-7d37-4ed1-9337-8dde6a7c2aeb"},"vehicle_type_id":"4","last_reported":1739182258,"current_range_meters":39200,"station_id":"ce4bhq92rcd13ifvqhkg","pricing_plan_id":"cebpf4jnsgd1na2vs0mg"},{"bike_id":"ceb4f42b-4e2d-4180-924f-a68210d62481","system_id":"levelo_inurba_marseille","lat":43.26028,"lon":5.3755,"is_reserved":false,"is_disabled":false,"rental_uris":{"android":"levelo://app?vid=ceb4f42b-4e2d-4180-924f-a68210d62481","ios":"levelo://app?vid=ceb4f42b-4e2d-4180-924f-a68210d62481"},"vehicle_type_id":"4","last_reported":1739182258,"current_range_meters":39200,"station_id":"ce4bhgh2rcd13ifvqfa0","pricing_plan_id":"cebpf4jnsgd1na2vs0mg"},{"bike_id":"b89bef34-e69c-4d52-a9d1-d66298b52250","system_id":"levelo_inurba_marseille","lat":43.31486,"lon":5.40352,"is_reserved":false,"is_disabled":false,"rental_uris":{"android":"levelo://app?vid=b89bef34-e69c-4d52-a9d1-d66298b52250","ios":"levelo://app?vid=b89bef34-e69c-4d52-a9d1-d66298b52250"},"vehicle_type_id":"4","last_reported":1739182258,"current_range_meters":26800,"station_id":"","pricing_plan_id":"cebpf4jnsgd1na2vs0mg"},{"bike_id":"952ab6ee-c71f-431a-a116-28c771dc3a24","system_id":"levelo_inurba_marseille","lat":43.2798,"lon":5.41027,"is_reserved":false,"is_disabled":true,"rental_uris":{"android":"levelo://app?vid=952ab6ee-c71f-431a-a116-28c771dc3a24","ios":"levelo://app?vid=952ab6ee-c71f-431a-a116-28c771dc3a24"},"vehicle_type_id":"4","last_reported":1739182258,"current_range_meters":0,"station_id":"ce4bhnp2rcd13ifvqh0g","pricing_plan_id":"cebpf4jnsgd1na2vs0mg"},{"bike_id":"d2ca646d-6c43-44e0-9ebb-f44c4b2c8ad4","system_id":"levelo_inurba_marseille","lat":43.33602,"lon":5.41014,"is_reserved":false,"is_disabled":false,"rental_uris":{"android":"levelo://app?vid=d2ca646d-6c43-44e0-9ebb-f44c4b2c8ad4","ios":"levelo://app?vid=d2ca646d-6c43-44e0-9ebb-f44c4b2c8ad4"},"vehicle_type_id":"4","last_reported":1739182258,"current_range_meters":18800,"station_id":"ce4bhqh2rcd13ifvqhmg","pricing_plan_id":"cebpf4jnsgd1na2vs0mg"},{"bike_id":"666c88b7-919a-45fe-b6a0-eceee0aaa826","system_id":"levelo_inurba_marseille","lat":43.30961,"lon":5.39036,"is_reserved":false,"is_disabled":false,"rental_uris":{"android":"levelo://app?vid=666c88b7-919a-45fe-b6a0-eceee0aaa826","ios":"levelo://app?vid=666c88b7-919a-45fe-b6a0-eceee0aaa826"},"vehicle_type_id":"4","last_reported":1739182258,"current_range_meters":10000,"station_id":"","pricing_plan_id":"cebpf4jnsgd1na2vs0mg"},{"bike_id":"dc3d08fc-10d7-48db-9b08-700191c05140","system_id":"levelo_inurba_marseille","lat":43.31725,"lon":5.4048,"is_reserved":false,"is_disabled":false,"rental_uris":{"android":"levelo://app?vid=dc3d08fc-10d7-48db-9b08-700191c05140","ios":"levelo://app?vid=dc3d08fc-10d7-48db-9b08-700191c05140"},"vehicle_type_id":"4","last_reported":1739182258,"current_range_meters":38800,"station_id":"ce4bh012rcd13ifvqd00","pricing_plan_id":"cebpf4jnsgd1na2vs0mg"},{"bike_id":"82f5b2ca-bbce-4e97-9f8c-4f4b648f4cd3","system_id":"levelo_inurba_marseille","lat":43.27177,"lon":5.40995,"is_reserved":false,"is_disabled":false,"rental_uris":{"android":"levelo://app?vid=82f5b2ca-bbce-4e97-9f8c-4f4b648f4cd3","ios":"levelo://app?vid=82f5b2ca-bbce-4e97-9f8c-4f4b648f4cd3"},"vehicle_type_id":"4","last_reported":1739182258,"current_range_meters":37600,"station_id":"ce4bhl12rcd13ifvqgf0","pricing_plan_id":"cebpf4jnsgd1na2vs0mg"},{"bike_id":"5914660b-319d-4352-a61c-05c50a2afe1d","system_id":"levelo_inurba_marseille","lat":43.24661,"lon":5.38172,"is_reserved":false,"is_disabled":false,"rental_uris":{"android":"levelo://app?vid=5914660b-319d-4352-a61c-05c50a2afe1d","ios":"levelo://app?vid=5914660b-319d-4352-a61c-05c50a2afe1d"},"vehicle_type_id":"4","last_reported":1739182258,"current_range_meters":34000,"station_id":"ce4bhih2rcd13ifvqfr0","pricing_plan_id":"cebpf4jnsgd1na2vs0mg"},{"bike_id":"f65fd210-0eee-483d-9358-a299c163c8fd","system_id":"levelo_inurba_marseille","lat":43.31704,"lon":5.40483,"is_reserved":false,"is_disabled":false,"rental_uris":{"android":"levelo://app?vid=f65fd210-0eee-483d-9358-a299c163c8fd","ios":"levelo://app?vid=f65fd210-0eee-483d-9358-a299c163c8fd"},"vehicle_type_id":"4","last_reported":1739182258,"current_range_meters":38800,"station_id":"ce4bh012rcd13ifvqd00","pricing_plan_id":"cebpf4jnsgd1na2vs0mg"},{"bike_id":"9db50a95-1847-441a-a62a-e527c962917f","system_id":"levelo_inurba_marseille","lat":43.26495,"lon":5.39551,"is_reserved":false,"is_disabled":false,"rental_uris":{"android":"levelo://app?vid=9db50a95-1847-441a-a62a-e527c962917f","ios":"levelo://app?vid=9db50a95-1847-441a-a62a-e527c962917f"},"vehicle_type_id":"4","last_reported":1739182258,"current_range_meters":30800,"station_id":"ce4bhi12rcd13ifvqfq0","pricing_plan_id":"cebpf4jnsgd1na2vs0mg"},{"bike_id":"27b79768-bfb5-4acf-aea3-498440a8fca1","system_id":"levelo_inurba_marseille","lat":43.30962,"lon":5.3906,"is_reserved":false,"is_disabled":false,"rental_uris":{"android":"levelo://app?vid=27b79768-bfb5-4acf-aea3-498440a8fca1","ios":"levelo://app?vid=27b79768-bfb5-4acf-aea3-498440a8fca1"},"vehicle_type_id":"4","last_reported":1739182258,"current_range_meters":11200,"station_id":"","pricing_plan_id":"cebpf4jnsgd1na2vs0mg"},{"bike_id":"7997428c-3fb5-43eb-8b41-6fd0852fe719","system_id":"levelo_inurba_marseille","lat":43.30554,"lon":5.36676,"is_reserved":false,"is_disabled":false,"rental_uris":{"android":"levelo://app?vid=7997428c-3fb5-43eb-8b41-6fd0852fe719","ios":"levelo://app?vid=7997428c-3fb5-43eb-8b41-6fd0852fe719"},"vehicle_type_id":"4","last_reported":1739182258,"current_range_meters":28800,"station_id":"","pricing_plan_id":"cebpf4jnsgd1na2vs0mg"},{"bike_id":"73e1ccc6-56be-4f76-b8b9-cf13350c3c38","system_id":"levelo_inurba_marseille","lat":43.28155,"lon":5.42665,"is_reserved":false,"is_disabled":false,"rental_uris":{"android":"levelo://app?vid=73e1ccc6-56be-4f76-b8b9-cf13350c3c38","ios":"levelo://app?vid=73e1ccc6-56be-4f76-b8b9-cf13350c3c38"},"vehicle_type_id":"4","last_reported":1739182258,"current_range_meters":39200,"station_id":"ce4bhnh2rcd13ifvqgug","pricing_plan_id":"cebpf4jnsgd1na2vs0mg"},{"bike_id":"734ad8ef-8f3b-4a01-b800-99f2e0cd8cb3","system_id":"levelo_inurba_marseille","lat":43.28576,"lon":5.36742,"is_reserved":false,"is_disabled":false,"rental_uris":{"android":"levelo://app?vid=734ad8ef-8f3b-4a01-b800-99f2e0cd8cb3","ios":"levelo://app?vid=734ad8ef-8f3b-4a01-b800-99f2e0cd8cb3"},"vehicle_type_id":"4","last_reported":1739182258,"current_range_meters":19200,"station_id":"","pricing_plan_id":"cebpf4jnsgd1na2vs0mg"},{"bike_id":"ab477c97-eb80-4558-9f73-598dbf16e965","system_id":"levelo_inurba_marseille","lat":43.29574,"lon":5.36755,"is_reserved":false,"is_disabled":false,"rental_uris":{"android":"levelo://app?vid=ab477c97-eb80-4558-9f73-598dbf16e965","ios":"levelo://app?vid=ab477c97-eb80-4558-9f73-598dbf16e965"},"vehicle_type_id":"4","last_reported":1739182258,"current_range_meters":12800,"station_id":"ce4bgph2rcd13ifvqc2g","pricing_plan_id":"cebpf4jnsgd1na2vs0mg"},{"bike_id":"076c0651-d5f8-4904-be2b-80257efd1318","system_id":"levelo_inurba_marseille","lat":43.29846,"lon":5.36281,"is_reserved":false,"is_disabled":false,"rental_uris":{"android":"levelo://app?vid=076c0651-d5f8-4904-be2b-80257efd1318","ios":"levelo://app?vid=076c0651-d5f8-4904-be2b-80257efd1318"},"vehicle_type_id":"4","last_reported":1739182258,"current_range_meters":38800,"station_id":"ce4bgpp2rcd13ifvqc3g","pricing_plan_id":"cebpf4jnsgd1na2vs0mg"},{"bike_id":"bf1166a6-6d02-4b59-a461-8ee8d9697ddf","system_id":"levelo_inurba_marseille","lat":43.23974,"lon":5.36629,"is_reserved":false,"is_disabled":false,"rental_uris":{"android":"levelo://app?vid=bf1166a6-6d02-4b59-a461-8ee8d9697ddf","ios":"levelo://app?vid=bf1166a6-6d02-4b59-a461-8ee8d9697ddf"},"vehicle_type_id":"4","last_reported":1739182258,"current_range_meters":37600,"station_id":"ce4bhi12rcd13ifvqfp0","pricing_plan_id":"cebpf4jnsgd1na2vs0mg"},{"bike_id":"aa225991-345f-42dc-a7e3-708559444558","system_id":"levelo_inurba_marseille","lat":43.26197,"lon":5.37458,"is_reserved":false,"is_disabled":false,"rental_uris":{"android":"levelo://app?vid=aa225991-345f-42dc-a7e3-708559444558","ios":"levelo://app?vid=aa225991-345f-42dc-a7e3-708559444558"},"vehicle_type_id":"4","last_reported":1739182258,"current_range_meters":23200,"station_id":"ce4bhgp2rcd13ifvqfc0","pricing_plan_id":"cebpf4jnsgd1na2vs0mg"},{"bike_id":"68d0ce9e-946b-498d-a89d-9653c2605520","system_id":"levelo_inurba_marseille","lat":43.29045,"lon":5.37582,"is_reserved":false,"is_disabled":false,"rental_uris":{"android":"levelo://app?vid=68d0ce9e-946b-498d-a89d-9653c2605520","ios":"levelo://app?vid=68d0ce9e-946b-498d-a89d-9653c2605520"},"vehicle_type_id":"4","last_reported":1739182258,"current_range_meters":33200,"station_id":"ce4bh692rcd13ifvqe90","pricing_plan_id":"cebpf4jnsgd1na2vs0mg"},{"bike_id":"c7214087-f338-4aa0-87d4-4c782ee32a35","system_id":"levelo_inurba_marseille","lat":43.23976,"lon":5.36639,"is_reserved":false,"is_disabled":false,"rental_uris":{"android":"levelo://app?vid=c7214087-f338-4aa0-87d4-4c782ee32a35","ios":"levelo://app?vid=c7214087-f338-4aa0-87d4-4c782ee32a35"},"vehicle_type_id":"4","last_reported":1739182258,"current_range_meters":38800,"station_id":"ce4bhi12rcd13ifvqfp0","pricing_plan_id":"cebpf4jnsgd1na2vs0mg"},{"bike_id":"4d8ba0f5-a051-4c5a-af9b-cb00943bc7b0","system_id":"levelo_inurba_marseille","lat":43.2912,"lon":5.40066,"is_reserved":false,"is_disabled":false,"rental_uris":{"android":"levelo://app?vid=4d8ba0f5-a051-4c5a-af9b-cb00943bc7b0","ios":"levelo://app?vid=4d8ba0f5-a051-4c5a-af9b-cb00943bc7b0"},"vehicle_type_id":"4","last_reported":1739182258,"current_range_meters":36400,"station_id":"","pricing_plan_id":"cebpf4jnsgd1na2vs0mg"},{"bike_id":"f724196f-aefe-4fe0-afe8-cbd3b18deab1","system_id":"levelo_inurba_marseille","lat":43.24813,"lon":5.37455,"is_reserved":false,"is_disabled":false,"rental_uris":{"android":"levelo://app?vid=f724196f-aefe-4fe0-afe8-cbd3b18deab1","ios":"levelo://app?vid=f724196f-aefe-4fe0-afe8-cbd3b18deab1"},"vehicle_type_id":"4","last_reported":1739182258,"current_range_meters":38800,"station_id":"ce4bhgh2rcd13ifvqfb0","pricing_plan_id":"cebpf4jnsgd1na2vs0mg"},{"bike_id":"65a7c23e-796e-448a-9c20-43066b092b67","system_id":"levelo_inurba_marseille","lat":43.23965,"lon":5.36633,"is_reserved":false,"is_disabled":false,"rental_uris":{"android":"levelo://app?vid=65a7c23e-796e-448a-9c20-43066b092b67","ios":"levelo://app?vid=65a7c23e-796e-448a-9c20-43066b092b67"},"vehicle_type_id":"4","last_reported":1739182258,"current_range_meters":26800,"station_id":"ce4bhi12rcd13ifvqfp0","pricing_plan_id":"cebpf4jnsgd1na2vs0mg"},{"bike_id":"caa5df8d-7e03-466c-a218-989234e1b71c","system_id":"levelo_inurba_marseille","lat":43.32364,"lon":5.36784,"is_reserved":false,"is_disabled":false,"rental_uris":{"android":"levelo://app?vid=caa5df8d-7e03-466c-a218-989234e1b71c","ios":"levelo://app?vid=caa5df8d-7e03-466c-a218-989234e1b71c"},"vehicle_type_id":"4","last_reported":1739182258,"current_range_meters":33200,"station_id":"ce4bhsh2rcd13ifvqi2g","pricing_plan_id":"cebpf4jnsgd1na2vs0mg"},{"bike_id":"a0c84242-d232-4566-8480-8864106a62c0","system_id":"levelo_inurba_marseille","lat":43.283,"lon":5.35066,"is_reserved":false,"is_disabled":false,"rental_uris":{"android":"levelo://app?vid=a0c84242-d232-4566-8480-8864106a62c0","ios":"levelo://app?vid=a0c84242-d232-4566-8480-8864106a62c0"},"vehicle_type_id":"4","last_reported":1739182258,"current_range_meters":30000,"station_id":"ce4bhbp2rcd13ifvqerg","pricing_plan_id":"cebpf4jnsgd1na2vs0mg"},{"bike_id":"a729ba28-c073-4dc7-aac2-2f030ac6b8e2","system_id":"levelo_inurba_marseille","lat":43.25815,"lon":5.3944,"is_reserved":false,"is_disabled":false,"rental_uris":{"android":"levelo://app?vid=a729ba28-c073-4dc7-aac2-2f030ac6b8e2","ios":"levelo://app?vid=a729ba28-c073-4dc7-aac2-2f030ac6b8e2"},"vehicle_type_id":"4","last_reported":1739182258,"current_range_meters":39200,"station_id":"ce4bhip2rcd13ifvqft0","pricing_plan_id":"cebpf4jnsgd1na2vs0mg"},{"bike_id":"2d6a2e4c-47bb-4bf8-8e22-1e9c987f8b16","system_id":"levelo_inurba_marseille","lat":43.23974,"lon":5.36641,"is_reserved":false,"is_disabled":false,"rental_uris":{"android":"levelo://app?vid=2d6a2e4c-47bb-4bf8-8e22-1e9c987f8b16","ios":"levelo://app?vid=2d6a2e4c-47bb-4bf8-8e22-1e9c987f8b16"},"vehicle_type_id":"4","last_reported":1739182258,"current_range_meters":38000,"station_id":"ce4bhi12rcd13ifvqfp0","pricing_plan_id":"cebpf4jnsgd1na2vs0mg"},{"bike_id":"c74f7177-3b58-4f5f-93fe-e950c3c7f6d1","system_id":"levelo_inurba_marseille","lat":43.29326,"lon":5.37134,"is_reserved":false,"is_disabled":false,"rental_uris":{"android":"levelo://app?vid=c74f7177-3b58-4f5f-93fe-e950c3c7f6d1","ios":"levelo://app?vid=c74f7177-3b58-4f5f-93fe-e950c3c7f6d1"},"vehicle_type_id":"4","last_reported":1739182258,"current_range_meters":20800,"station_id":"ce4bgh92rcd13ifvqb40","pricing_plan_id":"cebpf4jnsgd1na2vs0mg"},{"bike_id":"7dcbe0b9-0e25-410c-a9e9-55d48978ea00","system_id":"levelo_inurba_marseille","lat":43.32484,"lon":5.36585,"is_reserved":false,"is_disabled":false,"rental_uris":{"android":"levelo://app?vid=7dcbe0b9-0e25-410c-a9e9-55d48978ea00","ios":"levelo://app?vid=7dcbe0b9-0e25-410c-a9e9-55d48978ea00"},"vehicle_type_id":"4","last_reported":1739182258,"current_range_meters":39200,"station_id":"ce4bhs12rcd13ifvqhvg","pricing_plan_id":"cebpf4jnsgd1na2vs0mg"},{"bike_id":"a0522417-36fc-4abc-b26e-481d978b4ac9","system_id":"levelo_inurba_marseille","lat":43.29367,"lon":5.37861,"is_reserved":false,"is_disabled":false,"rental_uris":{"android":"levelo://app?vid=a0522417-36fc-4abc-b26e-481d978b4ac9","ios":"levelo://app?vid=a0522417-36fc-4abc-b26e-481d978b4ac9"},"vehicle_type_id":"4","last_reported":1739182258,"current_range_meters":37600,"station_id":"ce4bgjh2rcd13ifvqbf0","pricing_plan_id":"cebpf4jnsgd1na2vs0mg"},{"bike_id":"3ba26bce-5451-4186-8570-150535f6ec60","system_id":"levelo_inurba_marseille","lat":43.29189,"lon":5.35817,"is_reserved":false,"is_disabled":true,"rental_uris":{"android":"levelo://app?vid=3ba26bce-5451-4186-8570-150535f6ec60","ios":"levelo://app?vid=3ba26bce-5451-4186-8570-150535f6ec60"},"vehicle_type_id":"4","last_reported":1739182258,"current_range_meters":38400,"station_id":"ce4bhb12rcd13ifvqel0","pricing_plan_id":"cebpf4jnsgd1na2vs0mg"},{"bike_id":"01af4737-3c1f-41a4-a87e-b77078df4a8c","system_id":"levelo_inurba_marseille","lat":43.27898,"lon":5.38019,"is_reserved":false,"is_disabled":false,"rental_uris":{"android":"levelo://app?vid=01af4737-3c1f-41a4-a87e-b77078df4a8c","ios":"levelo://app?vid=01af4737-3c1f-41a4-a87e-b77078df4a8c"},"vehicle_type_id":"4","last_reported":1739182258,"current_range_meters":20800,"station_id":"ce4bhf92rcd13ifvqf50","pricing_plan_id":"cebpf4jnsgd1na2vs0mg"},{"bike_id":"f7664c8b-6032-41b2-9355-bc31c4ae36c6","system_id":"levelo_inurba_marseille","lat":43.30868,"lon":5.36971,"is_reserved":false,"is_disabled":false,"rental_uris":{"android":"levelo://app?vid=f7664c8b-6032-41b2-9355-bc31c4ae36c6","ios":"levelo://app?vid=f7664c8b-6032-41b2-9355-bc31c4ae36c6"},"vehicle_type_id":"4","last_reported":1739182258,"current_range_meters":38800,"station_id":"ce4bgn92rcd13ifvqbvg","pricing_plan_id":"cebpf4jnsgd1na2vs0mg"},{"bike_id":"474b2b53-423a-41c0-972d-ef66966d1287","system_id":"levelo_inurba_marseille","lat":43.26565,"lon":5.37286,"is_reserved":false,"is_disabled":false,"rental_uris":{"android":"levelo://app?vid=474b2b53-423a-41c0-972d-ef66966d1287","ios":"levelo://app?vid=474b2b53-423a-41c0-972d-ef66966d1287"},"vehicle_type_id":"4","last_reported":1739182258,"current_range_meters":30800,"station_id":"ce4bhg12rcd13ifvqf70","pricing_plan_id":"cebpf4jnsgd1na2vs0mg"},{"bike_id":"e6b3befe-3540-4486-bbb2-b37e93074af5","system_id":"levelo_inurba_marseille","lat":43.28109,"lon":5.3783,"is_reserved":false,"is_disabled":false,"rental_uris":{"android":"levelo://app?vid=e6b3befe-3540-4486-bbb2-b37e93074af5","ios":"levelo://app?vid=e6b3befe-3540-4486-bbb2-b37e93074af5"},"vehicle_type_id":"4","last_reported":1739182258,"current_range_meters":26000,"station_id":"ce4bha12rcd13ifvqee0","pricing_plan_id":"cebpf4jnsgd1na2vs0mg"},{"bike_id":"eeada6f9-bc17-47bf-a657-75c63cc565ad","system_id":"levelo_inurba_marseille","lat":43.29002,"lon":5.3562,"is_reserved":false,"is_disabled":false,"rental_uris":{"android":"levelo://app?vid=eeada6f9-bc17-47bf-a657-75c63cc565ad","ios":"levelo://app?vid=eeada6f9-bc17-47bf-a657-75c63cc565ad"},"vehicle_type_id":"4","last_reported":1739182258,"current_range_meters":36000,"station_id":"ce4bhb92rcd13ifvqen0","pricing_plan_id":"cebpf4jnsgd1na2vs0mg"},{"bike_id":"43c25ac2-2c76-4422-afad-2891ed706849","system_id":"levelo_inurba_marseille","lat":43.32656,"lon":5.40985,"is_reserved":false,"is_disabled":false,"rental_uris":{"android":"levelo://app?vid=43c25ac2-2c76-4422-afad-2891ed706849","ios":"levelo://app?vid=43c25ac2-2c76-4422-afad-2891ed706849"},"vehicle_type_id":"4","last_reported":1739182258,"current_range_meters":33200,"station_id":"ce4bhpp2rcd13ifvqhgg","pricing_plan_id":"cebpf4jnsgd1na2vs0mg"},{"bike_id":"2ebd233c-fd15-4f13-9700-c155c053523f","system_id":"levelo_inurba_marseille","lat":43.25938,"lon":5.409,"is_reserved":false,"is_disabled":true,"rental_uris":{"android":"levelo://app?vid=2ebd233c-fd15-4f13-9700-c155c053523f","ios":"levelo://app?vid=2ebd233c-fd15-4f13-9700-c155c053523f"},"vehicle_type_id":"4","last_reported":1739182258,"current_range_meters":14400,"station_id":"ce4bhm92rcd13ifvqglg","pricing_plan_id":"cebpf4jnsgd1na2vs0mg"},{"bike_id":"3cec9b73-5754-4090-b335-cfb9fae89528","system_id":"levelo_inurba_marseille","lat":43.30466,"lon":5.37907,"is_reserved":false,"is_disabled":false,"rental_uris":{"android":"levelo://app?vid=3cec9b73-5754-4090-b335-cfb9fae89528","ios":"levelo://app?vid=3cec9b73-5754-4090-b335-cfb9fae89528"},"vehicle_type_id":"4","last_reported":1739182258,"current_range_meters":28800,"station_id":"ce4bgup2rcd13ifvqcn0","pricing_plan_id":"cebpf4jnsgd1na2vs0mg"},{"bike_id":"be380a6b-c9c9-4b46-8385-5a09eaa3ab35","system_id":"levelo_inurba_marseille","lat":43.27079,"lon":5.42281,"is_reserved":false,"is_disabled":false,"rental_uris":{"android":"levelo://app?vid=be380a6b-c9c9-4b46-8385-5a09eaa3ab35","ios":"levelo://app?vid=be380a6b-c9c9-4b46-8385-5a09eaa3ab35"},"vehicle_type_id":"4","last_reported":1739182258,"current_range_meters":38800,"station_id":"ce4bhk92rcd13ifvqgb0","pricing_plan_id":"cebpf4jnsgd1na2vs0mg"},{"bike_id":"ff3decf8-966b-450f-95c3-fe5843f50d21","system_id":"levelo_inurba_marseille","lat":43.27501,"lon":5.42453,"is_reserved":false,"is_disabled":false,"rental_uris":{"android":"levelo://app?vid=ff3decf8-966b-450f-95c3-fe5843f50d21","ios":"levelo://app?vid=ff3decf8-966b-450f-95c3-fe5843f50d21"},"vehicle_type_id":"4","last_reported":1739182258,"current_range_meters":3600,"station_id":"ce4bhn92rcd13ifvqgrg","pricing_plan_id":"cebpf4jnsgd1na2vs0mg"},{"bike_id":"e3754be0-a936-4ca0-a876-8936c8812fa0","system_id":"levelo_inurba_marseille","lat":43.30954,"lon":5.39029,"is_reserved":false,"is_disabled":false,"rental_uris":{"android":"levelo://app?vid=e3754be0-a936-4ca0-a876-8936c8812fa0","ios":"levelo://app?vid=e3754be0-a936-4ca0-a876-8936c8812fa0"},"vehicle_type_id":"4","last_reported":1739182258,"current_range_meters":24000,"station_id":"","pricing_plan_id":"cebpf4jnsgd1na2vs0mg"},{"bike_id":"54ddf2fc-fce8-4cb8-8609-f406fe89a9b2","system_id":"levelo_inurba_marseille","lat":43.24995,"lon":5.38933,"is_reserved":false,"is_disabled":false,"rental_uris":{"android":"levelo://app?vid=54ddf2fc-fce8-4cb8-8609-f406fe89a9b2","ios":"levelo://app?vid=54ddf2fc-fce8-4cb8-8609-f406fe89a9b2"},"vehicle_type_id":"4","last_reported":1739182258,"current_range_meters":8000,"station_id":"ce4bhgp2rcd13ifvqfd0","pricing_plan_id":"cebpf4jnsgd1na2vs0mg"},{"bike_id":"116e6d43-ae1a-4341-bd58-d920378b3c51","system_id":"levelo_inurba_marseille","lat":43.28107,"lon":5.37843,"is_reserved":false,"is_disabled":false,"rental_uris":{"android":"levelo://app?vid=116e6d43-ae1a-4341-bd58-d920378b3c51","ios":"levelo://app?vid=116e6d43-ae1a-4341-bd58-d920378b3c51"},"vehicle_type_id":"4","last_reported":1739182258,"current_range_meters":28800,"station_id":"ce4bha12rcd13ifvqee0","pricing_plan_id":"cebpf4jnsgd1na2vs0mg"},{"bike_id":"bd8ca020-fda8-4805-b382-496c28d5da7f","system_id":"levelo_inurba_marseille","lat":43.30958,"lon":5.39032,"is_reserved":false,"is_disabled":true,"rental_uris":{"android":"levelo://app?vid=bd8ca020-fda8-4805-b382-496c28d5da7f","ios":"levelo://app?vid=bd8ca020-fda8-4805-b382-496c28d5da7f"},"vehicle_type_id":"4","last_reported":1739182258,"current_range_meters":21600,"station_id":"","pricing_plan_id":"cebpf4jnsgd1na2vs0mg"},{"bike_id":"2ba197c5-59fe-4a9c-ba96-b1806efdcd97","system_id":"levelo_inurba_marseille","lat":43.24172,"lon":5.39741,"is_reserved":false,"is_disabled":false,"rental_uris":{"android":"levelo://app?vid=2ba197c5-59fe-4a9c-ba96-b1806efdcd97","ios":"levelo://app?vid=2ba197c5-59fe-4a9c-ba96-b1806efdcd97"},"vehicle_type_id":"4","last_reported":1739182258,"current_range_meters":38800,"station_id":"ce4bhn12rcd13ifvqgpg","pricing_plan_id":"cebpf4jnsgd1na2vs0mg"},{"bike_id":"1d9b9c9d-363a-40b7-904e-bb37859e7849","system_id":"levelo_inurba_marseille","lat":43.24813,"lon":5.37481,"is_reserved":false,"is_disabled":false,"rental_uris":{"android":"levelo://app?vid=1d9b9c9d-363a-40b7-904e-bb37859e7849","ios":"levelo://app?vid=1d9b9c9d-363a-40b7-904e-bb37859e7849"},"vehicle_type_id":"4","last_reported":1739182258,"current_range_meters":20000,"station_id":"ce4bhgh2rcd13ifvqfb0","pricing_plan_id":"cebpf4jnsgd1na2vs0mg"},{"bike_id":"d673d385-256b-4786-9ff8-e7f9b22ac5f8","system_id":"levelo_inurba_marseille","lat":43.23968,"lon":5.3661,"is_reserved":false,"is_disabled":false,"rental_uris":{"android":"levelo://app?vid=d673d385-256b-4786-9ff8-e7f9b22ac5f8","ios":"levelo://app?vid=d673d385-256b-4786-9ff8-e7f9b22ac5f8"},"vehicle_type_id":"4","last_reported":1739182258,"current_range_meters":34000,"station_id":"ce4bhi12rcd13ifvqfp0","pricing_plan_id":"cebpf4jnsgd1na2vs0mg"},{"bike_id":"54447e38-6339-405e-9429-46cb3f7c09bc","system_id":"levelo_inurba_marseille","lat":43.30521,"lon":5.36716,"is_reserved":false,"is_disabled":false,"rental_uris":{"android":"levelo://app?vid=54447e38-6339-405e-9429-46cb3f7c09bc","ios":"levelo://app?vid=54447e38-6339-405e-9429-46cb3f7c09bc"},"vehicle_type_id":"4","last_reported":1739182258,"current_range_meters":30400,"station_id":"ce4bgrp2rcd13ifvqc9g","pricing_plan_id":"cebpf4jnsgd1na2vs0mg"},{"bike_id":"c3297162-1cce-4aee-9ab9-0cb6b8c8d4b6","system_id":"levelo_inurba_marseille","lat":43.29567,"lon":5.42259,"is_reserved":false,"is_disabled":false,"rental_uris":{"android":"levelo://app?vid=c3297162-1cce-4aee-9ab9-0cb6b8c8d4b6","ios":"levelo://app?vid=c3297162-1cce-4aee-9ab9-0cb6b8c8d4b6"},"vehicle_type_id":"4","last_reported":1739182258,"current_range_meters":30400,"station_id":"ce4bhph2rcd13ifvqhdg","pricing_plan_id":"cebpf4jnsgd1na2vs0mg"},{"bike_id":"89912e32-c5f0-448f-82d2-e236e4d6d653","system_id":"levelo_inurba_marseille","lat":43.28244,"lon":5.40793,"is_reserved":false,"is_disabled":true,"rental_uris":{"android":"levelo://app?vid=89912e32-c5f0-448f-82d2-e236e4d6d653","ios":"levelo://app?vid=89912e32-c5f0-448f-82d2-e236e4d6d653"},"vehicle_type_id":"4","last_reported":1739182258,"current_range_meters":0,"station_id":"","pricing_plan_id":"cebpf4jnsgd1na2vs0mg"},{"bike_id":"a4049c4b-18af-4027-8124-7ed16b53be77","system_id":"levelo_inurba_marseille","lat":43.301561,"lon":5.380922,"is_reserved":false,"is_disabled":false,"rental_uris":{"android":"levelo://app?vid=a4049c4b-18af-4027-8124-7ed16b53be77","ios":"levelo://app?vid=a4049c4b-18af-4027-8124-7ed16b53be77"},"vehicle_type_id":"4","last_reported":1739182258,"current_range_meters":27600,"station_id":"","pricing_plan_id":"cebpf4jnsgd1na2vs0mg"},{"bike_id":"7a265e51-ae3c-4040-8504-cf306f1f08c3","system_id":"levelo_inurba_marseille","lat":43.31747,"lon":5.38992,"is_reserved":false,"is_disabled":false,"rental_uris":{"android":"levelo://app?vid=7a265e51-ae3c-4040-8504-cf306f1f08c3","ios":"levelo://app?vid=7a265e51-ae3c-4040-8504-cf306f1f08c3"},"vehicle_type_id":"4","last_reported":1739182258,"current_range_meters":34000,"station_id":"","pricing_plan_id":"cebpf4jnsgd1na2vs0mg"},{"bike_id":"e938662d-483d-42ef-805f-bb6af1021a6f","system_id":"levelo_inurba_marseille","lat":43.30125,"lon":5.38102,"is_reserved":false,"is_disabled":false,"rental_uris":{"android":"levelo://app?vid=e938662d-483d-42ef-805f-bb6af1021a6f","ios":"levelo://app?vid=e938662d-483d-42ef-805f-bb6af1021a6f"},"vehicle_type_id":"4","last_reported":1739182258,"current_range_meters":35200,"station_id":"ce4bgjp2rcd13ifvqbh0","pricing_plan_id":"cebpf4jnsgd1na2vs0mg"},{"bike_id":"e7e14db6-3bef-453a-aab6-06ade3cdd6b0","system_id":"levelo_inurba_marseille","lat":43.24405,"lon":5.44111,"is_reserved":false,"is_disabled":true,"rental_uris":{"android":"levelo://app?vid=e7e14db6-3bef-453a-aab6-06ade3cdd6b0","ios":"levelo://app?vid=e7e14db6-3bef-453a-aab6-06ade3cdd6b0"},"vehicle_type_id":"4","last_reported":1739182258,"current_range_meters":0,"station_id":"","pricing_plan_id":"cebpf4jnsgd1na2vs0mg"},{"bike_id":"84b5c754-1a02-460d-afaa-5fd471a637c2","system_id":"levelo_inurba_marseille","lat":43.2705,"lon":5.4026,"is_reserved":false,"is_disabled":false,"rental_uris":{"android":"levelo://app?vid=84b5c754-1a02-460d-afaa-5fd471a637c2","ios":"levelo://app?vid=84b5c754-1a02-460d-afaa-5fd471a637c2"},"vehicle_type_id":"4","last_reported":1739182258,"current_range_meters":28800,"station_id":"ce4bhk92rcd13ifvqgc0","pricing_plan_id":"cebpf4jnsgd1na2vs0mg"},{"bike_id":"fb5a704f-a51b-458c-a6e9-f5586a789b94","system_id":"levelo_inurba_marseille","lat":43.241702,"lon":5.363932,"is_reserved":false,"is_disabled":false,"rental_uris":{"android":"levelo://app?vid=fb5a704f-a51b-458c-a6e9-f5586a789b94","ios":"levelo://app?vid=fb5a704f-a51b-458c-a6e9-f5586a789b94"},"vehicle_type_id":"4","last_reported":1739182258,"current_range_meters":30000,"station_id":"cpo36qri1sfpv3e86is0","pricing_plan_id":"cebpf4jnsgd1na2vs0mg"},{"bike_id":"8e48750f-8571-4505-9265-6955445b96c6","system_id":"levelo_inurba_marseille","lat":43.31243,"lon":5.36848,"is_reserved":false,"is_disabled":false,"rental_uris":{"android":"levelo://app?vid=8e48750f-8571-4505-9265-6955445b96c6","ios":"levelo://app?vid=8e48750f-8571-4505-9265-6955445b96c6"},"vehicle_type_id":"4","last_reported":1739182258,"current_range_meters":30000,"station_id":"ce4bgl92rcd13ifvqbq0","pricing_plan_id":"cebpf4jnsgd1na2vs0mg"},{"bike_id":"bfd84249-0515-4ab9-801d-3a8bb75b155d","system_id":"levelo_inurba_marseille","lat":43.27566,"lon":5.38418,"is_reserved":false,"is_disabled":false,"rental_uris":{"android":"levelo://app?vid=bfd84249-0515-4ab9-801d-3a8bb75b155d","ios":"levelo://app?vid=bfd84249-0515-4ab9-801d-3a8bb75b155d"},"vehicle_type_id":"4","last_reported":1739182258,"current_range_meters":34000,"station_id":"ce4bhh92rcd13ifvqfi0","pricing_plan_id":"cebpf4jnsgd1na2vs0mg"},{"bike_id":"541b615b-e2ed-4faa-a27c-db4332c7fc44","system_id":"levelo_inurba_marseille","lat":43.26485,"lon":5.39542,"is_reserved":false,"is_disabled":false,"rental_uris":{"android":"levelo://app?vid=541b615b-e2ed-4faa-a27c-db4332c7fc44","ios":"levelo://app?vid=541b615b-e2ed-4faa-a27c-db4332c7fc44"},"vehicle_type_id":"4","last_reported":1739182258,"current_range_meters":38800,"station_id":"ce4bhi12rcd13ifvqfq0","pricing_plan_id":"cebpf4jnsgd1na2vs0mg"},{"bike_id":"4042ee3c-a2ee-40fd-bead-55344a5d803b","system_id":"levelo_inurba_marseille","lat":43.30136,"lon":5.38077,"is_reserved":false,"is_disabled":false,"rental_uris":{"android":"levelo://app?vid=4042ee3c-a2ee-40fd-bead-55344a5d803b","ios":"levelo://app?vid=4042ee3c-a2ee-40fd-bead-55344a5d803b"},"vehicle_type_id":"4","last_reported":1739182258,"current_range_meters":31200,"station_id":"ce4bgjp2rcd13ifvqbh0","pricing_plan_id":"cebpf4jnsgd1na2vs0mg"},{"bike_id":"ab54e2d0-4c2c-486a-84c7-811ed9008ddc","system_id":"levelo_inurba_marseille","lat":43.27981,"lon":5.42334,"is_reserved":false,"is_disabled":true,"rental_uris":{"android":"levelo://app?vid=ab54e2d0-4c2c-486a-84c7-811ed9008ddc","ios":"levelo://app?vid=ab54e2d0-4c2c-486a-84c7-811ed9008ddc"},"vehicle_type_id":"4","last_reported":1739182258,"current_range_meters":0,"station_id":"","pricing_plan_id":"cebpf4jnsgd1na2vs0mg"},{"bike_id":"8c64cd34-b552-4f0e-a31b-b0421037571a","system_id":"levelo_inurba_marseille","lat":43.29429,"lon":5.38616,"is_reserved":false,"is_disabled":true,"rental_uris":{"android":"levelo://app?vid=8c64cd34-b552-4f0e-a31b-b0421037571a","ios":"levelo://app?vid=8c64cd34-b552-4f0e-a31b-b0421037571a"},"vehicle_type_id":"4","last_reported":1739182258,"current_range_meters":34000,"station_id":"ce4bh2h2rcd13ifvqdh0","pricing_plan_id":"cebpf4jnsgd1na2vs0mg"},{"bike_id":"6104b12a-9d02-4baf-987c-541466586146","system_id":"levelo_inurba_marseille","lat":43.2901,"lon":5.35613,"is_reserved":false,"is_disabled":false,"rental_uris":{"android":"levelo://app?vid=6104b12a-9d02-4baf-987c-541466586146","ios":"levelo://app?vid=6104b12a-9d02-4baf-987c-541466586146"},"vehicle_type_id":"4","last_reported":1739182258,"current_range_meters":32800,"station_id":"ce4bhb92rcd13ifvqen0","pricing_plan_id":"cebpf4jnsgd1na2vs0mg"},{"bike_id":"61b62a5a-5bc2-487b-b92d-7b20142491cd","system_id":"levelo_inurba_marseille","lat":43.28715,"lon":5.3999,"is_reserved":false,"is_disabled":true,"rental_uris":{"android":"levelo://app?vid=61b62a5a-5bc2-487b-b92d-7b20142491cd","ios":"levelo://app?vid=61b62a5a-5bc2-487b-b92d-7b20142491cd"},"vehicle_type_id":"4","last_reported":1739182258,"current_range_meters":36400,"station_id":"ce4bho92rcd13ifvqh3g","pricing_plan_id":"cebpf4jnsgd1na2vs0mg"},{"bike_id":"b5135d91-2dbc-4326-bda2-20e06e74cbe2","system_id":"levelo_inurba_marseille","lat":43.29584,"lon":5.37026,"is_reserved":false,"is_disabled":true,"rental_uris":{"android":"levelo://app?vid=b5135d91-2dbc-4326-bda2-20e06e74cbe2","ios":"levelo://app?vid=b5135d91-2dbc-4326-bda2-20e06e74cbe2"},"vehicle_type_id":"4","last_reported":1739182258,"current_range_meters":12400,"station_id":"","pricing_plan_id":"cebpf4jnsgd1na2vs0mg"},{"bike_id":"167cf25b-6766-480f-a5ed-9c09e9c92509","system_id":"levelo_inurba_marseille","lat":43.26691,"lon":5.38277,"is_reserved":false,"is_disabled":false,"rental_uris":{"android":"levelo://app?vid=167cf25b-6766-480f-a5ed-9c09e9c92509","ios":"levelo://app?vid=167cf25b-6766-480f-a5ed-9c09e9c92509"},"vehicle_type_id":"4","last_reported":1739182258,"current_range_meters":38800,"station_id":"ce4bhg92rcd13ifvqf90","pricing_plan_id":"cebpf4jnsgd1na2vs0mg"},{"bike_id":"bb1bab95-412e-41ba-879a-c483b6ec0924","system_id":"levelo_inurba_marseille","lat":43.27803,"lon":5.40744,"is_reserved":false,"is_disabled":false,"rental_uris":{"android":"levelo://app?vid=bb1bab95-412e-41ba-879a-c483b6ec0924","ios":"levelo://app?vid=bb1bab95-412e-41ba-879a-c483b6ec0924"},"vehicle_type_id":"4","last_reported":1739182258,"current_range_meters":38400,"station_id":"ce4bhnh2rcd13ifvqgtg","pricing_plan_id":"cebpf4jnsgd1na2vs0mg"},{"bike_id":"57c8f955-25c7-41fd-8227-f09191fef8ad","system_id":"levelo_inurba_marseille","lat":43.31345,"lon":5.36728,"is_reserved":false,"is_disabled":false,"rental_uris":{"android":"levelo://app?vid=57c8f955-25c7-41fd-8227-f09191fef8ad","ios":"levelo://app?vid=57c8f955-25c7-41fd-8227-f09191fef8ad"},"vehicle_type_id":"4","last_reported":1739182258,"current_range_meters":36800,"station_id":"ce4bgr92rcd13ifvqc6g","pricing_plan_id":"cebpf4jnsgd1na2vs0mg"},{"bike_id":"d7b38d8a-d747-4eed-a466-e3cdc14f11dd","system_id":"levelo_inurba_marseille","lat":43.32486,"lon":5.36562,"is_reserved":false,"is_disabled":false,"rental_uris":{"android":"levelo://app?vid=d7b38d8a-d747-4eed-a466-e3cdc14f11dd","ios":"levelo://app?vid=d7b38d8a-d747-4eed-a466-e3cdc14f11dd"},"vehicle_type_id":"4","last_reported":1739182258,"current_range_meters":38800,"station_id":"ce4bhs12rcd13ifvqhvg","pricing_plan_id":"cebpf4jnsgd1na2vs0mg"},{"bike_id":"026cc57a-603e-4b44-b9d7-fca33562f2b8","system_id":"levelo_inurba_marseille","lat":43.29049,"lon":5.39963,"is_reserved":false,"is_disabled":false,"rental_uris":{"android":"levelo://app?vid=026cc57a-603e-4b44-b9d7-fca33562f2b8","ios":"levelo://app?vid=026cc57a-603e-4b44-b9d7-fca33562f2b8"},"vehicle_type_id":"4","last_reported":1739182258,"current_range_meters":28400,"station_id":"ce4bh392rcd13ifvqdm0","pricing_plan_id":"cebpf4jnsgd1na2vs0mg"},{"bike_id":"9ee17cc6-94b6-42f9-a180-22e25ec3ed8d","system_id":"levelo_inurba_marseille","lat":43.28706,"lon":5.3738,"is_reserved":false,"is_disabled":false,"rental_uris":{"android":"levelo://app?vid=9ee17cc6-94b6-42f9-a180-22e25ec3ed8d","ios":"levelo://app?vid=9ee17cc6-94b6-42f9-a180-22e25ec3ed8d"},"vehicle_type_id":"4","last_reported":1739182258,"current_range_meters":39200,"station_id":"ce4bh3p2rcd13ifvqdq0","pricing_plan_id":"cebpf4jnsgd1na2vs0mg"},{"bike_id":"b30bb279-db30-4851-99d2-8db60359713f","system_id":"levelo_inurba_marseille","lat":43.23143,"lon":5.4372,"is_reserved":false,"is_disabled":false,"rental_uris":{"android":"levelo://app?vid=b30bb279-db30-4851-99d2-8db60359713f","ios":"levelo://app?vid=b30bb279-db30-4851-99d2-8db60359713f"},"vehicle_type_id":"4","last_reported":1739182258,"current_range_meters":25200,"station_id":"ce4bhmp2rcd13ifvqgog","pricing_plan_id":"cebpf4jnsgd1na2vs0mg"},{"bike_id":"84dabfe0-d972-4b71-87a7-c5d4ca9a6e13","system_id":"levelo_inurba_marseille","lat":43.25008,"lon":5.38944,"is_reserved":false,"is_disabled":false,"rental_uris":{"android":"levelo://app?vid=84dabfe0-d972-4b71-87a7-c5d4ca9a6e13","ios":"levelo://app?vid=84dabfe0-d972-4b71-87a7-c5d4ca9a6e13"},"vehicle_type_id":"4","last_reported":1739182258,"current_range_meters":25200,"station_id":"ce4bhgp2rcd13ifvqfd0","pricing_plan_id":"cebpf4jnsgd1na2vs0mg"},{"bike_id":"b9153e81-48d2-4ee4-b7ec-7f253fee4cd1","system_id":"levelo_inurba_marseille","lat":43.25007,"lon":5.3896,"is_reserved":false,"is_disabled":false,"rental_uris":{"android":"levelo://app?vid=b9153e81-48d2-4ee4-b7ec-7f253fee4cd1","ios":"levelo://app?vid=b9153e81-48d2-4ee4-b7ec-7f253fee4cd1"},"vehicle_type_id":"4","last_reported":1739182258,"current_range_meters":24000,"station_id":"ce4bhgp2rcd13ifvqfd0","pricing_plan_id":"cebpf4jnsgd1na2vs0mg"},{"bike_id":"8f9c655f-09d9-433c-880c-6a0bd2d1b600","system_id":"levelo_inurba_marseille","lat":43.33613,"lon":5.40992,"is_reserved":false,"is_disabled":false,"rental_uris":{"android":"levelo://app?vid=8f9c655f-09d9-433c-880c-6a0bd2d1b600","ios":"levelo://app?vid=8f9c655f-09d9-433c-880c-6a0bd2d1b600"},"vehicle_type_id":"4","last_reported":1739182258,"current_range_meters":30800,"station_id":"ce4bhqh2rcd13ifvqhmg","pricing_plan_id":"cebpf4jnsgd1na2vs0mg"},{"bike_id":"4913b8b5-d6bb-4003-9626-2e55d74c370d","system_id":"levelo_inurba_marseille","lat":43.23957,"lon":5.36634,"is_reserved":false,"is_disabled":false,"rental_uris":{"android":"levelo://app?vid=4913b8b5-d6bb-4003-9626-2e55d74c370d","ios":"levelo://app?vid=4913b8b5-d6bb-4003-9626-2e55d74c370d"},"vehicle_type_id":"4","last_reported":1739182258,"current_range_meters":38400,"station_id":"ce4bhi12rcd13ifvqfp0","pricing_plan_id":"cebpf4jnsgd1na2vs0mg"},{"bike_id":"5fdb6860-5ee3-463b-aea0-6848b9ff5ddc","system_id":"levelo_inurba_marseille","lat":43.26214,"lon":5.40474,"is_reserved":false,"is_disabled":false,"rental_uris":{"android":"levelo://app?vid=5fdb6860-5ee3-463b-aea0-6848b9ff5ddc","ios":"levelo://app?vid=5fdb6860-5ee3-463b-aea0-6848b9ff5ddc"},"vehicle_type_id":"4","last_reported":1739182258,"current_range_meters":18800,"station_id":"ce4bhmh2rcd13ifvqgmg","pricing_plan_id":"cebpf4jnsgd1na2vs0mg"},{"bike_id":"a0f38a2d-991d-47ec-8a68-ef22bb9d88ec","system_id":"levelo_inurba_marseille","lat":43.30568,"lon":5.36714,"is_reserved":false,"is_disabled":false,"rental_uris":{"android":"levelo://app?vid=a0f38a2d-991d-47ec-8a68-ef22bb9d88ec","ios":"levelo://app?vid=a0f38a2d-991d-47ec-8a68-ef22bb9d88ec"},"vehicle_type_id":"4","last_reported":1739182258,"current_range_meters":37600,"station_id":"ce4bgrp2rcd13ifvqc9g","pricing_plan_id":"cebpf4jnsgd1na2vs0mg"},{"bike_id":"12a6ecc7-a3a8-4f76-bbdf-c051b566d610","system_id":"levelo_inurba_marseille","lat":43.31885,"lon":5.40742,"is_reserved":false,"is_disabled":false,"rental_uris":{"android":"levelo://app?vid=12a6ecc7-a3a8-4f76-bbdf-c051b566d610","ios":"levelo://app?vid=12a6ecc7-a3a8-4f76-bbdf-c051b566d610"},"vehicle_type_id":"4","last_reported":1739182258,"current_range_meters":33200,"station_id":"ce4bhq12rcd13ifvqhig","pricing_plan_id":"cebpf4jnsgd1na2vs0mg"},{"bike_id":"0ccae692-16fa-48e3-88e0-236b5491d838","system_id":"levelo_inurba_marseille","lat":43.33725,"lon":5.391891,"is_reserved":false,"is_disabled":false,"rental_uris":{"android":"levelo://app?vid=0ccae692-16fa-48e3-88e0-236b5491d838","ios":"levelo://app?vid=0ccae692-16fa-48e3-88e0-236b5491d838"},"vehicle_type_id":"4","last_reported":1739182258,"current_range_meters":39200,"station_id":"ce4bhr92rcd13ifvqhsg","pricing_plan_id":"cebpf4jnsgd1na2vs0mg"},{"bike_id":"3387e857-76e8-4fc1-a1cf-94655f3cc3c6","system_id":"levelo_inurba_marseille","lat":43.23961,"lon":5.36639,"is_reserved":false,"is_disabled":false,"rental_uris":{"android":"levelo://app?vid=3387e857-76e8-4fc1-a1cf-94655f3cc3c6","ios":"levelo://app?vid=3387e857-76e8-4fc1-a1cf-94655f3cc3c6"},"vehicle_type_id":"4","last_reported":1739182258,"current_range_meters":24400,"station_id":"ce4bhi12rcd13ifvqfp0","pricing_plan_id":"cebpf4jnsgd1na2vs0mg"},{"bike_id":"ca330563-6e43-42e3-a473-ca0403faecc5","system_id":"levelo_inurba_marseille","lat":43.3047,"lon":5.37916,"is_reserved":false,"is_disabled":false,"rental_uris":{"android":"levelo://app?vid=ca330563-6e43-42e3-a473-ca0403faecc5","ios":"levelo://app?vid=ca330563-6e43-42e3-a473-ca0403faecc5"},"vehicle_type_id":"4","last_reported":1739182258,"current_range_meters":28800,"station_id":"ce4bgup2rcd13ifvqcn0","pricing_plan_id":"cebpf4jnsgd1na2vs0mg"},{"bike_id":"bdecf532-4207-4d2d-817a-f8c8f3ab7ed9","system_id":"levelo_inurba_marseille","lat":43.26562,"lon":5.37287,"is_reserved":false,"is_disabled":false,"rental_uris":{"android":"levelo://app?vid=bdecf532-4207-4d2d-817a-f8c8f3ab7ed9","ios":"levelo://app?vid=bdecf532-4207-4d2d-817a-f8c8f3ab7ed9"},"vehicle_type_id":"4","last_reported":1739182258,"current_range_meters":16000,"station_id":"ce4bhg12rcd13ifvqf70","pricing_plan_id":"cebpf4jnsgd1na2vs0mg"},{"bike_id":"f9170ddb-ab95-49f3-8e6f-09d0804279db","system_id":"levelo_inurba_marseille","lat":43.29004,"lon":5.35612,"is_reserved":false,"is_disabled":false,"rental_uris":{"android":"levelo://app?vid=f9170ddb-ab95-49f3-8e6f-09d0804279db","ios":"levelo://app?vid=f9170ddb-ab95-49f3-8e6f-09d0804279db"},"vehicle_type_id":"4","last_reported":1739182258,"current_range_meters":36000,"station_id":"ce4bhb92rcd13ifvqen0","pricing_plan_id":"cebpf4jnsgd1na2vs0mg"},{"bike_id":"7a849bda-7c44-4b3e-befe-45b60441252c","system_id":"levelo_inurba_marseille","lat":43.34149,"lon":5.40925,"is_reserved":false,"is_disabled":false,"rental_uris":{"android":"levelo://app?vid=7a849bda-7c44-4b3e-befe-45b60441252c","ios":"levelo://app?vid=7a849bda-7c44-4b3e-befe-45b60441252c"},"vehicle_type_id":"4","last_reported":1739182258,"current_range_meters":38800,"station_id":"ce4bhqh2rcd13ifvqhlg","pricing_plan_id":"cebpf4jnsgd1na2vs0mg"},{"bike_id":"45bb24a1-0c85-41c1-81d0-60806ea0d3e6","system_id":"levelo_inurba_marseille","lat":43.27193,"lon":5.4099,"is_reserved":false,"is_disabled":false,"rental_uris":{"android":"levelo://app?vid=45bb24a1-0c85-41c1-81d0-60806ea0d3e6","ios":"levelo://app?vid=45bb24a1-0c85-41c1-81d0-60806ea0d3e6"},"vehicle_type_id":"4","last_reported":1739182258,"current_range_meters":13600,"station_id":"ce4bhl12rcd13ifvqgf0","pricing_plan_id":"cebpf4jnsgd1na2vs0mg"},{"bike_id":"96fe1668-af51-4478-b65e-c78b039aaaeb","system_id":"levelo_inurba_marseille","lat":43.295427,"lon":5.375008,"is_reserved":false,"is_disabled":true,"rental_uris":{"android":"levelo://app?vid=96fe1668-af51-4478-b65e-c78b039aaaeb","ios":"levelo://app?vid=96fe1668-af51-4478-b65e-c78b039aaaeb"},"vehicle_type_id":"4","last_reported":1739182258,"current_range_meters":28400,"station_id":"ce4bgkp2rcd13ifvqbmg","pricing_plan_id":"cebpf4jnsgd1na2vs0mg"},{"bike_id":"9ef3ef24-bb77-4d32-bf44-decc200b23a8","system_id":"levelo_inurba_marseille","lat":43.25711,"lon":5.41136,"is_reserved":false,"is_disabled":false,"rental_uris":{"android":"levelo://app?vid=9ef3ef24-bb77-4d32-bf44-decc200b23a8","ios":"levelo://app?vid=9ef3ef24-bb77-4d32-bf44-decc200b23a8"},"vehicle_type_id":"4","last_reported":1739182258,"current_range_meters":39200,"station_id":"ce4bhkp2rcd13ifvqgd0","pricing_plan_id":"cebpf4jnsgd1na2vs0mg"},{"bike_id":"c396b743-cb15-4d1e-b90a-fbd81e5de246","system_id":"levelo_inurba_marseille","lat":43.27379,"lon":5.39423,"is_reserved":false,"is_disabled":false,"rental_uris":{"android":"levelo://app?vid=c396b743-cb15-4d1e-b90a-fbd81e5de246","ios":"levelo://app?vid=c396b743-cb15-4d1e-b90a-fbd81e5de246"},"vehicle_type_id":"4","last_reported":1739182258,"current_range_meters":38800,"station_id":"ce4bhdp2rcd13ifvqf20","pricing_plan_id":"cebpf4jnsgd1na2vs0mg"},{"bike_id":"5eb59fd4-34c7-4030-bbe2-18e35f7c6137","system_id":"levelo_inurba_marseille","lat":43.275642,"lon":5.384198,"is_reserved":false,"is_disabled":false,"rental_uris":{"android":"levelo://app?vid=5eb59fd4-34c7-4030-bbe2-18e35f7c6137","ios":"levelo://app?vid=5eb59fd4-34c7-4030-bbe2-18e35f7c6137"},"vehicle_type_id":"4","last_reported":1739182258,"current_range_meters":16400,"station_id":"ce4bhh92rcd13ifvqfi0","pricing_plan_id":"cebpf4jnsgd1na2vs0mg"},{"bike_id":"f67b7531-6c63-4f46-a9d4-4fdf588facb0","system_id":"levelo_inurba_marseille","lat":43.27874,"lon":5.40597,"is_reserved":false,"is_disabled":true,"rental_uris":{"android":"levelo://app?vid=f67b7531-6c63-4f46-a9d4-4fdf588facb0","ios":"levelo://app?vid=f67b7531-6c63-4f46-a9d4-4fdf588facb0"},"vehicle_type_id":"4","last_reported":1739182258,"current_range_meters":0,"station_id":"","pricing_plan_id":"cebpf4jnsgd1na2vs0mg"},{"bike_id":"11d31227-d80a-41e0-8dac-57645850bdfb","system_id":"levelo_inurba_marseille","lat":43.30796,"lon":5.38161,"is_reserved":false,"is_disabled":false,"rental_uris":{"android":"levelo://app?vid=11d31227-d80a-41e0-8dac-57645850bdfb","ios":"levelo://app?vid=11d31227-d80a-41e0-8dac-57645850bdfb"},"vehicle_type_id":"4","last_reported":1739182258,"current_range_meters":35200,"station_id":"ce4bgt12rcd13ifvqce0","pricing_plan_id":"cebpf4jnsgd1na2vs0mg"},{"bike_id":"bd5b64f0-ff05-4c51-946e-2c1ecb2e857a","system_id":"levelo_inurba_marseille","lat":43.23156,"lon":5.43722,"is_reserved":false,"is_disabled":false,"rental_uris":{"android":"levelo://app?vid=bd5b64f0-ff05-4c51-946e-2c1ecb2e857a","ios":"levelo://app?vid=bd5b64f0-ff05-4c51-946e-2c1ecb2e857a"},"vehicle_type_id":"4","last_reported":1739182258,"current_range_meters":18800,"station_id":"ce4bhmp2rcd13ifvqgog","pricing_plan_id":"cebpf4jnsgd1na2vs0mg"},{"bike_id":"6d8e8027-a450-4bd2-8742-f658a03a7f08","system_id":"levelo_inurba_marseille","lat":43.31179,"lon":5.38716,"is_reserved":false,"is_disabled":false,"rental_uris":{"android":"levelo://app?vid=6d8e8027-a450-4bd2-8742-f658a03a7f08","ios":"levelo://app?vid=6d8e8027-a450-4bd2-8742-f658a03a7f08"},"vehicle_type_id":"4","last_reported":1739182258,"current_range_meters":27600,"station_id":"ce4bgv12rcd13ifvqcp0","pricing_plan_id":"cebpf4jnsgd1na2vs0mg"},{"bike_id":"09293aaa-6dc6-47d3-8c81-a7b0c85148a9","system_id":"levelo_inurba_marseille","lat":43.24083,"lon":5.37756,"is_reserved":false,"is_disabled":false,"rental_uris":{"android":"levelo://app?vid=09293aaa-6dc6-47d3-8c81-a7b0c85148a9","ios":"levelo://app?vid=09293aaa-6dc6-47d3-8c81-a7b0c85148a9"},"vehicle_type_id":"4","last_reported":1739182258,"current_range_meters":5600,"station_id":"ce4bhnp2rcd13ifvqgvg","pricing_plan_id":"cebpf4jnsgd1na2vs0mg"},{"bike_id":"74dda318-1b0b-46a6-82cc-20741b70a914","system_id":"levelo_inurba_marseille","lat":43.29302,"lon":5.37451,"is_reserved":false,"is_disabled":true,"rental_uris":{"android":"levelo://app?vid=74dda318-1b0b-46a6-82cc-20741b70a914","ios":"levelo://app?vid=74dda318-1b0b-46a6-82cc-20741b70a914"},"vehicle_type_id":"4","last_reported":1739182258,"current_range_meters":16800,"station_id":"ce4bgi12rcd13ifvqb70","pricing_plan_id":"cebpf4jnsgd1na2vs0mg"},{"bike_id":"f48ad086-4c57-4084-896a-481d6c000544","system_id":"levelo_inurba_marseille","lat":43.24081,"lon":5.37756,"is_reserved":false,"is_disabled":false,"rental_uris":{"android":"levelo://app?vid=f48ad086-4c57-4084-896a-481d6c000544","ios":"levelo://app?vid=f48ad086-4c57-4084-896a-481d6c000544"},"vehicle_type_id":"4","last_reported":1739182258,"current_range_meters":4800,"station_id":"ce4bhnp2rcd13ifvqgvg","pricing_plan_id":"cebpf4jnsgd1na2vs0mg"},{"bike_id":"9e0a99c1-5ad2-48c7-930b-ed41b317d8a2","system_id":"levelo_inurba_marseille","lat":43.30153,"lon":5.38079,"is_reserved":false,"is_disabled":false,"rental_uris":{"android":"levelo://app?vid=9e0a99c1-5ad2-48c7-930b-ed41b317d8a2","ios":"levelo://app?vid=9e0a99c1-5ad2-48c7-930b-ed41b317d8a2"},"vehicle_type_id":"4","last_reported":1739182258,"current_range_meters":38800,"station_id":"ce4bgjp2rcd13ifvqbh0","pricing_plan_id":"cebpf4jnsgd1na2vs0mg"},{"bike_id":"028e5bc2-b679-4b6c-a013-843d23405193","system_id":"levelo_inurba_marseille","lat":43.28712,"lon":5.37409,"is_reserved":false,"is_disabled":false,"rental_uris":{"android":"levelo://app?vid=028e5bc2-b679-4b6c-a013-843d23405193","ios":"levelo://app?vid=028e5bc2-b679-4b6c-a013-843d23405193"},"vehicle_type_id":"4","last_reported":1739182258,"current_range_meters":38000,"station_id":"ce4bh3p2rcd13ifvqdq0","pricing_plan_id":"cebpf4jnsgd1na2vs0mg"},{"bike_id":"ddcc94dc-8585-4cb1-af05-471cf80b9b38","system_id":"levelo_inurba_marseille","lat":43.32481,"lon":5.36559,"is_reserved":false,"is_disabled":false,"rental_uris":{"android":"levelo://app?vid=ddcc94dc-8585-4cb1-af05-471cf80b9b38","ios":"levelo://app?vid=ddcc94dc-8585-4cb1-af05-471cf80b9b38"},"vehicle_type_id":"4","last_reported":1739182258,"current_range_meters":38800,"station_id":"ce4bhs12rcd13ifvqhvg","pricing_plan_id":"cebpf4jnsgd1na2vs0mg"},{"bike_id":"5c7479b7-7263-4b4c-a3b1-0d7fb0f411f8","system_id":"levelo_inurba_marseille","lat":43.303167,"lon":5.404428,"is_reserved":false,"is_disabled":true,"rental_uris":{"android":"levelo://app?vid=5c7479b7-7263-4b4c-a3b1-0d7fb0f411f8","ios":"levelo://app?vid=5c7479b7-7263-4b4c-a3b1-0d7fb0f411f8"},"vehicle_type_id":"4","last_reported":1739182258,"current_range_meters":33600,"station_id":"ce4bh012rcd13ifvqd10","pricing_plan_id":"cebpf4jnsgd1na2vs0mg"},{"bike_id":"22d30eac-91ea-431b-ab34-f7e1aa7ee45e","system_id":"levelo_inurba_marseille","lat":43.31696,"lon":5.40469,"is_reserved":false,"is_disabled":false,"rental_uris":{"android":"levelo://app?vid=22d30eac-91ea-431b-ab34-f7e1aa7ee45e","ios":"levelo://app?vid=22d30eac-91ea-431b-ab34-f7e1aa7ee45e"},"vehicle_type_id":"4","last_reported":1739182258,"current_range_meters":22000,"station_id":"ce4bh012rcd13ifvqd00","pricing_plan_id":"cebpf4jnsgd1na2vs0mg"},{"bike_id":"5dec2fdf-46a6-4d2a-a8dd-9a8ec1a948d3","system_id":"levelo_inurba_marseille","lat":43.23185,"lon":5.35564,"is_reserved":false,"is_disabled":false,"rental_uris":{"android":"levelo://app?vid=5dec2fdf-46a6-4d2a-a8dd-9a8ec1a948d3","ios":"levelo://app?vid=5dec2fdf-46a6-4d2a-a8dd-9a8ec1a948d3"},"vehicle_type_id":"4","last_reported":1739182258,"current_range_meters":38000,"station_id":"ce4bhu92rcd13ifvqi70","pricing_plan_id":"cebpf4jnsgd1na2vs0mg"},{"bike_id":"d7a26be3-3eb7-4470-b83d-ff84360e9b18","system_id":"levelo_inurba_marseille","lat":43.27297,"lon":5.39103,"is_reserved":false,"is_disabled":false,"rental_uris":{"android":"levelo://app?vid=d7a26be3-3eb7-4470-b83d-ff84360e9b18","ios":"levelo://app?vid=d7a26be3-3eb7-4470-b83d-ff84360e9b18"},"vehicle_type_id":"4","last_reported":1739182258,"current_range_meters":38800,"station_id":"ce4bhgp2rcd13ifvqfe0","pricing_plan_id":"cebpf4jnsgd1na2vs0mg"},{"bike_id":"995ec4d1-d327-40a7-8784-729fd941270a","system_id":"levelo_inurba_marseille","lat":43.29307,"lon":5.37184,"is_reserved":false,"is_disabled":false,"rental_uris":{"android":"levelo://app?vid=995ec4d1-d327-40a7-8784-729fd941270a","ios":"levelo://app?vid=995ec4d1-d327-40a7-8784-729fd941270a"},"vehicle_type_id":"4","last_reported":1739182258,"current_range_meters":39200,"station_id":"ce4bgh92rcd13ifvqb40","pricing_plan_id":"cebpf4jnsgd1na2vs0mg"},{"bike_id":"ba1a5220-ad16-42c4-8f84-c122c65e5feb","system_id":"levelo_inurba_marseille","lat":43.25817,"lon":5.3945,"is_reserved":false,"is_disabled":false,"rental_uris":{"android":"levelo://app?vid=ba1a5220-ad16-42c4-8f84-c122c65e5feb","ios":"levelo://app?vid=ba1a5220-ad16-42c4-8f84-c122c65e5feb"},"vehicle_type_id":"4","last_reported":1739182258,"current_range_meters":39200,"station_id":"ce4bhip2rcd13ifvqft0","pricing_plan_id":"cebpf4jnsgd1na2vs0mg"},{"bike_id":"22669ad6-c05b-49c6-864d-bb442ac14c15","system_id":"levelo_inurba_marseille","lat":43.25928,"lon":5.40891,"is_reserved":false,"is_disabled":false,"rental_uris":{"android":"levelo://app?vid=22669ad6-c05b-49c6-864d-bb442ac14c15","ios":"levelo://app?vid=22669ad6-c05b-49c6-864d-bb442ac14c15"},"vehicle_type_id":"4","last_reported":1739182258,"current_range_meters":27200,"station_id":"ce4bhm92rcd13ifvqglg","pricing_plan_id":"cebpf4jnsgd1na2vs0mg"},{"bike_id":"5c55719c-bf56-4316-adc3-30111af87656","system_id":"levelo_inurba_marseille","lat":43.23059,"lon":5.35492,"is_reserved":false,"is_disabled":false,"rental_uris":{"android":"levelo://app?vid=5c55719c-bf56-4316-adc3-30111af87656","ios":"levelo://app?vid=5c55719c-bf56-4316-adc3-30111af87656"},"vehicle_type_id":"4","last_reported":1739182258,"current_range_meters":38400,"station_id":"cpo3342slgdg3j2ifvpg","pricing_plan_id":"cebpf4jnsgd1na2vs0mg"},{"bike_id":"c2b542d5-20ee-4d02-a9e4-f66e0540bcfb","system_id":"levelo_inurba_marseille","lat":43.24148,"lon":5.39753,"is_reserved":false,"is_disabled":false,"rental_uris":{"android":"levelo://app?vid=c2b542d5-20ee-4d02-a9e4-f66e0540bcfb","ios":"levelo://app?vid=c2b542d5-20ee-4d02-a9e4-f66e0540bcfb"},"vehicle_type_id":"4","last_reported":1739182258,"current_range_meters":38800,"station_id":"ce4bhn12rcd13ifvqgpg","pricing_plan_id":"cebpf4jnsgd1na2vs0mg"},{"bike_id":"9d190229-9e80-48bf-91fc-fdc7e0686592","system_id":"levelo_inurba_marseille","lat":43.27941,"lon":5.38707,"is_reserved":false,"is_disabled":false,"rental_uris":{"android":"levelo://app?vid=9d190229-9e80-48bf-91fc-fdc7e0686592","ios":"levelo://app?vid=9d190229-9e80-48bf-91fc-fdc7e0686592"},"vehicle_type_id":"4","last_reported":1739182258,"current_range_meters":32400,"station_id":"ce4bhg12rcd13ifvqf80","pricing_plan_id":"cebpf4jnsgd1na2vs0mg"},{"bike_id":"921532fe-4dc7-4d46-904d-c2be86caee52","system_id":"levelo_inurba_marseille","lat":43.304596,"lon":5.379062,"is_reserved":false,"is_disabled":false,"rental_uris":{"android":"levelo://app?vid=921532fe-4dc7-4d46-904d-c2be86caee52","ios":"levelo://app?vid=921532fe-4dc7-4d46-904d-c2be86caee52"},"vehicle_type_id":"4","last_reported":1739182258,"current_range_meters":18000,"station_id":"ce4bgup2rcd13ifvqcn0","pricing_plan_id":"cebpf4jnsgd1na2vs0mg"},{"bike_id":"1da8b17b-ad28-4780-a711-431647c244ed","system_id":"levelo_inurba_marseille","lat":43.23955,"lon":5.3663,"is_reserved":false,"is_disabled":false,"rental_uris":{"android":"levelo://app?vid=1da8b17b-ad28-4780-a711-431647c244ed","ios":"levelo://app?vid=1da8b17b-ad28-4780-a711-431647c244ed"},"vehicle_type_id":"4","last_reported":1739182258,"current_range_meters":16800,"station_id":"ce4bhi12rcd13ifvqfp0","pricing_plan_id":"cebpf4jnsgd1na2vs0mg"},{"bike_id":"387f62f2-7ff0-42c6-9bd7-464493172742","system_id":"levelo_inurba_marseille","lat":43.24393,"lon":5.37078,"is_reserved":false,"is_disabled":false,"rental_uris":{"android":"levelo://app?vid=387f62f2-7ff0-42c6-9bd7-464493172742","ios":"levelo://app?vid=387f62f2-7ff0-42c6-9bd7-464493172742"},"vehicle_type_id":"4","last_reported":1739182258,"current_range_meters":29600,"station_id":"ce4bhhh2rcd13ifvqfk0","pricing_plan_id":"cebpf4jnsgd1na2vs0mg"},{"bike_id":"70804fbe-b550-4515-88c1-663e84c1470b","system_id":"levelo_inurba_marseille","lat":43.26786,"lon":5.39433,"is_reserved":false,"is_disabled":false,"rental_uris":{"android":"levelo://app?vid=70804fbe-b550-4515-88c1-663e84c1470b","ios":"levelo://app?vid=70804fbe-b550-4515-88c1-663e84c1470b"},"vehicle_type_id":"4","last_reported":1739182258,"current_range_meters":39200,"station_id":"ce4bhh12rcd13ifvqfg0","pricing_plan_id":"cebpf4jnsgd1na2vs0mg"},{"bike_id":"f2d50267-98d9-493b-8957-63594a0dadcc","system_id":"levelo_inurba_marseille","lat":43.23066,"lon":5.35524,"is_reserved":false,"is_disabled":false,"rental_uris":{"android":"levelo://app?vid=f2d50267-98d9-493b-8957-63594a0dadcc","ios":"levelo://app?vid=f2d50267-98d9-493b-8957-63594a0dadcc"},"vehicle_type_id":"4","last_reported":1739182258,"current_range_meters":38000,"station_id":"cpo3342slgdg3j2ifvpg","pricing_plan_id":"cebpf4jnsgd1na2vs0mg"},{"bike_id":"985ea620-1838-4cc4-9f45-6622855b2de9","system_id":"levelo_inurba_marseille","lat":43.27987,"lon":5.40018,"is_reserved":false,"is_disabled":false,"rental_uris":{"android":"levelo://app?vid=985ea620-1838-4cc4-9f45-6622855b2de9","ios":"levelo://app?vid=985ea620-1838-4cc4-9f45-6622855b2de9"},"vehicle_type_id":"4","last_reported":1739182258,"current_range_meters":36400,"station_id":"ce4bho92rcd13ifvqh4g","pricing_plan_id":"cebpf4jnsgd1na2vs0mg"},{"bike_id":"b62dea62-0007-4bca-a1b0-d88bfab77dea","system_id":"levelo_inurba_marseille","lat":43.32479,"lon":5.36561,"is_reserved":false,"is_disabled":false,"rental_uris":{"android":"levelo://app?vid=b62dea62-0007-4bca-a1b0-d88bfab77dea","ios":"levelo://app?vid=b62dea62-0007-4bca-a1b0-d88bfab77dea"},"vehicle_type_id":"4","last_reported":1739182258,"current_range_meters":26800,"station_id":"ce4bhs12rcd13ifvqhvg","pricing_plan_id":"cebpf4jnsgd1na2vs0mg"},{"bike_id":"88d7d662-c0d3-417f-85e8-dc4e95cea20c","system_id":"levelo_inurba_marseille","lat":43.30549,"lon":5.364833,"is_reserved":false,"is_disabled":false,"rental_uris":{"android":"levelo://app?vid=88d7d662-c0d3-417f-85e8-dc4e95cea20c","ios":"levelo://app?vid=88d7d662-c0d3-417f-85e8-dc4e95cea20c"},"vehicle_type_id":"4","last_reported":1739182258,"current_range_meters":38000,"station_id":"ce4bgs12rcd13ifvqcag","pricing_plan_id":"cebpf4jnsgd1na2vs0mg"},{"bike_id":"c428c0ff-9bc1-47aa-bfb1-ddc6a0e1149b","system_id":"levelo_inurba_marseille","lat":43.23957,"lon":5.36623,"is_reserved":false,"is_disabled":false,"rental_uris":{"android":"levelo://app?vid=c428c0ff-9bc1-47aa-bfb1-ddc6a0e1149b","ios":"levelo://app?vid=c428c0ff-9bc1-47aa-bfb1-ddc6a0e1149b"},"vehicle_type_id":"4","last_reported":1739182258,"current_range_meters":35200,"station_id":"ce4bhi12rcd13ifvqfp0","pricing_plan_id":"cebpf4jnsgd1na2vs0mg"},{"bike_id":"7c802e48-0aa9-4285-8cfa-71dc0c97e0c4","system_id":"levelo_inurba_marseille","lat":43.28453,"lon":5.35904,"is_reserved":false,"is_disabled":false,"rental_uris":{"android":"levelo://app?vid=7c802e48-0aa9-4285-8cfa-71dc0c97e0c4","ios":"levelo://app?vid=7c802e48-0aa9-4285-8cfa-71dc0c97e0c4"},"vehicle_type_id":"4","last_reported":1739182258,"current_range_meters":38800,"station_id":"ce4bhah2rcd13ifvqei0","pricing_plan_id":"cebpf4jnsgd1na2vs0mg"},{"bike_id":"8ef414b5-1be8-420d-8c67-1b3ca68a38fc","system_id":"levelo_inurba_marseille","lat":43.30959,"lon":5.39069,"is_reserved":false,"is_disabled":false,"rental_uris":{"android":"levelo://app?vid=8ef414b5-1be8-420d-8c67-1b3ca68a38fc","ios":"levelo://app?vid=8ef414b5-1be8-420d-8c67-1b3ca68a38fc"},"vehicle_type_id":"4","last_reported":1739182258,"current_range_meters":37600,"station_id":"ce4bgup2rcd13ifvqco0","pricing_plan_id":"cebpf4jnsgd1na2vs0mg"},{"bike_id":"d97e4e37-ae66-4cfd-bb7f-464bcf9b6378","system_id":"levelo_inurba_marseille","lat":43.28,"lon":5.40041,"is_reserved":false,"is_disabled":false,"rental_uris":{"android":"levelo://app?vid=d97e4e37-ae66-4cfd-bb7f-464bcf9b6378","ios":"levelo://app?vid=d97e4e37-ae66-4cfd-bb7f-464bcf9b6378"},"vehicle_type_id":"4","last_reported":1739182258,"current_range_meters":39200,"station_id":"ce4bho92rcd13ifvqh4g","pricing_plan_id":"cebpf4jnsgd1na2vs0mg"},{"bike_id":"c07725ed-0527-46d6-b17c-99fd5891c3a0","system_id":"levelo_inurba_marseille","lat":43.26677,"lon":5.3828,"is_reserved":false,"is_disabled":false,"rental_uris":{"android":"levelo://app?vid=c07725ed-0527-46d6-b17c-99fd5891c3a0","ios":"levelo://app?vid=c07725ed-0527-46d6-b17c-99fd5891c3a0"},"vehicle_type_id":"4","last_reported":1739182258,"current_range_meters":39200,"station_id":"ce4bhg92rcd13ifvqf90","pricing_plan_id":"cebpf4jnsgd1na2vs0mg"},{"bike_id":"6f2c96b5-8b55-47a9-8003-452561cb51d9","system_id":"levelo_inurba_marseille","lat":43.24642,"lon":5.38916,"is_reserved":false,"is_disabled":false,"rental_uris":{"android":"levelo://app?vid=6f2c96b5-8b55-47a9-8003-452561cb51d9","ios":"levelo://app?vid=6f2c96b5-8b55-47a9-8003-452561cb51d9"},"vehicle_type_id":"4","last_reported":1739182258,"current_range_meters":38800,"station_id":"ce4bhg12rcd13ifvqf60","pricing_plan_id":"cebpf4jnsgd1na2vs0mg"},{"bike_id":"22a5c6e1-bb6b-4333-8051-e7583e5afc36","system_id":"levelo_inurba_marseille","lat":43.29454,"lon":5.3977,"is_reserved":false,"is_disabled":true,"rental_uris":{"android":"levelo://app?vid=22a5c6e1-bb6b-4333-8051-e7583e5afc36","ios":"levelo://app?vid=22a5c6e1-bb6b-4333-8051-e7583e5afc36"},"vehicle_type_id":"4","last_reported":1739182258,"current_range_meters":37600,"station_id":"ce4bh3h2rcd13ifvqdo0","pricing_plan_id":"cebpf4jnsgd1na2vs0mg"},{"bike_id":"e922a998-68bd-49a9-b7e7-19716fa09a9c","system_id":"levelo_inurba_marseille","lat":43.299771,"lon":5.371683,"is_reserved":false,"is_disabled":false,"rental_uris":{"android":"levelo://app?vid=e922a998-68bd-49a9-b7e7-19716fa09a9c","ios":"levelo://app?vid=e922a998-68bd-49a9-b7e7-19716fa09a9c"},"vehicle_type_id":"4","last_reported":1739182258,"current_range_meters":38800,"station_id":"ce4bgr92rcd13ifvqc7g","pricing_plan_id":"cebpf4jnsgd1na2vs0mg"},{"bike_id":"37c5080e-cb6b-4d2b-a9a3-7381009adb64","system_id":"levelo_inurba_marseille","lat":43.30324,"lon":5.36918,"is_reserved":false,"is_disabled":false,"rental_uris":{"android":"levelo://app?vid=37c5080e-cb6b-4d2b-a9a3-7381009adb64","ios":"levelo://app?vid=37c5080e-cb6b-4d2b-a9a3-7381009adb64"},"vehicle_type_id":"4","last_reported":1739182258,"current_range_meters":38400,"station_id":"ce4bgqh2rcd13ifvqc5g","pricing_plan_id":"cebpf4jnsgd1na2vs0mg"},{"bike_id":"fdade5cc-f296-482b-bdab-dfbd9c557d3b","system_id":"levelo_inurba_marseille","lat":43.27437,"lon":5.39408,"is_reserved":false,"is_disabled":false,"rental_uris":{"android":"levelo://app?vid=fdade5cc-f296-482b-bdab-dfbd9c557d3b","ios":"levelo://app?vid=fdade5cc-f296-482b-bdab-dfbd9c557d3b"},"vehicle_type_id":"4","last_reported":1739182258,"current_range_meters":38800,"station_id":"ce4bhdp2rcd13ifvqf20","pricing_plan_id":"cebpf4jnsgd1na2vs0mg"},{"bike_id":"fd7f60dd-1b52-46f9-9b6b-de4b0fe7477f","system_id":"levelo_inurba_marseille","lat":43.27071,"lon":5.42286,"is_reserved":false,"is_disabled":false,"rental_uris":{"android":"levelo://app?vid=fd7f60dd-1b52-46f9-9b6b-de4b0fe7477f","ios":"levelo://app?vid=fd7f60dd-1b52-46f9-9b6b-de4b0fe7477f"},"vehicle_type_id":"4","last_reported":1739182258,"current_range_meters":30000,"station_id":"ce4bhk92rcd13ifvqgb0","pricing_plan_id":"cebpf4jnsgd1na2vs0mg"},{"bike_id":"3d7ea517-bb3a-4669-a95c-9ae4f8a9521d","system_id":"levelo_inurba_marseille","lat":43.305431,"lon":5.36713,"is_reserved":false,"is_disabled":false,"rental_uris":{"android":"levelo://app?vid=3d7ea517-bb3a-4669-a95c-9ae4f8a9521d","ios":"levelo://app?vid=3d7ea517-bb3a-4669-a95c-9ae4f8a9521d"},"vehicle_type_id":"4","last_reported":1739182258,"current_range_meters":28800,"station_id":"ce4bgrp2rcd13ifvqc9g","pricing_plan_id":"cebpf4jnsgd1na2vs0mg"},{"bike_id":"f79b8401-e625-4dba-a673-e27899b6331f","system_id":"levelo_inurba_marseille","lat":43.3054,"lon":5.36543,"is_reserved":false,"is_disabled":false,"rental_uris":{"android":"levelo://app?vid=f79b8401-e625-4dba-a673-e27899b6331f","ios":"levelo://app?vid=f79b8401-e625-4dba-a673-e27899b6331f"},"vehicle_type_id":"4","last_reported":1739182258,"current_range_meters":23200,"station_id":"ce4bgs12rcd13ifvqcag","pricing_plan_id":"cebpf4jnsgd1na2vs0mg"},{"bike_id":"759f8255-23ab-44ca-a038-25cf44fbb8f4","system_id":"levelo_inurba_marseille","lat":43.31327,"lon":5.36709,"is_reserved":false,"is_disabled":false,"rental_uris":{"android":"levelo://app?vid=759f8255-23ab-44ca-a038-25cf44fbb8f4","ios":"levelo://app?vid=759f8255-23ab-44ca-a038-25cf44fbb8f4"},"vehicle_type_id":"4","last_reported":1739182258,"current_range_meters":23200,"station_id":"ce4bgr92rcd13ifvqc6g","pricing_plan_id":"cebpf4jnsgd1na2vs0mg"},{"bike_id":"35718970-6a10-41ea-96ff-2dd3a80d5379","system_id":"levelo_inurba_marseille","lat":43.25018,"lon":5.38947,"is_reserved":false,"is_disabled":false,"rental_uris":{"android":"levelo://app?vid=35718970-6a10-41ea-96ff-2dd3a80d5379","ios":"levelo://app?vid=35718970-6a10-41ea-96ff-2dd3a80d5379"},"vehicle_type_id":"4","last_reported":1739182258,"current_range_meters":35200,"station_id":"ce4bhgp2rcd13ifvqfd0","pricing_plan_id":"cebpf4jnsgd1na2vs0mg"},{"bike_id":"da2e8b2b-5044-402a-8c5e-166581e48aed","system_id":"levelo_inurba_marseille","lat":43.29295,"lon":5.37454,"is_reserved":false,"is_disabled":false,"rental_uris":{"android":"levelo://app?vid=da2e8b2b-5044-402a-8c5e-166581e48aed","ios":"levelo://app?vid=da2e8b2b-5044-402a-8c5e-166581e48aed"},"vehicle_type_id":"4","last_reported":1739182258,"current_range_meters":39200,"station_id":"ce4bgi12rcd13ifvqb70","pricing_plan_id":"cebpf4jnsgd1na2vs0mg"},{"bike_id":"2d6cdf32-bc01-461c-abbf-fe5a422ec320","system_id":"levelo_inurba_marseille","lat":43.28973,"lon":5.37841,"is_reserved":false,"is_disabled":false,"rental_uris":{"android":"levelo://app?vid=2d6cdf32-bc01-461c-abbf-fe5a422ec320","ios":"levelo://app?vid=2d6cdf32-bc01-461c-abbf-fe5a422ec320"},"vehicle_type_id":"4","last_reported":1739182258,"current_range_meters":39200,"station_id":"ce4bh9p2rcd13ifvqed0","pricing_plan_id":"cebpf4jnsgd1na2vs0mg"},{"bike_id":"e9c6f64c-19d3-4482-b40d-850849da22a2","system_id":"levelo_inurba_marseille","lat":43.30153,"lon":5.38096,"is_reserved":false,"is_disabled":false,"rental_uris":{"android":"levelo://app?vid=e9c6f64c-19d3-4482-b40d-850849da22a2","ios":"levelo://app?vid=e9c6f64c-19d3-4482-b40d-850849da22a2"},"vehicle_type_id":"4","last_reported":1739182258,"current_range_meters":6800,"station_id":"ce4bgjp2rcd13ifvqbh0","pricing_plan_id":"cebpf4jnsgd1na2vs0mg"},{"bike_id":"1d875a95-d30d-47bc-935e-6d3a47d3d570","system_id":"levelo_inurba_marseille","lat":43.27185,"lon":5.40988,"is_reserved":false,"is_disabled":false,"rental_uris":{"android":"levelo://app?vid=1d875a95-d30d-47bc-935e-6d3a47d3d570","ios":"levelo://app?vid=1d875a95-d30d-47bc-935e-6d3a47d3d570"},"vehicle_type_id":"4","last_reported":1739182258,"current_range_meters":38000,"station_id":"ce4bhl12rcd13ifvqgf0","pricing_plan_id":"cebpf4jnsgd1na2vs0mg"},{"bike_id":"a14ecdf5-f159-4bb8-94d9-d14724235785","system_id":"levelo_inurba_marseille","lat":43.27241,"lon":5.39187,"is_reserved":false,"is_disabled":false,"rental_uris":{"android":"levelo://app?vid=a14ecdf5-f159-4bb8-94d9-d14724235785","ios":"levelo://app?vid=a14ecdf5-f159-4bb8-94d9-d14724235785"},"vehicle_type_id":"4","last_reported":1739182258,"current_range_meters":39200,"station_id":"ce4bhhp2rcd13ifvqfm0","pricing_plan_id":"cebpf4jnsgd1na2vs0mg"},{"bike_id":"9da2535f-e77c-4f48-aae1-c197f0a0daad","system_id":"levelo_inurba_marseille","lat":43.28001,"lon":5.41664,"is_reserved":false,"is_disabled":false,"rental_uris":{"android":"levelo://app?vid=9da2535f-e77c-4f48-aae1-c197f0a0daad","ios":"levelo://app?vid=9da2535f-e77c-4f48-aae1-c197f0a0daad"},"vehicle_type_id":"4","last_reported":1739182258,"current_range_meters":38400,"station_id":"ce4bho12rcd13ifvqh1g","pricing_plan_id":"cebpf4jnsgd1na2vs0mg"},{"bike_id":"d7353ff9-efe3-4c60-b7ef-d3fb5f0bedbe","system_id":"levelo_inurba_marseille","lat":43.2901,"lon":5.35613,"is_reserved":false,"is_disabled":false,"rental_uris":{"android":"levelo://app?vid=d7353ff9-efe3-4c60-b7ef-d3fb5f0bedbe","ios":"levelo://app?vid=d7353ff9-efe3-4c60-b7ef-d3fb5f0bedbe"},"vehicle_type_id":"4","last_reported":1739182258,"current_range_meters":27600,"station_id":"ce4bhb92rcd13ifvqen0","pricing_plan_id":"cebpf4jnsgd1na2vs0mg"},{"bike_id":"9350105e-5de9-4797-8fd4-6aba342f0a59","system_id":"levelo_inurba_marseille","lat":43.30154,"lon":5.38086,"is_reserved":false,"is_disabled":false,"rental_uris":{"android":"levelo://app?vid=9350105e-5de9-4797-8fd4-6aba342f0a59","ios":"levelo://app?vid=9350105e-5de9-4797-8fd4-6aba342f0a59"},"vehicle_type_id":"4","last_reported":1739182258,"current_range_meters":9600,"station_id":"ce4bgjp2rcd13ifvqbh0","pricing_plan_id":"cebpf4jnsgd1na2vs0mg"},{"bike_id":"cde18094-5b15-4c6f-83b6-54cc57fe62f0","system_id":"levelo_inurba_marseille","lat":43.29307,"lon":5.37453,"is_reserved":false,"is_disabled":false,"rental_uris":{"android":"levelo://app?vid=cde18094-5b15-4c6f-83b6-54cc57fe62f0","ios":"levelo://app?vid=cde18094-5b15-4c6f-83b6-54cc57fe62f0"},"vehicle_type_id":"4","last_reported":1739182258,"current_range_meters":36400,"station_id":"ce4bgi12rcd13ifvqb70","pricing_plan_id":"cebpf4jnsgd1na2vs0mg"},{"bike_id":"55650938-1571-4a39-b21c-44d249ddba93","system_id":"levelo_inurba_marseille","lat":43.33016,"lon":5.39044,"is_reserved":false,"is_disabled":false,"rental_uris":{"android":"levelo://app?vid=55650938-1571-4a39-b21c-44d249ddba93","ios":"levelo://app?vid=55650938-1571-4a39-b21c-44d249ddba93"},"vehicle_type_id":"4","last_reported":1739182258,"current_range_meters":38800,"station_id":"ce4bhr92rcd13ifvqhrg","pricing_plan_id":"cebpf4jnsgd1na2vs0mg"},{"bike_id":"eca0a8f8-8f0e-41e8-a928-fcaa19fa662a","system_id":"levelo_inurba_marseille","lat":43.30278,"lon":5.37706,"is_reserved":false,"is_disabled":false,"rental_uris":{"android":"levelo://app?vid=eca0a8f8-8f0e-41e8-a928-fcaa19fa662a","ios":"levelo://app?vid=eca0a8f8-8f0e-41e8-a928-fcaa19fa662a"},"vehicle_type_id":"4","last_reported":1739182258,"current_range_meters":39200,"station_id":"ce4bguh2rcd13ifvqcj0","pricing_plan_id":"cebpf4jnsgd1na2vs0mg"},{"bike_id":"29c9ba85-0135-4611-af6c-b8dee113d319","system_id":"levelo_inurba_marseille","lat":43.26951,"lon":5.38612,"is_reserved":false,"is_disabled":false,"rental_uris":{"android":"levelo://app?vid=29c9ba85-0135-4611-af6c-b8dee113d319","ios":"levelo://app?vid=29c9ba85-0135-4611-af6c-b8dee113d319"},"vehicle_type_id":"4","last_reported":1739182258,"current_range_meters":38000,"station_id":"ce4bhh92rcd13ifvqfh0","pricing_plan_id":"cebpf4jnsgd1na2vs0mg"},{"bike_id":"e2591219-46ca-4e83-8410-431cb2d3962e","system_id":"levelo_inurba_marseille","lat":43.3055,"lon":5.36703,"is_reserved":false,"is_disabled":false,"rental_uris":{"android":"levelo://app?vid=e2591219-46ca-4e83-8410-431cb2d3962e","ios":"levelo://app?vid=e2591219-46ca-4e83-8410-431cb2d3962e"},"vehicle_type_id":"4","last_reported":1739182258,"current_range_meters":28800,"station_id":"ce4bgrp2rcd13ifvqc9g","pricing_plan_id":"cebpf4jnsgd1na2vs0mg"},{"bike_id":"36428f2e-0efe-4963-97cd-156909322e5e","system_id":"levelo_inurba_marseille","lat":43.28005,"lon":5.40028,"is_reserved":false,"is_disabled":false,"rental_uris":{"android":"levelo://app?vid=36428f2e-0efe-4963-97cd-156909322e5e","ios":"levelo://app?vid=36428f2e-0efe-4963-97cd-156909322e5e"},"vehicle_type_id":"4","last_reported":1739182258,"current_range_meters":16400,"station_id":"ce4bho92rcd13ifvqh4g","pricing_plan_id":"cebpf4jnsgd1na2vs0mg"},{"bike_id":"db467166-9e3b-4f46-afe7-275e574fa527","system_id":"levelo_inurba_marseille","lat":43.23145,"lon":5.43733,"is_reserved":false,"is_disabled":false,"rental_uris":{"android":"levelo://app?vid=db467166-9e3b-4f46-afe7-275e574fa527","ios":"levelo://app?vid=db467166-9e3b-4f46-afe7-275e574fa527"},"vehicle_type_id":"4","last_reported":1739182258,"current_range_meters":30800,"station_id":"ce4bhmp2rcd13ifvqgog","pricing_plan_id":"cebpf4jnsgd1na2vs0mg"},{"bike_id":"fa4c38ca-1434-4334-ba91-f023c5f1d2dc","system_id":"levelo_inurba_marseille","lat":43.30308,"lon":5.36904,"is_reserved":false,"is_disabled":false,"rental_uris":{"android":"levelo://app?vid=fa4c38ca-1434-4334-ba91-f023c5f1d2dc","ios":"levelo://app?vid=fa4c38ca-1434-4334-ba91-f023c5f1d2dc"},"vehicle_type_id":"4","last_reported":1739182258,"current_range_meters":9200,"station_id":"ce4bgqh2rcd13ifvqc5g","pricing_plan_id":"cebpf4jnsgd1na2vs0mg"},{"bike_id":"61b73614-d869-4073-b766-8ded0c792722","system_id":"levelo_inurba_marseille","lat":43.30238,"lon":5.36645,"is_reserved":false,"is_disabled":false,"rental_uris":{"android":"levelo://app?vid=61b73614-d869-4073-b766-8ded0c792722","ios":"levelo://app?vid=61b73614-d869-4073-b766-8ded0c792722"},"vehicle_type_id":"4","last_reported":1739182258,"current_range_meters":38800,"station_id":"ce4bgrh2rcd13ifvqc8g","pricing_plan_id":"cebpf4jnsgd1na2vs0mg"},{"bike_id":"387fa263-69a4-46a2-bcc8-5d1fb4dc13ad","system_id":"levelo_inurba_marseille","lat":43.3095,"lon":5.39039,"is_reserved":false,"is_disabled":false,"rental_uris":{"android":"levelo://app?vid=387fa263-69a4-46a2-bcc8-5d1fb4dc13ad","ios":"levelo://app?vid=387fa263-69a4-46a2-bcc8-5d1fb4dc13ad"},"vehicle_type_id":"4","last_reported":1739182258,"current_range_meters":34000,"station_id":"","pricing_plan_id":"cebpf4jnsgd1na2vs0mg"},{"bike_id":"40655dd3-a432-4ed7-a38a-b1243facaa3d","system_id":"levelo_inurba_marseille","lat":43.25003,"lon":5.38936,"is_reserved":false,"is_disabled":false,"rental_uris":{"android":"levelo://app?vid=40655dd3-a432-4ed7-a38a-b1243facaa3d","ios":"levelo://app?vid=40655dd3-a432-4ed7-a38a-b1243facaa3d"},"vehicle_type_id":"4","last_reported":1739182258,"current_range_meters":38800,"station_id":"ce4bhgp2rcd13ifvqfd0","pricing_plan_id":"cebpf4jnsgd1na2vs0mg"},{"bike_id":"e9d5fead-e29a-4138-9f62-51b59081f7e8","system_id":"levelo_inurba_marseille","lat":43.3079,"lon":5.3764,"is_reserved":false,"is_disabled":false,"rental_uris":{"android":"levelo://app?vid=e9d5fead-e29a-4138-9f62-51b59081f7e8","ios":"levelo://app?vid=e9d5fead-e29a-4138-9f62-51b59081f7e8"},"vehicle_type_id":"4","last_reported":1739182258,"current_range_meters":38400,"station_id":"ce4bgv92rcd13ifvqcq0","pricing_plan_id":"cebpf4jnsgd1na2vs0mg"},{"bike_id":"34e6fa33-0c41-4468-852d-1827f4da05c9","system_id":"levelo_inurba_marseille","lat":43.249969,"lon":5.389292,"is_reserved":false,"is_disabled":false,"rental_uris":{"android":"levelo://app?vid=34e6fa33-0c41-4468-852d-1827f4da05c9","ios":"levelo://app?vid=34e6fa33-0c41-4468-852d-1827f4da05c9"},"vehicle_type_id":"4","last_reported":1739182258,"current_range_meters":38800,"station_id":"ce4bhgp2rcd13ifvqfd0","pricing_plan_id":"cebpf4jnsgd1na2vs0mg"},{"bike_id":"c5789181-d252-4c46-b75d-908f3a6a38fe","system_id":"levelo_inurba_marseille","lat":43.33738,"lon":5.39198,"is_reserved":false,"is_disabled":false,"rental_uris":{"android":"levelo://app?vid=c5789181-d252-4c46-b75d-908f3a6a38fe","ios":"levelo://app?vid=c5789181-d252-4c46-b75d-908f3a6a38fe"},"vehicle_type_id":"4","last_reported":1739182258,"current_range_meters":39200,"station_id":"ce4bhr92rcd13ifvqhsg","pricing_plan_id":"cebpf4jnsgd1na2vs0mg"},{"bike_id":"29b61e2c-bcbd-446c-a043-85b88e21e0a1","system_id":"levelo_inurba_marseille","lat":43.31366,"lon":5.38501,"is_reserved":false,"is_disabled":true,"rental_uris":{"android":"levelo://app?vid=29b61e2c-bcbd-446c-a043-85b88e21e0a1","ios":"levelo://app?vid=29b61e2c-bcbd-446c-a043-85b88e21e0a1"},"vehicle_type_id":"4","last_reported":1739182258,"current_range_meters":34000,"station_id":"ce4bgt92rcd13ifvqcf0","pricing_plan_id":"cebpf4jnsgd1na2vs0mg"},{"bike_id":"513c52f6-6493-44b1-9b3c-6e43c361d765","system_id":"levelo_inurba_marseille","lat":43.2997,"lon":5.3718,"is_reserved":false,"is_disabled":false,"rental_uris":{"android":"levelo://app?vid=513c52f6-6493-44b1-9b3c-6e43c361d765","ios":"levelo://app?vid=513c52f6-6493-44b1-9b3c-6e43c361d765"},"vehicle_type_id":"4","last_reported":1739182258,"current_range_meters":30400,"station_id":"ce4bgr92rcd13ifvqc7g","pricing_plan_id":"cebpf4jnsgd1na2vs0mg"},{"bike_id":"aec70e69-6051-4962-b9c5-d72001832294","system_id":"levelo_inurba_marseille","lat":43.27568,"lon":5.38438,"is_reserved":false,"is_disabled":false,"rental_uris":{"android":"levelo://app?vid=aec70e69-6051-4962-b9c5-d72001832294","ios":"levelo://app?vid=aec70e69-6051-4962-b9c5-d72001832294"},"vehicle_type_id":"4","last_reported":1739182258,"current_range_meters":38400,"station_id":"ce4bhh92rcd13ifvqfi0","pricing_plan_id":"cebpf4jnsgd1na2vs0mg"},{"bike_id":"64d81ec7-3e38-4641-a45d-cb257f5c4aed","system_id":"levelo_inurba_marseille","lat":43.27805,"lon":5.40728,"is_reserved":false,"is_disabled":false,"rental_uris":{"android":"levelo://app?vid=64d81ec7-3e38-4641-a45d-cb257f5c4aed","ios":"levelo://app?vid=64d81ec7-3e38-4641-a45d-cb257f5c4aed"},"vehicle_type_id":"4","last_reported":1739182258,"current_range_meters":38800,"station_id":"ce4bhnh2rcd13ifvqgtg","pricing_plan_id":"cebpf4jnsgd1na2vs0mg"},{"bike_id":"332a6544-34c1-4f62-9647-569a46cafec7","system_id":"levelo_inurba_marseille","lat":43.2768,"lon":5.38874,"is_reserved":false,"is_disabled":false,"rental_uris":{"android":"levelo://app?vid=332a6544-34c1-4f62-9647-569a46cafec7","ios":"levelo://app?vid=332a6544-34c1-4f62-9647-569a46cafec7"},"vehicle_type_id":"4","last_reported":1739182258,"current_range_meters":19600,"station_id":"ce4bhi12rcd13ifvqfo0","pricing_plan_id":"cebpf4jnsgd1na2vs0mg"},{"bike_id":"172343ba-5115-46fc-9e2e-684ae01d319f","system_id":"levelo_inurba_marseille","lat":43.30288,"lon":5.37687,"is_reserved":false,"is_disabled":false,"rental_uris":{"android":"levelo://app?vid=172343ba-5115-46fc-9e2e-684ae01d319f","ios":"levelo://app?vid=172343ba-5115-46fc-9e2e-684ae01d319f"},"vehicle_type_id":"4","last_reported":1739182258,"current_range_meters":14800,"station_id":"ce4bguh2rcd13ifvqcj0","pricing_plan_id":"cebpf4jnsgd1na2vs0mg"},{"bike_id":"212a6d7a-801d-490a-bada-935623e604e1","system_id":"levelo_inurba_marseille","lat":43.31714,"lon":5.40467,"is_reserved":false,"is_disabled":false,"rental_uris":{"android":"levelo://app?vid=212a6d7a-801d-490a-bada-935623e604e1","ios":"levelo://app?vid=212a6d7a-801d-490a-bada-935623e604e1"},"vehicle_type_id":"4","last_reported":1739182258,"current_range_meters":38800,"station_id":"ce4bh012rcd13ifvqd00","pricing_plan_id":"cebpf4jnsgd1na2vs0mg"},{"bike_id":"7e28cc8e-1e8a-4d6a-aa69-38cf725ceec2","system_id":"levelo_inurba_marseille","lat":43.29235,"lon":5.38441,"is_reserved":false,"is_disabled":true,"rental_uris":{"android":"levelo://app?vid=7e28cc8e-1e8a-4d6a-aa69-38cf725ceec2","ios":"levelo://app?vid=7e28cc8e-1e8a-4d6a-aa69-38cf725ceec2"},"vehicle_type_id":"4","last_reported":1739182258,"current_range_meters":15200,"station_id":"ce4bh692rcd13ifvqea0","pricing_plan_id":"cebpf4jnsgd1na2vs0mg"},{"bike_id":"bc4abc58-0169-44e7-a2dd-d4fa4a8b4eb9","system_id":"levelo_inurba_marseille","lat":43.2413,"lon":5.39764,"is_reserved":false,"is_disabled":false,"rental_uris":{"android":"levelo://app?vid=bc4abc58-0169-44e7-a2dd-d4fa4a8b4eb9","ios":"levelo://app?vid=bc4abc58-0169-44e7-a2dd-d4fa4a8b4eb9"},"vehicle_type_id":"4","last_reported":1739182258,"current_range_meters":17600,"station_id":"ce4bhn12rcd13ifvqgpg","pricing_plan_id":"cebpf4jnsgd1na2vs0mg"},{"bike_id":"82e3a3d7-ff9f-49fd-b359-ad91d0d59537","system_id":"levelo_inurba_marseille","lat":43.27316,"lon":5.39104,"is_reserved":false,"is_disabled":false,"rental_uris":{"android":"levelo://app?vid=82e3a3d7-ff9f-49fd-b359-ad91d0d59537","ios":"levelo://app?vid=82e3a3d7-ff9f-49fd-b359-ad91d0d59537"},"vehicle_type_id":"4","last_reported":1739182258,"current_range_meters":37600,"station_id":"ce4bhgp2rcd13ifvqfe0","pricing_plan_id":"cebpf4jnsgd1na2vs0mg"},{"bike_id":"fa27ac95-8045-4d94-a718-1abd16e21e15","system_id":"levelo_inurba_marseille","lat":43.2557,"lon":5.38231,"is_reserved":false,"is_disabled":false,"rental_uris":{"android":"levelo://app?vid=fa27ac95-8045-4d94-a718-1abd16e21e15","ios":"levelo://app?vid=fa27ac95-8045-4d94-a718-1abd16e21e15"},"vehicle_type_id":"4","last_reported":1739182258,"current_range_meters":25600,"station_id":"ce4bhih2rcd13ifvqfs0","pricing_plan_id":"cebpf4jnsgd1na2vs0mg"},{"bike_id":"880ce712-c0f5-4aaf-8504-50bcf653db47","system_id":"levelo_inurba_marseille","lat":43.24817,"lon":5.37455,"is_reserved":false,"is_disabled":false,"rental_uris":{"android":"levelo://app?vid=880ce712-c0f5-4aaf-8504-50bcf653db47","ios":"levelo://app?vid=880ce712-c0f5-4aaf-8504-50bcf653db47"},"vehicle_type_id":"4","last_reported":1739182258,"current_range_meters":25600,"station_id":"ce4bhgh2rcd13ifvqfb0","pricing_plan_id":"cebpf4jnsgd1na2vs0mg"},{"bike_id":"ce9a10d5-92a1-4f48-9cd5-8d354065fe07","system_id":"levelo_inurba_marseille","lat":43.24188,"lon":5.39733,"is_reserved":false,"is_disabled":false,"rental_uris":{"android":"levelo://app?vid=ce9a10d5-92a1-4f48-9cd5-8d354065fe07","ios":"levelo://app?vid=ce9a10d5-92a1-4f48-9cd5-8d354065fe07"},"vehicle_type_id":"4","last_reported":1739182258,"current_range_meters":24400,"station_id":"ce4bhn12rcd13ifvqgpg","pricing_plan_id":"cebpf4jnsgd1na2vs0mg"},{"bike_id":"926e6c21-b72f-4ae5-a8a1-f8c20c9e713b","system_id":"levelo_inurba_marseille","lat":43.31691,"lon":5.40477,"is_reserved":false,"is_disabled":false,"rental_uris":{"android":"levelo://app?vid=926e6c21-b72f-4ae5-a8a1-f8c20c9e713b","ios":"levelo://app?vid=926e6c21-b72f-4ae5-a8a1-f8c20c9e713b"},"vehicle_type_id":"4","last_reported":1739182258,"current_range_meters":9600,"station_id":"ce4bh012rcd13ifvqd00","pricing_plan_id":"cebpf4jnsgd1na2vs0mg"},{"bike_id":"656b3b3b-ebfa-4345-b7c9-9eedd9381155","system_id":"levelo_inurba_marseille","lat":43.30807,"lon":5.40019,"is_reserved":false,"is_disabled":false,"rental_uris":{"android":"levelo://app?vid=656b3b3b-ebfa-4345-b7c9-9eedd9381155","ios":"levelo://app?vid=656b3b3b-ebfa-4345-b7c9-9eedd9381155"},"vehicle_type_id":"4","last_reported":1739182258,"current_range_meters":8400,"station_id":"","pricing_plan_id":"cebpf4jnsgd1na2vs0mg"},{"bike_id":"fc34dd4a-8401-4452-b28c-284b4c758b9c","system_id":"levelo_inurba_marseille","lat":43.2843,"lon":5.34993,"is_reserved":false,"is_disabled":false,"rental_uris":{"android":"levelo://app?vid=fc34dd4a-8401-4452-b28c-284b4c758b9c","ios":"levelo://app?vid=fc34dd4a-8401-4452-b28c-284b4c758b9c"},"vehicle_type_id":"4","last_reported":1739182258,"current_range_meters":7200,"station_id":"ce4bhbh2rcd13ifvqepg","pricing_plan_id":"cebpf4jnsgd1na2vs0mg"},{"bike_id":"35618fe3-76b3-4c94-b8b9-5d44037297c2","system_id":"levelo_inurba_marseille","lat":43.30317,"lon":5.36912,"is_reserved":false,"is_disabled":false,"rental_uris":{"android":"levelo://app?vid=35618fe3-76b3-4c94-b8b9-5d44037297c2","ios":"levelo://app?vid=35618fe3-76b3-4c94-b8b9-5d44037297c2"},"vehicle_type_id":"4","last_reported":1739182258,"current_range_meters":38800,"station_id":"ce4bgqh2rcd13ifvqc5g","pricing_plan_id":"cebpf4jnsgd1na2vs0mg"},{"bike_id":"f9ec8a41-50bd-48e3-a9c3-1936ef8a8e37","system_id":"levelo_inurba_marseille","lat":43.26955,"lon":5.38654,"is_reserved":false,"is_disabled":false,"rental_uris":{"android":"levelo://app?vid=f9ec8a41-50bd-48e3-a9c3-1936ef8a8e37","ios":"levelo://app?vid=f9ec8a41-50bd-48e3-a9c3-1936ef8a8e37"},"vehicle_type_id":"4","last_reported":1739182258,"current_range_meters":38800,"station_id":"ce4bhh92rcd13ifvqfh0","pricing_plan_id":"cebpf4jnsgd1na2vs0mg"},{"bike_id":"0aac5c3b-a9f3-4414-8736-ac488c1a20d1","system_id":"levelo_inurba_marseille","lat":43.27504,"lon":5.42449,"is_reserved":false,"is_disabled":true,"rental_uris":{"android":"levelo://app?vid=0aac5c3b-a9f3-4414-8736-ac488c1a20d1","ios":"levelo://app?vid=0aac5c3b-a9f3-4414-8736-ac488c1a20d1"},"vehicle_type_id":"4","last_reported":1739182258,"current_range_meters":400,"station_id":"ce4bho92rcd13ifvqh3g","pricing_plan_id":"cebpf4jnsgd1na2vs0mg"},{"bike_id":"60a94b8f-3937-4317-be48-6880cd0d146b","system_id":"levelo_inurba_marseille","lat":43.29842,"lon":5.36274,"is_reserved":false,"is_disabled":false,"rental_uris":{"android":"levelo://app?vid=60a94b8f-3937-4317-be48-6880cd0d146b","ios":"levelo://app?vid=60a94b8f-3937-4317-be48-6880cd0d146b"},"vehicle_type_id":"4","last_reported":1739182258,"current_range_meters":33600,"station_id":"ce4bgpp2rcd13ifvqc3g","pricing_plan_id":"cebpf4jnsgd1na2vs0mg"},{"bike_id":"3f4ed027-7d8a-4bd5-a262-698a07451af5","system_id":"levelo_inurba_marseille","lat":43.30477,"lon":5.37913,"is_reserved":false,"is_disabled":false,"rental_uris":{"android":"levelo://app?vid=3f4ed027-7d8a-4bd5-a262-698a07451af5","ios":"levelo://app?vid=3f4ed027-7d8a-4bd5-a262-698a07451af5"},"vehicle_type_id":"4","last_reported":1739182258,"current_range_meters":22800,"station_id":"ce4bgup2rcd13ifvqcn0","pricing_plan_id":"cebpf4jnsgd1na2vs0mg"},{"bike_id":"7f2deb56-183c-436c-981c-cfbcfece13e6","system_id":"levelo_inurba_marseille","lat":43.23957,"lon":5.36629,"is_reserved":false,"is_disabled":false,"rental_uris":{"android":"levelo://app?vid=7f2deb56-183c-436c-981c-cfbcfece13e6","ios":"levelo://app?vid=7f2deb56-183c-436c-981c-cfbcfece13e6"},"vehicle_type_id":"4","last_reported":1739182258,"current_range_meters":38000,"station_id":"ce4bhi12rcd13ifvqfp0","pricing_plan_id":"cebpf4jnsgd1na2vs0mg"},{"bike_id":"fdb11b92-1db5-4787-9aa8-18c8a6795242","system_id":"levelo_inurba_marseille","lat":43.30469,"lon":5.37911,"is_reserved":false,"is_disabled":false,"rental_uris":{"android":"levelo://app?vid=fdb11b92-1db5-4787-9aa8-18c8a6795242","ios":"levelo://app?vid=fdb11b92-1db5-4787-9aa8-18c8a6795242"},"vehicle_type_id":"4","last_reported":1739182258,"current_range_meters":38800,"station_id":"ce4bgup2rcd13ifvqcn0","pricing_plan_id":"cebpf4jnsgd1na2vs0mg"},{"bike_id":"d481498f-a9b6-4137-868b-00a09b45ae84","system_id":"levelo_inurba_marseille","lat":43.29667,"lon":5.37283,"is_reserved":false,"is_disabled":false,"rental_uris":{"android":"levelo://app?vid=d481498f-a9b6-4137-868b-00a09b45ae84","ios":"levelo://app?vid=d481498f-a9b6-4137-868b-00a09b45ae84"},"vehicle_type_id":"4","last_reported":1739182258,"current_range_meters":22000,"station_id":"ce4bgk12rcd13ifvqbj0","pricing_plan_id":"cebpf4jnsgd1na2vs0mg"},{"bike_id":"a5a14ac8-8c40-406c-865a-09ed98e25470","system_id":"levelo_inurba_marseille","lat":43.23179,"lon":5.35568,"is_reserved":false,"is_disabled":false,"rental_uris":{"android":"levelo://app?vid=a5a14ac8-8c40-406c-865a-09ed98e25470","ios":"levelo://app?vid=a5a14ac8-8c40-406c-865a-09ed98e25470"},"vehicle_type_id":"4","last_reported":1739182258,"current_range_meters":9600,"station_id":"ce4bhu92rcd13ifvqi70","pricing_plan_id":"cebpf4jnsgd1na2vs0mg"},{"bike_id":"9d7240fb-8e21-4950-bea4-7cd7d1bcedc2","system_id":"levelo_inurba_marseille","lat":43.28172,"lon":5.42652,"is_reserved":false,"is_disabled":false,"rental_uris":{"android":"levelo://app?vid=9d7240fb-8e21-4950-bea4-7cd7d1bcedc2","ios":"levelo://app?vid=9d7240fb-8e21-4950-bea4-7cd7d1bcedc2"},"vehicle_type_id":"4","last_reported":1739182258,"current_range_meters":19200,"station_id":"ce4bhnh2rcd13ifvqgug","pricing_plan_id":"cebpf4jnsgd1na2vs0mg"},{"bike_id":"1fcc8d48-f839-4c72-9508-1b6b08bbda82","system_id":"levelo_inurba_marseille","lat":43.27931,"lon":5.38692,"is_reserved":false,"is_disabled":false,"rental_uris":{"android":"levelo://app?vid=1fcc8d48-f839-4c72-9508-1b6b08bbda82","ios":"levelo://app?vid=1fcc8d48-f839-4c72-9508-1b6b08bbda82"},"vehicle_type_id":"4","last_reported":1739182258,"current_range_meters":38400,"station_id":"ce4bhg12rcd13ifvqf80","pricing_plan_id":"cebpf4jnsgd1na2vs0mg"},{"bike_id":"87f55178-b221-4f5a-9b43-4df846d42ec8","system_id":"levelo_inurba_marseille","lat":43.32303,"lon":5.38256,"is_reserved":false,"is_disabled":false,"rental_uris":{"android":"levelo://app?vid=87f55178-b221-4f5a-9b43-4df846d42ec8","ios":"levelo://app?vid=87f55178-b221-4f5a-9b43-4df846d42ec8"},"vehicle_type_id":"4","last_reported":1739182258,"current_range_meters":39200,"station_id":"ce4bhr12rcd13ifvqhqg","pricing_plan_id":"cebpf4jnsgd1na2vs0mg"},{"bike_id":"be06c180-4825-4c41-ad10-3c65d9c7bb7a","system_id":"levelo_inurba_marseille","lat":43.28656,"lon":5.36362,"is_reserved":false,"is_disabled":false,"rental_uris":{"android":"levelo://app?vid=be06c180-4825-4c41-ad10-3c65d9c7bb7a","ios":"levelo://app?vid=be06c180-4825-4c41-ad10-3c65d9c7bb7a"},"vehicle_type_id":"4","last_reported":1739182258,"current_range_meters":38000,"station_id":"ce4bhah2rcd13ifvqej0","pricing_plan_id":"cebpf4jnsgd1na2vs0mg"},{"bike_id":"f4d83256-82de-448e-86cb-89ab822ac803","system_id":"levelo_inurba_marseille","lat":43.267,"lon":5.38246,"is_reserved":false,"is_disabled":false,"rental_uris":{"android":"levelo://app?vid=f4d83256-82de-448e-86cb-89ab822ac803","ios":"levelo://app?vid=f4d83256-82de-448e-86cb-89ab822ac803"},"vehicle_type_id":"4","last_reported":1739182258,"current_range_meters":38800,"station_id":"ce4bhg92rcd13ifvqf90","pricing_plan_id":"cebpf4jnsgd1na2vs0mg"},{"bike_id":"42da078a-a3f2-4210-a507-da2b76ddcd09","system_id":"levelo_inurba_marseille","lat":43.27954,"lon":5.41045,"is_reserved":false,"is_disabled":false,"rental_uris":{"android":"levelo://app?vid=42da078a-a3f2-4210-a507-da2b76ddcd09","ios":"levelo://app?vid=42da078a-a3f2-4210-a507-da2b76ddcd09"},"vehicle_type_id":"4","last_reported":1739182258,"current_range_meters":30800,"station_id":"ce4bhnp2rcd13ifvqh0g","pricing_plan_id":"cebpf4jnsgd1na2vs0mg"},{"bike_id":"59db9156-837c-4bef-bdf0-6cb05d00fb23","system_id":"levelo_inurba_marseille","lat":43.24173,"lon":5.36397,"is_reserved":false,"is_disabled":false,"rental_uris":{"android":"levelo://app?vid=59db9156-837c-4bef-bdf0-6cb05d00fb23","ios":"levelo://app?vid=59db9156-837c-4bef-bdf0-6cb05d00fb23"},"vehicle_type_id":"4","last_reported":1739182258,"current_range_meters":19200,"station_id":"cpo36qri1sfpv3e86is0","pricing_plan_id":"cebpf4jnsgd1na2vs0mg"},{"bike_id":"86f518ee-9ada-41ed-8a82-0382259ca8c9","system_id":"levelo_inurba_marseille","lat":43.29987,"lon":5.37188,"is_reserved":false,"is_disabled":false,"rental_uris":{"android":"levelo://app?vid=86f518ee-9ada-41ed-8a82-0382259ca8c9","ios":"levelo://app?vid=86f518ee-9ada-41ed-8a82-0382259ca8c9"},"vehicle_type_id":"4","last_reported":1739182258,"current_range_meters":37600,"station_id":"ce4bgr92rcd13ifvqc7g","pricing_plan_id":"cebpf4jnsgd1na2vs0mg"},{"bike_id":"a969bcbe-afa5-4da8-800a-45636c18f271","system_id":"levelo_inurba_marseille","lat":43.27215,"lon":5.39185,"is_reserved":false,"is_disabled":false,"rental_uris":{"android":"levelo://app?vid=a969bcbe-afa5-4da8-800a-45636c18f271","ios":"levelo://app?vid=a969bcbe-afa5-4da8-800a-45636c18f271"},"vehicle_type_id":"4","last_reported":1739182258,"current_range_meters":38800,"station_id":"ce4bhhp2rcd13ifvqfm0","pricing_plan_id":"cebpf4jnsgd1na2vs0mg"},{"bike_id":"27fe88b6-f81f-4aba-983f-e2e9fb819079","system_id":"levelo_inurba_marseille","lat":43.3255,"lon":5.41461,"is_reserved":false,"is_disabled":false,"rental_uris":{"android":"levelo://app?vid=27fe88b6-f81f-4aba-983f-e2e9fb819079","ios":"levelo://app?vid=27fe88b6-f81f-4aba-983f-e2e9fb819079"},"vehicle_type_id":"4","last_reported":1739182258,"current_range_meters":39200,"station_id":"ce4bhq12rcd13ifvqhhg","pricing_plan_id":"cebpf4jnsgd1na2vs0mg"},{"bike_id":"357a6733-cb79-45c6-aecb-bfb356c73e58","system_id":"levelo_inurba_marseille","lat":43.29937,"lon":5.37477,"is_reserved":false,"is_disabled":false,"rental_uris":{"android":"levelo://app?vid=357a6733-cb79-45c6-aecb-bfb356c73e58","ios":"levelo://app?vid=357a6733-cb79-45c6-aecb-bfb356c73e58"},"vehicle_type_id":"4","last_reported":1739182258,"current_range_meters":38800,"station_id":"ce4bgjh2rcd13ifvqbg0","pricing_plan_id":"cebpf4jnsgd1na2vs0mg"},{"bike_id":"e6dc9bdf-237c-47b7-ab28-1a867206a3b1","system_id":"levelo_inurba_marseille","lat":43.30186,"lon":5.38133,"is_reserved":false,"is_disabled":true,"rental_uris":{"android":"levelo://app?vid=e6dc9bdf-237c-47b7-ab28-1a867206a3b1","ios":"levelo://app?vid=e6dc9bdf-237c-47b7-ab28-1a867206a3b1"},"vehicle_type_id":"4","last_reported":1739182258,"current_range_meters":22800,"station_id":"","pricing_plan_id":"cebpf4jnsgd1na2vs0mg"},{"bike_id":"40c257d0-c522-40ac-b359-266d6837b11a","system_id":"levelo_inurba_marseille","lat":43.23963,"lon":5.36648,"is_reserved":false,"is_disabled":false,"rental_uris":{"android":"levelo://app?vid=40c257d0-c522-40ac-b359-266d6837b11a","ios":"levelo://app?vid=40c257d0-c522-40ac-b359-266d6837b11a"},"vehicle_type_id":"4","last_reported":1739182258,"current_range_meters":22000,"station_id":"ce4bhi12rcd13ifvqfp0","pricing_plan_id":"cebpf4jnsgd1na2vs0mg"},{"bike_id":"9c3ed8fb-7268-418c-ac09-3f255c9e9b5e","system_id":"levelo_inurba_marseille","lat":43.28033,"lon":5.36954,"is_reserved":false,"is_disabled":false,"rental_uris":{"android":"levelo://app?vid=9c3ed8fb-7268-418c-ac09-3f255c9e9b5e","ios":"levelo://app?vid=9c3ed8fb-7268-418c-ac09-3f255c9e9b5e"},"vehicle_type_id":"4","last_reported":1739182258,"current_range_meters":33600,"station_id":"ce4bha12rcd13ifvqef0","pricing_plan_id":"cebpf4jnsgd1na2vs0mg"},{"bike_id":"d237dc9a-96b1-4020-9b6d-17c434a062bf","system_id":"levelo_inurba_marseille","lat":43.30482,"lon":5.379,"is_reserved":false,"is_disabled":false,"rental_uris":{"android":"levelo://app?vid=d237dc9a-96b1-4020-9b6d-17c434a062bf","ios":"levelo://app?vid=d237dc9a-96b1-4020-9b6d-17c434a062bf"},"vehicle_type_id":"4","last_reported":1739182258,"current_range_meters":33200,"station_id":"ce4bgup2rcd13ifvqcn0","pricing_plan_id":"cebpf4jnsgd1na2vs0mg"},{"bike_id":"c91fa3f3-a774-43d0-92fe-010e57bc5d25","system_id":"levelo_inurba_marseille","lat":43.26192,"lon":5.37476,"is_reserved":false,"is_disabled":false,"rental_uris":{"android":"levelo://app?vid=c91fa3f3-a774-43d0-92fe-010e57bc5d25","ios":"levelo://app?vid=c91fa3f3-a774-43d0-92fe-010e57bc5d25"},"vehicle_type_id":"4","last_reported":1739182258,"current_range_meters":7200,"station_id":"ce4bhgp2rcd13ifvqfc0","pricing_plan_id":"cebpf4jnsgd1na2vs0mg"},{"bike_id":"f716f578-c2fc-4e45-ba80-6c1a1026e79f","system_id":"levelo_inurba_marseille","lat":43.29311,"lon":5.37466,"is_reserved":false,"is_disabled":false,"rental_uris":{"android":"levelo://app?vid=f716f578-c2fc-4e45-ba80-6c1a1026e79f","ios":"levelo://app?vid=f716f578-c2fc-4e45-ba80-6c1a1026e79f"},"vehicle_type_id":"4","last_reported":1739182258,"current_range_meters":22800,"station_id":"ce4bgi12rcd13ifvqb70","pricing_plan_id":"cebpf4jnsgd1na2vs0mg"},{"bike_id":"277b6126-0441-4bd1-a1f0-147e7c5fd945","system_id":"levelo_inurba_marseille","lat":43.26039,"lon":5.37562,"is_reserved":false,"is_disabled":false,"rental_uris":{"android":"levelo://app?vid=277b6126-0441-4bd1-a1f0-147e7c5fd945","ios":"levelo://app?vid=277b6126-0441-4bd1-a1f0-147e7c5fd945"},"vehicle_type_id":"4","last_reported":1739182258,"current_range_meters":39200,"station_id":"ce4bhgh2rcd13ifvqfa0","pricing_plan_id":"cebpf4jnsgd1na2vs0mg"},{"bike_id":"6ff781d1-2621-44d1-b299-83b571f09432","system_id":"levelo_inurba_marseille","lat":43.29558,"lon":5.42271,"is_reserved":false,"is_disabled":false,"rental_uris":{"android":"levelo://app?vid=6ff781d1-2621-44d1-b299-83b571f09432","ios":"levelo://app?vid=6ff781d1-2621-44d1-b299-83b571f09432"},"vehicle_type_id":"4","last_reported":1739182258,"current_range_meters":10800,"station_id":"ce4bhph2rcd13ifvqhdg","pricing_plan_id":"cebpf4jnsgd1na2vs0mg"},{"bike_id":"7e706de0-ad0d-4701-9c39-a6ff7b0a507a","system_id":"levelo_inurba_marseille","lat":43.29528,"lon":5.37499,"is_reserved":false,"is_disabled":true,"rental_uris":{"android":"levelo://app?vid=7e706de0-ad0d-4701-9c39-a6ff7b0a507a","ios":"levelo://app?vid=7e706de0-ad0d-4701-9c39-a6ff7b0a507a"},"vehicle_type_id":"4","last_reported":1739182258,"current_range_meters":38800,"station_id":"ce4bgkp2rcd13ifvqbmg","pricing_plan_id":"cebpf4jnsgd1na2vs0mg"},{"bike_id":"e0668dc4-b635-4db8-9d9b-275cae297a6f","system_id":"levelo_inurba_marseille","lat":43.30315,"lon":5.39217,"is_reserved":false,"is_disabled":true,"rental_uris":{"android":"levelo://app?vid=e0668dc4-b635-4db8-9d9b-275cae297a6f","ios":"levelo://app?vid=e0668dc4-b635-4db8-9d9b-275cae297a6f"},"vehicle_type_id":"4","last_reported":1739182258,"current_range_meters":36800,"station_id":"ce4bgkh2rcd13ifvqbk0","pricing_plan_id":"cebpf4jnsgd1na2vs0mg"},{"bike_id":"023da4ba-3275-433f-9c20-6aa1fe5c1824","system_id":"levelo_inurba_marseille","lat":43.24049,"lon":5.37769,"is_reserved":false,"is_disabled":false,"rental_uris":{"android":"levelo://app?vid=023da4ba-3275-433f-9c20-6aa1fe5c1824","ios":"levelo://app?vid=023da4ba-3275-433f-9c20-6aa1fe5c1824"},"vehicle_type_id":"4","last_reported":1739182258,"current_range_meters":30800,"station_id":"ce4bhnp2rcd13ifvqgvg","pricing_plan_id":"cebpf4jnsgd1na2vs0mg"},{"bike_id":"5c4011be-9b33-43c9-a6d1-d3816c99eeee","system_id":"levelo_inurba_marseille","lat":43.2468,"lon":5.38184,"is_reserved":false,"is_disabled":false,"rental_uris":{"android":"levelo://app?vid=5c4011be-9b33-43c9-a6d1-d3816c99eeee","ios":"levelo://app?vid=5c4011be-9b33-43c9-a6d1-d3816c99eeee"},"vehicle_type_id":"4","last_reported":1739182258,"current_range_meters":12400,"station_id":"ce4bhih2rcd13ifvqfr0","pricing_plan_id":"cebpf4jnsgd1na2vs0mg"},{"bike_id":"50b98656-7379-43db-8b1c-838952e7b354","system_id":"levelo_inurba_marseille","lat":43.30472,"lon":5.37903,"is_reserved":false,"is_disabled":false,"rental_uris":{"android":"levelo://app?vid=50b98656-7379-43db-8b1c-838952e7b354","ios":"levelo://app?vid=50b98656-7379-43db-8b1c-838952e7b354"},"vehicle_type_id":"4","last_reported":1739182258,"current_range_meters":7200,"station_id":"ce4bgup2rcd13ifvqcn0","pricing_plan_id":"cebpf4jnsgd1na2vs0mg"},{"bike_id":"03dc0a60-23d6-429c-a406-0c86a8f516e4","system_id":"levelo_inurba_marseille","lat":43.24186,"lon":5.39717,"is_reserved":false,"is_disabled":false,"rental_uris":{"android":"levelo://app?vid=03dc0a60-23d6-429c-a406-0c86a8f516e4","ios":"levelo://app?vid=03dc0a60-23d6-429c-a406-0c86a8f516e4"},"vehicle_type_id":"4","last_reported":1739182258,"current_range_meters":30000,"station_id":"ce4bhn12rcd13ifvqgpg","pricing_plan_id":"cebpf4jnsgd1na2vs0mg"},{"bike_id":"61d55cd9-d6f3-4faf-832d-14b48198744d","system_id":"levelo_inurba_marseille","lat":43.25114,"lon":5.4032,"is_reserved":false,"is_disabled":false,"rental_uris":{"android":"levelo://app?vid=61d55cd9-d6f3-4faf-832d-14b48198744d","ios":"levelo://app?vid=61d55cd9-d6f3-4faf-832d-14b48198744d"},"vehicle_type_id":"4","last_reported":1739182258,"current_range_meters":39200,"station_id":"ce4bhlh2rcd13ifvqgig","pricing_plan_id":"cebpf4jnsgd1na2vs0mg"},{"bike_id":"147534d8-2209-47bb-9c0c-0d4a7309e85d","system_id":"levelo_inurba_marseille","lat":43.30547,"lon":5.38444,"is_reserved":false,"is_disabled":false,"rental_uris":{"android":"levelo://app?vid=147534d8-2209-47bb-9c0c-0d4a7309e85d","ios":"levelo://app?vid=147534d8-2209-47bb-9c0c-0d4a7309e85d"},"vehicle_type_id":"4","last_reported":1739182258,"current_range_meters":38800,"station_id":"ce4bgg92rcd13ifvqb30","pricing_plan_id":"cebpf4jnsgd1na2vs0mg"},{"bike_id":"5d153fb8-c265-4a6c-ab64-1863b21e42fd","system_id":"levelo_inurba_marseille","lat":43.29313,"lon":5.37176,"is_reserved":false,"is_disabled":false,"rental_uris":{"android":"levelo://app?vid=5d153fb8-c265-4a6c-ab64-1863b21e42fd","ios":"levelo://app?vid=5d153fb8-c265-4a6c-ab64-1863b21e42fd"},"vehicle_type_id":"4","last_reported":1739182258,"current_range_meters":31200,"station_id":"ce4bgh92rcd13ifvqb40","pricing_plan_id":"cebpf4jnsgd1na2vs0mg"},{"bike_id":"37fc9ecf-d187-4780-98f8-bfafd8664be0","system_id":"levelo_inurba_marseille","lat":43.26547,"lon":5.37342,"is_reserved":false,"is_disabled":false,"rental_uris":{"android":"levelo://app?vid=37fc9ecf-d187-4780-98f8-bfafd8664be0","ios":"levelo://app?vid=37fc9ecf-d187-4780-98f8-bfafd8664be0"},"vehicle_type_id":"4","last_reported":1739182258,"current_range_meters":32400,"station_id":"ce4bhg12rcd13ifvqf70","pricing_plan_id":"cebpf4jnsgd1na2vs0mg"},{"bike_id":"80f8ad12-c95e-444f-8884-8f86ffbd3c63","system_id":"levelo_inurba_marseille","lat":43.29789,"lon":5.38118,"is_reserved":false,"is_disabled":false,"rental_uris":{"android":"levelo://app?vid=80f8ad12-c95e-444f-8884-8f86ffbd3c63","ios":"levelo://app?vid=80f8ad12-c95e-444f-8884-8f86ffbd3c63"},