{"last_updated":1756342287,"ttl":60,"version":"2.2","data":{"bikes":[{"bike_id":"7c494aa6-5cbe-490f-b90f-6193ab62c745","system_id":"levelo_inurba_marseille","lat":43.21195,"lon":5.35061,"is_reserved":false,"is_disabled":false,"rental_uris":{"android":"levelo://app?vid=7c494aa6-5cbe-490f-b90f-6193ab62c745","ios":"levelo://app?vid=7c494aa6-5cbe-490f-b90f-6193ab62c745"},"vehicle_type_id":"4","last_reported":1756342287,"current_range_meters":3200,"station_id":"st_cvj6sg6p6f1abm77japg","pricing_plan_id":"cebpf4jnsgd1na2vs0mg"},{"bike_id":"96186cc8-0561-4ae2-81ab-d0abdc6ef2d0","system_id":"levelo_inurba_marseille","lat":43.27041,"lon":5.37938,"is_reserved":false,"is_disabled":false,"rental_uris":{"android":"levelo://app?vid=96186cc8-0561-4ae2-81ab-d0abdc6ef2d0","ios":"levelo://app?vid=96186cc8-0561-4ae2-81ab-d0abdc6ef2d0"},"vehicle_type_id":"4","last_reported":1756342287,"current_range_meters":3600,"station_id":"","pricing_plan_id":"cebpf4jnsgd1na2vs0mg"},{"bike_id":"b4355a8b-6620-41c5-aaa4-2b969fb59e8f","system_id":"levelo_inurba_marseille","lat":43.26674,"lon":5.38264,"is_reserved":false,"is_disabled":true,"rental_uris":{"android":"levelo://app?vid=b4355a8b-6620-41c5-aaa4-2b969fb59e8f","ios":"levelo://app?vid=b4355a8b-6620-41c5-aaa4-2b969fb59e8f"},"vehicle_type_id":"4","last_reported":1756342287,"current_range_meters":4400,"station_id":"ce4bhg92rcd13ifvqf90","pricing_plan_id":"cebpf4jnsgd1na2vs0mg"},{"bike_id":"70698924-f07a-4421-af4c-f1094e75e7d4","system_id":"levelo_inurba_marseille","lat":43.21193,"lon":5.35072,"is_reserved":false,"is_disabled":false,"rental_uris":{"android":"levelo://app?vid=70698924-f07a-4421-af4c-f1094e75e7d4","ios":"levelo://app?vid=70698924-f07a-4421-af4c-f1094e75e7d4"},"vehicle_type_id":"4","last_reported":1756342287,"current_range_meters":4400,"station_id":"st_cvj6sg6p6f1abm77japg","pricing_plan_id":"cebpf4jnsgd1na2vs0mg"},{"bike_id":"eeb42e78-373a-42a8-ad92-d1dc5831d4c3","system_id":"levelo_inurba_marseille","lat":43.24804,"lon":5.3746,"is_reserved":false,"is_disabled":true,"rental_uris":{"android":"levelo://app?vid=eeb42e78-373a-42a8-ad92-d1dc5831d4c3","ios":"levelo://app?vid=eeb42e78-373a-42a8-ad92-d1dc5831d4c3"},"vehicle_type_id":"4","last_reported":1756342287,"current_range_meters":4800,"station_id":"ce4bhgh2rcd13ifvqfb0","pricing_plan_id":"cebpf4jnsgd1na2vs0mg"},{"bike_id":"2732b203-8d34-41ae-80bd-b4f151d77aad","system_id":"levelo_inurba_marseille","lat":43.30248,"lon":5.40535,"is_reserved":false,"is_disabled":false,"rental_uris":{"android":"levelo://app?vid=2732b203-8d34-41ae-80bd-b4f151d77aad","ios":"levelo://app?vid=2732b203-8d34-41ae-80bd-b4f151d77aad"},"vehicle_type_id":"4","last_reported":1756342287,"current_range_meters":5600,"station_id":"","pricing_plan_id":"cebpf4jnsgd1na2vs0mg"},{"bike_id":"69b4ff08-bcc7-439d-919d-ecacd6d9051a","system_id":"levelo_inurba_marseille","lat":43.28391,"lon":5.45601,"is_reserved":false,"is_disabled":false,"rental_uris":{"android":"levelo://app?vid=69b4ff08-bcc7-439d-919d-ecacd6d9051a","ios":"levelo://app?vid=69b4ff08-bcc7-439d-919d-ecacd6d9051a"},"vehicle_type_id":"4","last_reported":1756342287,"current_range_meters":5600,"station_id":"","pricing_plan_id":"cebpf4jnsgd1na2vs0mg"},{"bike_id":"70ade437-224c-4858-a942-4ebdac131747","system_id":"levelo_inurba_marseille","lat":43.28347,"lon":5.38103,"is_reserved":false,"is_disabled":false,"rental_uris":{"android":"levelo://app?vid=70ade437-224c-4858-a942-4ebdac131747","ios":"levelo://app?vid=70ade437-224c-4858-a942-4ebdac131747"},"vehicle_type_id":"4","last_reported":1756342287,"current_range_meters":6000,"station_id":"ce4bh412rcd13ifvqdr0","pricing_plan_id":"cebpf4jnsgd1na2vs0mg"},{"bike_id":"0d502687-08ef-4491-8893-8a03d8688be8","system_id":"levelo_inurba_marseille","lat":43.29628,"lon":5.36136,"is_reserved":false,"is_disabled":false,"rental_uris":{"android":"levelo://app?vid=0d502687-08ef-4491-8893-8a03d8688be8","ios":"levelo://app?vid=0d502687-08ef-4491-8893-8a03d8688be8"},"vehicle_type_id":"4","last_reported":1756342287,"current_range_meters":6000,"station_id":"","pricing_plan_id":"cebpf4jnsgd1na2vs0mg"},{"bike_id":"ffe5d08c-8c88-4dc7-872f-ea31a3a15a76","system_id":"levelo_inurba_marseille","lat":43.32541,"lon":5.41439,"is_reserved":false,"is_disabled":false,"rental_uris":{"android":"levelo://app?vid=ffe5d08c-8c88-4dc7-872f-ea31a3a15a76","ios":"levelo://app?vid=ffe5d08c-8c88-4dc7-872f-ea31a3a15a76"},"vehicle_type_id":"4","last_reported":1756342287,"current_range_meters":6000,"station_id":"ce4bhq12rcd13ifvqhhg","pricing_plan_id":"cebpf4jnsgd1na2vs0mg"},{"bike_id":"d0929797-eccc-45d1-a5f1-aea03c095a59","system_id":"levelo_inurba_marseille","lat":43.27999,"lon":5.41653,"is_reserved":false,"is_disabled":true,"rental_uris":{"android":"levelo://app?vid=d0929797-eccc-45d1-a5f1-aea03c095a59","ios":"levelo://app?vid=d0929797-eccc-45d1-a5f1-aea03c095a59"},"vehicle_type_id":"4","last_reported":1756342287,"current_range_meters":6400,"station_id":"ce4bho12rcd13ifvqh1g","pricing_plan_id":"cebpf4jnsgd1na2vs0mg"},{"bike_id":"19453317-7841-4e65-89da-f7108166fcfe","system_id":"levelo_inurba_marseille","lat":43.29281,"lon":5.40126,"is_reserved":false,"is_disabled":false,"rental_uris":{"android":"levelo://app?vid=19453317-7841-4e65-89da-f7108166fcfe","ios":"levelo://app?vid=19453317-7841-4e65-89da-f7108166fcfe"},"vehicle_type_id":"4","last_reported":1756342287,"current_range_meters":6800,"station_id":"ce4bh312rcd13ifvqdk0","pricing_plan_id":"cebpf4jnsgd1na2vs0mg"},{"bike_id":"b807b0f0-eb88-4fef-8c74-5fea1ae11b36","system_id":"levelo_inurba_marseille","lat":43.2796,"lon":5.38707,"is_reserved":false,"is_disabled":false,"rental_uris":{"android":"levelo://app?vid=b807b0f0-eb88-4fef-8c74-5fea1ae11b36","ios":"levelo://app?vid=b807b0f0-eb88-4fef-8c74-5fea1ae11b36"},"vehicle_type_id":"4","last_reported":1756342287,"current_range_meters":6800,"station_id":"ce4bhg12rcd13ifvqf80","pricing_plan_id":"cebpf4jnsgd1na2vs0mg"},{"bike_id":"e1cc485f-c6f0-41fe-b8d8-b5e94a231de5","system_id":"levelo_inurba_marseille","lat":43.30791,"lon":5.37706,"is_reserved":false,"is_disabled":false,"rental_uris":{"android":"levelo://app?vid=e1cc485f-c6f0-41fe-b8d8-b5e94a231de5","ios":"levelo://app?vid=e1cc485f-c6f0-41fe-b8d8-b5e94a231de5"},"vehicle_type_id":"4","last_reported":1756342287,"current_range_meters":6800,"station_id":"ce4bgv92rcd13ifvqcq0","pricing_plan_id":"cebpf4jnsgd1na2vs0mg"},{"bike_id":"17cb2fe0-534a-4cc2-9379-c36300902e12","system_id":"levelo_inurba_marseille","lat":43.29039,"lon":5.39949,"is_reserved":false,"is_disabled":false,"rental_uris":{"android":"levelo://app?vid=17cb2fe0-534a-4cc2-9379-c36300902e12","ios":"levelo://app?vid=17cb2fe0-534a-4cc2-9379-c36300902e12"},"vehicle_type_id":"4","last_reported":1756342287,"current_range_meters":6800,"station_id":"ce4bh392rcd13ifvqdm0","pricing_plan_id":"cebpf4jnsgd1na2vs0mg"},{"bike_id":"baa7e455-939e-4a79-8a56-2f415ad47346","system_id":"levelo_inurba_marseille","lat":43.30205,"lon":5.39468,"is_reserved":false,"is_disabled":false,"rental_uris":{"android":"levelo://app?vid=baa7e455-939e-4a79-8a56-2f415ad47346","ios":"levelo://app?vid=baa7e455-939e-4a79-8a56-2f415ad47346"},"vehicle_type_id":"4","last_reported":1756342287,"current_range_meters":6800,"station_id":"ce4bh0p2rcd13ifvqd70","pricing_plan_id":"cebpf4jnsgd1na2vs0mg"},{"bike_id":"51842e17-ef10-4624-a23e-c8a182427991","system_id":"levelo_inurba_marseille","lat":43.31644,"lon":5.38179,"is_reserved":false,"is_disabled":false,"rental_uris":{"android":"levelo://app?vid=51842e17-ef10-4624-a23e-c8a182427991","ios":"levelo://app?vid=51842e17-ef10-4624-a23e-c8a182427991"},"vehicle_type_id":"4","last_reported":1756342287,"current_range_meters":6800,"station_id":"","pricing_plan_id":"cebpf4jnsgd1na2vs0mg"},{"bike_id":"69a01144-4cb0-4f43-b8a7-d8bba1210d75","system_id":"levelo_inurba_marseille","lat":43.31588,"lon":5.37424,"is_reserved":false,"is_disabled":false,"rental_uris":{"android":"levelo://app?vid=69a01144-4cb0-4f43-b8a7-d8bba1210d75","ios":"levelo://app?vid=69a01144-4cb0-4f43-b8a7-d8bba1210d75"},"vehicle_type_id":"4","last_reported":1756342287,"current_range_meters":6800,"station_id":"","pricing_plan_id":"cebpf4jnsgd1na2vs0mg"},{"bike_id":"239c3a58-272b-4f2f-886f-e847e601674d","system_id":"levelo_inurba_marseille","lat":43.30421,"lon":5.39747,"is_reserved":false,"is_disabled":false,"rental_uris":{"android":"levelo://app?vid=239c3a58-272b-4f2f-886f-e847e601674d","ios":"levelo://app?vid=239c3a58-272b-4f2f-886f-e847e601674d"},"vehicle_type_id":"4","last_reported":1756342287,"current_range_meters":7200,"station_id":"ce4bh092rcd13ifvqd20","pricing_plan_id":"cebpf4jnsgd1na2vs0mg"},{"bike_id":"49f60e81-aa7a-4e46-bbc1-fc06ed848e16","system_id":"levelo_inurba_marseille","lat":43.30593,"lon":5.3935,"is_reserved":false,"is_disabled":false,"rental_uris":{"android":"levelo://app?vid=49f60e81-aa7a-4e46-bbc1-fc06ed848e16","ios":"levelo://app?vid=49f60e81-aa7a-4e46-bbc1-fc06ed848e16"},"vehicle_type_id":"4","last_reported":1756342287,"current_range_meters":7200,"station_id":"ce4bh0p2rcd13ifvqd80","pricing_plan_id":"cebpf4jnsgd1na2vs0mg"},{"bike_id":"24df2c59-c2ae-4cf6-8d73-b821e9ca9612","system_id":"levelo_inurba_marseille","lat":43.27967,"lon":5.39963,"is_reserved":false,"is_disabled":true,"rental_uris":{"android":"levelo://app?vid=24df2c59-c2ae-4cf6-8d73-b821e9ca9612","ios":"levelo://app?vid=24df2c59-c2ae-4cf6-8d73-b821e9ca9612"},"vehicle_type_id":"4","last_reported":1756342287,"current_range_meters":7200,"station_id":"ce4bho92rcd13ifvqh4g","pricing_plan_id":"cebpf4jnsgd1na2vs0mg"},{"bike_id":"899ef22f-86b1-41e7-8c70-f9240174a6d4","system_id":"levelo_inurba_marseille","lat":43.28682,"lon":5.3864,"is_reserved":false,"is_disabled":false,"rental_uris":{"android":"levelo://app?vid=899ef22f-86b1-41e7-8c70-f9240174a6d4","ios":"levelo://app?vid=899ef22f-86b1-41e7-8c70-f9240174a6d4"},"vehicle_type_id":"4","last_reported":1756342287,"current_range_meters":7200,"station_id":"ce4bh492rcd13ifvqdug","pricing_plan_id":"cebpf4jnsgd1na2vs0mg"},{"bike_id":"7e8cb43d-b846-46bd-bc33-055dd7a36655","system_id":"levelo_inurba_marseille","lat":43.307855,"lon":5.376468,"is_reserved":false,"is_disabled":false,"rental_uris":{"android":"levelo://app?vid=7e8cb43d-b846-46bd-bc33-055dd7a36655","ios":"levelo://app?vid=7e8cb43d-b846-46bd-bc33-055dd7a36655"},"vehicle_type_id":"4","last_reported":1756342287,"current_range_meters":7200,"station_id":"ce4bgv92rcd13ifvqcq0","pricing_plan_id":"cebpf4jnsgd1na2vs0mg"},{"bike_id":"38da5438-56ae-4ec3-8d94-c4afa653ea74","system_id":"levelo_inurba_marseille","lat":43.30426,"lon":5.39738,"is_reserved":false,"is_disabled":false,"rental_uris":{"android":"levelo://app?vid=38da5438-56ae-4ec3-8d94-c4afa653ea74","ios":"levelo://app?vid=38da5438-56ae-4ec3-8d94-c4afa653ea74"},"vehicle_type_id":"4","last_reported":1756342287,"current_range_meters":8000,"station_id":"ce4bh092rcd13ifvqd20","pricing_plan_id":"cebpf4jnsgd1na2vs0mg"},{"bike_id":"8ff3ebc3-b8cc-483f-9232-7e0c6220b0be","system_id":"levelo_inurba_marseille","lat":43.29957,"lon":5.41322,"is_reserved":false,"is_disabled":true,"rental_uris":{"android":"levelo://app?vid=8ff3ebc3-b8cc-483f-9232-7e0c6220b0be","ios":"levelo://app?vid=8ff3ebc3-b8cc-483f-9232-7e0c6220b0be"},"vehicle_type_id":"4","last_reported":1756342287,"current_range_meters":8000,"station_id":"ce4bhp12rcd13ifvqh9g","pricing_plan_id":"cebpf4jnsgd1na2vs0mg"},{"bike_id":"e9099ed8-f39c-4735-a545-38ff6ccc85d8","system_id":"levelo_inurba_marseille","lat":43.32237,"lon":5.38539,"is_reserved":false,"is_disabled":false,"rental_uris":{"android":"levelo://app?vid=e9099ed8-f39c-4735-a545-38ff6ccc85d8","ios":"levelo://app?vid=e9099ed8-f39c-4735-a545-38ff6ccc85d8"},"vehicle_type_id":"4","last_reported":1756342287,"current_range_meters":8000,"station_id":"","pricing_plan_id":"cebpf4jnsgd1na2vs0mg"},{"bike_id":"0f2017f4-e5c1-46a2-a7d8-e957ce265a72","system_id":"levelo_inurba_marseille","lat":43.33771,"lon":5.37469,"is_reserved":false,"is_disabled":false,"rental_uris":{"android":"levelo://app?vid=0f2017f4-e5c1-46a2-a7d8-e957ce265a72","ios":"levelo://app?vid=0f2017f4-e5c1-46a2-a7d8-e957ce265a72"},"vehicle_type_id":"4","last_reported":1756342287,"current_range_meters":8000,"station_id":"","pricing_plan_id":"cebpf4jnsgd1na2vs0mg"},{"bike_id":"76e24de3-aa6c-41b2-abc0-ed38b8c337f5","system_id":"levelo_inurba_marseille","lat":43.27951,"lon":5.41027,"is_reserved":false,"is_disabled":false,"rental_uris":{"android":"levelo://app?vid=76e24de3-aa6c-41b2-abc0-ed38b8c337f5","ios":"levelo://app?vid=76e24de3-aa6c-41b2-abc0-ed38b8c337f5"},"vehicle_type_id":"4","last_reported":1756342287,"current_range_meters":8000,"station_id":"ce4bhnp2rcd13ifvqh0g","pricing_plan_id":"cebpf4jnsgd1na2vs0mg"},{"bike_id":"a6ef8657-5b8a-423b-993f-c3df43dec0a0","system_id":"levelo_inurba_marseille","lat":43.326998,"lon":5.392208,"is_reserved":false,"is_disabled":false,"rental_uris":{"android":"levelo://app?vid=a6ef8657-5b8a-423b-993f-c3df43dec0a0","ios":"levelo://app?vid=a6ef8657-5b8a-423b-993f-c3df43dec0a0"},"vehicle_type_id":"4","last_reported":1756342287,"current_range_meters":8000,"station_id":"","pricing_plan_id":"cebpf4jnsgd1na2vs0mg"},{"bike_id":"963c59ff-4f1d-4904-bc58-57a8f8a1320b","system_id":"levelo_inurba_marseille","lat":43.27071,"lon":5.422822,"is_reserved":false,"is_disabled":false,"rental_uris":{"android":"levelo://app?vid=963c59ff-4f1d-4904-bc58-57a8f8a1320b","ios":"levelo://app?vid=963c59ff-4f1d-4904-bc58-57a8f8a1320b"},"vehicle_type_id":"4","last_reported":1756342287,"current_range_meters":8000,"station_id":"ce4bhk92rcd13ifvqgb0","pricing_plan_id":"cebpf4jnsgd1na2vs0mg"},{"bike_id":"ff202b66-e4c7-412a-a886-fea6a2f01062","system_id":"levelo_inurba_marseille","lat":43.28604,"lon":5.35103,"is_reserved":false,"is_disabled":false,"rental_uris":{"android":"levelo://app?vid=ff202b66-e4c7-412a-a886-fea6a2f01062","ios":"levelo://app?vid=ff202b66-e4c7-412a-a886-fea6a2f01062"},"vehicle_type_id":"4","last_reported":1756342287,"current_range_meters":8000,"station_id":"ce4bhch2rcd13ifvqeug","pricing_plan_id":"cebpf4jnsgd1na2vs0mg"},{"bike_id":"1d7023ef-959e-48df-b075-0a4bd90cc9ae","system_id":"levelo_inurba_marseille","lat":43.27365,"lon":5.36253,"is_reserved":false,"is_disabled":true,"rental_uris":{"android":"levelo://app?vid=1d7023ef-959e-48df-b075-0a4bd90cc9ae","ios":"levelo://app?vid=1d7023ef-959e-48df-b075-0a4bd90cc9ae"},"vehicle_type_id":"4","last_reported":1756342287,"current_range_meters":8400,"station_id":"ce4bhbh2rcd13ifvqeo0","pricing_plan_id":"cebpf4jnsgd1na2vs0mg"},{"bike_id":"23038a23-8213-4d5b-a784-616373105311","system_id":"levelo_inurba_marseille","lat":43.29904,"lon":5.43654,"is_reserved":false,"is_disabled":false,"rental_uris":{"android":"levelo://app?vid=23038a23-8213-4d5b-a784-616373105311","ios":"levelo://app?vid=23038a23-8213-4d5b-a784-616373105311"},"vehicle_type_id":"4","last_reported":1756342287,"current_range_meters":8400,"station_id":"ce4bhpp2rcd13ifvqhfg","pricing_plan_id":"cebpf4jnsgd1na2vs0mg"},{"bike_id":"2d0e77b8-c9d8-4e57-b6d3-0a222f73256a","system_id":"levelo_inurba_marseille","lat":43.26195,"lon":5.3744,"is_reserved":false,"is_disabled":true,"rental_uris":{"android":"levelo://app?vid=2d0e77b8-c9d8-4e57-b6d3-0a222f73256a","ios":"levelo://app?vid=2d0e77b8-c9d8-4e57-b6d3-0a222f73256a"},"vehicle_type_id":"4","last_reported":1756342287,"current_range_meters":8800,"station_id":"ce4bhgp2rcd13ifvqfc0","pricing_plan_id":"cebpf4jnsgd1na2vs0mg"},{"bike_id":"1546df9e-d1cb-482b-8d1f-d121540fd829","system_id":"levelo_inurba_marseille","lat":43.21203,"lon":5.35056,"is_reserved":false,"is_disabled":false,"rental_uris":{"android":"levelo://app?vid=1546df9e-d1cb-482b-8d1f-d121540fd829","ios":"levelo://app?vid=1546df9e-d1cb-482b-8d1f-d121540fd829"},"vehicle_type_id":"4","last_reported":1756342287,"current_range_meters":8800,"station_id":"st_cvj6sg6p6f1abm77japg","pricing_plan_id":"cebpf4jnsgd1na2vs0mg"},{"bike_id":"29fc8535-fcb9-42f5-8620-052867ccd337","system_id":"levelo_inurba_marseille","lat":43.26028,"lon":5.37549,"is_reserved":false,"is_disabled":true,"rental_uris":{"android":"levelo://app?vid=29fc8535-fcb9-42f5-8620-052867ccd337","ios":"levelo://app?vid=29fc8535-fcb9-42f5-8620-052867ccd337"},"vehicle_type_id":"4","last_reported":1756342287,"current_range_meters":8800,"station_id":"ce4bhgh2rcd13ifvqfa0","pricing_plan_id":"cebpf4jnsgd1na2vs0mg"},{"bike_id":"5bce688b-fc81-4596-8277-b66f54be87c1","system_id":"levelo_inurba_marseille","lat":43.33768,"lon":5.37438,"is_reserved":false,"is_disabled":false,"rental_uris":{"android":"levelo://app?vid=5bce688b-fc81-4596-8277-b66f54be87c1","ios":"levelo://app?vid=5bce688b-fc81-4596-8277-b66f54be87c1"},"vehicle_type_id":"4","last_reported":1756342287,"current_range_meters":9200,"station_id":"","pricing_plan_id":"cebpf4jnsgd1na2vs0mg"},{"bike_id":"e337d582-364a-4312-af91-67d0c81052aa","system_id":"levelo_inurba_marseille","lat":43.325439,"lon":5.364407,"is_reserved":false,"is_disabled":false,"rental_uris":{"android":"levelo://app?vid=e337d582-364a-4312-af91-67d0c81052aa","ios":"levelo://app?vid=e337d582-364a-4312-af91-67d0c81052aa"},"vehicle_type_id":"4","last_reported":1756342287,"current_range_meters":9200,"station_id":"","pricing_plan_id":"cebpf4jnsgd1na2vs0mg"},{"bike_id":"cceb5e99-5104-49c8-8506-8e6a58d67871","system_id":"levelo_inurba_marseille","lat":43.24183,"lon":5.39692,"is_reserved":false,"is_disabled":true,"rental_uris":{"android":"levelo://app?vid=cceb5e99-5104-49c8-8506-8e6a58d67871","ios":"levelo://app?vid=cceb5e99-5104-49c8-8506-8e6a58d67871"},"vehicle_type_id":"4","last_reported":1756342287,"current_range_meters":9200,"station_id":"ce4bhn12rcd13ifvqgpg","pricing_plan_id":"cebpf4jnsgd1na2vs0mg"},{"bike_id":"92911782-3023-4e5d-ad4a-0723850ad8c1","system_id":"levelo_inurba_marseille","lat":43.29284,"lon":5.401256,"is_reserved":false,"is_disabled":false,"rental_uris":{"android":"levelo://app?vid=92911782-3023-4e5d-ad4a-0723850ad8c1","ios":"levelo://app?vid=92911782-3023-4e5d-ad4a-0723850ad8c1"},"vehicle_type_id":"4","last_reported":1756342287,"current_range_meters":9600,"station_id":"ce4bh312rcd13ifvqdk0","pricing_plan_id":"cebpf4jnsgd1na2vs0mg"},{"bike_id":"a7c879e6-fbdc-41cc-b936-a235aa17adb5","system_id":"levelo_inurba_marseille","lat":43.33107,"lon":5.38171,"is_reserved":false,"is_disabled":false,"rental_uris":{"android":"levelo://app?vid=a7c879e6-fbdc-41cc-b936-a235aa17adb5","ios":"levelo://app?vid=a7c879e6-fbdc-41cc-b936-a235aa17adb5"},"vehicle_type_id":"4","last_reported":1756342287,"current_range_meters":9600,"station_id":"","pricing_plan_id":"cebpf4jnsgd1na2vs0mg"},{"bike_id":"d2d39256-6788-442b-b27b-5120dd8b53ef","system_id":"levelo_inurba_marseille","lat":43.28948,"lon":5.36623,"is_reserved":false,"is_disabled":false,"rental_uris":{"android":"levelo://app?vid=d2d39256-6788-442b-b27b-5120dd8b53ef","ios":"levelo://app?vid=d2d39256-6788-442b-b27b-5120dd8b53ef"},"vehicle_type_id":"4","last_reported":1756342287,"current_range_meters":9600,"station_id":"ce4bhap2rcd13ifvqek0","pricing_plan_id":"cebpf4jnsgd1na2vs0mg"},{"bike_id":"0c14924a-fb00-4c15-a68d-96fb8735935b","system_id":"levelo_inurba_marseille","lat":43.31356,"lon":5.38494,"is_reserved":false,"is_disabled":false,"rental_uris":{"android":"levelo://app?vid=0c14924a-fb00-4c15-a68d-96fb8735935b","ios":"levelo://app?vid=0c14924a-fb00-4c15-a68d-96fb8735935b"},"vehicle_type_id":"4","last_reported":1756342287,"current_range_meters":9600,"station_id":"ce4bgt92rcd13ifvqcf0","pricing_plan_id":"cebpf4jnsgd1na2vs0mg"},{"bike_id":"98b5d953-937e-48a2-a5e5-1c6a780d56ce","system_id":"levelo_inurba_marseille","lat":43.281,"lon":5.37819,"is_reserved":false,"is_disabled":false,"rental_uris":{"android":"levelo://app?vid=98b5d953-937e-48a2-a5e5-1c6a780d56ce","ios":"levelo://app?vid=98b5d953-937e-48a2-a5e5-1c6a780d56ce"},"vehicle_type_id":"4","last_reported":1756342287,"current_range_meters":10000,"station_id":"ce4bha12rcd13ifvqee0","pricing_plan_id":"cebpf4jnsgd1na2vs0mg"},{"bike_id":"e5eabf25-4e1c-476e-b130-9f83cdcfc80c","system_id":"levelo_inurba_marseille","lat":43.29787,"lon":5.41729,"is_reserved":false,"is_disabled":false,"rental_uris":{"android":"levelo://app?vid=e5eabf25-4e1c-476e-b130-9f83cdcfc80c","ios":"levelo://app?vid=e5eabf25-4e1c-476e-b130-9f83cdcfc80c"},"vehicle_type_id":"4","last_reported":1756342287,"current_range_meters":10000,"station_id":"","pricing_plan_id":"cebpf4jnsgd1na2vs0mg"},{"bike_id":"a9b3207f-b5e1-41c5-9937-fb74245a69da","system_id":"levelo_inurba_marseille","lat":43.2762,"lon":5.36105,"is_reserved":false,"is_disabled":false,"rental_uris":{"android":"levelo://app?vid=a9b3207f-b5e1-41c5-9937-fb74245a69da","ios":"levelo://app?vid=a9b3207f-b5e1-41c5-9937-fb74245a69da"},"vehicle_type_id":"4","last_reported":1756342287,"current_range_meters":10000,"station_id":"ce4bgj92rcd13ifvqbe0","pricing_plan_id":"cebpf4jnsgd1na2vs0mg"},{"bike_id":"07a20f3a-56e5-4ad8-9408-6e989d6fc4b4","system_id":"levelo_inurba_marseille","lat":43.28433,"lon":5.39192,"is_reserved":false,"is_disabled":false,"rental_uris":{"android":"levelo://app?vid=07a20f3a-56e5-4ad8-9408-6e989d6fc4b4","ios":"levelo://app?vid=07a20f3a-56e5-4ad8-9408-6e989d6fc4b4"},"vehicle_type_id":"4","last_reported":1756342287,"current_range_meters":10000,"station_id":"ce4bhoh2rcd13ifvqh5g","pricing_plan_id":"cebpf4jnsgd1na2vs0mg"},{"bike_id":"2b2ebf1d-a923-4959-8b1a-e5f303b7fe84","system_id":"levelo_inurba_marseille","lat":43.292819,"lon":5.401195,"is_reserved":false,"is_disabled":false,"rental_uris":{"android":"levelo://app?vid=2b2ebf1d-a923-4959-8b1a-e5f303b7fe84","ios":"levelo://app?vid=2b2ebf1d-a923-4959-8b1a-e5f303b7fe84"},"vehicle_type_id":"4","last_reported":1756342287,"current_range_meters":10000,"station_id":"ce4bh312rcd13ifvqdk0","pricing_plan_id":"cebpf4jnsgd1na2vs0mg"},{"bike_id":"40359052-9f3d-44f8-a43b-f486217c4075","system_id":"levelo_inurba_marseille","lat":43.28118,"lon":5.37845,"is_reserved":false,"is_disabled":false,"rental_uris":{"android":"levelo://app?vid=40359052-9f3d-44f8-a43b-f486217c4075","ios":"levelo://app?vid=40359052-9f3d-44f8-a43b-f486217c4075"},"vehicle_type_id":"4","last_reported":1756342287,"current_range_meters":10800,"station_id":"ce4bha12rcd13ifvqee0","pricing_plan_id":"cebpf4jnsgd1na2vs0mg"},{"bike_id":"ac69e2a9-f7d1-4d59-9a36-9b9c90b1d1ca","system_id":"levelo_inurba_marseille","lat":43.25866,"lon":5.39885,"is_reserved":false,"is_disabled":false,"rental_uris":{"android":"levelo://app?vid=ac69e2a9-f7d1-4d59-9a36-9b9c90b1d1ca","ios":"levelo://app?vid=ac69e2a9-f7d1-4d59-9a36-9b9c90b1d1ca"},"vehicle_type_id":"4","last_reported":1756342287,"current_range_meters":10800,"station_id":"ce4bhl92rcd13ifvqghg","pricing_plan_id":"cebpf4jnsgd1na2vs0mg"},{"bike_id":"aa375831-c987-4042-97d7-4bc96d6caa6a","system_id":"levelo_inurba_marseille","lat":43.2636,"lon":5.37437,"is_reserved":false,"is_disabled":true,"rental_uris":{"android":"levelo://app?vid=aa375831-c987-4042-97d7-4bc96d6caa6a","ios":"levelo://app?vid=aa375831-c987-4042-97d7-4bc96d6caa6a"},"vehicle_type_id":"4","last_reported":1756342287,"current_range_meters":10800,"station_id":"","pricing_plan_id":"cebpf4jnsgd1na2vs0mg"},{"bike_id":"e74c4e4d-e91f-4456-978b-86c9d3763c2b","system_id":"levelo_inurba_marseille","lat":43.30339,"lon":5.40433,"is_reserved":false,"is_disabled":false,"rental_uris":{"android":"levelo://app?vid=e74c4e4d-e91f-4456-978b-86c9d3763c2b","ios":"levelo://app?vid=e74c4e4d-e91f-4456-978b-86c9d3763c2b"},"vehicle_type_id":"4","last_reported":1756342287,"current_range_meters":10800,"station_id":"ce4bh012rcd13ifvqd10","pricing_plan_id":"cebpf4jnsgd1na2vs0mg"},{"bike_id":"cf3b540f-229a-4c49-afcd-5ac0eeae1279","system_id":"levelo_inurba_marseille","lat":43.23174,"lon":5.39981,"is_reserved":false,"is_disabled":false,"rental_uris":{"android":"levelo://app?vid=cf3b540f-229a-4c49-afcd-5ac0eeae1279","ios":"levelo://app?vid=cf3b540f-229a-4c49-afcd-5ac0eeae1279"},"vehicle_type_id":"4","last_reported":1756342287,"current_range_meters":10800,"station_id":"ce4bhn12rcd13ifvqgqg","pricing_plan_id":"cebpf4jnsgd1na2vs0mg"},{"bike_id":"27af4e6a-1506-4aab-a658-b472a5974baf","system_id":"levelo_inurba_marseille","lat":43.24951,"lon":5.40486,"is_reserved":false,"is_disabled":false,"rental_uris":{"android":"levelo://app?vid=27af4e6a-1506-4aab-a658-b472a5974baf","ios":"levelo://app?vid=27af4e6a-1506-4aab-a658-b472a5974baf"},"vehicle_type_id":"4","last_reported":1756342287,"current_range_meters":10800,"station_id":"st_d2ngiaodas8pm72gd1h0","pricing_plan_id":"cebpf4jnsgd1na2vs0mg"},{"bike_id":"0e4f6931-1d2d-444d-8fcd-29db3c13d97b","system_id":"levelo_inurba_marseille","lat":43.28352,"lon":5.38083,"is_reserved":false,"is_disabled":false,"rental_uris":{"android":"levelo://app?vid=0e4f6931-1d2d-444d-8fcd-29db3c13d97b","ios":"levelo://app?vid=0e4f6931-1d2d-444d-8fcd-29db3c13d97b"},"vehicle_type_id":"4","last_reported":1756342287,"current_range_meters":10800,"station_id":"ce4bh412rcd13ifvqdr0","pricing_plan_id":"cebpf4jnsgd1na2vs0mg"},{"bike_id":"f00e95ff-1e3c-4f58-8843-ca20b359ab40","system_id":"levelo_inurba_marseille","lat":43.25112,"lon":5.40315,"is_reserved":false,"is_disabled":false,"rental_uris":{"android":"levelo://app?vid=f00e95ff-1e3c-4f58-8843-ca20b359ab40","ios":"levelo://app?vid=f00e95ff-1e3c-4f58-8843-ca20b359ab40"},"vehicle_type_id":"4","last_reported":1756342287,"current_range_meters":10800,"station_id":"ce4bhlh2rcd13ifvqgig","pricing_plan_id":"cebpf4jnsgd1na2vs0mg"},{"bike_id":"9308f021-ec84-4fe8-8c25-145b6405b7e0","system_id":"levelo_inurba_marseille","lat":43.3056,"lon":5.36696,"is_reserved":false,"is_disabled":true,"rental_uris":{"android":"levelo://app?vid=9308f021-ec84-4fe8-8c25-145b6405b7e0","ios":"levelo://app?vid=9308f021-ec84-4fe8-8c25-145b6405b7e0"},"vehicle_type_id":"4","last_reported":1756342287,"current_range_meters":10800,"station_id":"ce4bgrp2rcd13ifvqc9g","pricing_plan_id":"cebpf4jnsgd1na2vs0mg"},{"bike_id":"452c64c1-c18e-429f-ac02-5f3cc7af3941","system_id":"levelo_inurba_marseille","lat":43.21764,"lon":5.34616,"is_reserved":false,"is_disabled":false,"rental_uris":{"android":"levelo://app?vid=452c64c1-c18e-429f-ac02-5f3cc7af3941","ios":"levelo://app?vid=452c64c1-c18e-429f-ac02-5f3cc7af3941"},"vehicle_type_id":"4","last_reported":1756342287,"current_range_meters":10800,"station_id":"st_cvj6r9ubvosntc0bgbag","pricing_plan_id":"cebpf4jnsgd1na2vs0mg"},{"bike_id":"c585dd86-e6af-4090-bba4-a9ee7f425450","system_id":"levelo_inurba_marseille","lat":43.283847,"lon":5.386365,"is_reserved":false,"is_disabled":false,"rental_uris":{"android":"levelo://app?vid=c585dd86-e6af-4090-bba4-a9ee7f425450","ios":"levelo://app?vid=c585dd86-e6af-4090-bba4-a9ee7f425450"},"vehicle_type_id":"4","last_reported":1756342287,"current_range_meters":11200,"station_id":"ce4bh492rcd13ifvqdvg","pricing_plan_id":"cebpf4jnsgd1na2vs0mg"},{"bike_id":"e3283460-db9a-449a-9f19-5c1f9640d7bd","system_id":"levelo_inurba_marseille","lat":43.298089,"lon":5.381118,"is_reserved":false,"is_disabled":false,"rental_uris":{"android":"levelo://app?vid=e3283460-db9a-449a-9f19-5c1f9640d7bd","ios":"levelo://app?vid=e3283460-db9a-449a-9f19-5c1f9640d7bd"},"vehicle_type_id":"4","last_reported":1756342287,"current_range_meters":11200,"station_id":"ce4bgip2rcd13ifvqbb0","pricing_plan_id":"cebpf4jnsgd1na2vs0mg"},{"bike_id":"04b7a9f3-b443-44fd-b605-c1e0083e2b14","system_id":"levelo_inurba_marseille","lat":43.28078,"lon":5.39625,"is_reserved":false,"is_disabled":false,"rental_uris":{"android":"levelo://app?vid=04b7a9f3-b443-44fd-b605-c1e0083e2b14","ios":"levelo://app?vid=04b7a9f3-b443-44fd-b605-c1e0083e2b14"},"vehicle_type_id":"4","last_reported":1756342287,"current_range_meters":11600,"station_id":"ce4bho12rcd13ifvqh2g","pricing_plan_id":"cebpf4jnsgd1na2vs0mg"},{"bike_id":"4ecd415b-a9da-4bbe-a69e-f6401b37a3d4","system_id":"levelo_inurba_marseille","lat":43.301541,"lon":5.39882,"is_reserved":false,"is_disabled":false,"rental_uris":{"android":"levelo://app?vid=4ecd415b-a9da-4bbe-a69e-f6401b37a3d4","ios":"levelo://app?vid=4ecd415b-a9da-4bbe-a69e-f6401b37a3d4"},"vehicle_type_id":"4","last_reported":1756342287,"current_range_meters":11600,"station_id":"ce4bh0h2rcd13ifvqd40","pricing_plan_id":"cebpf4jnsgd1na2vs0mg"},{"bike_id":"6bfbf7b1-a4a1-4287-abfb-a1fa867bee3a","system_id":"levelo_inurba_marseille","lat":43.23058,"lon":5.35499,"is_reserved":false,"is_disabled":false,"rental_uris":{"android":"levelo://app?vid=6bfbf7b1-a4a1-4287-abfb-a1fa867bee3a","ios":"levelo://app?vid=6bfbf7b1-a4a1-4287-abfb-a1fa867bee3a"},"vehicle_type_id":"4","last_reported":1756342287,"current_range_meters":11600,"station_id":"cpo3342slgdg3j2ifvpg","pricing_plan_id":"cebpf4jnsgd1na2vs0mg"},{"bike_id":"758925e6-bd9a-4169-81c0-f7af7a29a755","system_id":"levelo_inurba_marseille","lat":43.26046,"lon":5.37516,"is_reserved":false,"is_disabled":true,"rental_uris":{"android":"levelo://app?vid=758925e6-bd9a-4169-81c0-f7af7a29a755","ios":"levelo://app?vid=758925e6-bd9a-4169-81c0-f7af7a29a755"},"vehicle_type_id":"4","last_reported":1756342287,"current_range_meters":11600,"station_id":"ce4bhgh2rcd13ifvqfa0","pricing_plan_id":"cebpf4jnsgd1na2vs0mg"},{"bike_id":"aa2058b8-1184-4978-b0a6-ba7a562980b6","system_id":"levelo_inurba_marseille","lat":43.28934,"lon":5.36647,"is_reserved":false,"is_disabled":false,"rental_uris":{"android":"levelo://app?vid=aa2058b8-1184-4978-b0a6-ba7a562980b6","ios":"levelo://app?vid=aa2058b8-1184-4978-b0a6-ba7a562980b6"},"vehicle_type_id":"4","last_reported":1756342287,"current_range_meters":11600,"station_id":"ce4bhap2rcd13ifvqek0","pricing_plan_id":"cebpf4jnsgd1na2vs0mg"},{"bike_id":"e62adc39-0802-4ba8-addd-7e20a90f00f1","system_id":"levelo_inurba_marseille","lat":43.25726,"lon":5.41108,"is_reserved":false,"is_disabled":false,"rental_uris":{"android":"levelo://app?vid=e62adc39-0802-4ba8-addd-7e20a90f00f1","ios":"levelo://app?vid=e62adc39-0802-4ba8-addd-7e20a90f00f1"},"vehicle_type_id":"4","last_reported":1756342287,"current_range_meters":11600,"station_id":"ce4bhkp2rcd13ifvqgd0","pricing_plan_id":"cebpf4jnsgd1na2vs0mg"},{"bike_id":"6ce9e683-0307-460e-9d0b-443736d8d56c","system_id":"levelo_inurba_marseille","lat":43.27979,"lon":5.3872,"is_reserved":false,"is_disabled":false,"rental_uris":{"android":"levelo://app?vid=6ce9e683-0307-460e-9d0b-443736d8d56c","ios":"levelo://app?vid=6ce9e683-0307-460e-9d0b-443736d8d56c"},"vehicle_type_id":"4","last_reported":1756342287,"current_range_meters":11600,"station_id":"ce4bhg12rcd13ifvqf80","pricing_plan_id":"cebpf4jnsgd1na2vs0mg"},{"bike_id":"5271246c-7822-4ee6-a869-98e68af49de0","system_id":"levelo_inurba_marseille","lat":43.33603,"lon":5.41022,"is_reserved":false,"is_disabled":false,"rental_uris":{"android":"levelo://app?vid=5271246c-7822-4ee6-a869-98e68af49de0","ios":"levelo://app?vid=5271246c-7822-4ee6-a869-98e68af49de0"},"vehicle_type_id":"4","last_reported":1756342287,"current_range_meters":12000,"station_id":"ce4bhqh2rcd13ifvqhmg","pricing_plan_id":"cebpf4jnsgd1na2vs0mg"},{"bike_id":"10b9bb1d-4b1c-4f5c-bf78-a659488e4700","system_id":"levelo_inurba_marseille","lat":43.26278,"lon":5.39899,"is_reserved":false,"is_disabled":false,"rental_uris":{"android":"levelo://app?vid=10b9bb1d-4b1c-4f5c-bf78-a659488e4700","ios":"levelo://app?vid=10b9bb1d-4b1c-4f5c-bf78-a659488e4700"},"vehicle_type_id":"4","last_reported":1756342287,"current_range_meters":12000,"station_id":"","pricing_plan_id":"cebpf4jnsgd1na2vs0mg"},{"bike_id":"07f3c348-251f-475b-bdcc-b91dd94163be","system_id":"levelo_inurba_marseille","lat":43.21745,"lon":5.34574,"is_reserved":false,"is_disabled":true,"rental_uris":{"android":"levelo://app?vid=07f3c348-251f-475b-bdcc-b91dd94163be","ios":"levelo://app?vid=07f3c348-251f-475b-bdcc-b91dd94163be"},"vehicle_type_id":"4","last_reported":1756342287,"current_range_meters":12000,"station_id":"st_cvj6r9ubvosntc0bgbag","pricing_plan_id":"cebpf4jnsgd1na2vs0mg"},{"bike_id":"57d77259-e64a-40b9-b711-05759afb0982","system_id":"levelo_inurba_marseille","lat":43.31688,"lon":5.40473,"is_reserved":false,"is_disabled":false,"rental_uris":{"android":"levelo://app?vid=57d77259-e64a-40b9-b711-05759afb0982","ios":"levelo://app?vid=57d77259-e64a-40b9-b711-05759afb0982"},"vehicle_type_id":"4","last_reported":1756342287,"current_range_meters":12400,"station_id":"ce4bh012rcd13ifvqd00","pricing_plan_id":"cebpf4jnsgd1na2vs0mg"},{"bike_id":"685105d1-bcda-4899-9d64-d94adf158a64","system_id":"levelo_inurba_marseille","lat":43.314676,"lon":5.373608,"is_reserved":false,"is_disabled":true,"rental_uris":{"android":"levelo://app?vid=685105d1-bcda-4899-9d64-d94adf158a64","ios":"levelo://app?vid=685105d1-bcda-4899-9d64-d94adf158a64"},"vehicle_type_id":"4","last_reported":1756342287,"current_range_meters":12400,"station_id":"","pricing_plan_id":"cebpf4jnsgd1na2vs0mg"},{"bike_id":"38014ce3-3239-4ccf-a0a6-44e5034bc736","system_id":"levelo_inurba_marseille","lat":43.2587,"lon":5.39898,"is_reserved":false,"is_disabled":false,"rental_uris":{"android":"levelo://app?vid=38014ce3-3239-4ccf-a0a6-44e5034bc736","ios":"levelo://app?vid=38014ce3-3239-4ccf-a0a6-44e5034bc736"},"vehicle_type_id":"4","last_reported":1756342287,"current_range_meters":12400,"station_id":"ce4bhl92rcd13ifvqghg","pricing_plan_id":"cebpf4jnsgd1na2vs0mg"},{"bike_id":"8d3d5947-84ea-4cd6-b722-368b0b69afde","system_id":"levelo_inurba_marseille","lat":43.24706,"lon":5.3811,"is_reserved":false,"is_disabled":false,"rental_uris":{"android":"levelo://app?vid=8d3d5947-84ea-4cd6-b722-368b0b69afde","ios":"levelo://app?vid=8d3d5947-84ea-4cd6-b722-368b0b69afde"},"vehicle_type_id":"4","last_reported":1756342287,"current_range_meters":12400,"station_id":"ce4bhih2rcd13ifvqfr0","pricing_plan_id":"cebpf4jnsgd1na2vs0mg"},{"bike_id":"8179721e-b9a4-401e-a8af-cbcc4bd1bdb5","system_id":"levelo_inurba_marseille","lat":43.2792,"lon":5.39603,"is_reserved":false,"is_disabled":false,"rental_uris":{"android":"levelo://app?vid=8179721e-b9a4-401e-a8af-cbcc4bd1bdb5","ios":"levelo://app?vid=8179721e-b9a4-401e-a8af-cbcc4bd1bdb5"},"vehicle_type_id":"4","last_reported":1756342287,"current_range_meters":12400,"station_id":"ce4bhf92rcd13ifvqf40","pricing_plan_id":"cebpf4jnsgd1na2vs0mg"},{"bike_id":"4c761566-67f1-43f3-8b06-20ead8018613","system_id":"levelo_inurba_marseille","lat":43.28938,"lon":5.36632,"is_reserved":false,"is_disabled":false,"rental_uris":{"android":"levelo://app?vid=4c761566-67f1-43f3-8b06-20ead8018613","ios":"levelo://app?vid=4c761566-67f1-43f3-8b06-20ead8018613"},"vehicle_type_id":"4","last_reported":1756342287,"current_range_meters":12400,"station_id":"ce4bhap2rcd13ifvqek0","pricing_plan_id":"cebpf4jnsgd1na2vs0mg"},{"bike_id":"3dff11d5-3872-4ffe-8cce-b5631d6c6058","system_id":"levelo_inurba_marseille","lat":43.32047,"lon":5.38597,"is_reserved":false,"is_disabled":false,"rental_uris":{"android":"levelo://app?vid=3dff11d5-3872-4ffe-8cce-b5631d6c6058","ios":"levelo://app?vid=3dff11d5-3872-4ffe-8cce-b5631d6c6058"},"vehicle_type_id":"4","last_reported":1756342287,"current_range_meters":12400,"station_id":"","pricing_plan_id":"cebpf4jnsgd1na2vs0mg"},{"bike_id":"6d12ec8b-28b9-42cf-8ccf-f15298987f34","system_id":"levelo_inurba_marseille","lat":43.308,"lon":5.38156,"is_reserved":false,"is_disabled":false,"rental_uris":{"android":"levelo://app?vid=6d12ec8b-28b9-42cf-8ccf-f15298987f34","ios":"levelo://app?vid=6d12ec8b-28b9-42cf-8ccf-f15298987f34"},"vehicle_type_id":"4","last_reported":1756342287,"current_range_meters":12400,"station_id":"ce4bgt12rcd13ifvqce0","pricing_plan_id":"cebpf4jnsgd1na2vs0mg"},{"bike_id":"5c26a54e-1e97-4ad3-a16d-614ad930b130","system_id":"levelo_inurba_marseille","lat":43.32105,"lon":5.36806,"is_reserved":false,"is_disabled":false,"rental_uris":{"android":"levelo://app?vid=5c26a54e-1e97-4ad3-a16d-614ad930b130","ios":"levelo://app?vid=5c26a54e-1e97-4ad3-a16d-614ad930b130"},"vehicle_type_id":"4","last_reported":1756342287,"current_range_meters":12800,"station_id":"ce4bhrh2rcd13ifvqhug","pricing_plan_id":"cebpf4jnsgd1na2vs0mg"},{"bike_id":"db526668-1205-422f-99f2-dc09210cda94","system_id":"levelo_inurba_marseille","lat":43.29287,"lon":5.36828,"is_reserved":false,"is_disabled":false,"rental_uris":{"android":"levelo://app?vid=db526668-1205-422f-99f2-dc09210cda94","ios":"levelo://app?vid=db526668-1205-422f-99f2-dc09210cda94"},"vehicle_type_id":"4","last_reported":1756342287,"current_range_meters":12800,"station_id":"ce4bhbp2rcd13ifvqesg","pricing_plan_id":"cebpf4jnsgd1na2vs0mg"},{"bike_id":"780b5477-ed16-4c5f-bf7a-93c5728ecc9b","system_id":"levelo_inurba_marseille","lat":43.24068,"lon":5.37762,"is_reserved":false,"is_disabled":false,"rental_uris":{"android":"levelo://app?vid=780b5477-ed16-4c5f-bf7a-93c5728ecc9b","ios":"levelo://app?vid=780b5477-ed16-4c5f-bf7a-93c5728ecc9b"},"vehicle_type_id":"4","last_reported":1756342287,"current_range_meters":12800,"station_id":"ce4bhnp2rcd13ifvqgvg","pricing_plan_id":"cebpf4jnsgd1na2vs0mg"},{"bike_id":"e7fc46e5-34b2-48fd-b48c-0b0fc85dc2c4","system_id":"levelo_inurba_marseille","lat":43.23176,"lon":5.39987,"is_reserved":false,"is_disabled":false,"rental_uris":{"android":"levelo://app?vid=e7fc46e5-34b2-48fd-b48c-0b0fc85dc2c4","ios":"levelo://app?vid=e7fc46e5-34b2-48fd-b48c-0b0fc85dc2c4"},"vehicle_type_id":"4","last_reported":1756342287,"current_range_meters":12800,"station_id":"ce4bhn12rcd13ifvqgqg","pricing_plan_id":"cebpf4jnsgd1na2vs0mg"},{"bike_id":"84e7bca9-8d95-4e0f-a7d2-c651363c07ef","system_id":"levelo_inurba_marseille","lat":43.2884,"lon":5.35848,"is_reserved":false,"is_disabled":false,"rental_uris":{"android":"levelo://app?vid=84e7bca9-8d95-4e0f-a7d2-c651363c07ef","ios":"levelo://app?vid=84e7bca9-8d95-4e0f-a7d2-c651363c07ef"},"vehicle_type_id":"4","last_reported":1756342287,"current_range_meters":12800,"station_id":"ce4bhb12rcd13ifvqem0","pricing_plan_id":"cebpf4jnsgd1na2vs0mg"},{"bike_id":"98c96329-3edb-4eec-a3f6-606d0522135f","system_id":"levelo_inurba_marseille","lat":43.21193,"lon":5.35068,"is_reserved":false,"is_disabled":false,"rental_uris":{"android":"levelo://app?vid=98c96329-3edb-4eec-a3f6-606d0522135f","ios":"levelo://app?vid=98c96329-3edb-4eec-a3f6-606d0522135f"},"vehicle_type_id":"4","last_reported":1756342287,"current_range_meters":12800,"station_id":"st_cvj6sg6p6f1abm77japg","pricing_plan_id":"cebpf4jnsgd1na2vs0mg"},{"bike_id":"746ce3b4-a9e7-4868-a18d-c6a2413e90e5","system_id":"levelo_inurba_marseille","lat":43.28936,"lon":5.36632,"is_reserved":false,"is_disabled":false,"rental_uris":{"android":"levelo://app?vid=746ce3b4-a9e7-4868-a18d-c6a2413e90e5","ios":"levelo://app?vid=746ce3b4-a9e7-4868-a18d-c6a2413e90e5"},"vehicle_type_id":"4","last_reported":1756342287,"current_range_meters":12800,"station_id":"ce4bhap2rcd13ifvqek0","pricing_plan_id":"cebpf4jnsgd1na2vs0mg"},{"bike_id":"99a1f6e8-f9f4-47c7-aa48-e7c25f733bb1","system_id":"levelo_inurba_marseille","lat":43.24616,"lon":5.4315,"is_reserved":false,"is_disabled":false,"rental_uris":{"android":"levelo://app?vid=99a1f6e8-f9f4-47c7-aa48-e7c25f733bb1","ios":"levelo://app?vid=99a1f6e8-f9f4-47c7-aa48-e7c25f733bb1"},"vehicle_type_id":"4","last_reported":1756342287,"current_range_meters":12800,"station_id":"st_d2m6c4gdas8pm72e190g","pricing_plan_id":"cebpf4jnsgd1na2vs0mg"},{"bike_id":"f5ee2120-b8b8-472b-9bcc-efc824cd719b","system_id":"levelo_inurba_marseille","lat":43.29558,"lon":5.42277,"is_reserved":false,"is_disabled":false,"rental_uris":{"android":"levelo://app?vid=f5ee2120-b8b8-472b-9bcc-efc824cd719b","ios":"levelo://app?vid=f5ee2120-b8b8-472b-9bcc-efc824cd719b"},"vehicle_type_id":"4","last_reported":1756342287,"current_range_meters":12800,"station_id":"ce4bhph2rcd13ifvqhdg","pricing_plan_id":"cebpf4jnsgd1na2vs0mg"},{"bike_id":"3d399bfe-7fbc-42b7-a070-a73b13325d3f","system_id":"levelo_inurba_marseille","lat":43.231,"lon":5.35487,"is_reserved":false,"is_disabled":false,"rental_uris":{"android":"levelo://app?vid=3d399bfe-7fbc-42b7-a070-a73b13325d3f","ios":"levelo://app?vid=3d399bfe-7fbc-42b7-a070-a73b13325d3f"},"vehicle_type_id":"4","last_reported":1756342287,"current_range_meters":12800,"station_id":"","pricing_plan_id":"cebpf4jnsgd1na2vs0mg"},{"bike_id":"729739b4-f167-4b2d-a0cd-f111e90e83bc","system_id":"levelo_inurba_marseille","lat":43.27295,"lon":5.36287,"is_reserved":false,"is_disabled":false,"rental_uris":{"android":"levelo://app?vid=729739b4-f167-4b2d-a0cd-f111e90e83bc","ios":"levelo://app?vid=729739b4-f167-4b2d-a0cd-f111e90e83bc"},"vehicle_type_id":"4","last_reported":1756342287,"current_range_meters":12800,"station_id":"","pricing_plan_id":"cebpf4jnsgd1na2vs0mg"},{"bike_id":"11a38367-deb6-4141-b3c1-0cba6ea43c8d","system_id":"levelo_inurba_marseille","lat":43.28997,"lon":5.35605,"is_reserved":false,"is_disabled":true,"rental_uris":{"android":"levelo://app?vid=11a38367-deb6-4141-b3c1-0cba6ea43c8d","ios":"levelo://app?vid=11a38367-deb6-4141-b3c1-0cba6ea43c8d"},"vehicle_type_id":"4","last_reported":1756342287,"current_range_meters":13600,"station_id":"ce4bhb92rcd13ifvqen0","pricing_plan_id":"cebpf4jnsgd1na2vs0mg"},{"bike_id":"c903a825-5ba9-4790-bb65-4782e8d26369","system_id":"levelo_inurba_marseille","lat":43.30143,"lon":5.39876,"is_reserved":false,"is_disabled":false,"rental_uris":{"android":"levelo://app?vid=c903a825-5ba9-4790-bb65-4782e8d26369","ios":"levelo://app?vid=c903a825-5ba9-4790-bb65-4782e8d26369"},"vehicle_type_id":"4","last_reported":1756342287,"current_range_meters":13600,"station_id":"ce4bh0h2rcd13ifvqd40","pricing_plan_id":"cebpf4jnsgd1na2vs0mg"},{"bike_id":"424a2955-b205-49f4-ad7b-dc229419e507","system_id":"levelo_inurba_marseille","lat":43.28876,"lon":5.39298,"is_reserved":false,"is_disabled":false,"rental_uris":{"android":"levelo://app?vid=424a2955-b205-49f4-ad7b-dc229419e507","ios":"levelo://app?vid=424a2955-b205-49f4-ad7b-dc229419e507"},"vehicle_type_id":"4","last_reported":1756342287,"current_range_meters":13600,"station_id":"ce4bh2p2rcd13ifvqdi0","pricing_plan_id":"cebpf4jnsgd1na2vs0mg"},{"bike_id":"19eabc24-80d3-4327-b947-9ec7f85cd494","system_id":"levelo_inurba_marseille","lat":43.27333,"lon":5.39128,"is_reserved":false,"is_disabled":true,"rental_uris":{"android":"levelo://app?vid=19eabc24-80d3-4327-b947-9ec7f85cd494","ios":"levelo://app?vid=19eabc24-80d3-4327-b947-9ec7f85cd494"},"vehicle_type_id":"4","last_reported":1756342287,"current_range_meters":13600,"station_id":"","pricing_plan_id":"cebpf4jnsgd1na2vs0mg"},{"bike_id":"f67c8e5e-7af8-4847-a4ce-1e12088b4291","system_id":"levelo_inurba_marseille","lat":43.33026,"lon":5.39247,"is_reserved":false,"is_disabled":false,"rental_uris":{"android":"levelo://app?vid=f67c8e5e-7af8-4847-a4ce-1e12088b4291","ios":"levelo://app?vid=f67c8e5e-7af8-4847-a4ce-1e12088b4291"},"vehicle_type_id":"4","last_reported":1756342287,"current_range_meters":13600,"station_id":"","pricing_plan_id":"cebpf4jnsgd1na2vs0mg"},{"bike_id":"d1e0c5c0-2021-47c7-80fe-e78f82330db3","system_id":"levelo_inurba_marseille","lat":43.21197,"lon":5.35056,"is_reserved":false,"is_disabled":false,"rental_uris":{"android":"levelo://app?vid=d1e0c5c0-2021-47c7-80fe-e78f82330db3","ios":"levelo://app?vid=d1e0c5c0-2021-47c7-80fe-e78f82330db3"},"vehicle_type_id":"4","last_reported":1756342287,"current_range_meters":13600,"station_id":"st_cvj6sg6p6f1abm77japg","pricing_plan_id":"cebpf4jnsgd1na2vs0mg"},{"bike_id":"06d7a368-7156-454c-a01c-b0a0ebbf9e53","system_id":"levelo_inurba_marseille","lat":43.2797,"lon":5.38729,"is_reserved":false,"is_disabled":false,"rental_uris":{"android":"levelo://app?vid=06d7a368-7156-454c-a01c-b0a0ebbf9e53","ios":"levelo://app?vid=06d7a368-7156-454c-a01c-b0a0ebbf9e53"},"vehicle_type_id":"4","last_reported":1756342287,"current_range_meters":13600,"station_id":"ce4bhg12rcd13ifvqf80","pricing_plan_id":"cebpf4jnsgd1na2vs0mg"},{"bike_id":"5348295b-dca6-4f86-8b78-6afd99412412","system_id":"levelo_inurba_marseille","lat":43.28355,"lon":5.38638,"is_reserved":false,"is_disabled":false,"rental_uris":{"android":"levelo://app?vid=5348295b-dca6-4f86-8b78-6afd99412412","ios":"levelo://app?vid=5348295b-dca6-4f86-8b78-6afd99412412"},"vehicle_type_id":"4","last_reported":1756342287,"current_range_meters":13600,"station_id":"ce4bh492rcd13ifvqdvg","pricing_plan_id":"cebpf4jnsgd1na2vs0mg"},{"bike_id":"61e0aeb8-5699-47ea-a3ed-bf5e89f7b855","system_id":"levelo_inurba_marseille","lat":43.28109,"lon":5.37834,"is_reserved":false,"is_disabled":false,"rental_uris":{"android":"levelo://app?vid=61e0aeb8-5699-47ea-a3ed-bf5e89f7b855","ios":"levelo://app?vid=61e0aeb8-5699-47ea-a3ed-bf5e89f7b855"},"vehicle_type_id":"4","last_reported":1756342287,"current_range_meters":13600,"station_id":"ce4bha12rcd13ifvqee0","pricing_plan_id":"cebpf4jnsgd1na2vs0mg"},{"bike_id":"44d9d2d8-1bb9-431f-bdd1-622d8e0ea90c","system_id":"levelo_inurba_marseille","lat":43.26243,"lon":5.39673,"is_reserved":false,"is_disabled":false,"rental_uris":{"android":"levelo://app?vid=44d9d2d8-1bb9-431f-bdd1-622d8e0ea90c","ios":"levelo://app?vid=44d9d2d8-1bb9-431f-bdd1-622d8e0ea90c"},"vehicle_type_id":"4","last_reported":1756342287,"current_range_meters":14000,"station_id":"","pricing_plan_id":"cebpf4jnsgd1na2vs0mg"},{"bike_id":"91a18ddd-16a6-4be8-9f6d-05b082ff6624","system_id":"levelo_inurba_marseille","lat":43.28453,"lon":5.35896,"is_reserved":false,"is_disabled":false,"rental_uris":{"android":"levelo://app?vid=91a18ddd-16a6-4be8-9f6d-05b082ff6624","ios":"levelo://app?vid=91a18ddd-16a6-4be8-9f6d-05b082ff6624"},"vehicle_type_id":"4","last_reported":1756342287,"current_range_meters":14000,"station_id":"ce4bhah2rcd13ifvqei0","pricing_plan_id":"cebpf4jnsgd1na2vs0mg"},{"bike_id":"fa17454f-4e46-4ff2-9ddd-c7285b6a38f9","system_id":"levelo_inurba_marseille","lat":43.27918,"lon":5.39572,"is_reserved":false,"is_disabled":false,"rental_uris":{"android":"levelo://app?vid=fa17454f-4e46-4ff2-9ddd-c7285b6a38f9","ios":"levelo://app?vid=fa17454f-4e46-4ff2-9ddd-c7285b6a38f9"},"vehicle_type_id":"4","last_reported":1756342287,"current_range_meters":14000,"station_id":"ce4bhf92rcd13ifvqf40","pricing_plan_id":"cebpf4jnsgd1na2vs0mg"},{"bike_id":"8498fa8e-4f91-459d-a0f4-2fbed7e50f59","system_id":"levelo_inurba_marseille","lat":43.28706,"lon":5.39986,"is_reserved":false,"is_disabled":false,"rental_uris":{"android":"levelo://app?vid=8498fa8e-4f91-459d-a0f4-2fbed7e50f59","ios":"levelo://app?vid=8498fa8e-4f91-459d-a0f4-2fbed7e50f59"},"vehicle_type_id":"4","last_reported":1756342287,"current_range_meters":14000,"station_id":"ce4bho92rcd13ifvqh3g","pricing_plan_id":"cebpf4jnsgd1na2vs0mg"},{"bike_id":"80a1b9c0-3c81-4afb-9b6e-98e75f27b215","system_id":"levelo_inurba_marseille","lat":43.26202,"lon":5.40431,"is_reserved":false,"is_disabled":false,"rental_uris":{"android":"levelo://app?vid=80a1b9c0-3c81-4afb-9b6e-98e75f27b215","ios":"levelo://app?vid=80a1b9c0-3c81-4afb-9b6e-98e75f27b215"},"vehicle_type_id":"4","last_reported":1756342287,"current_range_meters":14000,"station_id":"ce4bhmh2rcd13ifvqgmg","pricing_plan_id":"cebpf4jnsgd1na2vs0mg"},{"bike_id":"48bce130-f4d9-4be0-b479-1ef9eb4281d3","system_id":"levelo_inurba_marseille","lat":43.33883,"lon":5.3553,"is_reserved":false,"is_disabled":false,"rental_uris":{"android":"levelo://app?vid=48bce130-f4d9-4be0-b479-1ef9eb4281d3","ios":"levelo://app?vid=48bce130-f4d9-4be0-b479-1ef9eb4281d3"},"vehicle_type_id":"4","last_reported":1756342287,"current_range_meters":14000,"station_id":"","pricing_plan_id":"cebpf4jnsgd1na2vs0mg"},{"bike_id":"7e3ffa88-6346-44b3-b141-4da26e78c620","system_id":"levelo_inurba_marseille","lat":43.242875,"lon":5.396712,"is_reserved":false,"is_disabled":false,"rental_uris":{"android":"levelo://app?vid=7e3ffa88-6346-44b3-b141-4da26e78c620","ios":"levelo://app?vid=7e3ffa88-6346-44b3-b141-4da26e78c620"},"vehicle_type_id":"4","last_reported":1756342287,"current_range_meters":14400,"station_id":"ce4bhn12rcd13ifvqgpg","pricing_plan_id":"cebpf4jnsgd1na2vs0mg"},{"bike_id":"9c401436-7aa7-494a-9cc1-967079e60b6f","system_id":"levelo_inurba_marseille","lat":43.25944,"lon":5.4089,"is_reserved":false,"is_disabled":false,"rental_uris":{"android":"levelo://app?vid=9c401436-7aa7-494a-9cc1-967079e60b6f","ios":"levelo://app?vid=9c401436-7aa7-494a-9cc1-967079e60b6f"},"vehicle_type_id":"4","last_reported":1756342287,"current_range_meters":14400,"station_id":"ce4bhm92rcd13ifvqglg","pricing_plan_id":"cebpf4jnsgd1na2vs0mg"},{"bike_id":"d810acf0-5bd2-4bf1-848d-31cd30d105e6","system_id":"levelo_inurba_marseille","lat":43.269831,"lon":5.392782,"is_reserved":false,"is_disabled":false,"rental_uris":{"android":"levelo://app?vid=d810acf0-5bd2-4bf1-848d-31cd30d105e6","ios":"levelo://app?vid=d810acf0-5bd2-4bf1-848d-31cd30d105e6"},"vehicle_type_id":"4","last_reported":1756342287,"current_range_meters":14400,"station_id":"","pricing_plan_id":"cebpf4jnsgd1na2vs0mg"},{"bike_id":"ddb358c1-62d4-45c6-afcf-b1c4ff0c210b","system_id":"levelo_inurba_marseille","lat":43.28709,"lon":5.39958,"is_reserved":false,"is_disabled":false,"rental_uris":{"android":"levelo://app?vid=ddb358c1-62d4-45c6-afcf-b1c4ff0c210b","ios":"levelo://app?vid=ddb358c1-62d4-45c6-afcf-b1c4ff0c210b"},"vehicle_type_id":"4","last_reported":1756342287,"current_range_meters":14400,"station_id":"ce4bho92rcd13ifvqh3g","pricing_plan_id":"cebpf4jnsgd1na2vs0mg"},{"bike_id":"c67682e4-ad86-4b65-b4ef-e774963b7e60","system_id":"levelo_inurba_marseille","lat":43.23199,"lon":5.35547,"is_reserved":false,"is_disabled":false,"rental_uris":{"android":"levelo://app?vid=c67682e4-ad86-4b65-b4ef-e774963b7e60","ios":"levelo://app?vid=c67682e4-ad86-4b65-b4ef-e774963b7e60"},"vehicle_type_id":"4","last_reported":1756342287,"current_range_meters":14800,"station_id":"ce4bhu92rcd13ifvqi70","pricing_plan_id":"cebpf4jnsgd1na2vs0mg"},{"bike_id":"4cb373c2-c866-4ffe-be1f-de93e275c529","system_id":"levelo_inurba_marseille","lat":43.28999,"lon":5.36733,"is_reserved":false,"is_disabled":false,"rental_uris":{"android":"levelo://app?vid=4cb373c2-c866-4ffe-be1f-de93e275c529","ios":"levelo://app?vid=4cb373c2-c866-4ffe-be1f-de93e275c529"},"vehicle_type_id":"4","last_reported":1756342287,"current_range_meters":14800,"station_id":"","pricing_plan_id":"cebpf4jnsgd1na2vs0mg"},{"bike_id":"a5804c5c-ef86-450a-aae9-e4905a0aaf15","system_id":"levelo_inurba_marseille","lat":43.31357,"lon":5.38498,"is_reserved":false,"is_disabled":false,"rental_uris":{"android":"levelo://app?vid=a5804c5c-ef86-450a-aae9-e4905a0aaf15","ios":"levelo://app?vid=a5804c5c-ef86-450a-aae9-e4905a0aaf15"},"vehicle_type_id":"4","last_reported":1756342287,"current_range_meters":14800,"station_id":"ce4bgt92rcd13ifvqcf0","pricing_plan_id":"cebpf4jnsgd1na2vs0mg"},{"bike_id":"e7adfa58-9cff-4ae4-9f5c-c741f262e33a","system_id":"levelo_inurba_marseille","lat":43.28774,"lon":5.37933,"is_reserved":false,"is_disabled":false,"rental_uris":{"android":"levelo://app?vid=e7adfa58-9cff-4ae4-9f5c-c741f262e33a","ios":"levelo://app?vid=e7adfa58-9cff-4ae4-9f5c-c741f262e33a"},"vehicle_type_id":"4","last_reported":1756342287,"current_range_meters":14800,"station_id":"","pricing_plan_id":"cebpf4jnsgd1na2vs0mg"},{"bike_id":"a8ee7cdd-d5e0-4d5d-bb50-2d0b5e8fee57","system_id":"levelo_inurba_marseille","lat":43.315272,"lon":5.380356,"is_reserved":false,"is_disabled":false,"rental_uris":{"android":"levelo://app?vid=a8ee7cdd-d5e0-4d5d-bb50-2d0b5e8fee57","ios":"levelo://app?vid=a8ee7cdd-d5e0-4d5d-bb50-2d0b5e8fee57"},"vehicle_type_id":"4","last_reported":1756342287,"current_range_meters":14800,"station_id":"ce4bhsp2rcd13ifvqi50","pricing_plan_id":"cebpf4jnsgd1na2vs0mg"},{"bike_id":"9f03e1e2-4e9a-43c4-963b-4baf28706312","system_id":"levelo_inurba_marseille","lat":43.30487,"lon":5.36735,"is_reserved":false,"is_disabled":false,"rental_uris":{"android":"levelo://app?vid=9f03e1e2-4e9a-43c4-963b-4baf28706312","ios":"levelo://app?vid=9f03e1e2-4e9a-43c4-963b-4baf28706312"},"vehicle_type_id":"4","last_reported":1756342287,"current_range_meters":15200,"station_id":"","pricing_plan_id":"cebpf4jnsgd1na2vs0mg"},{"bike_id":"ffe6df59-3fc1-4d81-9326-f6f6418e7718","system_id":"levelo_inurba_marseille","lat":43.29762,"lon":5.37342,"is_reserved":false,"is_disabled":false,"rental_uris":{"android":"levelo://app?vid=ffe6df59-3fc1-4d81-9326-f6f6418e7718","ios":"levelo://app?vid=ffe6df59-3fc1-4d81-9326-f6f6418e7718"},"vehicle_type_id":"4","last_reported":1756342287,"current_range_meters":16000,"station_id":"","pricing_plan_id":"cebpf4jnsgd1na2vs0mg"},{"bike_id":"a03807a4-304e-4e3b-b6c4-d104dfb5ed30","system_id":"levelo_inurba_marseille","lat":43.25117,"lon":5.40318,"is_reserved":false,"is_disabled":false,"rental_uris":{"android":"levelo://app?vid=a03807a4-304e-4e3b-b6c4-d104dfb5ed30","ios":"levelo://app?vid=a03807a4-304e-4e3b-b6c4-d104dfb5ed30"},"vehicle_type_id":"4","last_reported":1756342287,"current_range_meters":16000,"station_id":"","pricing_plan_id":"cebpf4jnsgd1na2vs0mg"},{"bike_id":"23ae6fed-deff-411b-8b6e-f95e32ccd4d0","system_id":"levelo_inurba_marseille","lat":43.32122,"lon":5.36768,"is_reserved":false,"is_disabled":false,"rental_uris":{"android":"levelo://app?vid=23ae6fed-deff-411b-8b6e-f95e32ccd4d0","ios":"levelo://app?vid=23ae6fed-deff-411b-8b6e-f95e32ccd4d0"},"vehicle_type_id":"4","last_reported":1756342287,"current_range_meters":16000,"station_id":"ce4bhrh2rcd13ifvqhug","pricing_plan_id":"cebpf4jnsgd1na2vs0mg"},{"bike_id":"5d572912-f124-4c0c-8714-282331f8c6f2","system_id":"levelo_inurba_marseille","lat":43.309292,"lon":5.401439,"is_reserved":false,"is_disabled":false,"rental_uris":{"android":"levelo://app?vid=5d572912-f124-4c0c-8714-282331f8c6f2","ios":"levelo://app?vid=5d572912-f124-4c0c-8714-282331f8c6f2"},"vehicle_type_id":"4","last_reported":1756342287,"current_range_meters":16000,"station_id":"ce4bgvp2rcd13ifvqct0","pricing_plan_id":"cebpf4jnsgd1na2vs0mg"},{"bike_id":"43485147-2ceb-4191-89c1-80fb0a5527a5","system_id":"levelo_inurba_marseille","lat":43.292763,"lon":5.368495,"is_reserved":false,"is_disabled":false,"rental_uris":{"android":"levelo://app?vid=43485147-2ceb-4191-89c1-80fb0a5527a5","ios":"levelo://app?vid=43485147-2ceb-4191-89c1-80fb0a5527a5"},"vehicle_type_id":"4","last_reported":1756342287,"current_range_meters":16000,"station_id":"ce4bhbp2rcd13ifvqesg","pricing_plan_id":"cebpf4jnsgd1na2vs0mg"},{"bike_id":"50ffaa2c-7bf6-45b3-8b8e-135dbae3a90b","system_id":"levelo_inurba_marseille","lat":43.27972,"lon":5.38749,"is_reserved":false,"is_disabled":false,"rental_uris":{"android":"levelo://app?vid=50ffaa2c-7bf6-45b3-8b8e-135dbae3a90b","ios":"levelo://app?vid=50ffaa2c-7bf6-45b3-8b8e-135dbae3a90b"},"vehicle_type_id":"4","last_reported":1756342287,"current_range_meters":16000,"station_id":"ce4bhg12rcd13ifvqf80","pricing_plan_id":"cebpf4jnsgd1na2vs0mg"},{"bike_id":"0793473c-7c91-4d1f-8ffb-c00486129b1d","system_id":"levelo_inurba_marseille","lat":43.30085,"lon":5.39092,"is_reserved":false,"is_disabled":true,"rental_uris":{"android":"levelo://app?vid=0793473c-7c91-4d1f-8ffb-c00486129b1d","ios":"levelo://app?vid=0793473c-7c91-4d1f-8ffb-c00486129b1d"},"vehicle_type_id":"4","last_reported":1756342287,"current_range_meters":16000,"station_id":"ce4bh192rcd13ifvqdb0","pricing_plan_id":"cebpf4jnsgd1na2vs0mg"},{"bike_id":"8df4d72a-2534-4225-b0d0-5b48bd4c7385","system_id":"levelo_inurba_marseille","lat":43.29452,"lon":5.39757,"is_reserved":false,"is_disabled":false,"rental_uris":{"android":"levelo://app?vid=8df4d72a-2534-4225-b0d0-5b48bd4c7385","ios":"levelo://app?vid=8df4d72a-2534-4225-b0d0-5b48bd4c7385"},"vehicle_type_id":"4","last_reported":1756342287,"current_range_meters":16400,"station_id":"ce4bh3h2rcd13ifvqdo0","pricing_plan_id":"cebpf4jnsgd1na2vs0mg"},{"bike_id":"50015baa-2cc6-4aef-b9af-1b853ed5a318","system_id":"levelo_inurba_marseille","lat":43.27916,"lon":5.39572,"is_reserved":false,"is_disabled":false,"rental_uris":{"android":"levelo://app?vid=50015baa-2cc6-4aef-b9af-1b853ed5a318","ios":"levelo://app?vid=50015baa-2cc6-4aef-b9af-1b853ed5a318"},"vehicle_type_id":"4","last_reported":1756342287,"current_range_meters":16400,"station_id":"ce4bhf92rcd13ifvqf40","pricing_plan_id":"cebpf4jnsgd1na2vs0mg"},{"bike_id":"1d6d2e3d-e6be-45f3-9550-08daca30c94e","system_id":"levelo_inurba_marseille","lat":43.23151,"lon":5.43712,"is_reserved":false,"is_disabled":false,"rental_uris":{"android":"levelo://app?vid=1d6d2e3d-e6be-45f3-9550-08daca30c94e","ios":"levelo://app?vid=1d6d2e3d-e6be-45f3-9550-08daca30c94e"},"vehicle_type_id":"4","last_reported":1756342287,"current_range_meters":16400,"station_id":"ce4bhmp2rcd13ifvqgog","pricing_plan_id":"cebpf4jnsgd1na2vs0mg"},{"bike_id":"1091f287-02ee-4a66-888b-59c35fd65791","system_id":"levelo_inurba_marseille","lat":43.23196,"lon":5.35545,"is_reserved":false,"is_disabled":false,"rental_uris":{"android":"levelo://app?vid=1091f287-02ee-4a66-888b-59c35fd65791","ios":"levelo://app?vid=1091f287-02ee-4a66-888b-59c35fd65791"},"vehicle_type_id":"4","last_reported":1756342287,"current_range_meters":16400,"station_id":"ce4bhu92rcd13ifvqi70","pricing_plan_id":"cebpf4jnsgd1na2vs0mg"},{"bike_id":"cbeedab3-ddb3-41d4-8c36-91a332d7ad50","system_id":"levelo_inurba_marseille","lat":43.28852,"lon":5.39333,"is_reserved":false,"is_disabled":false,"rental_uris":{"android":"levelo://app?vid=cbeedab3-ddb3-41d4-8c36-91a332d7ad50","ios":"levelo://app?vid=cbeedab3-ddb3-41d4-8c36-91a332d7ad50"},"vehicle_type_id":"4","last_reported":1756342287,"current_range_meters":16400,"station_id":"ce4bh2p2rcd13ifvqdi0","pricing_plan_id":"cebpf4jnsgd1na2vs0mg"},{"bike_id":"01acadab-cadc-479f-8160-13b317197971","system_id":"levelo_inurba_marseille","lat":43.28108,"lon":5.37843,"is_reserved":false,"is_disabled":false,"rental_uris":{"android":"levelo://app?vid=01acadab-cadc-479f-8160-13b317197971","ios":"levelo://app?vid=01acadab-cadc-479f-8160-13b317197971"},"vehicle_type_id":"4","last_reported":1756342287,"current_range_meters":16400,"station_id":"ce4bha12rcd13ifvqee0","pricing_plan_id":"cebpf4jnsgd1na2vs0mg"},{"bike_id":"e26e264a-ce3c-445c-ad42-2ecb68c24979","system_id":"levelo_inurba_marseille","lat":43.23153,"lon":5.43713,"is_reserved":false,"is_disabled":false,"rental_uris":{"android":"levelo://app?vid=e26e264a-ce3c-445c-ad42-2ecb68c24979","ios":"levelo://app?vid=e26e264a-ce3c-445c-ad42-2ecb68c24979"},"vehicle_type_id":"4","last_reported":1756342287,"current_range_meters":16400,"station_id":"ce4bhmp2rcd13ifvqgog","pricing_plan_id":"cebpf4jnsgd1na2vs0mg"},{"bike_id":"448a7c9f-159b-4308-a873-15bd67315167","system_id":"levelo_inurba_marseille","lat":43.31106,"lon":5.377765,"is_reserved":false,"is_disabled":false,"rental_uris":{"android":"levelo://app?vid=448a7c9f-159b-4308-a873-15bd67315167","ios":"levelo://app?vid=448a7c9f-159b-4308-a873-15bd67315167"},"vehicle_type_id":"4","last_reported":1756342287,"current_range_meters":16400,"station_id":"ce4bgt92rcd13ifvqcg0","pricing_plan_id":"cebpf4jnsgd1na2vs0mg"},{"bike_id":"f81d9078-265a-4cc3-81fe-a4e37d459336","system_id":"levelo_inurba_marseille","lat":43.26696,"lon":5.38283,"is_reserved":false,"is_disabled":true,"rental_uris":{"android":"levelo://app?vid=f81d9078-265a-4cc3-81fe-a4e37d459336","ios":"levelo://app?vid=f81d9078-265a-4cc3-81fe-a4e37d459336"},"vehicle_type_id":"4","last_reported":1756342287,"current_range_meters":16800,"station_id":"ce4bhg92rcd13ifvqf90","pricing_plan_id":"cebpf4jnsgd1na2vs0mg"},{"bike_id":"ec0f9f0d-0796-42ac-9cf5-bb8596cdf342","system_id":"levelo_inurba_marseille","lat":43.21185,"lon":5.35055,"is_reserved":false,"is_disabled":false,"rental_uris":{"android":"levelo://app?vid=ec0f9f0d-0796-42ac-9cf5-bb8596cdf342","ios":"levelo://app?vid=ec0f9f0d-0796-42ac-9cf5-bb8596cdf342"},"vehicle_type_id":"4","last_reported":1756342287,"current_range_meters":16800,"station_id":"","pricing_plan_id":"cebpf4jnsgd1na2vs0mg"},{"bike_id":"831a2354-0919-4530-8e5a-84c32dcc2c03","system_id":"levelo_inurba_marseille","lat":43.272052,"lon":5.391826,"is_reserved":false,"is_disabled":false,"rental_uris":{"android":"levelo://app?vid=831a2354-0919-4530-8e5a-84c32dcc2c03","ios":"levelo://app?vid=831a2354-0919-4530-8e5a-84c32dcc2c03"},"vehicle_type_id":"4","last_reported":1756342287,"current_range_meters":16800,"station_id":"","pricing_plan_id":"cebpf4jnsgd1na2vs0mg"},{"bike_id":"2c246624-962d-4f72-8341-3c6523db29ef","system_id":"levelo_inurba_marseille","lat":43.26547,"lon":5.37282,"is_reserved":false,"is_disabled":true,"rental_uris":{"android":"levelo://app?vid=2c246624-962d-4f72-8341-3c6523db29ef","ios":"levelo://app?vid=2c246624-962d-4f72-8341-3c6523db29ef"},"vehicle_type_id":"4","last_reported":1756342287,"current_range_meters":16800,"station_id":"ce4bhg12rcd13ifvqf70","pricing_plan_id":"cebpf4jnsgd1na2vs0mg"},{"bike_id":"cddd7129-2972-4408-becb-877207b06e82","system_id":"levelo_inurba_marseille","lat":43.28472,"lon":5.35865,"is_reserved":false,"is_disabled":false,"rental_uris":{"android":"levelo://app?vid=cddd7129-2972-4408-becb-877207b06e82","ios":"levelo://app?vid=cddd7129-2972-4408-becb-877207b06e82"},"vehicle_type_id":"4","last_reported":1756342287,"current_range_meters":16800,"station_id":"ce4bhah2rcd13ifvqei0","pricing_plan_id":"cebpf4jnsgd1na2vs0mg"},{"bike_id":"7f96cfc7-6b62-4cd3-a164-5a1ee471a17d","system_id":"levelo_inurba_marseille","lat":43.30544,"lon":5.36534,"is_reserved":false,"is_disabled":false,"rental_uris":{"android":"levelo://app?vid=7f96cfc7-6b62-4cd3-a164-5a1ee471a17d","ios":"levelo://app?vid=7f96cfc7-6b62-4cd3-a164-5a1ee471a17d"},"vehicle_type_id":"4","last_reported":1756342287,"current_range_meters":16800,"station_id":"ce4bgs12rcd13ifvqcag","pricing_plan_id":"cebpf4jnsgd1na2vs0mg"},{"bike_id":"78c296bf-5b58-4a77-9f2e-ee7e577bc301","system_id":"levelo_inurba_marseille","lat":43.30419,"lon":5.412944,"is_reserved":false,"is_disabled":false,"rental_uris":{"android":"levelo://app?vid=78c296bf-5b58-4a77-9f2e-ee7e577bc301","ios":"levelo://app?vid=78c296bf-5b58-4a77-9f2e-ee7e577bc301"},"vehicle_type_id":"4","last_reported":1756342287,"current_range_meters":16400,"station_id":"ce4bhop2rcd13ifvqh8g","pricing_plan_id":"cebpf4jnsgd1na2vs0mg"},{"bike_id":"3c1d8ebb-3684-4da5-b53d-50ab8d6c0833","system_id":"levelo_inurba_marseille","lat":43.29586,"lon":5.375227,"is_reserved":false,"is_disabled":false,"rental_uris":{"android":"levelo://app?vid=3c1d8ebb-3684-4da5-b53d-50ab8d6c0833","ios":"levelo://app?vid=3c1d8ebb-3684-4da5-b53d-50ab8d6c0833"},"vehicle_type_id":"4","last_reported":1756342287,"current_range_meters":17200,"station_id":"","pricing_plan_id":"cebpf4jnsgd1na2vs0mg"},{"bike_id":"615f9cb4-bc08-43f1-87ef-884359fe2e39","system_id":"levelo_inurba_marseille","lat":43.32351,"lon":5.36711,"is_reserved":false,"is_disabled":false,"rental_uris":{"android":"levelo://app?vid=615f9cb4-bc08-43f1-87ef-884359fe2e39","ios":"levelo://app?vid=615f9cb4-bc08-43f1-87ef-884359fe2e39"},"vehicle_type_id":"4","last_reported":1756342287,"current_range_meters":17200,"station_id":"ce4bhsh2rcd13ifvqi2g","pricing_plan_id":"cebpf4jnsgd1na2vs0mg"},{"bike_id":"9a7edf6e-5f68-421e-a102-2ef5b337d341","system_id":"levelo_inurba_marseille","lat":43.279424,"lon":5.41051,"is_reserved":false,"is_disabled":true,"rental_uris":{"android":"levelo://app?vid=9a7edf6e-5f68-421e-a102-2ef5b337d341","ios":"levelo://app?vid=9a7edf6e-5f68-421e-a102-2ef5b337d341"},"vehicle_type_id":"4","last_reported":1756342287,"current_range_meters":17200,"station_id":"ce4bhnp2rcd13ifvqh0g","pricing_plan_id":"cebpf4jnsgd1na2vs0mg"},{"bike_id":"17e913a4-9bad-45a2-a833-803e708ff009","system_id":"levelo_inurba_marseille","lat":43.27978,"lon":5.38745,"is_reserved":false,"is_disabled":false,"rental_uris":{"android":"levelo://app?vid=17e913a4-9bad-45a2-a833-803e708ff009","ios":"levelo://app?vid=17e913a4-9bad-45a2-a833-803e708ff009"},"vehicle_type_id":"4","last_reported":1756342287,"current_range_meters":17200,"station_id":"ce4bhg12rcd13ifvqf80","pricing_plan_id":"cebpf4jnsgd1na2vs0mg"},{"bike_id":"8a72b4e3-dba1-4109-8dd9-232fe8116587","system_id":"levelo_inurba_marseille","lat":43.246794,"lon":5.38156,"is_reserved":false,"is_disabled":false,"rental_uris":{"android":"levelo://app?vid=8a72b4e3-dba1-4109-8dd9-232fe8116587","ios":"levelo://app?vid=8a72b4e3-dba1-4109-8dd9-232fe8116587"},"vehicle_type_id":"4","last_reported":1756342287,"current_range_meters":17200,"station_id":"ce4bhih2rcd13ifvqfr0","pricing_plan_id":"cebpf4jnsgd1na2vs0mg"},{"bike_id":"a7668575-95a7-454a-b35f-d58c8e9e5d47","system_id":"levelo_inurba_marseille","lat":43.28682,"lon":5.38649,"is_reserved":false,"is_disabled":false,"rental_uris":{"android":"levelo://app?vid=a7668575-95a7-454a-b35f-d58c8e9e5d47","ios":"levelo://app?vid=a7668575-95a7-454a-b35f-d58c8e9e5d47"},"vehicle_type_id":"4","last_reported":1756342287,"current_range_meters":17200,"station_id":"ce4bh492rcd13ifvqdug","pricing_plan_id":"cebpf4jnsgd1na2vs0mg"},{"bike_id":"07296681-3400-48d5-88e2-c863a00e5bf3","system_id":"levelo_inurba_marseille","lat":43.22928,"lon":5.35368,"is_reserved":false,"is_disabled":false,"rental_uris":{"android":"levelo://app?vid=07296681-3400-48d5-88e2-c863a00e5bf3","ios":"levelo://app?vid=07296681-3400-48d5-88e2-c863a00e5bf3"},"vehicle_type_id":"4","last_reported":1756342287,"current_range_meters":17200,"station_id":"cpo3532slgdg3j2ikp40","pricing_plan_id":"cebpf4jnsgd1na2vs0mg"},{"bike_id":"54507a0c-d878-4e18-adc4-058298bfd68b","system_id":"levelo_inurba_marseille","lat":43.29706,"lon":5.37713,"is_reserved":false,"is_disabled":false,"rental_uris":{"android":"levelo://app?vid=54507a0c-d878-4e18-adc4-058298bfd68b","ios":"levelo://app?vid=54507a0c-d878-4e18-adc4-058298bfd68b"},"vehicle_type_id":"4","last_reported":1756342287,"current_range_meters":17200,"station_id":"ce4bgkh2rcd13ifvqbl0","pricing_plan_id":"cebpf4jnsgd1na2vs0mg"},{"bike_id":"ff5465dc-9541-471e-98d9-07471195f129","system_id":"levelo_inurba_marseille","lat":43.308988,"lon":5.396566,"is_reserved":false,"is_disabled":false,"rental_uris":{"android":"levelo://app?vid=ff5465dc-9541-471e-98d9-07471195f129","ios":"levelo://app?vid=ff5465dc-9541-471e-98d9-07471195f129"},"vehicle_type_id":"4","last_reported":1756342287,"current_range_meters":17200,"station_id":"ce4bh012rcd13ifvqcv0","pricing_plan_id":"cebpf4jnsgd1na2vs0mg"},{"bike_id":"e6caca03-e4c1-40ce-9f4e-cc5046f7af92","system_id":"levelo_inurba_marseille","lat":43.32008,"lon":5.38154,"is_reserved":false,"is_disabled":false,"rental_uris":{"android":"levelo://app?vid=e6caca03-e4c1-40ce-9f4e-cc5046f7af92","ios":"levelo://app?vid=e6caca03-e4c1-40ce-9f4e-cc5046f7af92"},"vehicle_type_id":"4","last_reported":1756342287,"current_range_meters":17600,"station_id":"ce4bhr12rcd13ifvqhpg","pricing_plan_id":"cebpf4jnsgd1na2vs0mg"},{"bike_id":"d00736e6-fb0e-4ccf-bf0f-31e143bba943","system_id":"levelo_inurba_marseille","lat":43.29796,"lon":5.38098,"is_reserved":false,"is_disabled":false,"rental_uris":{"android":"levelo://app?vid=d00736e6-fb0e-4ccf-bf0f-31e143bba943","ios":"levelo://app?vid=d00736e6-fb0e-4ccf-bf0f-31e143bba943"},"vehicle_type_id":"4","last_reported":1756342287,"current_range_meters":17200,"station_id":"ce4bgip2rcd13ifvqbb0","pricing_plan_id":"cebpf4jnsgd1na2vs0mg"},{"bike_id":"00865bff-72de-47be-acda-9cf6ec16a836","system_id":"levelo_inurba_marseille","lat":43.32103,"lon":5.36777,"is_reserved":false,"is_disabled":false,"rental_uris":{"android":"levelo://app?vid=00865bff-72de-47be-acda-9cf6ec16a836","ios":"levelo://app?vid=00865bff-72de-47be-acda-9cf6ec16a836"},"vehicle_type_id":"4","last_reported":1756342287,"current_range_meters":17600,"station_id":"ce4bhrh2rcd13ifvqhug","pricing_plan_id":"cebpf4jnsgd1na2vs0mg"},{"bike_id":"af4e99e8-476c-4334-b921-29caaca16f59","system_id":"levelo_inurba_marseille","lat":43.28704,"lon":5.37377,"is_reserved":false,"is_disabled":false,"rental_uris":{"android":"levelo://app?vid=af4e99e8-476c-4334-b921-29caaca16f59","ios":"levelo://app?vid=af4e99e8-476c-4334-b921-29caaca16f59"},"vehicle_type_id":"4","last_reported":1756342287,"current_range_meters":17600,"station_id":"ce4bh3p2rcd13ifvqdq0","pricing_plan_id":"cebpf4jnsgd1na2vs0mg"},{"bike_id":"61f2c114-c0fa-4f59-9705-6529d45cdb50","system_id":"levelo_inurba_marseille","lat":43.25116,"lon":5.40321,"is_reserved":false,"is_disabled":false,"rental_uris":{"android":"levelo://app?vid=61f2c114-c0fa-4f59-9705-6529d45cdb50","ios":"levelo://app?vid=61f2c114-c0fa-4f59-9705-6529d45cdb50"},"vehicle_type_id":"4","last_reported":1756342287,"current_range_meters":17600,"station_id":"ce4bhlh2rcd13ifvqgig","pricing_plan_id":"cebpf4jnsgd1na2vs0mg"},{"bike_id":"259905c0-0b2a-48d2-8997-dcb3931ef5bd","system_id":"levelo_inurba_marseille","lat":43.28099,"lon":5.37839,"is_reserved":false,"is_disabled":false,"rental_uris":{"android":"levelo://app?vid=259905c0-0b2a-48d2-8997-dcb3931ef5bd","ios":"levelo://app?vid=259905c0-0b2a-48d2-8997-dcb3931ef5bd"},"vehicle_type_id":"4","last_reported":1756342287,"current_range_meters":17600,"station_id":"ce4bha12rcd13ifvqee0","pricing_plan_id":"cebpf4jnsgd1na2vs0mg"},{"bike_id":"0f4bb969-578d-459b-81b8-bdaba95d4fee","system_id":"levelo_inurba_marseille","lat":43.28726,"lon":5.36069,"is_reserved":false,"is_disabled":false,"rental_uris":{"android":"levelo://app?vid=0f4bb969-578d-459b-81b8-bdaba95d4fee","ios":"levelo://app?vid=0f4bb969-578d-459b-81b8-bdaba95d4fee"},"vehicle_type_id":"4","last_reported":1756342287,"current_range_meters":17200,"station_id":"cki0cbj6b192h4jlfktg","pricing_plan_id":"cebpf4jnsgd1na2vs0mg"},{"bike_id":"b43d7a83-48eb-4bc3-814f-5aeaa6724e9a","system_id":"levelo_inurba_marseille","lat":43.31369,"lon":5.38498,"is_reserved":false,"is_disabled":false,"rental_uris":{"android":"levelo://app?vid=b43d7a83-48eb-4bc3-814f-5aeaa6724e9a","ios":"levelo://app?vid=b43d7a83-48eb-4bc3-814f-5aeaa6724e9a"},"vehicle_type_id":"4","last_reported":1756342287,"current_range_meters":17600,"station_id":"ce4bgt92rcd13ifvqcf0","pricing_plan_id":"cebpf4jnsgd1na2vs0mg"},{"bike_id":"29c55d68-58c5-4ef2-b442-72bb9c55ddb0","system_id":"levelo_inurba_marseille","lat":43.32368,"lon":5.36723,"is_reserved":false,"is_disabled":false,"rental_uris":{"android":"levelo://app?vid=29c55d68-58c5-4ef2-b442-72bb9c55ddb0","ios":"levelo://app?vid=29c55d68-58c5-4ef2-b442-72bb9c55ddb0"},"vehicle_type_id":"4","last_reported":1756342287,"current_range_meters":17600,"station_id":"ce4bhsh2rcd13ifvqi2g","pricing_plan_id":"cebpf4jnsgd1na2vs0mg"},{"bike_id":"8cd383a6-fbd9-4809-9873-430c643e5314","system_id":"levelo_inurba_marseille","lat":43.24398,"lon":5.37053,"is_reserved":false,"is_disabled":false,"rental_uris":{"android":"levelo://app?vid=8cd383a6-fbd9-4809-9873-430c643e5314","ios":"levelo://app?vid=8cd383a6-fbd9-4809-9873-430c643e5314"},"vehicle_type_id":"4","last_reported":1756342287,"current_range_meters":17600,"station_id":"ce4bhhh2rcd13ifvqfk0","pricing_plan_id":"cebpf4jnsgd1na2vs0mg"},{"bike_id":"4c9c5e8f-e8ef-4293-bfce-8e0678777f42","system_id":"levelo_inurba_marseille","lat":43.29057,"lon":5.39971,"is_reserved":false,"is_disabled":false,"rental_uris":{"android":"levelo://app?vid=4c9c5e8f-e8ef-4293-bfce-8e0678777f42","ios":"levelo://app?vid=4c9c5e8f-e8ef-4293-bfce-8e0678777f42"},"vehicle_type_id":"4","last_reported":1756342287,"current_range_meters":17600,"station_id":"ce4bh392rcd13ifvqdm0","pricing_plan_id":"cebpf4jnsgd1na2vs0mg"},{"bike_id":"d4411ce1-1269-4134-adda-1eb61c16980f","system_id":"levelo_inurba_marseille","lat":43.28115,"lon":5.37824,"is_reserved":false,"is_disabled":true,"rental_uris":{"android":"levelo://app?vid=d4411ce1-1269-4134-adda-1eb61c16980f","ios":"levelo://app?vid=d4411ce1-1269-4134-adda-1eb61c16980f"},"vehicle_type_id":"4","last_reported":1756342287,"current_range_meters":18000,"station_id":"ce4bha12rcd13ifvqee0","pricing_plan_id":"cebpf4jnsgd1na2vs0mg"},{"bike_id":"5c71e373-97a3-4b9e-aa44-15d736b0d6c4","system_id":"levelo_inurba_marseille","lat":43.30294,"lon":5.39198,"is_reserved":false,"is_disabled":false,"rental_uris":{"android":"levelo://app?vid=5c71e373-97a3-4b9e-aa44-15d736b0d6c4","ios":"levelo://app?vid=5c71e373-97a3-4b9e-aa44-15d736b0d6c4"},"vehicle_type_id":"4","last_reported":1756342287,"current_range_meters":18000,"station_id":"ce4bgkh2rcd13ifvqbk0","pricing_plan_id":"cebpf4jnsgd1na2vs0mg"},{"bike_id":"731ff345-1377-45e9-acf9-0825f15b172a","system_id":"levelo_inurba_marseille","lat":43.22928,"lon":5.35381,"is_reserved":false,"is_disabled":false,"rental_uris":{"android":"levelo://app?vid=731ff345-1377-45e9-acf9-0825f15b172a","ios":"levelo://app?vid=731ff345-1377-45e9-acf9-0825f15b172a"},"vehicle_type_id":"4","last_reported":1756342287,"current_range_meters":18000,"station_id":"cpo3532slgdg3j2ikp40","pricing_plan_id":"cebpf4jnsgd1na2vs0mg"},{"bike_id":"4065efaf-7189-487d-b340-7559ec59c7d4","system_id":"levelo_inurba_marseille","lat":43.299919,"lon":5.371615,"is_reserved":false,"is_disabled":true,"rental_uris":{"android":"levelo://app?vid=4065efaf-7189-487d-b340-7559ec59c7d4","ios":"levelo://app?vid=4065efaf-7189-487d-b340-7559ec59c7d4"},"vehicle_type_id":"4","last_reported":1756342287,"current_range_meters":18000,"station_id":"ce4bgr92rcd13ifvqc7g","pricing_plan_id":"cebpf4jnsgd1na2vs0mg"},{"bike_id":"44c3e0a1-f0f1-44e3-8ad0-3a65a48f5329","system_id":"levelo_inurba_marseille","lat":43.28579,"lon":5.39485,"is_reserved":false,"is_disabled":false,"rental_uris":{"android":"levelo://app?vid=44c3e0a1-f0f1-44e3-8ad0-3a65a48f5329","ios":"levelo://app?vid=44c3e0a1-f0f1-44e3-8ad0-3a65a48f5329"},"vehicle_type_id":"4","last_reported":1756342287,"current_range_meters":18000,"station_id":"ce4bh292rcd13ifvqdg0","pricing_plan_id":"cebpf4jnsgd1na2vs0mg"},{"bike_id":"086fb8bd-6d0b-46ba-bd91-901ac277021b","system_id":"levelo_inurba_marseille","lat":43.269705,"lon":5.390362,"is_reserved":false,"is_disabled":false,"rental_uris":{"android":"levelo://app?vid=086fb8bd-6d0b-46ba-bd91-901ac277021b","ios":"levelo://app?vid=086fb8bd-6d0b-46ba-bd91-901ac277021b"},"vehicle_type_id":"4","last_reported":1756342287,"current_range_meters":18000,"station_id":"","pricing_plan_id":"cebpf4jnsgd1na2vs0mg"},{"bike_id":"0c3508f6-1b7b-4f6e-9680-e2f3f1eab143","system_id":"levelo_inurba_marseille","lat":43.30137,"lon":5.39861,"is_reserved":false,"is_disabled":false,"rental_uris":{"android":"levelo://app?vid=0c3508f6-1b7b-4f6e-9680-e2f3f1eab143","ios":"levelo://app?vid=0c3508f6-1b7b-4f6e-9680-e2f3f1eab143"},"vehicle_type_id":"4","last_reported":1756342287,"current_range_meters":18000,"station_id":"ce4bh0h2rcd13ifvqd40","pricing_plan_id":"cebpf4jnsgd1na2vs0mg"},{"bike_id":"fad509bb-f53b-44b6-a94f-044ddb828f7d","system_id":"levelo_inurba_marseille","lat":43.27064,"lon":5.40258,"is_reserved":false,"is_disabled":true,"rental_uris":{"android":"levelo://app?vid=fad509bb-f53b-44b6-a94f-044ddb828f7d","ios":"levelo://app?vid=fad509bb-f53b-44b6-a94f-044ddb828f7d"},"vehicle_type_id":"4","last_reported":1756342287,"current_range_meters":18000,"station_id":"cjm6bp8fraef2m0cb0m0","pricing_plan_id":"cebpf4jnsgd1na2vs0mg"},{"bike_id":"fb6a8521-484d-4352-b1eb-1592447f7f98","system_id":"levelo_inurba_marseille","lat":43.28437,"lon":5.35898,"is_reserved":false,"is_disabled":false,"rental_uris":{"android":"levelo://app?vid=fb6a8521-484d-4352-b1eb-1592447f7f98","ios":"levelo://app?vid=fb6a8521-484d-4352-b1eb-1592447f7f98"},"vehicle_type_id":"4","last_reported":1756342287,"current_range_meters":18000,"station_id":"ce4bhah2rcd13ifvqei0","pricing_plan_id":"cebpf4jnsgd1na2vs0mg"},{"bike_id":"d5b5907d-1d02-4eef-aa20-0746cf4d0eac","system_id":"levelo_inurba_marseille","lat":43.2894,"lon":5.36413,"is_reserved":false,"is_disabled":false,"rental_uris":{"android":"levelo://app?vid=d5b5907d-1d02-4eef-aa20-0746cf4d0eac","ios":"levelo://app?vid=d5b5907d-1d02-4eef-aa20-0746cf4d0eac"},"vehicle_type_id":"4","last_reported":1756342287,"current_range_meters":18000,"station_id":"ce4bhc92rcd13ifvqetg","pricing_plan_id":"cebpf4jnsgd1na2vs0mg"},{"bike_id":"888feb6a-0a42-486b-8d98-ecf3ac765de2","system_id":"levelo_inurba_marseille","lat":43.29988,"lon":5.37173,"is_reserved":false,"is_disabled":false,"rental_uris":{"android":"levelo://app?vid=888feb6a-0a42-486b-8d98-ecf3ac765de2","ios":"levelo://app?vid=888feb6a-0a42-486b-8d98-ecf3ac765de2"},"vehicle_type_id":"4","last_reported":1756342287,"current_range_meters":18000,"station_id":"ce4bgr92rcd13ifvqc7g","pricing_plan_id":"cebpf4jnsgd1na2vs0mg"},{"bike_id":"4db00c46-fd2c-4f92-af00-732ea18acab4","system_id":"levelo_inurba_marseille","lat":43.28109,"lon":5.378443,"is_reserved":false,"is_disabled":false,"rental_uris":{"android":"levelo://app?vid=4db00c46-fd2c-4f92-af00-732ea18acab4","ios":"levelo://app?vid=4db00c46-fd2c-4f92-af00-732ea18acab4"},"vehicle_type_id":"4","last_reported":1756342287,"current_range_meters":18000,"station_id":"ce4bha12rcd13ifvqee0","pricing_plan_id":"cebpf4jnsgd1na2vs0mg"},{"bike_id":"a66cf846-0eb4-49c2-a409-deac34f83121","system_id":"levelo_inurba_marseille","lat":43.29958,"lon":5.38497,"is_reserved":false,"is_disabled":true,"rental_uris":{"android":"levelo://app?vid=a66cf846-0eb4-49c2-a409-deac34f83121","ios":"levelo://app?vid=a66cf846-0eb4-49c2-a409-deac34f83121"},"vehicle_type_id":"4","last_reported":1756342287,"current_range_meters":18000,"station_id":"ce4bgj92rcd13ifvqbd0","pricing_plan_id":"cebpf4jnsgd1na2vs0mg"},{"bike_id":"79cbc755-377b-4ae0-b5de-02a92bc23c94","system_id":"levelo_inurba_marseille","lat":43.28417,"lon":5.37529,"is_reserved":false,"is_disabled":false,"rental_uris":{"android":"levelo://app?vid=79cbc755-377b-4ae0-b5de-02a92bc23c94","ios":"levelo://app?vid=79cbc755-377b-4ae0-b5de-02a92bc23c94"},"vehicle_type_id":"4","last_reported":1756342287,"current_range_meters":18800,"station_id":"ce4bh412rcd13ifvqds0","pricing_plan_id":"cebpf4jnsgd1na2vs0mg"},{"bike_id":"d535bf59-462f-46ae-b9fb-52bfa64316d1","system_id":"levelo_inurba_marseille","lat":43.24175,"lon":5.39731,"is_reserved":false,"is_disabled":false,"rental_uris":{"android":"levelo://app?vid=d535bf59-462f-46ae-b9fb-52bfa64316d1","ios":"levelo://app?vid=d535bf59-462f-46ae-b9fb-52bfa64316d1"},"vehicle_type_id":"4","last_reported":1756342287,"current_range_meters":18800,"station_id":"ce4bhn12rcd13ifvqgpg","pricing_plan_id":"cebpf4jnsgd1na2vs0mg"},{"bike_id":"4fbce97f-acb9-4c6a-8eb5-11735db2ebfe","system_id":"levelo_inurba_marseille","lat":43.28213,"lon":5.39053,"is_reserved":false,"is_disabled":false,"rental_uris":{"android":"levelo://app?vid=4fbce97f-acb9-4c6a-8eb5-11735db2ebfe","ios":"levelo://app?vid=4fbce97f-acb9-4c6a-8eb5-11735db2ebfe"},"vehicle_type_id":"4","last_reported":1756342287,"current_range_meters":18800,"station_id":"ce4bhn92rcd13ifvqgsg","pricing_plan_id":"cebpf4jnsgd1na2vs0mg"},{"bike_id":"9c8400d3-bf6a-452a-a361-cb727e9c5324","system_id":"levelo_inurba_marseille","lat":43.292509,"lon":5.371315,"is_reserved":false,"is_disabled":false,"rental_uris":{"android":"levelo://app?vid=9c8400d3-bf6a-452a-a361-cb727e9c5324","ios":"levelo://app?vid=9c8400d3-bf6a-452a-a361-cb727e9c5324"},"vehicle_type_id":"4","last_reported":1756342287,"current_range_meters":18800,"station_id":"","pricing_plan_id":"cebpf4jnsgd1na2vs0mg"},{"bike_id":"db886a6e-1dd7-4ad6-80af-762275a5c8b0","system_id":"levelo_inurba_marseille","lat":43.2792,"lon":5.41014,"is_reserved":false,"is_disabled":false,"rental_uris":{"android":"levelo://app?vid=db886a6e-1dd7-4ad6-80af-762275a5c8b0","ios":"levelo://app?vid=db886a6e-1dd7-4ad6-80af-762275a5c8b0"},"vehicle_type_id":"4","last_reported":1756342287,"current_range_meters":18800,"station_id":"ce4bhnp2rcd13ifvqh0g","pricing_plan_id":"cebpf4jnsgd1na2vs0mg"},{"bike_id":"62a8c0bf-06af-44b2-acbd-3e96055782c5","system_id":"levelo_inurba_marseille","lat":43.23065,"lon":5.355,"is_reserved":false,"is_disabled":false,"rental_uris":{"android":"levelo://app?vid=62a8c0bf-06af-44b2-acbd-3e96055782c5","ios":"levelo://app?vid=62a8c0bf-06af-44b2-acbd-3e96055782c5"},"vehicle_type_id":"4","last_reported":1756342287,"current_range_meters":18800,"station_id":"cpo3342slgdg3j2ifvpg","pricing_plan_id":"cebpf4jnsgd1na2vs0mg"},{"bike_id":"8b29b749-bc81-4c76-9fbe-41a119eee602","system_id":"levelo_inurba_marseille","lat":43.29042,"lon":5.39941,"is_reserved":false,"is_disabled":true,"rental_uris":{"android":"levelo://app?vid=8b29b749-bc81-4c76-9fbe-41a119eee602","ios":"levelo://app?vid=8b29b749-bc81-4c76-9fbe-41a119eee602"},"vehicle_type_id":"4","last_reported":1756342287,"current_range_meters":18800,"station_id":"ce4bh392rcd13ifvqdm0","pricing_plan_id":"cebpf4jnsgd1na2vs0mg"},{"bike_id":"bd9a734c-0498-4639-a49e-8c272d88d418","system_id":"levelo_inurba_marseille","lat":43.28872,"lon":5.39296,"is_reserved":false,"is_disabled":false,"rental_uris":{"android":"levelo://app?vid=bd9a734c-0498-4639-a49e-8c272d88d418","ios":"levelo://app?vid=bd9a734c-0498-4639-a49e-8c272d88d418"},"vehicle_type_id":"4","last_reported":1756342287,"current_range_meters":18800,"station_id":"ce4bh2p2rcd13ifvqdi0","pricing_plan_id":"cebpf4jnsgd1na2vs0mg"},{"bike_id":"4d6f874e-bcf0-4679-a5b6-b337bf3488b1","system_id":"levelo_inurba_marseille","lat":43.3021,"lon":5.39465,"is_reserved":false,"is_disabled":false,"rental_uris":{"android":"levelo://app?vid=4d6f874e-bcf0-4679-a5b6-b337bf3488b1","ios":"levelo://app?vid=4d6f874e-bcf0-4679-a5b6-b337bf3488b1"},"vehicle_type_id":"4","last_reported":1756342287,"current_range_meters":18800,"station_id":"ce4bh0p2rcd13ifvqd70","pricing_plan_id":"cebpf4jnsgd1na2vs0mg"},{"bike_id":"42515969-df58-4bc3-81b4-d2c5b3092781","system_id":"levelo_inurba_marseille","lat":43.277224,"lon":5.420027,"is_reserved":false,"is_disabled":false,"rental_uris":{"android":"levelo://app?vid=42515969-df58-4bc3-81b4-d2c5b3092781","ios":"levelo://app?vid=42515969-df58-4bc3-81b4-d2c5b3092781"},"vehicle_type_id":"4","last_reported":1756342287,"current_range_meters":19200,"station_id":"","pricing_plan_id":"cebpf4jnsgd1na2vs0mg"},{"bike_id":"2592d48e-4f91-4661-a841-16b2ce57828c","system_id":"levelo_inurba_marseille","lat":43.24241,"lon":5.38724,"is_reserved":false,"is_disabled":false,"rental_uris":{"android":"levelo://app?vid=2592d48e-4f91-4661-a841-16b2ce57828c","ios":"levelo://app?vid=2592d48e-4f91-4661-a841-16b2ce57828c"},"vehicle_type_id":"4","last_reported":1756342287,"current_range_meters":19200,"station_id":"","pricing_plan_id":"cebpf4jnsgd1na2vs0mg"},{"bike_id":"491a51e4-1469-463f-b9cc-ff15d2c85312","system_id":"levelo_inurba_marseille","lat":43.295042,"lon":5.385584,"is_reserved":false,"is_disabled":true,"rental_uris":{"android":"levelo://app?vid=491a51e4-1469-463f-b9cc-ff15d2c85312","ios":"levelo://app?vid=491a51e4-1469-463f-b9cc-ff15d2c85312"},"vehicle_type_id":"4","last_reported":1756342287,"current_range_meters":19200,"station_id":"ce4bgih2rcd13ifvqba0","pricing_plan_id":"cebpf4jnsgd1na2vs0mg"},{"bike_id":"5f88072b-3bfe-462f-a9c6-77f22decbf49","system_id":"levelo_inurba_marseille","lat":43.30316,"lon":5.36877,"is_reserved":false,"is_disabled":false,"rental_uris":{"android":"levelo://app?vid=5f88072b-3bfe-462f-a9c6-77f22decbf49","ios":"levelo://app?vid=5f88072b-3bfe-462f-a9c6-77f22decbf49"},"vehicle_type_id":"4","last_reported":1756342287,"current_range_meters":19200,"station_id":"ce4bgqh2rcd13ifvqc5g","pricing_plan_id":"cebpf4jnsgd1na2vs0mg"},{"bike_id":"06669016-cd47-459f-9dbc-b8f7fe75d379","system_id":"levelo_inurba_marseille","lat":43.32277,"lon":5.38271,"is_reserved":false,"is_disabled":false,"rental_uris":{"android":"levelo://app?vid=06669016-cd47-459f-9dbc-b8f7fe75d379","ios":"levelo://app?vid=06669016-cd47-459f-9dbc-b8f7fe75d379"},"vehicle_type_id":"4","last_reported":1756342287,"current_range_meters":19200,"station_id":"ce4bhr12rcd13ifvqhqg","pricing_plan_id":"cebpf4jnsgd1na2vs0mg"},{"bike_id":"01e0144f-d91d-4733-a878-5b6dbd99102f","system_id":"levelo_inurba_marseille","lat":43.28713,"lon":5.39976,"is_reserved":false,"is_disabled":false,"rental_uris":{"android":"levelo://app?vid=01e0144f-d91d-4733-a878-5b6dbd99102f","ios":"levelo://app?vid=01e0144f-d91d-4733-a878-5b6dbd99102f"},"vehicle_type_id":"4","last_reported":1756342287,"current_range_meters":19200,"station_id":"ce4bho92rcd13ifvqh3g","pricing_plan_id":"cebpf4jnsgd1na2vs0mg"},{"bike_id":"89f42997-cba2-42ca-8470-bfb8f54fa2a2","system_id":"levelo_inurba_marseille","lat":43.29916,"lon":5.38527,"is_reserved":false,"is_disabled":false,"rental_uris":{"android":"levelo://app?vid=89f42997-cba2-42ca-8470-bfb8f54fa2a2","ios":"levelo://app?vid=89f42997-cba2-42ca-8470-bfb8f54fa2a2"},"vehicle_type_id":"4","last_reported":1756342287,"current_range_meters":19200,"station_id":"","pricing_plan_id":"cebpf4jnsgd1na2vs0mg"},{"bike_id":"3d14d85f-1bc8-43df-8ea9-56d585eef156","system_id":"levelo_inurba_marseille","lat":43.23968,"lon":5.36633,"is_reserved":false,"is_disabled":false,"rental_uris":{"android":"levelo://app?vid=3d14d85f-1bc8-43df-8ea9-56d585eef156","ios":"levelo://app?vid=3d14d85f-1bc8-43df-8ea9-56d585eef156"},"vehicle_type_id":"4","last_reported":1756342287,"current_range_meters":19200,"station_id":"ce4bhi12rcd13ifvqfp0","pricing_plan_id":"cebpf4jnsgd1na2vs0mg"},{"bike_id":"c8ed8afa-4750-4d5e-b29e-7da3cd8f4dc7","system_id":"levelo_inurba_marseille","lat":43.32366,"lon":5.36731,"is_reserved":false,"is_disabled":false,"rental_uris":{"android":"levelo://app?vid=c8ed8afa-4750-4d5e-b29e-7da3cd8f4dc7","ios":"levelo://app?vid=c8ed8afa-4750-4d5e-b29e-7da3cd8f4dc7"},"vehicle_type_id":"4","last_reported":1756342287,"current_range_meters":19200,"station_id":"ce4bhsh2rcd13ifvqi2g","pricing_plan_id":"cebpf4jnsgd1na2vs0mg"},{"bike_id":"b7f5d4fc-8af5-442f-b471-e28f343fd67e","system_id":"levelo_inurba_marseille","lat":43.3376,"lon":5.37475,"is_reserved":false,"is_disabled":false,"rental_uris":{"android":"levelo://app?vid=b7f5d4fc-8af5-442f-b471-e28f343fd67e","ios":"levelo://app?vid=b7f5d4fc-8af5-442f-b471-e28f343fd67e"},"vehicle_type_id":"4","last_reported":1756342287,"current_range_meters":19200,"station_id":"","pricing_plan_id":"cebpf4jnsgd1na2vs0mg"},{"bike_id":"629279d5-1d26-4cb0-9c4e-578c5e0532a9","system_id":"levelo_inurba_marseille","lat":43.30643,"lon":5.401,"is_reserved":false,"is_disabled":false,"rental_uris":{"android":"levelo://app?vid=629279d5-1d26-4cb0-9c4e-578c5e0532a9","ios":"levelo://app?vid=629279d5-1d26-4cb0-9c4e-578c5e0532a9"},"vehicle_type_id":"4","last_reported":1756342287,"current_range_meters":19600,"station_id":"ce4bh112rcd13ifvqda0","pricing_plan_id":"cebpf4jnsgd1na2vs0mg"},{"bike_id":"be68fb56-5feb-4e9b-9ccf-efd163b9d34b","system_id":"levelo_inurba_marseille","lat":43.28198,"lon":5.39034,"is_reserved":false,"is_disabled":false,"rental_uris":{"android":"levelo://app?vid=be68fb56-5feb-4e9b-9ccf-efd163b9d34b","ios":"levelo://app?vid=be68fb56-5feb-4e9b-9ccf-efd163b9d34b"},"vehicle_type_id":"4","last_reported":1756342287,"current_range_meters":19600,"station_id":"ce4bhn92rcd13ifvqgsg","pricing_plan_id":"cebpf4jnsgd1na2vs0mg"},{"bike_id":"ed0dfa2f-17c5-424f-a792-68ad259de0ca","system_id":"levelo_inurba_marseille","lat":43.31121,"lon":5.37753,"is_reserved":false,"is_disabled":false,"rental_uris":{"android":"levelo://app?vid=ed0dfa2f-17c5-424f-a792-68ad259de0ca","ios":"levelo://app?vid=ed0dfa2f-17c5-424f-a792-68ad259de0ca"},"vehicle_type_id":"4","last_reported":1756342287,"current_range_meters":19600,"station_id":"ce4bgt92rcd13ifvqcg0","pricing_plan_id":"cebpf4jnsgd1na2vs0mg"},{"bike_id":"9ba3c40d-f445-4b4a-8dba-e609f878b52b","system_id":"levelo_inurba_marseille","lat":43.295346,"lon":5.385597,"is_reserved":false,"is_disabled":false,"rental_uris":{"android":"levelo://app?vid=9ba3c40d-f445-4b4a-8dba-e609f878b52b","ios":"levelo://app?vid=9ba3c40d-f445-4b4a-8dba-e609f878b52b"},"vehicle_type_id":"4","last_reported":1756342287,"current_range_meters":19600,"station_id":"","pricing_plan_id":"cebpf4jnsgd1na2vs0mg"},{"bike_id":"8d86e82e-f0ad-4fc8-af5b-5787d176b397","system_id":"levelo_inurba_marseille","lat":43.30654,"lon":5.40064,"is_reserved":false,"is_disabled":false,"rental_uris":{"android":"levelo://app?vid=8d86e82e-f0ad-4fc8-af5b-5787d176b397","ios":"levelo://app?vid=8d86e82e-f0ad-4fc8-af5b-5787d176b397"},"vehicle_type_id":"4","last_reported":1756342287,"current_range_meters":19600,"station_id":"ce4bh112rcd13ifvqda0","pricing_plan_id":"cebpf4jnsgd1na2vs0mg"},{"bike_id":"37a599c4-f0bd-4f3b-a34e-473e9bfc60d5","system_id":"levelo_inurba_marseille","lat":43.287218,"lon":5.36087,"is_reserved":false,"is_disabled":false,"rental_uris":{"android":"levelo://app?vid=37a599c4-f0bd-4f3b-a34e-473e9bfc60d5","ios":"levelo://app?vid=37a599c4-f0bd-4f3b-a34e-473e9bfc60d5"},"vehicle_type_id":"4","last_reported":1756342287,"current_range_meters":19600,"station_id":"cki0cbj6b192h4jlfktg","pricing_plan_id":"cebpf4jnsgd1na2vs0mg"},{"bike_id":"406a76fb-f25a-4097-85cc-acfe0be4d64b","system_id":"levelo_inurba_marseille","lat":43.3117,"lon":5.38717,"is_reserved":false,"is_disabled":false,"rental_uris":{"android":"levelo://app?vid=406a76fb-f25a-4097-85cc-acfe0be4d64b","ios":"levelo://app?vid=406a76fb-f25a-4097-85cc-acfe0be4d64b"},"vehicle_type_id":"4","last_reported":1756342287,"current_range_meters":19600,"station_id":"ce4bgv12rcd13ifvqcp0","pricing_plan_id":"cebpf4jnsgd1na2vs0mg"},{"bike_id":"38a32b4a-4f95-48c0-aeac-30a814a6510d","system_id":"levelo_inurba_marseille","lat":43.28419,"lon":5.37523,"is_reserved":false,"is_disabled":false,"rental_uris":{"android":"levelo://app?vid=38a32b4a-4f95-48c0-aeac-30a814a6510d","ios":"levelo://app?vid=38a32b4a-4f95-48c0-aeac-30a814a6510d"},"vehicle_type_id":"4","last_reported":1756342287,"current_range_meters":19600,"station_id":"ce4bh412rcd13ifvqds0","pricing_plan_id":"cebpf4jnsgd1na2vs0mg"},{"bike_id":"8a3d08a4-6e22-43fc-a3af-efea32020201","system_id":"levelo_inurba_marseille","lat":43.32366,"lon":5.36735,"is_reserved":false,"is_disabled":false,"rental_uris":{"android":"levelo://app?vid=8a3d08a4-6e22-43fc-a3af-efea32020201","ios":"levelo://app?vid=8a3d08a4-6e22-43fc-a3af-efea32020201"},"vehicle_type_id":"4","last_reported":1756342287,"current_range_meters":19600,"station_id":"ce4bhsh2rcd13ifvqi2g","pricing_plan_id":"cebpf4jnsgd1na2vs0mg"},{"bike_id":"a3e4ee41-5175-47da-ad6e-4c5ae3eb42d9","system_id":"levelo_inurba_marseille","lat":43.211925,"lon":5.350713,"is_reserved":false,"is_disabled":false,"rental_uris":{"android":"levelo://app?vid=a3e4ee41-5175-47da-ad6e-4c5ae3eb42d9","ios":"levelo://app?vid=a3e4ee41-5175-47da-ad6e-4c5ae3eb42d9"},"vehicle_type_id":"4","last_reported":1756342287,"current_range_meters":19600,"station_id":"st_cvj6sg6p6f1abm77japg","pricing_plan_id":"cebpf4jnsgd1na2vs0mg"},{"bike_id":"96bad607-0a18-4892-af5b-e3ae9d74d97b","system_id":"levelo_inurba_marseille","lat":43.23081,"lon":5.35479,"is_reserved":false,"is_disabled":false,"rental_uris":{"android":"levelo://app?vid=96bad607-0a18-4892-af5b-e3ae9d74d97b","ios":"levelo://app?vid=96bad607-0a18-4892-af5b-e3ae9d74d97b"},"vehicle_type_id":"4","last_reported":1756342287,"current_range_meters":20000,"station_id":"cpo3342slgdg3j2ifvpg","pricing_plan_id":"cebpf4jnsgd1na2vs0mg"},{"bike_id":"764e5c33-34d3-4729-9871-6b92da99894f","system_id":"levelo_inurba_marseille","lat":43.28109,"lon":5.37827,"is_reserved":false,"is_disabled":false,"rental_uris":{"android":"levelo://app?vid=764e5c33-34d3-4729-9871-6b92da99894f","ios":"levelo://app?vid=764e5c33-34d3-4729-9871-6b92da99894f"},"vehicle_type_id":"4","last_reported":1756342287,"current_range_meters":20000,"station_id":"ce4bha12rcd13ifvqee0","pricing_plan_id":"cebpf4jnsgd1na2vs0mg"},{"bike_id":"cc605096-5180-4716-aed8-ea9a188e2624","system_id":"levelo_inurba_marseille","lat":43.27913,"lon":5.39573,"is_reserved":false,"is_disabled":false,"rental_uris":{"android":"levelo://app?vid=cc605096-5180-4716-aed8-ea9a188e2624","ios":"levelo://app?vid=cc605096-5180-4716-aed8-ea9a188e2624"},"vehicle_type_id":"4","last_reported":1756342287,"current_range_meters":20000,"station_id":"ce4bhf92rcd13ifvqf40","pricing_plan_id":"cebpf4jnsgd1na2vs0mg"},{"bike_id":"3d5aa2e5-19b6-4546-9f2c-20c48df2b60d","system_id":"levelo_inurba_marseille","lat":43.25956,"lon":5.41374,"is_reserved":false,"is_disabled":false,"rental_uris":{"android":"levelo://app?vid=3d5aa2e5-19b6-4546-9f2c-20c48df2b60d","ios":"levelo://app?vid=3d5aa2e5-19b6-4546-9f2c-20c48df2b60d"},"vehicle_type_id":"4","last_reported":1756342287,"current_range_meters":20000,"station_id":"","pricing_plan_id":"cebpf4jnsgd1na2vs0mg"},{"bike_id":"aecefe84-afe2-4dc5-be5b-719995a8c9da","system_id":"levelo_inurba_marseille","lat":43.31889,"lon":5.39418,"is_reserved":false,"is_disabled":false,"rental_uris":{"android":"levelo://app?vid=aecefe84-afe2-4dc5-be5b-719995a8c9da","ios":"levelo://app?vid=aecefe84-afe2-4dc5-be5b-719995a8c9da"},"vehicle_type_id":"4","last_reported":1756342287,"current_range_meters":20000,"station_id":"ce4bho12rcd13ifvqh1g","pricing_plan_id":"cebpf4jnsgd1na2vs0mg"},{"bike_id":"7b1b67ce-ec3a-4306-99ef-9044c3533e21","system_id":"levelo_inurba_marseille","lat":43.23143,"lon":5.43705,"is_reserved":false,"is_disabled":false,"rental_uris":{"android":"levelo://app?vid=7b1b67ce-ec3a-4306-99ef-9044c3533e21","ios":"levelo://app?vid=7b1b67ce-ec3a-4306-99ef-9044c3533e21"},"vehicle_type_id":"4","last_reported":1756342287,"current_range_meters":20000,"station_id":"ce4bhmp2rcd13ifvqgog","pricing_plan_id":"cebpf4jnsgd1na2vs0mg"},{"bike_id":"a105b77d-2efb-4159-9821-8cb9fb53320e","system_id":"levelo_inurba_marseille","lat":43.23179,"lon":5.40003,"is_reserved":false,"is_disabled":false,"rental_uris":{"android":"levelo://app?vid=a105b77d-2efb-4159-9821-8cb9fb53320e","ios":"levelo://app?vid=a105b77d-2efb-4159-9821-8cb9fb53320e"},"vehicle_type_id":"4","last_reported":1756342287,"current_range_meters":20000,"station_id":"ce4bhn12rcd13ifvqgqg","pricing_plan_id":"cebpf4jnsgd1na2vs0mg"},{"bike_id":"f0384fbb-6485-4c18-9cc5-2fe16aa6e603","system_id":"levelo_inurba_marseille","lat":43.241708,"lon":5.363935,"is_reserved":false,"is_disabled":false,"rental_uris":{"android":"levelo://app?vid=f0384fbb-6485-4c18-9cc5-2fe16aa6e603","ios":"levelo://app?vid=f0384fbb-6485-4c18-9cc5-2fe16aa6e603"},"vehicle_type_id":"4","last_reported":1756342287,"current_range_meters":20000,"station_id":"cpo36qri1sfpv3e86is0","pricing_plan_id":"cebpf4jnsgd1na2vs0mg"},{"bike_id":"a2df076d-3480-4d63-9761-0d92c65bd187","system_id":"levelo_inurba_marseille","lat":43.29783,"lon":5.39347,"is_reserved":false,"is_disabled":false,"rental_uris":{"android":"levelo://app?vid=a2df076d-3480-4d63-9761-0d92c65bd187","ios":"levelo://app?vid=a2df076d-3480-4d63-9761-0d92c65bd187"},"vehicle_type_id":"4","last_reported":1756342287,"current_range_meters":19600,"station_id":"chh1huq6cuj3fo74tm60","pricing_plan_id":"cebpf4jnsgd1na2vs0mg"},{"bike_id":"cf5f8fb6-5d80-461f-a4f9-acc1c9666f13","system_id":"levelo_inurba_marseille","lat":43.29196,"lon":5.39324,"is_reserved":false,"is_disabled":false,"rental_uris":{"android":"levelo://app?vid=cf5f8fb6-5d80-461f-a4f9-acc1c9666f13","ios":"levelo://app?vid=cf5f8fb6-5d80-461f-a4f9-acc1c9666f13"},"vehicle_type_id":"4","last_reported":1756342287,"current_range_meters":20000,"station_id":"ce4bh192rcd13ifvqdd0","pricing_plan_id":"cebpf4jnsgd1na2vs0mg"},{"bike_id":"b4c83a61-63eb-4c1b-aabc-26ec8a3306b8","system_id":"levelo_inurba_marseille","lat":43.32196,"lon":5.38745,"is_reserved":false,"is_disabled":false,"rental_uris":{"android":"levelo://app?vid=b4c83a61-63eb-4c1b-aabc-26ec8a3306b8","ios":"levelo://app?vid=b4c83a61-63eb-4c1b-aabc-26ec8a3306b8"},"vehicle_type_id":"4","last_reported":1756342287,"current_range_meters":20000,"station_id":"","pricing_plan_id":"cebpf4jnsgd1na2vs0mg"},{"bike_id":"5c521629-f807-425a-bcbb-c3e99fd6e4e1","system_id":"levelo_inurba_marseille","lat":43.25111,"lon":5.40323,"is_reserved":false,"is_disabled":false,"rental_uris":{"android":"levelo://app?vid=5c521629-f807-425a-bcbb-c3e99fd6e4e1","ios":"levelo://app?vid=5c521629-f807-425a-bcbb-c3e99fd6e4e1"},"vehicle_type_id":"4","last_reported":1756342287,"current_range_meters":20400,"station_id":"ce4bhlh2rcd13ifvqgig","pricing_plan_id":"cebpf4jnsgd1na2vs0mg"},{"bike_id":"160c7a2c-b270-43d7-aaad-cdf122372ee9","system_id":"levelo_inurba_marseille","lat":43.28455,"lon":5.35882,"is_reserved":false,"is_disabled":false,"rental_uris":{"android":"levelo://app?vid=160c7a2c-b270-43d7-aaad-cdf122372ee9","ios":"levelo://app?vid=160c7a2c-b270-43d7-aaad-cdf122372ee9"},"vehicle_type_id":"4","last_reported":1756342287,"current_range_meters":20400,"station_id":"ce4bhah2rcd13ifvqei0","pricing_plan_id":"cebpf4jnsgd1na2vs0mg"},{"bike_id":"9bee6c81-bef5-4109-894d-a231db231dd9","system_id":"levelo_inurba_marseille","lat":43.310598,"lon":5.383647,"is_reserved":false,"is_disabled":false,"rental_uris":{"android":"levelo://app?vid=9bee6c81-bef5-4109-894d-a231db231dd9","ios":"levelo://app?vid=9bee6c81-bef5-4109-894d-a231db231dd9"},"vehicle_type_id":"4","last_reported":1756342287,"current_range_meters":20400,"station_id":"ce4bgv92rcd13ifvqcr0","pricing_plan_id":"cebpf4jnsgd1na2vs0mg"},{"bike_id":"e36ac928-4535-4c0a-9fee-0953be656982","system_id":"levelo_inurba_marseille","lat":43.30807,"lon":5.38137,"is_reserved":false,"is_disabled":false,"rental_uris":{"android":"levelo://app?vid=e36ac928-4535-4c0a-9fee-0953be656982","ios":"levelo://app?vid=e36ac928-4535-4c0a-9fee-0953be656982"},"vehicle_type_id":"4","last_reported":1756342287,"current_range_meters":20400,"station_id":"ce4bgt12rcd13ifvqce0","pricing_plan_id":"cebpf4jnsgd1na2vs0mg"},{"bike_id":"a4f07014-56ad-4afc-aa41-8abab8cd5027","system_id":"levelo_inurba_marseille","lat":43.29597,"lon":5.3809,"is_reserved":false,"is_disabled":false,"rental_uris":{"android":"levelo://app?vid=a4f07014-56ad-4afc-aa41-8abab8cd5027","ios":"levelo://app?vid=a4f07014-56ad-4afc-aa41-8abab8cd5027"},"vehicle_type_id":"4","last_reported":1756342287,"current_range_meters":20400,"station_id":"ce4bgl12rcd13ifvqbo0","pricing_plan_id":"cebpf4jnsgd1na2vs0mg"},{"bike_id":"d24009cf-877a-4428-85f7-10de288030d3","system_id":"levelo_inurba_marseille","lat":43.26016,"lon":5.37539,"is_reserved":false,"is_disabled":false,"rental_uris":{"android":"levelo://app?vid=d24009cf-877a-4428-85f7-10de288030d3","ios":"levelo://app?vid=d24009cf-877a-4428-85f7-10de288030d3"},"vehicle_type_id":"4","last_reported":1756342287,"current_range_meters":20400,"station_id":"","pricing_plan_id":"cebpf4jnsgd1na2vs0mg"},{"bike_id":"8d7fa911-a053-4caf-8651-c5a27c9f4ddf","system_id":"levelo_inurba_marseille","lat":43.30547,"lon":5.36704,"is_reserved":false,"is_disabled":false,"rental_uris":{"android":"levelo://app?vid=8d7fa911-a053-4caf-8651-c5a27c9f4ddf","ios":"levelo://app?vid=8d7fa911-a053-4caf-8651-c5a27c9f4ddf"},"vehicle_type_id":"4","last_reported":1756342287,"current_range_meters":20400,"station_id":"ce4bgrp2rcd13ifvqc9g","pricing_plan_id":"cebpf4jnsgd1na2vs0mg"},{"bike_id":"6ce208cc-7877-4168-a5a1-9ef7d1a760ce","system_id":"levelo_inurba_marseille","lat":43.289353,"lon":5.363979,"is_reserved":false,"is_disabled":false,"rental_uris":{"android":"levelo://app?vid=6ce208cc-7877-4168-a5a1-9ef7d1a760ce","ios":"levelo://app?vid=6ce208cc-7877-4168-a5a1-9ef7d1a760ce"},"vehicle_type_id":"4","last_reported":1756342287,"current_range_meters":20400,"station_id":"ce4bhc92rcd13ifvqetg","pricing_plan_id":"cebpf4jnsgd1na2vs0mg"},{"bike_id":"3b12bc8e-850d-426b-9fe5-d4e33b5086b0","system_id":"levelo_inurba_marseille","lat":43.28951,"lon":5.36366,"is_reserved":false,"is_disabled":false,"rental_uris":{"android":"levelo://app?vid=3b12bc8e-850d-426b-9fe5-d4e33b5086b0","ios":"levelo://app?vid=3b12bc8e-850d-426b-9fe5-d4e33b5086b0"},"vehicle_type_id":"4","last_reported":1756342287,"current_range_meters":20400,"station_id":"ce4bhc92rcd13ifvqetg","pricing_plan_id":"cebpf4jnsgd1na2vs0mg"},{"bike_id":"295b5131-2ce7-4504-997b-819bd8cd05de","system_id":"levelo_inurba_marseille","lat":43.24075,"lon":5.37773,"is_reserved":false,"is_disabled":false,"rental_uris":{"android":"levelo://app?vid=295b5131-2ce7-4504-997b-819bd8cd05de","ios":"levelo://app?vid=295b5131-2ce7-4504-997b-819bd8cd05de"},"vehicle_type_id":"4","last_reported":1756342287,"current_range_meters":20400,"station_id":"ce4bhnp2rcd13ifvqgvg","pricing_plan_id":"cebpf4jnsgd1na2vs0mg"},{"bike_id":"2be27af2-3046-497e-8c06-a87c1462f737","system_id":"levelo_inurba_marseille","lat":43.29538,"lon":5.38519,"is_reserved":false,"is_disabled":true,"rental_uris":{"android":"levelo://app?vid=2be27af2-3046-497e-8c06-a87c1462f737","ios":"levelo://app?vid=2be27af2-3046-497e-8c06-a87c1462f737"},"vehicle_type_id":"4","last_reported":1756342287,"current_range_meters":20400,"station_id":"ce4bgih2rcd13ifvqba0","pricing_plan_id":"cebpf4jnsgd1na2vs0mg"},