{"last_updated":1721747349,"ttl":30,"version":"2.2","data":{"bikes":[{"bike_id":"a2610bec-28cf-4e46-bfa7-b619ea248969","system_id":"levelo_inurba_marseille","lat":43.31257,"lon":5.36767,"is_reserved":false,"is_disabled":false,"rental_uris":{"android":"levelo://app?vid=a2610bec-28cf-4e46-bfa7-b619ea248969","ios":"levelo://app?vid=a2610bec-28cf-4e46-bfa7-b619ea248969"},"vehicle_type_id":"4","last_reported":1721747349,"current_range_meters":6800,"station_id":"","pricing_plan_id":"cebpf4jnsgd1na2vs0mg"},{"bike_id":"d519c35f-e90d-4f3e-8f67-0745444e4e42","system_id":"levelo_inurba_marseille","lat":43.31347,"lon":5.36708,"is_reserved":false,"is_disabled":false,"rental_uris":{"android":"levelo://app?vid=d519c35f-e90d-4f3e-8f67-0745444e4e42","ios":"levelo://app?vid=d519c35f-e90d-4f3e-8f67-0745444e4e42"},"vehicle_type_id":"4","last_reported":1721747349,"current_range_meters":0,"station_id":"ce4bgr92rcd13ifvqc6g","pricing_plan_id":"cebpf4jnsgd1na2vs0mg"},{"bike_id":"9f40b536-3022-401c-a853-dc7b687abdd1","system_id":"levelo_inurba_marseille","lat":43.31358,"lon":5.36712,"is_reserved":false,"is_disabled":false,"rental_uris":{"android":"levelo://app?vid=9f40b536-3022-401c-a853-dc7b687abdd1","ios":"levelo://app?vid=9f40b536-3022-401c-a853-dc7b687abdd1"},"vehicle_type_id":"4","last_reported":1721747349,"current_range_meters":0,"station_id":"ce4bgr92rcd13ifvqc6g","pricing_plan_id":"cebpf4jnsgd1na2vs0mg"},{"bike_id":"ff0b9ce8-9eb1-4675-825e-34546a4feb67","system_id":"levelo_inurba_marseille","lat":43.313595,"lon":5.367072,"is_reserved":false,"is_disabled":false,"rental_uris":{"android":"levelo://app?vid=ff0b9ce8-9eb1-4675-825e-34546a4feb67","ios":"levelo://app?vid=ff0b9ce8-9eb1-4675-825e-34546a4feb67"},"vehicle_type_id":"4","last_reported":1721747349,"current_range_meters":18800,"station_id":"ce4bgr92rcd13ifvqc6g","pricing_plan_id":"cebpf4jnsgd1na2vs0mg"},{"bike_id":"8fe495bb-bacf-463a-8fec-f87195e625fe","system_id":"levelo_inurba_marseille","lat":43.31212,"lon":5.36851,"is_reserved":false,"is_disabled":false,"rental_uris":{"android":"levelo://app?vid=8fe495bb-bacf-463a-8fec-f87195e625fe","ios":"levelo://app?vid=8fe495bb-bacf-463a-8fec-f87195e625fe"},"vehicle_type_id":"4","last_reported":1721747349,"current_range_meters":18000,"station_id":"ce4bgl92rcd13ifvqbq0","pricing_plan_id":"cebpf4jnsgd1na2vs0mg"},{"bike_id":"6d3e4329-6381-405d-a843-fe935646db27","system_id":"levelo_inurba_marseille","lat":43.31218,"lon":5.36856,"is_reserved":false,"is_disabled":false,"rental_uris":{"android":"levelo://app?vid=6d3e4329-6381-405d-a843-fe935646db27","ios":"levelo://app?vid=6d3e4329-6381-405d-a843-fe935646db27"},"vehicle_type_id":"4","last_reported":1721747349,"current_range_meters":17200,"station_id":"ce4bgl92rcd13ifvqbq0","pricing_plan_id":"cebpf4jnsgd1na2vs0mg"},{"bike_id":"034e6545-dbba-4e3d-a76d-f23d2ebe04df","system_id":"levelo_inurba_marseille","lat":43.314811,"lon":5.373103,"is_reserved":false,"is_disabled":false,"rental_uris":{"android":"levelo://app?vid=034e6545-dbba-4e3d-a76d-f23d2ebe04df","ios":"levelo://app?vid=034e6545-dbba-4e3d-a76d-f23d2ebe04df"},"vehicle_type_id":"4","last_reported":1721747349,"current_range_meters":0,"station_id":"ce4bgt12rcd13ifvqcd0","pricing_plan_id":"cebpf4jnsgd1na2vs0mg"},{"bike_id":"42649603-1ec1-4871-b13c-ef9d7e21e622","system_id":"levelo_inurba_marseille","lat":43.309034,"lon":5.371783,"is_reserved":false,"is_disabled":false,"rental_uris":{"android":"levelo://app?vid=42649603-1ec1-4871-b13c-ef9d7e21e622","ios":"levelo://app?vid=42649603-1ec1-4871-b13c-ef9d7e21e622"},"vehicle_type_id":"4","last_reported":1721747349,"current_range_meters":6800,"station_id":"ce4bguh2rcd13ifvqckg","pricing_plan_id":"cebpf4jnsgd1na2vs0mg"},{"bike_id":"c62fac35-d62e-4c22-bda3-e4ebd3aa2891","system_id":"levelo_inurba_marseille","lat":43.309034,"lon":5.371783,"is_reserved":false,"is_disabled":false,"rental_uris":{"android":"levelo://app?vid=c62fac35-d62e-4c22-bda3-e4ebd3aa2891","ios":"levelo://app?vid=c62fac35-d62e-4c22-bda3-e4ebd3aa2891"},"vehicle_type_id":"4","last_reported":1721747349,"current_range_meters":0,"station_id":"ce4bguh2rcd13ifvqckg","pricing_plan_id":"cebpf4jnsgd1na2vs0mg"},{"bike_id":"eb08a107-5439-4136-b198-35d9de2a5cac","system_id":"levelo_inurba_marseille","lat":43.309039,"lon":5.371797,"is_reserved":false,"is_disabled":false,"rental_uris":{"android":"levelo://app?vid=eb08a107-5439-4136-b198-35d9de2a5cac","ios":"levelo://app?vid=eb08a107-5439-4136-b198-35d9de2a5cac"},"vehicle_type_id":"4","last_reported":1721747349,"current_range_meters":24000,"station_id":"ce4bguh2rcd13ifvqckg","pricing_plan_id":"cebpf4jnsgd1na2vs0mg"},{"bike_id":"f73d9013-8086-419c-a87f-64bd4db78279","system_id":"levelo_inurba_marseille","lat":43.318003,"lon":5.37023,"is_reserved":false,"is_disabled":false,"rental_uris":{"android":"levelo://app?vid=f73d9013-8086-419c-a87f-64bd4db78279","ios":"levelo://app?vid=f73d9013-8086-419c-a87f-64bd4db78279"},"vehicle_type_id":"4","last_reported":1721747349,"current_range_meters":20000,"station_id":"","pricing_plan_id":"cebpf4jnsgd1na2vs0mg"},{"bike_id":"ce60c00a-35b9-4016-bddf-374ac41e8556","system_id":"levelo_inurba_marseille","lat":43.30527,"lon":5.36531,"is_reserved":false,"is_disabled":false,"rental_uris":{"android":"levelo://app?vid=ce60c00a-35b9-4016-bddf-374ac41e8556","ios":"levelo://app?vid=ce60c00a-35b9-4016-bddf-374ac41e8556"},"vehicle_type_id":"4","last_reported":1721747349,"current_range_meters":3200,"station_id":"ce4bgs12rcd13ifvqcag","pricing_plan_id":"cebpf4jnsgd1na2vs0mg"},{"bike_id":"44c7a22b-1011-48ba-9a6b-5b5f2abb10f6","system_id":"levelo_inurba_marseille","lat":43.30499,"lon":5.36552,"is_reserved":false,"is_disabled":false,"rental_uris":{"android":"levelo://app?vid=44c7a22b-1011-48ba-9a6b-5b5f2abb10f6","ios":"levelo://app?vid=44c7a22b-1011-48ba-9a6b-5b5f2abb10f6"},"vehicle_type_id":"4","last_reported":1721747349,"current_range_meters":2800,"station_id":"","pricing_plan_id":"cebpf4jnsgd1na2vs0mg"},{"bike_id":"99e2204a-ce90-484f-b824-862a4a255acc","system_id":"levelo_inurba_marseille","lat":43.31111,"lon":5.37758,"is_reserved":false,"is_disabled":false,"rental_uris":{"android":"levelo://app?vid=99e2204a-ce90-484f-b824-862a4a255acc","ios":"levelo://app?vid=99e2204a-ce90-484f-b824-862a4a255acc"},"vehicle_type_id":"4","last_reported":1721747349,"current_range_meters":13600,"station_id":"ce4bgt92rcd13ifvqcg0","pricing_plan_id":"cebpf4jnsgd1na2vs0mg"},{"bike_id":"642b1449-b633-4400-a829-3f08dbc92150","system_id":"levelo_inurba_marseille","lat":43.31113,"lon":5.37766,"is_reserved":false,"is_disabled":false,"rental_uris":{"android":"levelo://app?vid=642b1449-b633-4400-a829-3f08dbc92150","ios":"levelo://app?vid=642b1449-b633-4400-a829-3f08dbc92150"},"vehicle_type_id":"4","last_reported":1721747349,"current_range_meters":2400,"station_id":"ce4bgt92rcd13ifvqcg0","pricing_plan_id":"cebpf4jnsgd1na2vs0mg"},{"bike_id":"64a74f85-baf3-4518-bee2-b368a7f3c107","system_id":"levelo_inurba_marseille","lat":43.317099,"lon":5.376948,"is_reserved":false,"is_disabled":false,"rental_uris":{"android":"levelo://app?vid=64a74f85-baf3-4518-bee2-b368a7f3c107","ios":"levelo://app?vid=64a74f85-baf3-4518-bee2-b368a7f3c107"},"vehicle_type_id":"4","last_reported":1721747349,"current_range_meters":18400,"station_id":"ce4bgth2rcd13ifvqch0","pricing_plan_id":"cebpf4jnsgd1na2vs0mg"},{"bike_id":"1a2f2e16-2972-4994-9ec2-720ee4b8e91b","system_id":"levelo_inurba_marseille","lat":43.303046,"lon":5.368981,"is_reserved":false,"is_disabled":false,"rental_uris":{"android":"levelo://app?vid=1a2f2e16-2972-4994-9ec2-720ee4b8e91b","ios":"levelo://app?vid=1a2f2e16-2972-4994-9ec2-720ee4b8e91b"},"vehicle_type_id":"4","last_reported":1721747349,"current_range_meters":17200,"station_id":"ce4bgqh2rcd13ifvqc5g","pricing_plan_id":"cebpf4jnsgd1na2vs0mg"},{"bike_id":"49b5b452-1a7e-4f65-99c9-8b6d67673cf4","system_id":"levelo_inurba_marseille","lat":43.303046,"lon":5.368981,"is_reserved":false,"is_disabled":false,"rental_uris":{"android":"levelo://app?vid=49b5b452-1a7e-4f65-99c9-8b6d67673cf4","ios":"levelo://app?vid=49b5b452-1a7e-4f65-99c9-8b6d67673cf4"},"vehicle_type_id":"4","last_reported":1721747349,"current_range_meters":28000,"station_id":"ce4bgqh2rcd13ifvqc5g","pricing_plan_id":"cebpf4jnsgd1na2vs0mg"},{"bike_id":"915058ce-bff9-408e-8c6d-73d8717c771b","system_id":"levelo_inurba_marseille","lat":43.315289,"lon":5.380349,"is_reserved":false,"is_disabled":false,"rental_uris":{"android":"levelo://app?vid=915058ce-bff9-408e-8c6d-73d8717c771b","ios":"levelo://app?vid=915058ce-bff9-408e-8c6d-73d8717c771b"},"vehicle_type_id":"4","last_reported":1721747349,"current_range_meters":26800,"station_id":"ce4bhsp2rcd13ifvqi50","pricing_plan_id":"cebpf4jnsgd1na2vs0mg"},{"bike_id":"42134500-e954-481a-9f4d-f959369a1717","system_id":"levelo_inurba_marseille","lat":43.30203,"lon":5.36621,"is_reserved":false,"is_disabled":false,"rental_uris":{"android":"levelo://app?vid=42134500-e954-481a-9f4d-f959369a1717","ios":"levelo://app?vid=42134500-e954-481a-9f4d-f959369a1717"},"vehicle_type_id":"4","last_reported":1721747349,"current_range_meters":19600,"station_id":"ce4bgrh2rcd13ifvqc8g","pricing_plan_id":"cebpf4jnsgd1na2vs0mg"},{"bike_id":"b9bcb49b-0b6f-407e-bd50-818d92613e31","system_id":"levelo_inurba_marseille","lat":43.301939,"lon":5.366286,"is_reserved":false,"is_disabled":false,"rental_uris":{"android":"levelo://app?vid=b9bcb49b-0b6f-407e-bd50-818d92613e31","ios":"levelo://app?vid=b9bcb49b-0b6f-407e-bd50-818d92613e31"},"vehicle_type_id":"4","last_reported":1721747349,"current_range_meters":400,"station_id":"ce4bgrh2rcd13ifvqc8g","pricing_plan_id":"cebpf4jnsgd1na2vs0mg"},{"bike_id":"59d6f2f6-cc62-4b4d-b071-e28a5a0c7400","system_id":"levelo_inurba_marseille","lat":43.308012,"lon":5.381511,"is_reserved":false,"is_disabled":false,"rental_uris":{"android":"levelo://app?vid=59d6f2f6-cc62-4b4d-b071-e28a5a0c7400","ios":"levelo://app?vid=59d6f2f6-cc62-4b4d-b071-e28a5a0c7400"},"vehicle_type_id":"4","last_reported":1721747349,"current_range_meters":1600,"station_id":"ce4bgt12rcd13ifvqce0","pricing_plan_id":"cebpf4jnsgd1na2vs0mg"},{"bike_id":"298a5233-f363-49e2-92d2-1fb533b4b4b0","system_id":"levelo_inurba_marseille","lat":43.30459,"lon":5.37898,"is_reserved":false,"is_disabled":false,"rental_uris":{"android":"levelo://app?vid=298a5233-f363-49e2-92d2-1fb533b4b4b0","ios":"levelo://app?vid=298a5233-f363-49e2-92d2-1fb533b4b4b0"},"vehicle_type_id":"4","last_reported":1721747349,"current_range_meters":0,"station_id":"ce4bgup2rcd13ifvqcn0","pricing_plan_id":"cebpf4jnsgd1na2vs0mg"},{"bike_id":"1f2234df-b49b-4772-ac6b-72266b0f5aa4","system_id":"levelo_inurba_marseille","lat":43.304606,"lon":5.379026,"is_reserved":false,"is_disabled":false,"rental_uris":{"android":"levelo://app?vid=1f2234df-b49b-4772-ac6b-72266b0f5aa4","ios":"levelo://app?vid=1f2234df-b49b-4772-ac6b-72266b0f5aa4"},"vehicle_type_id":"4","last_reported":1721747349,"current_range_meters":26400,"station_id":"ce4bgup2rcd13ifvqcn0","pricing_plan_id":"cebpf4jnsgd1na2vs0mg"},{"bike_id":"878aeb59-c2d8-4b79-81de-0c03ee134d95","system_id":"levelo_inurba_marseille","lat":43.30459,"lon":5.37913,"is_reserved":false,"is_disabled":false,"rental_uris":{"android":"levelo://app?vid=878aeb59-c2d8-4b79-81de-0c03ee134d95","ios":"levelo://app?vid=878aeb59-c2d8-4b79-81de-0c03ee134d95"},"vehicle_type_id":"4","last_reported":1721747349,"current_range_meters":30800,"station_id":"ce4bgup2rcd13ifvqcn0","pricing_plan_id":"cebpf4jnsgd1na2vs0mg"},{"bike_id":"361ccaa2-a145-483b-bae4-2eea13a38ad6","system_id":"levelo_inurba_marseille","lat":43.324771,"lon":5.36557,"is_reserved":false,"is_disabled":false,"rental_uris":{"android":"levelo://app?vid=361ccaa2-a145-483b-bae4-2eea13a38ad6","ios":"levelo://app?vid=361ccaa2-a145-483b-bae4-2eea13a38ad6"},"vehicle_type_id":"4","last_reported":1721747349,"current_range_meters":6800,"station_id":"ce4bhs12rcd13ifvqhvg","pricing_plan_id":"cebpf4jnsgd1na2vs0mg"},{"bike_id":"c95ec25a-8dd7-4a00-b4cf-01edf5eef6e7","system_id":"levelo_inurba_marseille","lat":43.324771,"lon":5.36557,"is_reserved":false,"is_disabled":false,"rental_uris":{"android":"levelo://app?vid=c95ec25a-8dd7-4a00-b4cf-01edf5eef6e7","ios":"levelo://app?vid=c95ec25a-8dd7-4a00-b4cf-01edf5eef6e7"},"vehicle_type_id":"4","last_reported":1721747349,"current_range_meters":18000,"station_id":"ce4bhs12rcd13ifvqhvg","pricing_plan_id":"cebpf4jnsgd1na2vs0mg"},{"bike_id":"4b08878e-0a22-4e3b-91b5-c21dafba9ec1","system_id":"levelo_inurba_marseille","lat":43.324771,"lon":5.36557,"is_reserved":false,"is_disabled":false,"rental_uris":{"android":"levelo://app?vid=4b08878e-0a22-4e3b-91b5-c21dafba9ec1","ios":"levelo://app?vid=4b08878e-0a22-4e3b-91b5-c21dafba9ec1"},"vehicle_type_id":"4","last_reported":1721747349,"current_range_meters":26400,"station_id":"ce4bhs12rcd13ifvqhvg","pricing_plan_id":"cebpf4jnsgd1na2vs0mg"},{"bike_id":"5b8a7787-a985-42a7-b3a0-a4c1f6761133","system_id":"levelo_inurba_marseille","lat":43.324771,"lon":5.36557,"is_reserved":false,"is_disabled":false,"rental_uris":{"android":"levelo://app?vid=5b8a7787-a985-42a7-b3a0-a4c1f6761133","ios":"levelo://app?vid=5b8a7787-a985-42a7-b3a0-a4c1f6761133"},"vehicle_type_id":"4","last_reported":1721747349,"current_range_meters":8400,"station_id":"ce4bhs12rcd13ifvqhvg","pricing_plan_id":"cebpf4jnsgd1na2vs0mg"},{"bike_id":"54f9b314-7941-45f3-a791-a61e1050776b","system_id":"levelo_inurba_marseille","lat":43.310773,"lon":5.383567,"is_reserved":false,"is_disabled":false,"rental_uris":{"android":"levelo://app?vid=54f9b314-7941-45f3-a791-a61e1050776b","ios":"levelo://app?vid=54f9b314-7941-45f3-a791-a61e1050776b"},"vehicle_type_id":"4","last_reported":1721747349,"current_range_meters":10800,"station_id":"ce4bgv92rcd13ifvqcr0","pricing_plan_id":"cebpf4jnsgd1na2vs0mg"},{"bike_id":"c67aff97-cc1e-4d29-b4a1-b3123b6f49a9","system_id":"levelo_inurba_marseille","lat":43.295279,"lon":5.375048,"is_reserved":false,"is_disabled":false,"rental_uris":{"android":"levelo://app?vid=c67aff97-cc1e-4d29-b4a1-b3123b6f49a9","ios":"levelo://app?vid=c67aff97-cc1e-4d29-b4a1-b3123b6f49a9"},"vehicle_type_id":"4","last_reported":1721747349,"current_range_meters":3600,"station_id":"ce4bgkp2rcd13ifvqbmg","pricing_plan_id":"cebpf4jnsgd1na2vs0mg"},{"bike_id":"8a611370-ddf8-4078-999f-3d97760678d9","system_id":"levelo_inurba_marseille","lat":43.310804,"lon":5.38359,"is_reserved":false,"is_disabled":false,"rental_uris":{"android":"levelo://app?vid=8a611370-ddf8-4078-999f-3d97760678d9","ios":"levelo://app?vid=8a611370-ddf8-4078-999f-3d97760678d9"},"vehicle_type_id":"4","last_reported":1721747349,"current_range_meters":1600,"station_id":"ce4bgv92rcd13ifvqcr0","pricing_plan_id":"cebpf4jnsgd1na2vs0mg"},{"bike_id":"d59452b9-52ff-40b0-b30d-b9f8a33e99d3","system_id":"levelo_inurba_marseille","lat":43.301429,"lon":5.37413,"is_reserved":false,"is_disabled":false,"rental_uris":{"android":"levelo://app?vid=d59452b9-52ff-40b0-b30d-b9f8a33e99d3","ios":"levelo://app?vid=d59452b9-52ff-40b0-b30d-b9f8a33e99d3"},"vehicle_type_id":"4","last_reported":1721747349,"current_range_meters":2400,"station_id":"ce4bgs92rcd13ifvqcc0","pricing_plan_id":"cebpf4jnsgd1na2vs0mg"},{"bike_id":"f7f46089-2666-4f98-a6b2-e7379274e68b","system_id":"levelo_inurba_marseille","lat":43.316248,"lon":5.383453,"is_reserved":false,"is_disabled":false,"rental_uris":{"android":"levelo://app?vid=f7f46089-2666-4f98-a6b2-e7379274e68b","ios":"levelo://app?vid=f7f46089-2666-4f98-a6b2-e7379274e68b"},"vehicle_type_id":"4","last_reported":1721747349,"current_range_meters":12800,"station_id":"","pricing_plan_id":"cebpf4jnsgd1na2vs0mg"},{"bike_id":"e452191c-8563-43fc-9415-64666ecb1a61","system_id":"levelo_inurba_marseille","lat":43.319935,"lon":5.381699,"is_reserved":false,"is_disabled":false,"rental_uris":{"android":"levelo://app?vid=e452191c-8563-43fc-9415-64666ecb1a61","ios":"levelo://app?vid=e452191c-8563-43fc-9415-64666ecb1a61"},"vehicle_type_id":"4","last_reported":1721747349,"current_range_meters":27200,"station_id":"ce4bhr12rcd13ifvqhpg","pricing_plan_id":"cebpf4jnsgd1na2vs0mg"},{"bike_id":"177b643a-3dcd-44f3-b71f-4fc7c66875d1","system_id":"levelo_inurba_marseille","lat":43.319935,"lon":5.381699,"is_reserved":false,"is_disabled":false,"rental_uris":{"android":"levelo://app?vid=177b643a-3dcd-44f3-b71f-4fc7c66875d1","ios":"levelo://app?vid=177b643a-3dcd-44f3-b71f-4fc7c66875d1"},"vehicle_type_id":"4","last_reported":1721747349,"current_range_meters":24400,"station_id":"ce4bhr12rcd13ifvqhpg","pricing_plan_id":"cebpf4jnsgd1na2vs0mg"},{"bike_id":"84310eef-3a21-4d5c-aa64-2fbfc2b1657e","system_id":"levelo_inurba_marseille","lat":43.319935,"lon":5.381699,"is_reserved":false,"is_disabled":false,"rental_uris":{"android":"levelo://app?vid=84310eef-3a21-4d5c-aa64-2fbfc2b1657e","ios":"levelo://app?vid=84310eef-3a21-4d5c-aa64-2fbfc2b1657e"},"vehicle_type_id":"4","last_reported":1721747349,"current_range_meters":8800,"station_id":"ce4bhr12rcd13ifvqhpg","pricing_plan_id":"cebpf4jnsgd1na2vs0mg"},{"bike_id":"a092858c-aca9-4072-b94e-c7452ff90cd2","system_id":"levelo_inurba_marseille","lat":43.30558,"lon":5.38169,"is_reserved":false,"is_disabled":false,"rental_uris":{"android":"levelo://app?vid=a092858c-aca9-4072-b94e-c7452ff90cd2","ios":"levelo://app?vid=a092858c-aca9-4072-b94e-c7452ff90cd2"},"vehicle_type_id":"4","last_reported":1721747349,"current_range_meters":22400,"station_id":"","pricing_plan_id":"cebpf4jnsgd1na2vs0mg"},{"bike_id":"45c4e8c5-0499-4d8b-a1cc-0e4ff012a8d1","system_id":"levelo_inurba_marseille","lat":43.313571,"lon":5.384829,"is_reserved":false,"is_disabled":false,"rental_uris":{"android":"levelo://app?vid=45c4e8c5-0499-4d8b-a1cc-0e4ff012a8d1","ios":"levelo://app?vid=45c4e8c5-0499-4d8b-a1cc-0e4ff012a8d1"},"vehicle_type_id":"4","last_reported":1721747349,"current_range_meters":10800,"station_id":"ce4bgt92rcd13ifvqcf0","pricing_plan_id":"cebpf4jnsgd1na2vs0mg"},{"bike_id":"0d10194c-7877-40f5-8c99-b44028502685","system_id":"levelo_inurba_marseille","lat":43.313571,"lon":5.384829,"is_reserved":false,"is_disabled":false,"rental_uris":{"android":"levelo://app?vid=0d10194c-7877-40f5-8c99-b44028502685","ios":"levelo://app?vid=0d10194c-7877-40f5-8c99-b44028502685"},"vehicle_type_id":"4","last_reported":1721747349,"current_range_meters":13600,"station_id":"ce4bgt92rcd13ifvqcf0","pricing_plan_id":"cebpf4jnsgd1na2vs0mg"},{"bike_id":"80f86582-d2f1-47b0-abba-bc7663ad96a1","system_id":"levelo_inurba_marseille","lat":43.313571,"lon":5.384829,"is_reserved":false,"is_disabled":false,"rental_uris":{"android":"levelo://app?vid=80f86582-d2f1-47b0-abba-bc7663ad96a1","ios":"levelo://app?vid=80f86582-d2f1-47b0-abba-bc7663ad96a1"},"vehicle_type_id":"4","last_reported":1721747349,"current_range_meters":7600,"station_id":"ce4bgt92rcd13ifvqcf0","pricing_plan_id":"cebpf4jnsgd1na2vs0mg"},{"bike_id":"70bf3bd4-18a6-4856-a1d3-04b78e5e0d4c","system_id":"levelo_inurba_marseille","lat":43.299222,"lon":5.365554,"is_reserved":false,"is_disabled":false,"rental_uris":{"android":"levelo://app?vid=70bf3bd4-18a6-4856-a1d3-04b78e5e0d4c","ios":"levelo://app?vid=70bf3bd4-18a6-4856-a1d3-04b78e5e0d4c"},"vehicle_type_id":"4","last_reported":1721747349,"current_range_meters":31200,"station_id":"ce4bgm92rcd13ifvqbr0","pricing_plan_id":"cebpf4jnsgd1na2vs0mg"},{"bike_id":"04d9a506-55d5-49e1-bce2-9e24d5ab5f91","system_id":"levelo_inurba_marseille","lat":43.29984,"lon":5.37177,"is_reserved":false,"is_disabled":false,"rental_uris":{"android":"levelo://app?vid=04d9a506-55d5-49e1-bce2-9e24d5ab5f91","ios":"levelo://app?vid=04d9a506-55d5-49e1-bce2-9e24d5ab5f91"},"vehicle_type_id":"4","last_reported":1721747349,"current_range_meters":0,"station_id":"ce4bgr92rcd13ifvqc7g","pricing_plan_id":"cebpf4jnsgd1na2vs0mg"},{"bike_id":"099008cc-e2d8-4bda-9ba0-08341efde71b","system_id":"levelo_inurba_marseille","lat":43.299724,"lon":5.371829,"is_reserved":false,"is_disabled":false,"rental_uris":{"android":"levelo://app?vid=099008cc-e2d8-4bda-9ba0-08341efde71b","ios":"levelo://app?vid=099008cc-e2d8-4bda-9ba0-08341efde71b"},"vehicle_type_id":"4","last_reported":1721747349,"current_range_meters":26800,"station_id":"ce4bgr92rcd13ifvqc7g","pricing_plan_id":"cebpf4jnsgd1na2vs0mg"},{"bike_id":"b3c97d5e-b6ba-43c6-af10-30c8437cef6b","system_id":"levelo_inurba_marseille","lat":43.309528,"lon":5.386276,"is_reserved":false,"is_disabled":false,"rental_uris":{"android":"levelo://app?vid=b3c97d5e-b6ba-43c6-af10-30c8437cef6b","ios":"levelo://app?vid=b3c97d5e-b6ba-43c6-af10-30c8437cef6b"},"vehicle_type_id":"4","last_reported":1721747349,"current_range_meters":6400,"station_id":"","pricing_plan_id":"cebpf4jnsgd1na2vs0mg"},{"bike_id":"8b556cc1-50c7-41e8-a99d-93fb26c51725","system_id":"levelo_inurba_marseille","lat":43.298433,"lon":5.362774,"is_reserved":false,"is_disabled":false,"rental_uris":{"android":"levelo://app?vid=8b556cc1-50c7-41e8-a99d-93fb26c51725","ios":"levelo://app?vid=8b556cc1-50c7-41e8-a99d-93fb26c51725"},"vehicle_type_id":"4","last_reported":1721747349,"current_range_meters":29600,"station_id":"ce4bgpp2rcd13ifvqc3g","pricing_plan_id":"cebpf4jnsgd1na2vs0mg"},{"bike_id":"f200786d-04d2-4f8e-bb1e-3f6a558e98af","system_id":"levelo_inurba_marseille","lat":43.305364,"lon":5.384119,"is_reserved":false,"is_disabled":false,"rental_uris":{"android":"levelo://app?vid=f200786d-04d2-4f8e-bb1e-3f6a558e98af","ios":"levelo://app?vid=f200786d-04d2-4f8e-bb1e-3f6a558e98af"},"vehicle_type_id":"4","last_reported":1721747349,"current_range_meters":24800,"station_id":"ce4bgg92rcd13ifvqb30","pricing_plan_id":"cebpf4jnsgd1na2vs0mg"},{"bike_id":"0980d76c-b9ee-4e42-a7e3-55f5ef277aa2","system_id":"levelo_inurba_marseille","lat":43.32285,"lon":5.38258,"is_reserved":false,"is_disabled":false,"rental_uris":{"android":"levelo://app?vid=0980d76c-b9ee-4e42-a7e3-55f5ef277aa2","ios":"levelo://app?vid=0980d76c-b9ee-4e42-a7e3-55f5ef277aa2"},"vehicle_type_id":"4","last_reported":1721747349,"current_range_meters":17600,"station_id":"ce4bhr12rcd13ifvqhqg","pricing_plan_id":"cebpf4jnsgd1na2vs0mg"},{"bike_id":"3198afba-1e22-4226-bfdf-ce414f4d5e7e","system_id":"levelo_inurba_marseille","lat":43.32289,"lon":5.382572,"is_reserved":false,"is_disabled":false,"rental_uris":{"android":"levelo://app?vid=3198afba-1e22-4226-bfdf-ce414f4d5e7e","ios":"levelo://app?vid=3198afba-1e22-4226-bfdf-ce414f4d5e7e"},"vehicle_type_id":"4","last_reported":1721747349,"current_range_meters":23600,"station_id":"ce4bhr12rcd13ifvqhqg","pricing_plan_id":"cebpf4jnsgd1na2vs0mg"},{"bike_id":"98130cc7-b273-4dee-89a1-15b990d570f8","system_id":"levelo_inurba_marseille","lat":43.32289,"lon":5.38261,"is_reserved":false,"is_disabled":false,"rental_uris":{"android":"levelo://app?vid=98130cc7-b273-4dee-89a1-15b990d570f8","ios":"levelo://app?vid=98130cc7-b273-4dee-89a1-15b990d570f8"},"vehicle_type_id":"4","last_reported":1721747349,"current_range_meters":7200,"station_id":"ce4bhr12rcd13ifvqhqg","pricing_plan_id":"cebpf4jnsgd1na2vs0mg"},{"bike_id":"962bd6b8-58de-414b-89c9-662f25332509","system_id":"levelo_inurba_marseille","lat":43.297163,"lon":5.365866,"is_reserved":false,"is_disabled":false,"rental_uris":{"android":"levelo://app?vid=962bd6b8-58de-414b-89c9-662f25332509","ios":"levelo://app?vid=962bd6b8-58de-414b-89c9-662f25332509"},"vehicle_type_id":"4","last_reported":1721747349,"current_range_meters":1200,"station_id":"ce4bgn12rcd13ifvqbt0","pricing_plan_id":"cebpf4jnsgd1na2vs0mg"},{"bike_id":"ecc6629e-6486-4c9a-a5da-2d7023a1a7a9","system_id":"levelo_inurba_marseille","lat":43.296579,"lon":5.368796,"is_reserved":false,"is_disabled":false,"rental_uris":{"android":"levelo://app?vid=ecc6629e-6486-4c9a-a5da-2d7023a1a7a9","ios":"levelo://app?vid=ecc6629e-6486-4c9a-a5da-2d7023a1a7a9"},"vehicle_type_id":"4","last_reported":1721747349,"current_range_meters":12800,"station_id":"","pricing_plan_id":"cebpf4jnsgd1na2vs0mg"},{"bike_id":"0c0057d2-8eee-4b04-abf0-aff36db991c0","system_id":"levelo_inurba_marseille","lat":43.296131,"lon":5.370791,"is_reserved":false,"is_disabled":false,"rental_uris":{"android":"levelo://app?vid=0c0057d2-8eee-4b04-abf0-aff36db991c0","ios":"levelo://app?vid=0c0057d2-8eee-4b04-abf0-aff36db991c0"},"vehicle_type_id":"4","last_reported":1721747349,"current_range_meters":0,"station_id":"ce4bgnh2rcd13ifvqc0g","pricing_plan_id":"cebpf4jnsgd1na2vs0mg"},{"bike_id":"9f812e3e-7baa-4f90-bb61-d5544d855ad0","system_id":"levelo_inurba_marseille","lat":43.317557,"lon":5.390173,"is_reserved":false,"is_disabled":false,"rental_uris":{"android":"levelo://app?vid=9f812e3e-7baa-4f90-bb61-d5544d855ad0","ios":"levelo://app?vid=9f812e3e-7baa-4f90-bb61-d5544d855ad0"},"vehicle_type_id":"4","last_reported":1721747349,"current_range_meters":0,"station_id":"ce4bhqp2rcd13ifvqhng","pricing_plan_id":"cebpf4jnsgd1na2vs0mg"},{"bike_id":"dc4df1c1-8c8c-492c-a685-58f1240a9176","system_id":"levelo_inurba_marseille","lat":43.298037,"lon":5.381066,"is_reserved":false,"is_disabled":false,"rental_uris":{"android":"levelo://app?vid=dc4df1c1-8c8c-492c-a685-58f1240a9176","ios":"levelo://app?vid=dc4df1c1-8c8c-492c-a685-58f1240a9176"},"vehicle_type_id":"4","last_reported":1721747349,"current_range_meters":12800,"station_id":"ce4bgip2rcd13ifvqbb0","pricing_plan_id":"cebpf4jnsgd1na2vs0mg"},{"bike_id":"8325f053-9ab9-459f-99d1-8daea6e78692","system_id":"levelo_inurba_marseille","lat":43.304274,"lon":5.388873,"is_reserved":false,"is_disabled":false,"rental_uris":{"android":"levelo://app?vid=8325f053-9ab9-459f-99d1-8daea6e78692","ios":"levelo://app?vid=8325f053-9ab9-459f-99d1-8daea6e78692"},"vehicle_type_id":"4","last_reported":1721747349,"current_range_meters":31200,"station_id":"ce4bgk12rcd13ifvqbi0","pricing_plan_id":"cebpf4jnsgd1na2vs0mg"},{"bike_id":"cbbd5aa7-958c-469d-9298-98a087efd70f","system_id":"levelo_inurba_marseille","lat":43.304274,"lon":5.388873,"is_reserved":false,"is_disabled":false,"rental_uris":{"android":"levelo://app?vid=cbbd5aa7-958c-469d-9298-98a087efd70f","ios":"levelo://app?vid=cbbd5aa7-958c-469d-9298-98a087efd70f"},"vehicle_type_id":"4","last_reported":1721747349,"current_range_meters":30800,"station_id":"ce4bgk12rcd13ifvqbi0","pricing_plan_id":"cebpf4jnsgd1na2vs0mg"},{"bike_id":"b983163e-2c4a-48c1-a633-68935ff90df2","system_id":"levelo_inurba_marseille","lat":43.304278,"lon":5.388868,"is_reserved":false,"is_disabled":false,"rental_uris":{"android":"levelo://app?vid=b983163e-2c4a-48c1-a633-68935ff90df2","ios":"levelo://app?vid=b983163e-2c4a-48c1-a633-68935ff90df2"},"vehicle_type_id":"4","last_reported":1721747349,"current_range_meters":22400,"station_id":"ce4bgk12rcd13ifvqbi0","pricing_plan_id":"cebpf4jnsgd1na2vs0mg"},{"bike_id":"3748e580-4673-47ce-adc0-2e3dccf6ebeb","system_id":"levelo_inurba_marseille","lat":43.32756,"lon":5.3814,"is_reserved":false,"is_disabled":false,"rental_uris":{"android":"levelo://app?vid=3748e580-4673-47ce-adc0-2e3dccf6ebeb","ios":"levelo://app?vid=3748e580-4673-47ce-adc0-2e3dccf6ebeb"},"vehicle_type_id":"4","last_reported":1721747349,"current_range_meters":18400,"station_id":"","pricing_plan_id":"cebpf4jnsgd1na2vs0mg"},{"bike_id":"28f6164c-740e-444c-b6c6-3a5016fac9a4","system_id":"levelo_inurba_marseille","lat":43.299707,"lon":5.384859,"is_reserved":false,"is_disabled":false,"rental_uris":{"android":"levelo://app?vid=28f6164c-740e-444c-b6c6-3a5016fac9a4","ios":"levelo://app?vid=28f6164c-740e-444c-b6c6-3a5016fac9a4"},"vehicle_type_id":"4","last_reported":1721747349,"current_range_meters":27600,"station_id":"ce4bgj92rcd13ifvqbd0","pricing_plan_id":"cebpf4jnsgd1na2vs0mg"},{"bike_id":"ed83afc2-0dff-4540-89ea-256711a47fdb","system_id":"levelo_inurba_marseille","lat":43.295279,"lon":5.375048,"is_reserved":false,"is_disabled":false,"rental_uris":{"android":"levelo://app?vid=ed83afc2-0dff-4540-89ea-256711a47fdb","ios":"levelo://app?vid=ed83afc2-0dff-4540-89ea-256711a47fdb"},"vehicle_type_id":"4","last_reported":1721747349,"current_range_meters":6000,"station_id":"ce4bgkp2rcd13ifvqbmg","pricing_plan_id":"cebpf4jnsgd1na2vs0mg"},{"bike_id":"8462947d-ce1e-4590-b5b1-38f2945538d4","system_id":"levelo_inurba_marseille","lat":43.32367,"lon":5.388836,"is_reserved":false,"is_disabled":false,"rental_uris":{"android":"levelo://app?vid=8462947d-ce1e-4590-b5b1-38f2945538d4","ios":"levelo://app?vid=8462947d-ce1e-4590-b5b1-38f2945538d4"},"vehicle_type_id":"4","last_reported":1721747349,"current_range_meters":6400,"station_id":"ce4bhqp2rcd13ifvqhog","pricing_plan_id":"cebpf4jnsgd1na2vs0mg"},{"bike_id":"b300fbde-3190-4f15-bc17-c6e25b4b053b","system_id":"levelo_inurba_marseille","lat":43.29997,"lon":5.38694,"is_reserved":false,"is_disabled":false,"rental_uris":{"android":"levelo://app?vid=b300fbde-3190-4f15-bc17-c6e25b4b053b","ios":"levelo://app?vid=b300fbde-3190-4f15-bc17-c6e25b4b053b"},"vehicle_type_id":"4","last_reported":1721747349,"current_range_meters":15600,"station_id":"","pricing_plan_id":"cebpf4jnsgd1na2vs0mg"},{"bike_id":"1aedaf7c-b695-4208-842c-f90d5aa64328","system_id":"levelo_inurba_marseille","lat":43.29602,"lon":5.381084,"is_reserved":false,"is_disabled":false,"rental_uris":{"android":"levelo://app?vid=1aedaf7c-b695-4208-842c-f90d5aa64328","ios":"levelo://app?vid=1aedaf7c-b695-4208-842c-f90d5aa64328"},"vehicle_type_id":"4","last_reported":1721747349,"current_range_meters":27600,"station_id":"ce4bgl12rcd13ifvqbo0","pricing_plan_id":"cebpf4jnsgd1na2vs0mg"},{"bike_id":"76381b63-8f8b-47b7-9bf6-dc0e8802e456","system_id":"levelo_inurba_marseille","lat":43.292749,"lon":5.368398,"is_reserved":false,"is_disabled":false,"rental_uris":{"android":"levelo://app?vid=76381b63-8f8b-47b7-9bf6-dc0e8802e456","ios":"levelo://app?vid=76381b63-8f8b-47b7-9bf6-dc0e8802e456"},"vehicle_type_id":"4","last_reported":1721747349,"current_range_meters":22800,"station_id":"ce4bhbp2rcd13ifvqesg","pricing_plan_id":"cebpf4jnsgd1na2vs0mg"},{"bike_id":"7694ccbb-85b8-46f0-8aaf-9029b9cc39f1","system_id":"levelo_inurba_marseille","lat":43.292749,"lon":5.368402,"is_reserved":false,"is_disabled":false,"rental_uris":{"android":"levelo://app?vid=7694ccbb-85b8-46f0-8aaf-9029b9cc39f1","ios":"levelo://app?vid=7694ccbb-85b8-46f0-8aaf-9029b9cc39f1"},"vehicle_type_id":"4","last_reported":1721747349,"current_range_meters":19600,"station_id":"ce4bhbp2rcd13ifvqesg","pricing_plan_id":"cebpf4jnsgd1na2vs0mg"},{"bike_id":"cbf89d71-bbdb-4829-9cea-d6db045b55c6","system_id":"levelo_inurba_marseille","lat":43.303057,"lon":5.392083,"is_reserved":false,"is_disabled":false,"rental_uris":{"android":"levelo://app?vid=cbf89d71-bbdb-4829-9cea-d6db045b55c6","ios":"levelo://app?vid=cbf89d71-bbdb-4829-9cea-d6db045b55c6"},"vehicle_type_id":"4","last_reported":1721747349,"current_range_meters":5600,"station_id":"ce4bgkh2rcd13ifvqbk0","pricing_plan_id":"cebpf4jnsgd1na2vs0mg"},{"bike_id":"c55591e5-099e-40b3-8967-4c9f6600d859","system_id":"levelo_inurba_marseille","lat":43.30297,"lon":5.39204,"is_reserved":false,"is_disabled":false,"rental_uris":{"android":"levelo://app?vid=c55591e5-099e-40b3-8967-4c9f6600d859","ios":"levelo://app?vid=c55591e5-099e-40b3-8967-4c9f6600d859"},"vehicle_type_id":"4","last_reported":1721747349,"current_range_meters":8400,"station_id":"ce4bgkh2rcd13ifvqbk0","pricing_plan_id":"cebpf4jnsgd1na2vs0mg"},{"bike_id":"61c01261-849b-4aea-83f2-c3122c9018fe","system_id":"levelo_inurba_marseille","lat":43.302992,"lon":5.392136,"is_reserved":false,"is_disabled":false,"rental_uris":{"android":"levelo://app?vid=61c01261-849b-4aea-83f2-c3122c9018fe","ios":"levelo://app?vid=61c01261-849b-4aea-83f2-c3122c9018fe"},"vehicle_type_id":"4","last_reported":1721747349,"current_range_meters":16400,"station_id":"ce4bgkh2rcd13ifvqbk0","pricing_plan_id":"cebpf4jnsgd1na2vs0mg"},{"bike_id":"4f5352cc-9a9c-4d06-8ea7-d1784b5bb251","system_id":"levelo_inurba_marseille","lat":43.284462,"lon":5.392121,"is_reserved":false,"is_disabled":false,"rental_uris":{"android":"levelo://app?vid=4f5352cc-9a9c-4d06-8ea7-d1784b5bb251","ios":"levelo://app?vid=4f5352cc-9a9c-4d06-8ea7-d1784b5bb251"},"vehicle_type_id":"4","last_reported":1721747349,"current_range_meters":22800,"station_id":"ce4bhoh2rcd13ifvqh5g","pricing_plan_id":"cebpf4jnsgd1na2vs0mg"},{"bike_id":"f9ab4b62-0151-4e4a-88a0-00c2d03dbdc3","system_id":"levelo_inurba_marseille","lat":43.2936,"lon":5.37835,"is_reserved":false,"is_disabled":false,"rental_uris":{"android":"levelo://app?vid=f9ab4b62-0151-4e4a-88a0-00c2d03dbdc3","ios":"levelo://app?vid=f9ab4b62-0151-4e4a-88a0-00c2d03dbdc3"},"vehicle_type_id":"4","last_reported":1721747349,"current_range_meters":8000,"station_id":"ce4bgjh2rcd13ifvqbf0","pricing_plan_id":"cebpf4jnsgd1na2vs0mg"},{"bike_id":"05d1a1da-986e-4b98-837a-84f30c8f5a19","system_id":"levelo_inurba_marseille","lat":43.30091,"lon":5.39081,"is_reserved":false,"is_disabled":false,"rental_uris":{"android":"levelo://app?vid=05d1a1da-986e-4b98-837a-84f30c8f5a19","ios":"levelo://app?vid=05d1a1da-986e-4b98-837a-84f30c8f5a19"},"vehicle_type_id":"4","last_reported":1721747349,"current_range_meters":28000,"station_id":"","pricing_plan_id":"cebpf4jnsgd1na2vs0mg"},{"bike_id":"b9f3b4be-6e27-4311-8488-0f9ebaa3dee8","system_id":"levelo_inurba_marseille","lat":43.30085,"lon":5.390856,"is_reserved":false,"is_disabled":false,"rental_uris":{"android":"levelo://app?vid=b9f3b4be-6e27-4311-8488-0f9ebaa3dee8","ios":"levelo://app?vid=b9f3b4be-6e27-4311-8488-0f9ebaa3dee8"},"vehicle_type_id":"4","last_reported":1721747349,"current_range_meters":25600,"station_id":"ce4bh192rcd13ifvqdb0","pricing_plan_id":"cebpf4jnsgd1na2vs0mg"},{"bike_id":"8811278d-e041-4694-96a4-00679220d96a","system_id":"levelo_inurba_marseille","lat":43.30085,"lon":5.390856,"is_reserved":false,"is_disabled":false,"rental_uris":{"android":"levelo://app?vid=8811278d-e041-4694-96a4-00679220d96a","ios":"levelo://app?vid=8811278d-e041-4694-96a4-00679220d96a"},"vehicle_type_id":"4","last_reported":1721747349,"current_range_meters":31200,"station_id":"ce4bh192rcd13ifvqdb0","pricing_plan_id":"cebpf4jnsgd1na2vs0mg"},{"bike_id":"a99eb8df-20c4-43d6-bebe-662f2af621fe","system_id":"levelo_inurba_marseille","lat":43.30083,"lon":5.39089,"is_reserved":false,"is_disabled":false,"rental_uris":{"android":"levelo://app?vid=a99eb8df-20c4-43d6-bebe-662f2af621fe","ios":"levelo://app?vid=a99eb8df-20c4-43d6-bebe-662f2af621fe"},"vehicle_type_id":"4","last_reported":1721747349,"current_range_meters":18800,"station_id":"ce4bh192rcd13ifvqdb0","pricing_plan_id":"cebpf4jnsgd1na2vs0mg"},{"bike_id":"e9fd4b14-d52d-4f3b-b3cd-c6e78af99ef7","system_id":"levelo_inurba_marseille","lat":43.292005,"lon":5.357875,"is_reserved":false,"is_disabled":false,"rental_uris":{"android":"levelo://app?vid=e9fd4b14-d52d-4f3b-b3cd-c6e78af99ef7","ios":"levelo://app?vid=e9fd4b14-d52d-4f3b-b3cd-c6e78af99ef7"},"vehicle_type_id":"4","last_reported":1721747349,"current_range_meters":20400,"station_id":"ce4bhb12rcd13ifvqel0","pricing_plan_id":"cebpf4jnsgd1na2vs0mg"},{"bike_id":"aab9f73f-db5e-4211-a737-c797fe816855","system_id":"levelo_inurba_marseille","lat":43.292005,"lon":5.357875,"is_reserved":false,"is_disabled":false,"rental_uris":{"android":"levelo://app?vid=aab9f73f-db5e-4211-a737-c797fe816855","ios":"levelo://app?vid=aab9f73f-db5e-4211-a737-c797fe816855"},"vehicle_type_id":"4","last_reported":1721747349,"current_range_meters":9600,"station_id":"ce4bhb12rcd13ifvqel0","pricing_plan_id":"cebpf4jnsgd1na2vs0mg"},{"bike_id":"3aa044f8-ed0a-47c3-9799-a1df8066154a","system_id":"levelo_inurba_marseille","lat":43.313291,"lon":5.396838,"is_reserved":false,"is_disabled":false,"rental_uris":{"android":"levelo://app?vid=3aa044f8-ed0a-47c3-9799-a1df8066154a","ios":"levelo://app?vid=3aa044f8-ed0a-47c3-9799-a1df8066154a"},"vehicle_type_id":"4","last_reported":1721747349,"current_range_meters":9200,"station_id":"ce4bgvp2rcd13ifvqcu0","pricing_plan_id":"cebpf4jnsgd1na2vs0mg"},{"bike_id":"de1b69d9-62e7-4c33-b2dc-a76307cbe3c5","system_id":"levelo_inurba_marseille","lat":43.29529,"lon":5.385581,"is_reserved":false,"is_disabled":false,"rental_uris":{"android":"levelo://app?vid=de1b69d9-62e7-4c33-b2dc-a76307cbe3c5","ios":"levelo://app?vid=de1b69d9-62e7-4c33-b2dc-a76307cbe3c5"},"vehicle_type_id":"4","last_reported":1721747349,"current_range_meters":4400,"station_id":"ce4bgih2rcd13ifvqba0","pricing_plan_id":"cebpf4jnsgd1na2vs0mg"},{"bike_id":"2b92b143-dc50-46a5-b145-08bd0246b922","system_id":"levelo_inurba_marseille","lat":43.290779,"lon":5.371482,"is_reserved":false,"is_disabled":false,"rental_uris":{"android":"levelo://app?vid=2b92b143-dc50-46a5-b145-08bd0246b922","ios":"levelo://app?vid=2b92b143-dc50-46a5-b145-08bd0246b922"},"vehicle_type_id":"4","last_reported":1721747349,"current_range_meters":22400,"station_id":"ce4bh5p2rcd13ifvqe4g","pricing_plan_id":"cebpf4jnsgd1na2vs0mg"},{"bike_id":"c6b01c6e-4199-4dbf-bd8a-505c4e3abbb9","system_id":"levelo_inurba_marseille","lat":43.31449,"lon":5.398297,"is_reserved":false,"is_disabled":false,"rental_uris":{"android":"levelo://app?vid=c6b01c6e-4199-4dbf-bd8a-505c4e3abbb9","ios":"levelo://app?vid=c6b01c6e-4199-4dbf-bd8a-505c4e3abbb9"},"vehicle_type_id":"4","last_reported":1721747349,"current_range_meters":14800,"station_id":"","pricing_plan_id":"cebpf4jnsgd1na2vs0mg"},{"bike_id":"131cbad6-ccee-403c-8973-f9cda66b7dfb","system_id":"levelo_inurba_marseille","lat":43.290438,"lon":5.359212,"is_reserved":false,"is_disabled":false,"rental_uris":{"android":"levelo://app?vid=131cbad6-ccee-403c-8973-f9cda66b7dfb","ios":"levelo://app?vid=131cbad6-ccee-403c-8973-f9cda66b7dfb"},"vehicle_type_id":"4","last_reported":1721747349,"current_range_meters":17200,"station_id":"ce4bha92rcd13ifvqeg0","pricing_plan_id":"cebpf4jnsgd1na2vs0mg"},{"bike_id":"c3c79474-c8a2-41af-a1a6-8f32819234ed","system_id":"levelo_inurba_marseille","lat":43.294162,"lon":5.386292,"is_reserved":false,"is_disabled":false,"rental_uris":{"android":"levelo://app?vid=c3c79474-c8a2-41af-a1a6-8f32819234ed","ios":"levelo://app?vid=c3c79474-c8a2-41af-a1a6-8f32819234ed"},"vehicle_type_id":"4","last_reported":1721747349,"current_range_meters":22800,"station_id":"ce4bh2h2rcd13ifvqdh0","pricing_plan_id":"cebpf4jnsgd1na2vs0mg"},{"bike_id":"96dbe94d-8155-4ebe-b940-9bf57eef8db7","system_id":"levelo_inurba_marseille","lat":43.289468,"lon":5.363719,"is_reserved":false,"is_disabled":false,"rental_uris":{"android":"levelo://app?vid=96dbe94d-8155-4ebe-b940-9bf57eef8db7","ios":"levelo://app?vid=96dbe94d-8155-4ebe-b940-9bf57eef8db7"},"vehicle_type_id":"4","last_reported":1721747349,"current_range_meters":24000,"station_id":"ce4bhc92rcd13ifvqetg","pricing_plan_id":"cebpf4jnsgd1na2vs0mg"},{"bike_id":"fd2908d9-2bad-457f-9155-3b2e1d5564c0","system_id":"levelo_inurba_marseille","lat":43.28937,"lon":5.36392,"is_reserved":false,"is_disabled":false,"rental_uris":{"android":"levelo://app?vid=fd2908d9-2bad-457f-9155-3b2e1d5564c0","ios":"levelo://app?vid=fd2908d9-2bad-457f-9155-3b2e1d5564c0"},"vehicle_type_id":"4","last_reported":1721747349,"current_range_meters":20400,"station_id":"ce4bhc92rcd13ifvqetg","pricing_plan_id":"cebpf4jnsgd1na2vs0mg"},{"bike_id":"f99ffc4f-ba80-476e-91ba-1a02425e5b31","system_id":"levelo_inurba_marseille","lat":43.29066,"lon":5.35587,"is_reserved":false,"is_disabled":false,"rental_uris":{"android":"levelo://app?vid=f99ffc4f-ba80-476e-91ba-1a02425e5b31","ios":"levelo://app?vid=f99ffc4f-ba80-476e-91ba-1a02425e5b31"},"vehicle_type_id":"4","last_reported":1721747349,"current_range_meters":10000,"station_id":"","pricing_plan_id":"cebpf4jnsgd1na2vs0mg"},{"bike_id":"a025cbd2-875f-4e43-b1b3-34ca5abfb6a5","system_id":"levelo_inurba_marseille","lat":43.289468,"lon":5.363719,"is_reserved":false,"is_disabled":false,"rental_uris":{"android":"levelo://app?vid=a025cbd2-875f-4e43-b1b3-34ca5abfb6a5","ios":"levelo://app?vid=a025cbd2-875f-4e43-b1b3-34ca5abfb6a5"},"vehicle_type_id":"4","last_reported":1721747349,"current_range_meters":19600,"station_id":"ce4bhc92rcd13ifvqetg","pricing_plan_id":"cebpf4jnsgd1na2vs0mg"},{"bike_id":"9235574a-5700-42c6-85ef-3aabeb32dff5","system_id":"levelo_inurba_marseille","lat":43.289468,"lon":5.363719,"is_reserved":false,"is_disabled":false,"rental_uris":{"android":"levelo://app?vid=9235574a-5700-42c6-85ef-3aabeb32dff5","ios":"levelo://app?vid=9235574a-5700-42c6-85ef-3aabeb32dff5"},"vehicle_type_id":"4","last_reported":1721747349,"current_range_meters":20400,"station_id":"ce4bhc92rcd13ifvqetg","pricing_plan_id":"cebpf4jnsgd1na2vs0mg"},{"bike_id":"7b27cad4-1bf3-424b-ac1a-e11d0c667ab6","system_id":"levelo_inurba_marseille","lat":43.304274,"lon":5.397513,"is_reserved":false,"is_disabled":false,"rental_uris":{"android":"levelo://app?vid=7b27cad4-1bf3-424b-ac1a-e11d0c667ab6","ios":"levelo://app?vid=7b27cad4-1bf3-424b-ac1a-e11d0c667ab6"},"vehicle_type_id":"4","last_reported":1721747349,"current_range_meters":25600,"station_id":"ce4bh092rcd13ifvqd20","pricing_plan_id":"cebpf4jnsgd1na2vs0mg"},{"bike_id":"df7a60df-0a29-44f9-a76e-18dc0552e2bc","system_id":"levelo_inurba_marseille","lat":43.304296,"lon":5.397513,"is_reserved":false,"is_disabled":false,"rental_uris":{"android":"levelo://app?vid=df7a60df-0a29-44f9-a76e-18dc0552e2bc","ios":"levelo://app?vid=df7a60df-0a29-44f9-a76e-18dc0552e2bc"},"vehicle_type_id":"4","last_reported":1721747349,"current_range_meters":10000,"station_id":"ce4bh092rcd13ifvqd20","pricing_plan_id":"cebpf4jnsgd1na2vs0mg"},{"bike_id":"d4805ab5-30b3-4558-8975-3a140190b1e2","system_id":"levelo_inurba_marseille","lat":43.292642,"lon":5.384254,"is_reserved":false,"is_disabled":false,"rental_uris":{"android":"levelo://app?vid=d4805ab5-30b3-4558-8975-3a140190b1e2","ios":"levelo://app?vid=d4805ab5-30b3-4558-8975-3a140190b1e2"},"vehicle_type_id":"4","last_reported":1721747349,"current_range_meters":26400,"station_id":"ce4bh692rcd13ifvqea0","pricing_plan_id":"cebpf4jnsgd1na2vs0mg"},{"bike_id":"2fc8c490-3de8-43af-a6fb-0d8ba61dc069","system_id":"levelo_inurba_marseille","lat":43.304296,"lon":5.397513,"is_reserved":false,"is_disabled":false,"rental_uris":{"android":"levelo://app?vid=2fc8c490-3de8-43af-a6fb-0d8ba61dc069","ios":"levelo://app?vid=2fc8c490-3de8-43af-a6fb-0d8ba61dc069"},"vehicle_type_id":"4","last_reported":1721747349,"current_range_meters":24400,"station_id":"ce4bh092rcd13ifvqd20","pricing_plan_id":"cebpf4jnsgd1na2vs0mg"},{"bike_id":"68af946e-81ed-4121-8708-e18251cb6a9d","system_id":"levelo_inurba_marseille","lat":43.290104,"lon":5.356111,"is_reserved":false,"is_disabled":false,"rental_uris":{"android":"levelo://app?vid=68af946e-81ed-4121-8708-e18251cb6a9d","ios":"levelo://app?vid=68af946e-81ed-4121-8708-e18251cb6a9d"},"vehicle_type_id":"4","last_reported":1721747349,"current_range_meters":4800,"station_id":"ce4bhb92rcd13ifvqen0","pricing_plan_id":"cebpf4jnsgd1na2vs0mg"},{"bike_id":"b523d58d-89c1-47d6-aea0-dd66f9d36343","system_id":"levelo_inurba_marseille","lat":43.290104,"lon":5.356111,"is_reserved":false,"is_disabled":false,"rental_uris":{"android":"levelo://app?vid=b523d58d-89c1-47d6-aea0-dd66f9d36343","ios":"levelo://app?vid=b523d58d-89c1-47d6-aea0-dd66f9d36343"},"vehicle_type_id":"4","last_reported":1721747349,"current_range_meters":6800,"station_id":"ce4bhb92rcd13ifvqen0","pricing_plan_id":"cebpf4jnsgd1na2vs0mg"},{"bike_id":"f2cb1d1a-ef05-4702-8ddd-144357bea5ee","system_id":"levelo_inurba_marseille","lat":43.290104,"lon":5.356111,"is_reserved":false,"is_disabled":false,"rental_uris":{"android":"levelo://app?vid=f2cb1d1a-ef05-4702-8ddd-144357bea5ee","ios":"levelo://app?vid=f2cb1d1a-ef05-4702-8ddd-144357bea5ee"},"vehicle_type_id":"4","last_reported":1721747349,"current_range_meters":21200,"station_id":"ce4bhb92rcd13ifvqen0","pricing_plan_id":"cebpf4jnsgd1na2vs0mg"},{"bike_id":"1c434e30-0b32-42ec-8808-80e4c4ff1b24","system_id":"levelo_inurba_marseille","lat":43.290104,"lon":5.356111,"is_reserved":false,"is_disabled":false,"rental_uris":{"android":"levelo://app?vid=1c434e30-0b32-42ec-8808-80e4c4ff1b24","ios":"levelo://app?vid=1c434e30-0b32-42ec-8808-80e4c4ff1b24"},"vehicle_type_id":"4","last_reported":1721747349,"current_range_meters":0,"station_id":"ce4bhb92rcd13ifvqen0","pricing_plan_id":"cebpf4jnsgd1na2vs0mg"},{"bike_id":"b182030a-901d-44f1-9cba-a21312bf74e2","system_id":"levelo_inurba_marseille","lat":43.290065,"lon":5.355264,"is_reserved":false,"is_disabled":false,"rental_uris":{"android":"levelo://app?vid=b182030a-901d-44f1-9cba-a21312bf74e2","ios":"levelo://app?vid=b182030a-901d-44f1-9cba-a21312bf74e2"},"vehicle_type_id":"4","last_reported":1721747349,"current_range_meters":17600,"station_id":"","pricing_plan_id":"cebpf4jnsgd1na2vs0mg"},{"bike_id":"4e1820b7-ac83-41a0-9b95-667c3d170ffa","system_id":"levelo_inurba_marseille","lat":43.297815,"lon":5.393548,"is_reserved":false,"is_disabled":false,"rental_uris":{"android":"levelo://app?vid=4e1820b7-ac83-41a0-9b95-667c3d170ffa","ios":"levelo://app?vid=4e1820b7-ac83-41a0-9b95-667c3d170ffa"},"vehicle_type_id":"4","last_reported":1721747349,"current_range_meters":17600,"station_id":"chh1huq6cuj3fo74tm60","pricing_plan_id":"cebpf4jnsgd1na2vs0mg"},{"bike_id":"2c30b946-8881-487f-8144-b18804f6e060","system_id":"levelo_inurba_marseille","lat":43.290995,"lon":5.381361,"is_reserved":false,"is_disabled":false,"rental_uris":{"android":"levelo://app?vid=2c30b946-8881-487f-8144-b18804f6e060","ios":"levelo://app?vid=2c30b946-8881-487f-8144-b18804f6e060"},"vehicle_type_id":"4","last_reported":1721747349,"current_range_meters":0,"station_id":"ce4bh512rcd13ifvqe2g","pricing_plan_id":"cebpf4jnsgd1na2vs0mg"},{"bike_id":"fc832a90-dbbc-4b8a-8461-11d0b114c9e5","system_id":"levelo_inurba_marseille","lat":43.33037,"lon":5.39005,"is_reserved":false,"is_disabled":false,"rental_uris":{"android":"levelo://app?vid=fc832a90-dbbc-4b8a-8461-11d0b114c9e5","ios":"levelo://app?vid=fc832a90-dbbc-4b8a-8461-11d0b114c9e5"},"vehicle_type_id":"4","last_reported":1721747349,"current_range_meters":10400,"station_id":"ce4bhr92rcd13ifvqhrg","pricing_plan_id":"cebpf4jnsgd1na2vs0mg"},{"bike_id":"ddcf22a3-f534-482f-a971-8f862565c476","system_id":"levelo_inurba_marseille","lat":43.33022,"lon":5.39038,"is_reserved":false,"is_disabled":false,"rental_uris":{"android":"levelo://app?vid=ddcf22a3-f534-482f-a971-8f862565c476","ios":"levelo://app?vid=ddcf22a3-f534-482f-a971-8f862565c476"},"vehicle_type_id":"4","last_reported":1721747349,"current_range_meters":23200,"station_id":"ce4bhr92rcd13ifvqhrg","pricing_plan_id":"cebpf4jnsgd1na2vs0mg"},{"bike_id":"aa76fa0b-b5f1-4be0-820c-96c0ec6fdbfe","system_id":"levelo_inurba_marseille","lat":43.330442,"lon":5.389148,"is_reserved":false,"is_disabled":false,"rental_uris":{"android":"levelo://app?vid=aa76fa0b-b5f1-4be0-820c-96c0ec6fdbfe","ios":"levelo://app?vid=aa76fa0b-b5f1-4be0-820c-96c0ec6fdbfe"},"vehicle_type_id":"4","last_reported":1721747349,"current_range_meters":12800,"station_id":"ce4bhr92rcd13ifvqhrg","pricing_plan_id":"cebpf4jnsgd1na2vs0mg"},{"bike_id":"b7011184-62eb-42b1-8048-4ff7a6a78744","system_id":"levelo_inurba_marseille","lat":43.33024,"lon":5.39041,"is_reserved":false,"is_disabled":false,"rental_uris":{"android":"levelo://app?vid=b7011184-62eb-42b1-8048-4ff7a6a78744","ios":"levelo://app?vid=b7011184-62eb-42b1-8048-4ff7a6a78744"},"vehicle_type_id":"4","last_reported":1721747349,"current_range_meters":1200,"station_id":"ce4bhr92rcd13ifvqhrg","pricing_plan_id":"cebpf4jnsgd1na2vs0mg"},{"bike_id":"3808cd32-ab3a-4b4d-bc5c-3b6a811f4cc4","system_id":"levelo_inurba_marseille","lat":43.28856,"lon":5.358371,"is_reserved":false,"is_disabled":false,"rental_uris":{"android":"levelo://app?vid=3808cd32-ab3a-4b4d-bc5c-3b6a811f4cc4","ios":"levelo://app?vid=3808cd32-ab3a-4b4d-bc5c-3b6a811f4cc4"},"vehicle_type_id":"4","last_reported":1721747349,"current_range_meters":0,"station_id":"ce4bhb12rcd13ifvqem0","pricing_plan_id":"cebpf4jnsgd1na2vs0mg"},{"bike_id":"252ef4b1-904a-4462-b7bd-e612e8b27846","system_id":"levelo_inurba_marseille","lat":43.309371,"lon":5.401449,"is_reserved":false,"is_disabled":false,"rental_uris":{"android":"levelo://app?vid=252ef4b1-904a-4462-b7bd-e612e8b27846","ios":"levelo://app?vid=252ef4b1-904a-4462-b7bd-e612e8b27846"},"vehicle_type_id":"4","last_reported":1721747349,"current_range_meters":31200,"station_id":"ce4bgvp2rcd13ifvqct0","pricing_plan_id":"cebpf4jnsgd1na2vs0mg"},{"bike_id":"4b367146-0f8f-4d6a-9327-312bb8f9474f","system_id":"levelo_inurba_marseille","lat":43.312609,"lon":5.401662,"is_reserved":false,"is_disabled":false,"rental_uris":{"android":"levelo://app?vid=4b367146-0f8f-4d6a-9327-312bb8f9474f","ios":"levelo://app?vid=4b367146-0f8f-4d6a-9327-312bb8f9474f"},"vehicle_type_id":"4","last_reported":1721747349,"current_range_meters":31200,"station_id":"ce4bh092rcd13ifvqd30","pricing_plan_id":"cebpf4jnsgd1na2vs0mg"},{"bike_id":"813878f8-5c09-42fc-a565-9c8b9db28a68","system_id":"levelo_inurba_marseille","lat":43.3375,"lon":5.37424,"is_reserved":false,"is_disabled":false,"rental_uris":{"android":"levelo://app?vid=813878f8-5c09-42fc-a565-9c8b9db28a68","ios":"levelo://app?vid=813878f8-5c09-42fc-a565-9c8b9db28a68"},"vehicle_type_id":"4","last_reported":1721747349,"current_range_meters":28000,"station_id":"","pricing_plan_id":"cebpf4jnsgd1na2vs0mg"},{"bike_id":"6bee14db-9f88-4c59-afa5-da083c1ffbe3","system_id":"levelo_inurba_marseille","lat":43.337483,"lon":5.374533,"is_reserved":false,"is_disabled":false,"rental_uris":{"android":"levelo://app?vid=6bee14db-9f88-4c59-afa5-da083c1ffbe3","ios":"levelo://app?vid=6bee14db-9f88-4c59-afa5-da083c1ffbe3"},"vehicle_type_id":"4","last_reported":1721747349,"current_range_meters":22800,"station_id":"","pricing_plan_id":"cebpf4jnsgd1na2vs0mg"},{"bike_id":"50b5e63a-0478-4ea4-92a0-2e1091787dc6","system_id":"levelo_inurba_marseille","lat":43.33753,"lon":5.37426,"is_reserved":false,"is_disabled":false,"rental_uris":{"android":"levelo://app?vid=50b5e63a-0478-4ea4-92a0-2e1091787dc6","ios":"levelo://app?vid=50b5e63a-0478-4ea4-92a0-2e1091787dc6"},"vehicle_type_id":"4","last_reported":1721747349,"current_range_meters":2000,"station_id":"","pricing_plan_id":"cebpf4jnsgd1na2vs0mg"},{"bike_id":"092589e0-0163-4d60-8815-6d0c9e4ac08e","system_id":"levelo_inurba_marseille","lat":43.309371,"lon":5.401449,"is_reserved":false,"is_disabled":false,"rental_uris":{"android":"levelo://app?vid=092589e0-0163-4d60-8815-6d0c9e4ac08e","ios":"levelo://app?vid=092589e0-0163-4d60-8815-6d0c9e4ac08e"},"vehicle_type_id":"4","last_reported":1721747349,"current_range_meters":31600,"station_id":"ce4bgvp2rcd13ifvqct0","pricing_plan_id":"cebpf4jnsgd1na2vs0mg"},{"bike_id":"77a66306-ea4c-470f-b576-87cc5ae0b3f4","system_id":"levelo_inurba_marseille","lat":43.33756,"lon":5.37443,"is_reserved":false,"is_disabled":false,"rental_uris":{"android":"levelo://app?vid=77a66306-ea4c-470f-b576-87cc5ae0b3f4","ios":"levelo://app?vid=77a66306-ea4c-470f-b576-87cc5ae0b3f4"},"vehicle_type_id":"4","last_reported":1721747349,"current_range_meters":26400,"station_id":"","pricing_plan_id":"cebpf4jnsgd1na2vs0mg"},{"bike_id":"56b6a81f-a86e-45db-b3de-8097b698a36d","system_id":"levelo_inurba_marseille","lat":43.337603,"lon":5.37448,"is_reserved":false,"is_disabled":false,"rental_uris":{"android":"levelo://app?vid=56b6a81f-a86e-45db-b3de-8097b698a36d","ios":"levelo://app?vid=56b6a81f-a86e-45db-b3de-8097b698a36d"},"vehicle_type_id":"4","last_reported":1721747349,"current_range_meters":11200,"station_id":"","pricing_plan_id":"cebpf4jnsgd1na2vs0mg"},{"bike_id":"a235c800-3c57-4740-a673-3a0ec502d831","system_id":"levelo_inurba_marseille","lat":43.33763,"lon":5.374348,"is_reserved":false,"is_disabled":false,"rental_uris":{"android":"levelo://app?vid=a235c800-3c57-4740-a673-3a0ec502d831","ios":"levelo://app?vid=a235c800-3c57-4740-a673-3a0ec502d831"},"vehicle_type_id":"4","last_reported":1721747349,"current_range_meters":31200,"station_id":"","pricing_plan_id":"cebpf4jnsgd1na2vs0mg"},{"bike_id":"eb372ff8-f084-442e-8aea-9592d637138d","system_id":"levelo_inurba_marseille","lat":43.30642,"lon":5.401031,"is_reserved":false,"is_disabled":false,"rental_uris":{"android":"levelo://app?vid=eb372ff8-f084-442e-8aea-9592d637138d","ios":"levelo://app?vid=eb372ff8-f084-442e-8aea-9592d637138d"},"vehicle_type_id":"4","last_reported":1721747349,"current_range_meters":22000,"station_id":"ce4bh112rcd13ifvqda0","pricing_plan_id":"cebpf4jnsgd1na2vs0mg"},{"bike_id":"ada404e1-286e-4231-83cd-5d5c11866612","system_id":"levelo_inurba_marseille","lat":43.30642,"lon":5.401031,"is_reserved":false,"is_disabled":false,"rental_uris":{"android":"levelo://app?vid=ada404e1-286e-4231-83cd-5d5c11866612","ios":"levelo://app?vid=ada404e1-286e-4231-83cd-5d5c11866612"},"vehicle_type_id":"4","last_reported":1721747349,"current_range_meters":27600,"station_id":"ce4bh112rcd13ifvqda0","pricing_plan_id":"cebpf4jnsgd1na2vs0mg"},{"bike_id":"9205b594-2517-4b27-b129-0eca455171c5","system_id":"levelo_inurba_marseille","lat":43.30642,"lon":5.401031,"is_reserved":false,"is_disabled":false,"rental_uris":{"android":"levelo://app?vid=9205b594-2517-4b27-b129-0eca455171c5","ios":"levelo://app?vid=9205b594-2517-4b27-b129-0eca455171c5"},"vehicle_type_id":"4","last_reported":1721747349,"current_range_meters":2000,"station_id":"ce4bh112rcd13ifvqda0","pricing_plan_id":"cebpf4jnsgd1na2vs0mg"},{"bike_id":"72742065-b9f9-425b-adb6-911ad375ccc0","system_id":"levelo_inurba_marseille","lat":43.33768,"lon":5.3745,"is_reserved":false,"is_disabled":false,"rental_uris":{"android":"levelo://app?vid=72742065-b9f9-425b-adb6-911ad375ccc0","ios":"levelo://app?vid=72742065-b9f9-425b-adb6-911ad375ccc0"},"vehicle_type_id":"4","last_reported":1721747349,"current_range_meters":27200,"station_id":"","pricing_plan_id":"cebpf4jnsgd1na2vs0mg"},{"bike_id":"567f70c5-83c1-4b23-8cf1-e0291c45a528","system_id":"levelo_inurba_marseille","lat":43.30124,"lon":5.39849,"is_reserved":false,"is_disabled":false,"rental_uris":{"android":"levelo://app?vid=567f70c5-83c1-4b23-8cf1-e0291c45a528","ios":"levelo://app?vid=567f70c5-83c1-4b23-8cf1-e0291c45a528"},"vehicle_type_id":"4","last_reported":1721747349,"current_range_meters":20000,"station_id":"ce4bh0h2rcd13ifvqd40","pricing_plan_id":"cebpf4jnsgd1na2vs0mg"},{"bike_id":"597ca1b3-a2c6-44dc-b9ba-c22a240f6507","system_id":"levelo_inurba_marseille","lat":43.301117,"lon":5.398795,"is_reserved":false,"is_disabled":false,"rental_uris":{"android":"levelo://app?vid=597ca1b3-a2c6-44dc-b9ba-c22a240f6507","ios":"levelo://app?vid=597ca1b3-a2c6-44dc-b9ba-c22a240f6507"},"vehicle_type_id":"4","last_reported":1721747349,"current_range_meters":26000,"station_id":"ce4bh0h2rcd13ifvqd40","pricing_plan_id":"cebpf4jnsgd1na2vs0mg"},{"bike_id":"0750d2b9-8c2a-4520-a119-8cfd123e354f","system_id":"levelo_inurba_marseille","lat":43.301117,"lon":5.398795,"is_reserved":false,"is_disabled":false,"rental_uris":{"android":"levelo://app?vid=0750d2b9-8c2a-4520-a119-8cfd123e354f","ios":"levelo://app?vid=0750d2b9-8c2a-4520-a119-8cfd123e354f"},"vehicle_type_id":"4","last_reported":1721747349,"current_range_meters":11200,"station_id":"ce4bh0h2rcd13ifvqd40","pricing_plan_id":"cebpf4jnsgd1na2vs0mg"},{"bike_id":"1a71c3d8-4750-434e-addd-b2e2a8c8ee99","system_id":"levelo_inurba_marseille","lat":43.286591,"lon":5.363346,"is_reserved":false,"is_disabled":false,"rental_uris":{"android":"levelo://app?vid=1a71c3d8-4750-434e-addd-b2e2a8c8ee99","ios":"levelo://app?vid=1a71c3d8-4750-434e-addd-b2e2a8c8ee99"},"vehicle_type_id":"4","last_reported":1721747349,"current_range_meters":0,"station_id":"ce4bhah2rcd13ifvqej0","pricing_plan_id":"cebpf4jnsgd1na2vs0mg"},{"bike_id":"a537c542-7f88-4b78-a9d6-83f2080d9c45","system_id":"levelo_inurba_marseille","lat":43.298681,"lon":5.397225,"is_reserved":false,"is_disabled":false,"rental_uris":{"android":"levelo://app?vid=a537c542-7f88-4b78-a9d6-83f2080d9c45","ios":"levelo://app?vid=a537c542-7f88-4b78-a9d6-83f2080d9c45"},"vehicle_type_id":"4","last_reported":1721747349,"current_range_meters":0,"station_id":"ce4bh0h2rcd13ifvqd50","pricing_plan_id":"cebpf4jnsgd1na2vs0mg"},{"bike_id":"3dd7a70b-122a-448d-9883-802acd9f8abd","system_id":"levelo_inurba_marseille","lat":43.286593,"lon":5.363346,"is_reserved":false,"is_disabled":false,"rental_uris":{"android":"levelo://app?vid=3dd7a70b-122a-448d-9883-802acd9f8abd","ios":"levelo://app?vid=3dd7a70b-122a-448d-9883-802acd9f8abd"},"vehicle_type_id":"4","last_reported":1721747349,"current_range_meters":21600,"station_id":"ce4bhah2rcd13ifvqej0","pricing_plan_id":"cebpf4jnsgd1na2vs0mg"},{"bike_id":"0b4d96a9-1cd9-45a1-b224-5ca90534dacc","system_id":"levelo_inurba_marseille","lat":43.286591,"lon":5.363346,"is_reserved":false,"is_disabled":false,"rental_uris":{"android":"levelo://app?vid=0b4d96a9-1cd9-45a1-b224-5ca90534dacc","ios":"levelo://app?vid=0b4d96a9-1cd9-45a1-b224-5ca90534dacc"},"vehicle_type_id":"4","last_reported":1721747349,"current_range_meters":22400,"station_id":"ce4bhah2rcd13ifvqej0","pricing_plan_id":"cebpf4jnsgd1na2vs0mg"},{"bike_id":"43527ad1-b0ba-4f99-9518-5310f7987dcf","system_id":"levelo_inurba_marseille","lat":43.28655,"lon":5.36351,"is_reserved":false,"is_disabled":false,"rental_uris":{"android":"levelo://app?vid=43527ad1-b0ba-4f99-9518-5310f7987dcf","ios":"levelo://app?vid=43527ad1-b0ba-4f99-9518-5310f7987dcf"},"vehicle_type_id":"4","last_reported":1721747349,"current_range_meters":5600,"station_id":"ce4bhah2rcd13ifvqej0","pricing_plan_id":"cebpf4jnsgd1na2vs0mg"},{"bike_id":"10cfce7b-3623-47bc-88d0-c7493457e078","system_id":"levelo_inurba_marseille","lat":43.289307,"lon":5.38406,"is_reserved":false,"is_disabled":false,"rental_uris":{"android":"levelo://app?vid=10cfce7b-3623-47bc-88d0-c7493457e078","ios":"levelo://app?vid=10cfce7b-3623-47bc-88d0-c7493457e078"},"vehicle_type_id":"4","last_reported":1721747349,"current_range_meters":22800,"station_id":"ce4bh612rcd13ifvqe6g","pricing_plan_id":"cebpf4jnsgd1na2vs0mg"},{"bike_id":"2f2bc032-d4b4-436e-9f2e-1f2b73e61abb","system_id":"levelo_inurba_marseille","lat":43.302759,"lon":5.400793,"is_reserved":false,"is_disabled":false,"rental_uris":{"android":"levelo://app?vid=2f2bc032-d4b4-436e-9f2e-1f2b73e61abb","ios":"levelo://app?vid=2f2bc032-d4b4-436e-9f2e-1f2b73e61abb"},"vehicle_type_id":"4","last_reported":1721747349,"current_range_meters":28400,"station_id":"ce4bgvh2rcd13ifvqcs0","pricing_plan_id":"cebpf4jnsgd1na2vs0mg"},{"bike_id":"426a9f6e-678d-4340-b28c-50623c955c44","system_id":"levelo_inurba_marseille","lat":43.302759,"lon":5.400793,"is_reserved":false,"is_disabled":false,"rental_uris":{"android":"levelo://app?vid=426a9f6e-678d-4340-b28c-50623c955c44","ios":"levelo://app?vid=426a9f6e-678d-4340-b28c-50623c955c44"},"vehicle_type_id":"4","last_reported":1721747349,"current_range_meters":28000,"station_id":"ce4bgvh2rcd13ifvqcs0","pricing_plan_id":"cebpf4jnsgd1na2vs0mg"},{"bike_id":"3aec8728-3bb7-4b4a-bfc1-b20c4d340bc2","system_id":"levelo_inurba_marseille","lat":43.30239,"lon":5.40056,"is_reserved":false,"is_disabled":false,"rental_uris":{"android":"levelo://app?vid=3aec8728-3bb7-4b4a-bfc1-b20c4d340bc2","ios":"levelo://app?vid=3aec8728-3bb7-4b4a-bfc1-b20c4d340bc2"},"vehicle_type_id":"4","last_reported":1721747349,"current_range_meters":7600,"station_id":"ce4bgvh2rcd13ifvqcs0","pricing_plan_id":"cebpf4jnsgd1na2vs0mg"},{"bike_id":"7c2f0585-3a8c-4029-b956-0725bf7dc161","system_id":"levelo_inurba_marseille","lat":43.3025,"lon":5.40065,"is_reserved":false,"is_disabled":false,"rental_uris":{"android":"levelo://app?vid=7c2f0585-3a8c-4029-b956-0725bf7dc161","ios":"levelo://app?vid=7c2f0585-3a8c-4029-b956-0725bf7dc161"},"vehicle_type_id":"4","last_reported":1721747349,"current_range_meters":22800,"station_id":"ce4bgvh2rcd13ifvqcs0","pricing_plan_id":"cebpf4jnsgd1na2vs0mg"},{"bike_id":"53b68da5-646a-4af5-a293-afd8c2724d77","system_id":"levelo_inurba_marseille","lat":43.290336,"lon":5.386425,"is_reserved":false,"is_disabled":false,"rental_uris":{"android":"levelo://app?vid=53b68da5-646a-4af5-a293-afd8c2724d77","ios":"levelo://app?vid=53b68da5-646a-4af5-a293-afd8c2724d77"},"vehicle_type_id":"4","last_reported":1721747349,"current_range_meters":2000,"station_id":"ce4bh4p2rcd13ifvqe0g","pricing_plan_id":"cebpf4jnsgd1na2vs0mg"},{"bike_id":"22bc287d-8c66-41c3-bf24-a4ccc1f1ba9b","system_id":"levelo_inurba_marseille","lat":43.286039,"lon":5.370679,"is_reserved":false,"is_disabled":false,"rental_uris":{"android":"levelo://app?vid=22bc287d-8c66-41c3-bf24-a4ccc1f1ba9b","ios":"levelo://app?vid=22bc287d-8c66-41c3-bf24-a4ccc1f1ba9b"},"vehicle_type_id":"4","last_reported":1721747349,"current_range_meters":9200,"station_id":"ce4bht12rcd13ifvqi60","pricing_plan_id":"cebpf4jnsgd1na2vs0mg"},{"bike_id":"034917cf-0dcb-4138-91d6-4780f9e1adda","system_id":"levelo_inurba_marseille","lat":43.284538,"lon":5.358657,"is_reserved":false,"is_disabled":false,"rental_uris":{"android":"levelo://app?vid=034917cf-0dcb-4138-91d6-4780f9e1adda","ios":"levelo://app?vid=034917cf-0dcb-4138-91d6-4780f9e1adda"},"vehicle_type_id":"4","last_reported":1721747349,"current_range_meters":4400,"station_id":"ce4bhah2rcd13ifvqei0","pricing_plan_id":"cebpf4jnsgd1na2vs0mg"},{"bike_id":"bfaae27e-b5a4-450f-9328-cc1410f5cb2c","system_id":"levelo_inurba_marseille","lat":43.286275,"lon":5.351225,"is_reserved":false,"is_disabled":false,"rental_uris":{"android":"levelo://app?vid=bfaae27e-b5a4-450f-9328-cc1410f5cb2c","ios":"levelo://app?vid=bfaae27e-b5a4-450f-9328-cc1410f5cb2c"},"vehicle_type_id":"4","last_reported":1721747349,"current_range_meters":0,"station_id":"","pricing_plan_id":"cebpf4jnsgd1na2vs0mg"},{"bike_id":"f318def8-2f92-453f-ab01-0c79d502cc25","system_id":"levelo_inurba_marseille","lat":43.285856,"lon":5.350771,"is_reserved":false,"is_disabled":false,"rental_uris":{"android":"levelo://app?vid=f318def8-2f92-453f-ab01-0c79d502cc25","ios":"levelo://app?vid=f318def8-2f92-453f-ab01-0c79d502cc25"},"vehicle_type_id":"4","last_reported":1721747349,"current_range_meters":0,"station_id":"ce4bhch2rcd13ifvqeug","pricing_plan_id":"cebpf4jnsgd1na2vs0mg"},{"bike_id":"70b34ebb-d7cc-487b-93d5-98fbdc89f41b","system_id":"levelo_inurba_marseille","lat":43.285848,"lon":5.350787,"is_reserved":false,"is_disabled":false,"rental_uris":{"android":"levelo://app?vid=70b34ebb-d7cc-487b-93d5-98fbdc89f41b","ios":"levelo://app?vid=70b34ebb-d7cc-487b-93d5-98fbdc89f41b"},"vehicle_type_id":"4","last_reported":1721747349,"current_range_meters":25200,"station_id":"ce4bhch2rcd13ifvqeug","pricing_plan_id":"cebpf4jnsgd1na2vs0mg"},{"bike_id":"1231718a-6f7e-4bcf-8e45-88edbd16cf8e","system_id":"levelo_inurba_marseille","lat":43.28616,"lon":5.35102,"is_reserved":false,"is_disabled":false,"rental_uris":{"android":"levelo://app?vid=1231718a-6f7e-4bcf-8e45-88edbd16cf8e","ios":"levelo://app?vid=1231718a-6f7e-4bcf-8e45-88edbd16cf8e"},"vehicle_type_id":"4","last_reported":1721747349,"current_range_meters":0,"station_id":"","pricing_plan_id":"cebpf4jnsgd1na2vs0mg"},{"bike_id":"377c5554-f1eb-48b3-aea2-dbee946a8019","system_id":"levelo_inurba_marseille","lat":43.283998,"lon":5.375062,"is_reserved":false,"is_disabled":false,"rental_uris":{"android":"levelo://app?vid=377c5554-f1eb-48b3-aea2-dbee946a8019","ios":"levelo://app?vid=377c5554-f1eb-48b3-aea2-dbee946a8019"},"vehicle_type_id":"4","last_reported":1721747349,"current_range_meters":21200,"station_id":"ce4bh412rcd13ifvqds0","pricing_plan_id":"cebpf4jnsgd1na2vs0mg"},{"bike_id":"77691013-84b1-4727-9c7c-452c58a3b4d6","system_id":"levelo_inurba_marseille","lat":43.283998,"lon":5.375062,"is_reserved":false,"is_disabled":false,"rental_uris":{"android":"levelo://app?vid=77691013-84b1-4727-9c7c-452c58a3b4d6","ios":"levelo://app?vid=77691013-84b1-4727-9c7c-452c58a3b4d6"},"vehicle_type_id":"4","last_reported":1721747349,"current_range_meters":28400,"station_id":"ce4bh412rcd13ifvqds0","pricing_plan_id":"cebpf4jnsgd1na2vs0mg"},{"bike_id":"4abc83d5-8816-4abc-8341-d28c9bbb80d3","system_id":"levelo_inurba_marseille","lat":43.283998,"lon":5.375062,"is_reserved":false,"is_disabled":false,"rental_uris":{"android":"levelo://app?vid=4abc83d5-8816-4abc-8341-d28c9bbb80d3","ios":"levelo://app?vid=4abc83d5-8816-4abc-8341-d28c9bbb80d3"},"vehicle_type_id":"4","last_reported":1721747349,"current_range_meters":8400,"station_id":"ce4bh412rcd13ifvqds0","pricing_plan_id":"cebpf4jnsgd1na2vs0mg"},{"bike_id":"8639cffd-690f-4944-9e36-9bd393f85968","system_id":"levelo_inurba_marseille","lat":43.29568,"lon":5.39974,"is_reserved":false,"is_disabled":false,"rental_uris":{"android":"levelo://app?vid=8639cffd-690f-4944-9e36-9bd393f85968","ios":"levelo://app?vid=8639cffd-690f-4944-9e36-9bd393f85968"},"vehicle_type_id":"4","last_reported":1721747349,"current_range_meters":0,"station_id":"ce4bh312rcd13ifvqdj0","pricing_plan_id":"cebpf4jnsgd1na2vs0mg"},{"bike_id":"8c92107b-23ab-403b-808e-14a0274ab7bf","system_id":"levelo_inurba_marseille","lat":43.283998,"lon":5.375062,"is_reserved":false,"is_disabled":false,"rental_uris":{"android":"levelo://app?vid=8c92107b-23ab-403b-808e-14a0274ab7bf","ios":"levelo://app?vid=8c92107b-23ab-403b-808e-14a0274ab7bf"},"vehicle_type_id":"4","last_reported":1721747349,"current_range_meters":17600,"station_id":"ce4bh412rcd13ifvqds0","pricing_plan_id":"cebpf4jnsgd1na2vs0mg"},{"bike_id":"361f95ce-6641-4091-acd5-c5ae5f33b115","system_id":"levelo_inurba_marseille","lat":43.297807,"lon":5.393533,"is_reserved":false,"is_disabled":false,"rental_uris":{"android":"levelo://app?vid=361f95ce-6641-4091-acd5-c5ae5f33b115","ios":"levelo://app?vid=361f95ce-6641-4091-acd5-c5ae5f33b115"},"vehicle_type_id":"4","last_reported":1721747349,"current_range_meters":23200,"station_id":"chh1huq6cuj3fo74tm60","pricing_plan_id":"cebpf4jnsgd1na2vs0mg"},{"bike_id":"73fe231e-c655-477f-add9-38fc42369806","system_id":"levelo_inurba_marseille","lat":43.337168,"lon":5.391825,"is_reserved":false,"is_disabled":false,"rental_uris":{"android":"levelo://app?vid=73fe231e-c655-477f-add9-38fc42369806","ios":"levelo://app?vid=73fe231e-c655-477f-add9-38fc42369806"},"vehicle_type_id":"4","last_reported":1721747349,"current_range_meters":16000,"station_id":"ce4bhr92rcd13ifvqhsg","pricing_plan_id":"cebpf4jnsgd1na2vs0mg"},{"bike_id":"336b3dcc-02cd-4811-9b1d-a25103b14b19","system_id":"levelo_inurba_marseille","lat":43.33717,"lon":5.391857,"is_reserved":false,"is_disabled":false,"rental_uris":{"android":"levelo://app?vid=336b3dcc-02cd-4811-9b1d-a25103b14b19","ios":"levelo://app?vid=336b3dcc-02cd-4811-9b1d-a25103b14b19"},"vehicle_type_id":"4","last_reported":1721747349,"current_range_meters":31200,"station_id":"ce4bhr92rcd13ifvqhsg","pricing_plan_id":"cebpf4jnsgd1na2vs0mg"},{"bike_id":"eebe5cfb-9b2b-49b9-ba57-3e77acc80b51","system_id":"levelo_inurba_marseille","lat":43.33717,"lon":5.391857,"is_reserved":false,"is_disabled":false,"rental_uris":{"android":"levelo://app?vid=eebe5cfb-9b2b-49b9-ba57-3e77acc80b51","ios":"levelo://app?vid=eebe5cfb-9b2b-49b9-ba57-3e77acc80b51"},"vehicle_type_id":"4","last_reported":1721747349,"current_range_meters":19600,"station_id":"ce4bhr92rcd13ifvqhsg","pricing_plan_id":"cebpf4jnsgd1na2vs0mg"},{"bike_id":"03f5684d-70fa-4182-813d-3ed580295f10","system_id":"levelo_inurba_marseille","lat":43.33717,"lon":5.391857,"is_reserved":false,"is_disabled":false,"rental_uris":{"android":"levelo://app?vid=03f5684d-70fa-4182-813d-3ed580295f10","ios":"levelo://app?vid=03f5684d-70fa-4182-813d-3ed580295f10"},"vehicle_type_id":"4","last_reported":1721747349,"current_range_meters":12400,"station_id":"ce4bhr92rcd13ifvqhsg","pricing_plan_id":"cebpf4jnsgd1na2vs0mg"},{"bike_id":"c15dc7ed-cd05-434f-836e-b2a864aec6df","system_id":"levelo_inurba_marseille","lat":43.33717,"lon":5.391857,"is_reserved":false,"is_disabled":false,"rental_uris":{"android":"levelo://app?vid=c15dc7ed-cd05-434f-836e-b2a864aec6df","ios":"levelo://app?vid=c15dc7ed-cd05-434f-836e-b2a864aec6df"},"vehicle_type_id":"4","last_reported":1721747349,"current_range_meters":16400,"station_id":"ce4bhr92rcd13ifvqhsg","pricing_plan_id":"cebpf4jnsgd1na2vs0mg"},{"bike_id":"03ecd0b2-7d3c-4d59-bbb6-a0261dab98de","system_id":"levelo_inurba_marseille","lat":43.337168,"lon":5.391825,"is_reserved":false,"is_disabled":false,"rental_uris":{"android":"levelo://app?vid=03ecd0b2-7d3c-4d59-bbb6-a0261dab98de","ios":"levelo://app?vid=03ecd0b2-7d3c-4d59-bbb6-a0261dab98de"},"vehicle_type_id":"4","last_reported":1721747349,"current_range_meters":30000,"station_id":"ce4bhr92rcd13ifvqhsg","pricing_plan_id":"cebpf4jnsgd1na2vs0mg"},{"bike_id":"1ce0e84a-ed53-4a0f-b9ca-8f23f352faf4","system_id":"levelo_inurba_marseille","lat":43.337168,"lon":5.391825,"is_reserved":false,"is_disabled":false,"rental_uris":{"android":"levelo://app?vid=1ce0e84a-ed53-4a0f-b9ca-8f23f352faf4","ios":"levelo://app?vid=1ce0e84a-ed53-4a0f-b9ca-8f23f352faf4"},"vehicle_type_id":"4","last_reported":1721747349,"current_range_meters":16400,"station_id":"ce4bhr92rcd13ifvqhsg","pricing_plan_id":"cebpf4jnsgd1na2vs0mg"},{"bike_id":"a62aae8d-6749-4905-b741-23ede2306709","system_id":"levelo_inurba_marseille","lat":43.32344,"lon":5.40624,"is_reserved":false,"is_disabled":false,"rental_uris":{"android":"levelo://app?vid=a62aae8d-6749-4905-b741-23ede2306709","ios":"levelo://app?vid=a62aae8d-6749-4905-b741-23ede2306709"},"vehicle_type_id":"4","last_reported":1721747349,"current_range_meters":31200,"station_id":"ce4bhq92rcd13ifvqhjg","pricing_plan_id":"cebpf4jnsgd1na2vs0mg"},{"bike_id":"1694cdf0-a4d2-4d95-b647-aa5e16061b82","system_id":"levelo_inurba_marseille","lat":43.297946,"lon":5.404063,"is_reserved":false,"is_disabled":false,"rental_uris":{"android":"levelo://app?vid=1694cdf0-a4d2-4d95-b647-aa5e16061b82","ios":"levelo://app?vid=1694cdf0-a4d2-4d95-b647-aa5e16061b82"},"vehicle_type_id":"4","last_reported":1721747349,"current_range_meters":5200,"station_id":"ce4bh112rcd13ifvqd90","pricing_plan_id":"cebpf4jnsgd1na2vs0mg"},{"bike_id":"f9f9769d-69e4-4a47-a1f3-c2678bdc584b","system_id":"levelo_inurba_marseille","lat":43.283494,"lon":5.380945,"is_reserved":false,"is_disabled":false,"rental_uris":{"android":"levelo://app?vid=f9f9769d-69e4-4a47-a1f3-c2678bdc584b","ios":"levelo://app?vid=f9f9769d-69e4-4a47-a1f3-c2678bdc584b"},"vehicle_type_id":"4","last_reported":1721747349,"current_range_meters":0,"station_id":"ce4bh412rcd13ifvqdr0","pricing_plan_id":"cebpf4jnsgd1na2vs0mg"},{"bike_id":"7b8738ef-88c5-4b45-a3d0-9f952d5f18f6","system_id":"levelo_inurba_marseille","lat":43.284776,"lon":5.385603,"is_reserved":false,"is_disabled":false,"rental_uris":{"android":"levelo://app?vid=7b8738ef-88c5-4b45-a3d0-9f952d5f18f6","ios":"levelo://app?vid=7b8738ef-88c5-4b45-a3d0-9f952d5f18f6"},"vehicle_type_id":"4","last_reported":1721747349,"current_range_meters":22000,"station_id":"ce4bh8p2rcd13ifvqeb0","pricing_plan_id":"cebpf4jnsgd1na2vs0mg"},{"bike_id":"db28a46f-9bde-479d-ade7-5540695d71fb","system_id":"levelo_inurba_marseille","lat":43.284776,"lon":5.385603,"is_reserved":false,"is_disabled":false,"rental_uris":{"android":"levelo://app?vid=db28a46f-9bde-479d-ade7-5540695d71fb","ios":"levelo://app?vid=db28a46f-9bde-479d-ade7-5540695d71fb"},"vehicle_type_id":"4","last_reported":1721747349,"current_range_meters":0,"station_id":"ce4bh8p2rcd13ifvqeb0","pricing_plan_id":"cebpf4jnsgd1na2vs0mg"},{"bike_id":"3f4e80d4-39b8-4f0a-8a8f-7ff952b2c256","system_id":"levelo_inurba_marseille","lat":43.284214,"lon":5.349706,"is_reserved":false,"is_disabled":false,"rental_uris":{"android":"levelo://app?vid=3f4e80d4-39b8-4f0a-8a8f-7ff952b2c256","ios":"levelo://app?vid=3f4e80d4-39b8-4f0a-8a8f-7ff952b2c256"},"vehicle_type_id":"4","last_reported":1721747349,"current_range_meters":15200,"station_id":"ce4bhbh2rcd13ifvqepg","pricing_plan_id":"cebpf4jnsgd1na2vs0mg"},{"bike_id":"779375c4-7dc5-4e62-815e-785328f4610e","system_id":"levelo_inurba_marseille","lat":43.284257,"lon":5.349969,"is_reserved":false,"is_disabled":false,"rental_uris":{"android":"levelo://app?vid=779375c4-7dc5-4e62-815e-785328f4610e","ios":"levelo://app?vid=779375c4-7dc5-4e62-815e-785328f4610e"},"vehicle_type_id":"4","last_reported":1721747349,"current_range_meters":31200,"station_id":"ce4bhbh2rcd13ifvqepg","pricing_plan_id":"cebpf4jnsgd1na2vs0mg"},{"bike_id":"eb2e15bc-011d-4039-8097-6cf01ddfdf0b","system_id":"levelo_inurba_marseille","lat":43.284214,"lon":5.349706,"is_reserved":false,"is_disabled":false,"rental_uris":{"android":"levelo://app?vid=eb2e15bc-011d-4039-8097-6cf01ddfdf0b","ios":"levelo://app?vid=eb2e15bc-011d-4039-8097-6cf01ddfdf0b"},"vehicle_type_id":"4","last_reported":1721747349,"current_range_meters":30000,"station_id":"ce4bhbh2rcd13ifvqepg","pricing_plan_id":"cebpf4jnsgd1na2vs0mg"},{"bike_id":"abd9a76e-5027-4932-932e-5fe4426bdc97","system_id":"levelo_inurba_marseille","lat":43.284229,"lon":5.349969,"is_reserved":false,"is_disabled":false,"rental_uris":{"android":"levelo://app?vid=abd9a76e-5027-4932-932e-5fe4426bdc97","ios":"levelo://app?vid=abd9a76e-5027-4932-932e-5fe4426bdc97"},"vehicle_type_id":"4","last_reported":1721747349,"current_range_meters":8800,"station_id":"ce4bhbh2rcd13ifvqepg","pricing_plan_id":"cebpf4jnsgd1na2vs0mg"},{"bike_id":"409fe07e-069b-4b05-8ca5-089114ae2599","system_id":"levelo_inurba_marseille","lat":43.284211,"lon":5.349935,"is_reserved":false,"is_disabled":false,"rental_uris":{"android":"levelo://app?vid=409fe07e-069b-4b05-8ca5-089114ae2599","ios":"levelo://app?vid=409fe07e-069b-4b05-8ca5-089114ae2599"},"vehicle_type_id":"4","last_reported":1721747349,"current_range_meters":20800,"station_id":"ce4bhbh2rcd13ifvqepg","pricing_plan_id":"cebpf4jnsgd1na2vs0mg"},{"bike_id":"273987ae-2af2-4bcc-8754-f3566fea100d","system_id":"levelo_inurba_marseille","lat":43.284202,"lon":5.349946,"is_reserved":false,"is_disabled":false,"rental_uris":{"android":"levelo://app?vid=273987ae-2af2-4bcc-8754-f3566fea100d","ios":"levelo://app?vid=273987ae-2af2-4bcc-8754-f3566fea100d"},"vehicle_type_id":"4","last_reported":1721747349,"current_range_meters":10000,"station_id":"ce4bhbh2rcd13ifvqepg","pricing_plan_id":"cebpf4jnsgd1na2vs0mg"},{"bike_id":"65b66301-2f90-4249-8063-a569d19683b4","system_id":"levelo_inurba_marseille","lat":43.284209,"lon":5.349921,"is_reserved":false,"is_disabled":false,"rental_uris":{"android":"levelo://app?vid=65b66301-2f90-4249-8063-a569d19683b4","ios":"levelo://app?vid=65b66301-2f90-4249-8063-a569d19683b4"},"vehicle_type_id":"4","last_reported":1721747349,"current_range_meters":10400,"station_id":"ce4bhbh2rcd13ifvqepg","pricing_plan_id":"cebpf4jnsgd1na2vs0mg"},{"bike_id":"ce21b6f4-2e7b-4481-80be-e833af7d244c","system_id":"levelo_inurba_marseille","lat":43.284217,"lon":5.349697,"is_reserved":false,"is_disabled":false,"rental_uris":{"android":"levelo://app?vid=ce21b6f4-2e7b-4481-80be-e833af7d244c","ios":"levelo://app?vid=ce21b6f4-2e7b-4481-80be-e833af7d244c"},"vehicle_type_id":"4","last_reported":1721747349,"current_range_meters":27200,"station_id":"ce4bhbh2rcd13ifvqepg","pricing_plan_id":"cebpf4jnsgd1na2vs0mg"},{"bike_id":"10d0dd55-690c-4e02-83ff-6dd824c35ff4","system_id":"levelo_inurba_marseille","lat":43.284217,"lon":5.349697,"is_reserved":false,"is_disabled":false,"rental_uris":{"android":"levelo://app?vid=10d0dd55-690c-4e02-83ff-6dd824c35ff4","ios":"levelo://app?vid=10d0dd55-690c-4e02-83ff-6dd824c35ff4"},"vehicle_type_id":"4","last_reported":1721747349,"current_range_meters":30400,"station_id":"ce4bhbh2rcd13ifvqepg","pricing_plan_id":"cebpf4jnsgd1na2vs0mg"},{"bike_id":"971c10ce-f70c-4874-a769-0235528d13ab","system_id":"levelo_inurba_marseille","lat":43.284195,"lon":5.349924,"is_reserved":false,"is_disabled":false,"rental_uris":{"android":"levelo://app?vid=971c10ce-f70c-4874-a769-0235528d13ab","ios":"levelo://app?vid=971c10ce-f70c-4874-a769-0235528d13ab"},"vehicle_type_id":"4","last_reported":1721747349,"current_range_meters":22000,"station_id":"ce4bhbh2rcd13ifvqepg","pricing_plan_id":"cebpf4jnsgd1na2vs0mg"},{"bike_id":"3f27bb1d-1870-4ffa-a08e-0212e790b194","system_id":"levelo_inurba_marseille","lat":43.28417,"lon":5.349998,"is_reserved":false,"is_disabled":false,"rental_uris":{"android":"levelo://app?vid=3f27bb1d-1870-4ffa-a08e-0212e790b194","ios":"levelo://app?vid=3f27bb1d-1870-4ffa-a08e-0212e790b194"},"vehicle_type_id":"4","last_reported":1721747349,"current_range_meters":28400,"station_id":"ce4bhbh2rcd13ifvqepg","pricing_plan_id":"cebpf4jnsgd1na2vs0mg"},{"bike_id":"cab3f92e-0545-4a0b-949c-ba6ec1be0fb1","system_id":"levelo_inurba_marseille","lat":43.284219,"lon":5.3497,"is_reserved":false,"is_disabled":false,"rental_uris":{"android":"levelo://app?vid=cab3f92e-0545-4a0b-949c-ba6ec1be0fb1","ios":"levelo://app?vid=cab3f92e-0545-4a0b-949c-ba6ec1be0fb1"},"vehicle_type_id":"4","last_reported":1721747349,"current_range_meters":6000,"station_id":"ce4bhbh2rcd13ifvqepg","pricing_plan_id":"cebpf4jnsgd1na2vs0mg"},{"bike_id":"b780f1c2-7495-4300-ad55-8347c500fb3e","system_id":"levelo_inurba_marseille","lat":43.284217,"lon":5.349697,"is_reserved":false,"is_disabled":false,"rental_uris":{"android":"levelo://app?vid=b780f1c2-7495-4300-ad55-8347c500fb3e","ios":"levelo://app?vid=b780f1c2-7495-4300-ad55-8347c500fb3e"},"vehicle_type_id":"4","last_reported":1721747349,"current_range_meters":17600,"station_id":"ce4bhbh2rcd13ifvqepg","pricing_plan_id":"cebpf4jnsgd1na2vs0mg"},{"bike_id":"59dd212a-e11c-4573-a087-18bc2cdedccc","system_id":"levelo_inurba_marseille","lat":43.284219,"lon":5.3497,"is_reserved":false,"is_disabled":false,"rental_uris":{"android":"levelo://app?vid=59dd212a-e11c-4573-a087-18bc2cdedccc","ios":"levelo://app?vid=59dd212a-e11c-4573-a087-18bc2cdedccc"},"vehicle_type_id":"4","last_reported":1721747349,"current_range_meters":31200,"station_id":"ce4bhbh2rcd13ifvqepg","pricing_plan_id":"cebpf4jnsgd1na2vs0mg"},{"bike_id":"91913c80-8e04-4899-b26a-539cbce49d56","system_id":"levelo_inurba_marseille","lat":43.2842,"lon":5.349857,"is_reserved":false,"is_disabled":false,"rental_uris":{"android":"levelo://app?vid=91913c80-8e04-4899-b26a-539cbce49d56","ios":"levelo://app?vid=91913c80-8e04-4899-b26a-539cbce49d56"},"vehicle_type_id":"4","last_reported":1721747349,"current_range_meters":30400,"station_id":"ce4bhbh2rcd13ifvqepg","pricing_plan_id":"cebpf4jnsgd1na2vs0mg"},{"bike_id":"a69517d3-db77-485b-b185-82a27b5677f0","system_id":"levelo_inurba_marseille","lat":43.284196,"lon":5.349836,"is_reserved":false,"is_disabled":false,"rental_uris":{"android":"levelo://app?vid=a69517d3-db77-485b-b185-82a27b5677f0","ios":"levelo://app?vid=a69517d3-db77-485b-b185-82a27b5677f0"},"vehicle_type_id":"4","last_reported":1721747349,"current_range_meters":28400,"station_id":"ce4bhbh2rcd13ifvqepg","pricing_plan_id":"cebpf4jnsgd1na2vs0mg"},{"bike_id":"8f22f44e-beef-407b-8d55-9074c69fdef9","system_id":"levelo_inurba_marseille","lat":43.284219,"lon":5.3497,"is_reserved":false,"is_disabled":false,"rental_uris":{"android":"levelo://app?vid=8f22f44e-beef-407b-8d55-9074c69fdef9","ios":"levelo://app?vid=8f22f44e-beef-407b-8d55-9074c69fdef9"},"vehicle_type_id":"4","last_reported":1721747349,"current_range_meters":9600,"station_id":"ce4bhbh2rcd13ifvqepg","pricing_plan_id":"cebpf4jnsgd1na2vs0mg"},{"bike_id":"5fc8e8d7-5cc9-492a-ad24-9606f3b88df0","system_id":"levelo_inurba_marseille","lat":43.284214,"lon":5.349706,"is_reserved":false,"is_disabled":false,"rental_uris":{"android":"levelo://app?vid=5fc8e8d7-5cc9-492a-ad24-9606f3b88df0","ios":"levelo://app?vid=5fc8e8d7-5cc9-492a-ad24-9606f3b88df0"},"vehicle_type_id":"4","last_reported":1721747349,"current_range_meters":24400,"station_id":"ce4bhbh2rcd13ifvqepg","pricing_plan_id":"cebpf4jnsgd1na2vs0mg"},{"bike_id":"6a745a73-3ec2-4615-aa9b-4ba8560f141d","system_id":"levelo_inurba_marseille","lat":43.284145,"lon":5.349963,"is_reserved":false,"is_disabled":false,"rental_uris":{"android":"levelo://app?vid=6a745a73-3ec2-4615-aa9b-4ba8560f141d","ios":"levelo://app?vid=6a745a73-3ec2-4615-aa9b-4ba8560f141d"},"vehicle_type_id":"4","last_reported":1721747349,"current_range_meters":11600,"station_id":"ce4bhbh2rcd13ifvqepg","pricing_plan_id":"cebpf4jnsgd1na2vs0mg"},{"bike_id":"abcb7684-9ccd-4f7d-89f9-6c70874ec239","system_id":"levelo_inurba_marseille","lat":43.284163,"lon":5.349903,"is_reserved":false,"is_disabled":false,"rental_uris":{"android":"levelo://app?vid=abcb7684-9ccd-4f7d-89f9-6c70874ec239","ios":"levelo://app?vid=abcb7684-9ccd-4f7d-89f9-6c70874ec239"},"vehicle_type_id":"4","last_reported":1721747349,"current_range_meters":8800,"station_id":"ce4bhbh2rcd13ifvqepg","pricing_plan_id":"cebpf4jnsgd1na2vs0mg"},{"bike_id":"4fa0505e-8db3-492b-9b18-b4cdba3b5f6d","system_id":"levelo_inurba_marseille","lat":43.29454,"lon":5.40166,"is_reserved":false,"is_disabled":false,"rental_uris":{"android":"levelo://app?vid=4fa0505e-8db3-492b-9b18-b4cdba3b5f6d","ios":"levelo://app?vid=4fa0505e-8db3-492b-9b18-b4cdba3b5f6d"},"vehicle_type_id":"4","last_reported":1721747349,"current_range_meters":0,"station_id":"","pricing_plan_id":"cebpf4jnsgd1na2vs0mg"},{"bike_id":"94ead724-32a2-49e5-a0ef-ef0d43c2e125","system_id":"levelo_inurba_marseille","lat":43.28416,"lon":5.34991,"is_reserved":false,"is_disabled":false,"rental_uris":{"android":"levelo://app?vid=94ead724-32a2-49e5-a0ef-ef0d43c2e125","ios":"levelo://app?vid=94ead724-32a2-49e5-a0ef-ef0d43c2e125"},"vehicle_type_id":"4","last_reported":1721747349,"current_range_meters":19600,"station_id":"ce4bhbh2rcd13ifvqepg","pricing_plan_id":"cebpf4jnsgd1na2vs0mg"},{"bike_id":"17f9d256-76f7-4404-84bb-a44c96c1a0d6","system_id":"levelo_inurba_marseille","lat":43.28418,"lon":5.34983,"is_reserved":false,"is_disabled":false,"rental_uris":{"android":"levelo://app?vid=17f9d256-76f7-4404-84bb-a44c96c1a0d6","ios":"levelo://app?vid=17f9d256-76f7-4404-84bb-a44c96c1a0d6"},"vehicle_type_id":"4","last_reported":1721747349,"current_range_meters":19600,"station_id":"ce4bhbh2rcd13ifvqepg","pricing_plan_id":"cebpf4jnsgd1na2vs0mg"},{"bike_id":"6f7cf429-a9e7-4e75-a22c-bd922029e564","system_id":"levelo_inurba_marseille","lat":43.284214,"lon":5.349706,"is_reserved":false,"is_disabled":false,"rental_uris":{"android":"levelo://app?vid=6f7cf429-a9e7-4e75-a22c-bd922029e564","ios":"levelo://app?vid=6f7cf429-a9e7-4e75-a22c-bd922029e564"},"vehicle_type_id":"4","last_reported":1721747349,"current_range_meters":29200,"station_id":"ce4bhbh2rcd13ifvqepg","pricing_plan_id":"cebpf4jnsgd1na2vs0mg"},{"bike_id":"347fb177-7a64-4cae-9eb7-adfbd98a8052","system_id":"levelo_inurba_marseille","lat":43.28417,"lon":5.34984,"is_reserved":false,"is_disabled":false,"rental_uris":{"android":"levelo://app?vid=347fb177-7a64-4cae-9eb7-adfbd98a8052","ios":"levelo://app?vid=347fb177-7a64-4cae-9eb7-adfbd98a8052"},"vehicle_type_id":"4","last_reported":1721747349,"current_range_meters":23600,"station_id":"ce4bhbh2rcd13ifvqepg","pricing_plan_id":"cebpf4jnsgd1na2vs0mg"},{"bike_id":"7188cb53-01dc-4ee5-ac77-c89bdfbebd11","system_id":"levelo_inurba_marseille","lat":43.28417,"lon":5.34983,"is_reserved":false,"is_disabled":false,"rental_uris":{"android":"levelo://app?vid=7188cb53-01dc-4ee5-ac77-c89bdfbebd11","ios":"levelo://app?vid=7188cb53-01dc-4ee5-ac77-c89bdfbebd11"},"vehicle_type_id":"4","last_reported":1721747349,"current_range_meters":25600,"station_id":"ce4bhbh2rcd13ifvqepg","pricing_plan_id":"cebpf4jnsgd1na2vs0mg"},{"bike_id":"28397485-7eee-457f-be97-a121543889f3","system_id":"levelo_inurba_marseille","lat":43.284217,"lon":5.349697,"is_reserved":false,"is_disabled":false,"rental_uris":{"android":"levelo://app?vid=28397485-7eee-457f-be97-a121543889f3","ios":"levelo://app?vid=28397485-7eee-457f-be97-a121543889f3"},"vehicle_type_id":"4","last_reported":1721747349,"current_range_meters":31200,"station_id":"ce4bhbh2rcd13ifvqepg","pricing_plan_id":"cebpf4jnsgd1na2vs0mg"},{"bike_id":"8e89fbe0-2919-4dcd-a662-7eaa597307ee","system_id":"levelo_inurba_marseille","lat":43.28414,"lon":5.349914,"is_reserved":false,"is_disabled":false,"rental_uris":{"android":"levelo://app?vid=8e89fbe0-2919-4dcd-a662-7eaa597307ee","ios":"levelo://app?vid=8e89fbe0-2919-4dcd-a662-7eaa597307ee"},"vehicle_type_id":"4","last_reported":1721747349,"current_range_meters":31200,"station_id":"ce4bhbh2rcd13ifvqepg","pricing_plan_id":"cebpf4jnsgd1na2vs0mg"},{"bike_id":"b9e16e00-103b-4ebf-bfa2-19ffa364215c","system_id":"levelo_inurba_marseille","lat":43.284217,"lon":5.349697,"is_reserved":false,"is_disabled":false,"rental_uris":{"android":"levelo://app?vid=b9e16e00-103b-4ebf-bfa2-19ffa364215c","ios":"levelo://app?vid=b9e16e00-103b-4ebf-bfa2-19ffa364215c"},"vehicle_type_id":"4","last_reported":1721747349,"current_range_meters":31200,"station_id":"ce4bhbh2rcd13ifvqepg","pricing_plan_id":"cebpf4jnsgd1na2vs0mg"},{"bike_id":"bcdb5bcc-8823-4160-a233-ed87559d4f80","system_id":"levelo_inurba_marseille","lat":43.28414,"lon":5.34988,"is_reserved":false,"is_disabled":false,"rental_uris":{"android":"levelo://app?vid=bcdb5bcc-8823-4160-a233-ed87559d4f80","ios":"levelo://app?vid=bcdb5bcc-8823-4160-a233-ed87559d4f80"},"vehicle_type_id":"4","last_reported":1721747349,"current_range_meters":9600,"station_id":"ce4bhbh2rcd13ifvqepg","pricing_plan_id":"cebpf4jnsgd1na2vs0mg"},{"bike_id":"5edcbb99-3b8a-4943-a1ad-8ce7223c5299","system_id":"levelo_inurba_marseille","lat":43.28412,"lon":5.34994,"is_reserved":false,"is_disabled":false,"rental_uris":{"android":"levelo://app?vid=5edcbb99-3b8a-4943-a1ad-8ce7223c5299","ios":"levelo://app?vid=5edcbb99-3b8a-4943-a1ad-8ce7223c5299"},"vehicle_type_id":"4","last_reported":1721747349,"current_range_meters":31200,"station_id":"ce4bhbh2rcd13ifvqepg","pricing_plan_id":"cebpf4jnsgd1na2vs0mg"},{"bike_id":"a69fa9e2-1ad4-431b-998c-86c6c5128e3a","system_id":"levelo_inurba_marseille","lat":43.284114,"lon":5.349948,"is_reserved":false,"is_disabled":false,"rental_uris":{"android":"levelo://app?vid=a69fa9e2-1ad4-431b-998c-86c6c5128e3a","ios":"levelo://app?vid=a69fa9e2-1ad4-431b-998c-86c6c5128e3a"},"vehicle_type_id":"4","last_reported":1721747349,"current_range_meters":14800,"station_id":"ce4bhbh2rcd13ifvqepg","pricing_plan_id":"cebpf4jnsgd1na2vs0mg"},{"bike_id":"d20053df-5b91-43f6-84a0-a93d4fc1420d","system_id":"levelo_inurba_marseille","lat":43.28416,"lon":5.3498,"is_reserved":false,"is_disabled":false,"rental_uris":{"android":"levelo://app?vid=d20053df-5b91-43f6-84a0-a93d4fc1420d","ios":"levelo://app?vid=d20053df-5b91-43f6-84a0-a93d4fc1420d"},"vehicle_type_id":"4","last_reported":1721747349,"current_range_meters":18000,"station_id":"ce4bhbh2rcd13ifvqepg","pricing_plan_id":"cebpf4jnsgd1na2vs0mg"},{"bike_id":"205efbb5-0146-48d9-aa00-bb06963196ba","system_id":"levelo_inurba_marseille","lat":43.28417,"lon":5.34975,"is_reserved":false,"is_disabled":false,"rental_uris":{"android":"levelo://app?vid=205efbb5-0146-48d9-aa00-bb06963196ba","ios":"levelo://app?vid=205efbb5-0146-48d9-aa00-bb06963196ba"},"vehicle_type_id":"4","last_reported":1721747349,"current_range_meters":17200,"station_id":"ce4bhbh2rcd13ifvqepg","pricing_plan_id":"cebpf4jnsgd1na2vs0mg"},{"bike_id":"66e377d2-2f63-4725-ac00-f3e608151cda","system_id":"levelo_inurba_marseille","lat":43.284217,"lon":5.349697,"is_reserved":false,"is_disabled":false,"rental_uris":{"android":"levelo://app?vid=66e377d2-2f63-4725-ac00-f3e608151cda","ios":"levelo://app?vid=66e377d2-2f63-4725-ac00-f3e608151cda"},"vehicle_type_id":"4","last_reported":1721747349,"current_range_meters":17600,"station_id":"ce4bhbh2rcd13ifvqepg","pricing_plan_id":"cebpf4jnsgd1na2vs0mg"},{"bike_id":"dc7d1e86-33e5-4264-ba9a-03d5068cc1de","system_id":"levelo_inurba_marseille","lat":43.284214,"lon":5.349706,"is_reserved":false,"is_disabled":false,"rental_uris":{"android":"levelo://app?vid=dc7d1e86-33e5-4264-ba9a-03d5068cc1de","ios":"levelo://app?vid=dc7d1e86-33e5-4264-ba9a-03d5068cc1de"},"vehicle_type_id":"4","last_reported":1721747349,"current_range_meters":22000,"station_id":"ce4bhbh2rcd13ifvqepg","pricing_plan_id":"cebpf4jnsgd1na2vs0mg"},{"bike_id":"ae8b71ba-4d95-4d0c-8f36-c83ede478fa8","system_id":"levelo_inurba_marseille","lat":43.284214,"lon":5.349706,"is_reserved":false,"is_disabled":false,"rental_uris":{"android":"levelo://app?vid=ae8b71ba-4d95-4d0c-8f36-c83ede478fa8","ios":"levelo://app?vid=ae8b71ba-4d95-4d0c-8f36-c83ede478fa8"},"vehicle_type_id":"4","last_reported":1721747349,"current_range_meters":25200,"station_id":"ce4bhbh2rcd13ifvqepg","pricing_plan_id":"cebpf4jnsgd1na2vs0mg"},{"bike_id":"d73c6d8f-96fa-4ac8-8108-148bf4bb7d97","system_id":"levelo_inurba_marseille","lat":43.28414,"lon":5.34979,"is_reserved":false,"is_disabled":false,"rental_uris":{"android":"levelo://app?vid=d73c6d8f-96fa-4ac8-8108-148bf4bb7d97","ios":"levelo://app?vid=d73c6d8f-96fa-4ac8-8108-148bf4bb7d97"},"vehicle_type_id":"4","last_reported":1721747349,"current_range_meters":5200,"station_id":"ce4bhbh2rcd13ifvqepg","pricing_plan_id":"cebpf4jnsgd1na2vs0mg"},{"bike_id":"2555281f-98b8-4a42-ad35-aeb773f4c71b","system_id":"levelo_inurba_marseille","lat":43.28412,"lon":5.34985,"is_reserved":false,"is_disabled":false,"rental_uris":{"android":"levelo://app?vid=2555281f-98b8-4a42-ad35-aeb773f4c71b","ios":"levelo://app?vid=2555281f-98b8-4a42-ad35-aeb773f4c71b"},"vehicle_type_id":"4","last_reported":1721747349,"current_range_meters":31200,"station_id":"ce4bhbh2rcd13ifvqepg","pricing_plan_id":"cebpf4jnsgd1na2vs0mg"},{"bike_id":"67180f6b-30e8-47de-9927-09c0bc52812f","system_id":"levelo_inurba_marseille","lat":43.284214,"lon":5.349706,"is_reserved":false,"is_disabled":false,"rental_uris":{"android":"levelo://app?vid=67180f6b-30e8-47de-9927-09c0bc52812f","ios":"levelo://app?vid=67180f6b-30e8-47de-9927-09c0bc52812f"},"vehicle_type_id":"4","last_reported":1721747349,"current_range_meters":19200,"station_id":"ce4bhbh2rcd13ifvqepg","pricing_plan_id":"cebpf4jnsgd1na2vs0mg"},{"bike_id":"89b1ebd1-680e-4d99-874b-32092086805a","system_id":"levelo_inurba_marseille","lat":43.28413,"lon":5.3498,"is_reserved":false,"is_disabled":false,"rental_uris":{"android":"levelo://app?vid=89b1ebd1-680e-4d99-874b-32092086805a","ios":"levelo://app?vid=89b1ebd1-680e-4d99-874b-32092086805a"},"vehicle_type_id":"4","last_reported":1721747349,"current_range_meters":0,"station_id":"ce4bhbh2rcd13ifvqepg","pricing_plan_id":"cebpf4jnsgd1na2vs0mg"},{"bike_id":"21f47ab2-e77b-4ddc-b824-aabb409ae46c","system_id":"levelo_inurba_marseille","lat":43.28411,"lon":5.34986,"is_reserved":false,"is_disabled":false,"rental_uris":{"android":"levelo://app?vid=21f47ab2-e77b-4ddc-b824-aabb409ae46c","ios":"levelo://app?vid=21f47ab2-e77b-4ddc-b824-aabb409ae46c"},"vehicle_type_id":"4","last_reported":1721747349,"current_range_meters":14400,"station_id":"ce4bhbh2rcd13ifvqepg","pricing_plan_id":"cebpf4jnsgd1na2vs0mg"},{"bike_id":"f9cb55a8-f664-4771-8402-34fe3b700884","system_id":"levelo_inurba_marseille","lat":43.28413,"lon":5.34979,"is_reserved":false,"is_disabled":false,"rental_uris":{"android":"levelo://app?vid=f9cb55a8-f664-4771-8402-34fe3b700884","ios":"levelo://app?vid=f9cb55a8-f664-4771-8402-34fe3b700884"},"vehicle_type_id":"4","last_reported":1721747349,"current_range_meters":4000,"station_id":"ce4bhbh2rcd13ifvqepg","pricing_plan_id":"cebpf4jnsgd1na2vs0mg"},{"bike_id":"00952526-bda1-4b6d-8327-49d9e48c9712","system_id":"levelo_inurba_marseille","lat":43.284217,"lon":5.349697,"is_reserved":false,"is_disabled":false,"rental_uris":{"android":"levelo://app?vid=00952526-bda1-4b6d-8327-49d9e48c9712","ios":"levelo://app?vid=00952526-bda1-4b6d-8327-49d9e48c9712"},"vehicle_type_id":"4","last_reported":1721747349,"current_range_meters":26400,"station_id":"ce4bhbh2rcd13ifvqepg","pricing_plan_id":"cebpf4jnsgd1na2vs0mg"},{"bike_id":"49151580-21e7-4309-88d8-43a9e72d3293","system_id":"levelo_inurba_marseille","lat":43.28413,"lon":5.34978,"is_reserved":false,"is_disabled":false,"rental_uris":{"android":"levelo://app?vid=49151580-21e7-4309-88d8-43a9e72d3293","ios":"levelo://app?vid=49151580-21e7-4309-88d8-43a9e72d3293"},"vehicle_type_id":"4","last_reported":1721747349,"current_range_meters":9600,"station_id":"ce4bhbh2rcd13ifvqepg","pricing_plan_id":"cebpf4jnsgd1na2vs0mg"},{"bike_id":"0e46a4d1-5e35-4336-8415-4c403d04c291","system_id":"levelo_inurba_marseille","lat":43.28414,"lon":5.34973,"is_reserved":false,"is_disabled":false,"rental_uris":{"android":"levelo://app?vid=0e46a4d1-5e35-4336-8415-4c403d04c291","ios":"levelo://app?vid=0e46a4d1-5e35-4336-8415-4c403d04c291"},"vehicle_type_id":"4","last_reported":1721747349,"current_range_meters":3600,"station_id":"ce4bhbh2rcd13ifvqepg","pricing_plan_id":"cebpf4jnsgd1na2vs0mg"},{"bike_id":"d42dda03-7cbc-44ef-91f1-d4c810bbe8f8","system_id":"levelo_inurba_marseille","lat":43.28413,"lon":5.34975,"is_reserved":false,"is_disabled":false,"rental_uris":{"android":"levelo://app?vid=d42dda03-7cbc-44ef-91f1-d4c810bbe8f8","ios":"levelo://app?vid=d42dda03-7cbc-44ef-91f1-d4c810bbe8f8"},"vehicle_type_id":"4","last_reported":1721747349,"current_range_meters":25200,"station_id":"ce4bhbh2rcd13ifvqepg","pricing_plan_id":"cebpf4jnsgd1na2vs0mg"},{"bike_id":"a0f37e8c-03c4-4fd8-be74-7a89e3c567f7","system_id":"levelo_inurba_marseille","lat":43.2841,"lon":5.34982,"is_reserved":false,"is_disabled":false,"rental_uris":{"android":"levelo://app?vid=a0f37e8c-03c4-4fd8-be74-7a89e3c567f7","ios":"levelo://app?vid=a0f37e8c-03c4-4fd8-be74-7a89e3c567f7"},"vehicle_type_id":"4","last_reported":1721747349,"current_range_meters":0,"station_id":"ce4bhbh2rcd13ifvqepg","pricing_plan_id":"cebpf4jnsgd1na2vs0mg"},{"bike_id":"b4cb13cd-3754-48ba-ac24-3192821d13c0","system_id":"levelo_inurba_marseille","lat":43.28411,"lon":5.349787,"is_reserved":false,"is_disabled":false,"rental_uris":{"android":"levelo://app?vid=b4cb13cd-3754-48ba-ac24-3192821d13c0","ios":"levelo://app?vid=b4cb13cd-3754-48ba-ac24-3192821d13c0"},"vehicle_type_id":"4","last_reported":1721747349,"current_range_meters":10800,"station_id":"ce4bhbh2rcd13ifvqepg","pricing_plan_id":"cebpf4jnsgd1na2vs0mg"},{"bike_id":"f2f24881-2dc1-4b35-9905-9ce169dd4c05","system_id":"levelo_inurba_marseille","lat":43.284214,"lon":5.349706,"is_reserved":false,"is_disabled":false,"rental_uris":{"android":"levelo://app?vid=f2f24881-2dc1-4b35-9905-9ce169dd4c05","ios":"levelo://app?vid=f2f24881-2dc1-4b35-9905-9ce169dd4c05"},"vehicle_type_id":"4","last_reported":1721747349,"current_range_meters":31600,"station_id":"ce4bhbh2rcd13ifvqepg","pricing_plan_id":"cebpf4jnsgd1na2vs0mg"},{"bike_id":"6b514240-b1e1-49b4-8b65-ee79943fe4db","system_id":"levelo_inurba_marseille","lat":43.284214,"lon":5.349706,"is_reserved":false,"is_disabled":false,"rental_uris":{"android":"levelo://app?vid=6b514240-b1e1-49b4-8b65-ee79943fe4db","ios":"levelo://app?vid=6b514240-b1e1-49b4-8b65-ee79943fe4db"},"vehicle_type_id":"4","last_reported":1721747349,"current_range_meters":24800,"station_id":"ce4bhbh2rcd13ifvqepg","pricing_plan_id":"cebpf4jnsgd1na2vs0mg"},{"bike_id":"f90716e3-c70d-4a3c-814c-0d9308dd39d7","system_id":"levelo_inurba_marseille","lat":43.2841,"lon":5.34978,"is_reserved":false,"is_disabled":false,"rental_uris":{"android":"levelo://app?vid=f90716e3-c70d-4a3c-814c-0d9308dd39d7","ios":"levelo://app?vid=f90716e3-c70d-4a3c-814c-0d9308dd39d7"},"vehicle_type_id":"4","last_reported":1721747349,"current_range_meters":15600,"station_id":"ce4bhbh2rcd13ifvqepg","pricing_plan_id":"cebpf4jnsgd1na2vs0mg"},{"bike_id":"ec731714-9b42-4f3f-a903-3b3a81fcec6c","system_id":"levelo_inurba_marseille","lat":43.284214,"lon":5.349706,"is_reserved":false,"is_disabled":false,"rental_uris":{"android":"levelo://app?vid=ec731714-9b42-4f3f-a903-3b3a81fcec6c","ios":"levelo://app?vid=ec731714-9b42-4f3f-a903-3b3a81fcec6c"},"vehicle_type_id":"4","last_reported":1721747349,"current_range_meters":12400,"station_id":"ce4bhbh2rcd13ifvqepg","pricing_plan_id":"cebpf4jnsgd1na2vs0mg"},{"bike_id":"d232ae17-ff4c-4c36-b3c3-01440c56ba66","system_id":"levelo_inurba_marseille","lat":43.28409,"lon":5.34975,"is_reserved":false,"is_disabled":false,"rental_uris":{"android":"levelo://app?vid=d232ae17-ff4c-4c36-b3c3-01440c56ba66","ios":"levelo://app?vid=d232ae17-ff4c-4c36-b3c3-01440c56ba66"},"vehicle_type_id":"4","last_reported":1721747349,"current_range_meters":14000,"station_id":"ce4bhbh2rcd13ifvqepg","pricing_plan_id":"cebpf4jnsgd1na2vs0mg"},{"bike_id":"965e084c-dc6f-4bca-b916-48e8921c4782","system_id":"levelo_inurba_marseille","lat":43.284039,"lon":5.349891,"is_reserved":false,"is_disabled":false,"rental_uris":{"android":"levelo://app?vid=965e084c-dc6f-4bca-b916-48e8921c4782","ios":"levelo://app?vid=965e084c-dc6f-4bca-b916-48e8921c4782"},"vehicle_type_id":"4","last_reported":1721747349,"current_range_meters":23200,"station_id":"ce4bhbh2rcd13ifvqepg","pricing_plan_id":"cebpf4jnsgd1na2vs0mg"},{"bike_id":"c576fe0a-8919-4ba1-bfca-05f6b9d03e2b","system_id":"levelo_inurba_marseille","lat":43.28408,"lon":5.34972,"is_reserved":false,"is_disabled":false,"rental_uris":{"android":"levelo://app?vid=c576fe0a-8919-4ba1-bfca-05f6b9d03e2b","ios":"levelo://app?vid=c576fe0a-8919-4ba1-bfca-05f6b9d03e2b"},"vehicle_type_id":"4","last_reported":1721747349,"current_range_meters":16400,"station_id":"ce4bhbh2rcd13ifvqepg","pricing_plan_id":"cebpf4jnsgd1na2vs0mg"},{"bike_id":"edb2f43c-b4b0-4363-81e6-c0d700685f64","system_id":"levelo_inurba_marseille","lat":43.28408,"lon":5.34972,"is_reserved":false,"is_disabled":false,"rental_uris":{"android":"levelo://app?vid=edb2f43c-b4b0-4363-81e6-c0d700685f64","ios":"levelo://app?vid=edb2f43c-b4b0-4363-81e6-c0d700685f64"},"vehicle_type_id":"4","last_reported":1721747349,"current_range_meters":23600,"station_id":"ce4bhbh2rcd13ifvqepg","pricing_plan_id":"cebpf4jnsgd1na2vs0mg"},{"bike_id":"89914cc7-6476-4293-9592-2637eecf8b60","system_id":"levelo_inurba_marseille","lat":43.28406,"lon":5.34978,"is_reserved":false,"is_disabled":false,"rental_uris":{"android":"levelo://app?vid=89914cc7-6476-4293-9592-2637eecf8b60","ios":"levelo://app?vid=89914cc7-6476-4293-9592-2637eecf8b60"},"vehicle_type_id":"4","last_reported":1721747349,"current_range_meters":11600,"station_id":"ce4bhbh2rcd13ifvqepg","pricing_plan_id":"cebpf4jnsgd1na2vs0mg"},{"bike_id":"33f9837b-f2c9-49e8-b620-d26ddf78e927","system_id":"levelo_inurba_marseille","lat":43.28407,"lon":5.34974,"is_reserved":false,"is_disabled":false,"rental_uris":{"android":"levelo://app?vid=33f9837b-f2c9-49e8-b620-d26ddf78e927","ios":"levelo://app?vid=33f9837b-f2c9-49e8-b620-d26ddf78e927"},"vehicle_type_id":"4","last_reported":1721747349,"current_range_meters":18400,"station_id":"ce4bhbh2rcd13ifvqepg","pricing_plan_id":"cebpf4jnsgd1na2vs0mg"},{"bike_id":"683fab47-8e58-4381-a702-62cc06d56ed9","system_id":"levelo_inurba_marseille","lat":43.28407,"lon":5.34973,"is_reserved":false,"is_disabled":false,"rental_uris":{"android":"levelo://app?vid=683fab47-8e58-4381-a702-62cc06d56ed9","ios":"levelo://app?vid=683fab47-8e58-4381-a702-62cc06d56ed9"},"vehicle_type_id":"4","last_reported":1721747349,"current_range_meters":0,"station_id":"ce4bhbh2rcd13ifvqepg","pricing_plan_id":"cebpf4jnsgd1na2vs0mg"},{"bike_id":"6c9bef6e-56e4-4326-817e-97a3c2295904","system_id":"levelo_inurba_marseille","lat":43.28407,"lon":5.34973,"is_reserved":false,"is_disabled":false,"rental_uris":{"android":"levelo://app?vid=6c9bef6e-56e4-4326-817e-97a3c2295904","ios":"levelo://app?vid=6c9bef6e-56e4-4326-817e-97a3c2295904"},"vehicle_type_id":"4","last_reported":1721747349,"current_range_meters":22800,"station_id":"ce4bhbh2rcd13ifvqepg","pricing_plan_id":"cebpf4jnsgd1na2vs0mg"},{"bike_id":"0f1799a6-b196-4f68-9bfb-8a61354dc600","system_id":"levelo_inurba_marseille","lat":43.28407,"lon":5.34971,"is_reserved":false,"is_disabled":false,"rental_uris":{"android":"levelo://app?vid=0f1799a6-b196-4f68-9bfb-8a61354dc600","ios":"levelo://app?vid=0f1799a6-b196-4f68-9bfb-8a61354dc600"},"vehicle_type_id":"4","last_reported":1721747349,"current_range_meters":0,"station_id":"ce4bhbh2rcd13ifvqepg","pricing_plan_id":"cebpf4jnsgd1na2vs0mg"},{"bike_id":"2e0c34c8-b761-41d0-a2b6-e3b09b803bd4","system_id":"levelo_inurba_marseille","lat":43.283967,"lon":5.34976,"is_reserved":false,"is_disabled":false,"rental_uris":{"android":"levelo://app?vid=2e0c34c8-b761-41d0-a2b6-e3b09b803bd4","ios":"levelo://app?vid=2e0c34c8-b761-41d0-a2b6-e3b09b803bd4"},"vehicle_type_id":"4","last_reported":1721747349,"current_range_meters":31200,"station_id":"ce4bhbh2rcd13ifvqepg","pricing_plan_id":"cebpf4jnsgd1na2vs0mg"},{"bike_id":"b30c3843-81b6-4606-8a59-a8abaca90175","system_id":"levelo_inurba_marseille","lat":43.283581,"lon":5.350097,"is_reserved":false,"is_disabled":false,"rental_uris":{"android":"levelo://app?vid=b30c3843-81b6-4606-8a59-a8abaca90175","ios":"levelo://app?vid=b30c3843-81b6-4606-8a59-a8abaca90175"},"vehicle_type_id":"4","last_reported":1721747349,"current_range_meters":1200,"station_id":"","pricing_plan_id":"cebpf4jnsgd1na2vs0mg"},