{"last_updated":1749658390,"ttl":60,"version":"2.2","data":{"bikes":[{"bike_id":"3523599b-8c07-4314-99b2-ea57a35bd000","system_id":"levelo_inurba_marseille","lat":43.29547,"lon":5.42287,"is_reserved":false,"is_disabled":false,"rental_uris":{"android":"levelo://app?vid=3523599b-8c07-4314-99b2-ea57a35bd000","ios":"levelo://app?vid=3523599b-8c07-4314-99b2-ea57a35bd000"},"vehicle_type_id":"4","last_reported":1749658391,"current_range_meters":2800,"station_id":"ce4bhph2rcd13ifvqhdg","pricing_plan_id":"cebpf4jnsgd1na2vs0mg"},{"bike_id":"089a098a-8370-43d5-a62a-59a5d323d233","system_id":"levelo_inurba_marseille","lat":43.29533,"lon":5.38542,"is_reserved":false,"is_disabled":false,"rental_uris":{"android":"levelo://app?vid=089a098a-8370-43d5-a62a-59a5d323d233","ios":"levelo://app?vid=089a098a-8370-43d5-a62a-59a5d323d233"},"vehicle_type_id":"4","last_reported":1749658391,"current_range_meters":2800,"station_id":"ce4bgih2rcd13ifvqba0","pricing_plan_id":"cebpf4jnsgd1na2vs0mg"},{"bike_id":"fb8a7b25-328c-43e2-8942-6ffb707e0b69","system_id":"levelo_inurba_marseille","lat":43.25501,"lon":5.3765,"is_reserved":false,"is_disabled":false,"rental_uris":{"android":"levelo://app?vid=fb8a7b25-328c-43e2-8942-6ffb707e0b69","ios":"levelo://app?vid=fb8a7b25-328c-43e2-8942-6ffb707e0b69"},"vehicle_type_id":"4","last_reported":1749658391,"current_range_meters":2800,"station_id":"ce4bhh12rcd13ifvqff0","pricing_plan_id":"cebpf4jnsgd1na2vs0mg"},{"bike_id":"ce526313-e4c7-47eb-856f-183916936663","system_id":"levelo_inurba_marseille","lat":43.26203,"lon":5.3956,"is_reserved":false,"is_disabled":false,"rental_uris":{"android":"levelo://app?vid=ce526313-e4c7-47eb-856f-183916936663","ios":"levelo://app?vid=ce526313-e4c7-47eb-856f-183916936663"},"vehicle_type_id":"4","last_reported":1749658391,"current_range_meters":2800,"station_id":"","pricing_plan_id":"cebpf4jnsgd1na2vs0mg"},{"bike_id":"5ec47fa7-a560-439b-a834-f7aacef260d3","system_id":"levelo_inurba_marseille","lat":43.28431,"lon":5.34988,"is_reserved":false,"is_disabled":false,"rental_uris":{"android":"levelo://app?vid=5ec47fa7-a560-439b-a834-f7aacef260d3","ios":"levelo://app?vid=5ec47fa7-a560-439b-a834-f7aacef260d3"},"vehicle_type_id":"4","last_reported":1749658391,"current_range_meters":3200,"station_id":"ce4bhbh2rcd13ifvqepg","pricing_plan_id":"cebpf4jnsgd1na2vs0mg"},{"bike_id":"f2baaec4-b991-4b51-8a73-3ab809cc73d1","system_id":"levelo_inurba_marseille","lat":43.28934,"lon":5.39621,"is_reserved":false,"is_disabled":false,"rental_uris":{"android":"levelo://app?vid=f2baaec4-b991-4b51-8a73-3ab809cc73d1","ios":"levelo://app?vid=f2baaec4-b991-4b51-8a73-3ab809cc73d1"},"vehicle_type_id":"4","last_reported":1749658391,"current_range_meters":3200,"station_id":"ce4bh3h2rcd13ifvqdn0","pricing_plan_id":"cebpf4jnsgd1na2vs0mg"},{"bike_id":"71a6ad24-4e18-4bd8-917d-5666aa0c4d76","system_id":"levelo_inurba_marseille","lat":43.33747,"lon":5.37506,"is_reserved":false,"is_disabled":false,"rental_uris":{"android":"levelo://app?vid=71a6ad24-4e18-4bd8-917d-5666aa0c4d76","ios":"levelo://app?vid=71a6ad24-4e18-4bd8-917d-5666aa0c4d76"},"vehicle_type_id":"4","last_reported":1749658391,"current_range_meters":3200,"station_id":"","pricing_plan_id":"cebpf4jnsgd1na2vs0mg"},{"bike_id":"13e499ba-2195-4670-bd0c-cabbd50c1ca6","system_id":"levelo_inurba_marseille","lat":43.27068,"lon":5.42271,"is_reserved":false,"is_disabled":false,"rental_uris":{"android":"levelo://app?vid=13e499ba-2195-4670-bd0c-cabbd50c1ca6","ios":"levelo://app?vid=13e499ba-2195-4670-bd0c-cabbd50c1ca6"},"vehicle_type_id":"4","last_reported":1749658391,"current_range_meters":2800,"station_id":"ce4bhk92rcd13ifvqgb0","pricing_plan_id":"cebpf4jnsgd1na2vs0mg"},{"bike_id":"36f72257-86f0-419d-b7cb-b5c126d66b98","system_id":"levelo_inurba_marseille","lat":43.28606,"lon":5.37063,"is_reserved":false,"is_disabled":false,"rental_uris":{"android":"levelo://app?vid=36f72257-86f0-419d-b7cb-b5c126d66b98","ios":"levelo://app?vid=36f72257-86f0-419d-b7cb-b5c126d66b98"},"vehicle_type_id":"4","last_reported":1749658391,"current_range_meters":3600,"station_id":"ce4bht12rcd13ifvqi60","pricing_plan_id":"cebpf4jnsgd1na2vs0mg"},{"bike_id":"7ea88d6c-b6b4-42df-b2f7-c42d3c53257c","system_id":"levelo_inurba_marseille","lat":43.285001,"lon":5.384244,"is_reserved":false,"is_disabled":false,"rental_uris":{"android":"levelo://app?vid=7ea88d6c-b6b4-42df-b2f7-c42d3c53257c","ios":"levelo://app?vid=7ea88d6c-b6b4-42df-b2f7-c42d3c53257c"},"vehicle_type_id":"4","last_reported":1749658391,"current_range_meters":4000,"station_id":"ce4bh512rcd13ifvqe3g","pricing_plan_id":"cebpf4jnsgd1na2vs0mg"},{"bike_id":"c1118da7-4fd7-453f-a9cc-dda6f71366a1","system_id":"levelo_inurba_marseille","lat":43.28609,"lon":5.37056,"is_reserved":false,"is_disabled":false,"rental_uris":{"android":"levelo://app?vid=c1118da7-4fd7-453f-a9cc-dda6f71366a1","ios":"levelo://app?vid=c1118da7-4fd7-453f-a9cc-dda6f71366a1"},"vehicle_type_id":"4","last_reported":1749658391,"current_range_meters":4400,"station_id":"ce4bht12rcd13ifvqi60","pricing_plan_id":"cebpf4jnsgd1na2vs0mg"},{"bike_id":"0a2cd4f2-b24c-4afc-88b0-5cb6f6a00646","system_id":"levelo_inurba_marseille","lat":43.24636,"lon":5.43591,"is_reserved":false,"is_disabled":true,"rental_uris":{"android":"levelo://app?vid=0a2cd4f2-b24c-4afc-88b0-5cb6f6a00646","ios":"levelo://app?vid=0a2cd4f2-b24c-4afc-88b0-5cb6f6a00646"},"vehicle_type_id":"4","last_reported":1749658391,"current_range_meters":4400,"station_id":"","pricing_plan_id":"cebpf4jnsgd1na2vs0mg"},{"bike_id":"77a84bc0-d04a-4f18-beca-d57f0820c7d8","system_id":"levelo_inurba_marseille","lat":43.31313,"lon":5.39694,"is_reserved":false,"is_disabled":false,"rental_uris":{"android":"levelo://app?vid=77a84bc0-d04a-4f18-beca-d57f0820c7d8","ios":"levelo://app?vid=77a84bc0-d04a-4f18-beca-d57f0820c7d8"},"vehicle_type_id":"4","last_reported":1749658391,"current_range_meters":4400,"station_id":"ce4bgvp2rcd13ifvqcu0","pricing_plan_id":"cebpf4jnsgd1na2vs0mg"},{"bike_id":"00b1fff3-00cd-438c-abbb-1a1a71987221","system_id":"levelo_inurba_marseille","lat":43.2794,"lon":5.41043,"is_reserved":false,"is_disabled":false,"rental_uris":{"android":"levelo://app?vid=00b1fff3-00cd-438c-abbb-1a1a71987221","ios":"levelo://app?vid=00b1fff3-00cd-438c-abbb-1a1a71987221"},"vehicle_type_id":"4","last_reported":1749658391,"current_range_meters":4400,"station_id":"ce4bhnp2rcd13ifvqh0g","pricing_plan_id":"cebpf4jnsgd1na2vs0mg"},{"bike_id":"0a9d43a1-3df2-408b-a939-37b626b541a3","system_id":"levelo_inurba_marseille","lat":43.26211,"lon":5.37441,"is_reserved":false,"is_disabled":false,"rental_uris":{"android":"levelo://app?vid=0a9d43a1-3df2-408b-a939-37b626b541a3","ios":"levelo://app?vid=0a9d43a1-3df2-408b-a939-37b626b541a3"},"vehicle_type_id":"4","last_reported":1749658391,"current_range_meters":4400,"station_id":"ce4bhgp2rcd13ifvqfc0","pricing_plan_id":"cebpf4jnsgd1na2vs0mg"},{"bike_id":"87510866-3ec5-40ca-81d8-1154ccea9cf6","system_id":"levelo_inurba_marseille","lat":43.25584,"lon":5.38227,"is_reserved":false,"is_disabled":false,"rental_uris":{"android":"levelo://app?vid=87510866-3ec5-40ca-81d8-1154ccea9cf6","ios":"levelo://app?vid=87510866-3ec5-40ca-81d8-1154ccea9cf6"},"vehicle_type_id":"4","last_reported":1749658391,"current_range_meters":4800,"station_id":"ce4bhih2rcd13ifvqfs0","pricing_plan_id":"cebpf4jnsgd1na2vs0mg"},{"bike_id":"b6746c79-ed02-4859-bf7f-78d4bc75073c","system_id":"levelo_inurba_marseille","lat":43.27568,"lon":5.38427,"is_reserved":false,"is_disabled":false,"rental_uris":{"android":"levelo://app?vid=b6746c79-ed02-4859-bf7f-78d4bc75073c","ios":"levelo://app?vid=b6746c79-ed02-4859-bf7f-78d4bc75073c"},"vehicle_type_id":"4","last_reported":1749658391,"current_range_meters":4800,"station_id":"ce4bhh92rcd13ifvqfi0","pricing_plan_id":"cebpf4jnsgd1na2vs0mg"},{"bike_id":"3d74f5c1-c6a9-479b-990e-a1af89def000","system_id":"levelo_inurba_marseille","lat":43.28001,"lon":5.41667,"is_reserved":false,"is_disabled":false,"rental_uris":{"android":"levelo://app?vid=3d74f5c1-c6a9-479b-990e-a1af89def000","ios":"levelo://app?vid=3d74f5c1-c6a9-479b-990e-a1af89def000"},"vehicle_type_id":"4","last_reported":1749658391,"current_range_meters":5600,"station_id":"ce4bho12rcd13ifvqh1g","pricing_plan_id":"cebpf4jnsgd1na2vs0mg"},{"bike_id":"bb9c500e-23ec-451a-afb6-603e8ae4f019","system_id":"levelo_inurba_marseille","lat":43.29589,"lon":5.38103,"is_reserved":false,"is_disabled":false,"rental_uris":{"android":"levelo://app?vid=bb9c500e-23ec-451a-afb6-603e8ae4f019","ios":"levelo://app?vid=bb9c500e-23ec-451a-afb6-603e8ae4f019"},"vehicle_type_id":"4","last_reported":1749658391,"current_range_meters":5600,"station_id":"ce4bgl12rcd13ifvqbo0","pricing_plan_id":"cebpf4jnsgd1na2vs0mg"},{"bike_id":"50ae5417-56bb-4364-8fa9-310fc8e917e1","system_id":"levelo_inurba_marseille","lat":43.27973,"lon":5.38729,"is_reserved":false,"is_disabled":false,"rental_uris":{"android":"levelo://app?vid=50ae5417-56bb-4364-8fa9-310fc8e917e1","ios":"levelo://app?vid=50ae5417-56bb-4364-8fa9-310fc8e917e1"},"vehicle_type_id":"4","last_reported":1749658391,"current_range_meters":5600,"station_id":"ce4bhg12rcd13ifvqf80","pricing_plan_id":"cebpf4jnsgd1na2vs0mg"},{"bike_id":"fc048c30-496e-43aa-83cf-77fd8077e7c7","system_id":"levelo_inurba_marseille","lat":43.295278,"lon":5.385378,"is_reserved":false,"is_disabled":false,"rental_uris":{"android":"levelo://app?vid=fc048c30-496e-43aa-83cf-77fd8077e7c7","ios":"levelo://app?vid=fc048c30-496e-43aa-83cf-77fd8077e7c7"},"vehicle_type_id":"4","last_reported":1749658391,"current_range_meters":6000,"station_id":"ce4bgih2rcd13ifvqba0","pricing_plan_id":"cebpf4jnsgd1na2vs0mg"},{"bike_id":"8cf4c8bc-17ef-43a1-8370-f763103aff73","system_id":"levelo_inurba_marseille","lat":43.26566,"lon":5.37274,"is_reserved":false,"is_disabled":true,"rental_uris":{"android":"levelo://app?vid=8cf4c8bc-17ef-43a1-8370-f763103aff73","ios":"levelo://app?vid=8cf4c8bc-17ef-43a1-8370-f763103aff73"},"vehicle_type_id":"4","last_reported":1749658391,"current_range_meters":6000,"station_id":"ce4bhg12rcd13ifvqf70","pricing_plan_id":"cebpf4jnsgd1na2vs0mg"},{"bike_id":"c1c609b9-ebb8-49ab-b57b-d8fb281a9755","system_id":"levelo_inurba_marseille","lat":43.309153,"lon":5.374183,"is_reserved":false,"is_disabled":false,"rental_uris":{"android":"levelo://app?vid=c1c609b9-ebb8-49ab-b57b-d8fb281a9755","ios":"levelo://app?vid=c1c609b9-ebb8-49ab-b57b-d8fb281a9755"},"vehicle_type_id":"4","last_reported":1749658391,"current_range_meters":6000,"station_id":"","pricing_plan_id":"cebpf4jnsgd1na2vs0mg"},{"bike_id":"58967473-cbca-4efa-a4ae-e213bcfbd58d","system_id":"levelo_inurba_marseille","lat":43.275574,"lon":5.384191,"is_reserved":false,"is_disabled":false,"rental_uris":{"android":"levelo://app?vid=58967473-cbca-4efa-a4ae-e213bcfbd58d","ios":"levelo://app?vid=58967473-cbca-4efa-a4ae-e213bcfbd58d"},"vehicle_type_id":"4","last_reported":1749658391,"current_range_meters":6400,"station_id":"ce4bhh92rcd13ifvqfi0","pricing_plan_id":"cebpf4jnsgd1na2vs0mg"},{"bike_id":"a9334c0d-cdfc-464f-8eab-e98192ed3454","system_id":"levelo_inurba_marseille","lat":43.29223,"lon":5.39946,"is_reserved":false,"is_disabled":false,"rental_uris":{"android":"levelo://app?vid=a9334c0d-cdfc-464f-8eab-e98192ed3454","ios":"levelo://app?vid=a9334c0d-cdfc-464f-8eab-e98192ed3454"},"vehicle_type_id":"4","last_reported":1749658391,"current_range_meters":6400,"station_id":"","pricing_plan_id":"cebpf4jnsgd1na2vs0mg"},{"bike_id":"c597a0fc-d18a-47f2-ad89-b75b23c21427","system_id":"levelo_inurba_marseille","lat":43.29256,"lon":5.40902,"is_reserved":false,"is_disabled":false,"rental_uris":{"android":"levelo://app?vid=c597a0fc-d18a-47f2-ad89-b75b23c21427","ios":"levelo://app?vid=c597a0fc-d18a-47f2-ad89-b75b23c21427"},"vehicle_type_id":"4","last_reported":1749658391,"current_range_meters":6400,"station_id":"ce4bh192rcd13ifvqdc0","pricing_plan_id":"cebpf4jnsgd1na2vs0mg"},{"bike_id":"5b171f94-38a0-4aad-b42a-593a521d3407","system_id":"levelo_inurba_marseille","lat":43.29022,"lon":5.38124,"is_reserved":false,"is_disabled":false,"rental_uris":{"android":"levelo://app?vid=5b171f94-38a0-4aad-b42a-593a521d3407","ios":"levelo://app?vid=5b171f94-38a0-4aad-b42a-593a521d3407"},"vehicle_type_id":"4","last_reported":1749658391,"current_range_meters":6400,"station_id":"ce4bh4p2rcd13ifvqe1g","pricing_plan_id":"cebpf4jnsgd1na2vs0mg"},{"bike_id":"857f22b2-7792-4673-b7c0-425dbdac7f1f","system_id":"levelo_inurba_marseille","lat":43.29085,"lon":5.38111,"is_reserved":false,"is_disabled":false,"rental_uris":{"android":"levelo://app?vid=857f22b2-7792-4673-b7c0-425dbdac7f1f","ios":"levelo://app?vid=857f22b2-7792-4673-b7c0-425dbdac7f1f"},"vehicle_type_id":"4","last_reported":1749658391,"current_range_meters":6800,"station_id":"ce4bh512rcd13ifvqe2g","pricing_plan_id":"cebpf4jnsgd1na2vs0mg"},{"bike_id":"619ad226-2d04-4d3b-8d7d-c24198c68769","system_id":"levelo_inurba_marseille","lat":43.29207,"lon":5.39326,"is_reserved":false,"is_disabled":false,"rental_uris":{"android":"levelo://app?vid=619ad226-2d04-4d3b-8d7d-c24198c68769","ios":"levelo://app?vid=619ad226-2d04-4d3b-8d7d-c24198c68769"},"vehicle_type_id":"4","last_reported":1749658391,"current_range_meters":6800,"station_id":"ce4bh192rcd13ifvqdd0","pricing_plan_id":"cebpf4jnsgd1na2vs0mg"},{"bike_id":"1f724880-1703-492d-9087-8a2d747a83a1","system_id":"levelo_inurba_marseille","lat":43.27996,"lon":5.41658,"is_reserved":false,"is_disabled":false,"rental_uris":{"android":"levelo://app?vid=1f724880-1703-492d-9087-8a2d747a83a1","ios":"levelo://app?vid=1f724880-1703-492d-9087-8a2d747a83a1"},"vehicle_type_id":"4","last_reported":1749658391,"current_range_meters":6800,"station_id":"ce4bho12rcd13ifvqh1g","pricing_plan_id":"cebpf4jnsgd1na2vs0mg"},{"bike_id":"125bd855-10ed-4a56-9707-403f3a8b58a0","system_id":"levelo_inurba_marseille","lat":43.33064,"lon":5.40522,"is_reserved":false,"is_disabled":false,"rental_uris":{"android":"levelo://app?vid=125bd855-10ed-4a56-9707-403f3a8b58a0","ios":"levelo://app?vid=125bd855-10ed-4a56-9707-403f3a8b58a0"},"vehicle_type_id":"4","last_reported":1749658391,"current_range_meters":6800,"station_id":"","pricing_plan_id":"cebpf4jnsgd1na2vs0mg"},{"bike_id":"e630e1e5-8c93-45fb-9eef-6c479072a116","system_id":"levelo_inurba_marseille","lat":43.30731,"lon":5.42439,"is_reserved":false,"is_disabled":false,"rental_uris":{"android":"levelo://app?vid=e630e1e5-8c93-45fb-9eef-6c479072a116","ios":"levelo://app?vid=e630e1e5-8c93-45fb-9eef-6c479072a116"},"vehicle_type_id":"4","last_reported":1749658391,"current_range_meters":7200,"station_id":"st_cvj6ca6bvosntc0bfgr0","pricing_plan_id":"cebpf4jnsgd1na2vs0mg"},{"bike_id":"a3304dbc-6086-4a74-83e6-5c0479642cc0","system_id":"levelo_inurba_marseille","lat":43.29262,"lon":5.38444,"is_reserved":false,"is_disabled":false,"rental_uris":{"android":"levelo://app?vid=a3304dbc-6086-4a74-83e6-5c0479642cc0","ios":"levelo://app?vid=a3304dbc-6086-4a74-83e6-5c0479642cc0"},"vehicle_type_id":"4","last_reported":1749658391,"current_range_meters":7200,"station_id":"ce4bh692rcd13ifvqea0","pricing_plan_id":"cebpf4jnsgd1na2vs0mg"},{"bike_id":"52e8a4d5-5294-4992-9579-0a016f03e902","system_id":"levelo_inurba_marseille","lat":43.28937,"lon":5.36646,"is_reserved":false,"is_disabled":false,"rental_uris":{"android":"levelo://app?vid=52e8a4d5-5294-4992-9579-0a016f03e902","ios":"levelo://app?vid=52e8a4d5-5294-4992-9579-0a016f03e902"},"vehicle_type_id":"4","last_reported":1749658391,"current_range_meters":7200,"station_id":"ce4bhap2rcd13ifvqek0","pricing_plan_id":"cebpf4jnsgd1na2vs0mg"},{"bike_id":"5b08df2b-a749-488c-8e7c-57ecbbf43710","system_id":"levelo_inurba_marseille","lat":43.28941,"lon":5.363761,"is_reserved":false,"is_disabled":false,"rental_uris":{"android":"levelo://app?vid=5b08df2b-a749-488c-8e7c-57ecbbf43710","ios":"levelo://app?vid=5b08df2b-a749-488c-8e7c-57ecbbf43710"},"vehicle_type_id":"4","last_reported":1749658391,"current_range_meters":7200,"station_id":"ce4bhc92rcd13ifvqetg","pricing_plan_id":"cebpf4jnsgd1na2vs0mg"},{"bike_id":"00793cc7-3aa4-4db5-b4eb-b976b8442b97","system_id":"levelo_inurba_marseille","lat":43.307997,"lon":5.435217,"is_reserved":false,"is_disabled":false,"rental_uris":{"android":"levelo://app?vid=00793cc7-3aa4-4db5-b4eb-b976b8442b97","ios":"levelo://app?vid=00793cc7-3aa4-4db5-b4eb-b976b8442b97"},"vehicle_type_id":"4","last_reported":1749658391,"current_range_meters":8000,"station_id":"ce4bhph2rcd13ifvqheg","pricing_plan_id":"cebpf4jnsgd1na2vs0mg"},{"bike_id":"c383e124-0648-4c69-89a0-55413285cc73","system_id":"levelo_inurba_marseille","lat":43.2885,"lon":5.35842,"is_reserved":false,"is_disabled":false,"rental_uris":{"android":"levelo://app?vid=c383e124-0648-4c69-89a0-55413285cc73","ios":"levelo://app?vid=c383e124-0648-4c69-89a0-55413285cc73"},"vehicle_type_id":"4","last_reported":1749658391,"current_range_meters":8000,"station_id":"ce4bhb12rcd13ifvqem0","pricing_plan_id":"cebpf4jnsgd1na2vs0mg"},{"bike_id":"5077581b-cebb-46fc-ba69-4fa8272d4810","system_id":"levelo_inurba_marseille","lat":43.21366,"lon":5.35537,"is_reserved":false,"is_disabled":false,"rental_uris":{"android":"levelo://app?vid=5077581b-cebb-46fc-ba69-4fa8272d4810","ios":"levelo://app?vid=5077581b-cebb-46fc-ba69-4fa8272d4810"},"vehicle_type_id":"4","last_reported":1749658391,"current_range_meters":8000,"station_id":"","pricing_plan_id":"cebpf4jnsgd1na2vs0mg"},{"bike_id":"7a36c363-8c96-4854-b712-5d46ca4dc5ca","system_id":"levelo_inurba_marseille","lat":43.26565,"lon":5.39013,"is_reserved":false,"is_disabled":false,"rental_uris":{"android":"levelo://app?vid=7a36c363-8c96-4854-b712-5d46ca4dc5ca","ios":"levelo://app?vid=7a36c363-8c96-4854-b712-5d46ca4dc5ca"},"vehicle_type_id":"4","last_reported":1749658391,"current_range_meters":8000,"station_id":"ce4bhe12rcd13ifvqf30","pricing_plan_id":"cebpf4jnsgd1na2vs0mg"},{"bike_id":"18759061-77d6-468f-98a8-b5bab7d472b0","system_id":"levelo_inurba_marseille","lat":43.265407,"lon":5.390743,"is_reserved":false,"is_disabled":true,"rental_uris":{"android":"levelo://app?vid=18759061-77d6-468f-98a8-b5bab7d472b0","ios":"levelo://app?vid=18759061-77d6-468f-98a8-b5bab7d472b0"},"vehicle_type_id":"4","last_reported":1749658391,"current_range_meters":8000,"station_id":"","pricing_plan_id":"cebpf4jnsgd1na2vs0mg"},{"bike_id":"e3de9512-18ae-4aa7-8359-586865c2ae25","system_id":"levelo_inurba_marseille","lat":43.24074,"lon":5.37761,"is_reserved":false,"is_disabled":false,"rental_uris":{"android":"levelo://app?vid=e3de9512-18ae-4aa7-8359-586865c2ae25","ios":"levelo://app?vid=e3de9512-18ae-4aa7-8359-586865c2ae25"},"vehicle_type_id":"4","last_reported":1749658391,"current_range_meters":8000,"station_id":"ce4bhnp2rcd13ifvqgvg","pricing_plan_id":"cebpf4jnsgd1na2vs0mg"},{"bike_id":"484bada6-4011-442b-8f2f-097aa5221493","system_id":"levelo_inurba_marseille","lat":43.29525,"lon":5.38545,"is_reserved":false,"is_disabled":false,"rental_uris":{"android":"levelo://app?vid=484bada6-4011-442b-8f2f-097aa5221493","ios":"levelo://app?vid=484bada6-4011-442b-8f2f-097aa5221493"},"vehicle_type_id":"4","last_reported":1749658391,"current_range_meters":8400,"station_id":"ce4bgih2rcd13ifvqba0","pricing_plan_id":"cebpf4jnsgd1na2vs0mg"},{"bike_id":"9df47910-bc0f-4572-b780-0e0318834fe3","system_id":"levelo_inurba_marseille","lat":43.30355,"lon":5.41877,"is_reserved":false,"is_disabled":false,"rental_uris":{"android":"levelo://app?vid=9df47910-bc0f-4572-b780-0e0318834fe3","ios":"levelo://app?vid=9df47910-bc0f-4572-b780-0e0318834fe3"},"vehicle_type_id":"4","last_reported":1749658391,"current_range_meters":8000,"station_id":"ce4bhop2rcd13ifvqh7g","pricing_plan_id":"cebpf4jnsgd1na2vs0mg"},{"bike_id":"519d9303-5b48-4976-8f95-f1bca5f44a61","system_id":"levelo_inurba_marseille","lat":43.325378,"lon":5.414412,"is_reserved":false,"is_disabled":false,"rental_uris":{"android":"levelo://app?vid=519d9303-5b48-4976-8f95-f1bca5f44a61","ios":"levelo://app?vid=519d9303-5b48-4976-8f95-f1bca5f44a61"},"vehicle_type_id":"4","last_reported":1749658391,"current_range_meters":8400,"station_id":"ce4bhq12rcd13ifvqhhg","pricing_plan_id":"cebpf4jnsgd1na2vs0mg"},{"bike_id":"6eb1576f-683b-4b6f-a0b1-a77f141b89ca","system_id":"levelo_inurba_marseille","lat":43.28999,"lon":5.35603,"is_reserved":false,"is_disabled":false,"rental_uris":{"android":"levelo://app?vid=6eb1576f-683b-4b6f-a0b1-a77f141b89ca","ios":"levelo://app?vid=6eb1576f-683b-4b6f-a0b1-a77f141b89ca"},"vehicle_type_id":"4","last_reported":1749658391,"current_range_meters":8400,"station_id":"ce4bhb92rcd13ifvqen0","pricing_plan_id":"cebpf4jnsgd1na2vs0mg"},{"bike_id":"c5fecd09-008f-47b6-9f3a-1cae6816617f","system_id":"levelo_inurba_marseille","lat":43.28458,"lon":5.35877,"is_reserved":false,"is_disabled":false,"rental_uris":{"android":"levelo://app?vid=c5fecd09-008f-47b6-9f3a-1cae6816617f","ios":"levelo://app?vid=c5fecd09-008f-47b6-9f3a-1cae6816617f"},"vehicle_type_id":"4","last_reported":1749658391,"current_range_meters":8400,"station_id":"ce4bhah2rcd13ifvqei0","pricing_plan_id":"cebpf4jnsgd1na2vs0mg"},{"bike_id":"259b3bb7-470d-4511-af68-f5ff118b0b70","system_id":"levelo_inurba_marseille","lat":43.330166,"lon":5.39053,"is_reserved":false,"is_disabled":false,"rental_uris":{"android":"levelo://app?vid=259b3bb7-470d-4511-af68-f5ff118b0b70","ios":"levelo://app?vid=259b3bb7-470d-4511-af68-f5ff118b0b70"},"vehicle_type_id":"4","last_reported":1749658391,"current_range_meters":8400,"station_id":"ce4bhr92rcd13ifvqhrg","pricing_plan_id":"cebpf4jnsgd1na2vs0mg"},{"bike_id":"ca27e12a-1f2d-4cf2-be29-12a2b9ff1547","system_id":"levelo_inurba_marseille","lat":43.31712,"lon":5.42444,"is_reserved":false,"is_disabled":false,"rental_uris":{"android":"levelo://app?vid=ca27e12a-1f2d-4cf2-be29-12a2b9ff1547","ios":"levelo://app?vid=ca27e12a-1f2d-4cf2-be29-12a2b9ff1547"},"vehicle_type_id":"4","last_reported":1749658391,"current_range_meters":8400,"station_id":"ce4bhp92rcd13ifvqhbg","pricing_plan_id":"cebpf4jnsgd1na2vs0mg"},{"bike_id":"c8e04b91-936b-4d7a-ba7a-e01b41e8840f","system_id":"levelo_inurba_marseille","lat":43.29362,"lon":5.37845,"is_reserved":false,"is_disabled":false,"rental_uris":{"android":"levelo://app?vid=c8e04b91-936b-4d7a-ba7a-e01b41e8840f","ios":"levelo://app?vid=c8e04b91-936b-4d7a-ba7a-e01b41e8840f"},"vehicle_type_id":"4","last_reported":1749658391,"current_range_meters":8400,"station_id":"ce4bgjh2rcd13ifvqbf0","pricing_plan_id":"cebpf4jnsgd1na2vs0mg"},{"bike_id":"a9207d78-15a0-4302-af7d-8cec70375fbe","system_id":"levelo_inurba_marseille","lat":43.28617,"lon":5.35094,"is_reserved":false,"is_disabled":false,"rental_uris":{"android":"levelo://app?vid=a9207d78-15a0-4302-af7d-8cec70375fbe","ios":"levelo://app?vid=a9207d78-15a0-4302-af7d-8cec70375fbe"},"vehicle_type_id":"4","last_reported":1749658391,"current_range_meters":8400,"station_id":"ce4bhch2rcd13ifvqeug","pricing_plan_id":"cebpf4jnsgd1na2vs0mg"},{"bike_id":"2f107680-fdd7-4472-9d8f-789fbe501f33","system_id":"levelo_inurba_marseille","lat":43.31324,"lon":5.39688,"is_reserved":false,"is_disabled":false,"rental_uris":{"android":"levelo://app?vid=2f107680-fdd7-4472-9d8f-789fbe501f33","ios":"levelo://app?vid=2f107680-fdd7-4472-9d8f-789fbe501f33"},"vehicle_type_id":"4","last_reported":1749658391,"current_range_meters":8400,"station_id":"ce4bgvp2rcd13ifvqcu0","pricing_plan_id":"cebpf4jnsgd1na2vs0mg"},{"bike_id":"8eb3d170-3268-41f5-addf-0bc8a6ff1f29","system_id":"levelo_inurba_marseille","lat":43.28996,"lon":5.35606,"is_reserved":false,"is_disabled":true,"rental_uris":{"android":"levelo://app?vid=8eb3d170-3268-41f5-addf-0bc8a6ff1f29","ios":"levelo://app?vid=8eb3d170-3268-41f5-addf-0bc8a6ff1f29"},"vehicle_type_id":"4","last_reported":1749658391,"current_range_meters":8400,"station_id":"ce4bhb92rcd13ifvqen0","pricing_plan_id":"cebpf4jnsgd1na2vs0mg"},{"bike_id":"38d86915-6d51-4cfb-b645-3e418e420b69","system_id":"levelo_inurba_marseille","lat":43.28411,"lon":5.37508,"is_reserved":false,"is_disabled":false,"rental_uris":{"android":"levelo://app?vid=38d86915-6d51-4cfb-b645-3e418e420b69","ios":"levelo://app?vid=38d86915-6d51-4cfb-b645-3e418e420b69"},"vehicle_type_id":"4","last_reported":1749658391,"current_range_meters":8800,"station_id":"ce4bh412rcd13ifvqds0","pricing_plan_id":"cebpf4jnsgd1na2vs0mg"},{"bike_id":"15890935-4206-46eb-aaf6-abddc419f332","system_id":"levelo_inurba_marseille","lat":43.299888,"lon":5.384938,"is_reserved":false,"is_disabled":true,"rental_uris":{"android":"levelo://app?vid=15890935-4206-46eb-aaf6-abddc419f332","ios":"levelo://app?vid=15890935-4206-46eb-aaf6-abddc419f332"},"vehicle_type_id":"4","last_reported":1749658391,"current_range_meters":8800,"station_id":"ce4bgj92rcd13ifvqbd0","pricing_plan_id":"cebpf4jnsgd1na2vs0mg"},{"bike_id":"07501c08-b74f-4d85-84dd-319b39e0e3d7","system_id":"levelo_inurba_marseille","lat":43.27069,"lon":5.42265,"is_reserved":false,"is_disabled":false,"rental_uris":{"android":"levelo://app?vid=07501c08-b74f-4d85-84dd-319b39e0e3d7","ios":"levelo://app?vid=07501c08-b74f-4d85-84dd-319b39e0e3d7"},"vehicle_type_id":"4","last_reported":1749658391,"current_range_meters":8800,"station_id":"ce4bhk92rcd13ifvqgb0","pricing_plan_id":"cebpf4jnsgd1na2vs0mg"},{"bike_id":"9f0d423a-9a6f-4e49-acac-c61f91396adc","system_id":"levelo_inurba_marseille","lat":43.28002,"lon":5.4001,"is_reserved":false,"is_disabled":false,"rental_uris":{"android":"levelo://app?vid=9f0d423a-9a6f-4e49-acac-c61f91396adc","ios":"levelo://app?vid=9f0d423a-9a6f-4e49-acac-c61f91396adc"},"vehicle_type_id":"4","last_reported":1749658391,"current_range_meters":8800,"station_id":"ce4bho92rcd13ifvqh4g","pricing_plan_id":"cebpf4jnsgd1na2vs0mg"},{"bike_id":"0e92a489-6bfe-4488-b5ee-b5b5c177afe9","system_id":"levelo_inurba_marseille","lat":43.29066,"lon":5.37857,"is_reserved":false,"is_disabled":false,"rental_uris":{"android":"levelo://app?vid=0e92a489-6bfe-4488-b5ee-b5b5c177afe9","ios":"levelo://app?vid=0e92a489-6bfe-4488-b5ee-b5b5c177afe9"},"vehicle_type_id":"4","last_reported":1749658391,"current_range_meters":9200,"station_id":"","pricing_plan_id":"cebpf4jnsgd1na2vs0mg"},{"bike_id":"d532b6c3-fc6a-4251-96f9-7ef58bb4eada","system_id":"levelo_inurba_marseille","lat":43.29007,"lon":5.35611,"is_reserved":false,"is_disabled":false,"rental_uris":{"android":"levelo://app?vid=d532b6c3-fc6a-4251-96f9-7ef58bb4eada","ios":"levelo://app?vid=d532b6c3-fc6a-4251-96f9-7ef58bb4eada"},"vehicle_type_id":"4","last_reported":1749658391,"current_range_meters":9200,"station_id":"ce4bhb92rcd13ifvqen0","pricing_plan_id":"cebpf4jnsgd1na2vs0mg"},{"bike_id":"a34c8d23-0051-49af-8c05-d77116116d6d","system_id":"levelo_inurba_marseille","lat":43.32334,"lon":5.4062,"is_reserved":false,"is_disabled":false,"rental_uris":{"android":"levelo://app?vid=a34c8d23-0051-49af-8c05-d77116116d6d","ios":"levelo://app?vid=a34c8d23-0051-49af-8c05-d77116116d6d"},"vehicle_type_id":"4","last_reported":1749658391,"current_range_meters":9200,"station_id":"ce4bhq92rcd13ifvqhjg","pricing_plan_id":"cebpf4jnsgd1na2vs0mg"},{"bike_id":"1e20f032-0f6a-40b2-ad29-e4d2225496fa","system_id":"levelo_inurba_marseille","lat":43.3032,"lon":5.37034,"is_reserved":false,"is_disabled":false,"rental_uris":{"android":"levelo://app?vid=1e20f032-0f6a-40b2-ad29-e4d2225496fa","ios":"levelo://app?vid=1e20f032-0f6a-40b2-ad29-e4d2225496fa"},"vehicle_type_id":"4","last_reported":1749658391,"current_range_meters":9200,"station_id":"","pricing_plan_id":"cebpf4jnsgd1na2vs0mg"},{"bike_id":"57ae981b-f992-4b9e-bd1e-447b95ce922f","system_id":"levelo_inurba_marseille","lat":43.307097,"lon":5.380707,"is_reserved":false,"is_disabled":false,"rental_uris":{"android":"levelo://app?vid=57ae981b-f992-4b9e-bd1e-447b95ce922f","ios":"levelo://app?vid=57ae981b-f992-4b9e-bd1e-447b95ce922f"},"vehicle_type_id":"4","last_reported":1749658391,"current_range_meters":9200,"station_id":"","pricing_plan_id":"cebpf4jnsgd1na2vs0mg"},{"bike_id":"e41e1863-4b5e-409d-a47e-30d663df267a","system_id":"levelo_inurba_marseille","lat":43.28607,"lon":5.35103,"is_reserved":false,"is_disabled":false,"rental_uris":{"android":"levelo://app?vid=e41e1863-4b5e-409d-a47e-30d663df267a","ios":"levelo://app?vid=e41e1863-4b5e-409d-a47e-30d663df267a"},"vehicle_type_id":"4","last_reported":1749658391,"current_range_meters":9200,"station_id":"ce4bhch2rcd13ifvqeug","pricing_plan_id":"cebpf4jnsgd1na2vs0mg"},{"bike_id":"4005c274-b967-4005-810c-42c83ca88050","system_id":"levelo_inurba_marseille","lat":43.29085,"lon":5.3819,"is_reserved":false,"is_disabled":true,"rental_uris":{"android":"levelo://app?vid=4005c274-b967-4005-810c-42c83ca88050","ios":"levelo://app?vid=4005c274-b967-4005-810c-42c83ca88050"},"vehicle_type_id":"4","last_reported":1749658391,"current_range_meters":9600,"station_id":"ce4bh512rcd13ifvqe2g","pricing_plan_id":"cebpf4jnsgd1na2vs0mg"},{"bike_id":"a5d8bf67-e00f-4b3f-8720-d6497651122a","system_id":"levelo_inurba_marseille","lat":43.28442,"lon":5.34998,"is_reserved":false,"is_disabled":false,"rental_uris":{"android":"levelo://app?vid=a5d8bf67-e00f-4b3f-8720-d6497651122a","ios":"levelo://app?vid=a5d8bf67-e00f-4b3f-8720-d6497651122a"},"vehicle_type_id":"4","last_reported":1749658391,"current_range_meters":9600,"station_id":"ce4bhbh2rcd13ifvqepg","pricing_plan_id":"cebpf4jnsgd1na2vs0mg"},{"bike_id":"91ac4e4d-6f66-4be4-955d-f24eeec93e06","system_id":"levelo_inurba_marseille","lat":43.27673,"lon":5.38893,"is_reserved":false,"is_disabled":false,"rental_uris":{"android":"levelo://app?vid=91ac4e4d-6f66-4be4-955d-f24eeec93e06","ios":"levelo://app?vid=91ac4e4d-6f66-4be4-955d-f24eeec93e06"},"vehicle_type_id":"4","last_reported":1749658391,"current_range_meters":9600,"station_id":"ce4bhi12rcd13ifvqfo0","pricing_plan_id":"cebpf4jnsgd1na2vs0mg"},{"bike_id":"05ad0690-4b33-4c0c-8a80-97a8c364aa65","system_id":"levelo_inurba_marseille","lat":43.2958,"lon":5.36734,"is_reserved":false,"is_disabled":false,"rental_uris":{"android":"levelo://app?vid=05ad0690-4b33-4c0c-8a80-97a8c364aa65","ios":"levelo://app?vid=05ad0690-4b33-4c0c-8a80-97a8c364aa65"},"vehicle_type_id":"4","last_reported":1749658391,"current_range_meters":9600,"station_id":"ce4bgph2rcd13ifvqc2g","pricing_plan_id":"cebpf4jnsgd1na2vs0mg"},{"bike_id":"5198e3e5-ce4b-46ed-b5b2-a39b119a0bd7","system_id":"levelo_inurba_marseille","lat":43.29715,"lon":5.376836,"is_reserved":false,"is_disabled":false,"rental_uris":{"android":"levelo://app?vid=5198e3e5-ce4b-46ed-b5b2-a39b119a0bd7","ios":"levelo://app?vid=5198e3e5-ce4b-46ed-b5b2-a39b119a0bd7"},"vehicle_type_id":"4","last_reported":1749658391,"current_range_meters":9600,"station_id":"","pricing_plan_id":"cebpf4jnsgd1na2vs0mg"},{"bike_id":"184d8c86-ad44-47de-ae86-d227a30b44a9","system_id":"levelo_inurba_marseille","lat":43.32486,"lon":5.36557,"is_reserved":false,"is_disabled":false,"rental_uris":{"android":"levelo://app?vid=184d8c86-ad44-47de-ae86-d227a30b44a9","ios":"levelo://app?vid=184d8c86-ad44-47de-ae86-d227a30b44a9"},"vehicle_type_id":"4","last_reported":1749658391,"current_range_meters":9200,"station_id":"ce4bhs12rcd13ifvqhvg","pricing_plan_id":"cebpf4jnsgd1na2vs0mg"},{"bike_id":"f5db53c2-39c8-4781-b30f-b57c98968b37","system_id":"levelo_inurba_marseille","lat":43.29424,"lon":5.38616,"is_reserved":false,"is_disabled":true,"rental_uris":{"android":"levelo://app?vid=f5db53c2-39c8-4781-b30f-b57c98968b37","ios":"levelo://app?vid=f5db53c2-39c8-4781-b30f-b57c98968b37"},"vehicle_type_id":"4","last_reported":1749658391,"current_range_meters":10000,"station_id":"ce4bh2h2rcd13ifvqdh0","pricing_plan_id":"cebpf4jnsgd1na2vs0mg"},{"bike_id":"9b725c57-7343-44b4-80a0-c7306a27780a","system_id":"levelo_inurba_marseille","lat":43.27314,"lon":5.39074,"is_reserved":false,"is_disabled":false,"rental_uris":{"android":"levelo://app?vid=9b725c57-7343-44b4-80a0-c7306a27780a","ios":"levelo://app?vid=9b725c57-7343-44b4-80a0-c7306a27780a"},"vehicle_type_id":"4","last_reported":1749658391,"current_range_meters":10000,"station_id":"ce4bhgp2rcd13ifvqfe0","pricing_plan_id":"cebpf4jnsgd1na2vs0mg"},{"bike_id":"246a613f-abf4-47e7-a0e5-66df0af3bffd","system_id":"levelo_inurba_marseille","lat":43.26056,"lon":5.39396,"is_reserved":false,"is_disabled":false,"rental_uris":{"android":"levelo://app?vid=246a613f-abf4-47e7-a0e5-66df0af3bffd","ios":"levelo://app?vid=246a613f-abf4-47e7-a0e5-66df0af3bffd"},"vehicle_type_id":"4","last_reported":1749658391,"current_range_meters":10000,"station_id":"ce4bhh92rcd13ifvqfj0","pricing_plan_id":"cebpf4jnsgd1na2vs0mg"},{"bike_id":"5f313025-d9ef-419a-b8da-bab49a704c49","system_id":"levelo_inurba_marseille","lat":43.29786,"lon":5.37106,"is_reserved":false,"is_disabled":false,"rental_uris":{"android":"levelo://app?vid=5f313025-d9ef-419a-b8da-bab49a704c49","ios":"levelo://app?vid=5f313025-d9ef-419a-b8da-bab49a704c49"},"vehicle_type_id":"4","last_reported":1749658391,"current_range_meters":10000,"station_id":"ce4bgop2rcd13ifvqc1g","pricing_plan_id":"cebpf4jnsgd1na2vs0mg"},{"bike_id":"fe8e2dd5-5a9b-44af-bf76-39026c0fc36b","system_id":"levelo_inurba_marseille","lat":43.32657,"lon":5.40996,"is_reserved":false,"is_disabled":false,"rental_uris":{"android":"levelo://app?vid=fe8e2dd5-5a9b-44af-bf76-39026c0fc36b","ios":"levelo://app?vid=fe8e2dd5-5a9b-44af-bf76-39026c0fc36b"},"vehicle_type_id":"4","last_reported":1749658391,"current_range_meters":10000,"station_id":"ce4bhpp2rcd13ifvqhgg","pricing_plan_id":"cebpf4jnsgd1na2vs0mg"},{"bike_id":"17551954-30c6-4abc-9884-af9adc7e8908","system_id":"levelo_inurba_marseille","lat":43.30337,"lon":5.396873,"is_reserved":false,"is_disabled":false,"rental_uris":{"android":"levelo://app?vid=17551954-30c6-4abc-9884-af9adc7e8908","ios":"levelo://app?vid=17551954-30c6-4abc-9884-af9adc7e8908"},"vehicle_type_id":"4","last_reported":1749658391,"current_range_meters":10800,"station_id":"ce4bh092rcd13ifvqd20","pricing_plan_id":"cebpf4jnsgd1na2vs0mg"},{"bike_id":"a6a9aa78-7299-47ac-a784-76282a099506","system_id":"levelo_inurba_marseille","lat":43.301477,"lon":5.380923,"is_reserved":false,"is_disabled":true,"rental_uris":{"android":"levelo://app?vid=a6a9aa78-7299-47ac-a784-76282a099506","ios":"levelo://app?vid=a6a9aa78-7299-47ac-a784-76282a099506"},"vehicle_type_id":"4","last_reported":1749658391,"current_range_meters":10800,"station_id":"ce4bgjp2rcd13ifvqbh0","pricing_plan_id":"cebpf4jnsgd1na2vs0mg"},{"bike_id":"5ffc5d75-9066-40cf-9730-75b3d557a59f","system_id":"levelo_inurba_marseille","lat":43.29917,"lon":5.37785,"is_reserved":false,"is_disabled":false,"rental_uris":{"android":"levelo://app?vid=5ffc5d75-9066-40cf-9730-75b3d557a59f","ios":"levelo://app?vid=5ffc5d75-9066-40cf-9730-75b3d557a59f"},"vehicle_type_id":"4","last_reported":1749658391,"current_range_meters":10800,"station_id":"","pricing_plan_id":"cebpf4jnsgd1na2vs0mg"},{"bike_id":"41ed1a9d-dcdb-4a54-ab46-918e3922cb74","system_id":"levelo_inurba_marseille","lat":43.30397,"lon":5.41293,"is_reserved":false,"is_disabled":false,"rental_uris":{"android":"levelo://app?vid=41ed1a9d-dcdb-4a54-ab46-918e3922cb74","ios":"levelo://app?vid=41ed1a9d-dcdb-4a54-ab46-918e3922cb74"},"vehicle_type_id":"4","last_reported":1749658391,"current_range_meters":10800,"station_id":"ce4bhop2rcd13ifvqh8g","pricing_plan_id":"cebpf4jnsgd1na2vs0mg"},{"bike_id":"84f5a926-1dd6-4535-b647-2764ce0ca103","system_id":"levelo_inurba_marseille","lat":43.32114,"lon":5.36784,"is_reserved":false,"is_disabled":false,"rental_uris":{"android":"levelo://app?vid=84f5a926-1dd6-4535-b647-2764ce0ca103","ios":"levelo://app?vid=84f5a926-1dd6-4535-b647-2764ce0ca103"},"vehicle_type_id":"4","last_reported":1749658391,"current_range_meters":10800,"station_id":"ce4bhrh2rcd13ifvqhug","pricing_plan_id":"cebpf4jnsgd1na2vs0mg"},{"bike_id":"0923e79e-3960-4eec-9027-38089346fe3a","system_id":"levelo_inurba_marseille","lat":43.23186,"lon":5.35551,"is_reserved":false,"is_disabled":true,"rental_uris":{"android":"levelo://app?vid=0923e79e-3960-4eec-9027-38089346fe3a","ios":"levelo://app?vid=0923e79e-3960-4eec-9027-38089346fe3a"},"vehicle_type_id":"4","last_reported":1749658391,"current_range_meters":10800,"station_id":"ce4bhu92rcd13ifvqi70","pricing_plan_id":"cebpf4jnsgd1na2vs0mg"},{"bike_id":"e32533f5-5a6c-47e7-84b6-4274e7a96692","system_id":"levelo_inurba_marseille","lat":43.29933,"lon":5.3655,"is_reserved":false,"is_disabled":false,"rental_uris":{"android":"levelo://app?vid=e32533f5-5a6c-47e7-84b6-4274e7a96692","ios":"levelo://app?vid=e32533f5-5a6c-47e7-84b6-4274e7a96692"},"vehicle_type_id":"4","last_reported":1749658391,"current_range_meters":11200,"station_id":"ce4bgm92rcd13ifvqbr0","pricing_plan_id":"cebpf4jnsgd1na2vs0mg"},{"bike_id":"e4e3d43d-4b4d-4d67-b150-83310140977b","system_id":"levelo_inurba_marseille","lat":43.28269,"lon":5.35078,"is_reserved":false,"is_disabled":false,"rental_uris":{"android":"levelo://app?vid=e4e3d43d-4b4d-4d67-b150-83310140977b","ios":"levelo://app?vid=e4e3d43d-4b4d-4d67-b150-83310140977b"},"vehicle_type_id":"4","last_reported":1749658391,"current_range_meters":11200,"station_id":"ce4bhbp2rcd13ifvqerg","pricing_plan_id":"cebpf4jnsgd1na2vs0mg"},{"bike_id":"6c87bfbc-1d37-40d4-98cc-ebb108c6b983","system_id":"levelo_inurba_marseille","lat":43.29295,"lon":5.37449,"is_reserved":false,"is_disabled":false,"rental_uris":{"android":"levelo://app?vid=6c87bfbc-1d37-40d4-98cc-ebb108c6b983","ios":"levelo://app?vid=6c87bfbc-1d37-40d4-98cc-ebb108c6b983"},"vehicle_type_id":"4","last_reported":1749658391,"current_range_meters":11200,"station_id":"ce4bgi12rcd13ifvqb70","pricing_plan_id":"cebpf4jnsgd1na2vs0mg"},{"bike_id":"2a3efe3a-6d9a-46ba-817d-6df708e49102","system_id":"levelo_inurba_marseille","lat":43.26586,"lon":5.39071,"is_reserved":false,"is_disabled":false,"rental_uris":{"android":"levelo://app?vid=2a3efe3a-6d9a-46ba-817d-6df708e49102","ios":"levelo://app?vid=2a3efe3a-6d9a-46ba-817d-6df708e49102"},"vehicle_type_id":"4","last_reported":1749658391,"current_range_meters":11200,"station_id":"","pricing_plan_id":"cebpf4jnsgd1na2vs0mg"},{"bike_id":"4220c3f1-dd96-4f3e-a186-336464ef48f9","system_id":"levelo_inurba_marseille","lat":43.28423,"lon":5.35002,"is_reserved":false,"is_disabled":false,"rental_uris":{"android":"levelo://app?vid=4220c3f1-dd96-4f3e-a186-336464ef48f9","ios":"levelo://app?vid=4220c3f1-dd96-4f3e-a186-336464ef48f9"},"vehicle_type_id":"4","last_reported":1749658391,"current_range_meters":11200,"station_id":"ce4bhbh2rcd13ifvqepg","pricing_plan_id":"cebpf4jnsgd1na2vs0mg"},{"bike_id":"7640f9c7-7b43-42db-8097-1f334f3b6378","system_id":"levelo_inurba_marseille","lat":43.26925,"lon":5.38917,"is_reserved":false,"is_disabled":false,"rental_uris":{"android":"levelo://app?vid=7640f9c7-7b43-42db-8097-1f334f3b6378","ios":"levelo://app?vid=7640f9c7-7b43-42db-8097-1f334f3b6378"},"vehicle_type_id":"4","last_reported":1749658391,"current_range_meters":11600,"station_id":"ce4bhhh2rcd13ifvqfl0","pricing_plan_id":"cebpf4jnsgd1na2vs0mg"},{"bike_id":"eb5dcd9b-3842-453a-8fc3-cf4fa3239ea7","system_id":"levelo_inurba_marseille","lat":43.28466,"lon":5.35881,"is_reserved":false,"is_disabled":false,"rental_uris":{"android":"levelo://app?vid=eb5dcd9b-3842-453a-8fc3-cf4fa3239ea7","ios":"levelo://app?vid=eb5dcd9b-3842-453a-8fc3-cf4fa3239ea7"},"vehicle_type_id":"4","last_reported":1749658391,"current_range_meters":11600,"station_id":"ce4bhah2rcd13ifvqei0","pricing_plan_id":"cebpf4jnsgd1na2vs0mg"},{"bike_id":"feeae064-2fd0-4e90-83d7-93dc3097e58b","system_id":"levelo_inurba_marseille","lat":43.29788,"lon":5.40396,"is_reserved":false,"is_disabled":false,"rental_uris":{"android":"levelo://app?vid=feeae064-2fd0-4e90-83d7-93dc3097e58b","ios":"levelo://app?vid=feeae064-2fd0-4e90-83d7-93dc3097e58b"},"vehicle_type_id":"4","last_reported":1749658391,"current_range_meters":11600,"station_id":"ce4bh112rcd13ifvqd90","pricing_plan_id":"cebpf4jnsgd1na2vs0mg"},{"bike_id":"a3fcb8a8-0d82-483e-b5f2-ee8f8ccf7d02","system_id":"levelo_inurba_marseille","lat":43.2827,"lon":5.35061,"is_reserved":false,"is_disabled":false,"rental_uris":{"android":"levelo://app?vid=a3fcb8a8-0d82-483e-b5f2-ee8f8ccf7d02","ios":"levelo://app?vid=a3fcb8a8-0d82-483e-b5f2-ee8f8ccf7d02"},"vehicle_type_id":"4","last_reported":1749658391,"current_range_meters":11600,"station_id":"ce4bhbp2rcd13ifvqerg","pricing_plan_id":"cebpf4jnsgd1na2vs0mg"},{"bike_id":"8e697051-973c-4c17-a294-2aefdaca9a9b","system_id":"levelo_inurba_marseille","lat":43.25572,"lon":5.38231,"is_reserved":false,"is_disabled":false,"rental_uris":{"android":"levelo://app?vid=8e697051-973c-4c17-a294-2aefdaca9a9b","ios":"levelo://app?vid=8e697051-973c-4c17-a294-2aefdaca9a9b"},"vehicle_type_id":"4","last_reported":1749658391,"current_range_meters":11600,"station_id":"ce4bhih2rcd13ifvqfs0","pricing_plan_id":"cebpf4jnsgd1na2vs0mg"},{"bike_id":"92f8ee1a-bea5-4ec0-87c3-cb458c0d3f7c","system_id":"levelo_inurba_marseille","lat":43.316632,"lon":5.40486,"is_reserved":false,"is_disabled":false,"rental_uris":{"android":"levelo://app?vid=92f8ee1a-bea5-4ec0-87c3-cb458c0d3f7c","ios":"levelo://app?vid=92f8ee1a-bea5-4ec0-87c3-cb458c0d3f7c"},"vehicle_type_id":"4","last_reported":1749658391,"current_range_meters":12000,"station_id":"ce4bh012rcd13ifvqd00","pricing_plan_id":"cebpf4jnsgd1na2vs0mg"},{"bike_id":"36c13c1d-4dfd-4e68-be62-f789ac043c45","system_id":"levelo_inurba_marseille","lat":43.27808,"lon":5.40709,"is_reserved":false,"is_disabled":false,"rental_uris":{"android":"levelo://app?vid=36c13c1d-4dfd-4e68-be62-f789ac043c45","ios":"levelo://app?vid=36c13c1d-4dfd-4e68-be62-f789ac043c45"},"vehicle_type_id":"4","last_reported":1749658391,"current_range_meters":12000,"station_id":"ce4bhnh2rcd13ifvqgtg","pricing_plan_id":"cebpf4jnsgd1na2vs0mg"},{"bike_id":"1acfb620-cad7-48c0-8901-d7a5b74a5b65","system_id":"levelo_inurba_marseille","lat":43.33751,"lon":5.37456,"is_reserved":false,"is_disabled":false,"rental_uris":{"android":"levelo://app?vid=1acfb620-cad7-48c0-8901-d7a5b74a5b65","ios":"levelo://app?vid=1acfb620-cad7-48c0-8901-d7a5b74a5b65"},"vehicle_type_id":"4","last_reported":1749658391,"current_range_meters":12000,"station_id":"","pricing_plan_id":"cebpf4jnsgd1na2vs0mg"},{"bike_id":"f45ecfb6-6d84-4e2a-a549-add3b7ff77b5","system_id":"levelo_inurba_marseille","lat":43.28272,"lon":5.35073,"is_reserved":false,"is_disabled":false,"rental_uris":{"android":"levelo://app?vid=f45ecfb6-6d84-4e2a-a549-add3b7ff77b5","ios":"levelo://app?vid=f45ecfb6-6d84-4e2a-a549-add3b7ff77b5"},"vehicle_type_id":"4","last_reported":1749658391,"current_range_meters":12400,"station_id":"ce4bhbp2rcd13ifvqerg","pricing_plan_id":"cebpf4jnsgd1na2vs0mg"},{"bike_id":"7611abfa-db8a-4c98-b4fa-35298830ebdd","system_id":"levelo_inurba_marseille","lat":43.29925,"lon":5.37487,"is_reserved":false,"is_disabled":false,"rental_uris":{"android":"levelo://app?vid=7611abfa-db8a-4c98-b4fa-35298830ebdd","ios":"levelo://app?vid=7611abfa-db8a-4c98-b4fa-35298830ebdd"},"vehicle_type_id":"4","last_reported":1749658391,"current_range_meters":12400,"station_id":"ce4bgjh2rcd13ifvqbg0","pricing_plan_id":"cebpf4jnsgd1na2vs0mg"},{"bike_id":"559f9bce-8621-4f77-ae5a-c9886beca95b","system_id":"levelo_inurba_marseille","lat":43.30776,"lon":5.37654,"is_reserved":false,"is_disabled":false,"rental_uris":{"android":"levelo://app?vid=559f9bce-8621-4f77-ae5a-c9886beca95b","ios":"levelo://app?vid=559f9bce-8621-4f77-ae5a-c9886beca95b"},"vehicle_type_id":"4","last_reported":1749658391,"current_range_meters":12400,"station_id":"ce4bgv92rcd13ifvqcq0","pricing_plan_id":"cebpf4jnsgd1na2vs0mg"},{"bike_id":"71455d28-2646-4598-b7dc-7b6598c787b7","system_id":"levelo_inurba_marseille","lat":43.27374,"lon":5.36254,"is_reserved":false,"is_disabled":false,"rental_uris":{"android":"levelo://app?vid=71455d28-2646-4598-b7dc-7b6598c787b7","ios":"levelo://app?vid=71455d28-2646-4598-b7dc-7b6598c787b7"},"vehicle_type_id":"4","last_reported":1749658391,"current_range_meters":12400,"station_id":"ce4bhbh2rcd13ifvqeo0","pricing_plan_id":"cebpf4jnsgd1na2vs0mg"},{"bike_id":"e2ab8eba-7083-4745-9245-927a9e9c668c","system_id":"levelo_inurba_marseille","lat":43.28427,"lon":5.3498,"is_reserved":false,"is_disabled":false,"rental_uris":{"android":"levelo://app?vid=e2ab8eba-7083-4745-9245-927a9e9c668c","ios":"levelo://app?vid=e2ab8eba-7083-4745-9245-927a9e9c668c"},"vehicle_type_id":"4","last_reported":1749658391,"current_range_meters":12400,"station_id":"ce4bhbh2rcd13ifvqepg","pricing_plan_id":"cebpf4jnsgd1na2vs0mg"},{"bike_id":"2c7a13aa-9a16-4880-8e65-7cb3af8d8d1b","system_id":"levelo_inurba_marseille","lat":43.28989,"lon":5.37844,"is_reserved":false,"is_disabled":true,"rental_uris":{"android":"levelo://app?vid=2c7a13aa-9a16-4880-8e65-7cb3af8d8d1b","ios":"levelo://app?vid=2c7a13aa-9a16-4880-8e65-7cb3af8d8d1b"},"vehicle_type_id":"4","last_reported":1749658391,"current_range_meters":12400,"station_id":"ce4bh9p2rcd13ifvqed0","pricing_plan_id":"cebpf4jnsgd1na2vs0mg"},{"bike_id":"be7728f9-2086-4548-a1b3-377a4d2296d8","system_id":"levelo_inurba_marseille","lat":43.26548,"lon":5.37309,"is_reserved":false,"is_disabled":false,"rental_uris":{"android":"levelo://app?vid=be7728f9-2086-4548-a1b3-377a4d2296d8","ios":"levelo://app?vid=be7728f9-2086-4548-a1b3-377a4d2296d8"},"vehicle_type_id":"4","last_reported":1749658391,"current_range_meters":12400,"station_id":"ce4bhg12rcd13ifvqf70","pricing_plan_id":"cebpf4jnsgd1na2vs0mg"},{"bike_id":"5c7467ea-1bef-475a-a3c5-09e2c36bf23b","system_id":"levelo_inurba_marseille","lat":43.29552,"lon":5.42293,"is_reserved":false,"is_disabled":false,"rental_uris":{"android":"levelo://app?vid=5c7467ea-1bef-475a-a3c5-09e2c36bf23b","ios":"levelo://app?vid=5c7467ea-1bef-475a-a3c5-09e2c36bf23b"},"vehicle_type_id":"4","last_reported":1749658391,"current_range_meters":12400,"station_id":"ce4bhph2rcd13ifvqhdg","pricing_plan_id":"cebpf4jnsgd1na2vs0mg"},{"bike_id":"91252cb4-db98-4cff-ba49-0337a6eacf8f","system_id":"levelo_inurba_marseille","lat":43.31995,"lon":5.3877,"is_reserved":false,"is_disabled":false,"rental_uris":{"android":"levelo://app?vid=91252cb4-db98-4cff-ba49-0337a6eacf8f","ios":"levelo://app?vid=91252cb4-db98-4cff-ba49-0337a6eacf8f"},"vehicle_type_id":"4","last_reported":1749658391,"current_range_meters":12400,"station_id":"","pricing_plan_id":"cebpf4jnsgd1na2vs0mg"},{"bike_id":"dfa8a562-7c57-4609-9fab-4cc0bd86a23f","system_id":"levelo_inurba_marseille","lat":43.281145,"lon":5.351881,"is_reserved":false,"is_disabled":false,"rental_uris":{"android":"levelo://app?vid=dfa8a562-7c57-4609-9fab-4cc0bd86a23f","ios":"levelo://app?vid=dfa8a562-7c57-4609-9fab-4cc0bd86a23f"},"vehicle_type_id":"4","last_reported":1749658391,"current_range_meters":12800,"station_id":"ce4bhch2rcd13ifvqeug","pricing_plan_id":"cebpf4jnsgd1na2vs0mg"},{"bike_id":"4759e9c6-b81b-4566-9492-c8ff0f8a3efb","system_id":"levelo_inurba_marseille","lat":43.24075,"lon":5.37754,"is_reserved":false,"is_disabled":false,"rental_uris":{"android":"levelo://app?vid=4759e9c6-b81b-4566-9492-c8ff0f8a3efb","ios":"levelo://app?vid=4759e9c6-b81b-4566-9492-c8ff0f8a3efb"},"vehicle_type_id":"4","last_reported":1749658391,"current_range_meters":12800,"station_id":"ce4bhnp2rcd13ifvqgvg","pricing_plan_id":"cebpf4jnsgd1na2vs0mg"},{"bike_id":"859c6d64-1885-4daa-9e95-5e7e4571efc2","system_id":"levelo_inurba_marseille","lat":43.22931,"lon":5.35377,"is_reserved":false,"is_disabled":false,"rental_uris":{"android":"levelo://app?vid=859c6d64-1885-4daa-9e95-5e7e4571efc2","ios":"levelo://app?vid=859c6d64-1885-4daa-9e95-5e7e4571efc2"},"vehicle_type_id":"4","last_reported":1749658391,"current_range_meters":12800,"station_id":"cpo3532slgdg3j2ikp40","pricing_plan_id":"cebpf4jnsgd1na2vs0mg"},{"bike_id":"d04a5dea-7dfa-4414-9b4e-8dc101d0bd61","system_id":"levelo_inurba_marseille","lat":43.28851,"lon":5.35841,"is_reserved":false,"is_disabled":false,"rental_uris":{"android":"levelo://app?vid=d04a5dea-7dfa-4414-9b4e-8dc101d0bd61","ios":"levelo://app?vid=d04a5dea-7dfa-4414-9b4e-8dc101d0bd61"},"vehicle_type_id":"4","last_reported":1749658391,"current_range_meters":12800,"station_id":"ce4bhb12rcd13ifvqem0","pricing_plan_id":"cebpf4jnsgd1na2vs0mg"},{"bike_id":"736d83d2-ad4e-4036-a71e-1809d882edca","system_id":"levelo_inurba_marseille","lat":43.30641,"lon":5.40095,"is_reserved":false,"is_disabled":false,"rental_uris":{"android":"levelo://app?vid=736d83d2-ad4e-4036-a71e-1809d882edca","ios":"levelo://app?vid=736d83d2-ad4e-4036-a71e-1809d882edca"},"vehicle_type_id":"4","last_reported":1749658391,"current_range_meters":13600,"station_id":"ce4bh112rcd13ifvqda0","pricing_plan_id":"cebpf4jnsgd1na2vs0mg"},{"bike_id":"8afb6112-33a3-4866-adc8-e3fe04e3f604","system_id":"levelo_inurba_marseille","lat":43.28257,"lon":5.35078,"is_reserved":false,"is_disabled":false,"rental_uris":{"android":"levelo://app?vid=8afb6112-33a3-4866-adc8-e3fe04e3f604","ios":"levelo://app?vid=8afb6112-33a3-4866-adc8-e3fe04e3f604"},"vehicle_type_id":"4","last_reported":1749658391,"current_range_meters":13600,"station_id":"ce4bhbp2rcd13ifvqerg","pricing_plan_id":"cebpf4jnsgd1na2vs0mg"},{"bike_id":"26458859-f290-440c-ae9c-21fae7264218","system_id":"levelo_inurba_marseille","lat":43.28277,"lon":5.35061,"is_reserved":false,"is_disabled":false,"rental_uris":{"android":"levelo://app?vid=26458859-f290-440c-ae9c-21fae7264218","ios":"levelo://app?vid=26458859-f290-440c-ae9c-21fae7264218"},"vehicle_type_id":"4","last_reported":1749658391,"current_range_meters":13600,"station_id":"ce4bhbp2rcd13ifvqerg","pricing_plan_id":"cebpf4jnsgd1na2vs0mg"},{"bike_id":"97dc308e-5170-4a1b-84db-a44a962e6efa","system_id":"levelo_inurba_marseille","lat":43.24387,"lon":5.37057,"is_reserved":false,"is_disabled":false,"rental_uris":{"android":"levelo://app?vid=97dc308e-5170-4a1b-84db-a44a962e6efa","ios":"levelo://app?vid=97dc308e-5170-4a1b-84db-a44a962e6efa"},"vehicle_type_id":"4","last_reported":1749658391,"current_range_meters":14000,"station_id":"ce4bhhh2rcd13ifvqfk0","pricing_plan_id":"cebpf4jnsgd1na2vs0mg"},{"bike_id":"08d78a49-d56a-4007-bfe7-ef80380d51ac","system_id":"levelo_inurba_marseille","lat":43.28275,"lon":5.35074,"is_reserved":false,"is_disabled":false,"rental_uris":{"android":"levelo://app?vid=08d78a49-d56a-4007-bfe7-ef80380d51ac","ios":"levelo://app?vid=08d78a49-d56a-4007-bfe7-ef80380d51ac"},"vehicle_type_id":"4","last_reported":1749658391,"current_range_meters":14000,"station_id":"ce4bhbp2rcd13ifvqerg","pricing_plan_id":"cebpf4jnsgd1na2vs0mg"},{"bike_id":"f39cff6d-518d-44a1-8152-1fcd97c5809e","system_id":"levelo_inurba_marseille","lat":43.28402,"lon":5.35014,"is_reserved":false,"is_disabled":false,"rental_uris":{"android":"levelo://app?vid=f39cff6d-518d-44a1-8152-1fcd97c5809e","ios":"levelo://app?vid=f39cff6d-518d-44a1-8152-1fcd97c5809e"},"vehicle_type_id":"4","last_reported":1749658391,"current_range_meters":14000,"station_id":"ce4bhbh2rcd13ifvqepg","pricing_plan_id":"cebpf4jnsgd1na2vs0mg"},{"bike_id":"f779b611-c10e-4619-9bdb-6b076750df1c","system_id":"levelo_inurba_marseille","lat":43.24068,"lon":5.37772,"is_reserved":false,"is_disabled":false,"rental_uris":{"android":"levelo://app?vid=f779b611-c10e-4619-9bdb-6b076750df1c","ios":"levelo://app?vid=f779b611-c10e-4619-9bdb-6b076750df1c"},"vehicle_type_id":"4","last_reported":1749658391,"current_range_meters":14000,"station_id":"ce4bhnp2rcd13ifvqgvg","pricing_plan_id":"cebpf4jnsgd1na2vs0mg"},{"bike_id":"3fbbbb13-fb5f-4539-87f9-8c41003c6ad4","system_id":"levelo_inurba_marseille","lat":43.27428,"lon":5.39414,"is_reserved":false,"is_disabled":false,"rental_uris":{"android":"levelo://app?vid=3fbbbb13-fb5f-4539-87f9-8c41003c6ad4","ios":"levelo://app?vid=3fbbbb13-fb5f-4539-87f9-8c41003c6ad4"},"vehicle_type_id":"4","last_reported":1749658391,"current_range_meters":14400,"station_id":"ce4bhdp2rcd13ifvqf20","pricing_plan_id":"cebpf4jnsgd1na2vs0mg"},{"bike_id":"1c533ff4-5987-4762-9e10-a2a1d8221238","system_id":"levelo_inurba_marseille","lat":43.28266,"lon":5.35066,"is_reserved":false,"is_disabled":false,"rental_uris":{"android":"levelo://app?vid=1c533ff4-5987-4762-9e10-a2a1d8221238","ios":"levelo://app?vid=1c533ff4-5987-4762-9e10-a2a1d8221238"},"vehicle_type_id":"4","last_reported":1749658391,"current_range_meters":14400,"station_id":"ce4bhbp2rcd13ifvqerg","pricing_plan_id":"cebpf4jnsgd1na2vs0mg"},{"bike_id":"01b53ea9-5963-4456-ac52-b335e6cee31c","system_id":"levelo_inurba_marseille","lat":43.28399,"lon":5.34993,"is_reserved":false,"is_disabled":false,"rental_uris":{"android":"levelo://app?vid=01b53ea9-5963-4456-ac52-b335e6cee31c","ios":"levelo://app?vid=01b53ea9-5963-4456-ac52-b335e6cee31c"},"vehicle_type_id":"4","last_reported":1749658391,"current_range_meters":14400,"station_id":"ce4bhbh2rcd13ifvqepg","pricing_plan_id":"cebpf4jnsgd1na2vs0mg"},{"bike_id":"82c8a6bc-b36b-4434-9d6c-508af1b11abc","system_id":"levelo_inurba_marseille","lat":43.2926,"lon":5.409,"is_reserved":false,"is_disabled":false,"rental_uris":{"android":"levelo://app?vid=82c8a6bc-b36b-4434-9d6c-508af1b11abc","ios":"levelo://app?vid=82c8a6bc-b36b-4434-9d6c-508af1b11abc"},"vehicle_type_id":"4","last_reported":1749658391,"current_range_meters":14400,"station_id":"ce4bh192rcd13ifvqdc0","pricing_plan_id":"cebpf4jnsgd1na2vs0mg"},{"bike_id":"cb40efa7-0576-4686-ba31-0a98a4200136","system_id":"levelo_inurba_marseille","lat":43.31323,"lon":5.39683,"is_reserved":false,"is_disabled":false,"rental_uris":{"android":"levelo://app?vid=cb40efa7-0576-4686-ba31-0a98a4200136","ios":"levelo://app?vid=cb40efa7-0576-4686-ba31-0a98a4200136"},"vehicle_type_id":"4","last_reported":1749658391,"current_range_meters":14000,"station_id":"ce4bgvp2rcd13ifvqcu0","pricing_plan_id":"cebpf4jnsgd1na2vs0mg"},{"bike_id":"ec9132ed-4010-4092-91c0-9dcda8f652e7","system_id":"levelo_inurba_marseille","lat":43.25501,"lon":5.3765,"is_reserved":false,"is_disabled":false,"rental_uris":{"android":"levelo://app?vid=ec9132ed-4010-4092-91c0-9dcda8f652e7","ios":"levelo://app?vid=ec9132ed-4010-4092-91c0-9dcda8f652e7"},"vehicle_type_id":"4","last_reported":1749658391,"current_range_meters":14400,"station_id":"ce4bhh12rcd13ifvqff0","pricing_plan_id":"cebpf4jnsgd1na2vs0mg"},{"bike_id":"f430f389-8394-4c20-8bdc-2324b4b2920c","system_id":"levelo_inurba_marseille","lat":43.29936,"lon":5.36569,"is_reserved":false,"is_disabled":false,"rental_uris":{"android":"levelo://app?vid=f430f389-8394-4c20-8bdc-2324b4b2920c","ios":"levelo://app?vid=f430f389-8394-4c20-8bdc-2324b4b2920c"},"vehicle_type_id":"4","last_reported":1749658391,"current_range_meters":14800,"station_id":"ce4bgm92rcd13ifvqbr0","pricing_plan_id":"cebpf4jnsgd1na2vs0mg"},{"bike_id":"3d3604e2-7c6c-48fd-9f51-e25f72e6d4d9","system_id":"levelo_inurba_marseille","lat":43.273718,"lon":5.362604,"is_reserved":false,"is_disabled":false,"rental_uris":{"android":"levelo://app?vid=3d3604e2-7c6c-48fd-9f51-e25f72e6d4d9","ios":"levelo://app?vid=3d3604e2-7c6c-48fd-9f51-e25f72e6d4d9"},"vehicle_type_id":"4","last_reported":1749658391,"current_range_meters":14800,"station_id":"ce4bhbh2rcd13ifvqeo0","pricing_plan_id":"cebpf4jnsgd1na2vs0mg"},{"bike_id":"a2421370-e442-436f-a98a-844d44299694","system_id":"levelo_inurba_marseille","lat":43.32338,"lon":5.36707,"is_reserved":false,"is_disabled":false,"rental_uris":{"android":"levelo://app?vid=a2421370-e442-436f-a98a-844d44299694","ios":"levelo://app?vid=a2421370-e442-436f-a98a-844d44299694"},"vehicle_type_id":"4","last_reported":1749658391,"current_range_meters":14800,"station_id":"ce4bhsh2rcd13ifvqi2g","pricing_plan_id":"cebpf4jnsgd1na2vs0mg"},{"bike_id":"03e99185-e778-4ccf-af48-bb80112546c3","system_id":"levelo_inurba_marseille","lat":43.26208,"lon":5.37435,"is_reserved":false,"is_disabled":false,"rental_uris":{"android":"levelo://app?vid=03e99185-e778-4ccf-af48-bb80112546c3","ios":"levelo://app?vid=03e99185-e778-4ccf-af48-bb80112546c3"},"vehicle_type_id":"4","last_reported":1749658391,"current_range_meters":14800,"station_id":"ce4bhgp2rcd13ifvqfc0","pricing_plan_id":"cebpf4jnsgd1na2vs0mg"},{"bike_id":"8d8357b5-b589-4cca-89fa-7c24c18e800f","system_id":"levelo_inurba_marseille","lat":43.30589,"lon":5.3935,"is_reserved":false,"is_disabled":false,"rental_uris":{"android":"levelo://app?vid=8d8357b5-b589-4cca-89fa-7c24c18e800f","ios":"levelo://app?vid=8d8357b5-b589-4cca-89fa-7c24c18e800f"},"vehicle_type_id":"4","last_reported":1749658391,"current_range_meters":14800,"station_id":"ce4bh0p2rcd13ifvqd80","pricing_plan_id":"cebpf4jnsgd1na2vs0mg"},{"bike_id":"7646dbaa-39e6-49ea-afbb-365791b3b450","system_id":"levelo_inurba_marseille","lat":43.29271,"lon":5.36843,"is_reserved":false,"is_disabled":false,"rental_uris":{"android":"levelo://app?vid=7646dbaa-39e6-49ea-afbb-365791b3b450","ios":"levelo://app?vid=7646dbaa-39e6-49ea-afbb-365791b3b450"},"vehicle_type_id":"4","last_reported":1749658391,"current_range_meters":14800,"station_id":"ce4bhbp2rcd13ifvqesg","pricing_plan_id":"cebpf4jnsgd1na2vs0mg"},{"bike_id":"f10adc7e-6a3a-4a5d-9515-dc52fefe2058","system_id":"levelo_inurba_marseille","lat":43.32368,"lon":5.36759,"is_reserved":false,"is_disabled":false,"rental_uris":{"android":"levelo://app?vid=f10adc7e-6a3a-4a5d-9515-dc52fefe2058","ios":"levelo://app?vid=f10adc7e-6a3a-4a5d-9515-dc52fefe2058"},"vehicle_type_id":"4","last_reported":1749658391,"current_range_meters":14800,"station_id":"ce4bhsh2rcd13ifvqi2g","pricing_plan_id":"cebpf4jnsgd1na2vs0mg"},{"bike_id":"354a1076-00d7-46ec-830b-28e28e2cb143","system_id":"levelo_inurba_marseille","lat":43.29264,"lon":5.36828,"is_reserved":false,"is_disabled":true,"rental_uris":{"android":"levelo://app?vid=354a1076-00d7-46ec-830b-28e28e2cb143","ios":"levelo://app?vid=354a1076-00d7-46ec-830b-28e28e2cb143"},"vehicle_type_id":"4","last_reported":1749658391,"current_range_meters":14800,"station_id":"ce4bhbp2rcd13ifvqesg","pricing_plan_id":"cebpf4jnsgd1na2vs0mg"},{"bike_id":"3861ed96-da6c-4698-b86b-cd4c76ede3fb","system_id":"levelo_inurba_marseille","lat":43.28605,"lon":5.37063,"is_reserved":false,"is_disabled":false,"rental_uris":{"android":"levelo://app?vid=3861ed96-da6c-4698-b86b-cd4c76ede3fb","ios":"levelo://app?vid=3861ed96-da6c-4698-b86b-cd4c76ede3fb"},"vehicle_type_id":"4","last_reported":1749658391,"current_range_meters":15200,"station_id":"ce4bht12rcd13ifvqi60","pricing_plan_id":"cebpf4jnsgd1na2vs0mg"},{"bike_id":"01aa2d51-846d-4b3c-9cda-64e1650fb56e","system_id":"levelo_inurba_marseille","lat":43.2841,"lon":5.37502,"is_reserved":false,"is_disabled":false,"rental_uris":{"android":"levelo://app?vid=01aa2d51-846d-4b3c-9cda-64e1650fb56e","ios":"levelo://app?vid=01aa2d51-846d-4b3c-9cda-64e1650fb56e"},"vehicle_type_id":"4","last_reported":1749658391,"current_range_meters":14800,"station_id":"ce4bh412rcd13ifvqds0","pricing_plan_id":"cebpf4jnsgd1na2vs0mg"},{"bike_id":"e82995bb-753b-4b29-ba32-dff9b65905ff","system_id":"levelo_inurba_marseille","lat":43.28416,"lon":5.34982,"is_reserved":false,"is_disabled":false,"rental_uris":{"android":"levelo://app?vid=e82995bb-753b-4b29-ba32-dff9b65905ff","ios":"levelo://app?vid=e82995bb-753b-4b29-ba32-dff9b65905ff"},"vehicle_type_id":"4","last_reported":1749658391,"current_range_meters":15200,"station_id":"ce4bhbh2rcd13ifvqepg","pricing_plan_id":"cebpf4jnsgd1na2vs0mg"},{"bike_id":"585ee337-f61b-440d-8902-c3e41deb4cb0","system_id":"levelo_inurba_marseille","lat":43.28267,"lon":5.35067,"is_reserved":false,"is_disabled":false,"rental_uris":{"android":"levelo://app?vid=585ee337-f61b-440d-8902-c3e41deb4cb0","ios":"levelo://app?vid=585ee337-f61b-440d-8902-c3e41deb4cb0"},"vehicle_type_id":"4","last_reported":1749658391,"current_range_meters":15200,"station_id":"ce4bhbp2rcd13ifvqerg","pricing_plan_id":"cebpf4jnsgd1na2vs0mg"},{"bike_id":"44eda675-615b-4bfd-b490-6fe3ade37c5e","system_id":"levelo_inurba_marseille","lat":43.28469,"lon":5.35882,"is_reserved":false,"is_disabled":false,"rental_uris":{"android":"levelo://app?vid=44eda675-615b-4bfd-b490-6fe3ade37c5e","ios":"levelo://app?vid=44eda675-615b-4bfd-b490-6fe3ade37c5e"},"vehicle_type_id":"4","last_reported":1749658391,"current_range_meters":16000,"station_id":"ce4bhah2rcd13ifvqei0","pricing_plan_id":"cebpf4jnsgd1na2vs0mg"},{"bike_id":"c02e7209-59a3-430e-a878-b781ce16443d","system_id":"levelo_inurba_marseille","lat":43.29514,"lon":5.394118,"is_reserved":false,"is_disabled":false,"rental_uris":{"android":"levelo://app?vid=c02e7209-59a3-430e-a878-b781ce16443d","ios":"levelo://app?vid=c02e7209-59a3-430e-a878-b781ce16443d"},"vehicle_type_id":"4","last_reported":1749658391,"current_range_meters":16000,"station_id":"ce4bh292rcd13ifvqdf0","pricing_plan_id":"cebpf4jnsgd1na2vs0mg"},{"bike_id":"54265529-c802-41ea-a434-8efe037aed4d","system_id":"levelo_inurba_marseille","lat":43.28456,"lon":5.34968,"is_reserved":false,"is_disabled":false,"rental_uris":{"android":"levelo://app?vid=54265529-c802-41ea-a434-8efe037aed4d","ios":"levelo://app?vid=54265529-c802-41ea-a434-8efe037aed4d"},"vehicle_type_id":"4","last_reported":1749658391,"current_range_meters":16000,"station_id":"ce4bhbh2rcd13ifvqepg","pricing_plan_id":"cebpf4jnsgd1na2vs0mg"},{"bike_id":"09be88fd-ebbb-4d3d-9365-2625dae6e511","system_id":"levelo_inurba_marseille","lat":43.30417,"lon":5.39737,"is_reserved":false,"is_disabled":false,"rental_uris":{"android":"levelo://app?vid=09be88fd-ebbb-4d3d-9365-2625dae6e511","ios":"levelo://app?vid=09be88fd-ebbb-4d3d-9365-2625dae6e511"},"vehicle_type_id":"4","last_reported":1749658391,"current_range_meters":16000,"station_id":"ce4bh092rcd13ifvqd20","pricing_plan_id":"cebpf4jnsgd1na2vs0mg"},{"bike_id":"94ce92e7-af62-442f-a92d-5ccdfaab0412","system_id":"levelo_inurba_marseille","lat":43.2955,"lon":5.42285,"is_reserved":false,"is_disabled":false,"rental_uris":{"android":"levelo://app?vid=94ce92e7-af62-442f-a92d-5ccdfaab0412","ios":"levelo://app?vid=94ce92e7-af62-442f-a92d-5ccdfaab0412"},"vehicle_type_id":"4","last_reported":1749658391,"current_range_meters":16000,"station_id":"ce4bhph2rcd13ifvqhdg","pricing_plan_id":"cebpf4jnsgd1na2vs0mg"},{"bike_id":"e70c17ea-cf15-4cd8-8ca9-87d54374f23f","system_id":"levelo_inurba_marseille","lat":43.286133,"lon":5.350969,"is_reserved":false,"is_disabled":false,"rental_uris":{"android":"levelo://app?vid=e70c17ea-cf15-4cd8-8ca9-87d54374f23f","ios":"levelo://app?vid=e70c17ea-cf15-4cd8-8ca9-87d54374f23f"},"vehicle_type_id":"4","last_reported":1749658391,"current_range_meters":16000,"station_id":"ce4bhch2rcd13ifvqeug","pricing_plan_id":"cebpf4jnsgd1na2vs0mg"},{"bike_id":"2b199de8-93ed-4092-bac0-9bf4e83bd63a","system_id":"levelo_inurba_marseille","lat":43.22931,"lon":5.35372,"is_reserved":false,"is_disabled":false,"rental_uris":{"android":"levelo://app?vid=2b199de8-93ed-4092-bac0-9bf4e83bd63a","ios":"levelo://app?vid=2b199de8-93ed-4092-bac0-9bf4e83bd63a"},"vehicle_type_id":"4","last_reported":1749658391,"current_range_meters":16000,"station_id":"cpo3532slgdg3j2ikp40","pricing_plan_id":"cebpf4jnsgd1na2vs0mg"},{"bike_id":"9b4fa85c-73c0-4f2f-b458-7dea27b40bf8","system_id":"levelo_inurba_marseille","lat":43.29043,"lon":5.35916,"is_reserved":false,"is_disabled":false,"rental_uris":{"android":"levelo://app?vid=9b4fa85c-73c0-4f2f-b458-7dea27b40bf8","ios":"levelo://app?vid=9b4fa85c-73c0-4f2f-b458-7dea27b40bf8"},"vehicle_type_id":"4","last_reported":1749658391,"current_range_meters":16000,"station_id":"ce4bha92rcd13ifvqeg0","pricing_plan_id":"cebpf4jnsgd1na2vs0mg"},{"bike_id":"6b096574-7a86-431e-adb1-6c86a9fb9dd0","system_id":"levelo_inurba_marseille","lat":43.26933,"lon":5.4026,"is_reserved":false,"is_disabled":true,"rental_uris":{"android":"levelo://app?vid=6b096574-7a86-431e-adb1-6c86a9fb9dd0","ios":"levelo://app?vid=6b096574-7a86-431e-adb1-6c86a9fb9dd0"},"vehicle_type_id":"4","last_reported":1749658391,"current_range_meters":16400,"station_id":"cjm6bp8fraef2m0cb0m0","pricing_plan_id":"cebpf4jnsgd1na2vs0mg"},{"bike_id":"b904cba4-1fed-4076-917d-ec65f4a788a2","system_id":"levelo_inurba_marseille","lat":43.27053,"lon":5.40257,"is_reserved":false,"is_disabled":false,"rental_uris":{"android":"levelo://app?vid=b904cba4-1fed-4076-917d-ec65f4a788a2","ios":"levelo://app?vid=b904cba4-1fed-4076-917d-ec65f4a788a2"},"vehicle_type_id":"4","last_reported":1749658391,"current_range_meters":16400,"station_id":"ce4bhk92rcd13ifvqgc0","pricing_plan_id":"cebpf4jnsgd1na2vs0mg"},{"bike_id":"7f6c80d6-b015-4145-8e00-338178446921","system_id":"levelo_inurba_marseille","lat":43.25108,"lon":5.39513,"is_reserved":false,"is_disabled":true,"rental_uris":{"android":"levelo://app?vid=7f6c80d6-b015-4145-8e00-338178446921","ios":"levelo://app?vid=7f6c80d6-b015-4145-8e00-338178446921"},"vehicle_type_id":"4","last_reported":1749658391,"current_range_meters":16400,"station_id":"ce4bhm12rcd13ifvqgkg","pricing_plan_id":"cebpf4jnsgd1na2vs0mg"},{"bike_id":"707fb64a-4983-4a34-ade7-ee60c8e43453","system_id":"levelo_inurba_marseille","lat":43.23157,"lon":5.43686,"is_reserved":false,"is_disabled":false,"rental_uris":{"android":"levelo://app?vid=707fb64a-4983-4a34-ade7-ee60c8e43453","ios":"levelo://app?vid=707fb64a-4983-4a34-ade7-ee60c8e43453"},"vehicle_type_id":"4","last_reported":1749658391,"current_range_meters":16400,"station_id":"ce4bhmp2rcd13ifvqgog","pricing_plan_id":"cebpf4jnsgd1na2vs0mg"},{"bike_id":"f8ef2747-cbb3-4dd6-ad71-81a61ff1d868","system_id":"levelo_inurba_marseille","lat":43.22924,"lon":5.35376,"is_reserved":false,"is_disabled":false,"rental_uris":{"android":"levelo://app?vid=f8ef2747-cbb3-4dd6-ad71-81a61ff1d868","ios":"levelo://app?vid=f8ef2747-cbb3-4dd6-ad71-81a61ff1d868"},"vehicle_type_id":"4","last_reported":1749658391,"current_range_meters":16400,"station_id":"cpo3532slgdg3j2ikp40","pricing_plan_id":"cebpf4jnsgd1na2vs0mg"},{"bike_id":"c8acc72b-5ece-4e56-907d-33af210c0702","system_id":"levelo_inurba_marseille","lat":43.26208,"lon":5.37039,"is_reserved":false,"is_disabled":false,"rental_uris":{"android":"levelo://app?vid=c8acc72b-5ece-4e56-907d-33af210c0702","ios":"levelo://app?vid=c8acc72b-5ece-4e56-907d-33af210c0702"},"vehicle_type_id":"4","last_reported":1749658391,"current_range_meters":16400,"station_id":"","pricing_plan_id":"cebpf4jnsgd1na2vs0mg"},{"bike_id":"f63d8405-c159-4f98-9e93-cd75f67bb69c","system_id":"levelo_inurba_marseille","lat":43.27374,"lon":5.36252,"is_reserved":false,"is_disabled":false,"rental_uris":{"android":"levelo://app?vid=f63d8405-c159-4f98-9e93-cd75f67bb69c","ios":"levelo://app?vid=f63d8405-c159-4f98-9e93-cd75f67bb69c"},"vehicle_type_id":"4","last_reported":1749658391,"current_range_meters":16400,"station_id":"ce4bhbh2rcd13ifvqeo0","pricing_plan_id":"cebpf4jnsgd1na2vs0mg"},{"bike_id":"048f2f2b-8e86-4fe8-80fa-0a30dafb1ed2","system_id":"levelo_inurba_marseille","lat":43.298596,"lon":5.362928,"is_reserved":false,"is_disabled":false,"rental_uris":{"android":"levelo://app?vid=048f2f2b-8e86-4fe8-80fa-0a30dafb1ed2","ios":"levelo://app?vid=048f2f2b-8e86-4fe8-80fa-0a30dafb1ed2"},"vehicle_type_id":"4","last_reported":1749658391,"current_range_meters":16800,"station_id":"","pricing_plan_id":"cebpf4jnsgd1na2vs0mg"},{"bike_id":"1ce88067-9faf-49c4-9895-f1aefaac360b","system_id":"levelo_inurba_marseille","lat":43.27494,"lon":5.42447,"is_reserved":false,"is_disabled":false,"rental_uris":{"android":"levelo://app?vid=1ce88067-9faf-49c4-9895-f1aefaac360b","ios":"levelo://app?vid=1ce88067-9faf-49c4-9895-f1aefaac360b"},"vehicle_type_id":"4","last_reported":1749658391,"current_range_meters":16800,"station_id":"ce4bhn92rcd13ifvqgrg","pricing_plan_id":"cebpf4jnsgd1na2vs0mg"},{"bike_id":"638b9117-c70b-47a3-9192-610d8a8acdda","system_id":"levelo_inurba_marseille","lat":43.29893,"lon":5.43651,"is_reserved":false,"is_disabled":false,"rental_uris":{"android":"levelo://app?vid=638b9117-c70b-47a3-9192-610d8a8acdda","ios":"levelo://app?vid=638b9117-c70b-47a3-9192-610d8a8acdda"},"vehicle_type_id":"4","last_reported":1749658391,"current_range_meters":16800,"station_id":"ce4bhpp2rcd13ifvqhfg","pricing_plan_id":"cebpf4jnsgd1na2vs0mg"},{"bike_id":"5972312e-2c4a-4713-a70a-4a2a29bea0a1","system_id":"levelo_inurba_marseille","lat":43.26214,"lon":5.37438,"is_reserved":false,"is_disabled":false,"rental_uris":{"android":"levelo://app?vid=5972312e-2c4a-4713-a70a-4a2a29bea0a1","ios":"levelo://app?vid=5972312e-2c4a-4713-a70a-4a2a29bea0a1"},"vehicle_type_id":"4","last_reported":1749658391,"current_range_meters":16800,"station_id":"ce4bhgp2rcd13ifvqfc0","pricing_plan_id":"cebpf4jnsgd1na2vs0mg"},{"bike_id":"59808e72-1866-4f4a-8f11-f6d75ee68c9b","system_id":"levelo_inurba_marseille","lat":43.28408,"lon":5.34993,"is_reserved":false,"is_disabled":false,"rental_uris":{"android":"levelo://app?vid=59808e72-1866-4f4a-8f11-f6d75ee68c9b","ios":"levelo://app?vid=59808e72-1866-4f4a-8f11-f6d75ee68c9b"},"vehicle_type_id":"4","last_reported":1749658391,"current_range_meters":16800,"station_id":"ce4bhbh2rcd13ifvqepg","pricing_plan_id":"cebpf4jnsgd1na2vs0mg"},{"bike_id":"743245d4-5457-49b9-9efc-d95c90d69b8e","system_id":"levelo_inurba_marseille","lat":43.314873,"lon":5.373081,"is_reserved":false,"is_disabled":false,"rental_uris":{"android":"levelo://app?vid=743245d4-5457-49b9-9efc-d95c90d69b8e","ios":"levelo://app?vid=743245d4-5457-49b9-9efc-d95c90d69b8e"},"vehicle_type_id":"4","last_reported":1749658391,"current_range_meters":16800,"station_id":"ce4bhip2rcd13ifvqft0","pricing_plan_id":"cebpf4jnsgd1na2vs0mg"},{"bike_id":"4634d944-f29d-4c22-9607-26d5765c28a8","system_id":"levelo_inurba_marseille","lat":43.28256,"lon":5.35095,"is_reserved":false,"is_disabled":false,"rental_uris":{"android":"levelo://app?vid=4634d944-f29d-4c22-9607-26d5765c28a8","ios":"levelo://app?vid=4634d944-f29d-4c22-9607-26d5765c28a8"},"vehicle_type_id":"4","last_reported":1749658391,"current_range_meters":16800,"station_id":"ce4bhbp2rcd13ifvqerg","pricing_plan_id":"cebpf4jnsgd1na2vs0mg"},{"bike_id":"165ecccf-321b-45ee-abfd-553d9801aac0","system_id":"levelo_inurba_marseille","lat":43.29048,"lon":5.35585,"is_reserved":false,"is_disabled":false,"rental_uris":{"android":"levelo://app?vid=165ecccf-321b-45ee-abfd-553d9801aac0","ios":"levelo://app?vid=165ecccf-321b-45ee-abfd-553d9801aac0"},"vehicle_type_id":"4","last_reported":1749658391,"current_range_meters":16800,"station_id":"ce4bhb92rcd13ifvqen0","pricing_plan_id":"cebpf4jnsgd1na2vs0mg"},{"bike_id":"90d37cd4-456e-43a2-b8f5-3a3b7fcdd7ef","system_id":"levelo_inurba_marseille","lat":43.28276,"lon":5.35066,"is_reserved":false,"is_disabled":false,"rental_uris":{"android":"levelo://app?vid=90d37cd4-456e-43a2-b8f5-3a3b7fcdd7ef","ios":"levelo://app?vid=90d37cd4-456e-43a2-b8f5-3a3b7fcdd7ef"},"vehicle_type_id":"4","last_reported":1749658391,"current_range_meters":16800,"station_id":"ce4bhbp2rcd13ifvqerg","pricing_plan_id":"cebpf4jnsgd1na2vs0mg"},{"bike_id":"478a2f94-8f69-44c5-a79c-2ad3497da700","system_id":"levelo_inurba_marseille","lat":43.28416,"lon":5.34978,"is_reserved":false,"is_disabled":false,"rental_uris":{"android":"levelo://app?vid=478a2f94-8f69-44c5-a79c-2ad3497da700","ios":"levelo://app?vid=478a2f94-8f69-44c5-a79c-2ad3497da700"},"vehicle_type_id":"4","last_reported":1749658391,"current_range_meters":16800,"station_id":"ce4bhbh2rcd13ifvqepg","pricing_plan_id":"cebpf4jnsgd1na2vs0mg"},{"bike_id":"a0ba27d9-6955-439b-b334-b6f6fa47bd8e","system_id":"levelo_inurba_marseille","lat":43.26227,"lon":5.37439,"is_reserved":false,"is_disabled":false,"rental_uris":{"android":"levelo://app?vid=a0ba27d9-6955-439b-b334-b6f6fa47bd8e","ios":"levelo://app?vid=a0ba27d9-6955-439b-b334-b6f6fa47bd8e"},"vehicle_type_id":"4","last_reported":1749658391,"current_range_meters":16800,"station_id":"","pricing_plan_id":"cebpf4jnsgd1na2vs0mg"},{"bike_id":"92d53ca1-03c3-4309-8325-40b63541cbab","system_id":"levelo_inurba_marseille","lat":43.25084,"lon":5.3951,"is_reserved":false,"is_disabled":true,"rental_uris":{"android":"levelo://app?vid=92d53ca1-03c3-4309-8325-40b63541cbab","ios":"levelo://app?vid=92d53ca1-03c3-4309-8325-40b63541cbab"},"vehicle_type_id":"4","last_reported":1749658391,"current_range_meters":16800,"station_id":"ce4bhm12rcd13ifvqgkg","pricing_plan_id":"cebpf4jnsgd1na2vs0mg"},{"bike_id":"8401f5cc-8a2b-4da6-9a6e-a8dd35a555da","system_id":"levelo_inurba_marseille","lat":43.29589,"lon":5.37566,"is_reserved":false,"is_disabled":false,"rental_uris":{"android":"levelo://app?vid=8401f5cc-8a2b-4da6-9a6e-a8dd35a555da","ios":"levelo://app?vid=8401f5cc-8a2b-4da6-9a6e-a8dd35a555da"},"vehicle_type_id":"4","last_reported":1749658391,"current_range_meters":17200,"station_id":"ce4bgh92rcd13ifvqb50","pricing_plan_id":"cebpf4jnsgd1na2vs0mg"},{"bike_id":"c887d6c2-3132-4ba9-94a5-3fd697b52b4f","system_id":"levelo_inurba_marseille","lat":43.27367,"lon":5.36262,"is_reserved":false,"is_disabled":false,"rental_uris":{"android":"levelo://app?vid=c887d6c2-3132-4ba9-94a5-3fd697b52b4f","ios":"levelo://app?vid=c887d6c2-3132-4ba9-94a5-3fd697b52b4f"},"vehicle_type_id":"4","last_reported":1749658391,"current_range_meters":17200,"station_id":"ce4bhbh2rcd13ifvqeo0","pricing_plan_id":"cebpf4jnsgd1na2vs0mg"},{"bike_id":"8123e7fd-e65e-4c52-ba1a-c7f33637f1bd","system_id":"levelo_inurba_marseille","lat":43.262078,"lon":5.374405,"is_reserved":false,"is_disabled":false,"rental_uris":{"android":"levelo://app?vid=8123e7fd-e65e-4c52-ba1a-c7f33637f1bd","ios":"levelo://app?vid=8123e7fd-e65e-4c52-ba1a-c7f33637f1bd"},"vehicle_type_id":"4","last_reported":1749658391,"current_range_meters":17200,"station_id":"ce4bhgp2rcd13ifvqfc0","pricing_plan_id":"cebpf4jnsgd1na2vs0mg"},{"bike_id":"27c3ce4c-2f83-41ff-abde-3fb4e2e068fb","system_id":"levelo_inurba_marseille","lat":43.30963,"lon":5.37449,"is_reserved":false,"is_disabled":false,"rental_uris":{"android":"levelo://app?vid=27c3ce4c-2f83-41ff-abde-3fb4e2e068fb","ios":"levelo://app?vid=27c3ce4c-2f83-41ff-abde-3fb4e2e068fb"},"vehicle_type_id":"4","last_reported":1749658391,"current_range_meters":17200,"station_id":"","pricing_plan_id":"cebpf4jnsgd1na2vs0mg"},{"bike_id":"ba5c58a5-45e4-46f1-b47d-7d585303f993","system_id":"levelo_inurba_marseille","lat":43.28618,"lon":5.35089,"is_reserved":false,"is_disabled":false,"rental_uris":{"android":"levelo://app?vid=ba5c58a5-45e4-46f1-b47d-7d585303f993","ios":"levelo://app?vid=ba5c58a5-45e4-46f1-b47d-7d585303f993"},"vehicle_type_id":"4","last_reported":1749658391,"current_range_meters":17200,"station_id":"ce4bhch2rcd13ifvqeug","pricing_plan_id":"cebpf4jnsgd1na2vs0mg"},{"bike_id":"39000b67-ab38-448e-b399-576cb3a70398","system_id":"levelo_inurba_marseille","lat":43.27372,"lon":5.36248,"is_reserved":false,"is_disabled":false,"rental_uris":{"android":"levelo://app?vid=39000b67-ab38-448e-b399-576cb3a70398","ios":"levelo://app?vid=39000b67-ab38-448e-b399-576cb3a70398"},"vehicle_type_id":"4","last_reported":1749658391,"current_range_meters":17200,"station_id":"ce4bhbh2rcd13ifvqeo0","pricing_plan_id":"cebpf4jnsgd1na2vs0mg"},{"bike_id":"c0bd4251-d527-48a7-9378-e4e80c1c274f","system_id":"levelo_inurba_marseille","lat":43.3182,"lon":5.373277,"is_reserved":false,"is_disabled":false,"rental_uris":{"android":"levelo://app?vid=c0bd4251-d527-48a7-9378-e4e80c1c274f","ios":"levelo://app?vid=c0bd4251-d527-48a7-9378-e4e80c1c274f"},"vehicle_type_id":"4","last_reported":1749658391,"current_range_meters":17600,"station_id":"","pricing_plan_id":"cebpf4jnsgd1na2vs0mg"},{"bike_id":"120a1941-b041-4d93-b799-e47fc3ef4ec9","system_id":"levelo_inurba_marseille","lat":43.29915,"lon":5.38136,"is_reserved":false,"is_disabled":false,"rental_uris":{"android":"levelo://app?vid=120a1941-b041-4d93-b799-e47fc3ef4ec9","ios":"levelo://app?vid=120a1941-b041-4d93-b799-e47fc3ef4ec9"},"vehicle_type_id":"4","last_reported":1749658391,"current_range_meters":17600,"station_id":"ce4bgj12rcd13ifvqbc0","pricing_plan_id":"cebpf4jnsgd1na2vs0mg"},{"bike_id":"a7259629-ce22-4d63-b95d-d4e4a66d635b","system_id":"levelo_inurba_marseille","lat":43.28419,"lon":5.37502,"is_reserved":false,"is_disabled":false,"rental_uris":{"android":"levelo://app?vid=a7259629-ce22-4d63-b95d-d4e4a66d635b","ios":"levelo://app?vid=a7259629-ce22-4d63-b95d-d4e4a66d635b"},"vehicle_type_id":"4","last_reported":1749658391,"current_range_meters":17600,"station_id":"ce4bh412rcd13ifvqds0","pricing_plan_id":"cebpf4jnsgd1na2vs0mg"},{"bike_id":"b21450a4-463f-4eb5-a5b1-a818c0abb90a","system_id":"levelo_inurba_marseille","lat":43.29847,"lon":5.43669,"is_reserved":false,"is_disabled":false,"rental_uris":{"android":"levelo://app?vid=b21450a4-463f-4eb5-a5b1-a818c0abb90a","ios":"levelo://app?vid=b21450a4-463f-4eb5-a5b1-a818c0abb90a"},"vehicle_type_id":"4","last_reported":1749658391,"current_range_meters":17600,"station_id":"ce4bhpp2rcd13ifvqhfg","pricing_plan_id":"cebpf4jnsgd1na2vs0mg"},{"bike_id":"b3a972ed-4139-4a38-86b1-0fec3f90f628","system_id":"levelo_inurba_marseille","lat":43.28361,"lon":5.38625,"is_reserved":false,"is_disabled":false,"rental_uris":{"android":"levelo://app?vid=b3a972ed-4139-4a38-86b1-0fec3f90f628","ios":"levelo://app?vid=b3a972ed-4139-4a38-86b1-0fec3f90f628"},"vehicle_type_id":"4","last_reported":1749658391,"current_range_meters":17600,"station_id":"ce4bh492rcd13ifvqdvg","pricing_plan_id":"cebpf4jnsgd1na2vs0mg"},{"bike_id":"fbf1bf3a-e0f7-4d83-8c34-0ee691decd72","system_id":"levelo_inurba_marseille","lat":43.29717,"lon":5.36594,"is_reserved":false,"is_disabled":false,"rental_uris":{"android":"levelo://app?vid=fbf1bf3a-e0f7-4d83-8c34-0ee691decd72","ios":"levelo://app?vid=fbf1bf3a-e0f7-4d83-8c34-0ee691decd72"},"vehicle_type_id":"4","last_reported":1749658391,"current_range_meters":17600,"station_id":"ce4bgn12rcd13ifvqbt0","pricing_plan_id":"cebpf4jnsgd1na2vs0mg"},{"bike_id":"03dc56bf-d5a8-4a1d-bae0-682c83877237","system_id":"levelo_inurba_marseille","lat":43.26786,"lon":5.39409,"is_reserved":false,"is_disabled":false,"rental_uris":{"android":"levelo://app?vid=03dc56bf-d5a8-4a1d-bae0-682c83877237","ios":"levelo://app?vid=03dc56bf-d5a8-4a1d-bae0-682c83877237"},"vehicle_type_id":"4","last_reported":1749658391,"current_range_meters":17600,"station_id":"ce4bhh12rcd13ifvqfg0","pricing_plan_id":"cebpf4jnsgd1na2vs0mg"},{"bike_id":"62f94ad5-d2dd-4e4f-a4ca-9a67ca93270e","system_id":"levelo_inurba_marseille","lat":43.27617,"lon":5.361,"is_reserved":false,"is_disabled":false,"rental_uris":{"android":"levelo://app?vid=62f94ad5-d2dd-4e4f-a4ca-9a67ca93270e","ios":"levelo://app?vid=62f94ad5-d2dd-4e4f-a4ca-9a67ca93270e"},"vehicle_type_id":"4","last_reported":1749658391,"current_range_meters":17600,"station_id":"ce4bgj92rcd13ifvqbe0","pricing_plan_id":"cebpf4jnsgd1na2vs0mg"},{"bike_id":"87d5e396-bee9-4c9c-893c-d12f234e2cb8","system_id":"levelo_inurba_marseille","lat":43.28097,"lon":5.37839,"is_reserved":false,"is_disabled":false,"rental_uris":{"android":"levelo://app?vid=87d5e396-bee9-4c9c-893c-d12f234e2cb8","ios":"levelo://app?vid=87d5e396-bee9-4c9c-893c-d12f234e2cb8"},"vehicle_type_id":"4","last_reported":1749658391,"current_range_meters":17600,"station_id":"ce4bha12rcd13ifvqee0","pricing_plan_id":"cebpf4jnsgd1na2vs0mg"},{"bike_id":"77015528-214e-41cf-96ed-c6c79ce74de3","system_id":"levelo_inurba_marseille","lat":43.30436,"lon":5.38883,"is_reserved":false,"is_disabled":false,"rental_uris":{"android":"levelo://app?vid=77015528-214e-41cf-96ed-c6c79ce74de3","ios":"levelo://app?vid=77015528-214e-41cf-96ed-c6c79ce74de3"},"vehicle_type_id":"4","last_reported":1749658391,"current_range_meters":18000,"station_id":"ce4bgk12rcd13ifvqbi0","pricing_plan_id":"cebpf4jnsgd1na2vs0mg"},{"bike_id":"9946dc27-0dd5-4a7b-b3e6-3fa45c5b292c","system_id":"levelo_inurba_marseille","lat":43.32363,"lon":5.38882,"is_reserved":false,"is_disabled":false,"rental_uris":{"android":"levelo://app?vid=9946dc27-0dd5-4a7b-b3e6-3fa45c5b292c","ios":"levelo://app?vid=9946dc27-0dd5-4a7b-b3e6-3fa45c5b292c"},"vehicle_type_id":"4","last_reported":1749658391,"current_range_meters":18000,"station_id":"ce4bhqp2rcd13ifvqhog","pricing_plan_id":"cebpf4jnsgd1na2vs0mg"},{"bike_id":"89952bdf-8423-4dee-a648-f625ccf1e098","system_id":"levelo_inurba_marseille","lat":43.2826,"lon":5.35077,"is_reserved":false,"is_disabled":false,"rental_uris":{"android":"levelo://app?vid=89952bdf-8423-4dee-a648-f625ccf1e098","ios":"levelo://app?vid=89952bdf-8423-4dee-a648-f625ccf1e098"},"vehicle_type_id":"4","last_reported":1749658391,"current_range_meters":18000,"station_id":"ce4bhbp2rcd13ifvqerg","pricing_plan_id":"cebpf4jnsgd1na2vs0mg"},{"bike_id":"4233a165-29d2-405a-ab27-afef550244c5","system_id":"levelo_inurba_marseille","lat":43.24668,"lon":5.38165,"is_reserved":false,"is_disabled":true,"rental_uris":{"android":"levelo://app?vid=4233a165-29d2-405a-ab27-afef550244c5","ios":"levelo://app?vid=4233a165-29d2-405a-ab27-afef550244c5"},"vehicle_type_id":"4","last_reported":1749658391,"current_range_meters":18000,"station_id":"ce4bhih2rcd13ifvqfr0","pricing_plan_id":"cebpf4jnsgd1na2vs0mg"},{"bike_id":"e0249f4b-8d8b-4dc7-a224-9ea697947c37","system_id":"levelo_inurba_marseille","lat":43.31711,"lon":5.42408,"is_reserved":false,"is_disabled":false,"rental_uris":{"android":"levelo://app?vid=e0249f4b-8d8b-4dc7-a224-9ea697947c37","ios":"levelo://app?vid=e0249f4b-8d8b-4dc7-a224-9ea697947c37"},"vehicle_type_id":"4","last_reported":1749658391,"current_range_meters":18000,"station_id":"ce4bhp92rcd13ifvqhbg","pricing_plan_id":"cebpf4jnsgd1na2vs0mg"},{"bike_id":"61c65c12-2f66-41c4-bb38-dbd56f58e8e9","system_id":"levelo_inurba_marseille","lat":43.28635,"lon":5.35084,"is_reserved":false,"is_disabled":false,"rental_uris":{"android":"levelo://app?vid=61c65c12-2f66-41c4-bb38-dbd56f58e8e9","ios":"levelo://app?vid=61c65c12-2f66-41c4-bb38-dbd56f58e8e9"},"vehicle_type_id":"4","last_reported":1749658391,"current_range_meters":18800,"station_id":"ce4bhch2rcd13ifvqeug","pricing_plan_id":"cebpf4jnsgd1na2vs0mg"},{"bike_id":"d0f5fd5e-82d0-4068-b904-613e884eaef5","system_id":"levelo_inurba_marseille","lat":43.28242,"lon":5.35074,"is_reserved":false,"is_disabled":false,"rental_uris":{"android":"levelo://app?vid=d0f5fd5e-82d0-4068-b904-613e884eaef5","ios":"levelo://app?vid=d0f5fd5e-82d0-4068-b904-613e884eaef5"},"vehicle_type_id":"4","last_reported":1749658391,"current_range_meters":18800,"station_id":"ce4bhbp2rcd13ifvqerg","pricing_plan_id":"cebpf4jnsgd1na2vs0mg"},{"bike_id":"d09dc515-277a-4646-8816-f10cec5d4457","system_id":"levelo_inurba_marseille","lat":43.30905,"lon":5.40159,"is_reserved":false,"is_disabled":true,"rental_uris":{"android":"levelo://app?vid=d09dc515-277a-4646-8816-f10cec5d4457","ios":"levelo://app?vid=d09dc515-277a-4646-8816-f10cec5d4457"},"vehicle_type_id":"4","last_reported":1749658391,"current_range_meters":18800,"station_id":"ce4bgvp2rcd13ifvqct0","pricing_plan_id":"cebpf4jnsgd1na2vs0mg"},{"bike_id":"0db40102-158a-42a7-9960-74ab1bdde2a2","system_id":"levelo_inurba_marseille","lat":43.30759,"lon":5.37283,"is_reserved":false,"is_disabled":false,"rental_uris":{"android":"levelo://app?vid=0db40102-158a-42a7-9960-74ab1bdde2a2","ios":"levelo://app?vid=0db40102-158a-42a7-9960-74ab1bdde2a2"},"vehicle_type_id":"4","last_reported":1749658391,"current_range_meters":18800,"station_id":"","pricing_plan_id":"cebpf4jnsgd1na2vs0mg"},{"bike_id":"b7d0ca17-83d7-4829-8edb-f512e6702f41","system_id":"levelo_inurba_marseille","lat":43.29516,"lon":5.39405,"is_reserved":false,"is_disabled":false,"rental_uris":{"android":"levelo://app?vid=b7d0ca17-83d7-4829-8edb-f512e6702f41","ios":"levelo://app?vid=b7d0ca17-83d7-4829-8edb-f512e6702f41"},"vehicle_type_id":"4","last_reported":1749658391,"current_range_meters":18800,"station_id":"ce4bh292rcd13ifvqdf0","pricing_plan_id":"cebpf4jnsgd1na2vs0mg"},{"bike_id":"62170228-b8e9-4ee9-bd16-a1056f2cb151","system_id":"levelo_inurba_marseille","lat":43.2827,"lon":5.35054,"is_reserved":false,"is_disabled":false,"rental_uris":{"android":"levelo://app?vid=62170228-b8e9-4ee9-bd16-a1056f2cb151","ios":"levelo://app?vid=62170228-b8e9-4ee9-bd16-a1056f2cb151"},"vehicle_type_id":"4","last_reported":1749658391,"current_range_meters":18800,"station_id":"ce4bhbp2rcd13ifvqerg","pricing_plan_id":"cebpf4jnsgd1na2vs0mg"},{"bike_id":"1480187b-7ee5-40ba-8ff3-33fe292d0625","system_id":"levelo_inurba_marseille","lat":43.26226,"lon":5.4045,"is_reserved":false,"is_disabled":false,"rental_uris":{"android":"levelo://app?vid=1480187b-7ee5-40ba-8ff3-33fe292d0625","ios":"levelo://app?vid=1480187b-7ee5-40ba-8ff3-33fe292d0625"},"vehicle_type_id":"4","last_reported":1749658391,"current_range_meters":18800,"station_id":"ce4bhmh2rcd13ifvqgmg","pricing_plan_id":"cebpf4jnsgd1na2vs0mg"},{"bike_id":"62f50205-6add-4303-8452-754aae819e4b","system_id":"levelo_inurba_marseille","lat":43.2409,"lon":5.3774,"is_reserved":false,"is_disabled":false,"rental_uris":{"android":"levelo://app?vid=62f50205-6add-4303-8452-754aae819e4b","ios":"levelo://app?vid=62f50205-6add-4303-8452-754aae819e4b"},"vehicle_type_id":"4","last_reported":1749658391,"current_range_meters":18800,"station_id":"ce4bhnp2rcd13ifvqgvg","pricing_plan_id":"cebpf4jnsgd1na2vs0mg"},{"bike_id":"0b33822a-9a7c-43fc-b0a6-08c1c01b6e6b","system_id":"levelo_inurba_marseille","lat":43.22927,"lon":5.35369,"is_reserved":false,"is_disabled":false,"rental_uris":{"android":"levelo://app?vid=0b33822a-9a7c-43fc-b0a6-08c1c01b6e6b","ios":"levelo://app?vid=0b33822a-9a7c-43fc-b0a6-08c1c01b6e6b"},"vehicle_type_id":"4","last_reported":1749658391,"current_range_meters":18800,"station_id":"cpo3532slgdg3j2ikp40","pricing_plan_id":"cebpf4jnsgd1na2vs0mg"},{"bike_id":"7003b93c-725d-412e-9127-fbade718cbc3","system_id":"levelo_inurba_marseille","lat":43.212044,"lon":5.350554,"is_reserved":false,"is_disabled":false,"rental_uris":{"android":"levelo://app?vid=7003b93c-725d-412e-9127-fbade718cbc3","ios":"levelo://app?vid=7003b93c-725d-412e-9127-fbade718cbc3"},"vehicle_type_id":"4","last_reported":1749658391,"current_range_meters":18800,"station_id":"st_cvj6sg6p6f1abm77japg","pricing_plan_id":"cebpf4jnsgd1na2vs0mg"},{"bike_id":"9f73d962-7b80-4de1-95c3-d4f163579da2","system_id":"levelo_inurba_marseille","lat":43.26192,"lon":5.37931,"is_reserved":false,"is_disabled":false,"rental_uris":{"android":"levelo://app?vid=9f73d962-7b80-4de1-95c3-d4f163579da2","ios":"levelo://app?vid=9f73d962-7b80-4de1-95c3-d4f163579da2"},"vehicle_type_id":"4","last_reported":1749658391,"current_range_meters":18800,"station_id":"ce4bhjp2rcd13ifvqg90","pricing_plan_id":"cebpf4jnsgd1na2vs0mg"},{"bike_id":"4a773fc5-6c80-49bb-800c-6ab49da841d2","system_id":"levelo_inurba_marseille","lat":43.28621,"lon":5.35102,"is_reserved":false,"is_disabled":false,"rental_uris":{"android":"levelo://app?vid=4a773fc5-6c80-49bb-800c-6ab49da841d2","ios":"levelo://app?vid=4a773fc5-6c80-49bb-800c-6ab49da841d2"},"vehicle_type_id":"4","last_reported":1749658391,"current_range_meters":18800,"station_id":"ce4bhch2rcd13ifvqeug","pricing_plan_id":"cebpf4jnsgd1na2vs0mg"},{"bike_id":"2a7344b5-7126-4cc1-bbd1-a9bb0e44b7bd","system_id":"levelo_inurba_marseille","lat":43.23056,"lon":5.355,"is_reserved":false,"is_disabled":false,"rental_uris":{"android":"levelo://app?vid=2a7344b5-7126-4cc1-bbd1-a9bb0e44b7bd","ios":"levelo://app?vid=2a7344b5-7126-4cc1-bbd1-a9bb0e44b7bd"},"vehicle_type_id":"4","last_reported":1749658391,"current_range_meters":18800,"station_id":"cpo3342slgdg3j2ifvpg","pricing_plan_id":"cebpf4jnsgd1na2vs0mg"},{"bike_id":"1aa334d5-afac-4a12-9507-575bce360cf8","system_id":"levelo_inurba_marseille","lat":43.28615,"lon":5.35104,"is_reserved":false,"is_disabled":false,"rental_uris":{"android":"levelo://app?vid=1aa334d5-afac-4a12-9507-575bce360cf8","ios":"levelo://app?vid=1aa334d5-afac-4a12-9507-575bce360cf8"},"vehicle_type_id":"4","last_reported":1749658391,"current_range_meters":18800,"station_id":"ce4bhch2rcd13ifvqeug","pricing_plan_id":"cebpf4jnsgd1na2vs0mg"},{"bike_id":"b6792749-a96e-4ef5-9838-e3cd4df5e40f","system_id":"levelo_inurba_marseille","lat":43.28467,"lon":5.35882,"is_reserved":false,"is_disabled":false,"rental_uris":{"android":"levelo://app?vid=b6792749-a96e-4ef5-9838-e3cd4df5e40f","ios":"levelo://app?vid=b6792749-a96e-4ef5-9838-e3cd4df5e40f"},"vehicle_type_id":"4","last_reported":1749658391,"current_range_meters":18800,"station_id":"ce4bhah2rcd13ifvqei0","pricing_plan_id":"cebpf4jnsgd1na2vs0mg"},{"bike_id":"11926c67-c581-4a5d-8203-15313e951bcf","system_id":"levelo_inurba_marseille","lat":43.21751,"lon":5.34602,"is_reserved":false,"is_disabled":false,"rental_uris":{"android":"levelo://app?vid=11926c67-c581-4a5d-8203-15313e951bcf","ios":"levelo://app?vid=11926c67-c581-4a5d-8203-15313e951bcf"},"vehicle_type_id":"4","last_reported":1749658391,"current_range_meters":18800,"station_id":"st_cvj6r9ubvosntc0bgbag","pricing_plan_id":"cebpf4jnsgd1na2vs0mg"},{"bike_id":"0413a497-5557-4f0f-aff2-3087a7c4554a","system_id":"levelo_inurba_marseille","lat":43.29964,"lon":5.38495,"is_reserved":false,"is_disabled":false,"rental_uris":{"android":"levelo://app?vid=0413a497-5557-4f0f-aff2-3087a7c4554a","ios":"levelo://app?vid=0413a497-5557-4f0f-aff2-3087a7c4554a"},"vehicle_type_id":"4","last_reported":1749658391,"current_range_meters":18800,"station_id":"ce4bgj92rcd13ifvqbd0","pricing_plan_id":"cebpf4jnsgd1na2vs0mg"},{"bike_id":"a46ba565-af01-4e09-a358-462d90258fd4","system_id":"levelo_inurba_marseille","lat":43.25088,"lon":5.39517,"is_reserved":false,"is_disabled":false,"rental_uris":{"android":"levelo://app?vid=a46ba565-af01-4e09-a358-462d90258fd4","ios":"levelo://app?vid=a46ba565-af01-4e09-a358-462d90258fd4"},"vehicle_type_id":"4","last_reported":1749658391,"current_range_meters":18800,"station_id":"ce4bhm12rcd13ifvqgkg","pricing_plan_id":"cebpf4jnsgd1na2vs0mg"},{"bike_id":"b835815e-fe79-4f32-901c-38b907a53c78","system_id":"levelo_inurba_marseille","lat":43.2919,"lon":5.39319,"is_reserved":false,"is_disabled":false,"rental_uris":{"android":"levelo://app?vid=b835815e-fe79-4f32-901c-38b907a53c78","ios":"levelo://app?vid=b835815e-fe79-4f32-901c-38b907a53c78"},"vehicle_type_id":"4","last_reported":1749658391,"current_range_meters":19200,"station_id":"ce4bh192rcd13ifvqdd0","pricing_plan_id":"cebpf4jnsgd1na2vs0mg"},{"bike_id":"1bfbd770-ad9f-4da2-965a-d88db4d3366d","system_id":"levelo_inurba_marseille","lat":43.32354,"lon":5.36736,"is_reserved":false,"is_disabled":false,"rental_uris":{"android":"levelo://app?vid=1bfbd770-ad9f-4da2-965a-d88db4d3366d","ios":"levelo://app?vid=1bfbd770-ad9f-4da2-965a-d88db4d3366d"},"vehicle_type_id":"4","last_reported":1749658391,"current_range_meters":19200,"station_id":"ce4bhsh2rcd13ifvqi2g","pricing_plan_id":"cebpf4jnsgd1na2vs0mg"},{"bike_id":"f83ccdad-bb90-4b62-a243-ab75267b4d79","system_id":"levelo_inurba_marseille","lat":43.26224,"lon":5.40445,"is_reserved":false,"is_disabled":false,"rental_uris":{"android":"levelo://app?vid=f83ccdad-bb90-4b62-a243-ab75267b4d79","ios":"levelo://app?vid=f83ccdad-bb90-4b62-a243-ab75267b4d79"},"vehicle_type_id":"4","last_reported":1749658391,"current_range_meters":19200,"station_id":"ce4bhmh2rcd13ifvqgmg","pricing_plan_id":"cebpf4jnsgd1na2vs0mg"},{"bike_id":"3b04e13e-163d-4f1e-adc2-9da82ec977d2","system_id":"levelo_inurba_marseille","lat":43.28422,"lon":5.34966,"is_reserved":false,"is_disabled":false,"rental_uris":{"android":"levelo://app?vid=3b04e13e-163d-4f1e-adc2-9da82ec977d2","ios":"levelo://app?vid=3b04e13e-163d-4f1e-adc2-9da82ec977d2"},"vehicle_type_id":"4","last_reported":1749658391,"current_range_meters":19200,"station_id":"ce4bhbh2rcd13ifvqepg","pricing_plan_id":"cebpf4jnsgd1na2vs0mg"},{"bike_id":"5240f6fd-7c4d-480e-89e7-ad5430e3da82","system_id":"levelo_inurba_marseille","lat":43.28411,"lon":5.34995,"is_reserved":false,"is_disabled":false,"rental_uris":{"android":"levelo://app?vid=5240f6fd-7c4d-480e-89e7-ad5430e3da82","ios":"levelo://app?vid=5240f6fd-7c4d-480e-89e7-ad5430e3da82"},"vehicle_type_id":"4","last_reported":1749658391,"current_range_meters":19600,"station_id":"ce4bhbh2rcd13ifvqepg","pricing_plan_id":"cebpf4jnsgd1na2vs0mg"},{"bike_id":"184f9a33-fa9c-4236-9ce3-1ff5c1faa753","system_id":"levelo_inurba_marseille","lat":43.28279,"lon":5.35078,"is_reserved":false,"is_disabled":false,"rental_uris":{"android":"levelo://app?vid=184f9a33-fa9c-4236-9ce3-1ff5c1faa753","ios":"levelo://app?vid=184f9a33-fa9c-4236-9ce3-1ff5c1faa753"},"vehicle_type_id":"4","last_reported":1749658391,"current_range_meters":19600,"station_id":"ce4bhbp2rcd13ifvqerg","pricing_plan_id":"cebpf4jnsgd1na2vs0mg"},{"bike_id":"7ecde9b2-0848-4631-b23e-d505a87ecd32","system_id":"levelo_inurba_marseille","lat":43.28416,"lon":5.3499,"is_reserved":false,"is_disabled":false,"rental_uris":{"android":"levelo://app?vid=7ecde9b2-0848-4631-b23e-d505a87ecd32","ios":"levelo://app?vid=7ecde9b2-0848-4631-b23e-d505a87ecd32"},"vehicle_type_id":"4","last_reported":1749658391,"current_range_meters":19600,"station_id":"ce4bhbh2rcd13ifvqepg","pricing_plan_id":"cebpf4jnsgd1na2vs0mg"},{"bike_id":"bcb0f840-58a7-453e-9118-c21be5fd7b84","system_id":"levelo_inurba_marseille","lat":43.29993,"lon":5.40036,"is_reserved":false,"is_disabled":false,"rental_uris":{"android":"levelo://app?vid=bcb0f840-58a7-453e-9118-c21be5fd7b84","ios":"levelo://app?vid=bcb0f840-58a7-453e-9118-c21be5fd7b84"},"vehicle_type_id":"4","last_reported":1749658391,"current_range_meters":19600,"station_id":"","pricing_plan_id":"cebpf4jnsgd1na2vs0mg"},{"bike_id":"0ad40ae1-c24a-42a9-9239-4b3edad3f1c1","system_id":"levelo_inurba_marseille","lat":43.28415,"lon":5.34975,"is_reserved":false,"is_disabled":false,"rental_uris":{"android":"levelo://app?vid=0ad40ae1-c24a-42a9-9239-4b3edad3f1c1","ios":"levelo://app?vid=0ad40ae1-c24a-42a9-9239-4b3edad3f1c1"},"vehicle_type_id":"4","last_reported":1749658391,"current_range_meters":19600,"station_id":"ce4bhbh2rcd13ifvqepg","pricing_plan_id":"cebpf4jnsgd1na2vs0mg"},{"bike_id":"87aaa35d-c872-4bda-babf-a92e13037b18","system_id":"levelo_inurba_marseille","lat":43.29527,"lon":5.39042,"is_reserved":false,"is_disabled":false,"rental_uris":{"android":"levelo://app?vid=87aaa35d-c872-4bda-babf-a92e13037b18","ios":"levelo://app?vid=87aaa35d-c872-4bda-babf-a92e13037b18"},"vehicle_type_id":"4","last_reported":1749658391,"current_range_meters":19200,"station_id":"ce4bh3p2rcd13ifvqdp0","pricing_plan_id":"cebpf4jnsgd1na2vs0mg"},{"bike_id":"6e464720-93b0-4699-80fe-881649eb71cd","system_id":"levelo_inurba_marseille","lat":43.232475,"lon":5.355822,"is_reserved":false,"is_disabled":false,"rental_uris":{"android":"levelo://app?vid=6e464720-93b0-4699-80fe-881649eb71cd","ios":"levelo://app?vid=6e464720-93b0-4699-80fe-881649eb71cd"},"vehicle_type_id":"4","last_reported":1749658391,"current_range_meters":19600,"station_id":"","pricing_plan_id":"cebpf4jnsgd1na2vs0mg"},{"bike_id":"1268e070-f02d-4537-93df-0bfd5c4daa05","system_id":"levelo_inurba_marseille","lat":43.32702,"lon":5.37676,"is_reserved":false,"is_disabled":false,"rental_uris":{"android":"levelo://app?vid=1268e070-f02d-4537-93df-0bfd5c4daa05","ios":"levelo://app?vid=1268e070-f02d-4537-93df-0bfd5c4daa05"},"vehicle_type_id":"4","last_reported":1749658391,"current_range_meters":20000,"station_id":"","pricing_plan_id":"cebpf4jnsgd1na2vs0mg"},{"bike_id":"db621cda-1359-48db-9d00-ad7861615a29","system_id":"levelo_inurba_marseille","lat":43.32054,"lon":5.41517,"is_reserved":false,"is_disabled":false,"rental_uris":{"android":"levelo://app?vid=db621cda-1359-48db-9d00-ad7861615a29","ios":"levelo://app?vid=db621cda-1359-48db-9d00-ad7861615a29"},"vehicle_type_id":"4","last_reported":1749658391,"current_range_meters":20000,"station_id":"ce4bhq92rcd13ifvqhkg","pricing_plan_id":"cebpf4jnsgd1na2vs0mg"},{"bike_id":"c96a7954-df15-4c22-a118-9fb65f20cc61","system_id":"levelo_inurba_marseille","lat":43.28416,"lon":5.34984,"is_reserved":false,"is_disabled":false,"rental_uris":{"android":"levelo://app?vid=c96a7954-df15-4c22-a118-9fb65f20cc61","ios":"levelo://app?vid=c96a7954-df15-4c22-a118-9fb65f20cc61"},"vehicle_type_id":"4","last_reported":1749658391,"current_range_meters":20000,"station_id":"ce4bhbh2rcd13ifvqepg","pricing_plan_id":"cebpf4jnsgd1na2vs0mg"},{"bike_id":"c34cfc4f-561f-4039-9116-0bd76047c583","system_id":"levelo_inurba_marseille","lat":43.27321,"lon":5.39069,"is_reserved":false,"is_disabled":false,"rental_uris":{"android":"levelo://app?vid=c34cfc4f-561f-4039-9116-0bd76047c583","ios":"levelo://app?vid=c34cfc4f-561f-4039-9116-0bd76047c583"},"vehicle_type_id":"4","last_reported":1749658391,"current_range_meters":20000,"station_id":"ce4bhgp2rcd13ifvqfe0","pricing_plan_id":"cebpf4jnsgd1na2vs0mg"},{"bike_id":"4b5f01e3-d522-4cbf-baea-3394ed8b521a","system_id":"levelo_inurba_marseille","lat":43.28856,"lon":5.35856,"is_reserved":false,"is_disabled":false,"rental_uris":{"android":"levelo://app?vid=4b5f01e3-d522-4cbf-baea-3394ed8b521a","ios":"levelo://app?vid=4b5f01e3-d522-4cbf-baea-3394ed8b521a"},"vehicle_type_id":"4","last_reported":1749658391,"current_range_meters":20000,"station_id":"ce4bhb12rcd13ifvqem0","pricing_plan_id":"cebpf4jnsgd1na2vs0mg"},{"bike_id":"c9d8aa8a-7ab2-4ed7-98a3-e8e770938b24","system_id":"levelo_inurba_marseille","lat":43.27371,"lon":5.36258,"is_reserved":false,"is_disabled":false,"rental_uris":{"android":"levelo://app?vid=c9d8aa8a-7ab2-4ed7-98a3-e8e770938b24","ios":"levelo://app?vid=c9d8aa8a-7ab2-4ed7-98a3-e8e770938b24"},"vehicle_type_id":"4","last_reported":1749658391,"current_range_meters":20000,"station_id":"ce4bhbh2rcd13ifvqeo0","pricing_plan_id":"cebpf4jnsgd1na2vs0mg"},{"bike_id":"346f3f80-6b15-4406-b905-bb78596f5bac","system_id":"levelo_inurba_marseille","lat":43.32291,"lon":5.36724,"is_reserved":false,"is_disabled":false,"rental_uris":{"android":"levelo://app?vid=346f3f80-6b15-4406-b905-bb78596f5bac","ios":"levelo://app?vid=346f3f80-6b15-4406-b905-bb78596f5bac"},"vehicle_type_id":"4","last_reported":1749658391,"current_range_meters":20000,"station_id":"","pricing_plan_id":"cebpf4jnsgd1na2vs0mg"},{"bike_id":"fda8c9a5-12ba-444a-b338-669d2a7622ec","system_id":"levelo_inurba_marseille","lat":43.24084,"lon":5.37743,"is_reserved":false,"is_disabled":false,"rental_uris":{"android":"levelo://app?vid=fda8c9a5-12ba-444a-b338-669d2a7622ec","ios":"levelo://app?vid=fda8c9a5-12ba-444a-b338-669d2a7622ec"},"vehicle_type_id":"4","last_reported":1749658391,"current_range_meters":20000,"station_id":"ce4bhnp2rcd13ifvqgvg","pricing_plan_id":"cebpf4jnsgd1na2vs0mg"},{"bike_id":"b6cdc300-c9ca-4201-80f1-dd3b2a06ad72","system_id":"levelo_inurba_marseille","lat":43.25495,"lon":5.37649,"is_reserved":false,"is_disabled":false,"rental_uris":{"android":"levelo://app?vid=b6cdc300-c9ca-4201-80f1-dd3b2a06ad72","ios":"levelo://app?vid=b6cdc300-c9ca-4201-80f1-dd3b2a06ad72"},"vehicle_type_id":"4","last_reported":1749658391,"current_range_meters":20000,"station_id":"ce4bhh12rcd13ifvqff0","pricing_plan_id":"cebpf4jnsgd1na2vs0mg"},{"bike_id":"307b663a-8df7-4862-b69f-dd24df57d8a4","system_id":"levelo_inurba_marseille","lat":43.28612,"lon":5.35105,"is_reserved":false,"is_disabled":false,"rental_uris":{"android":"levelo://app?vid=307b663a-8df7-4862-b69f-dd24df57d8a4","ios":"levelo://app?vid=307b663a-8df7-4862-b69f-dd24df57d8a4"},"vehicle_type_id":"4","last_reported":1749658391,"current_range_meters":20000,"station_id":"ce4bhch2rcd13ifvqeug","pricing_plan_id":"cebpf4jnsgd1na2vs0mg"},{"bike_id":"8edf3274-7e17-4f5a-aa94-fae91826b383","system_id":"levelo_inurba_marseille","lat":43.29304,"lon":5.37174,"is_reserved":false,"is_disabled":false,"rental_uris":{"android":"levelo://app?vid=8edf3274-7e17-4f5a-aa94-fae91826b383","ios":"levelo://app?vid=8edf3274-7e17-4f5a-aa94-fae91826b383"},"vehicle_type_id":"4","last_reported":1749658391,"current_range_meters":20000,"station_id":"ce4bgh92rcd13ifvqb40","pricing_plan_id":"cebpf4jnsgd1na2vs0mg"},{"bike_id":"30fdb7ec-df28-4315-91d1-0dbb6e9aceaa","system_id":"levelo_inurba_marseille","lat":43.29003,"lon":5.35613,"is_reserved":false,"is_disabled":false,"rental_uris":{"android":"levelo://app?vid=30fdb7ec-df28-4315-91d1-0dbb6e9aceaa","ios":"levelo://app?vid=30fdb7ec-df28-4315-91d1-0dbb6e9aceaa"},"vehicle_type_id":"4","last_reported":1749658391,"current_range_meters":20400,"station_id":"ce4bhb92rcd13ifvqen0","pricing_plan_id":"cebpf4jnsgd1na2vs0mg"},{"bike_id":"0efa200b-64e1-4d02-80d4-4c6a90dee905","system_id":"levelo_inurba_marseille","lat":43.27372,"lon":5.36259,"is_reserved":false,"is_disabled":false,"rental_uris":{"android":"levelo://app?vid=0efa200b-64e1-4d02-80d4-4c6a90dee905","ios":"levelo://app?vid=0efa200b-64e1-4d02-80d4-4c6a90dee905"},"vehicle_type_id":"4","last_reported":1749658391,"current_range_meters":20400,"station_id":"ce4bhbh2rcd13ifvqeo0","pricing_plan_id":"cebpf4jnsgd1na2vs0mg"},{"bike_id":"c63c3f9d-4efd-442c-8e4c-ada1b6bc706f","system_id":"levelo_inurba_marseille","lat":43.26943,"lon":5.40247,"is_reserved":false,"is_disabled":false,"rental_uris":{"android":"levelo://app?vid=c63c3f9d-4efd-442c-8e4c-ada1b6bc706f","ios":"levelo://app?vid=c63c3f9d-4efd-442c-8e4c-ada1b6bc706f"},