{"last_updated":1747595270,"ttl":60,"version":"2.2","data":{"bikes":[{"bike_id":"3b4f2720-7063-497a-8903-f971a8c7cfb3","system_id":"levelo_inurba_marseille","lat":43.28849,"lon":5.35836,"is_reserved":false,"is_disabled":true,"rental_uris":{"android":"levelo://app?vid=3b4f2720-7063-497a-8903-f971a8c7cfb3","ios":"levelo://app?vid=3b4f2720-7063-497a-8903-f971a8c7cfb3"},"vehicle_type_id":"4","last_reported":1747595270,"current_range_meters":2800,"station_id":"ce4bhb12rcd13ifvqem0","pricing_plan_id":"cebpf4jnsgd1na2vs0mg"},{"bike_id":"be98142e-ab99-4f68-b04a-ff2165061bb2","system_id":"levelo_inurba_marseille","lat":43.26951,"lon":5.38629,"is_reserved":false,"is_disabled":true,"rental_uris":{"android":"levelo://app?vid=be98142e-ab99-4f68-b04a-ff2165061bb2","ios":"levelo://app?vid=be98142e-ab99-4f68-b04a-ff2165061bb2"},"vehicle_type_id":"4","last_reported":1747595270,"current_range_meters":2800,"station_id":"ce4bhh92rcd13ifvqfh0","pricing_plan_id":"cebpf4jnsgd1na2vs0mg"},{"bike_id":"973446a8-81c4-452c-ac43-4509670d7a4d","system_id":"levelo_inurba_marseille","lat":43.27072,"lon":5.42278,"is_reserved":false,"is_disabled":false,"rental_uris":{"android":"levelo://app?vid=973446a8-81c4-452c-ac43-4509670d7a4d","ios":"levelo://app?vid=973446a8-81c4-452c-ac43-4509670d7a4d"},"vehicle_type_id":"4","last_reported":1747595270,"current_range_meters":2800,"station_id":"ce4bhk92rcd13ifvqgb0","pricing_plan_id":"cebpf4jnsgd1na2vs0mg"},{"bike_id":"b5fe1f49-bcbe-4d7b-bcab-e62507fbe127","system_id":"levelo_inurba_marseille","lat":43.30887,"lon":5.39655,"is_reserved":false,"is_disabled":false,"rental_uris":{"android":"levelo://app?vid=b5fe1f49-bcbe-4d7b-bcab-e62507fbe127","ios":"levelo://app?vid=b5fe1f49-bcbe-4d7b-bcab-e62507fbe127"},"vehicle_type_id":"4","last_reported":1747595270,"current_range_meters":3200,"station_id":"ce4bh012rcd13ifvqcv0","pricing_plan_id":"cebpf4jnsgd1na2vs0mg"},{"bike_id":"3b843dca-d67a-4b0e-916b-710ebb36ec6d","system_id":"levelo_inurba_marseille","lat":43.32523,"lon":5.40126,"is_reserved":false,"is_disabled":false,"rental_uris":{"android":"levelo://app?vid=3b843dca-d67a-4b0e-916b-710ebb36ec6d","ios":"levelo://app?vid=3b843dca-d67a-4b0e-916b-710ebb36ec6d"},"vehicle_type_id":"4","last_reported":1747595270,"current_range_meters":3200,"station_id":"","pricing_plan_id":"cebpf4jnsgd1na2vs0mg"},{"bike_id":"b08304d7-9d99-4eae-bb70-270386da7a10","system_id":"levelo_inurba_marseille","lat":43.25004,"lon":5.38937,"is_reserved":false,"is_disabled":false,"rental_uris":{"android":"levelo://app?vid=b08304d7-9d99-4eae-bb70-270386da7a10","ios":"levelo://app?vid=b08304d7-9d99-4eae-bb70-270386da7a10"},"vehicle_type_id":"4","last_reported":1747595270,"current_range_meters":3200,"station_id":"ce4bhgp2rcd13ifvqfd0","pricing_plan_id":"cebpf4jnsgd1na2vs0mg"},{"bike_id":"dee67630-28ac-4b7a-bb7f-c8567a264212","system_id":"levelo_inurba_marseille","lat":43.27831,"lon":5.40702,"is_reserved":false,"is_disabled":false,"rental_uris":{"android":"levelo://app?vid=dee67630-28ac-4b7a-bb7f-c8567a264212","ios":"levelo://app?vid=dee67630-28ac-4b7a-bb7f-c8567a264212"},"vehicle_type_id":"4","last_reported":1747595270,"current_range_meters":3200,"station_id":"ce4bhnh2rcd13ifvqgtg","pricing_plan_id":"cebpf4jnsgd1na2vs0mg"},{"bike_id":"e6d0e932-a379-4387-9cb1-584949ab29da","system_id":"levelo_inurba_marseille","lat":43.28133,"lon":5.42638,"is_reserved":false,"is_disabled":false,"rental_uris":{"android":"levelo://app?vid=e6d0e932-a379-4387-9cb1-584949ab29da","ios":"levelo://app?vid=e6d0e932-a379-4387-9cb1-584949ab29da"},"vehicle_type_id":"4","last_reported":1747595270,"current_range_meters":3600,"station_id":"ce4bhnh2rcd13ifvqgug","pricing_plan_id":"cebpf4jnsgd1na2vs0mg"},{"bike_id":"aa1d8c1e-7594-4615-aa13-56fdebb973d7","system_id":"levelo_inurba_marseille","lat":43.26863,"lon":5.39158,"is_reserved":false,"is_disabled":false,"rental_uris":{"android":"levelo://app?vid=aa1d8c1e-7594-4615-aa13-56fdebb973d7","ios":"levelo://app?vid=aa1d8c1e-7594-4615-aa13-56fdebb973d7"},"vehicle_type_id":"4","last_reported":1747595270,"current_range_meters":3600,"station_id":"","pricing_plan_id":"cebpf4jnsgd1na2vs0mg"},{"bike_id":"27d88582-bf4c-441f-b44f-8c1282aeb708","system_id":"levelo_inurba_marseille","lat":43.28946,"lon":5.36638,"is_reserved":false,"is_disabled":false,"rental_uris":{"android":"levelo://app?vid=27d88582-bf4c-441f-b44f-8c1282aeb708","ios":"levelo://app?vid=27d88582-bf4c-441f-b44f-8c1282aeb708"},"vehicle_type_id":"4","last_reported":1747595270,"current_range_meters":3600,"station_id":"ce4bhap2rcd13ifvqek0","pricing_plan_id":"cebpf4jnsgd1na2vs0mg"},{"bike_id":"8432cd7b-5a26-4f4f-9ee0-0201ea4d6bee","system_id":"levelo_inurba_marseille","lat":43.27942,"lon":5.41031,"is_reserved":false,"is_disabled":false,"rental_uris":{"android":"levelo://app?vid=8432cd7b-5a26-4f4f-9ee0-0201ea4d6bee","ios":"levelo://app?vid=8432cd7b-5a26-4f4f-9ee0-0201ea4d6bee"},"vehicle_type_id":"4","last_reported":1747595270,"current_range_meters":3600,"station_id":"ce4bhnp2rcd13ifvqh0g","pricing_plan_id":"cebpf4jnsgd1na2vs0mg"},{"bike_id":"e5013baf-c7d0-4bd2-b1c5-b16df7134711","system_id":"levelo_inurba_marseille","lat":43.27119,"lon":5.42332,"is_reserved":false,"is_disabled":false,"rental_uris":{"android":"levelo://app?vid=e5013baf-c7d0-4bd2-b1c5-b16df7134711","ios":"levelo://app?vid=e5013baf-c7d0-4bd2-b1c5-b16df7134711"},"vehicle_type_id":"4","last_reported":1747595270,"current_range_meters":3600,"station_id":"","pricing_plan_id":"cebpf4jnsgd1na2vs0mg"},{"bike_id":"e82af937-0b52-4b9f-b494-837f78900dee","system_id":"levelo_inurba_marseille","lat":43.28483,"lon":5.38435,"is_reserved":false,"is_disabled":false,"rental_uris":{"android":"levelo://app?vid=e82af937-0b52-4b9f-b494-837f78900dee","ios":"levelo://app?vid=e82af937-0b52-4b9f-b494-837f78900dee"},"vehicle_type_id":"4","last_reported":1747595270,"current_range_meters":4000,"station_id":"ce4bh512rcd13ifvqe3g","pricing_plan_id":"cebpf4jnsgd1na2vs0mg"},{"bike_id":"a38ab308-dad1-4b93-acf7-34964e3b4296","system_id":"levelo_inurba_marseille","lat":43.28722,"lon":5.36093,"is_reserved":false,"is_disabled":false,"rental_uris":{"android":"levelo://app?vid=a38ab308-dad1-4b93-acf7-34964e3b4296","ios":"levelo://app?vid=a38ab308-dad1-4b93-acf7-34964e3b4296"},"vehicle_type_id":"4","last_reported":1747595270,"current_range_meters":4000,"station_id":"cki0cbj6b192h4jlfktg","pricing_plan_id":"cebpf4jnsgd1na2vs0mg"},{"bike_id":"cba2067c-a08b-479c-8b0b-7aae2b36b17b","system_id":"levelo_inurba_marseille","lat":43.24071,"lon":5.37762,"is_reserved":false,"is_disabled":false,"rental_uris":{"android":"levelo://app?vid=cba2067c-a08b-479c-8b0b-7aae2b36b17b","ios":"levelo://app?vid=cba2067c-a08b-479c-8b0b-7aae2b36b17b"},"vehicle_type_id":"4","last_reported":1747595270,"current_range_meters":4000,"station_id":"ce4bhnp2rcd13ifvqgvg","pricing_plan_id":"cebpf4jnsgd1na2vs0mg"},{"bike_id":"164f210d-05d6-4c74-85f1-414474f5864b","system_id":"levelo_inurba_marseille","lat":43.28154,"lon":5.42669,"is_reserved":false,"is_disabled":false,"rental_uris":{"android":"levelo://app?vid=164f210d-05d6-4c74-85f1-414474f5864b","ios":"levelo://app?vid=164f210d-05d6-4c74-85f1-414474f5864b"},"vehicle_type_id":"4","last_reported":1747595270,"current_range_meters":4400,"station_id":"ce4bhnh2rcd13ifvqgug","pricing_plan_id":"cebpf4jnsgd1na2vs0mg"},{"bike_id":"34a50d07-14b8-4d27-9d94-c1996d01cc8d","system_id":"levelo_inurba_marseille","lat":43.2795,"lon":5.4104,"is_reserved":false,"is_disabled":false,"rental_uris":{"android":"levelo://app?vid=34a50d07-14b8-4d27-9d94-c1996d01cc8d","ios":"levelo://app?vid=34a50d07-14b8-4d27-9d94-c1996d01cc8d"},"vehicle_type_id":"4","last_reported":1747595270,"current_range_meters":4400,"station_id":"ce4bhnp2rcd13ifvqh0g","pricing_plan_id":"cebpf4jnsgd1na2vs0mg"},{"bike_id":"b5cee035-f62f-4316-9670-10f4955c73dd","system_id":"levelo_inurba_marseille","lat":43.28941,"lon":5.38388,"is_reserved":false,"is_disabled":false,"rental_uris":{"android":"levelo://app?vid=b5cee035-f62f-4316-9670-10f4955c73dd","ios":"levelo://app?vid=b5cee035-f62f-4316-9670-10f4955c73dd"},"vehicle_type_id":"4","last_reported":1747595270,"current_range_meters":4400,"station_id":"ce4bh612rcd13ifvqe6g","pricing_plan_id":"cebpf4jnsgd1na2vs0mg"},{"bike_id":"c1b9fa33-9c2d-40ce-9979-b53b7ae668ed","system_id":"levelo_inurba_marseille","lat":43.28154,"lon":5.4264,"is_reserved":false,"is_disabled":true,"rental_uris":{"android":"levelo://app?vid=c1b9fa33-9c2d-40ce-9979-b53b7ae668ed","ios":"levelo://app?vid=c1b9fa33-9c2d-40ce-9979-b53b7ae668ed"},"vehicle_type_id":"4","last_reported":1747595270,"current_range_meters":4400,"station_id":"ce4bhnh2rcd13ifvqgug","pricing_plan_id":"cebpf4jnsgd1na2vs0mg"},{"bike_id":"b05b1f64-0753-4df6-9d99-52c918cd47ad","system_id":"levelo_inurba_marseille","lat":43.29033,"lon":5.39954,"is_reserved":false,"is_disabled":true,"rental_uris":{"android":"levelo://app?vid=b05b1f64-0753-4df6-9d99-52c918cd47ad","ios":"levelo://app?vid=b05b1f64-0753-4df6-9d99-52c918cd47ad"},"vehicle_type_id":"4","last_reported":1747595270,"current_range_meters":4800,"station_id":"ce4bh392rcd13ifvqdm0","pricing_plan_id":"cebpf4jnsgd1na2vs0mg"},{"bike_id":"b1e588a8-6868-4632-aaf7-01c00ab698a5","system_id":"levelo_inurba_marseille","lat":43.2795,"lon":5.41044,"is_reserved":false,"is_disabled":false,"rental_uris":{"android":"levelo://app?vid=b1e588a8-6868-4632-aaf7-01c00ab698a5","ios":"levelo://app?vid=b1e588a8-6868-4632-aaf7-01c00ab698a5"},"vehicle_type_id":"4","last_reported":1747595270,"current_range_meters":4800,"station_id":"ce4bhnp2rcd13ifvqh0g","pricing_plan_id":"cebpf4jnsgd1na2vs0mg"},{"bike_id":"fea17b20-c952-4404-9eae-a87cce726a76","system_id":"levelo_inurba_marseille","lat":43.30802,"lon":5.38149,"is_reserved":false,"is_disabled":false,"rental_uris":{"android":"levelo://app?vid=fea17b20-c952-4404-9eae-a87cce726a76","ios":"levelo://app?vid=fea17b20-c952-4404-9eae-a87cce726a76"},"vehicle_type_id":"4","last_reported":1747595270,"current_range_meters":4800,"station_id":"ce4bgt12rcd13ifvqce0","pricing_plan_id":"cebpf4jnsgd1na2vs0mg"},{"bike_id":"75bfade4-2bec-471c-bf89-667751d45f35","system_id":"levelo_inurba_marseille","lat":43.26498,"lon":5.39545,"is_reserved":false,"is_disabled":false,"rental_uris":{"android":"levelo://app?vid=75bfade4-2bec-471c-bf89-667751d45f35","ios":"levelo://app?vid=75bfade4-2bec-471c-bf89-667751d45f35"},"vehicle_type_id":"4","last_reported":1747595270,"current_range_meters":4800,"station_id":"ce4bhi12rcd13ifvqfq0","pricing_plan_id":"cebpf4jnsgd1na2vs0mg"},{"bike_id":"205131f1-4e38-4057-b3e9-4a5e9fa356f2","system_id":"levelo_inurba_marseille","lat":43.290077,"lon":5.381377,"is_reserved":false,"is_disabled":false,"rental_uris":{"android":"levelo://app?vid=205131f1-4e38-4057-b3e9-4a5e9fa356f2","ios":"levelo://app?vid=205131f1-4e38-4057-b3e9-4a5e9fa356f2"},"vehicle_type_id":"4","last_reported":1747595270,"current_range_meters":4800,"station_id":"ce4bh4p2rcd13ifvqe1g","pricing_plan_id":"cebpf4jnsgd1na2vs0mg"},{"bike_id":"89844fa6-0b06-4627-ad50-4f51074a2db4","system_id":"levelo_inurba_marseille","lat":43.30646,"lon":5.40088,"is_reserved":false,"is_disabled":false,"rental_uris":{"android":"levelo://app?vid=89844fa6-0b06-4627-ad50-4f51074a2db4","ios":"levelo://app?vid=89844fa6-0b06-4627-ad50-4f51074a2db4"},"vehicle_type_id":"4","last_reported":1747595270,"current_range_meters":5600,"station_id":"ce4bh112rcd13ifvqda0","pricing_plan_id":"cebpf4jnsgd1na2vs0mg"},{"bike_id":"b134ddf3-c4d2-4849-bdbb-05f12ba91a19","system_id":"levelo_inurba_marseille","lat":43.2971,"lon":5.36597,"is_reserved":false,"is_disabled":false,"rental_uris":{"android":"levelo://app?vid=b134ddf3-c4d2-4849-bdbb-05f12ba91a19","ios":"levelo://app?vid=b134ddf3-c4d2-4849-bdbb-05f12ba91a19"},"vehicle_type_id":"4","last_reported":1747595270,"current_range_meters":5600,"station_id":"ce4bgn12rcd13ifvqbt0","pricing_plan_id":"cebpf4jnsgd1na2vs0mg"},{"bike_id":"57964d86-1c22-483b-9848-8baae820599a","system_id":"levelo_inurba_marseille","lat":43.28979,"lon":5.37837,"is_reserved":false,"is_disabled":false,"rental_uris":{"android":"levelo://app?vid=57964d86-1c22-483b-9848-8baae820599a","ios":"levelo://app?vid=57964d86-1c22-483b-9848-8baae820599a"},"vehicle_type_id":"4","last_reported":1747595270,"current_range_meters":5600,"station_id":"ce4bh9p2rcd13ifvqed0","pricing_plan_id":"cebpf4jnsgd1na2vs0mg"},{"bike_id":"c1732061-50e5-483a-b53c-db0e529d9ace","system_id":"levelo_inurba_marseille","lat":43.30253,"lon":5.40065,"is_reserved":false,"is_disabled":false,"rental_uris":{"android":"levelo://app?vid=c1732061-50e5-483a-b53c-db0e529d9ace","ios":"levelo://app?vid=c1732061-50e5-483a-b53c-db0e529d9ace"},"vehicle_type_id":"4","last_reported":1747595270,"current_range_meters":5600,"station_id":"ce4bgvh2rcd13ifvqcs0","pricing_plan_id":"cebpf4jnsgd1na2vs0mg"},{"bike_id":"c4de6590-6f51-46a0-a7b8-5eea53b5b087","system_id":"levelo_inurba_marseille","lat":43.27665,"lon":5.38887,"is_reserved":false,"is_disabled":false,"rental_uris":{"android":"levelo://app?vid=c4de6590-6f51-46a0-a7b8-5eea53b5b087","ios":"levelo://app?vid=c4de6590-6f51-46a0-a7b8-5eea53b5b087"},"vehicle_type_id":"4","last_reported":1747595270,"current_range_meters":4800,"station_id":"ce4bhi12rcd13ifvqfo0","pricing_plan_id":"cebpf4jnsgd1na2vs0mg"},{"bike_id":"5729c24d-63db-4913-b0e3-d548314764c8","system_id":"levelo_inurba_marseille","lat":43.30782,"lon":5.37649,"is_reserved":false,"is_disabled":false,"rental_uris":{"android":"levelo://app?vid=5729c24d-63db-4913-b0e3-d548314764c8","ios":"levelo://app?vid=5729c24d-63db-4913-b0e3-d548314764c8"},"vehicle_type_id":"4","last_reported":1747595270,"current_range_meters":6000,"station_id":"ce4bgv92rcd13ifvqcq0","pricing_plan_id":"cebpf4jnsgd1na2vs0mg"},{"bike_id":"ad201fd8-43d4-4e13-b393-60400b28cd6f","system_id":"levelo_inurba_marseille","lat":43.24071,"lon":5.37757,"is_reserved":false,"is_disabled":false,"rental_uris":{"android":"levelo://app?vid=ad201fd8-43d4-4e13-b393-60400b28cd6f","ios":"levelo://app?vid=ad201fd8-43d4-4e13-b393-60400b28cd6f"},"vehicle_type_id":"4","last_reported":1747595270,"current_range_meters":6000,"station_id":"ce4bhnp2rcd13ifvqgvg","pricing_plan_id":"cebpf4jnsgd1na2vs0mg"},{"bike_id":"b8e6468b-87db-4ff6-8122-ef13bf5b7c8c","system_id":"levelo_inurba_marseille","lat":43.31379,"lon":5.37916,"is_reserved":false,"is_disabled":false,"rental_uris":{"android":"levelo://app?vid=b8e6468b-87db-4ff6-8122-ef13bf5b7c8c","ios":"levelo://app?vid=b8e6468b-87db-4ff6-8122-ef13bf5b7c8c"},"vehicle_type_id":"4","last_reported":1747595270,"current_range_meters":6000,"station_id":"","pricing_plan_id":"cebpf4jnsgd1na2vs0mg"},{"bike_id":"1c03bd5a-9af5-4f8d-ac22-134ae538c3b5","system_id":"levelo_inurba_marseille","lat":43.23177,"lon":5.39994,"is_reserved":false,"is_disabled":false,"rental_uris":{"android":"levelo://app?vid=1c03bd5a-9af5-4f8d-ac22-134ae538c3b5","ios":"levelo://app?vid=1c03bd5a-9af5-4f8d-ac22-134ae538c3b5"},"vehicle_type_id":"4","last_reported":1747595270,"current_range_meters":6000,"station_id":"ce4bhn12rcd13ifvqgqg","pricing_plan_id":"cebpf4jnsgd1na2vs0mg"},{"bike_id":"8a7a75ee-b8f8-4af5-b0ed-d8dec76b4d69","system_id":"levelo_inurba_marseille","lat":43.2835,"lon":5.38113,"is_reserved":false,"is_disabled":false,"rental_uris":{"android":"levelo://app?vid=8a7a75ee-b8f8-4af5-b0ed-d8dec76b4d69","ios":"levelo://app?vid=8a7a75ee-b8f8-4af5-b0ed-d8dec76b4d69"},"vehicle_type_id":"4","last_reported":1747595270,"current_range_meters":6000,"station_id":"ce4bh412rcd13ifvqdr0","pricing_plan_id":"cebpf4jnsgd1na2vs0mg"},{"bike_id":"af2f3908-848e-4879-9c80-b3ddea1b7f0a","system_id":"levelo_inurba_marseille","lat":43.31208,"lon":5.38759,"is_reserved":false,"is_disabled":true,"rental_uris":{"android":"levelo://app?vid=af2f3908-848e-4879-9c80-b3ddea1b7f0a","ios":"levelo://app?vid=af2f3908-848e-4879-9c80-b3ddea1b7f0a"},"vehicle_type_id":"4","last_reported":1747595270,"current_range_meters":6000,"station_id":"ce4bgv12rcd13ifvqcp0","pricing_plan_id":"cebpf4jnsgd1na2vs0mg"},{"bike_id":"04836123-774c-497c-83ad-a26fc920c2a8","system_id":"levelo_inurba_marseille","lat":43.2769,"lon":5.38878,"is_reserved":false,"is_disabled":false,"rental_uris":{"android":"levelo://app?vid=04836123-774c-497c-83ad-a26fc920c2a8","ios":"levelo://app?vid=04836123-774c-497c-83ad-a26fc920c2a8"},"vehicle_type_id":"4","last_reported":1747595270,"current_range_meters":6000,"station_id":"ce4bhi12rcd13ifvqfo0","pricing_plan_id":"cebpf4jnsgd1na2vs0mg"},{"bike_id":"146487e7-17ab-4a9d-a061-2d5a85ad8d4a","system_id":"levelo_inurba_marseille","lat":43.29522,"lon":5.39398,"is_reserved":false,"is_disabled":false,"rental_uris":{"android":"levelo://app?vid=146487e7-17ab-4a9d-a061-2d5a85ad8d4a","ios":"levelo://app?vid=146487e7-17ab-4a9d-a061-2d5a85ad8d4a"},"vehicle_type_id":"4","last_reported":1747595270,"current_range_meters":6400,"station_id":"ce4bh292rcd13ifvqdf0","pricing_plan_id":"cebpf4jnsgd1na2vs0mg"},{"bike_id":"31517688-6fc8-4055-82da-246a549f92ce","system_id":"levelo_inurba_marseille","lat":43.29605,"lon":5.38103,"is_reserved":false,"is_disabled":false,"rental_uris":{"android":"levelo://app?vid=31517688-6fc8-4055-82da-246a549f92ce","ios":"levelo://app?vid=31517688-6fc8-4055-82da-246a549f92ce"},"vehicle_type_id":"4","last_reported":1747595270,"current_range_meters":6400,"station_id":"ce4bgl12rcd13ifvqbo0","pricing_plan_id":"cebpf4jnsgd1na2vs0mg"},{"bike_id":"398a8fd1-747d-4b0d-84d1-22519fee4719","system_id":"levelo_inurba_marseille","lat":43.273778,"lon":5.362506,"is_reserved":false,"is_disabled":true,"rental_uris":{"android":"levelo://app?vid=398a8fd1-747d-4b0d-84d1-22519fee4719","ios":"levelo://app?vid=398a8fd1-747d-4b0d-84d1-22519fee4719"},"vehicle_type_id":"4","last_reported":1747595270,"current_range_meters":6400,"station_id":"ce4bhbh2rcd13ifvqeo0","pricing_plan_id":"cebpf4jnsgd1na2vs0mg"},{"bike_id":"1381bd49-568c-425f-bcfd-260613800bb1","system_id":"levelo_inurba_marseille","lat":43.2746,"lon":5.39447,"is_reserved":false,"is_disabled":false,"rental_uris":{"android":"levelo://app?vid=1381bd49-568c-425f-bcfd-260613800bb1","ios":"levelo://app?vid=1381bd49-568c-425f-bcfd-260613800bb1"},"vehicle_type_id":"4","last_reported":1747595270,"current_range_meters":6400,"station_id":"","pricing_plan_id":"cebpf4jnsgd1na2vs0mg"},{"bike_id":"3dced1d9-0c80-49d8-a25b-68d880296f3d","system_id":"levelo_inurba_marseille","lat":43.30423,"lon":5.3975,"is_reserved":false,"is_disabled":false,"rental_uris":{"android":"levelo://app?vid=3dced1d9-0c80-49d8-a25b-68d880296f3d","ios":"levelo://app?vid=3dced1d9-0c80-49d8-a25b-68d880296f3d"},"vehicle_type_id":"4","last_reported":1747595270,"current_range_meters":6800,"station_id":"ce4bh092rcd13ifvqd20","pricing_plan_id":"cebpf4jnsgd1na2vs0mg"},{"bike_id":"b1de373b-30da-493d-9b64-dcf1120b2967","system_id":"levelo_inurba_marseille","lat":43.29521,"lon":5.39409,"is_reserved":false,"is_disabled":false,"rental_uris":{"android":"levelo://app?vid=b1de373b-30da-493d-9b64-dcf1120b2967","ios":"levelo://app?vid=b1de373b-30da-493d-9b64-dcf1120b2967"},"vehicle_type_id":"4","last_reported":1747595270,"current_range_meters":6800,"station_id":"ce4bh292rcd13ifvqdf0","pricing_plan_id":"cebpf4jnsgd1na2vs0mg"},{"bike_id":"fb54163f-2cac-4ba2-8a7a-f6f202b1f889","system_id":"levelo_inurba_marseille","lat":43.294159,"lon":5.386255,"is_reserved":false,"is_disabled":false,"rental_uris":{"android":"levelo://app?vid=fb54163f-2cac-4ba2-8a7a-f6f202b1f889","ios":"levelo://app?vid=fb54163f-2cac-4ba2-8a7a-f6f202b1f889"},"vehicle_type_id":"4","last_reported":1747595270,"current_range_meters":6800,"station_id":"ce4bh2h2rcd13ifvqdh0","pricing_plan_id":"cebpf4jnsgd1na2vs0mg"},{"bike_id":"a0761577-2db4-4a74-ab7e-3b7e0a738ded","system_id":"levelo_inurba_marseille","lat":43.300829,"lon":5.390929,"is_reserved":false,"is_disabled":false,"rental_uris":{"android":"levelo://app?vid=a0761577-2db4-4a74-ab7e-3b7e0a738ded","ios":"levelo://app?vid=a0761577-2db4-4a74-ab7e-3b7e0a738ded"},"vehicle_type_id":"4","last_reported":1747595270,"current_range_meters":6800,"station_id":"ce4bh192rcd13ifvqdb0","pricing_plan_id":"cebpf4jnsgd1na2vs0mg"},{"bike_id":"d2840165-1c23-431e-aa0b-16b735842f8a","system_id":"levelo_inurba_marseille","lat":43.28078,"lon":5.39666,"is_reserved":false,"is_disabled":false,"rental_uris":{"android":"levelo://app?vid=d2840165-1c23-431e-aa0b-16b735842f8a","ios":"levelo://app?vid=d2840165-1c23-431e-aa0b-16b735842f8a"},"vehicle_type_id":"4","last_reported":1747595270,"current_range_meters":6800,"station_id":"ce4bho12rcd13ifvqh2g","pricing_plan_id":"cebpf4jnsgd1na2vs0mg"},{"bike_id":"6b849ac5-c25f-4393-bc5a-47493e693ba8","system_id":"levelo_inurba_marseille","lat":43.24155,"lon":5.36411,"is_reserved":false,"is_disabled":true,"rental_uris":{"android":"levelo://app?vid=6b849ac5-c25f-4393-bc5a-47493e693ba8","ios":"levelo://app?vid=6b849ac5-c25f-4393-bc5a-47493e693ba8"},"vehicle_type_id":"4","last_reported":1747595270,"current_range_meters":6800,"station_id":"cpo36qri1sfpv3e86is0","pricing_plan_id":"cebpf4jnsgd1na2vs0mg"},{"bike_id":"4fb991e1-971f-47a7-899b-563b589058d9","system_id":"levelo_inurba_marseille","lat":43.29272,"lon":5.38441,"is_reserved":false,"is_disabled":false,"rental_uris":{"android":"levelo://app?vid=4fb991e1-971f-47a7-899b-563b589058d9","ios":"levelo://app?vid=4fb991e1-971f-47a7-899b-563b589058d9"},"vehicle_type_id":"4","last_reported":1747595270,"current_range_meters":6800,"station_id":"ce4bh692rcd13ifvqea0","pricing_plan_id":"cebpf4jnsgd1na2vs0mg"},{"bike_id":"98d7e015-5e62-4cfd-8699-316a172e4b18","system_id":"levelo_inurba_marseille","lat":43.26204,"lon":5.37457,"is_reserved":false,"is_disabled":true,"rental_uris":{"android":"levelo://app?vid=98d7e015-5e62-4cfd-8699-316a172e4b18","ios":"levelo://app?vid=98d7e015-5e62-4cfd-8699-316a172e4b18"},"vehicle_type_id":"4","last_reported":1747595270,"current_range_meters":6800,"station_id":"ce4bhgp2rcd13ifvqfc0","pricing_plan_id":"cebpf4jnsgd1na2vs0mg"},{"bike_id":"b3957fec-bff5-4685-b781-3b01e8bfe2c8","system_id":"levelo_inurba_marseille","lat":43.30269,"lon":5.37719,"is_reserved":false,"is_disabled":false,"rental_uris":{"android":"levelo://app?vid=b3957fec-bff5-4685-b781-3b01e8bfe2c8","ios":"levelo://app?vid=b3957fec-bff5-4685-b781-3b01e8bfe2c8"},"vehicle_type_id":"4","last_reported":1747595270,"current_range_meters":7200,"station_id":"ce4bguh2rcd13ifvqcj0","pricing_plan_id":"cebpf4jnsgd1na2vs0mg"},{"bike_id":"7a82397e-c258-4325-b836-1bc38b80aab5","system_id":"levelo_inurba_marseille","lat":43.24055,"lon":5.3758,"is_reserved":false,"is_disabled":false,"rental_uris":{"android":"levelo://app?vid=7a82397e-c258-4325-b836-1bc38b80aab5","ios":"levelo://app?vid=7a82397e-c258-4325-b836-1bc38b80aab5"},"vehicle_type_id":"4","last_reported":1747595270,"current_range_meters":7200,"station_id":"ce4bhnp2rcd13ifvqgvg","pricing_plan_id":"cebpf4jnsgd1na2vs0mg"},{"bike_id":"9cf2e129-3c2b-4848-b613-d1223a72908d","system_id":"levelo_inurba_marseille","lat":43.28721,"lon":5.36086,"is_reserved":false,"is_disabled":false,"rental_uris":{"android":"levelo://app?vid=9cf2e129-3c2b-4848-b613-d1223a72908d","ios":"levelo://app?vid=9cf2e129-3c2b-4848-b613-d1223a72908d"},"vehicle_type_id":"4","last_reported":1747595270,"current_range_meters":6800,"station_id":"cki0cbj6b192h4jlfktg","pricing_plan_id":"cebpf4jnsgd1na2vs0mg"},{"bike_id":"06fe1024-4e8e-41f8-b98c-014170736a33","system_id":"levelo_inurba_marseille","lat":43.30885,"lon":5.39659,"is_reserved":false,"is_disabled":false,"rental_uris":{"android":"levelo://app?vid=06fe1024-4e8e-41f8-b98c-014170736a33","ios":"levelo://app?vid=06fe1024-4e8e-41f8-b98c-014170736a33"},"vehicle_type_id":"4","last_reported":1747595270,"current_range_meters":4800,"station_id":"ce4bh012rcd13ifvqcv0","pricing_plan_id":"cebpf4jnsgd1na2vs0mg"},{"bike_id":"e36629fa-e903-4c4e-a768-9e2c98bf4eea","system_id":"levelo_inurba_marseille","lat":43.28167,"lon":5.42659,"is_reserved":false,"is_disabled":false,"rental_uris":{"android":"levelo://app?vid=e36629fa-e903-4c4e-a768-9e2c98bf4eea","ios":"levelo://app?vid=e36629fa-e903-4c4e-a768-9e2c98bf4eea"},"vehicle_type_id":"4","last_reported":1747595270,"current_range_meters":7200,"station_id":"ce4bhnh2rcd13ifvqgug","pricing_plan_id":"cebpf4jnsgd1na2vs0mg"},{"bike_id":"b934e6da-efb5-4ac5-a51a-eb50220f6e1b","system_id":"levelo_inurba_marseille","lat":43.269785,"lon":5.405912,"is_reserved":false,"is_disabled":true,"rental_uris":{"android":"levelo://app?vid=b934e6da-efb5-4ac5-a51a-eb50220f6e1b","ios":"levelo://app?vid=b934e6da-efb5-4ac5-a51a-eb50220f6e1b"},"vehicle_type_id":"4","last_reported":1747595270,"current_range_meters":8000,"station_id":"","pricing_plan_id":"cebpf4jnsgd1na2vs0mg"},{"bike_id":"c0db4030-ef30-480b-a735-af5435a471ed","system_id":"levelo_inurba_marseille","lat":43.2776,"lon":5.42685,"is_reserved":false,"is_disabled":false,"rental_uris":{"android":"levelo://app?vid=c0db4030-ef30-480b-a735-af5435a471ed","ios":"levelo://app?vid=c0db4030-ef30-480b-a735-af5435a471ed"},"vehicle_type_id":"4","last_reported":1747595270,"current_range_meters":8000,"station_id":"","pricing_plan_id":"cebpf4jnsgd1na2vs0mg"},{"bike_id":"9be12a09-efe5-495b-8ec3-e7e0d7473370","system_id":"levelo_inurba_marseille","lat":43.295977,"lon":5.381054,"is_reserved":false,"is_disabled":true,"rental_uris":{"android":"levelo://app?vid=9be12a09-efe5-495b-8ec3-e7e0d7473370","ios":"levelo://app?vid=9be12a09-efe5-495b-8ec3-e7e0d7473370"},"vehicle_type_id":"4","last_reported":1747595270,"current_range_meters":8000,"station_id":"ce4bgl12rcd13ifvqbo0","pricing_plan_id":"cebpf4jnsgd1na2vs0mg"},{"bike_id":"e5c8a2b0-e20c-401e-819e-2833d3af4a7a","system_id":"levelo_inurba_marseille","lat":43.27512,"lon":5.42452,"is_reserved":false,"is_disabled":false,"rental_uris":{"android":"levelo://app?vid=e5c8a2b0-e20c-401e-819e-2833d3af4a7a","ios":"levelo://app?vid=e5c8a2b0-e20c-401e-819e-2833d3af4a7a"},"vehicle_type_id":"4","last_reported":1747595270,"current_range_meters":8000,"station_id":"ce4bhn92rcd13ifvqgrg","pricing_plan_id":"cebpf4jnsgd1na2vs0mg"},{"bike_id":"0c2b5650-b63e-432a-a802-72710d7a63b5","system_id":"levelo_inurba_marseille","lat":43.27909,"lon":5.39574,"is_reserved":false,"is_disabled":false,"rental_uris":{"android":"levelo://app?vid=0c2b5650-b63e-432a-a802-72710d7a63b5","ios":"levelo://app?vid=0c2b5650-b63e-432a-a802-72710d7a63b5"},"vehicle_type_id":"4","last_reported":1747595270,"current_range_meters":8000,"station_id":"ce4bhf92rcd13ifvqf40","pricing_plan_id":"cebpf4jnsgd1na2vs0mg"},{"bike_id":"ecbae945-2bb9-4258-9d31-17353735b1f7","system_id":"levelo_inurba_marseille","lat":43.24657,"lon":5.38916,"is_reserved":false,"is_disabled":false,"rental_uris":{"android":"levelo://app?vid=ecbae945-2bb9-4258-9d31-17353735b1f7","ios":"levelo://app?vid=ecbae945-2bb9-4258-9d31-17353735b1f7"},"vehicle_type_id":"4","last_reported":1747595270,"current_range_meters":7200,"station_id":"ce4bhg12rcd13ifvqf60","pricing_plan_id":"cebpf4jnsgd1na2vs0mg"},{"bike_id":"0fb02880-5c6e-4026-9e4a-07529c572b44","system_id":"levelo_inurba_marseille","lat":43.25514,"lon":5.37384,"is_reserved":false,"is_disabled":false,"rental_uris":{"android":"levelo://app?vid=0fb02880-5c6e-4026-9e4a-07529c572b44","ios":"levelo://app?vid=0fb02880-5c6e-4026-9e4a-07529c572b44"},"vehicle_type_id":"4","last_reported":1747595270,"current_range_meters":8400,"station_id":"","pricing_plan_id":"cebpf4jnsgd1na2vs0mg"},{"bike_id":"963923a2-09f9-4a14-8b58-4a54c500dac4","system_id":"levelo_inurba_marseille","lat":43.32639,"lon":5.40985,"is_reserved":false,"is_disabled":false,"rental_uris":{"android":"levelo://app?vid=963923a2-09f9-4a14-8b58-4a54c500dac4","ios":"levelo://app?vid=963923a2-09f9-4a14-8b58-4a54c500dac4"},"vehicle_type_id":"4","last_reported":1747595270,"current_range_meters":8000,"station_id":"ce4bhpp2rcd13ifvqhgg","pricing_plan_id":"cebpf4jnsgd1na2vs0mg"},{"bike_id":"0942a4e0-09d2-4a94-9ccc-136b2604fc2e","system_id":"levelo_inurba_marseille","lat":43.24088,"lon":5.37716,"is_reserved":false,"is_disabled":false,"rental_uris":{"android":"levelo://app?vid=0942a4e0-09d2-4a94-9ccc-136b2604fc2e","ios":"levelo://app?vid=0942a4e0-09d2-4a94-9ccc-136b2604fc2e"},"vehicle_type_id":"4","last_reported":1747595270,"current_range_meters":8400,"station_id":"ce4bhnp2rcd13ifvqgvg","pricing_plan_id":"cebpf4jnsgd1na2vs0mg"},{"bike_id":"14603e41-b2dd-4757-a53c-2e366aa4f983","system_id":"levelo_inurba_marseille","lat":43.26999,"lon":5.42832,"is_reserved":false,"is_disabled":false,"rental_uris":{"android":"levelo://app?vid=14603e41-b2dd-4757-a53c-2e366aa4f983","ios":"levelo://app?vid=14603e41-b2dd-4757-a53c-2e366aa4f983"},"vehicle_type_id":"4","last_reported":1747595270,"current_range_meters":8400,"station_id":"","pricing_plan_id":"cebpf4jnsgd1na2vs0mg"},{"bike_id":"b1e6675a-64b4-4fbc-a190-c2fdd07f79bd","system_id":"levelo_inurba_marseille","lat":43.34166,"lon":5.40895,"is_reserved":false,"is_disabled":false,"rental_uris":{"android":"levelo://app?vid=b1e6675a-64b4-4fbc-a190-c2fdd07f79bd","ios":"levelo://app?vid=b1e6675a-64b4-4fbc-a190-c2fdd07f79bd"},"vehicle_type_id":"4","last_reported":1747595270,"current_range_meters":8800,"station_id":"ce4bhqh2rcd13ifvqhlg","pricing_plan_id":"cebpf4jnsgd1na2vs0mg"},{"bike_id":"2edac17f-64df-47b7-a848-7c42cf0f36e7","system_id":"levelo_inurba_marseille","lat":43.27813,"lon":5.40716,"is_reserved":false,"is_disabled":false,"rental_uris":{"android":"levelo://app?vid=2edac17f-64df-47b7-a848-7c42cf0f36e7","ios":"levelo://app?vid=2edac17f-64df-47b7-a848-7c42cf0f36e7"},"vehicle_type_id":"4","last_reported":1747595270,"current_range_meters":8800,"station_id":"ce4bhnh2rcd13ifvqgtg","pricing_plan_id":"cebpf4jnsgd1na2vs0mg"},{"bike_id":"3c648704-0a6a-47f4-9a55-c4ba791d154c","system_id":"levelo_inurba_marseille","lat":43.29611,"lon":5.38101,"is_reserved":false,"is_disabled":false,"rental_uris":{"android":"levelo://app?vid=3c648704-0a6a-47f4-9a55-c4ba791d154c","ios":"levelo://app?vid=3c648704-0a6a-47f4-9a55-c4ba791d154c"},"vehicle_type_id":"4","last_reported":1747595270,"current_range_meters":8800,"station_id":"ce4bgl12rcd13ifvqbo0","pricing_plan_id":"cebpf4jnsgd1na2vs0mg"},{"bike_id":"92e6157b-4ab6-4347-ae31-c5dd168f7579","system_id":"levelo_inurba_marseille","lat":43.27841,"lon":5.39207,"is_reserved":false,"is_disabled":false,"rental_uris":{"android":"levelo://app?vid=92e6157b-4ab6-4347-ae31-c5dd168f7579","ios":"levelo://app?vid=92e6157b-4ab6-4347-ae31-c5dd168f7579"},"vehicle_type_id":"4","last_reported":1747595270,"current_range_meters":8800,"station_id":"ce4bhjp2rcd13ifvqga0","pricing_plan_id":"cebpf4jnsgd1na2vs0mg"},{"bike_id":"2eab994d-a378-4391-894b-b62d11a34041","system_id":"levelo_inurba_marseille","lat":43.2313,"lon":5.43684,"is_reserved":false,"is_disabled":true,"rental_uris":{"android":"levelo://app?vid=2eab994d-a378-4391-894b-b62d11a34041","ios":"levelo://app?vid=2eab994d-a378-4391-894b-b62d11a34041"},"vehicle_type_id":"4","last_reported":1747595270,"current_range_meters":8800,"station_id":"ce4bhmp2rcd13ifvqgog","pricing_plan_id":"cebpf4jnsgd1na2vs0mg"},{"bike_id":"3dbf4202-6716-451d-aeb1-f268340013a7","system_id":"levelo_inurba_marseille","lat":43.31497,"lon":5.37306,"is_reserved":false,"is_disabled":true,"rental_uris":{"android":"levelo://app?vid=3dbf4202-6716-451d-aeb1-f268340013a7","ios":"levelo://app?vid=3dbf4202-6716-451d-aeb1-f268340013a7"},"vehicle_type_id":"4","last_reported":1747595270,"current_range_meters":8800,"station_id":"ce4bgt12rcd13ifvqcd0","pricing_plan_id":"cebpf4jnsgd1na2vs0mg"},{"bike_id":"792fe2c5-bed1-44c1-8651-be4bbdc2a895","system_id":"levelo_inurba_marseille","lat":43.29261,"lon":5.40902,"is_reserved":false,"is_disabled":false,"rental_uris":{"android":"levelo://app?vid=792fe2c5-bed1-44c1-8651-be4bbdc2a895","ios":"levelo://app?vid=792fe2c5-bed1-44c1-8651-be4bbdc2a895"},"vehicle_type_id":"4","last_reported":1747595270,"current_range_meters":8800,"station_id":"ce4bh192rcd13ifvqdc0","pricing_plan_id":"cebpf4jnsgd1na2vs0mg"},{"bike_id":"f60d54d7-a18a-4c4a-84f4-bfe11384b4dd","system_id":"levelo_inurba_marseille","lat":43.28569,"lon":5.39497,"is_reserved":false,"is_disabled":false,"rental_uris":{"android":"levelo://app?vid=f60d54d7-a18a-4c4a-84f4-bfe11384b4dd","ios":"levelo://app?vid=f60d54d7-a18a-4c4a-84f4-bfe11384b4dd"},"vehicle_type_id":"4","last_reported":1747595270,"current_range_meters":8800,"station_id":"ce4bh292rcd13ifvqdg0","pricing_plan_id":"cebpf4jnsgd1na2vs0mg"},{"bike_id":"caf4c81d-8b81-4d8d-a4f9-9d00bac7ad70","system_id":"levelo_inurba_marseille","lat":43.30798,"lon":5.42817,"is_reserved":false,"is_disabled":false,"rental_uris":{"android":"levelo://app?vid=caf4c81d-8b81-4d8d-a4f9-9d00bac7ad70","ios":"levelo://app?vid=caf4c81d-8b81-4d8d-a4f9-9d00bac7ad70"},"vehicle_type_id":"4","last_reported":1747595270,"current_range_meters":8800,"station_id":"","pricing_plan_id":"cebpf4jnsgd1na2vs0mg"},{"bike_id":"452f057a-7b3d-49f4-87c4-28e634720532","system_id":"levelo_inurba_marseille","lat":43.28459,"lon":5.392,"is_reserved":false,"is_disabled":false,"rental_uris":{"android":"levelo://app?vid=452f057a-7b3d-49f4-87c4-28e634720532","ios":"levelo://app?vid=452f057a-7b3d-49f4-87c4-28e634720532"},"vehicle_type_id":"4","last_reported":1747595270,"current_range_meters":8800,"station_id":"ce4bhoh2rcd13ifvqh5g","pricing_plan_id":"cebpf4jnsgd1na2vs0mg"},{"bike_id":"bac69c61-4762-40db-a3aa-22391a8e50ed","system_id":"levelo_inurba_marseille","lat":43.28717,"lon":5.36086,"is_reserved":false,"is_disabled":false,"rental_uris":{"android":"levelo://app?vid=bac69c61-4762-40db-a3aa-22391a8e50ed","ios":"levelo://app?vid=bac69c61-4762-40db-a3aa-22391a8e50ed"},"vehicle_type_id":"4","last_reported":1747595270,"current_range_meters":8800,"station_id":"cki0cbj6b192h4jlfktg","pricing_plan_id":"cebpf4jnsgd1na2vs0mg"},{"bike_id":"7d080336-5a2d-419d-8d50-e49d93450255","system_id":"levelo_inurba_marseille","lat":43.291729,"lon":5.371389,"is_reserved":false,"is_disabled":true,"rental_uris":{"android":"levelo://app?vid=7d080336-5a2d-419d-8d50-e49d93450255","ios":"levelo://app?vid=7d080336-5a2d-419d-8d50-e49d93450255"},"vehicle_type_id":"4","last_reported":1747595270,"current_range_meters":9200,"station_id":"ce4bha92rcd13ifvqeh0","pricing_plan_id":"cebpf4jnsgd1na2vs0mg"},{"bike_id":"67f72f62-eb9d-4994-bbcf-c10b28dd838c","system_id":"levelo_inurba_marseille","lat":43.26623,"lon":5.39342,"is_reserved":false,"is_disabled":false,"rental_uris":{"android":"levelo://app?vid=67f72f62-eb9d-4994-bbcf-c10b28dd838c","ios":"levelo://app?vid=67f72f62-eb9d-4994-bbcf-c10b28dd838c"},"vehicle_type_id":"4","last_reported":1747595270,"current_range_meters":9200,"station_id":"","pricing_plan_id":"cebpf4jnsgd1na2vs0mg"},{"bike_id":"88c266e6-7038-494f-b358-90ca603fb435","system_id":"levelo_inurba_marseille","lat":43.295889,"lon":5.375176,"is_reserved":false,"is_disabled":true,"rental_uris":{"android":"levelo://app?vid=88c266e6-7038-494f-b358-90ca603fb435","ios":"levelo://app?vid=88c266e6-7038-494f-b358-90ca603fb435"},"vehicle_type_id":"4","last_reported":1747595270,"current_range_meters":9200,"station_id":"ce4bgh92rcd13ifvqb50","pricing_plan_id":"cebpf4jnsgd1na2vs0mg"},{"bike_id":"ffc3ddf2-0082-4578-9e25-c91f5b4279bc","system_id":"levelo_inurba_marseille","lat":43.2832,"lon":5.41124,"is_reserved":false,"is_disabled":false,"rental_uris":{"android":"levelo://app?vid=ffc3ddf2-0082-4578-9e25-c91f5b4279bc","ios":"levelo://app?vid=ffc3ddf2-0082-4578-9e25-c91f5b4279bc"},"vehicle_type_id":"4","last_reported":1747595270,"current_range_meters":9200,"station_id":"","pricing_plan_id":"cebpf4jnsgd1na2vs0mg"},{"bike_id":"43b47f55-f2d2-49ee-8f5f-b100c45adb99","system_id":"levelo_inurba_marseille","lat":43.30926,"lon":5.40144,"is_reserved":false,"is_disabled":false,"rental_uris":{"android":"levelo://app?vid=43b47f55-f2d2-49ee-8f5f-b100c45adb99","ios":"levelo://app?vid=43b47f55-f2d2-49ee-8f5f-b100c45adb99"},"vehicle_type_id":"4","last_reported":1747595270,"current_range_meters":9200,"station_id":"ce4bgvp2rcd13ifvqct0","pricing_plan_id":"cebpf4jnsgd1na2vs0mg"},{"bike_id":"2f291bdd-9d94-4bf0-995b-96b4de9ba23c","system_id":"levelo_inurba_marseille","lat":43.29033,"lon":5.38638,"is_reserved":false,"is_disabled":false,"rental_uris":{"android":"levelo://app?vid=2f291bdd-9d94-4bf0-995b-96b4de9ba23c","ios":"levelo://app?vid=2f291bdd-9d94-4bf0-995b-96b4de9ba23c"},"vehicle_type_id":"4","last_reported":1747595270,"current_range_meters":9200,"station_id":"ce4bh4p2rcd13ifvqe0g","pricing_plan_id":"cebpf4jnsgd1na2vs0mg"},{"bike_id":"75463357-e93f-40fe-bd3c-705c5c56d40d","system_id":"levelo_inurba_marseille","lat":43.30145,"lon":5.39879,"is_reserved":false,"is_disabled":false,"rental_uris":{"android":"levelo://app?vid=75463357-e93f-40fe-bd3c-705c5c56d40d","ios":"levelo://app?vid=75463357-e93f-40fe-bd3c-705c5c56d40d"},"vehicle_type_id":"4","last_reported":1747595270,"current_range_meters":9600,"station_id":"ce4bh0h2rcd13ifvqd40","pricing_plan_id":"cebpf4jnsgd1na2vs0mg"},{"bike_id":"c95edae8-90ce-4d52-a6a6-375c9efc7c36","system_id":"levelo_inurba_marseille","lat":43.30183,"lon":5.39906,"is_reserved":false,"is_disabled":false,"rental_uris":{"android":"levelo://app?vid=c95edae8-90ce-4d52-a6a6-375c9efc7c36","ios":"levelo://app?vid=c95edae8-90ce-4d52-a6a6-375c9efc7c36"},"vehicle_type_id":"4","last_reported":1747595270,"current_range_meters":9600,"station_id":"","pricing_plan_id":"cebpf4jnsgd1na2vs0mg"},{"bike_id":"ae81c1d3-4845-47d7-bc5d-f136936b35f9","system_id":"levelo_inurba_marseille","lat":43.23189,"lon":5.39985,"is_reserved":false,"is_disabled":false,"rental_uris":{"android":"levelo://app?vid=ae81c1d3-4845-47d7-bc5d-f136936b35f9","ios":"levelo://app?vid=ae81c1d3-4845-47d7-bc5d-f136936b35f9"},"vehicle_type_id":"4","last_reported":1747595270,"current_range_meters":9600,"station_id":"ce4bhn12rcd13ifvqgqg","pricing_plan_id":"cebpf4jnsgd1na2vs0mg"},{"bike_id":"1b2f0e19-c9dc-4000-8367-67c619535c14","system_id":"levelo_inurba_marseille","lat":43.29964,"lon":5.36525,"is_reserved":false,"is_disabled":true,"rental_uris":{"android":"levelo://app?vid=1b2f0e19-c9dc-4000-8367-67c619535c14","ios":"levelo://app?vid=1b2f0e19-c9dc-4000-8367-67c619535c14"},"vehicle_type_id":"4","last_reported":1747595270,"current_range_meters":9600,"station_id":"ce4bgm92rcd13ifvqbr0","pricing_plan_id":"cebpf4jnsgd1na2vs0mg"},{"bike_id":"9c5c284a-e46e-432f-b641-2f666a3990ac","system_id":"levelo_inurba_marseille","lat":43.33601,"lon":5.4101,"is_reserved":false,"is_disabled":false,"rental_uris":{"android":"levelo://app?vid=9c5c284a-e46e-432f-b641-2f666a3990ac","ios":"levelo://app?vid=9c5c284a-e46e-432f-b641-2f666a3990ac"},"vehicle_type_id":"4","last_reported":1747595270,"current_range_meters":9600,"station_id":"ce4bhqh2rcd13ifvqhmg","pricing_plan_id":"cebpf4jnsgd1na2vs0mg"},{"bike_id":"6e1bd625-3ec1-43df-9657-36d71ae09f8d","system_id":"levelo_inurba_marseille","lat":43.33748,"lon":5.37479,"is_reserved":false,"is_disabled":false,"rental_uris":{"android":"levelo://app?vid=6e1bd625-3ec1-43df-9657-36d71ae09f8d","ios":"levelo://app?vid=6e1bd625-3ec1-43df-9657-36d71ae09f8d"},"vehicle_type_id":"4","last_reported":1747595270,"current_range_meters":9600,"station_id":"","pricing_plan_id":"cebpf4jnsgd1na2vs0mg"},{"bike_id":"57080fff-3623-4536-8487-9d2d05077849","system_id":"levelo_inurba_marseille","lat":43.29919,"lon":5.37482,"is_reserved":false,"is_disabled":false,"rental_uris":{"android":"levelo://app?vid=57080fff-3623-4536-8487-9d2d05077849","ios":"levelo://app?vid=57080fff-3623-4536-8487-9d2d05077849"},"vehicle_type_id":"4","last_reported":1747595270,"current_range_meters":9200,"station_id":"ce4bgjh2rcd13ifvqbg0","pricing_plan_id":"cebpf4jnsgd1na2vs0mg"},{"bike_id":"c608898e-58b6-42f7-903a-6008119c7a64","system_id":"levelo_inurba_marseille","lat":43.24061,"lon":5.37765,"is_reserved":false,"is_disabled":false,"rental_uris":{"android":"levelo://app?vid=c608898e-58b6-42f7-903a-6008119c7a64","ios":"levelo://app?vid=c608898e-58b6-42f7-903a-6008119c7a64"},"vehicle_type_id":"4","last_reported":1747595270,"current_range_meters":9600,"station_id":"ce4bhnp2rcd13ifvqgvg","pricing_plan_id":"cebpf4jnsgd1na2vs0mg"},{"bike_id":"f0f7017b-f4f0-44ef-a298-69fa7a191236","system_id":"levelo_inurba_marseille","lat":43.273221,"lon":5.39068,"is_reserved":false,"is_disabled":false,"rental_uris":{"android":"levelo://app?vid=f0f7017b-f4f0-44ef-a298-69fa7a191236","ios":"levelo://app?vid=f0f7017b-f4f0-44ef-a298-69fa7a191236"},"vehicle_type_id":"4","last_reported":1747595270,"current_range_meters":10000,"station_id":"","pricing_plan_id":"cebpf4jnsgd1na2vs0mg"},{"bike_id":"88828178-b973-45ae-9997-d21d8196c380","system_id":"levelo_inurba_marseille","lat":43.27913,"lon":5.3799,"is_reserved":false,"is_disabled":false,"rental_uris":{"android":"levelo://app?vid=88828178-b973-45ae-9997-d21d8196c380","ios":"levelo://app?vid=88828178-b973-45ae-9997-d21d8196c380"},"vehicle_type_id":"4","last_reported":1747595270,"current_range_meters":9600,"station_id":"ce4bhf92rcd13ifvqf50","pricing_plan_id":"cebpf4jnsgd1na2vs0mg"},{"bike_id":"7f0ace03-7713-450f-9267-3795dd07890b","system_id":"levelo_inurba_marseille","lat":43.292657,"lon":5.38435,"is_reserved":false,"is_disabled":false,"rental_uris":{"android":"levelo://app?vid=7f0ace03-7713-450f-9267-3795dd07890b","ios":"levelo://app?vid=7f0ace03-7713-450f-9267-3795dd07890b"},"vehicle_type_id":"4","last_reported":1747595270,"current_range_meters":10000,"station_id":"ce4bh692rcd13ifvqea0","pricing_plan_id":"cebpf4jnsgd1na2vs0mg"},{"bike_id":"8bd907b1-f1d2-4354-94dc-d89c4874cb2d","system_id":"levelo_inurba_marseille","lat":43.29874,"lon":5.39732,"is_reserved":false,"is_disabled":false,"rental_uris":{"android":"levelo://app?vid=8bd907b1-f1d2-4354-94dc-d89c4874cb2d","ios":"levelo://app?vid=8bd907b1-f1d2-4354-94dc-d89c4874cb2d"},"vehicle_type_id":"4","last_reported":1747595270,"current_range_meters":14400,"station_id":"ce4bh0h2rcd13ifvqd50","pricing_plan_id":"cebpf4jnsgd1na2vs0mg"},{"bike_id":"f0a6b2de-c87c-40a7-9b32-a10b3fa9565a","system_id":"levelo_inurba_marseille","lat":43.30324,"lon":5.4044,"is_reserved":false,"is_disabled":false,"rental_uris":{"android":"levelo://app?vid=f0a6b2de-c87c-40a7-9b32-a10b3fa9565a","ios":"levelo://app?vid=f0a6b2de-c87c-40a7-9b32-a10b3fa9565a"},"vehicle_type_id":"4","last_reported":1747595270,"current_range_meters":10000,"station_id":"ce4bh012rcd13ifvqd10","pricing_plan_id":"cebpf4jnsgd1na2vs0mg"},{"bike_id":"b3d3c3ee-d31e-42f9-8725-23762e5459dc","system_id":"levelo_inurba_marseille","lat":43.31705,"lon":5.37729,"is_reserved":false,"is_disabled":false,"rental_uris":{"android":"levelo://app?vid=b3d3c3ee-d31e-42f9-8725-23762e5459dc","ios":"levelo://app?vid=b3d3c3ee-d31e-42f9-8725-23762e5459dc"},"vehicle_type_id":"4","last_reported":1747595270,"current_range_meters":10000,"station_id":"ce4bgth2rcd13ifvqch0","pricing_plan_id":"cebpf4jnsgd1na2vs0mg"},{"bike_id":"298ac928-2603-4ecf-accc-bb90675298a1","system_id":"levelo_inurba_marseille","lat":43.30643,"lon":5.40092,"is_reserved":false,"is_disabled":false,"rental_uris":{"android":"levelo://app?vid=298ac928-2603-4ecf-accc-bb90675298a1","ios":"levelo://app?vid=298ac928-2603-4ecf-accc-bb90675298a1"},"vehicle_type_id":"4","last_reported":1747595270,"current_range_meters":10000,"station_id":"ce4bh112rcd13ifvqda0","pricing_plan_id":"cebpf4jnsgd1na2vs0mg"},{"bike_id":"2fb949d1-294f-4b28-be4c-d73bb46cb255","system_id":"levelo_inurba_marseille","lat":43.27557,"lon":5.38439,"is_reserved":false,"is_disabled":false,"rental_uris":{"android":"levelo://app?vid=2fb949d1-294f-4b28-be4c-d73bb46cb255","ios":"levelo://app?vid=2fb949d1-294f-4b28-be4c-d73bb46cb255"},"vehicle_type_id":"4","last_reported":1747595270,"current_range_meters":10000,"station_id":"ce4bhh92rcd13ifvqfi0","pricing_plan_id":"cebpf4jnsgd1na2vs0mg"},{"bike_id":"9b55a1e0-14da-4879-90dc-b321de5c8345","system_id":"levelo_inurba_marseille","lat":43.29783,"lon":5.381152,"is_reserved":false,"is_disabled":true,"rental_uris":{"android":"levelo://app?vid=9b55a1e0-14da-4879-90dc-b321de5c8345","ios":"levelo://app?vid=9b55a1e0-14da-4879-90dc-b321de5c8345"},"vehicle_type_id":"4","last_reported":1747595270,"current_range_meters":10000,"station_id":"ce4bgip2rcd13ifvqbb0","pricing_plan_id":"cebpf4jnsgd1na2vs0mg"},{"bike_id":"792cc848-49f1-4144-a27c-7a47c3019235","system_id":"levelo_inurba_marseille","lat":43.2811,"lon":5.34874,"is_reserved":false,"is_disabled":false,"rental_uris":{"android":"levelo://app?vid=792cc848-49f1-4144-a27c-7a47c3019235","ios":"levelo://app?vid=792cc848-49f1-4144-a27c-7a47c3019235"},"vehicle_type_id":"4","last_reported":1747595270,"current_range_meters":10000,"station_id":"","pricing_plan_id":"cebpf4jnsgd1na2vs0mg"},{"bike_id":"4745dd8b-a0b2-49db-b417-8a28eecc51d4","system_id":"levelo_inurba_marseille","lat":43.24333,"lon":5.38,"is_reserved":false,"is_disabled":false,"rental_uris":{"android":"levelo://app?vid=4745dd8b-a0b2-49db-b417-8a28eecc51d4","ios":"levelo://app?vid=4745dd8b-a0b2-49db-b417-8a28eecc51d4"},"vehicle_type_id":"4","last_reported":1747595270,"current_range_meters":10000,"station_id":"","pricing_plan_id":"cebpf4jnsgd1na2vs0mg"},{"bike_id":"6ee7001e-07ad-49d2-9902-4e2095457f59","system_id":"levelo_inurba_marseille","lat":43.27085,"lon":5.42284,"is_reserved":false,"is_disabled":true,"rental_uris":{"android":"levelo://app?vid=6ee7001e-07ad-49d2-9902-4e2095457f59","ios":"levelo://app?vid=6ee7001e-07ad-49d2-9902-4e2095457f59"},"vehicle_type_id":"4","last_reported":1747595270,"current_range_meters":10800,"station_id":"ce4bhk92rcd13ifvqgb0","pricing_plan_id":"cebpf4jnsgd1na2vs0mg"},{"bike_id":"0d8fc6e4-ccb4-4ac9-922a-1fa2d169fada","system_id":"levelo_inurba_marseille","lat":43.29683,"lon":5.37301,"is_reserved":false,"is_disabled":false,"rental_uris":{"android":"levelo://app?vid=0d8fc6e4-ccb4-4ac9-922a-1fa2d169fada","ios":"levelo://app?vid=0d8fc6e4-ccb4-4ac9-922a-1fa2d169fada"},"vehicle_type_id":"4","last_reported":1747595270,"current_range_meters":10800,"station_id":"ce4bgk12rcd13ifvqbj0","pricing_plan_id":"cebpf4jnsgd1na2vs0mg"},{"bike_id":"c8f73ffb-446c-44e6-8604-a3b2421bd7f7","system_id":"levelo_inurba_marseille","lat":43.30145,"lon":5.39874,"is_reserved":false,"is_disabled":false,"rental_uris":{"android":"levelo://app?vid=c8f73ffb-446c-44e6-8604-a3b2421bd7f7","ios":"levelo://app?vid=c8f73ffb-446c-44e6-8604-a3b2421bd7f7"},"vehicle_type_id":"4","last_reported":1747595270,"current_range_meters":10800,"station_id":"ce4bh0h2rcd13ifvqd40","pricing_plan_id":"cebpf4jnsgd1na2vs0mg"},{"bike_id":"0cfae820-cdf5-4a99-8ff5-7860db81de27","system_id":"levelo_inurba_marseille","lat":43.29208,"lon":5.39334,"is_reserved":false,"is_disabled":false,"rental_uris":{"android":"levelo://app?vid=0cfae820-cdf5-4a99-8ff5-7860db81de27","ios":"levelo://app?vid=0cfae820-cdf5-4a99-8ff5-7860db81de27"},"vehicle_type_id":"4","last_reported":1747595270,"current_range_meters":10800,"station_id":"ce4bh192rcd13ifvqdd0","pricing_plan_id":"cebpf4jnsgd1na2vs0mg"},{"bike_id":"a1dbb4f0-633e-4736-8d12-49908eaa7cfe","system_id":"levelo_inurba_marseille","lat":43.292618,"lon":5.384268,"is_reserved":false,"is_disabled":false,"rental_uris":{"android":"levelo://app?vid=a1dbb4f0-633e-4736-8d12-49908eaa7cfe","ios":"levelo://app?vid=a1dbb4f0-633e-4736-8d12-49908eaa7cfe"},"vehicle_type_id":"4","last_reported":1747595270,"current_range_meters":10800,"station_id":"ce4bh692rcd13ifvqea0","pricing_plan_id":"cebpf4jnsgd1na2vs0mg"},{"bike_id":"8c1358ab-eac1-4c80-9f48-a739214cfa6d","system_id":"levelo_inurba_marseille","lat":43.28157,"lon":5.42646,"is_reserved":false,"is_disabled":false,"rental_uris":{"android":"levelo://app?vid=8c1358ab-eac1-4c80-9f48-a739214cfa6d","ios":"levelo://app?vid=8c1358ab-eac1-4c80-9f48-a739214cfa6d"},"vehicle_type_id":"4","last_reported":1747595270,"current_range_meters":10800,"station_id":"ce4bhnh2rcd13ifvqgug","pricing_plan_id":"cebpf4jnsgd1na2vs0mg"},{"bike_id":"a515324b-b6b1-49fd-8052-ab8b7a52af80","system_id":"levelo_inurba_marseille","lat":43.27997,"lon":5.41665,"is_reserved":false,"is_disabled":false,"rental_uris":{"android":"levelo://app?vid=a515324b-b6b1-49fd-8052-ab8b7a52af80","ios":"levelo://app?vid=a515324b-b6b1-49fd-8052-ab8b7a52af80"},"vehicle_type_id":"4","last_reported":1747595270,"current_range_meters":13600,"station_id":"ce4bho12rcd13ifvqh1g","pricing_plan_id":"cebpf4jnsgd1na2vs0mg"},{"bike_id":"95437dc3-db0c-4b24-a489-308ff3dd9d76","system_id":"levelo_inurba_marseille","lat":43.304287,"lon":5.39748,"is_reserved":false,"is_disabled":false,"rental_uris":{"android":"levelo://app?vid=95437dc3-db0c-4b24-a489-308ff3dd9d76","ios":"levelo://app?vid=95437dc3-db0c-4b24-a489-308ff3dd9d76"},"vehicle_type_id":"4","last_reported":1747595270,"current_range_meters":11200,"station_id":"ce4bh092rcd13ifvqd20","pricing_plan_id":"cebpf4jnsgd1na2vs0mg"},{"bike_id":"b386d8e2-6c97-4c2e-a252-1c6f2c8e7e11","system_id":"levelo_inurba_marseille","lat":43.29567,"lon":5.39961,"is_reserved":false,"is_disabled":false,"rental_uris":{"android":"levelo://app?vid=b386d8e2-6c97-4c2e-a252-1c6f2c8e7e11","ios":"levelo://app?vid=b386d8e2-6c97-4c2e-a252-1c6f2c8e7e11"},"vehicle_type_id":"4","last_reported":1747595270,"current_range_meters":11200,"station_id":"ce4bh312rcd13ifvqdj0","pricing_plan_id":"cebpf4jnsgd1na2vs0mg"},{"bike_id":"b26a0dd7-cbdc-4ab7-8def-31c4b88b224a","system_id":"levelo_inurba_marseille","lat":43.31222,"lon":5.39264,"is_reserved":false,"is_disabled":false,"rental_uris":{"android":"levelo://app?vid=b26a0dd7-cbdc-4ab7-8def-31c4b88b224a","ios":"levelo://app?vid=b26a0dd7-cbdc-4ab7-8def-31c4b88b224a"},"vehicle_type_id":"4","last_reported":1747595270,"current_range_meters":11600,"station_id":"","pricing_plan_id":"cebpf4jnsgd1na2vs0mg"},{"bike_id":"018dda92-33f7-4f9c-9997-940b853b8743","system_id":"levelo_inurba_marseille","lat":43.27416,"lon":5.39399,"is_reserved":false,"is_disabled":true,"rental_uris":{"android":"levelo://app?vid=018dda92-33f7-4f9c-9997-940b853b8743","ios":"levelo://app?vid=018dda92-33f7-4f9c-9997-940b853b8743"},"vehicle_type_id":"4","last_reported":1747595270,"current_range_meters":11600,"station_id":"ce4bhdp2rcd13ifvqf20","pricing_plan_id":"cebpf4jnsgd1na2vs0mg"},{"bike_id":"0393561d-0ff9-4160-b198-56337aa19e24","system_id":"levelo_inurba_marseille","lat":43.34136,"lon":5.40918,"is_reserved":false,"is_disabled":false,"rental_uris":{"android":"levelo://app?vid=0393561d-0ff9-4160-b198-56337aa19e24","ios":"levelo://app?vid=0393561d-0ff9-4160-b198-56337aa19e24"},"vehicle_type_id":"4","last_reported":1747595270,"current_range_meters":11600,"station_id":"ce4bhqh2rcd13ifvqhlg","pricing_plan_id":"cebpf4jnsgd1na2vs0mg"},{"bike_id":"51a33848-f0f0-40ec-b6c6-8948c992d932","system_id":"levelo_inurba_marseille","lat":43.25085,"lon":5.39521,"is_reserved":false,"is_disabled":false,"rental_uris":{"android":"levelo://app?vid=51a33848-f0f0-40ec-b6c6-8948c992d932","ios":"levelo://app?vid=51a33848-f0f0-40ec-b6c6-8948c992d932"},"vehicle_type_id":"4","last_reported":1747595270,"current_range_meters":11600,"station_id":"ce4bhm12rcd13ifvqgkg","pricing_plan_id":"cebpf4jnsgd1na2vs0mg"},{"bike_id":"dbd9adfb-0da0-4040-a991-4819d0c8764c","system_id":"levelo_inurba_marseille","lat":43.29799,"lon":5.40394,"is_reserved":false,"is_disabled":false,"rental_uris":{"android":"levelo://app?vid=dbd9adfb-0da0-4040-a991-4819d0c8764c","ios":"levelo://app?vid=dbd9adfb-0da0-4040-a991-4819d0c8764c"},"vehicle_type_id":"4","last_reported":1747595270,"current_range_meters":13600,"station_id":"ce4bh112rcd13ifvqd90","pricing_plan_id":"cebpf4jnsgd1na2vs0mg"},{"bike_id":"762b214a-b9f9-473b-8ade-38ceacf4b427","system_id":"levelo_inurba_marseille","lat":43.30216,"lon":5.39461,"is_reserved":false,"is_disabled":false,"rental_uris":{"android":"levelo://app?vid=762b214a-b9f9-473b-8ade-38ceacf4b427","ios":"levelo://app?vid=762b214a-b9f9-473b-8ade-38ceacf4b427"},"vehicle_type_id":"4","last_reported":1747595270,"current_range_meters":11600,"station_id":"ce4bh0p2rcd13ifvqd70","pricing_plan_id":"cebpf4jnsgd1na2vs0mg"},{"bike_id":"3fe4ee94-b4ae-4871-89c2-728f25947523","system_id":"levelo_inurba_marseille","lat":43.32369,"lon":5.38887,"is_reserved":false,"is_disabled":false,"rental_uris":{"android":"levelo://app?vid=3fe4ee94-b4ae-4871-89c2-728f25947523","ios":"levelo://app?vid=3fe4ee94-b4ae-4871-89c2-728f25947523"},"vehicle_type_id":"4","last_reported":1747595270,"current_range_meters":11600,"station_id":"ce4bhqp2rcd13ifvqhog","pricing_plan_id":"cebpf4jnsgd1na2vs0mg"},{"bike_id":"c33f6562-2e9a-4d7f-a016-4927115f29b8","system_id":"levelo_inurba_marseille","lat":43.29258,"lon":5.38449,"is_reserved":false,"is_disabled":false,"rental_uris":{"android":"levelo://app?vid=c33f6562-2e9a-4d7f-a016-4927115f29b8","ios":"levelo://app?vid=c33f6562-2e9a-4d7f-a016-4927115f29b8"},"vehicle_type_id":"4","last_reported":1747595270,"current_range_meters":12000,"station_id":"ce4bh692rcd13ifvqea0","pricing_plan_id":"cebpf4jnsgd1na2vs0mg"},{"bike_id":"51736835-8128-4840-b526-bf33d386a6e7","system_id":"levelo_inurba_marseille","lat":43.29903,"lon":5.436554,"is_reserved":false,"is_disabled":true,"rental_uris":{"android":"levelo://app?vid=51736835-8128-4840-b526-bf33d386a6e7","ios":"levelo://app?vid=51736835-8128-4840-b526-bf33d386a6e7"},"vehicle_type_id":"4","last_reported":1747595270,"current_range_meters":12000,"station_id":"ce4bhpp2rcd13ifvqhfg","pricing_plan_id":"cebpf4jnsgd1na2vs0mg"},{"bike_id":"d8da70fb-a079-460a-9e23-65ed45fe0088","system_id":"levelo_inurba_marseille","lat":43.255035,"lon":5.376437,"is_reserved":false,"is_disabled":true,"rental_uris":{"android":"levelo://app?vid=d8da70fb-a079-460a-9e23-65ed45fe0088","ios":"levelo://app?vid=d8da70fb-a079-460a-9e23-65ed45fe0088"},"vehicle_type_id":"4","last_reported":1747595270,"current_range_meters":12400,"station_id":"ce4bhh12rcd13ifvqff0","pricing_plan_id":"cebpf4jnsgd1na2vs0mg"},{"bike_id":"e3b78554-4d24-4011-be37-94a8a7d4a2fb","system_id":"levelo_inurba_marseille","lat":43.26483,"lon":5.39556,"is_reserved":false,"is_disabled":true,"rental_uris":{"android":"levelo://app?vid=e3b78554-4d24-4011-be37-94a8a7d4a2fb","ios":"levelo://app?vid=e3b78554-4d24-4011-be37-94a8a7d4a2fb"},"vehicle_type_id":"4","last_reported":1747595270,"current_range_meters":12400,"station_id":"ce4bhi12rcd13ifvqfq0","pricing_plan_id":"cebpf4jnsgd1na2vs0mg"},{"bike_id":"a8b5ed03-68f5-407d-842b-2752f32c49c7","system_id":"levelo_inurba_marseille","lat":43.28936,"lon":5.3663,"is_reserved":false,"is_disabled":false,"rental_uris":{"android":"levelo://app?vid=a8b5ed03-68f5-407d-842b-2752f32c49c7","ios":"levelo://app?vid=a8b5ed03-68f5-407d-842b-2752f32c49c7"},"vehicle_type_id":"4","last_reported":1747595270,"current_range_meters":12400,"station_id":"ce4bhap2rcd13ifvqek0","pricing_plan_id":"cebpf4jnsgd1na2vs0mg"},{"bike_id":"e55ed7bd-9a1f-4981-ad24-598470537ae5","system_id":"levelo_inurba_marseille","lat":43.30558,"lon":5.38391,"is_reserved":false,"is_disabled":false,"rental_uris":{"android":"levelo://app?vid=e55ed7bd-9a1f-4981-ad24-598470537ae5","ios":"levelo://app?vid=e55ed7bd-9a1f-4981-ad24-598470537ae5"},"vehicle_type_id":"4","last_reported":1747595270,"current_range_meters":12400,"station_id":"ce4bgg92rcd13ifvqb30","pricing_plan_id":"cebpf4jnsgd1na2vs0mg"},{"bike_id":"a913e0d3-4aeb-4e46-8239-bc7bbe64f9a1","system_id":"levelo_inurba_marseille","lat":43.3042,"lon":5.38886,"is_reserved":false,"is_disabled":false,"rental_uris":{"android":"levelo://app?vid=a913e0d3-4aeb-4e46-8239-bc7bbe64f9a1","ios":"levelo://app?vid=a913e0d3-4aeb-4e46-8239-bc7bbe64f9a1"},"vehicle_type_id":"4","last_reported":1747595270,"current_range_meters":12400,"station_id":"ce4bgk12rcd13ifvqbi0","pricing_plan_id":"cebpf4jnsgd1na2vs0mg"},{"bike_id":"67dfdb92-1250-4d24-a678-501891226453","system_id":"levelo_inurba_marseille","lat":43.29424,"lon":5.38613,"is_reserved":false,"is_disabled":false,"rental_uris":{"android":"levelo://app?vid=67dfdb92-1250-4d24-a678-501891226453","ios":"levelo://app?vid=67dfdb92-1250-4d24-a678-501891226453"},"vehicle_type_id":"4","last_reported":1747595270,"current_range_meters":12400,"station_id":"ce4bh2h2rcd13ifvqdh0","pricing_plan_id":"cebpf4jnsgd1na2vs0mg"},{"bike_id":"814e2930-a412-47af-849d-26da2abc07f6","system_id":"levelo_inurba_marseille","lat":43.278135,"lon":5.407098,"is_reserved":false,"is_disabled":true,"rental_uris":{"android":"levelo://app?vid=814e2930-a412-47af-849d-26da2abc07f6","ios":"levelo://app?vid=814e2930-a412-47af-849d-26da2abc07f6"},"vehicle_type_id":"4","last_reported":1747595270,"current_range_meters":12400,"station_id":"ce4bhnh2rcd13ifvqgtg","pricing_plan_id":"cebpf4jnsgd1na2vs0mg"},{"bike_id":"bfe2616a-ffe2-4507-a00a-544cad85d2ea","system_id":"levelo_inurba_marseille","lat":43.28217,"lon":5.39052,"is_reserved":false,"is_disabled":false,"rental_uris":{"android":"levelo://app?vid=bfe2616a-ffe2-4507-a00a-544cad85d2ea","ios":"levelo://app?vid=bfe2616a-ffe2-4507-a00a-544cad85d2ea"},"vehicle_type_id":"4","last_reported":1747595270,"current_range_meters":12800,"station_id":"","pricing_plan_id":"cebpf4jnsgd1na2vs0mg"},{"bike_id":"fa922033-5240-4d00-8a04-7369d98a6dcb","system_id":"levelo_inurba_marseille","lat":43.25104,"lon":5.4033,"is_reserved":false,"is_disabled":false,"rental_uris":{"android":"levelo://app?vid=fa922033-5240-4d00-8a04-7369d98a6dcb","ios":"levelo://app?vid=fa922033-5240-4d00-8a04-7369d98a6dcb"},"vehicle_type_id":"4","last_reported":1747595270,"current_range_meters":12800,"station_id":"ce4bhlh2rcd13ifvqgig","pricing_plan_id":"cebpf4jnsgd1na2vs0mg"},{"bike_id":"12c4d802-2c6a-4c71-888e-000ffe312a3f","system_id":"levelo_inurba_marseille","lat":43.32366,"lon":5.367564,"is_reserved":false,"is_disabled":false,"rental_uris":{"android":"levelo://app?vid=12c4d802-2c6a-4c71-888e-000ffe312a3f","ios":"levelo://app?vid=12c4d802-2c6a-4c71-888e-000ffe312a3f"},"vehicle_type_id":"4","last_reported":1747595270,"current_range_meters":12800,"station_id":"ce4bhsh2rcd13ifvqi2g","pricing_plan_id":"cebpf4jnsgd1na2vs0mg"},{"bike_id":"e409667f-ed84-45c8-9be9-90b4316bbd68","system_id":"levelo_inurba_marseille","lat":43.25083,"lon":5.395208,"is_reserved":false,"is_disabled":false,"rental_uris":{"android":"levelo://app?vid=e409667f-ed84-45c8-9be9-90b4316bbd68","ios":"levelo://app?vid=e409667f-ed84-45c8-9be9-90b4316bbd68"},"vehicle_type_id":"4","last_reported":1747595270,"current_range_meters":12800,"station_id":"ce4bhm12rcd13ifvqgkg","pricing_plan_id":"cebpf4jnsgd1na2vs0mg"},{"bike_id":"cc1ce612-4672-4f24-8dc8-ebc94a0d34b5","system_id":"levelo_inurba_marseille","lat":43.290277,"lon":5.386376,"is_reserved":false,"is_disabled":false,"rental_uris":{"android":"levelo://app?vid=cc1ce612-4672-4f24-8dc8-ebc94a0d34b5","ios":"levelo://app?vid=cc1ce612-4672-4f24-8dc8-ebc94a0d34b5"},"vehicle_type_id":"4","last_reported":1747595270,"current_range_meters":12800,"station_id":"ce4bh4p2rcd13ifvqe0g","pricing_plan_id":"cebpf4jnsgd1na2vs0mg"},{"bike_id":"67eb2d48-4a91-47f5-8520-695b8b16224f","system_id":"levelo_inurba_marseille","lat":43.30133,"lon":5.39848,"is_reserved":false,"is_disabled":false,"rental_uris":{"android":"levelo://app?vid=67eb2d48-4a91-47f5-8520-695b8b16224f","ios":"levelo://app?vid=67eb2d48-4a91-47f5-8520-695b8b16224f"},"vehicle_type_id":"4","last_reported":1747595270,"current_range_meters":12800,"station_id":"ce4bh0h2rcd13ifvqd40","pricing_plan_id":"cebpf4jnsgd1na2vs0mg"},{"bike_id":"94b6fe50-d913-4505-b6fa-868623f0a3c5","system_id":"levelo_inurba_marseille","lat":43.297216,"lon":5.36577,"is_reserved":false,"is_disabled":false,"rental_uris":{"android":"levelo://app?vid=94b6fe50-d913-4505-b6fa-868623f0a3c5","ios":"levelo://app?vid=94b6fe50-d913-4505-b6fa-868623f0a3c5"},"vehicle_type_id":"4","last_reported":1747595270,"current_range_meters":12800,"station_id":"ce4bgn12rcd13ifvqbt0","pricing_plan_id":"cebpf4jnsgd1na2vs0mg"},{"bike_id":"5c1cfafc-efda-4c44-a512-0b0d7a09f432","system_id":"levelo_inurba_marseille","lat":43.27216,"lon":5.39183,"is_reserved":false,"is_disabled":true,"rental_uris":{"android":"levelo://app?vid=5c1cfafc-efda-4c44-a512-0b0d7a09f432","ios":"levelo://app?vid=5c1cfafc-efda-4c44-a512-0b0d7a09f432"},"vehicle_type_id":"4","last_reported":1747595270,"current_range_meters":13600,"station_id":"ce4bhhp2rcd13ifvqfm0","pricing_plan_id":"cebpf4jnsgd1na2vs0mg"},{"bike_id":"a85be539-0282-4f5c-add7-ff454bb1404c","system_id":"levelo_inurba_marseille","lat":43.2792,"lon":5.39578,"is_reserved":false,"is_disabled":false,"rental_uris":{"android":"levelo://app?vid=a85be539-0282-4f5c-add7-ff454bb1404c","ios":"levelo://app?vid=a85be539-0282-4f5c-add7-ff454bb1404c"},"vehicle_type_id":"4","last_reported":1747595270,"current_range_meters":13600,"station_id":"ce4bhf92rcd13ifvqf40","pricing_plan_id":"cebpf4jnsgd1na2vs0mg"},{"bike_id":"356b2829-3ca0-4f70-8f78-46e79da913e0","system_id":"levelo_inurba_marseille","lat":43.2815,"lon":5.42661,"is_reserved":false,"is_disabled":false,"rental_uris":{"android":"levelo://app?vid=356b2829-3ca0-4f70-8f78-46e79da913e0","ios":"levelo://app?vid=356b2829-3ca0-4f70-8f78-46e79da913e0"},"vehicle_type_id":"4","last_reported":1747595270,"current_range_meters":13600,"station_id":"ce4bhnh2rcd13ifvqgug","pricing_plan_id":"cebpf4jnsgd1na2vs0mg"},{"bike_id":"e1f1b6f2-d146-4624-a9db-e0f1d2976e1e","system_id":"levelo_inurba_marseille","lat":43.25093,"lon":5.39518,"is_reserved":false,"is_disabled":false,"rental_uris":{"android":"levelo://app?vid=e1f1b6f2-d146-4624-a9db-e0f1d2976e1e","ios":"levelo://app?vid=e1f1b6f2-d146-4624-a9db-e0f1d2976e1e"},"vehicle_type_id":"4","last_reported":1747595270,"current_range_meters":13600,"station_id":"ce4bhm12rcd13ifvqgkg","pricing_plan_id":"cebpf4jnsgd1na2vs0mg"},{"bike_id":"bf2b2bfb-9733-4bda-908d-03391ae976cc","system_id":"levelo_inurba_marseille","lat":43.31195,"lon":5.41606,"is_reserved":false,"is_disabled":false,"rental_uris":{"android":"levelo://app?vid=bf2b2bfb-9733-4bda-908d-03391ae976cc","ios":"levelo://app?vid=bf2b2bfb-9733-4bda-908d-03391ae976cc"},"vehicle_type_id":"4","last_reported":1747595270,"current_range_meters":14000,"station_id":"","pricing_plan_id":"cebpf4jnsgd1na2vs0mg"},{"bike_id":"a3ac0926-e50e-4bc0-8978-84a66b4fc5d3","system_id":"levelo_inurba_marseille","lat":43.29196,"lon":5.39311,"is_reserved":false,"is_disabled":false,"rental_uris":{"android":"levelo://app?vid=a3ac0926-e50e-4bc0-8978-84a66b4fc5d3","ios":"levelo://app?vid=a3ac0926-e50e-4bc0-8978-84a66b4fc5d3"},"vehicle_type_id":"4","last_reported":1747595270,"current_range_meters":13600,"station_id":"ce4bh192rcd13ifvqdd0","pricing_plan_id":"cebpf4jnsgd1na2vs0mg"},{"bike_id":"eb9c8745-1588-4441-95fa-8cd57b7b1d2a","system_id":"levelo_inurba_marseille","lat":43.29563,"lon":5.42269,"is_reserved":false,"is_disabled":false,"rental_uris":{"android":"levelo://app?vid=eb9c8745-1588-4441-95fa-8cd57b7b1d2a","ios":"levelo://app?vid=eb9c8745-1588-4441-95fa-8cd57b7b1d2a"},"vehicle_type_id":"4","last_reported":1747595270,"current_range_meters":13600,"station_id":"ce4bhph2rcd13ifvqhdg","pricing_plan_id":"cebpf4jnsgd1na2vs0mg"},{"bike_id":"6eb8f542-ef83-435d-989a-556a70ea7b3c","system_id":"levelo_inurba_marseille","lat":43.28958,"lon":5.36631,"is_reserved":false,"is_disabled":false,"rental_uris":{"android":"levelo://app?vid=6eb8f542-ef83-435d-989a-556a70ea7b3c","ios":"levelo://app?vid=6eb8f542-ef83-435d-989a-556a70ea7b3c"},"vehicle_type_id":"4","last_reported":1747595270,"current_range_meters":13600,"station_id":"ce4bhap2rcd13ifvqek0","pricing_plan_id":"cebpf4jnsgd1na2vs0mg"},{"bike_id":"2d43dba1-6ff7-4289-91c8-c617d5aac932","system_id":"levelo_inurba_marseille","lat":43.295677,"lon":5.375007,"is_reserved":false,"is_disabled":true,"rental_uris":{"android":"levelo://app?vid=2d43dba1-6ff7-4289-91c8-c617d5aac932","ios":"levelo://app?vid=2d43dba1-6ff7-4289-91c8-c617d5aac932"},"vehicle_type_id":"4","last_reported":1747595270,"current_range_meters":14000,"station_id":"ce4bgh92rcd13ifvqb50","pricing_plan_id":"cebpf4jnsgd1na2vs0mg"},{"bike_id":"4b7c5fea-6b3e-41bc-9ccd-5bea79060561","system_id":"levelo_inurba_marseille","lat":43.31119,"lon":5.37758,"is_reserved":false,"is_disabled":false,"rental_uris":{"android":"levelo://app?vid=4b7c5fea-6b3e-41bc-9ccd-5bea79060561","ios":"levelo://app?vid=4b7c5fea-6b3e-41bc-9ccd-5bea79060561"},"vehicle_type_id":"4","last_reported":1747595270,"current_range_meters":14000,"station_id":"ce4bgt92rcd13ifvqcg0","pricing_plan_id":"cebpf4jnsgd1na2vs0mg"},{"bike_id":"e472a7f3-1962-44a9-b366-ed0d4cb32e38","system_id":"levelo_inurba_marseille","lat":43.26255,"lon":5.40429,"is_reserved":false,"is_disabled":false,"rental_uris":{"android":"levelo://app?vid=e472a7f3-1962-44a9-b366-ed0d4cb32e38","ios":"levelo://app?vid=e472a7f3-1962-44a9-b366-ed0d4cb32e38"},"vehicle_type_id":"4","last_reported":1747595270,"current_range_meters":14000,"station_id":"ce4bhmh2rcd13ifvqgmg","pricing_plan_id":"cebpf4jnsgd1na2vs0mg"},{"bike_id":"b96a4e7c-0de7-41da-b086-8b5a8e70a687","system_id":"levelo_inurba_marseille","lat":43.27219,"lon":5.39206,"is_reserved":false,"is_disabled":true,"rental_uris":{"android":"levelo://app?vid=b96a4e7c-0de7-41da-b086-8b5a8e70a687","ios":"levelo://app?vid=b96a4e7c-0de7-41da-b086-8b5a8e70a687"},"vehicle_type_id":"4","last_reported":1747595270,"current_range_meters":14000,"station_id":"ce4bhhp2rcd13ifvqfm0","pricing_plan_id":"cebpf4jnsgd1na2vs0mg"},{"bike_id":"a675f4e5-fc13-43cf-92f6-6acfa57913c0","system_id":"levelo_inurba_marseille","lat":43.290269,"lon":5.381223,"is_reserved":false,"is_disabled":true,"rental_uris":{"android":"levelo://app?vid=a675f4e5-fc13-43cf-92f6-6acfa57913c0","ios":"levelo://app?vid=a675f4e5-fc13-43cf-92f6-6acfa57913c0"},"vehicle_type_id":"4","last_reported":1747595270,"current_range_meters":14000,"station_id":"ce4bh4p2rcd13ifvqe1g","pricing_plan_id":"cebpf4jnsgd1na2vs0mg"},{"bike_id":"d60138cc-d1fe-426c-9536-5a41dbfe71a8","system_id":"levelo_inurba_marseille","lat":43.25755,"lon":5.41079,"is_reserved":false,"is_disabled":false,"rental_uris":{"android":"levelo://app?vid=d60138cc-d1fe-426c-9536-5a41dbfe71a8","ios":"levelo://app?vid=d60138cc-d1fe-426c-9536-5a41dbfe71a8"},"vehicle_type_id":"4","last_reported":1747595270,"current_range_meters":14000,"station_id":"","pricing_plan_id":"cebpf4jnsgd1na2vs0mg"},{"bike_id":"ed34fad4-c48e-4c1a-b9b1-8eb1cd77d573","system_id":"levelo_inurba_marseille","lat":43.30957,"lon":5.38626,"is_reserved":false,"is_disabled":false,"rental_uris":{"android":"levelo://app?vid=ed34fad4-c48e-4c1a-b9b1-8eb1cd77d573","ios":"levelo://app?vid=ed34fad4-c48e-4c1a-b9b1-8eb1cd77d573"},"vehicle_type_id":"4","last_reported":1747595270,"current_range_meters":14000,"station_id":"ce4bgv12rcd13ifvqcp0","pricing_plan_id":"cebpf4jnsgd1na2vs0mg"},{"bike_id":"399d0a62-5cfb-44e8-8b54-3bb7c062937c","system_id":"levelo_inurba_marseille","lat":43.28976,"lon":5.37836,"is_reserved":false,"is_disabled":false,"rental_uris":{"android":"levelo://app?vid=399d0a62-5cfb-44e8-8b54-3bb7c062937c","ios":"levelo://app?vid=399d0a62-5cfb-44e8-8b54-3bb7c062937c"},"vehicle_type_id":"4","last_reported":1747595270,"current_range_meters":14400,"station_id":"ce4bh9p2rcd13ifvqed0","pricing_plan_id":"cebpf4jnsgd1na2vs0mg"},{"bike_id":"19456222-7d38-48cf-a950-06daadd07927","system_id":"levelo_inurba_marseille","lat":43.25019,"lon":5.37544,"is_reserved":false,"is_disabled":false,"rental_uris":{"android":"levelo://app?vid=19456222-7d38-48cf-a950-06daadd07927","ios":"levelo://app?vid=19456222-7d38-48cf-a950-06daadd07927"},"vehicle_type_id":"4","last_reported":1747595270,"current_range_meters":14400,"station_id":"","pricing_plan_id":"cebpf4jnsgd1na2vs0mg"},{"bike_id":"cf81ba9f-4910-44ec-9b06-44209e8c04de","system_id":"levelo_inurba_marseille","lat":43.236576,"lon":5.362424,"is_reserved":false,"is_disabled":false,"rental_uris":{"android":"levelo://app?vid=cf81ba9f-4910-44ec-9b06-44209e8c04de","ios":"levelo://app?vid=cf81ba9f-4910-44ec-9b06-44209e8c04de"},"vehicle_type_id":"4","last_reported":1747595270,"current_range_meters":14400,"station_id":"","pricing_plan_id":"cebpf4jnsgd1na2vs0mg"},{"bike_id":"2c5b0dad-3a5c-4908-8ce2-98d1673660b3","system_id":"levelo_inurba_marseille","lat":43.28702,"lon":5.37381,"is_reserved":false,"is_disabled":false,"rental_uris":{"android":"levelo://app?vid=2c5b0dad-3a5c-4908-8ce2-98d1673660b3","ios":"levelo://app?vid=2c5b0dad-3a5c-4908-8ce2-98d1673660b3"},"vehicle_type_id":"4","last_reported":1747595270,"current_range_meters":14400,"station_id":"ce4bh3p2rcd13ifvqdq0","pricing_plan_id":"cebpf4jnsgd1na2vs0mg"},{"bike_id":"7e85683c-0527-4a85-9ab8-35d06ff2f9ad","system_id":"levelo_inurba_marseille","lat":43.294169,"lon":5.386004,"is_reserved":false,"is_disabled":true,"rental_uris":{"android":"levelo://app?vid=7e85683c-0527-4a85-9ab8-35d06ff2f9ad","ios":"levelo://app?vid=7e85683c-0527-4a85-9ab8-35d06ff2f9ad"},"vehicle_type_id":"4","last_reported":1747595270,"current_range_meters":14400,"station_id":"ce4bh2h2rcd13ifvqdh0","pricing_plan_id":"cebpf4jnsgd1na2vs0mg"},{"bike_id":"e8c092b6-ea1e-49b4-86f2-ae6140f06f6f","system_id":"levelo_inurba_marseille","lat":43.289317,"lon":5.384047,"is_reserved":false,"is_disabled":true,"rental_uris":{"android":"levelo://app?vid=e8c092b6-ea1e-49b4-86f2-ae6140f06f6f","ios":"levelo://app?vid=e8c092b6-ea1e-49b4-86f2-ae6140f06f6f"},"vehicle_type_id":"4","last_reported":1747595270,"current_range_meters":14400,"station_id":"ce4bh612rcd13ifvqe6g","pricing_plan_id":"cebpf4jnsgd1na2vs0mg"},{"bike_id":"86603db7-b462-4e72-8622-a2dee8bb2920","system_id":"levelo_inurba_marseille","lat":43.337444,"lon":5.374475,"is_reserved":false,"is_disabled":false,"rental_uris":{"android":"levelo://app?vid=86603db7-b462-4e72-8622-a2dee8bb2920","ios":"levelo://app?vid=86603db7-b462-4e72-8622-a2dee8bb2920"},"vehicle_type_id":"4","last_reported":1747595270,"current_range_meters":14400,"station_id":"","pricing_plan_id":"cebpf4jnsgd1na2vs0mg"},{"bike_id":"f10c7f80-369b-498b-8d67-1d2ccccfe061","system_id":"levelo_inurba_marseille","lat":43.28702,"lon":5.37399,"is_reserved":false,"is_disabled":false,"rental_uris":{"android":"levelo://app?vid=f10c7f80-369b-498b-8d67-1d2ccccfe061","ios":"levelo://app?vid=f10c7f80-369b-498b-8d67-1d2ccccfe061"},"vehicle_type_id":"4","last_reported":1747595270,"current_range_meters":14400,"station_id":"ce4bh3p2rcd13ifvqdq0","pricing_plan_id":"cebpf4jnsgd1na2vs0mg"},{"bike_id":"1e7722b5-32b9-4743-9bdf-7983c591f959","system_id":"levelo_inurba_marseille","lat":43.29421,"lon":5.38622,"is_reserved":false,"is_disabled":false,"rental_uris":{"android":"levelo://app?vid=1e7722b5-32b9-4743-9bdf-7983c591f959","ios":"levelo://app?vid=1e7722b5-32b9-4743-9bdf-7983c591f959"},"vehicle_type_id":"4","last_reported":1747595270,"current_range_meters":14800,"station_id":"ce4bh2h2rcd13ifvqdh0","pricing_plan_id":"cebpf4jnsgd1na2vs0mg"},{"bike_id":"bcbdbd69-7be8-42f8-a855-a4358565de8f","system_id":"levelo_inurba_marseille","lat":43.2774,"lon":5.41411,"is_reserved":false,"is_disabled":false,"rental_uris":{"android":"levelo://app?vid=bcbdbd69-7be8-42f8-a855-a4358565de8f","ios":"levelo://app?vid=bcbdbd69-7be8-42f8-a855-a4358565de8f"},"vehicle_type_id":"4","last_reported":1747595270,"current_range_meters":14800,"station_id":"","pricing_plan_id":"cebpf4jnsgd1na2vs0mg"},{"bike_id":"9973af1a-f06a-4f94-89f9-647438194ded","system_id":"levelo_inurba_marseille","lat":43.24388,"lon":5.37041,"is_reserved":false,"is_disabled":false,"rental_uris":{"android":"levelo://app?vid=9973af1a-f06a-4f94-89f9-647438194ded","ios":"levelo://app?vid=9973af1a-f06a-4f94-89f9-647438194ded"},"vehicle_type_id":"4","last_reported":1747595270,"current_range_meters":15200,"station_id":"ce4bhhh2rcd13ifvqfk0","pricing_plan_id":"cebpf4jnsgd1na2vs0mg"},{"bike_id":"cd882363-6fba-44e4-8f5c-05592e9ce81a","system_id":"levelo_inurba_marseille","lat":43.26227,"lon":5.40464,"is_reserved":false,"is_disabled":false,"rental_uris":{"android":"levelo://app?vid=cd882363-6fba-44e4-8f5c-05592e9ce81a","ios":"levelo://app?vid=cd882363-6fba-44e4-8f5c-05592e9ce81a"},"vehicle_type_id":"4","last_reported":1747595270,"current_range_meters":15200,"station_id":"ce4bhmh2rcd13ifvqgmg","pricing_plan_id":"cebpf4jnsgd1na2vs0mg"},{"bike_id":"954f9a2f-3d92-4afe-8ccd-55ebda55dfe0","system_id":"levelo_inurba_marseille","lat":43.270747,"lon":5.422717,"is_reserved":false,"is_disabled":false,"rental_uris":{"android":"levelo://app?vid=954f9a2f-3d92-4afe-8ccd-55ebda55dfe0","ios":"levelo://app?vid=954f9a2f-3d92-4afe-8ccd-55ebda55dfe0"},"vehicle_type_id":"4","last_reported":1747595270,"current_range_meters":15200,"station_id":"ce4bhk92rcd13ifvqgb0","pricing_plan_id":"cebpf4jnsgd1na2vs0mg"},{"bike_id":"2d62eadf-1085-43ac-90f7-cc513094af05","system_id":"levelo_inurba_marseille","lat":43.308815,"lon":5.39653,"is_reserved":false,"is_disabled":false,"rental_uris":{"android":"levelo://app?vid=2d62eadf-1085-43ac-90f7-cc513094af05","ios":"levelo://app?vid=2d62eadf-1085-43ac-90f7-cc513094af05"},"vehicle_type_id":"4","last_reported":1747595270,"current_range_meters":16000,"station_id":"ce4bh012rcd13ifvqcv0","pricing_plan_id":"cebpf4jnsgd1na2vs0mg"},{"bike_id":"084b4175-becf-4644-941e-86c69e78d6e0","system_id":"levelo_inurba_marseille","lat":43.27951,"lon":5.41032,"is_reserved":false,"is_disabled":false,"rental_uris":{"android":"levelo://app?vid=084b4175-becf-4644-941e-86c69e78d6e0","ios":"levelo://app?vid=084b4175-becf-4644-941e-86c69e78d6e0"},"vehicle_type_id":"4","last_reported":1747595270,"current_range_meters":16000,"station_id":"ce4bhnp2rcd13ifvqh0g","pricing_plan_id":"cebpf4jnsgd1na2vs0mg"},{"bike_id":"58997cab-e18e-47cb-91fb-370343bb769a","system_id":"levelo_inurba_marseille","lat":43.28038,"lon":5.36949,"is_reserved":false,"is_disabled":false,"rental_uris":{"android":"levelo://app?vid=58997cab-e18e-47cb-91fb-370343bb769a","ios":"levelo://app?vid=58997cab-e18e-47cb-91fb-370343bb769a"},"vehicle_type_id":"4","last_reported":1747595270,"current_range_meters":16000,"station_id":"ce4bha12rcd13ifvqef0","pricing_plan_id":"cebpf4jnsgd1na2vs0mg"},{"bike_id":"8ba2bf91-ba8a-4ead-9bc5-76377ce2677c","system_id":"levelo_inurba_marseille","lat":43.286102,"lon":5.370671,"is_reserved":false,"is_disabled":false,"rental_uris":{"android":"levelo://app?vid=8ba2bf91-ba8a-4ead-9bc5-76377ce2677c","ios":"levelo://app?vid=8ba2bf91-ba8a-4ead-9bc5-76377ce2677c"},"vehicle_type_id":"4","last_reported":1747595270,"current_range_meters":16000,"station_id":"ce4bht12rcd13ifvqi60","pricing_plan_id":"cebpf4jnsgd1na2vs0mg"},{"bike_id":"e2483e33-e22f-4969-8812-f7cdcc75c59a","system_id":"levelo_inurba_marseille","lat":43.32357,"lon":5.36745,"is_reserved":false,"is_disabled":false,"rental_uris":{"android":"levelo://app?vid=e2483e33-e22f-4969-8812-f7cdcc75c59a","ios":"levelo://app?vid=e2483e33-e22f-4969-8812-f7cdcc75c59a"},"vehicle_type_id":"4","last_reported":1747595270,"current_range_meters":16000,"station_id":"ce4bhsh2rcd13ifvqi2g","pricing_plan_id":"cebpf4jnsgd1na2vs0mg"},{"bike_id":"f0a690f3-aaef-41ef-91ff-088837a16951","system_id":"levelo_inurba_marseille","lat":43.25734,"lon":5.41088,"is_reserved":false,"is_disabled":false,"rental_uris":{"android":"levelo://app?vid=f0a690f3-aaef-41ef-91ff-088837a16951","ios":"levelo://app?vid=f0a690f3-aaef-41ef-91ff-088837a16951"},"vehicle_type_id":"4","last_reported":1747595270,"current_range_meters":16000,"station_id":"ce4bhkp2rcd13ifvqgd0","pricing_plan_id":"cebpf4jnsgd1na2vs0mg"},{"bike_id":"43d95b57-3a1d-4bd4-b0f5-537a29764826","system_id":"levelo_inurba_marseille","lat":43.29261,"lon":5.40905,"is_reserved":false,"is_disabled":false,"rental_uris":{"android":"levelo://app?vid=43d95b57-3a1d-4bd4-b0f5-537a29764826","ios":"levelo://app?vid=43d95b57-3a1d-4bd4-b0f5-537a29764826"},"vehicle_type_id":"4","last_reported":1747595270,"current_range_meters":16000,"station_id":"ce4bh192rcd13ifvqdc0","pricing_plan_id":"cebpf4jnsgd1na2vs0mg"},{"bike_id":"46c2000f-367f-4e40-884c-fe26869e046d","system_id":"levelo_inurba_marseille","lat":43.27641,"lon":5.3892,"is_reserved":false,"is_disabled":false,"rental_uris":{"android":"levelo://app?vid=46c2000f-367f-4e40-884c-fe26869e046d","ios":"levelo://app?vid=46c2000f-367f-4e40-884c-fe26869e046d"},"vehicle_type_id":"4","last_reported":1747595270,"current_range_meters":16000,"station_id":"ce4bhi12rcd13ifvqfo0","pricing_plan_id":"cebpf4jnsgd1na2vs0mg"},{"bike_id":"a0ef91e8-eab4-4e92-9764-f8b59bed148c","system_id":"levelo_inurba_marseille","lat":43.31353,"lon":5.38503,"is_reserved":false,"is_disabled":false,"rental_uris":{"android":"levelo://app?vid=a0ef91e8-eab4-4e92-9764-f8b59bed148c","ios":"levelo://app?vid=a0ef91e8-eab4-4e92-9764-f8b59bed148c"},"vehicle_type_id":"4","last_reported":1747595270,"current_range_meters":16000,"station_id":"ce4bgt92rcd13ifvqcf0","pricing_plan_id":"cebpf4jnsgd1na2vs0mg"},{"bike_id":"cbf22af3-6c8f-4023-8971-3961263cafe8","system_id":"levelo_inurba_marseille","lat":43.287085,"lon":5.37389,"is_reserved":false,"is_disabled":true,"rental_uris":{"android":"levelo://app?vid=cbf22af3-6c8f-4023-8971-3961263cafe8","ios":"levelo://app?vid=cbf22af3-6c8f-4023-8971-3961263cafe8"},"vehicle_type_id":"4","last_reported":1747595270,"current_range_meters":16000,"station_id":"ce4bh3p2rcd13ifvqdq0","pricing_plan_id":"cebpf4jnsgd1na2vs0mg"},{"bike_id":"6fffffb6-8840-4f31-b324-9f014f24b55a","system_id":"levelo_inurba_marseille","lat":43.23183,"lon":5.39984,"is_reserved":false,"is_disabled":false,"rental_uris":{"android":"levelo://app?vid=6fffffb6-8840-4f31-b324-9f014f24b55a","ios":"levelo://app?vid=6fffffb6-8840-4f31-b324-9f014f24b55a"},"vehicle_type_id":"4","last_reported":1747595270,"current_range_meters":16000,"station_id":"ce4bhn12rcd13ifvqgqg","pricing_plan_id":"cebpf4jnsgd1na2vs0mg"},{"bike_id":"26ae3f71-446b-4d48-9715-d0cb78472fbf","system_id":"levelo_inurba_marseille","lat":43.31187,"lon":5.36994,"is_reserved":false,"is_disabled":false,"rental_uris":{"android":"levelo://app?vid=26ae3f71-446b-4d48-9715-d0cb78472fbf","ios":"levelo://app?vid=26ae3f71-446b-4d48-9715-d0cb78472fbf"},"vehicle_type_id":"4","last_reported":1747595270,"current_range_meters":16000,"station_id":"","pricing_plan_id":"cebpf4jnsgd1na2vs0mg"},{"bike_id":"83716387-b62a-46f5-aaba-b1b2f0e6a3a9","system_id":"levelo_inurba_marseille","lat":43.2755,"lon":5.38443,"is_reserved":false,"is_disabled":false,"rental_uris":{"android":"levelo://app?vid=83716387-b62a-46f5-aaba-b1b2f0e6a3a9","ios":"levelo://app?vid=83716387-b62a-46f5-aaba-b1b2f0e6a3a9"},"vehicle_type_id":"4","last_reported":1747595270,"current_range_meters":16000,"station_id":"ce4bhh92rcd13ifvqfi0","pricing_plan_id":"cebpf4jnsgd1na2vs0mg"},{"bike_id":"dc51b593-a5cd-4446-8449-f319ed28e729","system_id":"levelo_inurba_marseille","lat":43.310693,"lon":5.400997,"is_reserved":false,"is_disabled":false,"rental_uris":{"android":"levelo://app?vid=dc51b593-a5cd-4446-8449-f319ed28e729","ios":"levelo://app?vid=dc51b593-a5cd-4446-8449-f319ed28e729"},"vehicle_type_id":"4","last_reported":1747595270,"current_range_meters":16400,"station_id":"","pricing_plan_id":"cebpf4jnsgd1na2vs0mg"},{"bike_id":"c7499386-dc2a-4a4c-830d-bea3ba4afc63","system_id":"levelo_inurba_marseille","lat":43.29814,"lon":5.38119,"is_reserved":false,"is_disabled":true,"rental_uris":{"android":"levelo://app?vid=c7499386-dc2a-4a4c-830d-bea3ba4afc63","ios":"levelo://app?vid=c7499386-dc2a-4a4c-830d-bea3ba4afc63"},"vehicle_type_id":"4","last_reported":1747595270,"current_range_meters":16400,"station_id":"ce4bgip2rcd13ifvqbb0","pricing_plan_id":"cebpf4jnsgd1na2vs0mg"},{"bike_id":"6b18642e-3127-4e1f-a15b-b3d515f4e125","system_id":"levelo_inurba_marseille","lat":43.3044,"lon":5.39748,"is_reserved":false,"is_disabled":false,"rental_uris":{"android":"levelo://app?vid=6b18642e-3127-4e1f-a15b-b3d515f4e125","ios":"levelo://app?vid=6b18642e-3127-4e1f-a15b-b3d515f4e125"},"vehicle_type_id":"4","last_reported":1747595270,"current_range_meters":16400,"station_id":"ce4bh092rcd13ifvqd20","pricing_plan_id":"cebpf4jnsgd1na2vs0mg"},{"bike_id":"bbe3db07-51cb-41d8-9238-94b69c6dda0e","system_id":"levelo_inurba_marseille","lat":43.32819,"lon":5.38901,"is_reserved":false,"is_disabled":false,"rental_uris":{"android":"levelo://app?vid=bbe3db07-51cb-41d8-9238-94b69c6dda0e","ios":"levelo://app?vid=bbe3db07-51cb-41d8-9238-94b69c6dda0e"},"vehicle_type_id":"4","last_reported":1747595270,"current_range_meters":16400,"station_id":"","pricing_plan_id":"cebpf4jnsgd1na2vs0mg"},{"bike_id":"90bb7a19-74dd-4320-94b3-1629a4028834","system_id":"levelo_inurba_marseille","lat":43.217462,"lon":5.346309,"is_reserved":false,"is_disabled":true,"rental_uris":{"android":"levelo://app?vid=90bb7a19-74dd-4320-94b3-1629a4028834","ios":"levelo://app?vid=90bb7a19-74dd-4320-94b3-1629a4028834"},"vehicle_type_id":"4","last_reported":1747595270,"current_range_meters":16400,"station_id":"st_cvj6r9ubvosntc0bgbag","pricing_plan_id":"cebpf4jnsgd1na2vs0mg"},{"bike_id":"9482dae4-50ae-40b9-a422-e1e3a25b2398","system_id":"levelo_inurba_marseille","lat":43.30889,"lon":5.39654,"is_reserved":false,"is_disabled":false,"rental_uris":{"android":"levelo://app?vid=9482dae4-50ae-40b9-a422-e1e3a25b2398","ios":"levelo://app?vid=9482dae4-50ae-40b9-a422-e1e3a25b2398"},"vehicle_type_id":"4","last_reported":1747595270,"current_range_meters":16400,"station_id":"ce4bh012rcd13ifvqcv0","pricing_plan_id":"cebpf4jnsgd1na2vs0mg"},{"bike_id":"1dcdcf4d-a775-45b7-ba77-12918f1606de","system_id":"levelo_inurba_marseille","lat":43.29096,"lon":5.38138,"is_reserved":false,"is_disabled":false,"rental_uris":{"android":"levelo://app?vid=1dcdcf4d-a775-45b7-ba77-12918f1606de","ios":"levelo://app?vid=1dcdcf4d-a775-45b7-ba77-12918f1606de"},"vehicle_type_id":"4","last_reported":1747595270,"current_range_meters":16400,"station_id":"ce4bh512rcd13ifvqe2g","pricing_plan_id":"cebpf4jnsgd1na2vs0mg"},{"bike_id":"1ba05954-8b84-477a-8bea-5672e680d92e","system_id":"levelo_inurba_marseille","lat":43.24664,"lon":5.38166,"is_reserved":false,"is_disabled":false,"rental_uris":{"android":"levelo://app?vid=1ba05954-8b84-477a-8bea-5672e680d92e","ios":"levelo://app?vid=1ba05954-8b84-477a-8bea-5672e680d92e"},"vehicle_type_id":"4","last_reported":1747595270,"current_range_meters":16400,"station_id":"ce4bhih2rcd13ifvqfr0","pricing_plan_id":"cebpf4jnsgd1na2vs0mg"},{"bike_id":"fba103a6-30ce-481c-a05a-9411e513bfcf","system_id":"levelo_inurba_marseille","lat":43.25943,"lon":5.40904,"is_reserved":false,"is_disabled":false,"rental_uris":{"android":"levelo://app?vid=fba103a6-30ce-481c-a05a-9411e513bfcf","ios":"levelo://app?vid=fba103a6-30ce-481c-a05a-9411e513bfcf"},"vehicle_type_id":"4","last_reported":1747595270,"current_range_meters":16400,"station_id":"ce4bhm92rcd13ifvqglg","pricing_plan_id":"cebpf4jnsgd1na2vs0mg"},{"bike_id":"41389e7c-6f3c-410d-88e7-f591b55a002a","system_id":"levelo_inurba_marseille","lat":43.240627,"lon":5.377615,"is_reserved":false,"is_disabled":false,"rental_uris":{"android":"levelo://app?vid=41389e7c-6f3c-410d-88e7-f591b55a002a","ios":"levelo://app?vid=41389e7c-6f3c-410d-88e7-f591b55a002a"},"vehicle_type_id":"4","last_reported":1747595270,"current_range_meters":16800,"station_id":"ce4bhnp2rcd13ifvqgvg","pricing_plan_id":"cebpf4jnsgd1na2vs0mg"},{"bike_id":"50ffb605-90dd-4a75-ad47-03bffd5ee4e1","system_id":"levelo_inurba_marseille","lat":43.28692,"lon":5.37379,"is_reserved":false,"is_disabled":false,"rental_uris":{"android":"levelo://app?vid=50ffb605-90dd-4a75-ad47-03bffd5ee4e1","ios":"levelo://app?vid=50ffb605-90dd-4a75-ad47-03bffd5ee4e1"},"vehicle_type_id":"4","last_reported":1747595270,"current_range_meters":16800,"station_id":"ce4bh3p2rcd13ifvqdq0","pricing_plan_id":"cebpf4jnsgd1na2vs0mg"},{"bike_id":"62bd13ec-e5aa-4cd0-90ff-46c833daf45a","system_id":"levelo_inurba_marseille","lat":43.29254,"lon":5.38431,"is_reserved":false,"is_disabled":false,"rental_uris":{"android":"levelo://app?vid=62bd13ec-e5aa-4cd0-90ff-46c833daf45a","ios":"levelo://app?vid=62bd13ec-e5aa-4cd0-90ff-46c833daf45a"},"vehicle_type_id":"4","last_reported":1747595270,"current_range_meters":16800,"station_id":"ce4bh692rcd13ifvqea0","pricing_plan_id":"cebpf4jnsgd1na2vs0mg"},{"bike_id":"b0747733-8153-40e1-bc45-54a4b62c2ee2","system_id":"levelo_inurba_marseille","lat":43.29618,"lon":5.37724,"is_reserved":false,"is_disabled":false,"rental_uris":{"android":"levelo://app?vid=b0747733-8153-40e1-bc45-54a4b62c2ee2","ios":"levelo://app?vid=b0747733-8153-40e1-bc45-54a4b62c2ee2"},"vehicle_type_id":"4","last_reported":1747595270,"current_range_meters":16400,"station_id":"ce4bgi92rcd13ifvqb90","pricing_plan_id":"cebpf4jnsgd1na2vs0mg"},{"bike_id":"d39cae16-34b5-4b82-8fc6-cac28c889070","system_id":"levelo_inurba_marseille","lat":43.29477,"lon":5.38673,"is_reserved":false,"is_disabled":true,"rental_uris":{"android":"levelo://app?vid=d39cae16-34b5-4b82-8fc6-cac28c889070","ios":"levelo://app?vid=d39cae16-34b5-4b82-8fc6-cac28c889070"},"vehicle_type_id":"4","last_reported":1747595270,"current_range_meters":16800,"station_id":"","pricing_plan_id":"cebpf4jnsgd1na2vs0mg"},{"bike_id":"f4f67732-76dd-4f16-9815-a8338fbccc89","system_id":"levelo_inurba_marseille","lat":43.30303,"lon":5.39212,"is_reserved":false,"is_disabled":false,"rental_uris":{"android":"levelo://app?vid=f4f67732-76dd-4f16-9815-a8338fbccc89","ios":"levelo://app?vid=f4f67732-76dd-4f16-9815-a8338fbccc89"},"vehicle_type_id":"4","last_reported":1747595270,"current_range_meters":16800,"station_id":"ce4bgkh2rcd13ifvqbk0","pricing_plan_id":"cebpf4jnsgd1na2vs0mg"},{"bike_id":"bffbaf88-357a-4e87-a68c-a9a27a6e01e6","system_id":"levelo_inurba_marseille","lat":43.262282,"lon":5.421238,"is_reserved":false,"is_disabled":false,"rental_uris":{"android":"levelo://app?vid=bffbaf88-357a-4e87-a68c-a9a27a6e01e6","ios":"levelo://app?vid=bffbaf88-357a-4e87-a68c-a9a27a6e01e6"},"vehicle_type_id":"4","last_reported":1747595270,"current_range_meters":17200,"station_id":"","pricing_plan_id":"cebpf4jnsgd1na2vs0mg"},{"bike_id":"fca86a55-22f2-4b7a-b972-9f8946fa6983","system_id":"levelo_inurba_marseille","lat":43.30313,"lon":5.39203,"is_reserved":false,"is_disabled":true,"rental_uris":{"android":"levelo://app?vid=fca86a55-22f2-4b7a-b972-9f8946fa6983","ios":"levelo://app?vid=fca86a55-22f2-4b7a-b972-9f8946fa6983"},"vehicle_type_id":"4","last_reported":1747595270,"current_range_meters":17200,"station_id":"ce4bgkh2rcd13ifvqbk0","pricing_plan_id":"cebpf4jnsgd1na2vs0mg"},{"bike_id":"ecd351bd-1899-449a-bf8d-c7d816e4ff91","system_id":"levelo_inurba_marseille","lat":43.28571,"lon":5.39496,"is_reserved":false,"is_disabled":false,"rental_uris":{"android":"levelo://app?vid=ecd351bd-1899-449a-bf8d-c7d816e4ff91","ios":"levelo://app?vid=ecd351bd-1899-449a-bf8d-c7d816e4ff91"},"vehicle_type_id":"4","last_reported":1747595270,"current_range_meters":17200,"station_id":"ce4bh292rcd13ifvqdg0","pricing_plan_id":"cebpf4jnsgd1na2vs0mg"},{"bike_id":"477bf49d-04fb-48c6-9dfe-f96deb783f31","system_id":"levelo_inurba_marseille","lat":43.28491,"lon":5.38518,"is_reserved":false,"is_disabled":true,"rental_uris":{"android":"levelo://app?vid=477bf49d-04fb-48c6-9dfe-f96deb783f31","ios":"levelo://app?vid=477bf49d-04fb-48c6-9dfe-f96deb783f31"},"vehicle_type_id":"4","last_reported":1747595270,"current_range_meters":17200,"station_id":"ce4bh8p2rcd13ifvqeb0","pricing_plan_id":"cebpf4jnsgd1na2vs0mg"},{"bike_id":"797b35d6-af86-4f64-a3fe-27fa40e53456","system_id":"levelo_inurba_marseille","lat":43.30638,"lon":5.40084,"is_reserved":false,"is_disabled":false,"rental_uris":{"android":"levelo://app?vid=797b35d6-af86-4f64-a3fe-27fa40e53456","ios":"levelo://app?vid=797b35d6-af86-4f64-a3fe-27fa40e53456"},"vehicle_type_id":"4","last_reported":1747595270,"current_range_meters":17200,"station_id":"ce4bh112rcd13ifvqda0","pricing_plan_id":"cebpf4jnsgd1na2vs0mg"},{"bike_id":"06c5d935-141e-4a2a-8a1c-99c6c936abb9","system_id":"levelo_inurba_marseille","lat":43.30736,"lon":5.4243,"is_reserved":false,"is_disabled":false,"rental_uris":{"android":"levelo://app?vid=06c5d935-141e-4a2a-8a1c-99c6c936abb9","ios":"levelo://app?vid=06c5d935-141e-4a2a-8a1c-99c6c936abb9"},"vehicle_type_id":"4","last_reported":1747595270,"current_range_meters":17200,"station_id":"st_cvj6ca6bvosntc0bfgr0","pricing_plan_id":"cebpf4jnsgd1na2vs0mg"},{"bike_id":"74779d32-87cf-4f23-b047-7955c944ddd2","system_id":"levelo_inurba_marseille","lat":43.29782,"lon":5.3812,"is_reserved":false,"is_disabled":true,"rental_uris":{"android":"levelo://app?vid=74779d32-87cf-4f23-b047-7955c944ddd2","ios":"levelo://app?vid=74779d32-87cf-4f23-b047-7955c944ddd2"},"vehicle_type_id":"4","last_reported":1747595270,"current_range_meters":17200,"station_id":"ce4bgip2rcd13ifvqbb0","pricing_plan_id":"cebpf4jnsgd1na2vs0mg"},{"bike_id":"21cd20d6-11f9-4f1f-9f1a-6281996284a7","system_id":"levelo_inurba_marseille","lat":43.30439,"lon":5.38879,"is_reserved":false,"is_disabled":false,"rental_uris":{"android":"levelo://app?vid=21cd20d6-11f9-4f1f-9f1a-6281996284a7","ios":"levelo://app?vid=21cd20d6-11f9-4f1f-9f1a-6281996284a7"},"vehicle_type_id":"4","last_reported":1747595270,"current_range_meters":17200,"station_id":"ce4bgk12rcd13ifvqbi0","pricing_plan_id":"cebpf4jnsgd1na2vs0mg"},{"bike_id":"710241c1-46a3-4954-9e50-bd4b0b3c4335","system_id":"levelo_inurba_marseille","lat":43.31372,"lon":5.38485,"is_reserved":false,"is_disabled":true,"rental_uris":{"android":"levelo://app?vid=710241c1-46a3-4954-9e50-bd4b0b3c4335","ios":"levelo://app?vid=710241c1-46a3-4954-9e50-bd4b0b3c4335"},"vehicle_type_id":"4","last_reported":1747595270,"current_range_meters":17600,"station_id":"ce4bgt92rcd13ifvqcf0","pricing_plan_id":"cebpf4jnsgd1na2vs0mg"},{"bike_id":"93bb0e99-2bb8-4c61-90e7-ea7c7adfa993","system_id":"levelo_inurba_marseille","lat":43.29946,"lon":5.36538,"is_reserved":false,"is_disabled":true,"rental_uris":{"android":"levelo://app?vid=93bb0e99-2bb8-4c61-90e7-ea7c7adfa993","ios":"levelo://app?vid=93bb0e99-2bb8-4c61-90e7-ea7c7adfa993"},"vehicle_type_id":"4","last_reported":1747595270,"current_range_meters":17600,"station_id":"ce4bgm92rcd13ifvqbr0","pricing_plan_id":"cebpf4jnsgd1na2vs0mg"},{"bike_id":"87e2ffe7-e2ac-484b-b2b1-fc1a1439801c","system_id":"levelo_inurba_marseille","lat":43.29276,"lon":5.38404,"is_reserved":false,"is_disabled":true,"rental_uris":{"android":"levelo://app?vid=87e2ffe7-e2ac-484b-b2b1-fc1a1439801c","ios":"levelo://app?vid=87e2ffe7-e2ac-484b-b2b1-fc1a1439801c"},"vehicle_type_id":"4","last_reported":1747595270,"current_range_meters":17600,"station_id":"ce4bh692rcd13ifvqea0","pricing_plan_id":"cebpf4jnsgd1na2vs0mg"},{"bike_id":"8a7e84fe-2685-40a6-b684-1f69d51630ec","system_id":"levelo_inurba_marseille","lat":43.28479,"lon":5.38455,"is_reserved":false,"is_disabled":true,"rental_uris":{"android":"levelo://app?vid=8a7e84fe-2685-40a6-b684-1f69d51630ec","ios":"levelo://app?vid=8a7e84fe-2685-40a6-b684-1f69d51630ec"},"vehicle_type_id":"4","last_reported":1747595270,"current_range_meters":17600,"station_id":"ce4bh512rcd13ifvqe3g","pricing_plan_id":"cebpf4jnsgd1na2vs0mg"},{"bike_id":"9a0dedcc-cf1d-4901-9687-aa9a21d8b402","system_id":"levelo_inurba_marseille","lat":43.269137,"lon":5.402637,"is_reserved":false,"is_disabled":false,"rental_uris":{"android":"levelo://app?vid=9a0dedcc-cf1d-4901-9687-aa9a21d8b402","ios":"levelo://app?vid=9a0dedcc-cf1d-4901-9687-aa9a21d8b402"},"vehicle_type_id":"4","last_reported":1747595270,"current_range_meters":17600,"station_id":"cjm6bp8fraef2m0cb0m0","pricing_plan_id":"cebpf4jnsgd1na2vs0mg"},{"bike_id":"eddc3e2f-204e-47a6-9d8f-809f554335b4","system_id":"levelo_inurba_marseille","lat":43.24064,"lon":5.37763,"is_reserved":false,"is_disabled":false,"rental_uris":{"android":"levelo://app?vid=eddc3e2f-204e-47a6-9d8f-809f554335b4","ios":"levelo://app?vid=eddc3e2f-204e-47a6-9d8f-809f554335b4"},"vehicle_type_id":"4","last_reported":1747595270,"current_range_meters":17600,"station_id":"ce4bhnp2rcd13ifvqgvg","pricing_plan_id":"cebpf4jnsgd1na2vs0mg"},{"bike_id":"af8e1367-13d7-4d32-ac06-5a6f22fd73f0","system_id":"levelo_inurba_marseille","lat":43.2927,"lon":5.38433,"is_reserved":false,"is_disabled":false,"rental_uris":{"android":"levelo://app?vid=af8e1367-13d7-4d32-ac06-5a6f22fd73f0","ios":"levelo://app?vid=af8e1367-13d7-4d32-ac06-5a6f22fd73f0"},"vehicle_type_id":"4","last_reported":1747595270,"current_range_meters":17600,"station_id":"ce4bh692rcd13ifvqea0","pricing_plan_id":"cebpf4jnsgd1na2vs0mg"},{"bike_id":"f63c9346-f5de-4472-920c-b0cafb41a135","system_id":"levelo_inurba_marseille","lat":43.27058,"lon":5.402573,"is_reserved":false,"is_disabled":true,"rental_uris":{"android":"levelo://app?vid=f63c9346-f5de-4472-920c-b0cafb41a135","ios":"levelo://app?vid=f63c9346-f5de-4472-920c-b0cafb41a135"},"vehicle_type_id":"4","last_reported":1747595270,"current_range_meters":17600,"station_id":"ce4bhk92rcd13ifvqgc0","pricing_plan_id":"cebpf4jnsgd1na2vs0mg"},{"bike_id":"b4ff5286-c65b-48df-94a8-87508ecb71bb","system_id":"levelo_inurba_marseille","lat":43.27673,"lon":5.38897,"is_reserved":false,"is_disabled":false,"rental_uris":{"android":"levelo://app?vid=b4ff5286-c65b-48df-94a8-87508ecb71bb","ios":"levelo://app?vid=b4ff5286-c65b-48df-94a8-87508ecb71bb"},"vehicle_type_id":"4","last_reported":1747595270,"current_range_meters":18000,"station_id":"ce4bhi12rcd13ifvqfo0","pricing_plan_id":"cebpf4jnsgd1na2vs0mg"},{"bike_id":"5cef1cf1-6c1c-4348-8b73-9a301257c20f","system_id":"levelo_inurba_marseille","lat":43.28726,"lon":5.379422,"is_reserved":false,"is_disabled":false,"rental_uris":{"android":"levelo://app?vid=5cef1cf1-6c1c-4348-8b73-9a301257c20f","ios":"levelo://app?vid=5cef1cf1-6c1c-4348-8b73-9a301257c20f"},"vehicle_type_id":"4","last_reported":1747595270,"current_range_meters":18000,"station_id":"ce4bh9p2rcd13ifvqec0","pricing_plan_id":"cebpf4jnsgd1na2vs0mg"},{"bike_id":"4ecfeb88-a475-4524-b5d3-81a8b8a5d8b9","system_id":"levelo_inurba_marseille","lat":43.27684,"lon":5.38886,"is_reserved":false,"is_disabled":false,"rental_uris":{"android":"levelo://app?vid=4ecfeb88-a475-4524-b5d3-81a8b8a5d8b9","ios":"levelo://app?vid=4ecfeb88-a475-4524-b5d3-81a8b8a5d8b9"},"vehicle_type_id":"4","last_reported":1747595270,"current_range_meters":18000,"station_id":"ce4bhi12rcd13ifvqfo0","pricing_plan_id":"cebpf4jnsgd1na2vs0mg"},{"bike_id":"0dd5a398-7e40-41df-aac5-306c30c452c5","system_id":"levelo_inurba_marseille","lat":43.283386,"lon":5.381043,"is_reserved":false,"is_disabled":false,"rental_uris":{"android":"levelo://app?vid=0dd5a398-7e40-41df-aac5-306c30c452c5","ios":"levelo://app?vid=0dd5a398-7e40-41df-aac5-306c30c452c5"},"vehicle_type_id":"4","last_reported":1747595270,"current_range_meters":18000,"station_id":"ce4bh412rcd13ifvqdr0","pricing_plan_id":"cebpf4jnsgd1na2vs0mg"},{"bike_id":"be7abb80-e2d9-43c7-8b81-ad19c3305cee","system_id":"levelo_inurba_marseille","lat":43.28607,"lon":5.37059,"is_reserved":false,"is_disabled":false,"rental_uris":{"android":"levelo://app?vid=be7abb80-e2d9-43c7-8b81-ad19c3305cee","ios":"levelo://app?vid=be7abb80-e2d9-43c7-8b81-ad19c3305cee"},"vehicle_type_id":"4","last_reported":1747595270,"current_range_meters":18000,"station_id":"ce4bht12rcd13ifvqi60","pricing_plan_id":"cebpf4jnsgd1na2vs0mg"},{"bike_id":"766d0b21-d7c1-4b65-92e3-7e9c6e7180f0","system_id":"levelo_inurba_marseille","lat":43.29726,"lon":5.37692,"is_reserved":false,"is_disabled":false,"rental_uris":{"android":"levelo://app?vid=766d0b21-d7c1-4b65-92e3-7e9c6e7180f0","ios":"levelo://app?vid=766d0b21-d7c1-4b65-92e3-7e9c6e7180f0"},"vehicle_type_id":"4","last_reported":1747595270,"current_range_meters":18800,"station_id":"ce4bgkh2rcd13ifvqbl0","pricing_plan_id":"cebpf4jnsgd1na2vs0mg"},{"bike_id":"ac71543e-2315-467d-b3f1-dda663a487c4","system_id":"levelo_inurba_marseille","lat":43.23943,"lon":5.36646,"is_reserved":false,"is_disabled":false,"rental_uris":{"android":"levelo://app?vid=ac71543e-2315-467d-b3f1-dda663a487c4","ios":"levelo://app?vid=ac71543e-2315-467d-b3f1-dda663a487c4"},"vehicle_type_id":"4","last_reported":1747595270,"current_range_meters":18800,"station_id":"ce4bhi12rcd13ifvqfp0","pricing_plan_id":"cebpf4jnsgd1na2vs0mg"},{"bike_id":"3c427b84-65d6-4f03-83c5-4b45e276ccfd","system_id":"levelo_inurba_marseille","lat":43.24071,"lon":5.37759,"is_reserved":false,"is_disabled":false,"rental_uris":{"android":"levelo://app?vid=3c427b84-65d6-4f03-83c5-4b45e276ccfd","ios":"levelo://app?vid=3c427b84-65d6-4f03-83c5-4b45e276ccfd"},"vehicle_type_id":"4","last_reported":1747595270,"current_range_meters":18800,"station_id":"ce4bhnp2rcd13ifvqgvg","pricing_plan_id":"cebpf4jnsgd1na2vs0mg"},{"bike_id":"d7d50958-d866-4779-b5e9-dd4312f50791","system_id":"levelo_inurba_marseille","lat":43.29044,"lon":5.38657,"is_reserved":false,"is_disabled":false,"rental_uris":{"android":"levelo://app?vid=d7d50958-d866-4779-b5e9-dd4312f50791","ios":"levelo://app?vid=d7d50958-d866-4779-b5e9-dd4312f50791"},"vehicle_type_id":"4","last_reported":1747595270,"current_range_meters":18800,"station_id":"ce4bh4p2rcd13ifvqe0g","pricing_plan_id":"cebpf4jnsgd1na2vs0mg"},{"bike_id":"cb4a6b08-dd8f-4f3a-a94e-bd758747824c","system_id":"levelo_inurba_marseille","lat":43.306773,"lon":5.374816,"is_reserved":false,"is_disabled":false,"rental_uris":{"android":"levelo://app?vid=cb4a6b08-dd8f-4f3a-a94e-bd758747824c","ios":"levelo://app?vid=cb4a6b08-dd8f-4f3a-a94e-bd758747824c"},"vehicle_type_id":"4","last_reported":1747595270,"current_range_meters":18800,"station_id":"ce4bgv92rcd13ifvqcq0","pricing_plan_id":"cebpf4jnsgd1na2vs0mg"},{"bike_id":"7a96cbfb-d990-4b4a-8586-e2a451550ec4","system_id":"levelo_inurba_marseille","lat":43.29591,"lon":5.38089,"is_reserved":false,"is_disabled":false,"rental_uris":{"android":"levelo://app?vid=7a96cbfb-d990-4b4a-8586-e2a451550ec4","ios":"levelo://app?vid=7a96cbfb-d990-4b4a-8586-e2a451550ec4"},"vehicle_type_id":"4","last_reported":1747595270,"current_range_meters":18800,"station_id":"ce4bgl12rcd13ifvqbo0","pricing_plan_id":"cebpf4jnsgd1na2vs0mg"},{"bike_id":"7dd1d696-c970-4874-8437-4c2ec2b639df","system_id":"levelo_inurba_marseille","lat":43.30878,"lon":5.3965,"is_reserved":false,"is_disabled":false,"rental_uris":{"android":"levelo://app?vid=7dd1d696-c970-4874-8437-4c2ec2b639df","ios":"levelo://app?vid=7dd1d696-c970-4874-8437-4c2ec2b639df"},"vehicle_type_id":"4","last_reported":1747595270,"current_range_meters":18000,"station_id":"ce4bh012rcd13ifvqcv0","pricing_plan_id":"cebpf4jnsgd1na2vs0mg"},{"bike_id":"c783fec5-cf58-49ab-8644-22d608481e3d","system_id":"levelo_inurba_marseille","lat":43.32475,"lon":5.36603,"is_reserved":false,"is_disabled":false,"rental_uris":{"android":"levelo://app?vid=c783fec5-cf58-49ab-8644-22d608481e3d","ios":"levelo://app?vid=c783fec5-cf58-49ab-8644-22d608481e3d"},"vehicle_type_id":"4","last_reported":1747595270,"current_range_meters":19200,"station_id":"ce4bhs12rcd13ifvqhvg","pricing_plan_id":"cebpf4jnsgd1na2vs0mg"},{"bike_id":"f4c6c465-4fd4-412f-b818-9b008bece5cf","system_id":"levelo_inurba_marseille","lat":43.29416,"lon":5.38626,"is_reserved":false,"is_disabled":false,"rental_uris":{"android":"levelo://app?vid=f4c6c465-4fd4-412f-b818-9b008bece5cf","ios":"levelo://app?vid=f4c6c465-4fd4-412f-b818-9b008bece5cf"},"vehicle_type_id":"4","last_reported":1747595270,"current_range_meters":18800,"station_id":"ce4bh2h2rcd13ifvqdh0","pricing_plan_id":"cebpf4jnsgd1na2vs0mg"},{"bike_id":"e8162579-a5ad-485f-ad83-fec8a2ebe7e1","system_id":"levelo_inurba_marseille","lat":43.26826,"lon":5.39099,"is_reserved":false,"is_disabled":false,"rental_uris":{"android":"levelo://app?vid=e8162579-a5ad-485f-ad83-fec8a2ebe7e1","ios":"levelo://app?vid=e8162579-a5ad-485f-ad83-fec8a2ebe7e1"},"vehicle_type_id":"4","last_reported":1747595270,"current_range_meters":19200,"station_id":"","pricing_plan_id":"cebpf4jnsgd1na2vs0mg"},{"bike_id":"f66dc881-7894-42d2-ac04-15fbbc6934dd","system_id":"levelo_inurba_marseille","lat":43.27805,"lon":5.40706,"is_reserved":false,"is_disabled":false,"rental_uris":{"android":"levelo://app?vid=f66dc881-7894-42d2-ac04-15fbbc6934dd","ios":"levelo://app?vid=f66dc881-7894-42d2-ac04-15fbbc6934dd"},"vehicle_type_id":"4","last_reported":1747595270,"current_range_meters":18800,"station_id":"ce4bhnh2rcd13ifvqgtg","pricing_plan_id":"cebpf4jnsgd1na2vs0mg"},{"bike_id":"a7f7c69f-8e30-4ab1-b0ad-53d7a45c0a15","system_id":"levelo_inurba_marseille","lat":43.24383,"lon":5.3707,"is_reserved":false,"is_disabled":true,"rental_uris":{"android":"levelo://app?vid=a7f7c69f-8e30-4ab1-b0ad-53d7a45c0a15","ios":"levelo://app?vid=a7f7c69f-8e30-4ab1-b0ad-53d7a45c0a15"},"vehicle_type_id":"4","last_reported":1747595270,"current_range_meters":19200,"station_id":"ce4bhhh2rcd13ifvqfk0","pricing_plan_id":"cebpf4jnsgd1na2vs0mg"},