{"last_updated":1746624352,"ttl":60,"version":"2.2","data":{"bikes":[{"bike_id":"d99bf1d6-b803-43d4-8496-b0875571666a","system_id":"levelo_inurba_marseille","lat":43.28942,"lon":5.36638,"is_reserved":false,"is_disabled":false,"rental_uris":{"android":"levelo://app?vid=d99bf1d6-b803-43d4-8496-b0875571666a","ios":"levelo://app?vid=d99bf1d6-b803-43d4-8496-b0875571666a"},"vehicle_type_id":"4","last_reported":1746624352,"current_range_meters":2800,"station_id":"ce4bhap2rcd13ifvqek0","pricing_plan_id":"cebpf4jnsgd1na2vs0mg"},{"bike_id":"63990930-2e91-43d0-ba29-21ca94af4da0","system_id":"levelo_inurba_marseille","lat":43.28614,"lon":5.35093,"is_reserved":false,"is_disabled":false,"rental_uris":{"android":"levelo://app?vid=63990930-2e91-43d0-ba29-21ca94af4da0","ios":"levelo://app?vid=63990930-2e91-43d0-ba29-21ca94af4da0"},"vehicle_type_id":"4","last_reported":1746624352,"current_range_meters":2800,"station_id":"ce4bhch2rcd13ifvqeug","pricing_plan_id":"cebpf4jnsgd1na2vs0mg"},{"bike_id":"08adc162-95d0-4b3b-81e0-6d3cb1fc6830","system_id":"levelo_inurba_marseille","lat":43.29079,"lon":5.37148,"is_reserved":false,"is_disabled":false,"rental_uris":{"android":"levelo://app?vid=08adc162-95d0-4b3b-81e0-6d3cb1fc6830","ios":"levelo://app?vid=08adc162-95d0-4b3b-81e0-6d3cb1fc6830"},"vehicle_type_id":"4","last_reported":1746624352,"current_range_meters":2800,"station_id":"ce4bh5p2rcd13ifvqe4g","pricing_plan_id":"cebpf4jnsgd1na2vs0mg"},{"bike_id":"1a6bd037-b017-41d6-aff8-bb42c0815636","system_id":"levelo_inurba_marseille","lat":43.31682,"lon":5.40472,"is_reserved":false,"is_disabled":false,"rental_uris":{"android":"levelo://app?vid=1a6bd037-b017-41d6-aff8-bb42c0815636","ios":"levelo://app?vid=1a6bd037-b017-41d6-aff8-bb42c0815636"},"vehicle_type_id":"4","last_reported":1746624352,"current_range_meters":3200,"station_id":"ce4bh012rcd13ifvqd00","pricing_plan_id":"cebpf4jnsgd1na2vs0mg"},{"bike_id":"71ce8fbd-fd4e-48bf-ab3d-24656e8ee0cf","system_id":"levelo_inurba_marseille","lat":43.30419,"lon":5.41276,"is_reserved":false,"is_disabled":false,"rental_uris":{"android":"levelo://app?vid=71ce8fbd-fd4e-48bf-ab3d-24656e8ee0cf","ios":"levelo://app?vid=71ce8fbd-fd4e-48bf-ab3d-24656e8ee0cf"},"vehicle_type_id":"4","last_reported":1746624352,"current_range_meters":2800,"station_id":"ce4bhop2rcd13ifvqh8g","pricing_plan_id":"cebpf4jnsgd1na2vs0mg"},{"bike_id":"0bb6fd41-4566-4290-a052-397035025fbd","system_id":"levelo_inurba_marseille","lat":43.29275,"lon":5.40123,"is_reserved":false,"is_disabled":false,"rental_uris":{"android":"levelo://app?vid=0bb6fd41-4566-4290-a052-397035025fbd","ios":"levelo://app?vid=0bb6fd41-4566-4290-a052-397035025fbd"},"vehicle_type_id":"4","last_reported":1746624352,"current_range_meters":3200,"station_id":"ce4bh312rcd13ifvqdk0","pricing_plan_id":"cebpf4jnsgd1na2vs0mg"},{"bike_id":"ee883f6e-3b75-45f6-b4a0-9543339e7dd4","system_id":"levelo_inurba_marseille","lat":43.30441,"lon":5.39743,"is_reserved":false,"is_disabled":false,"rental_uris":{"android":"levelo://app?vid=ee883f6e-3b75-45f6-b4a0-9543339e7dd4","ios":"levelo://app?vid=ee883f6e-3b75-45f6-b4a0-9543339e7dd4"},"vehicle_type_id":"4","last_reported":1746624352,"current_range_meters":3200,"station_id":"ce4bh092rcd13ifvqd20","pricing_plan_id":"cebpf4jnsgd1na2vs0mg"},{"bike_id":"0e381c17-e520-458d-8467-f994e1be04b2","system_id":"levelo_inurba_marseille","lat":43.28486,"lon":5.38413,"is_reserved":false,"is_disabled":false,"rental_uris":{"android":"levelo://app?vid=0e381c17-e520-458d-8467-f994e1be04b2","ios":"levelo://app?vid=0e381c17-e520-458d-8467-f994e1be04b2"},"vehicle_type_id":"4","last_reported":1746624352,"current_range_meters":3200,"station_id":"ce4bh512rcd13ifvqe3g","pricing_plan_id":"cebpf4jnsgd1na2vs0mg"},{"bike_id":"226f8e95-bb03-43ae-9715-56c45b9a9cb8","system_id":"levelo_inurba_marseille","lat":43.28487,"lon":5.3842,"is_reserved":false,"is_disabled":false,"rental_uris":{"android":"levelo://app?vid=226f8e95-bb03-43ae-9715-56c45b9a9cb8","ios":"levelo://app?vid=226f8e95-bb03-43ae-9715-56c45b9a9cb8"},"vehicle_type_id":"4","last_reported":1746624352,"current_range_meters":3600,"station_id":"ce4bh512rcd13ifvqe3g","pricing_plan_id":"cebpf4jnsgd1na2vs0mg"},{"bike_id":"8e7f019b-545c-4260-9f2e-8dab67f346ad","system_id":"levelo_inurba_marseille","lat":43.30154,"lon":5.38078,"is_reserved":false,"is_disabled":false,"rental_uris":{"android":"levelo://app?vid=8e7f019b-545c-4260-9f2e-8dab67f346ad","ios":"levelo://app?vid=8e7f019b-545c-4260-9f2e-8dab67f346ad"},"vehicle_type_id":"4","last_reported":1746624352,"current_range_meters":3600,"station_id":"ce4bgjp2rcd13ifvqbh0","pricing_plan_id":"cebpf4jnsgd1na2vs0mg"},{"bike_id":"43d0fd12-bc1a-4686-a82e-8652f9d101fc","system_id":"levelo_inurba_marseille","lat":43.23969,"lon":5.36649,"is_reserved":false,"is_disabled":false,"rental_uris":{"android":"levelo://app?vid=43d0fd12-bc1a-4686-a82e-8652f9d101fc","ios":"levelo://app?vid=43d0fd12-bc1a-4686-a82e-8652f9d101fc"},"vehicle_type_id":"4","last_reported":1746624352,"current_range_meters":4000,"station_id":"ce4bhi12rcd13ifvqfp0","pricing_plan_id":"cebpf4jnsgd1na2vs0mg"},{"bike_id":"dae75200-70ba-488f-a9a0-5ff992fb6ff8","system_id":"levelo_inurba_marseille","lat":43.25488,"lon":5.37636,"is_reserved":false,"is_disabled":false,"rental_uris":{"android":"levelo://app?vid=dae75200-70ba-488f-a9a0-5ff992fb6ff8","ios":"levelo://app?vid=dae75200-70ba-488f-a9a0-5ff992fb6ff8"},"vehicle_type_id":"4","last_reported":1746624352,"current_range_meters":4000,"station_id":"ce4bhh12rcd13ifvqff0","pricing_plan_id":"cebpf4jnsgd1na2vs0mg"},{"bike_id":"009962d4-7319-4bd3-94ac-0595a9e51f59","system_id":"levelo_inurba_marseille","lat":43.28478,"lon":5.38412,"is_reserved":false,"is_disabled":false,"rental_uris":{"android":"levelo://app?vid=009962d4-7319-4bd3-94ac-0595a9e51f59","ios":"levelo://app?vid=009962d4-7319-4bd3-94ac-0595a9e51f59"},"vehicle_type_id":"4","last_reported":1746624352,"current_range_meters":4000,"station_id":"ce4bh512rcd13ifvqe3g","pricing_plan_id":"cebpf4jnsgd1na2vs0mg"},{"bike_id":"be056e92-c376-4333-9a6b-98c1008df00c","system_id":"levelo_inurba_marseille","lat":43.278394,"lon":5.39212,"is_reserved":false,"is_disabled":false,"rental_uris":{"android":"levelo://app?vid=be056e92-c376-4333-9a6b-98c1008df00c","ios":"levelo://app?vid=be056e92-c376-4333-9a6b-98c1008df00c"},"vehicle_type_id":"4","last_reported":1746624352,"current_range_meters":4000,"station_id":"ce4bhjp2rcd13ifvqga0","pricing_plan_id":"cebpf4jnsgd1na2vs0mg"},{"bike_id":"c26fadce-e03e-4324-b78e-440e6e9d9c7a","system_id":"levelo_inurba_marseille","lat":43.29718,"lon":5.37692,"is_reserved":false,"is_disabled":false,"rental_uris":{"android":"levelo://app?vid=c26fadce-e03e-4324-b78e-440e6e9d9c7a","ios":"levelo://app?vid=c26fadce-e03e-4324-b78e-440e6e9d9c7a"},"vehicle_type_id":"4","last_reported":1746624352,"current_range_meters":4000,"station_id":"ce4bgkh2rcd13ifvqbl0","pricing_plan_id":"cebpf4jnsgd1na2vs0mg"},{"bike_id":"9d8f73eb-df09-4699-86a7-d631e2319093","system_id":"levelo_inurba_marseille","lat":43.26275,"lon":5.37384,"is_reserved":false,"is_disabled":false,"rental_uris":{"android":"levelo://app?vid=9d8f73eb-df09-4699-86a7-d631e2319093","ios":"levelo://app?vid=9d8f73eb-df09-4699-86a7-d631e2319093"},"vehicle_type_id":"4","last_reported":1746624352,"current_range_meters":4400,"station_id":"","pricing_plan_id":"cebpf4jnsgd1na2vs0mg"},{"bike_id":"543dda91-1024-4543-91a2-209a0349c337","system_id":"levelo_inurba_marseille","lat":43.29562,"lon":5.42292,"is_reserved":false,"is_disabled":false,"rental_uris":{"android":"levelo://app?vid=543dda91-1024-4543-91a2-209a0349c337","ios":"levelo://app?vid=543dda91-1024-4543-91a2-209a0349c337"},"vehicle_type_id":"4","last_reported":1746624352,"current_range_meters":4000,"station_id":"ce4bhph2rcd13ifvqhdg","pricing_plan_id":"cebpf4jnsgd1na2vs0mg"},{"bike_id":"3508135e-4937-481f-9889-d57532b84f02","system_id":"levelo_inurba_marseille","lat":43.29799,"lon":5.40398,"is_reserved":false,"is_disabled":false,"rental_uris":{"android":"levelo://app?vid=3508135e-4937-481f-9889-d57532b84f02","ios":"levelo://app?vid=3508135e-4937-481f-9889-d57532b84f02"},"vehicle_type_id":"4","last_reported":1746624352,"current_range_meters":4400,"station_id":"ce4bh112rcd13ifvqd90","pricing_plan_id":"cebpf4jnsgd1na2vs0mg"},{"bike_id":"7735f831-86a3-46b0-8e7b-1ab594c8e639","system_id":"levelo_inurba_marseille","lat":43.25944,"lon":5.40887,"is_reserved":false,"is_disabled":false,"rental_uris":{"android":"levelo://app?vid=7735f831-86a3-46b0-8e7b-1ab594c8e639","ios":"levelo://app?vid=7735f831-86a3-46b0-8e7b-1ab594c8e639"},"vehicle_type_id":"4","last_reported":1746624352,"current_range_meters":4800,"station_id":"ce4bhm92rcd13ifvqglg","pricing_plan_id":"cebpf4jnsgd1na2vs0mg"},{"bike_id":"93f0b5f5-8bc7-4343-90df-1622d38b0095","system_id":"levelo_inurba_marseille","lat":43.28664,"lon":5.3634,"is_reserved":false,"is_disabled":false,"rental_uris":{"android":"levelo://app?vid=93f0b5f5-8bc7-4343-90df-1622d38b0095","ios":"levelo://app?vid=93f0b5f5-8bc7-4343-90df-1622d38b0095"},"vehicle_type_id":"4","last_reported":1746624352,"current_range_meters":4800,"station_id":"ce4bhah2rcd13ifvqej0","pricing_plan_id":"cebpf4jnsgd1na2vs0mg"},{"bike_id":"484da2fd-e6e8-47d4-83a5-815ea980b948","system_id":"levelo_inurba_marseille","lat":43.29538,"lon":5.3902,"is_reserved":false,"is_disabled":false,"rental_uris":{"android":"levelo://app?vid=484da2fd-e6e8-47d4-83a5-815ea980b948","ios":"levelo://app?vid=484da2fd-e6e8-47d4-83a5-815ea980b948"},"vehicle_type_id":"4","last_reported":1746624352,"current_range_meters":5600,"station_id":"ce4bh3p2rcd13ifvqdp0","pricing_plan_id":"cebpf4jnsgd1na2vs0mg"},{"bike_id":"8c6d55dc-583c-444e-a947-995a86f88001","system_id":"levelo_inurba_marseille","lat":43.29092,"lon":5.38139,"is_reserved":false,"is_disabled":false,"rental_uris":{"android":"levelo://app?vid=8c6d55dc-583c-444e-a947-995a86f88001","ios":"levelo://app?vid=8c6d55dc-583c-444e-a947-995a86f88001"},"vehicle_type_id":"4","last_reported":1746624352,"current_range_meters":5600,"station_id":"ce4bh512rcd13ifvqe2g","pricing_plan_id":"cebpf4jnsgd1na2vs0mg"},{"bike_id":"c7d45949-bdf3-49f5-bbab-2053e6c6cc78","system_id":"levelo_inurba_marseille","lat":43.29295,"lon":5.37472,"is_reserved":false,"is_disabled":false,"rental_uris":{"android":"levelo://app?vid=c7d45949-bdf3-49f5-bbab-2053e6c6cc78","ios":"levelo://app?vid=c7d45949-bdf3-49f5-bbab-2053e6c6cc78"},"vehicle_type_id":"4","last_reported":1746624352,"current_range_meters":5600,"station_id":"ce4bgi12rcd13ifvqb70","pricing_plan_id":"cebpf4jnsgd1na2vs0mg"},{"bike_id":"11df0048-d41d-411d-9806-dca25ad413f6","system_id":"levelo_inurba_marseille","lat":43.28946,"lon":5.36633,"is_reserved":false,"is_disabled":false,"rental_uris":{"android":"levelo://app?vid=11df0048-d41d-411d-9806-dca25ad413f6","ios":"levelo://app?vid=11df0048-d41d-411d-9806-dca25ad413f6"},"vehicle_type_id":"4","last_reported":1746624352,"current_range_meters":5600,"station_id":"ce4bhap2rcd13ifvqek0","pricing_plan_id":"cebpf4jnsgd1na2vs0mg"},{"bike_id":"a961a092-6923-4e94-a54b-0f36be41c6b2","system_id":"levelo_inurba_marseille","lat":43.29201,"lon":5.38028,"is_reserved":false,"is_disabled":false,"rental_uris":{"android":"levelo://app?vid=a961a092-6923-4e94-a54b-0f36be41c6b2","ios":"levelo://app?vid=a961a092-6923-4e94-a54b-0f36be41c6b2"},"vehicle_type_id":"4","last_reported":1746624352,"current_range_meters":6000,"station_id":"","pricing_plan_id":"cebpf4jnsgd1na2vs0mg"},{"bike_id":"617e21f5-7b53-4ac5-b207-fb1966ec6b76","system_id":"levelo_inurba_marseille","lat":43.27322,"lon":5.3908,"is_reserved":false,"is_disabled":false,"rental_uris":{"android":"levelo://app?vid=617e21f5-7b53-4ac5-b207-fb1966ec6b76","ios":"levelo://app?vid=617e21f5-7b53-4ac5-b207-fb1966ec6b76"},"vehicle_type_id":"4","last_reported":1746624352,"current_range_meters":6000,"station_id":"ce4bhgp2rcd13ifvqfe0","pricing_plan_id":"cebpf4jnsgd1na2vs0mg"},{"bike_id":"4c28db89-3237-48eb-9bb7-43016599454f","system_id":"levelo_inurba_marseille","lat":43.31116,"lon":5.37763,"is_reserved":false,"is_disabled":false,"rental_uris":{"android":"levelo://app?vid=4c28db89-3237-48eb-9bb7-43016599454f","ios":"levelo://app?vid=4c28db89-3237-48eb-9bb7-43016599454f"},"vehicle_type_id":"4","last_reported":1746624352,"current_range_meters":6400,"station_id":"ce4bgt92rcd13ifvqcg0","pricing_plan_id":"cebpf4jnsgd1na2vs0mg"},{"bike_id":"be30413e-157e-4183-a401-e3fcdc44d188","system_id":"levelo_inurba_marseille","lat":43.22932,"lon":5.35372,"is_reserved":false,"is_disabled":false,"rental_uris":{"android":"levelo://app?vid=be30413e-157e-4183-a401-e3fcdc44d188","ios":"levelo://app?vid=be30413e-157e-4183-a401-e3fcdc44d188"},"vehicle_type_id":"4","last_reported":1746624352,"current_range_meters":6400,"station_id":"cpo3532slgdg3j2ikp40","pricing_plan_id":"cebpf4jnsgd1na2vs0mg"},{"bike_id":"dc14f7a4-5db2-4669-bcf2-e93e80b84632","system_id":"levelo_inurba_marseille","lat":43.26215,"lon":5.40454,"is_reserved":false,"is_disabled":false,"rental_uris":{"android":"levelo://app?vid=dc14f7a4-5db2-4669-bcf2-e93e80b84632","ios":"levelo://app?vid=dc14f7a4-5db2-4669-bcf2-e93e80b84632"},"vehicle_type_id":"4","last_reported":1746624352,"current_range_meters":6400,"station_id":"ce4bhmh2rcd13ifvqgmg","pricing_plan_id":"cebpf4jnsgd1na2vs0mg"},{"bike_id":"c9592205-9409-4f74-aed1-7c4141a58caa","system_id":"levelo_inurba_marseille","lat":43.27141,"lon":5.3636,"is_reserved":false,"is_disabled":false,"rental_uris":{"android":"levelo://app?vid=c9592205-9409-4f74-aed1-7c4141a58caa","ios":"levelo://app?vid=c9592205-9409-4f74-aed1-7c4141a58caa"},"vehicle_type_id":"4","last_reported":1746624352,"current_range_meters":6400,"station_id":"","pricing_plan_id":"cebpf4jnsgd1na2vs0mg"},{"bike_id":"c0faf23e-81a7-4ca3-895d-283152fd6265","system_id":"levelo_inurba_marseille","lat":43.29583,"lon":5.39596,"is_reserved":false,"is_disabled":false,"rental_uris":{"android":"levelo://app?vid=c0faf23e-81a7-4ca3-895d-283152fd6265","ios":"levelo://app?vid=c0faf23e-81a7-4ca3-895d-283152fd6265"},"vehicle_type_id":"4","last_reported":1746624352,"current_range_meters":6400,"station_id":"","pricing_plan_id":"cebpf4jnsgd1na2vs0mg"},{"bike_id":"b576d3ab-2c55-402b-9010-2f9f49fc4a37","system_id":"levelo_inurba_marseille","lat":43.30541,"lon":5.36524,"is_reserved":false,"is_disabled":false,"rental_uris":{"android":"levelo://app?vid=b576d3ab-2c55-402b-9010-2f9f49fc4a37","ios":"levelo://app?vid=b576d3ab-2c55-402b-9010-2f9f49fc4a37"},"vehicle_type_id":"4","last_reported":1746624352,"current_range_meters":6400,"station_id":"ce4bgs12rcd13ifvqcag","pricing_plan_id":"cebpf4jnsgd1na2vs0mg"},{"bike_id":"3efa8577-f404-454a-a9a1-24e47819dab8","system_id":"levelo_inurba_marseille","lat":43.2397,"lon":5.36632,"is_reserved":false,"is_disabled":false,"rental_uris":{"android":"levelo://app?vid=3efa8577-f404-454a-a9a1-24e47819dab8","ios":"levelo://app?vid=3efa8577-f404-454a-a9a1-24e47819dab8"},"vehicle_type_id":"4","last_reported":1746624352,"current_range_meters":6000,"station_id":"ce4bhi12rcd13ifvqfp0","pricing_plan_id":"cebpf4jnsgd1na2vs0mg"},{"bike_id":"63cb73aa-86fe-4599-9b76-3790ec130780","system_id":"levelo_inurba_marseille","lat":43.29582,"lon":5.37852,"is_reserved":false,"is_disabled":false,"rental_uris":{"android":"levelo://app?vid=63cb73aa-86fe-4599-9b76-3790ec130780","ios":"levelo://app?vid=63cb73aa-86fe-4599-9b76-3790ec130780"},"vehicle_type_id":"4","last_reported":1746624352,"current_range_meters":6400,"station_id":"","pricing_plan_id":"cebpf4jnsgd1na2vs0mg"},{"bike_id":"f46ae0d7-03f3-41e1-96db-970fe58465cc","system_id":"levelo_inurba_marseille","lat":43.33006,"lon":5.38257,"is_reserved":false,"is_disabled":false,"rental_uris":{"android":"levelo://app?vid=f46ae0d7-03f3-41e1-96db-970fe58465cc","ios":"levelo://app?vid=f46ae0d7-03f3-41e1-96db-970fe58465cc"},"vehicle_type_id":"4","last_reported":1746624352,"current_range_meters":6800,"station_id":"","pricing_plan_id":"cebpf4jnsgd1na2vs0mg"},{"bike_id":"8e4dc549-d17f-4125-85b0-471bc9f8224c","system_id":"levelo_inurba_marseille","lat":43.34145,"lon":5.40898,"is_reserved":false,"is_disabled":false,"rental_uris":{"android":"levelo://app?vid=8e4dc549-d17f-4125-85b0-471bc9f8224c","ios":"levelo://app?vid=8e4dc549-d17f-4125-85b0-471bc9f8224c"},"vehicle_type_id":"4","last_reported":1746624352,"current_range_meters":6800,"station_id":"ce4bhqh2rcd13ifvqhlg","pricing_plan_id":"cebpf4jnsgd1na2vs0mg"},{"bike_id":"149af097-398a-4a6f-b95f-841f6b87d36c","system_id":"levelo_inurba_marseille","lat":43.26115,"lon":5.41461,"is_reserved":false,"is_disabled":false,"rental_uris":{"android":"levelo://app?vid=149af097-398a-4a6f-b95f-841f6b87d36c","ios":"levelo://app?vid=149af097-398a-4a6f-b95f-841f6b87d36c"},"vehicle_type_id":"4","last_reported":1746624352,"current_range_meters":6800,"station_id":"","pricing_plan_id":"cebpf4jnsgd1na2vs0mg"},{"bike_id":"69d1dca2-b99f-461c-a2d9-51bf39321e3c","system_id":"levelo_inurba_marseille","lat":43.30554,"lon":5.36699,"is_reserved":false,"is_disabled":false,"rental_uris":{"android":"levelo://app?vid=69d1dca2-b99f-461c-a2d9-51bf39321e3c","ios":"levelo://app?vid=69d1dca2-b99f-461c-a2d9-51bf39321e3c"},"vehicle_type_id":"4","last_reported":1746624352,"current_range_meters":6800,"station_id":"ce4bgrp2rcd13ifvqc9g","pricing_plan_id":"cebpf4jnsgd1na2vs0mg"},{"bike_id":"af5558bc-21cc-433d-b997-2a893018e55d","system_id":"levelo_inurba_marseille","lat":43.29228,"lon":5.36068,"is_reserved":false,"is_disabled":false,"rental_uris":{"android":"levelo://app?vid=af5558bc-21cc-433d-b997-2a893018e55d","ios":"levelo://app?vid=af5558bc-21cc-433d-b997-2a893018e55d"},"vehicle_type_id":"4","last_reported":1746624352,"current_range_meters":6800,"station_id":"ce4bhbh2rcd13ifvqeqg","pricing_plan_id":"cebpf4jnsgd1na2vs0mg"},{"bike_id":"c5ce4293-4a91-4140-95e9-85aeefe0bd05","system_id":"levelo_inurba_marseille","lat":43.2862,"lon":5.35104,"is_reserved":false,"is_disabled":false,"rental_uris":{"android":"levelo://app?vid=c5ce4293-4a91-4140-95e9-85aeefe0bd05","ios":"levelo://app?vid=c5ce4293-4a91-4140-95e9-85aeefe0bd05"},"vehicle_type_id":"4","last_reported":1746624352,"current_range_meters":7200,"station_id":"ce4bhch2rcd13ifvqeug","pricing_plan_id":"cebpf4jnsgd1na2vs0mg"},{"bike_id":"08ea6f8f-9116-4e31-9999-5d79b3869923","system_id":"levelo_inurba_marseille","lat":43.31018,"lon":5.3731,"is_reserved":false,"is_disabled":false,"rental_uris":{"android":"levelo://app?vid=08ea6f8f-9116-4e31-9999-5d79b3869923","ios":"levelo://app?vid=08ea6f8f-9116-4e31-9999-5d79b3869923"},"vehicle_type_id":"4","last_reported":1746624352,"current_range_meters":7200,"station_id":"","pricing_plan_id":"cebpf4jnsgd1na2vs0mg"},{"bike_id":"8e4905cb-ec95-415e-8b6a-4ea87b0e2aaa","system_id":"levelo_inurba_marseille","lat":43.290388,"lon":5.356003,"is_reserved":false,"is_disabled":false,"rental_uris":{"android":"levelo://app?vid=8e4905cb-ec95-415e-8b6a-4ea87b0e2aaa","ios":"levelo://app?vid=8e4905cb-ec95-415e-8b6a-4ea87b0e2aaa"},"vehicle_type_id":"4","last_reported":1746624352,"current_range_meters":7200,"station_id":"","pricing_plan_id":"cebpf4jnsgd1na2vs0mg"},{"bike_id":"c596c2d8-a473-404a-8a26-fa4812d717bf","system_id":"levelo_inurba_marseille","lat":43.29727,"lon":5.37684,"is_reserved":false,"is_disabled":false,"rental_uris":{"android":"levelo://app?vid=c596c2d8-a473-404a-8a26-fa4812d717bf","ios":"levelo://app?vid=c596c2d8-a473-404a-8a26-fa4812d717bf"},"vehicle_type_id":"4","last_reported":1746624352,"current_range_meters":7200,"station_id":"ce4bgkh2rcd13ifvqbl0","pricing_plan_id":"cebpf4jnsgd1na2vs0mg"},{"bike_id":"d3bf7301-772b-45af-bfed-ff0e97a925f6","system_id":"levelo_inurba_marseille","lat":43.27686,"lon":5.38907,"is_reserved":false,"is_disabled":false,"rental_uris":{"android":"levelo://app?vid=d3bf7301-772b-45af-bfed-ff0e97a925f6","ios":"levelo://app?vid=d3bf7301-772b-45af-bfed-ff0e97a925f6"},"vehicle_type_id":"4","last_reported":1746624352,"current_range_meters":7200,"station_id":"ce4bhi12rcd13ifvqfo0","pricing_plan_id":"cebpf4jnsgd1na2vs0mg"},{"bike_id":"43e04125-68a5-4558-92af-46d61bc1a3e0","system_id":"levelo_inurba_marseille","lat":43.30648,"lon":5.40101,"is_reserved":false,"is_disabled":false,"rental_uris":{"android":"levelo://app?vid=43e04125-68a5-4558-92af-46d61bc1a3e0","ios":"levelo://app?vid=43e04125-68a5-4558-92af-46d61bc1a3e0"},"vehicle_type_id":"4","last_reported":1746624352,"current_range_meters":6800,"station_id":"ce4bh112rcd13ifvqda0","pricing_plan_id":"cebpf4jnsgd1na2vs0mg"},{"bike_id":"31c4615a-5a90-4db7-b39a-7c3a88c1d021","system_id":"levelo_inurba_marseille","lat":43.31362,"lon":5.38491,"is_reserved":false,"is_disabled":false,"rental_uris":{"android":"levelo://app?vid=31c4615a-5a90-4db7-b39a-7c3a88c1d021","ios":"levelo://app?vid=31c4615a-5a90-4db7-b39a-7c3a88c1d021"},"vehicle_type_id":"4","last_reported":1746624352,"current_range_meters":7200,"station_id":"ce4bgt92rcd13ifvqcf0","pricing_plan_id":"cebpf4jnsgd1na2vs0mg"},{"bike_id":"2611448c-3122-4b9a-829b-b230094fb5bd","system_id":"levelo_inurba_marseille","lat":43.29533,"lon":5.38535,"is_reserved":false,"is_disabled":false,"rental_uris":{"android":"levelo://app?vid=2611448c-3122-4b9a-829b-b230094fb5bd","ios":"levelo://app?vid=2611448c-3122-4b9a-829b-b230094fb5bd"},"vehicle_type_id":"4","last_reported":1746624352,"current_range_meters":7200,"station_id":"ce4bgih2rcd13ifvqba0","pricing_plan_id":"cebpf4jnsgd1na2vs0mg"},{"bike_id":"3e1ca513-aa1b-4a6f-a747-9f51804048af","system_id":"levelo_inurba_marseille","lat":43.27615,"lon":5.3613,"is_reserved":false,"is_disabled":false,"rental_uris":{"android":"levelo://app?vid=3e1ca513-aa1b-4a6f-a747-9f51804048af","ios":"levelo://app?vid=3e1ca513-aa1b-4a6f-a747-9f51804048af"},"vehicle_type_id":"4","last_reported":1746624352,"current_range_meters":7200,"station_id":"ce4bgj92rcd13ifvqbe0","pricing_plan_id":"cebpf4jnsgd1na2vs0mg"},{"bike_id":"8b07f9b3-7758-4aee-affa-3c5b2d6009ae","system_id":"levelo_inurba_marseille","lat":43.299686,"lon":5.380901,"is_reserved":false,"is_disabled":false,"rental_uris":{"android":"levelo://app?vid=8b07f9b3-7758-4aee-affa-3c5b2d6009ae","ios":"levelo://app?vid=8b07f9b3-7758-4aee-affa-3c5b2d6009ae"},"vehicle_type_id":"4","last_reported":1746624352,"current_range_meters":7200,"station_id":"ce4bgjp2rcd13ifvqbh0","pricing_plan_id":"cebpf4jnsgd1na2vs0mg"},{"bike_id":"c1f5c732-e9f3-4771-8cd4-b0cd9c6ce205","system_id":"levelo_inurba_marseille","lat":43.29621,"lon":5.377176,"is_reserved":false,"is_disabled":false,"rental_uris":{"android":"levelo://app?vid=c1f5c732-e9f3-4771-8cd4-b0cd9c6ce205","ios":"levelo://app?vid=c1f5c732-e9f3-4771-8cd4-b0cd9c6ce205"},"vehicle_type_id":"4","last_reported":1746624352,"current_range_meters":8000,"station_id":"ce4bgi92rcd13ifvqb90","pricing_plan_id":"cebpf4jnsgd1na2vs0mg"},{"bike_id":"058c04c0-a83a-4af5-a5f8-af2e07c7895c","system_id":"levelo_inurba_marseille","lat":43.32984,"lon":5.39397,"is_reserved":false,"is_disabled":false,"rental_uris":{"android":"levelo://app?vid=058c04c0-a83a-4af5-a5f8-af2e07c7895c","ios":"levelo://app?vid=058c04c0-a83a-4af5-a5f8-af2e07c7895c"},"vehicle_type_id":"4","last_reported":1746624352,"current_range_meters":8000,"station_id":"","pricing_plan_id":"cebpf4jnsgd1na2vs0mg"},{"bike_id":"3185f3bd-afcb-40f2-94a4-747557095a72","system_id":"levelo_inurba_marseille","lat":43.30536,"lon":5.36692,"is_reserved":false,"is_disabled":false,"rental_uris":{"android":"levelo://app?vid=3185f3bd-afcb-40f2-94a4-747557095a72","ios":"levelo://app?vid=3185f3bd-afcb-40f2-94a4-747557095a72"},"vehicle_type_id":"4","last_reported":1746624352,"current_range_meters":8000,"station_id":"ce4bgrp2rcd13ifvqc9g","pricing_plan_id":"cebpf4jnsgd1na2vs0mg"},{"bike_id":"078f72a3-1df2-40a0-8fa8-84cb5d00f272","system_id":"levelo_inurba_marseille","lat":43.31169,"lon":5.38717,"is_reserved":false,"is_disabled":false,"rental_uris":{"android":"levelo://app?vid=078f72a3-1df2-40a0-8fa8-84cb5d00f272","ios":"levelo://app?vid=078f72a3-1df2-40a0-8fa8-84cb5d00f272"},"vehicle_type_id":"4","last_reported":1746624352,"current_range_meters":8000,"station_id":"ce4bgv12rcd13ifvqcp0","pricing_plan_id":"cebpf4jnsgd1na2vs0mg"},{"bike_id":"705f1f6f-d92c-4df1-a512-943b0bf79900","system_id":"levelo_inurba_marseille","lat":43.2251,"lon":5.34775,"is_reserved":false,"is_disabled":false,"rental_uris":{"android":"levelo://app?vid=705f1f6f-d92c-4df1-a512-943b0bf79900","ios":"levelo://app?vid=705f1f6f-d92c-4df1-a512-943b0bf79900"},"vehicle_type_id":"4","last_reported":1746624352,"current_range_meters":8000,"station_id":"st_cvj5dfep6f1abm77gieg","pricing_plan_id":"cebpf4jnsgd1na2vs0mg"},{"bike_id":"b9039d10-a5ef-4e5c-b573-6ab7930121c1","system_id":"levelo_inurba_marseille","lat":43.26818,"lon":5.40246,"is_reserved":false,"is_disabled":false,"rental_uris":{"android":"levelo://app?vid=b9039d10-a5ef-4e5c-b573-6ab7930121c1","ios":"levelo://app?vid=b9039d10-a5ef-4e5c-b573-6ab7930121c1"},"vehicle_type_id":"4","last_reported":1746624352,"current_range_meters":8000,"station_id":"ce501612rcd8frsf0b60","pricing_plan_id":"cebpf4jnsgd1na2vs0mg"},{"bike_id":"86a8be81-1099-4eb7-8c92-ebc1455e1128","system_id":"levelo_inurba_marseille","lat":43.323635,"lon":5.367573,"is_reserved":false,"is_disabled":false,"rental_uris":{"android":"levelo://app?vid=86a8be81-1099-4eb7-8c92-ebc1455e1128","ios":"levelo://app?vid=86a8be81-1099-4eb7-8c92-ebc1455e1128"},"vehicle_type_id":"4","last_reported":1746624352,"current_range_meters":8400,"station_id":"ce4bhsh2rcd13ifvqi2g","pricing_plan_id":"cebpf4jnsgd1na2vs0mg"},{"bike_id":"ca29b916-aaea-42aa-8794-d9786047ebca","system_id":"levelo_inurba_marseille","lat":43.322997,"lon":5.38266,"is_reserved":false,"is_disabled":false,"rental_uris":{"android":"levelo://app?vid=ca29b916-aaea-42aa-8794-d9786047ebca","ios":"levelo://app?vid=ca29b916-aaea-42aa-8794-d9786047ebca"},"vehicle_type_id":"4","last_reported":1746624352,"current_range_meters":8400,"station_id":"ce4bhr12rcd13ifvqhqg","pricing_plan_id":"cebpf4jnsgd1na2vs0mg"},{"bike_id":"35d85b26-8c02-455e-8300-5acc2a055432","system_id":"levelo_inurba_marseille","lat":43.24998,"lon":5.38936,"is_reserved":false,"is_disabled":false,"rental_uris":{"android":"levelo://app?vid=35d85b26-8c02-455e-8300-5acc2a055432","ios":"levelo://app?vid=35d85b26-8c02-455e-8300-5acc2a055432"},"vehicle_type_id":"4","last_reported":1746624352,"current_range_meters":8400,"station_id":"ce4bhgp2rcd13ifvqfd0","pricing_plan_id":"cebpf4jnsgd1na2vs0mg"},{"bike_id":"5335dc81-d484-454c-bb66-c5005b099a48","system_id":"levelo_inurba_marseille","lat":43.29572,"lon":5.37523,"is_reserved":false,"is_disabled":false,"rental_uris":{"android":"levelo://app?vid=5335dc81-d484-454c-bb66-c5005b099a48","ios":"levelo://app?vid=5335dc81-d484-454c-bb66-c5005b099a48"},"vehicle_type_id":"4","last_reported":1746624352,"current_range_meters":8400,"station_id":"ce4bgh92rcd13ifvqb50","pricing_plan_id":"cebpf4jnsgd1na2vs0mg"},{"bike_id":"2212f589-b3f2-435c-9bfc-75c7e9b32e5f","system_id":"levelo_inurba_marseille","lat":43.30307,"lon":5.392156,"is_reserved":false,"is_disabled":false,"rental_uris":{"android":"levelo://app?vid=2212f589-b3f2-435c-9bfc-75c7e9b32e5f","ios":"levelo://app?vid=2212f589-b3f2-435c-9bfc-75c7e9b32e5f"},"vehicle_type_id":"4","last_reported":1746624352,"current_range_meters":8800,"station_id":"ce4bgkh2rcd13ifvqbk0","pricing_plan_id":"cebpf4jnsgd1na2vs0mg"},{"bike_id":"a1fb4304-367b-43db-9489-d91bda900488","system_id":"levelo_inurba_marseille","lat":43.27375,"lon":5.36248,"is_reserved":false,"is_disabled":false,"rental_uris":{"android":"levelo://app?vid=a1fb4304-367b-43db-9489-d91bda900488","ios":"levelo://app?vid=a1fb4304-367b-43db-9489-d91bda900488"},"vehicle_type_id":"4","last_reported":1746624352,"current_range_meters":8800,"station_id":"ce4bhbh2rcd13ifvqeo0","pricing_plan_id":"cebpf4jnsgd1na2vs0mg"},{"bike_id":"baa55d14-561c-4412-8558-e2f492a21cbf","system_id":"levelo_inurba_marseille","lat":43.26591,"lon":5.3902,"is_reserved":false,"is_disabled":false,"rental_uris":{"android":"levelo://app?vid=baa55d14-561c-4412-8558-e2f492a21cbf","ios":"levelo://app?vid=baa55d14-561c-4412-8558-e2f492a21cbf"},"vehicle_type_id":"4","last_reported":1746624352,"current_range_meters":8800,"station_id":"ce4bhe12rcd13ifvqf30","pricing_plan_id":"cebpf4jnsgd1na2vs0mg"},{"bike_id":"f1cedeb3-3075-4510-8edc-2c64179cdade","system_id":"levelo_inurba_marseille","lat":43.2795,"lon":5.41039,"is_reserved":false,"is_disabled":false,"rental_uris":{"android":"levelo://app?vid=f1cedeb3-3075-4510-8edc-2c64179cdade","ios":"levelo://app?vid=f1cedeb3-3075-4510-8edc-2c64179cdade"},"vehicle_type_id":"4","last_reported":1746624352,"current_range_meters":8800,"station_id":"ce4bhnp2rcd13ifvqh0g","pricing_plan_id":"cebpf4jnsgd1na2vs0mg"},{"bike_id":"342edc5c-aa00-47b1-b431-9ae30160e0cd","system_id":"levelo_inurba_marseille","lat":43.3042,"lon":5.38885,"is_reserved":false,"is_disabled":false,"rental_uris":{"android":"levelo://app?vid=342edc5c-aa00-47b1-b431-9ae30160e0cd","ios":"levelo://app?vid=342edc5c-aa00-47b1-b431-9ae30160e0cd"},"vehicle_type_id":"4","last_reported":1746624352,"current_range_meters":8800,"station_id":"ce4bgk12rcd13ifvqbi0","pricing_plan_id":"cebpf4jnsgd1na2vs0mg"},{"bike_id":"bd3b2178-bd6a-4801-b79f-10fa8392d3d4","system_id":"levelo_inurba_marseille","lat":43.312256,"lon":5.368633,"is_reserved":false,"is_disabled":false,"rental_uris":{"android":"levelo://app?vid=bd3b2178-bd6a-4801-b79f-10fa8392d3d4","ios":"levelo://app?vid=bd3b2178-bd6a-4801-b79f-10fa8392d3d4"},"vehicle_type_id":"4","last_reported":1746624352,"current_range_meters":8800,"station_id":"ce4bgl92rcd13ifvqbq0","pricing_plan_id":"cebpf4jnsgd1na2vs0mg"},{"bike_id":"81234614-e32f-4197-9093-23877fa8a91c","system_id":"levelo_inurba_marseille","lat":43.29583,"lon":5.36744,"is_reserved":false,"is_disabled":false,"rental_uris":{"android":"levelo://app?vid=81234614-e32f-4197-9093-23877fa8a91c","ios":"levelo://app?vid=81234614-e32f-4197-9093-23877fa8a91c"},"vehicle_type_id":"4","last_reported":1746624352,"current_range_meters":9200,"station_id":"ce4bgph2rcd13ifvqc2g","pricing_plan_id":"cebpf4jnsgd1na2vs0mg"},{"bike_id":"69d69bfb-c93f-4b80-92dd-b7800354ec07","system_id":"levelo_inurba_marseille","lat":43.29269,"lon":5.38435,"is_reserved":false,"is_disabled":false,"rental_uris":{"android":"levelo://app?vid=69d69bfb-c93f-4b80-92dd-b7800354ec07","ios":"levelo://app?vid=69d69bfb-c93f-4b80-92dd-b7800354ec07"},"vehicle_type_id":"4","last_reported":1746624352,"current_range_meters":9200,"station_id":"ce4bh692rcd13ifvqea0","pricing_plan_id":"cebpf4jnsgd1na2vs0mg"},{"bike_id":"e397e811-a1c4-47b2-8a53-b81e87255c7c","system_id":"levelo_inurba_marseille","lat":43.231372,"lon":5.437717,"is_reserved":false,"is_disabled":false,"rental_uris":{"android":"levelo://app?vid=e397e811-a1c4-47b2-8a53-b81e87255c7c","ios":"levelo://app?vid=e397e811-a1c4-47b2-8a53-b81e87255c7c"},"vehicle_type_id":"4","last_reported":1746624352,"current_range_meters":9200,"station_id":"ce4bhmp2rcd13ifvqgog","pricing_plan_id":"cebpf4jnsgd1na2vs0mg"},{"bike_id":"114b53f0-0699-4441-8b96-aa370e013aa8","system_id":"levelo_inurba_marseille","lat":43.28153,"lon":5.42655,"is_reserved":false,"is_disabled":false,"rental_uris":{"android":"levelo://app?vid=114b53f0-0699-4441-8b96-aa370e013aa8","ios":"levelo://app?vid=114b53f0-0699-4441-8b96-aa370e013aa8"},"vehicle_type_id":"4","last_reported":1746624352,"current_range_meters":9200,"station_id":"ce4bhnh2rcd13ifvqgug","pricing_plan_id":"cebpf4jnsgd1na2vs0mg"},{"bike_id":"5df66504-fbf4-4e94-b024-6612c0e8a207","system_id":"levelo_inurba_marseille","lat":43.23963,"lon":5.3663,"is_reserved":false,"is_disabled":false,"rental_uris":{"android":"levelo://app?vid=5df66504-fbf4-4e94-b024-6612c0e8a207","ios":"levelo://app?vid=5df66504-fbf4-4e94-b024-6612c0e8a207"},"vehicle_type_id":"4","last_reported":1746624352,"current_range_meters":9200,"station_id":"ce4bhi12rcd13ifvqfp0","pricing_plan_id":"cebpf4jnsgd1na2vs0mg"},{"bike_id":"b8c7f308-bdbd-48d0-91d9-74e6f612090a","system_id":"levelo_inurba_marseille","lat":43.23156,"lon":5.43702,"is_reserved":false,"is_disabled":false,"rental_uris":{"android":"levelo://app?vid=b8c7f308-bdbd-48d0-91d9-74e6f612090a","ios":"levelo://app?vid=b8c7f308-bdbd-48d0-91d9-74e6f612090a"},"vehicle_type_id":"4","last_reported":1746624352,"current_range_meters":9200,"station_id":"ce4bhmp2rcd13ifvqgog","pricing_plan_id":"cebpf4jnsgd1na2vs0mg"},{"bike_id":"ca017a0f-7ca8-4a7d-86a9-105a3f74b242","system_id":"levelo_inurba_marseille","lat":43.32081,"lon":5.41519,"is_reserved":false,"is_disabled":false,"rental_uris":{"android":"levelo://app?vid=ca017a0f-7ca8-4a7d-86a9-105a3f74b242","ios":"levelo://app?vid=ca017a0f-7ca8-4a7d-86a9-105a3f74b242"},"vehicle_type_id":"4","last_reported":1746624352,"current_range_meters":9200,"station_id":"","pricing_plan_id":"cebpf4jnsgd1na2vs0mg"},{"bike_id":"c7741849-e541-44df-8dea-1d3f1b8cc5f0","system_id":"levelo_inurba_marseille","lat":43.330131,"lon":5.390374,"is_reserved":false,"is_disabled":false,"rental_uris":{"android":"levelo://app?vid=c7741849-e541-44df-8dea-1d3f1b8cc5f0","ios":"levelo://app?vid=c7741849-e541-44df-8dea-1d3f1b8cc5f0"},"vehicle_type_id":"4","last_reported":1746624352,"current_range_meters":9200,"station_id":"ce4bhr92rcd13ifvqhrg","pricing_plan_id":"cebpf4jnsgd1na2vs0mg"},{"bike_id":"d388f03a-ecc3-40cd-9bc2-85e02b31c01a","system_id":"levelo_inurba_marseille","lat":43.29555,"lon":5.42296,"is_reserved":false,"is_disabled":false,"rental_uris":{"android":"levelo://app?vid=d388f03a-ecc3-40cd-9bc2-85e02b31c01a","ios":"levelo://app?vid=d388f03a-ecc3-40cd-9bc2-85e02b31c01a"},"vehicle_type_id":"4","last_reported":1746624352,"current_range_meters":9200,"station_id":"ce4bhph2rcd13ifvqhdg","pricing_plan_id":"cebpf4jnsgd1na2vs0mg"},{"bike_id":"fa63a7e4-e781-4293-89ae-80fbf3b33863","system_id":"levelo_inurba_marseille","lat":43.25454,"lon":5.41857,"is_reserved":false,"is_disabled":false,"rental_uris":{"android":"levelo://app?vid=fa63a7e4-e781-4293-89ae-80fbf3b33863","ios":"levelo://app?vid=fa63a7e4-e781-4293-89ae-80fbf3b33863"},"vehicle_type_id":"4","last_reported":1746624352,"current_range_meters":9600,"station_id":"","pricing_plan_id":"cebpf4jnsgd1na2vs0mg"},{"bike_id":"9ccc914b-88b1-4fad-9ae3-18a5d3a4419f","system_id":"levelo_inurba_marseille","lat":43.3089,"lon":5.39644,"is_reserved":false,"is_disabled":false,"rental_uris":{"android":"levelo://app?vid=9ccc914b-88b1-4fad-9ae3-18a5d3a4419f","ios":"levelo://app?vid=9ccc914b-88b1-4fad-9ae3-18a5d3a4419f"},"vehicle_type_id":"4","last_reported":1746624352,"current_range_meters":9600,"station_id":"ce4bh012rcd13ifvqcv0","pricing_plan_id":"cebpf4jnsgd1na2vs0mg"},{"bike_id":"f222666a-f926-4214-8dce-d77fc865974c","system_id":"levelo_inurba_marseille","lat":43.30143,"lon":5.39881,"is_reserved":false,"is_disabled":false,"rental_uris":{"android":"levelo://app?vid=f222666a-f926-4214-8dce-d77fc865974c","ios":"levelo://app?vid=f222666a-f926-4214-8dce-d77fc865974c"},"vehicle_type_id":"4","last_reported":1746624352,"current_range_meters":9600,"station_id":"ce4bh0h2rcd13ifvqd40","pricing_plan_id":"cebpf4jnsgd1na2vs0mg"},{"bike_id":"753398a0-d47d-4bda-b74f-dfe7ef5cc8b9","system_id":"levelo_inurba_marseille","lat":43.31268,"lon":5.40158,"is_reserved":false,"is_disabled":false,"rental_uris":{"android":"levelo://app?vid=753398a0-d47d-4bda-b74f-dfe7ef5cc8b9","ios":"levelo://app?vid=753398a0-d47d-4bda-b74f-dfe7ef5cc8b9"},"vehicle_type_id":"4","last_reported":1746624352,"current_range_meters":9600,"station_id":"ce4bh092rcd13ifvqd30","pricing_plan_id":"cebpf4jnsgd1na2vs0mg"},{"bike_id":"550a603c-3335-4c1e-ae05-7c46a9d980c2","system_id":"levelo_inurba_marseille","lat":43.27071,"lon":5.4228,"is_reserved":false,"is_disabled":false,"rental_uris":{"android":"levelo://app?vid=550a603c-3335-4c1e-ae05-7c46a9d980c2","ios":"levelo://app?vid=550a603c-3335-4c1e-ae05-7c46a9d980c2"},"vehicle_type_id":"4","last_reported":1746624352,"current_range_meters":10000,"station_id":"ce4bhk92rcd13ifvqgb0","pricing_plan_id":"cebpf4jnsgd1na2vs0mg"},{"bike_id":"87b728cb-5fb6-49bd-9607-2fcc25d3dad8","system_id":"levelo_inurba_marseille","lat":43.27374,"lon":5.36256,"is_reserved":false,"is_disabled":false,"rental_uris":{"android":"levelo://app?vid=87b728cb-5fb6-49bd-9607-2fcc25d3dad8","ios":"levelo://app?vid=87b728cb-5fb6-49bd-9607-2fcc25d3dad8"},"vehicle_type_id":"4","last_reported":1746624352,"current_range_meters":10000,"station_id":"ce4bhbh2rcd13ifvqeo0","pricing_plan_id":"cebpf4jnsgd1na2vs0mg"},{"bike_id":"ed22c935-500e-4da6-8605-86ff1ebdd535","system_id":"levelo_inurba_marseille","lat":43.29908,"lon":5.3747,"is_reserved":false,"is_disabled":false,"rental_uris":{"android":"levelo://app?vid=ed22c935-500e-4da6-8605-86ff1ebdd535","ios":"levelo://app?vid=ed22c935-500e-4da6-8605-86ff1ebdd535"},"vehicle_type_id":"4","last_reported":1746624352,"current_range_meters":10000,"station_id":"ce4bgjh2rcd13ifvqbg0","pricing_plan_id":"cebpf4jnsgd1na2vs0mg"},{"bike_id":"d9dfe991-b197-44fe-b05f-dd63e0c08974","system_id":"levelo_inurba_marseille","lat":43.26192,"lon":5.40448,"is_reserved":false,"is_disabled":false,"rental_uris":{"android":"levelo://app?vid=d9dfe991-b197-44fe-b05f-dd63e0c08974","ios":"levelo://app?vid=d9dfe991-b197-44fe-b05f-dd63e0c08974"},"vehicle_type_id":"4","last_reported":1746624352,"current_range_meters":10000,"station_id":"ce4bhmh2rcd13ifvqgmg","pricing_plan_id":"cebpf4jnsgd1na2vs0mg"},{"bike_id":"b7bdbe3a-b7ec-4256-908f-dfa71835a5d1","system_id":"levelo_inurba_marseille","lat":43.28604,"lon":5.37056,"is_reserved":false,"is_disabled":false,"rental_uris":{"android":"levelo://app?vid=b7bdbe3a-b7ec-4256-908f-dfa71835a5d1","ios":"levelo://app?vid=b7bdbe3a-b7ec-4256-908f-dfa71835a5d1"},"vehicle_type_id":"4","last_reported":1746624352,"current_range_meters":10000,"station_id":"ce4bht12rcd13ifvqi60","pricing_plan_id":"cebpf4jnsgd1na2vs0mg"},{"bike_id":"0e337a4a-4a96-43f1-9cab-9b8e838cf8be","system_id":"levelo_inurba_marseille","lat":43.280012,"lon":5.416653,"is_reserved":false,"is_disabled":false,"rental_uris":{"android":"levelo://app?vid=0e337a4a-4a96-43f1-9cab-9b8e838cf8be","ios":"levelo://app?vid=0e337a4a-4a96-43f1-9cab-9b8e838cf8be"},"vehicle_type_id":"4","last_reported":1746624352,"current_range_meters":10800,"station_id":"ce4bho12rcd13ifvqh1g","pricing_plan_id":"cebpf4jnsgd1na2vs0mg"},{"bike_id":"0a7a8bef-7c05-4e20-b815-563641173f10","system_id":"levelo_inurba_marseille","lat":43.3053,"lon":5.38417,"is_reserved":false,"is_disabled":false,"rental_uris":{"android":"levelo://app?vid=0a7a8bef-7c05-4e20-b815-563641173f10","ios":"levelo://app?vid=0a7a8bef-7c05-4e20-b815-563641173f10"},"vehicle_type_id":"4","last_reported":1746624352,"current_range_meters":10800,"station_id":"ce4bgg92rcd13ifvqb30","pricing_plan_id":"cebpf4jnsgd1na2vs0mg"},{"bike_id":"38dd1aae-f2cc-4896-992d-5b6cde116562","system_id":"levelo_inurba_marseille","lat":43.29534,"lon":5.38529,"is_reserved":false,"is_disabled":false,"rental_uris":{"android":"levelo://app?vid=38dd1aae-f2cc-4896-992d-5b6cde116562","ios":"levelo://app?vid=38dd1aae-f2cc-4896-992d-5b6cde116562"},"vehicle_type_id":"4","last_reported":1746624352,"current_range_meters":10800,"station_id":"ce4bgih2rcd13ifvqba0","pricing_plan_id":"cebpf4jnsgd1na2vs0mg"},{"bike_id":"0cefc7d7-450c-4243-8483-b9d12009d242","system_id":"levelo_inurba_marseille","lat":43.24173,"lon":5.36399,"is_reserved":false,"is_disabled":false,"rental_uris":{"android":"levelo://app?vid=0cefc7d7-450c-4243-8483-b9d12009d242","ios":"levelo://app?vid=0cefc7d7-450c-4243-8483-b9d12009d242"},"vehicle_type_id":"4","last_reported":1746624352,"current_range_meters":10800,"station_id":"cpo36qri1sfpv3e86is0","pricing_plan_id":"cebpf4jnsgd1na2vs0mg"},{"bike_id":"741922f7-49ff-4751-a228-5a73f2c8c24d","system_id":"levelo_inurba_marseille","lat":43.241694,"lon":5.364017,"is_reserved":false,"is_disabled":false,"rental_uris":{"android":"levelo://app?vid=741922f7-49ff-4751-a228-5a73f2c8c24d","ios":"levelo://app?vid=741922f7-49ff-4751-a228-5a73f2c8c24d"},"vehicle_type_id":"4","last_reported":1746624352,"current_range_meters":10800,"station_id":"cpo36qri1sfpv3e86is0","pricing_plan_id":"cebpf4jnsgd1na2vs0mg"},{"bike_id":"02f3397d-5ddb-4cf5-bc2e-9c1d79e31e65","system_id":"levelo_inurba_marseille","lat":43.3053,"lon":5.36554,"is_reserved":false,"is_disabled":false,"rental_uris":{"android":"levelo://app?vid=02f3397d-5ddb-4cf5-bc2e-9c1d79e31e65","ios":"levelo://app?vid=02f3397d-5ddb-4cf5-bc2e-9c1d79e31e65"},"vehicle_type_id":"4","last_reported":1746624352,"current_range_meters":10800,"station_id":"ce4bgs12rcd13ifvqcag","pricing_plan_id":"cebpf4jnsgd1na2vs0mg"},{"bike_id":"a143a6d0-3439-4bd9-aa7d-b3f92785d1ce","system_id":"levelo_inurba_marseille","lat":43.29578,"lon":5.367472,"is_reserved":false,"is_disabled":false,"rental_uris":{"android":"levelo://app?vid=a143a6d0-3439-4bd9-aa7d-b3f92785d1ce","ios":"levelo://app?vid=a143a6d0-3439-4bd9-aa7d-b3f92785d1ce"},"vehicle_type_id":"4","last_reported":1746624352,"current_range_meters":10800,"station_id":"","pricing_plan_id":"cebpf4jnsgd1na2vs0mg"},{"bike_id":"b5239a39-0ae5-4a88-8fa8-e03140b2ec20","system_id":"levelo_inurba_marseille","lat":43.2919,"lon":5.39323,"is_reserved":false,"is_disabled":false,"rental_uris":{"android":"levelo://app?vid=b5239a39-0ae5-4a88-8fa8-e03140b2ec20","ios":"levelo://app?vid=b5239a39-0ae5-4a88-8fa8-e03140b2ec20"},"vehicle_type_id":"4","last_reported":1746624352,"current_range_meters":10800,"station_id":"ce4bh192rcd13ifvqdd0","pricing_plan_id":"cebpf4jnsgd1na2vs0mg"},{"bike_id":"b7a492e6-8d69-4964-801e-de9f1b5e04d3","system_id":"levelo_inurba_marseille","lat":43.26591,"lon":5.39021,"is_reserved":false,"is_disabled":false,"rental_uris":{"android":"levelo://app?vid=b7a492e6-8d69-4964-801e-de9f1b5e04d3","ios":"levelo://app?vid=b7a492e6-8d69-4964-801e-de9f1b5e04d3"},"vehicle_type_id":"4","last_reported":1746624352,"current_range_meters":10800,"station_id":"ce4bhe12rcd13ifvqf30","pricing_plan_id":"cebpf4jnsgd1na2vs0mg"},{"bike_id":"d2b485da-a860-49e5-bb63-c5eb06172ac4","system_id":"levelo_inurba_marseille","lat":43.31081,"lon":5.42422,"is_reserved":false,"is_disabled":false,"rental_uris":{"android":"levelo://app?vid=d2b485da-a860-49e5-bb63-c5eb06172ac4","ios":"levelo://app?vid=d2b485da-a860-49e5-bb63-c5eb06172ac4"},"vehicle_type_id":"4","last_reported":1746624352,"current_range_meters":11200,"station_id":"ce4bhp92rcd13ifvqhag","pricing_plan_id":"cebpf4jnsgd1na2vs0mg"},{"bike_id":"b3b62122-fdac-442d-9cfe-0601dc5ac2c7","system_id":"levelo_inurba_marseille","lat":43.31761,"lon":5.39015,"is_reserved":false,"is_disabled":false,"rental_uris":{"android":"levelo://app?vid=b3b62122-fdac-442d-9cfe-0601dc5ac2c7","ios":"levelo://app?vid=b3b62122-fdac-442d-9cfe-0601dc5ac2c7"},"vehicle_type_id":"4","last_reported":1746624352,"current_range_meters":11200,"station_id":"ce4bhqp2rcd13ifvqhng","pricing_plan_id":"cebpf4jnsgd1na2vs0mg"},{"bike_id":"a006d141-6d83-4b32-ab48-32ff783e633d","system_id":"levelo_inurba_marseille","lat":43.30619,"lon":5.37219,"is_reserved":false,"is_disabled":false,"rental_uris":{"android":"levelo://app?vid=a006d141-6d83-4b32-ab48-32ff783e633d","ios":"levelo://app?vid=a006d141-6d83-4b32-ab48-32ff783e633d"},"vehicle_type_id":"4","last_reported":1746624352,"current_range_meters":11200,"station_id":"ce4bgqh2rcd13ifvqc4g","pricing_plan_id":"cebpf4jnsgd1na2vs0mg"},{"bike_id":"66ffeff5-0bec-4fe6-8d38-c71feb807f28","system_id":"levelo_inurba_marseille","lat":43.29529,"lon":5.38531,"is_reserved":false,"is_disabled":false,"rental_uris":{"android":"levelo://app?vid=66ffeff5-0bec-4fe6-8d38-c71feb807f28","ios":"levelo://app?vid=66ffeff5-0bec-4fe6-8d38-c71feb807f28"},"vehicle_type_id":"4","last_reported":1746624352,"current_range_meters":11200,"station_id":"ce4bgih2rcd13ifvqba0","pricing_plan_id":"cebpf4jnsgd1na2vs0mg"},{"bike_id":"39c16c75-bc9c-49f6-af9a-bd6b3ef5af9d","system_id":"levelo_inurba_marseille","lat":43.290771,"lon":5.371481,"is_reserved":false,"is_disabled":false,"rental_uris":{"android":"levelo://app?vid=39c16c75-bc9c-49f6-af9a-bd6b3ef5af9d","ios":"levelo://app?vid=39c16c75-bc9c-49f6-af9a-bd6b3ef5af9d"},"vehicle_type_id":"4","last_reported":1746624352,"current_range_meters":11200,"station_id":"ce4bh5p2rcd13ifvqe4g","pricing_plan_id":"cebpf4jnsgd1na2vs0mg"},{"bike_id":"e77418f2-84aa-4f0a-b73d-c5526a71d363","system_id":"levelo_inurba_marseille","lat":43.31324,"lon":5.39705,"is_reserved":false,"is_disabled":false,"rental_uris":{"android":"levelo://app?vid=e77418f2-84aa-4f0a-b73d-c5526a71d363","ios":"levelo://app?vid=e77418f2-84aa-4f0a-b73d-c5526a71d363"},"vehicle_type_id":"4","last_reported":1746624352,"current_range_meters":11600,"station_id":"ce4bgvp2rcd13ifvqcu0","pricing_plan_id":"cebpf4jnsgd1na2vs0mg"},{"bike_id":"1d19d781-d247-469b-b961-c1bbaef645e6","system_id":"levelo_inurba_marseille","lat":43.29223,"lon":5.3605,"is_reserved":false,"is_disabled":false,"rental_uris":{"android":"levelo://app?vid=1d19d781-d247-469b-b961-c1bbaef645e6","ios":"levelo://app?vid=1d19d781-d247-469b-b961-c1bbaef645e6"},"vehicle_type_id":"4","last_reported":1746624352,"current_range_meters":11600,"station_id":"ce4bhbh2rcd13ifvqeqg","pricing_plan_id":"cebpf4jnsgd1na2vs0mg"},{"bike_id":"b711239d-7bb5-4b5c-bb97-361f6e90c37b","system_id":"levelo_inurba_marseille","lat":43.29981,"lon":5.38487,"is_reserved":false,"is_disabled":false,"rental_uris":{"android":"levelo://app?vid=b711239d-7bb5-4b5c-bb97-361f6e90c37b","ios":"levelo://app?vid=b711239d-7bb5-4b5c-bb97-361f6e90c37b"},"vehicle_type_id":"4","last_reported":1746624352,"current_range_meters":11600,"station_id":"ce4bgj92rcd13ifvqbd0","pricing_plan_id":"cebpf4jnsgd1na2vs0mg"},{"bike_id":"4333ff5a-504f-41f6-8a85-957c52263d4e","system_id":"levelo_inurba_marseille","lat":43.28401,"lon":5.37516,"is_reserved":false,"is_disabled":false,"rental_uris":{"android":"levelo://app?vid=4333ff5a-504f-41f6-8a85-957c52263d4e","ios":"levelo://app?vid=4333ff5a-504f-41f6-8a85-957c52263d4e"},"vehicle_type_id":"4","last_reported":1746624352,"current_range_meters":12000,"station_id":"ce4bh412rcd13ifvqds0","pricing_plan_id":"cebpf4jnsgd1na2vs0mg"},{"bike_id":"d0f193c2-9ec6-47d2-885a-742efdb9825a","system_id":"levelo_inurba_marseille","lat":43.29279,"lon":5.36835,"is_reserved":false,"is_disabled":false,"rental_uris":{"android":"levelo://app?vid=d0f193c2-9ec6-47d2-885a-742efdb9825a","ios":"levelo://app?vid=d0f193c2-9ec6-47d2-885a-742efdb9825a"},"vehicle_type_id":"4","last_reported":1746624352,"current_range_meters":12000,"station_id":"ce4bhbp2rcd13ifvqesg","pricing_plan_id":"cebpf4jnsgd1na2vs0mg"},{"bike_id":"0f16a9dc-1ee4-4971-9a38-8a217d5a61e9","system_id":"levelo_inurba_marseille","lat":43.30138,"lon":5.38789,"is_reserved":false,"is_disabled":false,"rental_uris":{"android":"levelo://app?vid=0f16a9dc-1ee4-4971-9a38-8a217d5a61e9","ios":"levelo://app?vid=0f16a9dc-1ee4-4971-9a38-8a217d5a61e9"},"vehicle_type_id":"4","last_reported":1746624352,"current_range_meters":12000,"station_id":"ce4bghh2rcd13ifvqb60","pricing_plan_id":"cebpf4jnsgd1na2vs0mg"},{"bike_id":"438ec6ca-46d2-4acd-bb65-ab5fd6749423","system_id":"levelo_inurba_marseille","lat":43.25909,"lon":5.40904,"is_reserved":false,"is_disabled":false,"rental_uris":{"android":"levelo://app?vid=438ec6ca-46d2-4acd-bb65-ab5fd6749423","ios":"levelo://app?vid=438ec6ca-46d2-4acd-bb65-ab5fd6749423"},"vehicle_type_id":"4","last_reported":1746624352,"current_range_meters":12000,"station_id":"ce4bhm92rcd13ifvqglg","pricing_plan_id":"cebpf4jnsgd1na2vs0mg"},{"bike_id":"214a003f-a856-4a2d-abd4-bf11831fc261","system_id":"levelo_inurba_marseille","lat":43.30603,"lon":5.37266,"is_reserved":false,"is_disabled":false,"rental_uris":{"android":"levelo://app?vid=214a003f-a856-4a2d-abd4-bf11831fc261","ios":"levelo://app?vid=214a003f-a856-4a2d-abd4-bf11831fc261"},"vehicle_type_id":"4","last_reported":1746624352,"current_range_meters":12000,"station_id":"ce4bgqh2rcd13ifvqc4g","pricing_plan_id":"cebpf4jnsgd1na2vs0mg"},{"bike_id":"fb7ca668-a1d8-450d-ba12-273fd8f79e2e","system_id":"levelo_inurba_marseille","lat":43.30923,"lon":5.40112,"is_reserved":false,"is_disabled":false,"rental_uris":{"android":"levelo://app?vid=fb7ca668-a1d8-450d-ba12-273fd8f79e2e","ios":"levelo://app?vid=fb7ca668-a1d8-450d-ba12-273fd8f79e2e"},"vehicle_type_id":"4","last_reported":1746624352,"current_range_meters":12000,"station_id":"ce4bgvp2rcd13ifvqct0","pricing_plan_id":"cebpf4jnsgd1na2vs0mg"},{"bike_id":"5b942843-09f8-4954-9a49-c4ecc4d6ce1f","system_id":"levelo_inurba_marseille","lat":43.309346,"lon":5.401376,"is_reserved":false,"is_disabled":false,"rental_uris":{"android":"levelo://app?vid=5b942843-09f8-4954-9a49-c4ecc4d6ce1f","ios":"levelo://app?vid=5b942843-09f8-4954-9a49-c4ecc4d6ce1f"},"vehicle_type_id":"4","last_reported":1746624352,"current_range_meters":12000,"station_id":"ce4bgvp2rcd13ifvqct0","pricing_plan_id":"cebpf4jnsgd1na2vs0mg"},{"bike_id":"dd8a3b62-0e9e-4e30-a09c-9479456c5568","system_id":"levelo_inurba_marseille","lat":43.29274,"lon":5.3684,"is_reserved":false,"is_disabled":false,"rental_uris":{"android":"levelo://app?vid=dd8a3b62-0e9e-4e30-a09c-9479456c5568","ios":"levelo://app?vid=dd8a3b62-0e9e-4e30-a09c-9479456c5568"},"vehicle_type_id":"4","last_reported":1746624352,"current_range_meters":12000,"station_id":"ce4bhbp2rcd13ifvqesg","pricing_plan_id":"cebpf4jnsgd1na2vs0mg"},{"bike_id":"693e409e-f47d-4be9-b26f-8a802adf3777","system_id":"levelo_inurba_marseille","lat":43.25005,"lon":5.38926,"is_reserved":false,"is_disabled":false,"rental_uris":{"android":"levelo://app?vid=693e409e-f47d-4be9-b26f-8a802adf3777","ios":"levelo://app?vid=693e409e-f47d-4be9-b26f-8a802adf3777"},"vehicle_type_id":"4","last_reported":1746624352,"current_range_meters":12000,"station_id":"ce4bhgp2rcd13ifvqfd0","pricing_plan_id":"cebpf4jnsgd1na2vs0mg"},{"bike_id":"7958e645-3452-4f90-ae69-b498436f4d86","system_id":"levelo_inurba_marseille","lat":43.27618,"lon":5.36101,"is_reserved":false,"is_disabled":false,"rental_uris":{"android":"levelo://app?vid=7958e645-3452-4f90-ae69-b498436f4d86","ios":"levelo://app?vid=7958e645-3452-4f90-ae69-b498436f4d86"},"vehicle_type_id":"4","last_reported":1746624352,"current_range_meters":12400,"station_id":"ce4bgj92rcd13ifvqbe0","pricing_plan_id":"cebpf4jnsgd1na2vs0mg"},{"bike_id":"67bf6e92-3bb5-4c61-8147-f0c993db290f","system_id":"levelo_inurba_marseille","lat":43.25729,"lon":5.41109,"is_reserved":false,"is_disabled":false,"rental_uris":{"android":"levelo://app?vid=67bf6e92-3bb5-4c61-8147-f0c993db290f","ios":"levelo://app?vid=67bf6e92-3bb5-4c61-8147-f0c993db290f"},"vehicle_type_id":"4","last_reported":1746624352,"current_range_meters":12400,"station_id":"ce4bhkp2rcd13ifvqgd0","pricing_plan_id":"cebpf4jnsgd1na2vs0mg"},{"bike_id":"bc41da91-0887-41e2-9d58-ca4895324dbe","system_id":"levelo_inurba_marseille","lat":43.26558,"lon":5.37279,"is_reserved":false,"is_disabled":false,"rental_uris":{"android":"levelo://app?vid=bc41da91-0887-41e2-9d58-ca4895324dbe","ios":"levelo://app?vid=bc41da91-0887-41e2-9d58-ca4895324dbe"},"vehicle_type_id":"4","last_reported":1746624352,"current_range_meters":12400,"station_id":"ce4bhg12rcd13ifvqf70","pricing_plan_id":"cebpf4jnsgd1na2vs0mg"},{"bike_id":"67839952-cb91-4dea-b96d-d2f7193e6062","system_id":"levelo_inurba_marseille","lat":43.28711,"lon":5.37917,"is_reserved":false,"is_disabled":false,"rental_uris":{"android":"levelo://app?vid=67839952-cb91-4dea-b96d-d2f7193e6062","ios":"levelo://app?vid=67839952-cb91-4dea-b96d-d2f7193e6062"},"vehicle_type_id":"4","last_reported":1746624352,"current_range_meters":12400,"station_id":"ce4bh9p2rcd13ifvqec0","pricing_plan_id":"cebpf4jnsgd1na2vs0mg"},{"bike_id":"26346828-3bdc-4d5e-a933-008e010c6706","system_id":"levelo_inurba_marseille","lat":43.32115,"lon":5.36776,"is_reserved":false,"is_disabled":false,"rental_uris":{"android":"levelo://app?vid=26346828-3bdc-4d5e-a933-008e010c6706","ios":"levelo://app?vid=26346828-3bdc-4d5e-a933-008e010c6706"},"vehicle_type_id":"4","last_reported":1746624352,"current_range_meters":12400,"station_id":"ce4bhrh2rcd13ifvqhug","pricing_plan_id":"cebpf4jnsgd1na2vs0mg"},{"bike_id":"23370949-7935-4d60-98ad-a89c0a188d59","system_id":"levelo_inurba_marseille","lat":43.308004,"lon":5.381504,"is_reserved":false,"is_disabled":false,"rental_uris":{"android":"levelo://app?vid=23370949-7935-4d60-98ad-a89c0a188d59","ios":"levelo://app?vid=23370949-7935-4d60-98ad-a89c0a188d59"},"vehicle_type_id":"4","last_reported":1746624352,"current_range_meters":12400,"station_id":"ce4bgt12rcd13ifvqce0","pricing_plan_id":"cebpf4jnsgd1na2vs0mg"},{"bike_id":"65a029e4-2630-4624-8ec7-bcf9b5dd7c31","system_id":"levelo_inurba_marseille","lat":43.27917,"lon":5.39573,"is_reserved":false,"is_disabled":false,"rental_uris":{"android":"levelo://app?vid=65a029e4-2630-4624-8ec7-bcf9b5dd7c31","ios":"levelo://app?vid=65a029e4-2630-4624-8ec7-bcf9b5dd7c31"},"vehicle_type_id":"4","last_reported":1746624352,"current_range_meters":12800,"station_id":"ce4bhf92rcd13ifvqf40","pricing_plan_id":"cebpf4jnsgd1na2vs0mg"},{"bike_id":"b0187978-ac45-4af6-8921-fd74720a4498","system_id":"levelo_inurba_marseille","lat":43.26785,"lon":5.39415,"is_reserved":false,"is_disabled":false,"rental_uris":{"android":"levelo://app?vid=b0187978-ac45-4af6-8921-fd74720a4498","ios":"levelo://app?vid=b0187978-ac45-4af6-8921-fd74720a4498"},"vehicle_type_id":"4","last_reported":1746624352,"current_range_meters":12800,"station_id":"ce4bhh12rcd13ifvqfg0","pricing_plan_id":"cebpf4jnsgd1na2vs0mg"},{"bike_id":"3423b86e-a449-4405-b658-7c916b190ee7","system_id":"levelo_inurba_marseille","lat":43.33599,"lon":5.41026,"is_reserved":false,"is_disabled":false,"rental_uris":{"android":"levelo://app?vid=3423b86e-a449-4405-b658-7c916b190ee7","ios":"levelo://app?vid=3423b86e-a449-4405-b658-7c916b190ee7"},"vehicle_type_id":"4","last_reported":1746624352,"current_range_meters":13600,"station_id":"ce4bhqh2rcd13ifvqhmg","pricing_plan_id":"cebpf4jnsgd1na2vs0mg"},{"bike_id":"47fdd7f8-e4df-4edc-bf26-a92cf466959a","system_id":"levelo_inurba_marseille","lat":43.25935,"lon":5.40907,"is_reserved":false,"is_disabled":false,"rental_uris":{"android":"levelo://app?vid=47fdd7f8-e4df-4edc-bf26-a92cf466959a","ios":"levelo://app?vid=47fdd7f8-e4df-4edc-bf26-a92cf466959a"},"vehicle_type_id":"4","last_reported":1746624352,"current_range_meters":14000,"station_id":"ce4bhm92rcd13ifvqglg","pricing_plan_id":"cebpf4jnsgd1na2vs0mg"},{"bike_id":"7394f5b5-efee-43ec-b752-fd4407af8c11","system_id":"levelo_inurba_marseille","lat":43.32339,"lon":5.40625,"is_reserved":false,"is_disabled":false,"rental_uris":{"android":"levelo://app?vid=7394f5b5-efee-43ec-b752-fd4407af8c11","ios":"levelo://app?vid=7394f5b5-efee-43ec-b752-fd4407af8c11"},"vehicle_type_id":"4","last_reported":1746624352,"current_range_meters":14000,"station_id":"ce4bhq92rcd13ifvqhjg","pricing_plan_id":"cebpf4jnsgd1na2vs0mg"},{"bike_id":"0ae6f3ad-fc1a-4106-a96f-d1b5a1e2b674","system_id":"levelo_inurba_marseille","lat":43.30547,"lon":5.36554,"is_reserved":false,"is_disabled":false,"rental_uris":{"android":"levelo://app?vid=0ae6f3ad-fc1a-4106-a96f-d1b5a1e2b674","ios":"levelo://app?vid=0ae6f3ad-fc1a-4106-a96f-d1b5a1e2b674"},"vehicle_type_id":"4","last_reported":1746624352,"current_range_meters":14000,"station_id":"ce4bgs12rcd13ifvqcag","pricing_plan_id":"cebpf4jnsgd1na2vs0mg"},{"bike_id":"63029ff1-1b6a-48a3-aac5-3450aec8e4a5","system_id":"levelo_inurba_marseille","lat":43.31681,"lon":5.40471,"is_reserved":false,"is_disabled":false,"rental_uris":{"android":"levelo://app?vid=63029ff1-1b6a-48a3-aac5-3450aec8e4a5","ios":"levelo://app?vid=63029ff1-1b6a-48a3-aac5-3450aec8e4a5"},"vehicle_type_id":"4","last_reported":1746624352,"current_range_meters":14000,"station_id":"ce4bh012rcd13ifvqd00","pricing_plan_id":"cebpf4jnsgd1na2vs0mg"},{"bike_id":"1802d247-71dc-4e22-8ae2-55da86ba14b9","system_id":"levelo_inurba_marseille","lat":43.29075,"lon":5.3717,"is_reserved":false,"is_disabled":false,"rental_uris":{"android":"levelo://app?vid=1802d247-71dc-4e22-8ae2-55da86ba14b9","ios":"levelo://app?vid=1802d247-71dc-4e22-8ae2-55da86ba14b9"},"vehicle_type_id":"4","last_reported":1746624352,"current_range_meters":13600,"station_id":"ce4bh5p2rcd13ifvqe4g","pricing_plan_id":"cebpf4jnsgd1na2vs0mg"},{"bike_id":"da969974-22aa-46db-8410-739525a3b9a9","system_id":"levelo_inurba_marseille","lat":43.2293,"lon":5.35377,"is_reserved":false,"is_disabled":false,"rental_uris":{"android":"levelo://app?vid=da969974-22aa-46db-8410-739525a3b9a9","ios":"levelo://app?vid=da969974-22aa-46db-8410-739525a3b9a9"},"vehicle_type_id":"4","last_reported":1746624352,"current_range_meters":14000,"station_id":"cpo3532slgdg3j2ikp40","pricing_plan_id":"cebpf4jnsgd1na2vs0mg"},{"bike_id":"0b5cf8e9-e57c-489e-be93-11b97168656d","system_id":"levelo_inurba_marseille","lat":43.26785,"lon":5.39417,"is_reserved":false,"is_disabled":false,"rental_uris":{"android":"levelo://app?vid=0b5cf8e9-e57c-489e-be93-11b97168656d","ios":"levelo://app?vid=0b5cf8e9-e57c-489e-be93-11b97168656d"},"vehicle_type_id":"4","last_reported":1746624352,"current_range_meters":14400,"station_id":"ce4bhh12rcd13ifvqfg0","pricing_plan_id":"cebpf4jnsgd1na2vs0mg"},{"bike_id":"4aab5332-629c-4aea-836f-ca1973fc86bd","system_id":"levelo_inurba_marseille","lat":43.27376,"lon":5.36255,"is_reserved":false,"is_disabled":false,"rental_uris":{"android":"levelo://app?vid=4aab5332-629c-4aea-836f-ca1973fc86bd","ios":"levelo://app?vid=4aab5332-629c-4aea-836f-ca1973fc86bd"},"vehicle_type_id":"4","last_reported":1746624352,"current_range_meters":14400,"station_id":"ce4bhbh2rcd13ifvqeo0","pricing_plan_id":"cebpf4jnsgd1na2vs0mg"},{"bike_id":"25a5fe2d-c149-47ad-a876-809075f6c85f","system_id":"levelo_inurba_marseille","lat":43.31307,"lon":5.36736,"is_reserved":false,"is_disabled":false,"rental_uris":{"android":"levelo://app?vid=25a5fe2d-c149-47ad-a876-809075f6c85f","ios":"levelo://app?vid=25a5fe2d-c149-47ad-a876-809075f6c85f"},"vehicle_type_id":"4","last_reported":1746624352,"current_range_meters":14800,"station_id":"ce4bgr92rcd13ifvqc6g","pricing_plan_id":"cebpf4jnsgd1na2vs0mg"},{"bike_id":"8d5dbba9-0928-4218-8a48-5c2aea1a4f12","system_id":"levelo_inurba_marseille","lat":43.22929,"lon":5.35373,"is_reserved":false,"is_disabled":false,"rental_uris":{"android":"levelo://app?vid=8d5dbba9-0928-4218-8a48-5c2aea1a4f12","ios":"levelo://app?vid=8d5dbba9-0928-4218-8a48-5c2aea1a4f12"},"vehicle_type_id":"4","last_reported":1746624352,"current_range_meters":15200,"station_id":"cpo3532slgdg3j2ikp40","pricing_plan_id":"cebpf4jnsgd1na2vs0mg"},{"bike_id":"47c36b03-4567-4e44-bd14-262b55ce62fc","system_id":"levelo_inurba_marseille","lat":43.25929,"lon":5.40908,"is_reserved":false,"is_disabled":false,"rental_uris":{"android":"levelo://app?vid=47c36b03-4567-4e44-bd14-262b55ce62fc","ios":"levelo://app?vid=47c36b03-4567-4e44-bd14-262b55ce62fc"},"vehicle_type_id":"4","last_reported":1746624352,"current_range_meters":15200,"station_id":"ce4bhm92rcd13ifvqglg","pricing_plan_id":"cebpf4jnsgd1na2vs0mg"},{"bike_id":"3b6164fd-041a-47ca-a404-42ca97928169","system_id":"levelo_inurba_marseille","lat":43.21191,"lon":5.350733,"is_reserved":false,"is_disabled":false,"rental_uris":{"android":"levelo://app?vid=3b6164fd-041a-47ca-a404-42ca97928169","ios":"levelo://app?vid=3b6164fd-041a-47ca-a404-42ca97928169"},"vehicle_type_id":"4","last_reported":1746624352,"current_range_meters":16000,"station_id":"st_cvj6sg6p6f1abm77japg","pricing_plan_id":"cebpf4jnsgd1na2vs0mg"},{"bike_id":"f1aa0b8d-5fe7-478d-a69c-ac9cc9b4360a","system_id":"levelo_inurba_marseille","lat":43.2603,"lon":5.3755,"is_reserved":false,"is_disabled":false,"rental_uris":{"android":"levelo://app?vid=f1aa0b8d-5fe7-478d-a69c-ac9cc9b4360a","ios":"levelo://app?vid=f1aa0b8d-5fe7-478d-a69c-ac9cc9b4360a"},"vehicle_type_id":"4","last_reported":1746624352,"current_range_meters":15200,"station_id":"ce4bhgh2rcd13ifvqfa0","pricing_plan_id":"cebpf4jnsgd1na2vs0mg"},{"bike_id":"7bc0b504-a5dd-43d1-bd7f-9098372c90d2","system_id":"levelo_inurba_marseille","lat":43.29305,"lon":5.37166,"is_reserved":false,"is_disabled":false,"rental_uris":{"android":"levelo://app?vid=7bc0b504-a5dd-43d1-bd7f-9098372c90d2","ios":"levelo://app?vid=7bc0b504-a5dd-43d1-bd7f-9098372c90d2"},"vehicle_type_id":"4","last_reported":1746624352,"current_range_meters":16000,"station_id":"ce4bgh92rcd13ifvqb40","pricing_plan_id":"cebpf4jnsgd1na2vs0mg"},{"bike_id":"eb7ce179-cecf-429f-9638-cb7d0db3292f","system_id":"levelo_inurba_marseille","lat":43.29033,"lon":5.39958,"is_reserved":false,"is_disabled":false,"rental_uris":{"android":"levelo://app?vid=eb7ce179-cecf-429f-9638-cb7d0db3292f","ios":"levelo://app?vid=eb7ce179-cecf-429f-9638-cb7d0db3292f"},"vehicle_type_id":"4","last_reported":1746624352,"current_range_meters":16000,"station_id":"ce4bh392rcd13ifvqdm0","pricing_plan_id":"cebpf4jnsgd1na2vs0mg"},{"bike_id":"a2f7b86b-a057-41af-a8cd-3c30a49f4d2d","system_id":"levelo_inurba_marseille","lat":43.30886,"lon":5.37186,"is_reserved":false,"is_disabled":false,"rental_uris":{"android":"levelo://app?vid=a2f7b86b-a057-41af-a8cd-3c30a49f4d2d","ios":"levelo://app?vid=a2f7b86b-a057-41af-a8cd-3c30a49f4d2d"},"vehicle_type_id":"4","last_reported":1746624352,"current_range_meters":16000,"station_id":"ce4bguh2rcd13ifvqckg","pricing_plan_id":"cebpf4jnsgd1na2vs0mg"},{"bike_id":"08e4c918-79d6-4026-bf5c-2085d0e602c5","system_id":"levelo_inurba_marseille","lat":43.21182,"lon":5.35076,"is_reserved":false,"is_disabled":true,"rental_uris":{"android":"levelo://app?vid=08e4c918-79d6-4026-bf5c-2085d0e602c5","ios":"levelo://app?vid=08e4c918-79d6-4026-bf5c-2085d0e602c5"},"vehicle_type_id":"4","last_reported":1746624352,"current_range_meters":16000,"station_id":"st_cvj6sg6p6f1abm77japg","pricing_plan_id":"cebpf4jnsgd1na2vs0mg"},{"bike_id":"00f22954-95c0-46d1-b8c9-72cbbd1e1259","system_id":"levelo_inurba_marseille","lat":43.24551,"lon":5.39514,"is_reserved":false,"is_disabled":false,"rental_uris":{"android":"levelo://app?vid=00f22954-95c0-46d1-b8c9-72cbbd1e1259","ios":"levelo://app?vid=00f22954-95c0-46d1-b8c9-72cbbd1e1259"},"vehicle_type_id":"4","last_reported":1746624352,"current_range_meters":16000,"station_id":"ce4bhlp2rcd13ifvqgjg","pricing_plan_id":"cebpf4jnsgd1na2vs0mg"},{"bike_id":"81d9e756-e611-4379-b626-5e6439c21fb6","system_id":"levelo_inurba_marseille","lat":43.32361,"lon":5.40606,"is_reserved":false,"is_disabled":false,"rental_uris":{"android":"levelo://app?vid=81d9e756-e611-4379-b626-5e6439c21fb6","ios":"levelo://app?vid=81d9e756-e611-4379-b626-5e6439c21fb6"},"vehicle_type_id":"4","last_reported":1746624352,"current_range_meters":16000,"station_id":"ce4bhq92rcd13ifvqhjg","pricing_plan_id":"cebpf4jnsgd1na2vs0mg"},{"bike_id":"7028a174-055b-430d-9c37-541148093271","system_id":"levelo_inurba_marseille","lat":43.27058,"lon":5.40255,"is_reserved":false,"is_disabled":false,"rental_uris":{"android":"levelo://app?vid=7028a174-055b-430d-9c37-541148093271","ios":"levelo://app?vid=7028a174-055b-430d-9c37-541148093271"},"vehicle_type_id":"4","last_reported":1746624352,"current_range_meters":16000,"station_id":"ce4bhk92rcd13ifvqgc0","pricing_plan_id":"cebpf4jnsgd1na2vs0mg"},{"bike_id":"e0e541af-5956-4344-affc-9b5bf45dc66d","system_id":"levelo_inurba_marseille","lat":43.29771,"lon":5.37085,"is_reserved":false,"is_disabled":false,"rental_uris":{"android":"levelo://app?vid=e0e541af-5956-4344-affc-9b5bf45dc66d","ios":"levelo://app?vid=e0e541af-5956-4344-affc-9b5bf45dc66d"},"vehicle_type_id":"4","last_reported":1746624352,"current_range_meters":16400,"station_id":"ce4bgop2rcd13ifvqc1g","pricing_plan_id":"cebpf4jnsgd1na2vs0mg"},{"bike_id":"4f14a058-4ffe-45da-aa3b-9f122eff4c00","system_id":"levelo_inurba_marseille","lat":43.30419,"lon":5.41274,"is_reserved":false,"is_disabled":false,"rental_uris":{"android":"levelo://app?vid=4f14a058-4ffe-45da-aa3b-9f122eff4c00","ios":"levelo://app?vid=4f14a058-4ffe-45da-aa3b-9f122eff4c00"},"vehicle_type_id":"4","last_reported":1746624352,"current_range_meters":16400,"station_id":"ce4bhop2rcd13ifvqh8g","pricing_plan_id":"cebpf4jnsgd1na2vs0mg"},{"bike_id":"b8bb0d6d-d682-4df7-80c5-da64e9c95891","system_id":"levelo_inurba_marseille","lat":43.25941,"lon":5.40889,"is_reserved":false,"is_disabled":false,"rental_uris":{"android":"levelo://app?vid=b8bb0d6d-d682-4df7-80c5-da64e9c95891","ios":"levelo://app?vid=b8bb0d6d-d682-4df7-80c5-da64e9c95891"},"vehicle_type_id":"4","last_reported":1746624352,"current_range_meters":16800,"station_id":"ce4bhm92rcd13ifvqglg","pricing_plan_id":"cebpf4jnsgd1na2vs0mg"},{"bike_id":"180e9547-1fce-479d-9fa2-8a86a5f7767c","system_id":"levelo_inurba_marseille","lat":43.25003,"lon":5.38923,"is_reserved":false,"is_disabled":false,"rental_uris":{"android":"levelo://app?vid=180e9547-1fce-479d-9fa2-8a86a5f7767c","ios":"levelo://app?vid=180e9547-1fce-479d-9fa2-8a86a5f7767c"},"vehicle_type_id":"4","last_reported":1746624352,"current_range_meters":17200,"station_id":"ce4bhgp2rcd13ifvqfd0","pricing_plan_id":"cebpf4jnsgd1na2vs0mg"},{"bike_id":"14fb2eff-d86a-4f49-a0ef-339a670dd84a","system_id":"levelo_inurba_marseille","lat":43.27973,"lon":5.38704,"is_reserved":false,"is_disabled":false,"rental_uris":{"android":"levelo://app?vid=14fb2eff-d86a-4f49-a0ef-339a670dd84a","ios":"levelo://app?vid=14fb2eff-d86a-4f49-a0ef-339a670dd84a"},"vehicle_type_id":"4","last_reported":1746624352,"current_range_meters":17200,"station_id":"ce4bhg12rcd13ifvqf80","pricing_plan_id":"cebpf4jnsgd1na2vs0mg"},{"bike_id":"797209d3-f9c0-4c80-ade8-eef14a6f8e99","system_id":"levelo_inurba_marseille","lat":43.278121,"lon":5.40723,"is_reserved":false,"is_disabled":false,"rental_uris":{"android":"levelo://app?vid=797209d3-f9c0-4c80-ade8-eef14a6f8e99","ios":"levelo://app?vid=797209d3-f9c0-4c80-ade8-eef14a6f8e99"},"vehicle_type_id":"4","last_reported":1746624352,"current_range_meters":17600,"station_id":"ce4bhnh2rcd13ifvqgtg","pricing_plan_id":"cebpf4jnsgd1na2vs0mg"},{"bike_id":"61be39cd-62ad-4ee8-a728-abfaa4e58570","system_id":"levelo_inurba_marseille","lat":43.27361,"lon":5.36239,"is_reserved":false,"is_disabled":false,"rental_uris":{"android":"levelo://app?vid=61be39cd-62ad-4ee8-a728-abfaa4e58570","ios":"levelo://app?vid=61be39cd-62ad-4ee8-a728-abfaa4e58570"},"vehicle_type_id":"4","last_reported":1746624352,"current_range_meters":17600,"station_id":"ce4bhbh2rcd13ifvqeo0","pricing_plan_id":"cebpf4jnsgd1na2vs0mg"},{"bike_id":"bb745cee-af37-4b23-afc5-3d5aa5ce7aed","system_id":"levelo_inurba_marseille","lat":43.26226,"lon":5.40449,"is_reserved":false,"is_disabled":false,"rental_uris":{"android":"levelo://app?vid=bb745cee-af37-4b23-afc5-3d5aa5ce7aed","ios":"levelo://app?vid=bb745cee-af37-4b23-afc5-3d5aa5ce7aed"},"vehicle_type_id":"4","last_reported":1746624352,"current_range_meters":17600,"station_id":"ce4bhmh2rcd13ifvqgmg","pricing_plan_id":"cebpf4jnsgd1na2vs0mg"},{"bike_id":"b98edc80-a835-4a4f-badd-3ad5c38a24f0","system_id":"levelo_inurba_marseille","lat":43.30293,"lon":5.3772,"is_reserved":false,"is_disabled":false,"rental_uris":{"android":"levelo://app?vid=b98edc80-a835-4a4f-badd-3ad5c38a24f0","ios":"levelo://app?vid=b98edc80-a835-4a4f-badd-3ad5c38a24f0"},"vehicle_type_id":"4","last_reported":1746624352,"current_range_meters":18000,"station_id":"ce4bguh2rcd13ifvqcj0","pricing_plan_id":"cebpf4jnsgd1na2vs0mg"},{"bike_id":"587da499-b8e6-4589-802d-b3b1c01e64c4","system_id":"levelo_inurba_marseille","lat":43.29378,"lon":5.37832,"is_reserved":false,"is_disabled":false,"rental_uris":{"android":"levelo://app?vid=587da499-b8e6-4589-802d-b3b1c01e64c4","ios":"levelo://app?vid=587da499-b8e6-4589-802d-b3b1c01e64c4"},"vehicle_type_id":"4","last_reported":1746624352,"current_range_meters":18000,"station_id":"ce4bgjh2rcd13ifvqbf0","pricing_plan_id":"cebpf4jnsgd1na2vs0mg"},{"bike_id":"f987e5a6-008a-472a-9f70-caa34ec49e22","system_id":"levelo_inurba_marseille","lat":43.26688,"lon":5.38278,"is_reserved":false,"is_disabled":false,"rental_uris":{"android":"levelo://app?vid=f987e5a6-008a-472a-9f70-caa34ec49e22","ios":"levelo://app?vid=f987e5a6-008a-472a-9f70-caa34ec49e22"},"vehicle_type_id":"4","last_reported":1746624352,"current_range_meters":18000,"station_id":"ce4bhg92rcd13ifvqf90","pricing_plan_id":"cebpf4jnsgd1na2vs0mg"},{"bike_id":"12b95769-3bbc-4dbf-a77d-f4bf8dc0e678","system_id":"levelo_inurba_marseille","lat":43.29228,"lon":5.36059,"is_reserved":false,"is_disabled":false,"rental_uris":{"android":"levelo://app?vid=12b95769-3bbc-4dbf-a77d-f4bf8dc0e678","ios":"levelo://app?vid=12b95769-3bbc-4dbf-a77d-f4bf8dc0e678"},"vehicle_type_id":"4","last_reported":1746624352,"current_range_meters":18000,"station_id":"ce4bhbh2rcd13ifvqeqg","pricing_plan_id":"cebpf4jnsgd1na2vs0mg"},{"bike_id":"36fde531-367c-4db5-b34b-778002d28686","system_id":"levelo_inurba_marseille","lat":43.28272,"lon":5.35067,"is_reserved":false,"is_disabled":false,"rental_uris":{"android":"levelo://app?vid=36fde531-367c-4db5-b34b-778002d28686","ios":"levelo://app?vid=36fde531-367c-4db5-b34b-778002d28686"},"vehicle_type_id":"4","last_reported":1746624352,"current_range_meters":18800,"station_id":"ce4bhbp2rcd13ifvqerg","pricing_plan_id":"cebpf4jnsgd1na2vs0mg"},{"bike_id":"46f83161-f60c-4f7c-9541-c0bb26d0ae24","system_id":"levelo_inurba_marseille","lat":43.21783,"lon":5.34603,"is_reserved":false,"is_disabled":false,"rental_uris":{"android":"levelo://app?vid=46f83161-f60c-4f7c-9541-c0bb26d0ae24","ios":"levelo://app?vid=46f83161-f60c-4f7c-9541-c0bb26d0ae24"},"vehicle_type_id":"4","last_reported":1746624352,"current_range_meters":19200,"station_id":"st_cvj6r9ubvosntc0bgbag","pricing_plan_id":"cebpf4jnsgd1na2vs0mg"},{"bike_id":"89f953df-2061-408d-8f0d-6a2938e5443a","system_id":"levelo_inurba_marseille","lat":43.23617,"lon":5.40357,"is_reserved":false,"is_disabled":false,"rental_uris":{"android":"levelo://app?vid=89f953df-2061-408d-8f0d-6a2938e5443a","ios":"levelo://app?vid=89f953df-2061-408d-8f0d-6a2938e5443a"},"vehicle_type_id":"4","last_reported":1746624352,"current_range_meters":19200,"station_id":"","pricing_plan_id":"cebpf4jnsgd1na2vs0mg"},{"bike_id":"83a5d626-dc3f-4996-bd59-d32d80e53924","system_id":"levelo_inurba_marseille","lat":43.27673,"lon":5.38903,"is_reserved":false,"is_disabled":false,"rental_uris":{"android":"levelo://app?vid=83a5d626-dc3f-4996-bd59-d32d80e53924","ios":"levelo://app?vid=83a5d626-dc3f-4996-bd59-d32d80e53924"},"vehicle_type_id":"4","last_reported":1746624352,"current_range_meters":19200,"station_id":"ce4bhi12rcd13ifvqfo0","pricing_plan_id":"cebpf4jnsgd1na2vs0mg"},{"bike_id":"7cb84a55-eae0-4ff8-a8e8-801fd7179396","system_id":"levelo_inurba_marseille","lat":43.30635,"lon":5.37421,"is_reserved":false,"is_disabled":false,"rental_uris":{"android":"levelo://app?vid=7cb84a55-eae0-4ff8-a8e8-801fd7179396","ios":"levelo://app?vid=7cb84a55-eae0-4ff8-a8e8-801fd7179396"},"vehicle_type_id":"4","last_reported":1746624352,"current_range_meters":19200,"station_id":"","pricing_plan_id":"cebpf4jnsgd1na2vs0mg"},{"bike_id":"e6186c9d-29c8-4f12-ac21-6cffdc5e533d","system_id":"levelo_inurba_marseille","lat":43.27836,"lon":5.39213,"is_reserved":false,"is_disabled":false,"rental_uris":{"android":"levelo://app?vid=e6186c9d-29c8-4f12-ac21-6cffdc5e533d","ios":"levelo://app?vid=e6186c9d-29c8-4f12-ac21-6cffdc5e533d"},"vehicle_type_id":"4","last_reported":1746624352,"current_range_meters":19200,"station_id":"ce4bhjp2rcd13ifvqga0","pricing_plan_id":"cebpf4jnsgd1na2vs0mg"},{"bike_id":"5685c192-af0e-432e-a78b-7859fcd0e0d6","system_id":"levelo_inurba_marseille","lat":43.30955,"lon":5.37928,"is_reserved":false,"is_disabled":false,"rental_uris":{"android":"levelo://app?vid=5685c192-af0e-432e-a78b-7859fcd0e0d6","ios":"levelo://app?vid=5685c192-af0e-432e-a78b-7859fcd0e0d6"},"vehicle_type_id":"4","last_reported":1746624352,"current_range_meters":19600,"station_id":"","pricing_plan_id":"cebpf4jnsgd1na2vs0mg"},{"bike_id":"f4c54a2a-b114-49d3-914d-40a26cc9a413","system_id":"levelo_inurba_marseille","lat":43.2836,"lon":5.38633,"is_reserved":false,"is_disabled":false,"rental_uris":{"android":"levelo://app?vid=f4c54a2a-b114-49d3-914d-40a26cc9a413","ios":"levelo://app?vid=f4c54a2a-b114-49d3-914d-40a26cc9a413"},"vehicle_type_id":"4","last_reported":1746624352,"current_range_meters":19600,"station_id":"ce4bh492rcd13ifvqdvg","pricing_plan_id":"cebpf4jnsgd1na2vs0mg"},{"bike_id":"055cf58e-816a-4e9a-b55b-540e90cc8a4d","system_id":"levelo_inurba_marseille","lat":43.29562,"lon":5.42293,"is_reserved":false,"is_disabled":false,"rental_uris":{"android":"levelo://app?vid=055cf58e-816a-4e9a-b55b-540e90cc8a4d","ios":"levelo://app?vid=055cf58e-816a-4e9a-b55b-540e90cc8a4d"},"vehicle_type_id":"4","last_reported":1746624352,"current_range_meters":19600,"station_id":"ce4bhph2rcd13ifvqhdg","pricing_plan_id":"cebpf4jnsgd1na2vs0mg"},{"bike_id":"afc7c6fa-c9d3-4f4d-911f-47abb3e97f82","system_id":"levelo_inurba_marseille","lat":43.26805,"lon":5.40262,"is_reserved":false,"is_disabled":false,"rental_uris":{"android":"levelo://app?vid=afc7c6fa-c9d3-4f4d-911f-47abb3e97f82","ios":"levelo://app?vid=afc7c6fa-c9d3-4f4d-911f-47abb3e97f82"},"vehicle_type_id":"4","last_reported":1746624352,"current_range_meters":19600,"station_id":"ce501612rcd8frsf0b60","pricing_plan_id":"cebpf4jnsgd1na2vs0mg"},{"bike_id":"15758b90-48e4-4311-b642-e91b99caebd0","system_id":"levelo_inurba_marseille","lat":43.29012,"lon":5.38137,"is_reserved":false,"is_disabled":false,"rental_uris":{"android":"levelo://app?vid=15758b90-48e4-4311-b642-e91b99caebd0","ios":"levelo://app?vid=15758b90-48e4-4311-b642-e91b99caebd0"},"vehicle_type_id":"4","last_reported":1746624352,"current_range_meters":19600,"station_id":"ce4bh4p2rcd13ifvqe1g","pricing_plan_id":"cebpf4jnsgd1na2vs0mg"},{"bike_id":"386fe4c0-24a8-498f-bf25-63bcd700d63e","system_id":"levelo_inurba_marseille","lat":43.297853,"lon":5.38109,"is_reserved":false,"is_disabled":true,"rental_uris":{"android":"levelo://app?vid=386fe4c0-24a8-498f-bf25-63bcd700d63e","ios":"levelo://app?vid=386fe4c0-24a8-498f-bf25-63bcd700d63e"},"vehicle_type_id":"4","last_reported":1746624352,"current_range_meters":20000,"station_id":"ce4bgip2rcd13ifvqbb0","pricing_plan_id":"cebpf4jnsgd1na2vs0mg"},{"bike_id":"19f247b9-5cba-4dd6-8c3d-48447a29602b","system_id":"levelo_inurba_marseille","lat":43.303023,"lon":5.413119,"is_reserved":false,"is_disabled":false,"rental_uris":{"android":"levelo://app?vid=19f247b9-5cba-4dd6-8c3d-48447a29602b","ios":"levelo://app?vid=19f247b9-5cba-4dd6-8c3d-48447a29602b"},"vehicle_type_id":"4","last_reported":1746624352,"current_range_meters":20000,"station_id":"ce4bhop2rcd13ifvqh8g","pricing_plan_id":"cebpf4jnsgd1na2vs0mg"},{"bike_id":"33a17204-e446-41e3-9795-c1b492310014","system_id":"levelo_inurba_marseille","lat":43.23963,"lon":5.36631,"is_reserved":false,"is_disabled":false,"rental_uris":{"android":"levelo://app?vid=33a17204-e446-41e3-9795-c1b492310014","ios":"levelo://app?vid=33a17204-e446-41e3-9795-c1b492310014"},"vehicle_type_id":"4","last_reported":1746624352,"current_range_meters":20000,"station_id":"ce4bhi12rcd13ifvqfp0","pricing_plan_id":"cebpf4jnsgd1na2vs0mg"},{"bike_id":"76abeb01-b50a-4834-873e-081b61d00116","system_id":"levelo_inurba_marseille","lat":43.3118,"lon":5.38714,"is_reserved":false,"is_disabled":false,"rental_uris":{"android":"levelo://app?vid=76abeb01-b50a-4834-873e-081b61d00116","ios":"levelo://app?vid=76abeb01-b50a-4834-873e-081b61d00116"},"vehicle_type_id":"4","last_reported":1746624352,"current_range_meters":20000,"station_id":"ce4bgv12rcd13ifvqcp0","pricing_plan_id":"cebpf4jnsgd1na2vs0mg"},{"bike_id":"48f32a61-0d6f-45b5-a27b-8d70620c7757","system_id":"levelo_inurba_marseille","lat":43.30802,"lon":5.38152,"is_reserved":false,"is_disabled":false,"rental_uris":{"android":"levelo://app?vid=48f32a61-0d6f-45b5-a27b-8d70620c7757","ios":"levelo://app?vid=48f32a61-0d6f-45b5-a27b-8d70620c7757"},"vehicle_type_id":"4","last_reported":1746624352,"current_range_meters":20400,"station_id":"ce4bgt12rcd13ifvqce0","pricing_plan_id":"cebpf4jnsgd1na2vs0mg"},{"bike_id":"70a29a45-574c-4ff1-aca3-740aa0e705be","system_id":"levelo_inurba_marseille","lat":43.24173,"lon":5.36393,"is_reserved":false,"is_disabled":false,"rental_uris":{"android":"levelo://app?vid=70a29a45-574c-4ff1-aca3-740aa0e705be","ios":"levelo://app?vid=70a29a45-574c-4ff1-aca3-740aa0e705be"},"vehicle_type_id":"4","last_reported":1746624352,"current_range_meters":20400,"station_id":"cpo36qri1sfpv3e86is0","pricing_plan_id":"cebpf4jnsgd1na2vs0mg"},{"bike_id":"43b9cf18-82f8-4b42-907a-2feabe1617bc","system_id":"levelo_inurba_marseille","lat":43.29276,"lon":5.3684,"is_reserved":false,"is_disabled":false,"rental_uris":{"android":"levelo://app?vid=43b9cf18-82f8-4b42-907a-2feabe1617bc","ios":"levelo://app?vid=43b9cf18-82f8-4b42-907a-2feabe1617bc"},"vehicle_type_id":"4","last_reported":1746624352,"current_range_meters":20400,"station_id":"ce4bhbp2rcd13ifvqesg","pricing_plan_id":"cebpf4jnsgd1na2vs0mg"},{"bike_id":"b49e0842-3f76-4954-ba1d-b21797b1f1d3","system_id":"levelo_inurba_marseille","lat":43.25584,"lon":5.38244,"is_reserved":false,"is_disabled":false,"rental_uris":{"android":"levelo://app?vid=b49e0842-3f76-4954-ba1d-b21797b1f1d3","ios":"levelo://app?vid=b49e0842-3f76-4954-ba1d-b21797b1f1d3"},"vehicle_type_id":"4","last_reported":1746624352,"current_range_meters":20400,"station_id":"ce4bhih2rcd13ifvqfs0","pricing_plan_id":"cebpf4jnsgd1na2vs0mg"},{"bike_id":"50c51b36-8e1c-40ac-86fe-aad77e0bf74b","system_id":"levelo_inurba_marseille","lat":43.27682,"lon":5.38877,"is_reserved":false,"is_disabled":false,"rental_uris":{"android":"levelo://app?vid=50c51b36-8e1c-40ac-86fe-aad77e0bf74b","ios":"levelo://app?vid=50c51b36-8e1c-40ac-86fe-aad77e0bf74b"},"vehicle_type_id":"4","last_reported":1746624352,"current_range_meters":20400,"station_id":"ce4bhi12rcd13ifvqfo0","pricing_plan_id":"cebpf4jnsgd1na2vs0mg"},{"bike_id":"057359ac-c5f2-48cc-8f83-1591ff7812ff","system_id":"levelo_inurba_marseille","lat":43.302834,"lon":5.377139,"is_reserved":false,"is_disabled":false,"rental_uris":{"android":"levelo://app?vid=057359ac-c5f2-48cc-8f83-1591ff7812ff","ios":"levelo://app?vid=057359ac-c5f2-48cc-8f83-1591ff7812ff"},"vehicle_type_id":"4","last_reported":1746624352,"current_range_meters":20400,"station_id":"ce4bguh2rcd13ifvqcj0","pricing_plan_id":"cebpf4jnsgd1na2vs0mg"},{"bike_id":"ec50dcea-da27-490c-a2e9-5c9435604ea1","system_id":"levelo_inurba_marseille","lat":43.26679,"lon":5.38264,"is_reserved":false,"is_disabled":false,"rental_uris":{"android":"levelo://app?vid=ec50dcea-da27-490c-a2e9-5c9435604ea1","ios":"levelo://app?vid=ec50dcea-da27-490c-a2e9-5c9435604ea1"},"vehicle_type_id":"4","last_reported":1746624352,"current_range_meters":20800,"station_id":"ce4bhg92rcd13ifvqf90","pricing_plan_id":"cebpf4jnsgd1na2vs0mg"},{"bike_id":"8d7b1f33-f881-4440-a37b-ee97db8071e3","system_id":"levelo_inurba_marseille","lat":43.32047,"lon":5.41516,"is_reserved":false,"is_disabled":false,"rental_uris":{"android":"levelo://app?vid=8d7b1f33-f881-4440-a37b-ee97db8071e3","ios":"levelo://app?vid=8d7b1f33-f881-4440-a37b-ee97db8071e3"},"vehicle_type_id":"4","last_reported":1746624352,"current_range_meters":20800,"station_id":"ce4bhq92rcd13ifvqhkg","pricing_plan_id":"cebpf4jnsgd1na2vs0mg"},{"bike_id":"327cc39f-d91f-4b77-aab9-5dc3bf60ad82","system_id":"levelo_inurba_marseille","lat":43.25088,"lon":5.39516,"is_reserved":false,"is_disabled":false,"rental_uris":{"android":"levelo://app?vid=327cc39f-d91f-4b77-aab9-5dc3bf60ad82","ios":"levelo://app?vid=327cc39f-d91f-4b77-aab9-5dc3bf60ad82"},"vehicle_type_id":"4","last_reported":1746624352,"current_range_meters":20800,"station_id":"ce4bhm12rcd13ifvqgkg","pricing_plan_id":"cebpf4jnsgd1na2vs0mg"},{"bike_id":"f46dc929-7e07-4d28-9326-a2031223c9ef","system_id":"levelo_inurba_marseille","lat":43.25913,"lon":5.40889,"is_reserved":false,"is_disabled":false,"rental_uris":{"android":"levelo://app?vid=f46dc929-7e07-4d28-9326-a2031223c9ef","ios":"levelo://app?vid=f46dc929-7e07-4d28-9326-a2031223c9ef"},"vehicle_type_id":"4","last_reported":1746624352,"current_range_meters":21600,"station_id":"ce4bhm92rcd13ifvqglg","pricing_plan_id":"cebpf4jnsgd1na2vs0mg"},{"bike_id":"62aed523-7b8c-4c40-a37a-4d95a72ff6f9","system_id":"levelo_inurba_marseille","lat":43.2408,"lon":5.37755,"is_reserved":false,"is_disabled":false,"rental_uris":{"android":"levelo://app?vid=62aed523-7b8c-4c40-a37a-4d95a72ff6f9","ios":"levelo://app?vid=62aed523-7b8c-4c40-a37a-4d95a72ff6f9"},"vehicle_type_id":"4","last_reported":1746624352,"current_range_meters":21600,"station_id":"ce4bhnp2rcd13ifvqgvg","pricing_plan_id":"cebpf4jnsgd1na2vs0mg"},{"bike_id":"ff69900e-7a79-4094-be6b-24f50ebc0b5c","system_id":"levelo_inurba_marseille","lat":43.29182,"lon":5.39317,"is_reserved":false,"is_disabled":false,"rental_uris":{"android":"levelo://app?vid=ff69900e-7a79-4094-be6b-24f50ebc0b5c","ios":"levelo://app?vid=ff69900e-7a79-4094-be6b-24f50ebc0b5c"},"vehicle_type_id":"4","last_reported":1746624352,"current_range_meters":21600,"station_id":"ce4bh192rcd13ifvqdd0","pricing_plan_id":"cebpf4jnsgd1na2vs0mg"},{"bike_id":"61773464-18ea-4477-b785-2b5e8184d3c2","system_id":"levelo_inurba_marseille","lat":43.32541,"lon":5.41434,"is_reserved":false,"is_disabled":false,"rental_uris":{"android":"levelo://app?vid=61773464-18ea-4477-b785-2b5e8184d3c2","ios":"levelo://app?vid=61773464-18ea-4477-b785-2b5e8184d3c2"},"vehicle_type_id":"4","last_reported":1746624352,"current_range_meters":21600,"station_id":"ce4bhq12rcd13ifvqhhg","pricing_plan_id":"cebpf4jnsgd1na2vs0mg"},{"bike_id":"61d0cc63-5fae-4346-a8dc-6c4d609565f3","system_id":"levelo_inurba_marseille","lat":43.25004,"lon":5.38925,"is_reserved":false,"is_disabled":false,"rental_uris":{"android":"levelo://app?vid=61d0cc63-5fae-4346-a8dc-6c4d609565f3","ios":"levelo://app?vid=61d0cc63-5fae-4346-a8dc-6c4d609565f3"},"vehicle_type_id":"4","last_reported":1746624352,"current_range_meters":21600,"station_id":"ce4bhgp2rcd13ifvqfd0","pricing_plan_id":"cebpf4jnsgd1na2vs0mg"},{"bike_id":"8a689870-865a-4848-b229-c85836942955","system_id":"levelo_inurba_marseille","lat":43.2738,"lon":5.36257,"is_reserved":false,"is_disabled":false,"rental_uris":{"android":"levelo://app?vid=8a689870-865a-4848-b229-c85836942955","ios":"levelo://app?vid=8a689870-865a-4848-b229-c85836942955"},"vehicle_type_id":"4","last_reported":1746624352,"current_range_meters":22000,"station_id":"ce4bhbh2rcd13ifvqeo0","pricing_plan_id":"cebpf4jnsgd1na2vs0mg"},{"bike_id":"578a0fc5-1447-477f-8ce0-68a39d74e259","system_id":"levelo_inurba_marseille","lat":43.27205,"lon":5.39179,"is_reserved":false,"is_disabled":false,"rental_uris":{"android":"levelo://app?vid=578a0fc5-1447-477f-8ce0-68a39d74e259","ios":"levelo://app?vid=578a0fc5-1447-477f-8ce0-68a39d74e259"},"vehicle_type_id":"4","last_reported":1746624352,"current_range_meters":22000,"station_id":"ce4bhhp2rcd13ifvqfm0","pricing_plan_id":"cebpf4jnsgd1na2vs0mg"},{"bike_id":"c0aa3111-7325-42e0-9c70-cd2ff131bdb3","system_id":"levelo_inurba_marseille","lat":43.3377,"lon":5.37437,"is_reserved":false,"is_disabled":false,"rental_uris":{"android":"levelo://app?vid=c0aa3111-7325-42e0-9c70-cd2ff131bdb3","ios":"levelo://app?vid=c0aa3111-7325-42e0-9c70-cd2ff131bdb3"},"vehicle_type_id":"4","last_reported":1746624352,"current_range_meters":22000,"station_id":"","pricing_plan_id":"cebpf4jnsgd1na2vs0mg"},{"bike_id":"5340ee3a-3715-406b-865c-69b21e34c993","system_id":"levelo_inurba_marseille","lat":43.23963,"lon":5.36635,"is_reserved":false,"is_disabled":false,"rental_uris":{"android":"levelo://app?vid=5340ee3a-3715-406b-865c-69b21e34c993","ios":"levelo://app?vid=5340ee3a-3715-406b-865c-69b21e34c993"},"vehicle_type_id":"4","last_reported":1746624352,"current_range_meters":22000,"station_id":"ce4bhi12rcd13ifvqfp0","pricing_plan_id":"cebpf4jnsgd1na2vs0mg"},{"bike_id":"89b5c51b-cd9c-475c-ba7a-726b12d22f75","system_id":"levelo_inurba_marseille","lat":43.21196,"lon":5.35066,"is_reserved":false,"is_disabled":false,"rental_uris":{"android":"levelo://app?vid=89b5c51b-cd9c-475c-ba7a-726b12d22f75","ios":"levelo://app?vid=89b5c51b-cd9c-475c-ba7a-726b12d22f75"},"vehicle_type_id":"4","last_reported":1746624352,"current_range_meters":22000,"station_id":"st_cvj6sg6p6f1abm77japg","pricing_plan_id":"cebpf4jnsgd1na2vs0mg"},{"bike_id":"74dfcb2f-a38e-46fd-a9a4-88a9c0d71f4a","system_id":"levelo_inurba_marseille","lat":43.259404,"lon":5.408866,"is_reserved":false,"is_disabled":false,"rental_uris":{"android":"levelo://app?vid=74dfcb2f-a38e-46fd-a9a4-88a9c0d71f4a","ios":"levelo://app?vid=74dfcb2f-a38e-46fd-a9a4-88a9c0d71f4a"},"vehicle_type_id":"4","last_reported":1746624352,"current_range_meters":22000,"station_id":"ce4bhm92rcd13ifvqglg","pricing_plan_id":"cebpf4jnsgd1na2vs0mg"},{"bike_id":"16d82653-e2e5-4531-a384-7902e244f0cf","system_id":"levelo_inurba_marseille","lat":43.22521,"lon":5.34794,"is_reserved":false,"is_disabled":false,"rental_uris":{"android":"levelo://app?vid=16d82653-e2e5-4531-a384-7902e244f0cf","ios":"levelo://app?vid=16d82653-e2e5-4531-a384-7902e244f0cf"},"vehicle_type_id":"4","last_reported":1746624352,"current_range_meters":22400,"station_id":"st_cvj5dfep6f1abm77gieg","pricing_plan_id":"cebpf4jnsgd1na2vs0mg"},{"bike_id":"d0a51127-7dcc-43f9-9671-0a08e74ee8a0","system_id":"levelo_inurba_marseille","lat":43.26783,"lon":5.39417,"is_reserved":false,"is_disabled":false,"rental_uris":{"android":"levelo://app?vid=d0a51127-7dcc-43f9-9671-0a08e74ee8a0","ios":"levelo://app?vid=d0a51127-7dcc-43f9-9671-0a08e74ee8a0"},"vehicle_type_id":"4","last_reported":1746624352,"current_range_meters":22400,"station_id":"ce4bhh12rcd13ifvqfg0","pricing_plan_id":"cebpf4jnsgd1na2vs0mg"},{"bike_id":"ac437fa4-ad58-4abe-915e-14f6b9aec297","system_id":"levelo_inurba_marseille","lat":43.32367,"lon":5.38882,"is_reserved":false,"is_disabled":false,"rental_uris":{"android":"levelo://app?vid=ac437fa4-ad58-4abe-915e-14f6b9aec297","ios":"levelo://app?vid=ac437fa4-ad58-4abe-915e-14f6b9aec297"},"vehicle_type_id":"4","last_reported":1746624352,"current_range_meters":22400,"station_id":"ce4bhqp2rcd13ifvqhog","pricing_plan_id":"cebpf4jnsgd1na2vs0mg"},{"bike_id":"b1f9df50-8c2d-4d85-bed4-ff9c8112d758","system_id":"levelo_inurba_marseille","lat":43.3088,"lon":5.39629,"is_reserved":false,"is_disabled":false,"rental_uris":{"android":"levelo://app?vid=b1f9df50-8c2d-4d85-bed4-ff9c8112d758","ios":"levelo://app?vid=b1f9df50-8c2d-4d85-bed4-ff9c8112d758"},"vehicle_type_id":"4","last_reported":1746624352,"current_range_meters":22400,"station_id":"ce4bh012rcd13ifvqcv0","pricing_plan_id":"cebpf4jnsgd1na2vs0mg"},{"bike_id":"05548ed0-451f-41ef-b020-62009a4d5f09","system_id":"levelo_inurba_marseille","lat":43.29852,"lon":5.36283,"is_reserved":false,"is_disabled":false,"rental_uris":{"android":"levelo://app?vid=05548ed0-451f-41ef-b020-62009a4d5f09","ios":"levelo://app?vid=05548ed0-451f-41ef-b020-62009a4d5f09"},"vehicle_type_id":"4","last_reported":1746624352,"current_range_meters":22800,"station_id":"ce4bgpp2rcd13ifvqc3g","pricing_plan_id":"cebpf4jnsgd1na2vs0mg"},{"bike_id":"385efc73-c8f2-4acf-91a3-ae63842dcfc6","system_id":"levelo_inurba_marseille","lat":43.28599,"lon":5.37056,"is_reserved":false,"is_disabled":false,"rental_uris":{"android":"levelo://app?vid=385efc73-c8f2-4acf-91a3-ae63842dcfc6","ios":"levelo://app?vid=385efc73-c8f2-4acf-91a3-ae63842dcfc6"},"vehicle_type_id":"4","last_reported":1746624352,"current_range_meters":22800,"station_id":"ce4bht12rcd13ifvqi60","pricing_plan_id":"cebpf4jnsgd1na2vs0mg"},{"bike_id":"42289abd-9b67-4c9e-b8ac-616f7ac716aa","system_id":"levelo_inurba_marseille","lat":43.29197,"lon":5.35802,"is_reserved":false,"is_disabled":false,"rental_uris":{"android":"levelo://app?vid=42289abd-9b67-4c9e-b8ac-616f7ac716aa","ios":"levelo://app?vid=42289abd-9b67-4c9e-b8ac-616f7ac716aa"},"vehicle_type_id":"4","last_reported":1746624352,"current_range_meters":22400,"station_id":"ce4bhb12rcd13ifvqel0","pricing_plan_id":"cebpf4jnsgd1na2vs0mg"},{"bike_id":"f33efe43-6cfb-4156-a572-7da6b5157be0","system_id":"levelo_inurba_marseille","lat":43.29252,"lon":5.38432,"is_reserved":false,"is_disabled":false,"rental_uris":{"android":"levelo://app?vid=f33efe43-6cfb-4156-a572-7da6b5157be0","ios":"levelo://app?vid=f33efe43-6cfb-4156-a572-7da6b5157be0"},"vehicle_type_id":"4","last_reported":1746624352,"current_range_meters":22800,"station_id":"ce4bh692rcd13ifvqea0","pricing_plan_id":"cebpf4jnsgd1na2vs0mg"},{"bike_id":"18ec06aa-5fdd-4f9c-8c1c-a643570ea886","system_id":"levelo_inurba_marseille","lat":43.28601,"lon":5.37065,"is_reserved":false,"is_disabled":false,"rental_uris":{"android":"levelo://app?vid=18ec06aa-5fdd-4f9c-8c1c-a643570ea886","ios":"levelo://app?vid=18ec06aa-5fdd-4f9c-8c1c-a643570ea886"},"vehicle_type_id":"4","last_reported":1746624352,"current_range_meters":22800,"station_id":"ce4bht12rcd13ifvqi60","pricing_plan_id":"cebpf4jnsgd1na2vs0mg"},{"bike_id":"a38c5fcd-2a3e-4e2c-b5be-bfb908394086","system_id":"levelo_inurba_marseille","lat":43.32789,"lon":5.39118,"is_reserved":false,"is_disabled":false,"rental_uris":{"android":"levelo://app?vid=a38c5fcd-2a3e-4e2c-b5be-bfb908394086","ios":"levelo://app?vid=a38c5fcd-2a3e-4e2c-b5be-bfb908394086"},"vehicle_type_id":"4","last_reported":1746624352,"current_range_meters":22800,"station_id":"","pricing_plan_id":"cebpf4jnsgd1na2vs0mg"},{"bike_id":"5545e5f3-6379-4d16-8527-ea6f67b4fa46","system_id":"levelo_inurba_marseille","lat":43.25938,"lon":5.40895,"is_reserved":false,"is_disabled":false,"rental_uris":{"android":"levelo://app?vid=5545e5f3-6379-4d16-8527-ea6f67b4fa46","ios":"levelo://app?vid=5545e5f3-6379-4d16-8527-ea6f67b4fa46"},"vehicle_type_id":"4","last_reported":1746624352,"current_range_meters":22800,"station_id":"ce4bhm92rcd13ifvqglg","pricing_plan_id":"cebpf4jnsgd1na2vs0mg"},{"bike_id":"94ea85d6-10c6-40c9-89b8-b1ca94b24797","system_id":"levelo_inurba_marseille","lat":43.279,"lon":5.38004,"is_reserved":false,"is_disabled":false,"rental_uris":{"android":"levelo://app?vid=94ea85d6-10c6-40c9-89b8-b1ca94b24797","ios":"levelo://app?vid=94ea85d6-10c6-40c9-89b8-b1ca94b24797"},"vehicle_type_id":"4","last_reported":1746624352,"current_range_meters":22800,"station_id":"ce4bhf92rcd13ifvqf50","pricing_plan_id":"cebpf4jnsgd1na2vs0mg"},{"bike_id":"baba0ed7-f9b3-4e18-aaf2-5a9994f75e20","system_id":"levelo_inurba_marseille","lat":43.30135,"lon":5.38773,"is_reserved":false,"is_disabled":false,"rental_uris":{"android":"levelo://app?vid=baba0ed7-f9b3-4e18-aaf2-5a9994f75e20","ios":"levelo://app?vid=baba0ed7-f9b3-4e18-aaf2-5a9994f75e20"},"vehicle_type_id":"4","last_reported":1746624352,"current_range_meters":22800,"station_id":"ce4bghh2rcd13ifvqb60","pricing_plan_id":"cebpf4jnsgd1na2vs0mg"},{"bike_id":"c4ae0c6b-e941-4cf4-bfcb-1d9d67963e61","system_id":"levelo_inurba_marseille","lat":43.30784,"lon":5.376552,"is_reserved":false,"is_disabled":false,"rental_uris":{"android":"levelo://app?vid=c4ae0c6b-e941-4cf4-bfcb-1d9d67963e61","ios":"levelo://app?vid=c4ae0c6b-e941-4cf4-bfcb-1d9d67963e61"},"vehicle_type_id":"4","last_reported":1746624352,"current_range_meters":22800,"station_id":"ce4bgv92rcd13ifvqcq0","pricing_plan_id":"cebpf4jnsgd1na2vs0mg"},{"bike_id":"ff807334-3ad3-4e40-bbde-648eb2b1c45b","system_id":"levelo_inurba_marseille","lat":43.21196,"lon":5.35068,"is_reserved":false,"is_disabled":false,"rental_uris":{"android":"levelo://app?vid=ff807334-3ad3-4e40-bbde-648eb2b1c45b","ios":"levelo://app?vid=ff807334-3ad3-4e40-bbde-648eb2b1c45b"},"vehicle_type_id":"4","last_reported":1746624352,"current_range_meters":22800,"station_id":"st_cvj6sg6p6f1abm77japg","pricing_plan_id":"cebpf4jnsgd1na2vs0mg"},{"bike_id":"748229c9-6fdd-4ae5-8975-a4db41af1230","system_id":"levelo_inurba_marseille","lat":43.28969,"lon":5.37831,"is_reserved":false,"is_disabled":false,"rental_uris":{"android":"levelo://app?vid=748229c9-6fdd-4ae5-8975-a4db41af1230","ios":"levelo://app?vid=748229c9-6fdd-4ae5-8975-a4db41af1230"},"vehicle_type_id":"4","last_reported":1746624352,"current_range_meters":22800,"station_id":"ce4bh9p2rcd13ifvqed0","pricing_plan_id":"cebpf4jnsgd1na2vs0mg"},{"bike_id":"5a98a23c-712d-416a-9bf1-f27109828060","system_id":"levelo_inurba_marseille","lat":43.25929,"lon":5.40893,"is_reserved":false,"is_disabled":false,"rental_uris":{"android":"levelo://app?vid=5a98a23c-712d-416a-9bf1-f27109828060","ios":"levelo://app?vid=5a98a23c-712d-416a-9bf1-f27109828060"},"vehicle_type_id":"4","last_reported":1746624352,"current_range_meters":23200,"station_id":"ce4bhm92rcd13ifvqglg","pricing_plan_id":"cebpf4jnsgd1na2vs0mg"},{"bike_id":"f29fbbee-fdd9-40a2-91c2-c7fba9ce5327","system_id":"levelo_inurba_marseille","lat":43.299742,"lon":5.384914,"is_reserved":false,"is_disabled":false,"rental_uris":{"android":"levelo://app?vid=f29fbbee-fdd9-40a2-91c2-c7fba9ce5327","ios":"levelo://app?vid=f29fbbee-fdd9-40a2-91c2-c7fba9ce5327"},"vehicle_type_id":"4","last_reported":1746624352,"current_range_meters":23200,"station_id":"","pricing_plan_id":"cebpf4jnsgd1na2vs0mg"},{"bike_id":"fb06320b-08b2-44ab-ba1f-b2f387cf4d14","system_id":"levelo_inurba_marseille","lat":43.28,"lon":5.41664,"is_reserved":false,"is_disabled":false,"rental_uris":{"android":"levelo://app?vid=fb06320b-08b2-44ab-ba1f-b2f387cf4d14","ios":"levelo://app?vid=fb06320b-08b2-44ab-ba1f-b2f387cf4d14"},"vehicle_type_id":"4","last_reported":1746624352,"current_range_meters":23200,"station_id":"ce4bho12rcd13ifvqh1g","pricing_plan_id":"cebpf4jnsgd1na2vs0mg"},{"bike_id":"f8897369-9c55-4d8a-99f3-dc16671164e1","system_id":"levelo_inurba_marseille","lat":43.22936,"lon":5.35381,"is_reserved":false,"is_disabled":false,"rental_uris":{"android":"levelo://app?vid=f8897369-9c55-4d8a-99f3-dc16671164e1","ios":"levelo://app?vid=f8897369-9c55-4d8a-99f3-dc16671164e1"},"vehicle_type_id":"4","last_reported":1746624352,"current_range_meters":23200,"station_id":"cpo3532slgdg3j2ikp40","pricing_plan_id":"cebpf4jnsgd1na2vs0mg"},{"bike_id":"d6195f62-c915-4634-ac8b-42fd57242ac7","system_id":"levelo_inurba_marseille","lat":43.25581,"lon":5.38225,"is_reserved":false,"is_disabled":false,"rental_uris":{"android":"levelo://app?vid=d6195f62-c915-4634-ac8b-42fd57242ac7","ios":"levelo://app?vid=d6195f62-c915-4634-ac8b-42fd57242ac7"},"vehicle_type_id":"4","last_reported":1746624352,"current_range_meters":23200,"station_id":"ce4bhih2rcd13ifvqfs0","pricing_plan_id":"cebpf4jnsgd1na2vs0mg"},{"bike_id":"cbd1514f-d8ab-4e9e-b899-f087a2488cb4","system_id":"levelo_inurba_marseille","lat":43.30216,"lon":5.39464,"is_reserved":false,"is_disabled":false,"rental_uris":{"android":"levelo://app?vid=cbd1514f-d8ab-4e9e-b899-f087a2488cb4","ios":"levelo://app?vid=cbd1514f-d8ab-4e9e-b899-f087a2488cb4"},"vehicle_type_id":"4","last_reported":1746624352,"current_range_meters":23200,"station_id":"ce4bh0p2rcd13ifvqd70","pricing_plan_id":"cebpf4jnsgd1na2vs0mg"},{"bike_id":"be0445e0-d0a5-471a-8d9d-f9b5d44e4813","system_id":"levelo_inurba_marseille","lat":43.27761,"lon":5.35559,"is_reserved":false,"is_disabled":false,"rental_uris":{"android":"levelo://app?vid=be0445e0-d0a5-471a-8d9d-f9b5d44e4813","ios":"levelo://app?vid=be0445e0-d0a5-471a-8d9d-f9b5d44e4813"},"vehicle_type_id":"4","last_reported":1746624352,"current_range_meters":24000,"station_id":"","pricing_plan_id":"cebpf4jnsgd1na2vs0mg"},{"bike_id":"fffd3d76-da5d-43ca-9730-1eea3ac64f2c","system_id":"levelo_inurba_marseille","lat":43.25896,"lon":5.4099,"is_reserved":false,"is_disabled":false,"rental_uris":{"android":"levelo://app?vid=fffd3d76-da5d-43ca-9730-1eea3ac64f2c","ios":"levelo://app?vid=fffd3d76-da5d-43ca-9730-1eea3ac64f2c"},"vehicle_type_id":"4","last_reported":1746624352,"current_range_meters":24000,"station_id":"ce4bhm92rcd13ifvqglg","pricing_plan_id":"cebpf4jnsgd1na2vs0mg"},{"bike_id":"2ed327f6-8175-4783-a942-a15e7df3127f","system_id":"levelo_inurba_marseille","lat":43.337557,"lon":5.374521,"is_reserved":false,"is_disabled":false,"rental_uris":{"android":"levelo://app?vid=2ed327f6-8175-4783-a942-a15e7df3127f","ios":"levelo://app?vid=2ed327f6-8175-4783-a942-a15e7df3127f"},"vehicle_type_id":"4","last_reported":1746624352,"current_range_meters":24000,"station_id":"","pricing_plan_id":"cebpf4jnsgd1na2vs0mg"},{"bike_id":"f73d450b-fde6-4898-99b1-916875a407c6","system_id":"levelo_inurba_marseille","lat":43.22505,"lon":5.34786,"is_reserved":false,"is_disabled":false,"rental_uris":{"android":"levelo://app?vid=f73d450b-fde6-4898-99b1-916875a407c6","ios":"levelo://app?vid=f73d450b-fde6-4898-99b1-916875a407c6"},"vehicle_type_id":"4","last_reported":1746624352,"current_range_meters":24400,"station_id":"st_cvj5dfep6f1abm77gieg","pricing_plan_id":"cebpf4jnsgd1na2vs0mg"},{"bike_id":"cd76fe3c-457e-4979-a9cc-442905f874ee","system_id":"levelo_inurba_marseille","lat":43.31424,"lon":5.36857,"is_reserved":false,"is_disabled":false,"rental_uris":{"android":"levelo://app?vid=cd76fe3c-457e-4979-a9cc-442905f874ee","ios":"levelo://app?vid=cd76fe3c-457e-4979-a9cc-442905f874ee"},"vehicle_type_id":"4","last_reported":1746624352,"current_range_meters":24400,"station_id":"","pricing_plan_id":"cebpf4jnsgd1na2vs0mg"},{"bike_id":"bd2b1d05-5ba5-423d-84dd-69c6251594c3","system_id":"levelo_inurba_marseille","lat":43.25585,"lon":5.38232,"is_reserved":false,"is_disabled":false,"rental_uris":{"android":"levelo://app?vid=bd2b1d05-5ba5-423d-84dd-69c6251594c3","ios":"levelo://app?vid=bd2b1d05-5ba5-423d-84dd-69c6251594c3"},"vehicle_type_id":"4","last_reported":1746624352,"current_range_meters":24400,"station_id":"ce4bhih2rcd13ifvqfs0","pricing_plan_id":"cebpf4jnsgd1na2vs0mg"},{"bike_id":"75f2b3e2-41d1-42b4-8558-91039ee38dba","system_id":"levelo_inurba_marseille","lat":43.26563,"lon":5.37293,"is_reserved":false,"is_disabled":false,"rental_uris":{"android":"levelo://app?vid=75f2b3e2-41d1-42b4-8558-91039ee38dba","ios":"levelo://app?vid=75f2b3e2-41d1-42b4-8558-91039ee38dba"},"vehicle_type_id":"4","last_reported":1746624352,"current_range_meters":24400,"station_id":"ce4bhg12rcd13ifvqf70","pricing_plan_id":"cebpf4jnsgd1na2vs0mg"},{"bike_id":"29c676f1-8476-4eeb-bb17-74f0ea3dfd66","system_id":"levelo_inurba_marseille","lat":43.26792,"lon":5.39415,"is_reserved":false,"is_disabled":false,"rental_uris":{"android":"levelo://app?vid=29c676f1-8476-4eeb-bb17-74f0ea3dfd66","ios":"levelo://app?vid=29c676f1-8476-4eeb-bb17-74f0ea3dfd66"},"vehicle_type_id":"4","last_reported":1746624352,"current_range_meters":24400,"station_id":"ce4bhh12rcd13ifvqfg0","pricing_plan_id":"cebpf4jnsgd1na2vs0mg"},{"bike_id":"cf8af6e7-9e56-433e-98d9-8ae348933db8","system_id":"levelo_inurba_marseille","lat":43.23961,"lon":5.36646,"is_reserved":false,"is_disabled":false,"rental_uris":{"android":"levelo://app?vid=cf8af6e7-9e56-433e-98d9-8ae348933db8","ios":"levelo://app?vid=cf8af6e7-9e56-433e-98d9-8ae348933db8"},"vehicle_type_id":"4","last_reported":1746624352,"current_range_meters":24400,"station_id":"ce4bhi12rcd13ifvqfp0","pricing_plan_id":"cebpf4jnsgd1na2vs0mg"},{"bike_id":"f3e9ab38-3242-4aa5-83f9-529a16ccf936","system_id":"levelo_inurba_marseille","lat":43.22492,"lon":5.34746,"is_reserved":false,"is_disabled":false,"rental_uris":{"android":"levelo://app?vid=f3e9ab38-3242-4aa5-83f9-529a16ccf936","ios":"levelo://app?vid=f3e9ab38-3242-4aa5-83f9-529a16ccf936"},"vehicle_type_id":"4","last_reported":1746624352,"current_range_meters":24400,"station_id":"st_cvj5dfep6f1abm77gieg","pricing_plan_id":"cebpf4jnsgd1na2vs0mg"},{"bike_id":"e242ad8b-1948-4a63-892f-94fff1fd7232","system_id":"levelo_inurba_marseille","lat":43.273827,"lon":5.362591,"is_reserved":false,"is_disabled":false,"rental_uris":{"android":"levelo://app?vid=e242ad8b-1948-4a63-892f-94fff1fd7232","ios":"levelo://app?vid=e242ad8b-1948-4a63-892f-94fff1fd7232"},"vehicle_type_id":"4","last_reported":1746624352,"current_range_meters":24000,"station_id":"ce4bhbh2rcd13ifvqeo0","pricing_plan_id":"cebpf4jnsgd1na2vs0mg"},{"bike_id":"5e937610-57f8-486a-b67c-50b739c3a8f8","system_id":"levelo_inurba_marseille","lat":43.29193,"lon":5.39306,"is_reserved":false,"is_disabled":false,"rental_uris":{"android":"levelo://app?vid=5e937610-57f8-486a-b67c-50b739c3a8f8","ios":"levelo://app?vid=5e937610-57f8-486a-b67c-50b739c3a8f8"},"vehicle_type_id":"4","last_reported":1746624352,"current_range_meters":24400,"station_id":"ce4bh192rcd13ifvqdd0","pricing_plan_id":"cebpf4jnsgd1na2vs0mg"},{"bike_id":"3b48ae95-f393-4d6e-9f45-3b891e2217ba","system_id":"levelo_inurba_marseille","lat":43.27374,"lon":5.36257,"is_reserved":false,"is_disabled":false,"rental_uris":{"android":"levelo://app?vid=3b48ae95-f393-4d6e-9f45-3b891e2217ba","ios":"levelo://app?vid=3b48ae95-f393-4d6e-9f45-3b891e2217ba"},