{"last_updated":1747516100,"ttl":60,"version":"2.2","data":{"bikes":[{"bike_id":"c0b9fd4f-e181-46ce-b0bf-f5119973334f","system_id":"levelo_inurba_marseille","lat":43.33771,"lon":5.37424,"is_reserved":false,"is_disabled":false,"rental_uris":{"android":"levelo://app?vid=c0b9fd4f-e181-46ce-b0bf-f5119973334f","ios":"levelo://app?vid=c0b9fd4f-e181-46ce-b0bf-f5119973334f"},"vehicle_type_id":"4","last_reported":1747516100,"current_range_meters":4000,"station_id":"","pricing_plan_id":"cebpf4jnsgd1na2vs0mg"},{"bike_id":"fc2577e7-1497-425b-9d4f-ab8d7dc843c6","system_id":"levelo_inurba_marseille","lat":43.33771,"lon":5.37485,"is_reserved":false,"is_disabled":true,"rental_uris":{"android":"levelo://app?vid=fc2577e7-1497-425b-9d4f-ab8d7dc843c6","ios":"levelo://app?vid=fc2577e7-1497-425b-9d4f-ab8d7dc843c6"},"vehicle_type_id":"4","last_reported":1747516100,"current_range_meters":0,"station_id":"","pricing_plan_id":"cebpf4jnsgd1na2vs0mg"},{"bike_id":"7e8f9622-74b3-4df1-9fba-94b450718227","system_id":"levelo_inurba_marseille","lat":43.28814,"lon":5.38244,"is_reserved":false,"is_disabled":true,"rental_uris":{"android":"levelo://app?vid=7e8f9622-74b3-4df1-9fba-94b450718227","ios":"levelo://app?vid=7e8f9622-74b3-4df1-9fba-94b450718227"},"vehicle_type_id":"4","last_reported":1747516100,"current_range_meters":0,"station_id":"","pricing_plan_id":"cebpf4jnsgd1na2vs0mg"},{"bike_id":"80d0d83f-909d-4568-b4e7-8a3ef4eed2de","system_id":"levelo_inurba_marseille","lat":43.25376,"lon":5.41908,"is_reserved":false,"is_disabled":true,"rental_uris":{"android":"levelo://app?vid=80d0d83f-909d-4568-b4e7-8a3ef4eed2de","ios":"levelo://app?vid=80d0d83f-909d-4568-b4e7-8a3ef4eed2de"},"vehicle_type_id":"4","last_reported":1747516100,"current_range_meters":0,"station_id":"","pricing_plan_id":"cebpf4jnsgd1na2vs0mg"},{"bike_id":"59e33bab-443b-4b82-946a-94b602858b07","system_id":"levelo_inurba_marseille","lat":43.28177,"lon":5.38461,"is_reserved":false,"is_disabled":true,"rental_uris":{"android":"levelo://app?vid=59e33bab-443b-4b82-946a-94b602858b07","ios":"levelo://app?vid=59e33bab-443b-4b82-946a-94b602858b07"},"vehicle_type_id":"4","last_reported":1747516100,"current_range_meters":0,"station_id":"","pricing_plan_id":"cebpf4jnsgd1na2vs0mg"},{"bike_id":"0b7b8d9e-a565-4a78-b09b-a8c868649f48","system_id":"levelo_inurba_marseille","lat":43.337444,"lon":5.374475,"is_reserved":false,"is_disabled":true,"rental_uris":{"android":"levelo://app?vid=0b7b8d9e-a565-4a78-b09b-a8c868649f48","ios":"levelo://app?vid=0b7b8d9e-a565-4a78-b09b-a8c868649f48"},"vehicle_type_id":"4","last_reported":1747516100,"current_range_meters":0,"station_id":"","pricing_plan_id":"cebpf4jnsgd1na2vs0mg"},{"bike_id":"ce4325af-2448-4172-bdec-81d552ee0b62","system_id":"levelo_inurba_marseille","lat":43.26171,"lon":5.42001,"is_reserved":false,"is_disabled":true,"rental_uris":{"android":"levelo://app?vid=ce4325af-2448-4172-bdec-81d552ee0b62","ios":"levelo://app?vid=ce4325af-2448-4172-bdec-81d552ee0b62"},"vehicle_type_id":"4","last_reported":1747516100,"current_range_meters":0,"station_id":"","pricing_plan_id":"cebpf4jnsgd1na2vs0mg"},{"bike_id":"23939faf-d206-4b93-ade4-199417584041","system_id":"levelo_inurba_marseille","lat":43.24955,"lon":5.37522,"is_reserved":false,"is_disabled":true,"rental_uris":{"android":"levelo://app?vid=23939faf-d206-4b93-ade4-199417584041","ios":"levelo://app?vid=23939faf-d206-4b93-ade4-199417584041"},"vehicle_type_id":"4","last_reported":1747516100,"current_range_meters":0,"station_id":"","pricing_plan_id":"cebpf4jnsgd1na2vs0mg"},{"bike_id":"c94af0c5-fcda-4413-885f-4b4f3e453db7","system_id":"levelo_inurba_marseille","lat":43.24561,"lon":5.3733,"is_reserved":false,"is_disabled":true,"rental_uris":{"android":"levelo://app?vid=c94af0c5-fcda-4413-885f-4b4f3e453db7","ios":"levelo://app?vid=c94af0c5-fcda-4413-885f-4b4f3e453db7"},"vehicle_type_id":"4","last_reported":1747516100,"current_range_meters":0,"station_id":"","pricing_plan_id":"cebpf4jnsgd1na2vs0mg"},{"bike_id":"792567c6-0442-4011-aff0-9c05e25deb48","system_id":"levelo_inurba_marseille","lat":43.337444,"lon":5.374475,"is_reserved":false,"is_disabled":true,"rental_uris":{"android":"levelo://app?vid=792567c6-0442-4011-aff0-9c05e25deb48","ios":"levelo://app?vid=792567c6-0442-4011-aff0-9c05e25deb48"},"vehicle_type_id":"4","last_reported":1747516100,"current_range_meters":0,"station_id":"","pricing_plan_id":"cebpf4jnsgd1na2vs0mg"},{"bike_id":"bb0baa39-1e01-43e0-a77c-5ba8d631e8a2","system_id":"levelo_inurba_marseille","lat":43.2726,"lon":5.38556,"is_reserved":false,"is_disabled":true,"rental_uris":{"android":"levelo://app?vid=bb0baa39-1e01-43e0-a77c-5ba8d631e8a2","ios":"levelo://app?vid=bb0baa39-1e01-43e0-a77c-5ba8d631e8a2"},"vehicle_type_id":"4","last_reported":1747516100,"current_range_meters":0,"station_id":"","pricing_plan_id":"cebpf4jnsgd1na2vs0mg"},{"bike_id":"7c5a07e4-513d-462c-922b-0c9c95a31992","system_id":"levelo_inurba_marseille","lat":43.306241,"lon":5.367704,"is_reserved":false,"is_disabled":true,"rental_uris":{"android":"levelo://app?vid=7c5a07e4-513d-462c-922b-0c9c95a31992","ios":"levelo://app?vid=7c5a07e4-513d-462c-922b-0c9c95a31992"},"vehicle_type_id":"4","last_reported":1747516100,"current_range_meters":0,"station_id":"ce4bgn92rcd13ifvqbvg","pricing_plan_id":"cebpf4jnsgd1na2vs0mg"},{"bike_id":"033a8e40-df25-4cbb-8dca-de0e704790f1","system_id":"levelo_inurba_marseille","lat":43.30146,"lon":5.39844,"is_reserved":false,"is_disabled":true,"rental_uris":{"android":"levelo://app?vid=033a8e40-df25-4cbb-8dca-de0e704790f1","ios":"levelo://app?vid=033a8e40-df25-4cbb-8dca-de0e704790f1"},"vehicle_type_id":"4","last_reported":1747516100,"current_range_meters":0,"station_id":"ce4bh0h2rcd13ifvqd40","pricing_plan_id":"cebpf4jnsgd1na2vs0mg"},{"bike_id":"34bd8dbc-93e9-4ea7-819a-bdd552d2d81d","system_id":"levelo_inurba_marseille","lat":43.29263,"lon":5.38429,"is_reserved":false,"is_disabled":true,"rental_uris":{"android":"levelo://app?vid=34bd8dbc-93e9-4ea7-819a-bdd552d2d81d","ios":"levelo://app?vid=34bd8dbc-93e9-4ea7-819a-bdd552d2d81d"},"vehicle_type_id":"4","last_reported":1747516100,"current_range_meters":0,"station_id":"ce4bh692rcd13ifvqea0","pricing_plan_id":"cebpf4jnsgd1na2vs0mg"},{"bike_id":"f0e1b9f7-f6c1-4056-9740-43912fd27f92","system_id":"levelo_inurba_marseille","lat":43.23939,"lon":5.36642,"is_reserved":false,"is_disabled":true,"rental_uris":{"android":"levelo://app?vid=f0e1b9f7-f6c1-4056-9740-43912fd27f92","ios":"levelo://app?vid=f0e1b9f7-f6c1-4056-9740-43912fd27f92"},"vehicle_type_id":"4","last_reported":1747516100,"current_range_meters":0,"station_id":"ce4bhi12rcd13ifvqfp0","pricing_plan_id":"cebpf4jnsgd1na2vs0mg"},{"bike_id":"ac74ea5f-a343-4763-ad31-fb8960bcc3b9","system_id":"levelo_inurba_marseille","lat":43.25108,"lon":5.40301,"is_reserved":false,"is_disabled":true,"rental_uris":{"android":"levelo://app?vid=ac74ea5f-a343-4763-ad31-fb8960bcc3b9","ios":"levelo://app?vid=ac74ea5f-a343-4763-ad31-fb8960bcc3b9"},"vehicle_type_id":"4","last_reported":1747516100,"current_range_meters":0,"station_id":"ce4bhlh2rcd13ifvqgig","pricing_plan_id":"cebpf4jnsgd1na2vs0mg"},{"bike_id":"022baddd-58a9-4c47-8122-17a8e4e50f8b","system_id":"levelo_inurba_marseille","lat":43.23135,"lon":5.43706,"is_reserved":false,"is_disabled":true,"rental_uris":{"android":"levelo://app?vid=022baddd-58a9-4c47-8122-17a8e4e50f8b","ios":"levelo://app?vid=022baddd-58a9-4c47-8122-17a8e4e50f8b"},"vehicle_type_id":"4","last_reported":1747516100,"current_range_meters":0,"station_id":"ce4bhmp2rcd13ifvqgog","pricing_plan_id":"cebpf4jnsgd1na2vs0mg"},{"bike_id":"4e5cfbec-6aac-4ee7-ac9c-110bf218aee5","system_id":"levelo_inurba_marseille","lat":43.28152,"lon":5.42644,"is_reserved":false,"is_disabled":true,"rental_uris":{"android":"levelo://app?vid=4e5cfbec-6aac-4ee7-ac9c-110bf218aee5","ios":"levelo://app?vid=4e5cfbec-6aac-4ee7-ac9c-110bf218aee5"},"vehicle_type_id":"4","last_reported":1747516100,"current_range_meters":0,"station_id":"ce4bhnh2rcd13ifvqgug","pricing_plan_id":"cebpf4jnsgd1na2vs0mg"},{"bike_id":"fb6cbb8d-6d17-45aa-9ecc-50771b7a38c7","system_id":"levelo_inurba_marseille","lat":43.2409,"lon":5.37742,"is_reserved":false,"is_disabled":true,"rental_uris":{"android":"levelo://app?vid=fb6cbb8d-6d17-45aa-9ecc-50771b7a38c7","ios":"levelo://app?vid=fb6cbb8d-6d17-45aa-9ecc-50771b7a38c7"},"vehicle_type_id":"4","last_reported":1747516100,"current_range_meters":0,"station_id":"ce4bhnp2rcd13ifvqgvg","pricing_plan_id":"cebpf4jnsgd1na2vs0mg"},{"bike_id":"c7224d7b-d179-43c0-83cf-877021dd898f","system_id":"levelo_inurba_marseille","lat":43.30354,"lon":5.41874,"is_reserved":false,"is_disabled":true,"rental_uris":{"android":"levelo://app?vid=c7224d7b-d179-43c0-83cf-877021dd898f","ios":"levelo://app?vid=c7224d7b-d179-43c0-83cf-877021dd898f"},"vehicle_type_id":"4","last_reported":1747516100,"current_range_meters":0,"station_id":"ce4bhop2rcd13ifvqh7g","pricing_plan_id":"cebpf4jnsgd1na2vs0mg"},{"bike_id":"3388862d-1718-4cbd-af6b-91bf7a9a8605","system_id":"levelo_inurba_marseille","lat":43.31088,"lon":5.42432,"is_reserved":false,"is_disabled":true,"rental_uris":{"android":"levelo://app?vid=3388862d-1718-4cbd-af6b-91bf7a9a8605","ios":"levelo://app?vid=3388862d-1718-4cbd-af6b-91bf7a9a8605"},"vehicle_type_id":"4","last_reported":1747516100,"current_range_meters":0,"station_id":"ce4bhp92rcd13ifvqhag","pricing_plan_id":"cebpf4jnsgd1na2vs0mg"},{"bike_id":"65d2acbf-7639-443e-b265-81273c161032","system_id":"levelo_inurba_marseille","lat":43.31986,"lon":5.38131,"is_reserved":false,"is_disabled":true,"rental_uris":{"android":"levelo://app?vid=65d2acbf-7639-443e-b265-81273c161032","ios":"levelo://app?vid=65d2acbf-7639-443e-b265-81273c161032"},"vehicle_type_id":"4","last_reported":1747516100,"current_range_meters":0,"station_id":"ce4bhr12rcd13ifvqhpg","pricing_plan_id":"cebpf4jnsgd1na2vs0mg"},{"bike_id":"1bb0be1c-319f-4c80-bc82-cf76495a1deb","system_id":"levelo_inurba_marseille","lat":43.31995,"lon":5.38132,"is_reserved":false,"is_disabled":true,"rental_uris":{"android":"levelo://app?vid=1bb0be1c-319f-4c80-bc82-cf76495a1deb","ios":"levelo://app?vid=1bb0be1c-319f-4c80-bc82-cf76495a1deb"},"vehicle_type_id":"4","last_reported":1747516100,"current_range_meters":0,"station_id":"ce4bhr12rcd13ifvqhpg","pricing_plan_id":"cebpf4jnsgd1na2vs0mg"},{"bike_id":"761f97ef-3d44-49e1-a980-dbcf9a00e013","system_id":"levelo_inurba_marseille","lat":43.22503,"lon":5.34759,"is_reserved":false,"is_disabled":true,"rental_uris":{"android":"levelo://app?vid=761f97ef-3d44-49e1-a980-dbcf9a00e013","ios":"levelo://app?vid=761f97ef-3d44-49e1-a980-dbcf9a00e013"},"vehicle_type_id":"4","last_reported":1747516100,"current_range_meters":0,"station_id":"st_cvj5dfep6f1abm77gieg","pricing_plan_id":"cebpf4jnsgd1na2vs0mg"},{"bike_id":"216dcc1d-0b95-4672-b3f3-f224ffb61bbe","system_id":"levelo_inurba_marseille","lat":43.30415,"lon":5.38891,"is_reserved":false,"is_disabled":true,"rental_uris":{"android":"levelo://app?vid=216dcc1d-0b95-4672-b3f3-f224ffb61bbe","ios":"levelo://app?vid=216dcc1d-0b95-4672-b3f3-f224ffb61bbe"},"vehicle_type_id":"4","last_reported":1747516100,"current_range_meters":400,"station_id":"ce4bgk12rcd13ifvqbi0","pricing_plan_id":"cebpf4jnsgd1na2vs0mg"},{"bike_id":"bf57db90-db85-4c9c-a88e-fa64283ad7d7","system_id":"levelo_inurba_marseille","lat":43.30885,"lon":5.3965,"is_reserved":false,"is_disabled":true,"rental_uris":{"android":"levelo://app?vid=bf57db90-db85-4c9c-a88e-fa64283ad7d7","ios":"levelo://app?vid=bf57db90-db85-4c9c-a88e-fa64283ad7d7"},"vehicle_type_id":"4","last_reported":1747516100,"current_range_meters":400,"station_id":"ce4bh012rcd13ifvqcv0","pricing_plan_id":"cebpf4jnsgd1na2vs0mg"},{"bike_id":"5f6aa085-8dd0-43d0-8ca5-dbb3ec26e4f0","system_id":"levelo_inurba_marseille","lat":43.24387,"lon":5.37061,"is_reserved":false,"is_disabled":true,"rental_uris":{"android":"levelo://app?vid=5f6aa085-8dd0-43d0-8ca5-dbb3ec26e4f0","ios":"levelo://app?vid=5f6aa085-8dd0-43d0-8ca5-dbb3ec26e4f0"},"vehicle_type_id":"4","last_reported":1747516100,"current_range_meters":400,"station_id":"ce4bhhh2rcd13ifvqfk0","pricing_plan_id":"cebpf4jnsgd1na2vs0mg"},{"bike_id":"79014c20-9fb3-4bde-888f-87cd4445595a","system_id":"levelo_inurba_marseille","lat":43.31732,"lon":5.42373,"is_reserved":false,"is_disabled":true,"rental_uris":{"android":"levelo://app?vid=79014c20-9fb3-4bde-888f-87cd4445595a","ios":"levelo://app?vid=79014c20-9fb3-4bde-888f-87cd4445595a"},"vehicle_type_id":"4","last_reported":1747516100,"current_range_meters":400,"station_id":"ce4bhp92rcd13ifvqhbg","pricing_plan_id":"cebpf4jnsgd1na2vs0mg"},{"bike_id":"78a72d2e-086e-4202-8619-96d6a7e70ccc","system_id":"levelo_inurba_marseille","lat":43.283907,"lon":5.399327,"is_reserved":false,"is_disabled":true,"rental_uris":{"android":"levelo://app?vid=78a72d2e-086e-4202-8619-96d6a7e70ccc","ios":"levelo://app?vid=78a72d2e-086e-4202-8619-96d6a7e70ccc"},"vehicle_type_id":"4","last_reported":1747516100,"current_range_meters":800,"station_id":"","pricing_plan_id":"cebpf4jnsgd1na2vs0mg"},{"bike_id":"40e4ebea-661f-47d5-983a-32208468ce21","system_id":"levelo_inurba_marseille","lat":43.29317,"lon":5.37183,"is_reserved":false,"is_disabled":true,"rental_uris":{"android":"levelo://app?vid=40e4ebea-661f-47d5-983a-32208468ce21","ios":"levelo://app?vid=40e4ebea-661f-47d5-983a-32208468ce21"},"vehicle_type_id":"4","last_reported":1747516100,"current_range_meters":800,"station_id":"ce4bgh92rcd13ifvqb40","pricing_plan_id":"cebpf4jnsgd1na2vs0mg"},{"bike_id":"4f0b1309-d996-4c70-9f9c-af853a63b104","system_id":"levelo_inurba_marseille","lat":43.2797,"lon":5.38732,"is_reserved":false,"is_disabled":true,"rental_uris":{"android":"levelo://app?vid=4f0b1309-d996-4c70-9f9c-af853a63b104","ios":"levelo://app?vid=4f0b1309-d996-4c70-9f9c-af853a63b104"},"vehicle_type_id":"4","last_reported":1747516100,"current_range_meters":800,"station_id":"ce4bhg12rcd13ifvqf80","pricing_plan_id":"cebpf4jnsgd1na2vs0mg"},{"bike_id":"957167e1-d85f-4edc-be0c-c35620ae58da","system_id":"levelo_inurba_marseille","lat":43.24394,"lon":5.37053,"is_reserved":false,"is_disabled":true,"rental_uris":{"android":"levelo://app?vid=957167e1-d85f-4edc-be0c-c35620ae58da","ios":"levelo://app?vid=957167e1-d85f-4edc-be0c-c35620ae58da"},"vehicle_type_id":"4","last_reported":1747516100,"current_range_meters":800,"station_id":"ce4bhhh2rcd13ifvqfk0","pricing_plan_id":"cebpf4jnsgd1na2vs0mg"},{"bike_id":"f8f25897-cb66-4d71-9360-900282e23ecb","system_id":"levelo_inurba_marseille","lat":43.302462,"lon":5.390382,"is_reserved":false,"is_disabled":true,"rental_uris":{"android":"levelo://app?vid=f8f25897-cb66-4d71-9360-900282e23ecb","ios":"levelo://app?vid=f8f25897-cb66-4d71-9360-900282e23ecb"},"vehicle_type_id":"4","last_reported":1747516100,"current_range_meters":1200,"station_id":"ce4bh2h2rcd13ifvqdh0","pricing_plan_id":"cebpf4jnsgd1na2vs0mg"},{"bike_id":"59f9598d-e110-4192-bc18-7a255f754535","system_id":"levelo_inurba_marseille","lat":43.21756,"lon":5.34588,"is_reserved":false,"is_disabled":true,"rental_uris":{"android":"levelo://app?vid=59f9598d-e110-4192-bc18-7a255f754535","ios":"levelo://app?vid=59f9598d-e110-4192-bc18-7a255f754535"},"vehicle_type_id":"4","last_reported":1747516100,"current_range_meters":1200,"station_id":"st_cvj6r9ubvosntc0bgbag","pricing_plan_id":"cebpf4jnsgd1na2vs0mg"},{"bike_id":"d8911881-e82e-4c7b-963e-42a565f0cadb","system_id":"levelo_inurba_marseille","lat":43.2703,"lon":5.40692,"is_reserved":false,"is_disabled":true,"rental_uris":{"android":"levelo://app?vid=d8911881-e82e-4c7b-963e-42a565f0cadb","ios":"levelo://app?vid=d8911881-e82e-4c7b-963e-42a565f0cadb"},"vehicle_type_id":"4","last_reported":1747516100,"current_range_meters":1600,"station_id":"","pricing_plan_id":"cebpf4jnsgd1na2vs0mg"},{"bike_id":"15bdb2cb-60a0-4c42-8c18-0e6826a8f67b","system_id":"levelo_inurba_marseille","lat":43.27415,"lon":5.39455,"is_reserved":false,"is_disabled":true,"rental_uris":{"android":"levelo://app?vid=15bdb2cb-60a0-4c42-8c18-0e6826a8f67b","ios":"levelo://app?vid=15bdb2cb-60a0-4c42-8c18-0e6826a8f67b"},"vehicle_type_id":"4","last_reported":1747516100,"current_range_meters":1600,"station_id":"ce4bhdp2rcd13ifvqf20","pricing_plan_id":"cebpf4jnsgd1na2vs0mg"},{"bike_id":"bd5c4e36-3f42-4ebd-a4a3-b51abb10496e","system_id":"levelo_inurba_marseille","lat":43.24392,"lon":5.37058,"is_reserved":false,"is_disabled":true,"rental_uris":{"android":"levelo://app?vid=bd5c4e36-3f42-4ebd-a4a3-b51abb10496e","ios":"levelo://app?vid=bd5c4e36-3f42-4ebd-a4a3-b51abb10496e"},"vehicle_type_id":"4","last_reported":1747516100,"current_range_meters":1600,"station_id":"ce4bhhh2rcd13ifvqfk0","pricing_plan_id":"cebpf4jnsgd1na2vs0mg"},{"bike_id":"8fb008cb-f1cf-4d52-bcc4-4701f37f3762","system_id":"levelo_inurba_marseille","lat":43.30209,"lon":5.39474,"is_reserved":false,"is_disabled":true,"rental_uris":{"android":"levelo://app?vid=8fb008cb-f1cf-4d52-bcc4-4701f37f3762","ios":"levelo://app?vid=8fb008cb-f1cf-4d52-bcc4-4701f37f3762"},"vehicle_type_id":"4","last_reported":1747516100,"current_range_meters":2000,"station_id":"ce4bh0p2rcd13ifvqd70","pricing_plan_id":"cebpf4jnsgd1na2vs0mg"},{"bike_id":"394abb2b-2736-45b5-a619-58eeccc0cdc5","system_id":"levelo_inurba_marseille","lat":43.26189,"lon":5.37448,"is_reserved":false,"is_disabled":true,"rental_uris":{"android":"levelo://app?vid=394abb2b-2736-45b5-a619-58eeccc0cdc5","ios":"levelo://app?vid=394abb2b-2736-45b5-a619-58eeccc0cdc5"},"vehicle_type_id":"4","last_reported":1747516100,"current_range_meters":2000,"station_id":"ce4bhgp2rcd13ifvqfc0","pricing_plan_id":"cebpf4jnsgd1na2vs0mg"},{"bike_id":"74814491-cb0c-42ba-902d-fd8d6f117f8e","system_id":"levelo_inurba_marseille","lat":43.2467,"lon":5.38163,"is_reserved":false,"is_disabled":true,"rental_uris":{"android":"levelo://app?vid=74814491-cb0c-42ba-902d-fd8d6f117f8e","ios":"levelo://app?vid=74814491-cb0c-42ba-902d-fd8d6f117f8e"},"vehicle_type_id":"4","last_reported":1747516100,"current_range_meters":2000,"station_id":"ce4bhih2rcd13ifvqfr0","pricing_plan_id":"cebpf4jnsgd1na2vs0mg"},{"bike_id":"31a75d35-6a5b-4544-9407-2d29ee26681b","system_id":"levelo_inurba_marseille","lat":43.27837,"lon":5.39212,"is_reserved":false,"is_disabled":true,"rental_uris":{"android":"levelo://app?vid=31a75d35-6a5b-4544-9407-2d29ee26681b","ios":"levelo://app?vid=31a75d35-6a5b-4544-9407-2d29ee26681b"},"vehicle_type_id":"4","last_reported":1747516100,"current_range_meters":2000,"station_id":"ce4bhjp2rcd13ifvqga0","pricing_plan_id":"cebpf4jnsgd1na2vs0mg"},{"bike_id":"8ee42b5c-8302-4e0b-9b66-e274d1e532d1","system_id":"levelo_inurba_marseille","lat":43.249983,"lon":5.389207,"is_reserved":false,"is_disabled":false,"rental_uris":{"android":"levelo://app?vid=8ee42b5c-8302-4e0b-9b66-e274d1e532d1","ios":"levelo://app?vid=8ee42b5c-8302-4e0b-9b66-e274d1e532d1"},"vehicle_type_id":"4","last_reported":1747516100,"current_range_meters":2800,"station_id":"ce4bhgp2rcd13ifvqfd0","pricing_plan_id":"cebpf4jnsgd1na2vs0mg"},{"bike_id":"ce4b204c-6ecc-44d8-9cf6-6536a77e3e43","system_id":"levelo_inurba_marseille","lat":43.31531,"lon":5.38034,"is_reserved":false,"is_disabled":false,"rental_uris":{"android":"levelo://app?vid=ce4b204c-6ecc-44d8-9cf6-6536a77e3e43","ios":"levelo://app?vid=ce4b204c-6ecc-44d8-9cf6-6536a77e3e43"},"vehicle_type_id":"4","last_reported":1747516100,"current_range_meters":2800,"station_id":"ce4bhsp2rcd13ifvqi50","pricing_plan_id":"cebpf4jnsgd1na2vs0mg"},{"bike_id":"26041719-8b0f-4338-a9b2-c263ad6d017e","system_id":"levelo_inurba_marseille","lat":43.29715,"lon":5.36614,"is_reserved":false,"is_disabled":false,"rental_uris":{"android":"levelo://app?vid=26041719-8b0f-4338-a9b2-c263ad6d017e","ios":"levelo://app?vid=26041719-8b0f-4338-a9b2-c263ad6d017e"},"vehicle_type_id":"4","last_reported":1747516100,"current_range_meters":3200,"station_id":"ce4bgn12rcd13ifvqbt0","pricing_plan_id":"cebpf4jnsgd1na2vs0mg"},{"bike_id":"863b4697-e195-44d9-9b98-639f287ad03f","system_id":"levelo_inurba_marseille","lat":43.29279,"lon":5.38441,"is_reserved":false,"is_disabled":false,"rental_uris":{"android":"levelo://app?vid=863b4697-e195-44d9-9b98-639f287ad03f","ios":"levelo://app?vid=863b4697-e195-44d9-9b98-639f287ad03f"},"vehicle_type_id":"4","last_reported":1747516100,"current_range_meters":3200,"station_id":"ce4bh692rcd13ifvqea0","pricing_plan_id":"cebpf4jnsgd1na2vs0mg"},{"bike_id":"d7854cc7-04d8-4a90-9709-3ddfa8af67a9","system_id":"levelo_inurba_marseille","lat":43.27372,"lon":5.36265,"is_reserved":false,"is_disabled":false,"rental_uris":{"android":"levelo://app?vid=d7854cc7-04d8-4a90-9709-3ddfa8af67a9","ios":"levelo://app?vid=d7854cc7-04d8-4a90-9709-3ddfa8af67a9"},"vehicle_type_id":"4","last_reported":1747516100,"current_range_meters":3200,"station_id":"ce4bhbh2rcd13ifvqeo0","pricing_plan_id":"cebpf4jnsgd1na2vs0mg"},{"bike_id":"6b48d651-70b0-45a3-b95d-f5690d1f21d5","system_id":"levelo_inurba_marseille","lat":43.29538,"lon":5.38555,"is_reserved":false,"is_disabled":false,"rental_uris":{"android":"levelo://app?vid=6b48d651-70b0-45a3-b95d-f5690d1f21d5","ios":"levelo://app?vid=6b48d651-70b0-45a3-b95d-f5690d1f21d5"},"vehicle_type_id":"4","last_reported":1747516100,"current_range_meters":3600,"station_id":"ce4bgih2rcd13ifvqba0","pricing_plan_id":"cebpf4jnsgd1na2vs0mg"},{"bike_id":"90f02303-bf92-451d-881a-65777b19f4e9","system_id":"levelo_inurba_marseille","lat":43.28464,"lon":5.35889,"is_reserved":false,"is_disabled":false,"rental_uris":{"android":"levelo://app?vid=90f02303-bf92-451d-881a-65777b19f4e9","ios":"levelo://app?vid=90f02303-bf92-451d-881a-65777b19f4e9"},"vehicle_type_id":"4","last_reported":1747516100,"current_range_meters":3600,"station_id":"ce4bhah2rcd13ifvqei0","pricing_plan_id":"cebpf4jnsgd1na2vs0mg"},{"bike_id":"e9dd3aa4-b5e7-4480-926d-d7f537719bfa","system_id":"levelo_inurba_marseille","lat":43.23026,"lon":5.40212,"is_reserved":false,"is_disabled":false,"rental_uris":{"android":"levelo://app?vid=e9dd3aa4-b5e7-4480-926d-d7f537719bfa","ios":"levelo://app?vid=e9dd3aa4-b5e7-4480-926d-d7f537719bfa"},"vehicle_type_id":"4","last_reported":1747516100,"current_range_meters":4400,"station_id":"","pricing_plan_id":"cebpf4jnsgd1na2vs0mg"},{"bike_id":"8e733541-fd75-4317-8f11-f26c38aca832","system_id":"levelo_inurba_marseille","lat":43.24181,"lon":5.3973,"is_reserved":false,"is_disabled":false,"rental_uris":{"android":"levelo://app?vid=8e733541-fd75-4317-8f11-f26c38aca832","ios":"levelo://app?vid=8e733541-fd75-4317-8f11-f26c38aca832"},"vehicle_type_id":"4","last_reported":1747516100,"current_range_meters":4400,"station_id":"ce4bhn12rcd13ifvqgpg","pricing_plan_id":"cebpf4jnsgd1na2vs0mg"},{"bike_id":"03921903-6b5d-43cc-9b01-96ff9c50c166","system_id":"levelo_inurba_marseille","lat":43.231796,"lon":5.399805,"is_reserved":false,"is_disabled":false,"rental_uris":{"android":"levelo://app?vid=03921903-6b5d-43cc-9b01-96ff9c50c166","ios":"levelo://app?vid=03921903-6b5d-43cc-9b01-96ff9c50c166"},"vehicle_type_id":"4","last_reported":1747516100,"current_range_meters":4400,"station_id":"ce4bhn12rcd13ifvqgqg","pricing_plan_id":"cebpf4jnsgd1na2vs0mg"},{"bike_id":"60620d14-410e-4cf6-af31-fa0e8460721a","system_id":"levelo_inurba_marseille","lat":43.25588,"lon":5.38232,"is_reserved":false,"is_disabled":false,"rental_uris":{"android":"levelo://app?vid=60620d14-410e-4cf6-af31-fa0e8460721a","ios":"levelo://app?vid=60620d14-410e-4cf6-af31-fa0e8460721a"},"vehicle_type_id":"4","last_reported":1747516100,"current_range_meters":4800,"station_id":"ce4bhih2rcd13ifvqfs0","pricing_plan_id":"cebpf4jnsgd1na2vs0mg"},{"bike_id":"9fd661b4-e33b-4178-9872-1d2175b25913","system_id":"levelo_inurba_marseille","lat":43.278253,"lon":5.407137,"is_reserved":false,"is_disabled":false,"rental_uris":{"android":"levelo://app?vid=9fd661b4-e33b-4178-9872-1d2175b25913","ios":"levelo://app?vid=9fd661b4-e33b-4178-9872-1d2175b25913"},"vehicle_type_id":"4","last_reported":1747516100,"current_range_meters":4800,"station_id":"ce4bhnh2rcd13ifvqgtg","pricing_plan_id":"cebpf4jnsgd1na2vs0mg"},{"bike_id":"76eea6a4-9e02-4b58-8823-5d3042108e9c","system_id":"levelo_inurba_marseille","lat":43.26945,"lon":5.4025,"is_reserved":false,"is_disabled":false,"rental_uris":{"android":"levelo://app?vid=76eea6a4-9e02-4b58-8823-5d3042108e9c","ios":"levelo://app?vid=76eea6a4-9e02-4b58-8823-5d3042108e9c"},"vehicle_type_id":"4","last_reported":1747516100,"current_range_meters":4800,"station_id":"cjm6bp8fraef2m0cb0m0","pricing_plan_id":"cebpf4jnsgd1na2vs0mg"},{"bike_id":"bb2a7751-0571-421a-98a6-e024c0db5c3e","system_id":"levelo_inurba_marseille","lat":43.284628,"lon":5.393324,"is_reserved":false,"is_disabled":false,"rental_uris":{"android":"levelo://app?vid=bb2a7751-0571-421a-98a6-e024c0db5c3e","ios":"levelo://app?vid=bb2a7751-0571-421a-98a6-e024c0db5c3e"},"vehicle_type_id":"4","last_reported":1747516100,"current_range_meters":5600,"station_id":"ce4bgqh2rcd13ifvqc5g","pricing_plan_id":"cebpf4jnsgd1na2vs0mg"},{"bike_id":"1e1a4b25-665b-42bd-9fb2-1ba215017133","system_id":"levelo_inurba_marseille","lat":43.28673,"lon":5.38655,"is_reserved":false,"is_disabled":false,"rental_uris":{"android":"levelo://app?vid=1e1a4b25-665b-42bd-9fb2-1ba215017133","ios":"levelo://app?vid=1e1a4b25-665b-42bd-9fb2-1ba215017133"},"vehicle_type_id":"4","last_reported":1747516100,"current_range_meters":5600,"station_id":"ce4bh492rcd13ifvqdug","pricing_plan_id":"cebpf4jnsgd1na2vs0mg"},{"bike_id":"f0ee167a-8731-4acf-b17f-4f1fdc95b3fa","system_id":"levelo_inurba_marseille","lat":43.26211,"lon":5.37441,"is_reserved":false,"is_disabled":false,"rental_uris":{"android":"levelo://app?vid=f0ee167a-8731-4acf-b17f-4f1fdc95b3fa","ios":"levelo://app?vid=f0ee167a-8731-4acf-b17f-4f1fdc95b3fa"},"vehicle_type_id":"4","last_reported":1747516100,"current_range_meters":5600,"station_id":"ce4bhgp2rcd13ifvqfc0","pricing_plan_id":"cebpf4jnsgd1na2vs0mg"},{"bike_id":"6e612e7b-28be-478c-9618-97651a5de57b","system_id":"levelo_inurba_marseille","lat":43.24655,"lon":5.39537,"is_reserved":false,"is_disabled":false,"rental_uris":{"android":"levelo://app?vid=6e612e7b-28be-478c-9618-97651a5de57b","ios":"levelo://app?vid=6e612e7b-28be-478c-9618-97651a5de57b"},"vehicle_type_id":"4","last_reported":1747516100,"current_range_meters":6000,"station_id":"","pricing_plan_id":"cebpf4jnsgd1na2vs0mg"},{"bike_id":"a4063de7-3465-4b39-9bf8-ef1a75de7c2d","system_id":"levelo_inurba_marseille","lat":43.28583,"lon":5.46081,"is_reserved":false,"is_disabled":false,"rental_uris":{"android":"levelo://app?vid=a4063de7-3465-4b39-9bf8-ef1a75de7c2d","ios":"levelo://app?vid=a4063de7-3465-4b39-9bf8-ef1a75de7c2d"},"vehicle_type_id":"4","last_reported":1747516100,"current_range_meters":6000,"station_id":"","pricing_plan_id":"cebpf4jnsgd1na2vs0mg"},{"bike_id":"a140226f-4492-41df-b4bb-4097503cbae7","system_id":"levelo_inurba_marseille","lat":43.30873,"lon":5.39845,"is_reserved":false,"is_disabled":false,"rental_uris":{"android":"levelo://app?vid=a140226f-4492-41df-b4bb-4097503cbae7","ios":"levelo://app?vid=a140226f-4492-41df-b4bb-4097503cbae7"},"vehicle_type_id":"4","last_reported":1747516100,"current_range_meters":6000,"station_id":"","pricing_plan_id":"cebpf4jnsgd1na2vs0mg"},{"bike_id":"79bcd00a-3f87-4445-966b-9756c1f9a2e0","system_id":"levelo_inurba_marseille","lat":43.31164,"lon":5.38727,"is_reserved":false,"is_disabled":false,"rental_uris":{"android":"levelo://app?vid=79bcd00a-3f87-4445-966b-9756c1f9a2e0","ios":"levelo://app?vid=79bcd00a-3f87-4445-966b-9756c1f9a2e0"},"vehicle_type_id":"4","last_reported":1747516100,"current_range_meters":6000,"station_id":"ce4bgv12rcd13ifvqcp0","pricing_plan_id":"cebpf4jnsgd1na2vs0mg"},{"bike_id":"87119600-d1f5-4470-9c7b-cbd3f5f6db56","system_id":"levelo_inurba_marseille","lat":43.29035,"lon":5.38611,"is_reserved":false,"is_disabled":false,"rental_uris":{"android":"levelo://app?vid=87119600-d1f5-4470-9c7b-cbd3f5f6db56","ios":"levelo://app?vid=87119600-d1f5-4470-9c7b-cbd3f5f6db56"},"vehicle_type_id":"4","last_reported":1747516100,"current_range_meters":6000,"station_id":"ce4bh4p2rcd13ifvqe0g","pricing_plan_id":"cebpf4jnsgd1na2vs0mg"},{"bike_id":"29f3129d-0123-42fc-86d8-d3c048602f07","system_id":"levelo_inurba_marseille","lat":43.27562,"lon":5.38415,"is_reserved":false,"is_disabled":false,"rental_uris":{"android":"levelo://app?vid=29f3129d-0123-42fc-86d8-d3c048602f07","ios":"levelo://app?vid=29f3129d-0123-42fc-86d8-d3c048602f07"},"vehicle_type_id":"4","last_reported":1747516100,"current_range_meters":6000,"station_id":"ce4bhh92rcd13ifvqfi0","pricing_plan_id":"cebpf4jnsgd1na2vs0mg"},{"bike_id":"9cdd5564-94f9-40c7-a2e9-64f645dcf5a0","system_id":"levelo_inurba_marseille","lat":43.25117,"lon":5.40323,"is_reserved":false,"is_disabled":false,"rental_uris":{"android":"levelo://app?vid=9cdd5564-94f9-40c7-a2e9-64f645dcf5a0","ios":"levelo://app?vid=9cdd5564-94f9-40c7-a2e9-64f645dcf5a0"},"vehicle_type_id":"4","last_reported":1747516100,"current_range_meters":6000,"station_id":"ce4bhlh2rcd13ifvqgig","pricing_plan_id":"cebpf4jnsgd1na2vs0mg"},{"bike_id":"78b6bc8f-ce2f-4c76-bf94-56581d4854e1","system_id":"levelo_inurba_marseille","lat":43.31787,"lon":5.37249,"is_reserved":false,"is_disabled":false,"rental_uris":{"android":"levelo://app?vid=78b6bc8f-ce2f-4c76-bf94-56581d4854e1","ios":"levelo://app?vid=78b6bc8f-ce2f-4c76-bf94-56581d4854e1"},"vehicle_type_id":"4","last_reported":1747516100,"current_range_meters":6400,"station_id":"","pricing_plan_id":"cebpf4jnsgd1na2vs0mg"},{"bike_id":"94d31be5-b49c-477c-b9e4-fd5b3f1174af","system_id":"levelo_inurba_marseille","lat":43.31046,"lon":5.41995,"is_reserved":false,"is_disabled":false,"rental_uris":{"android":"levelo://app?vid=94d31be5-b49c-477c-b9e4-fd5b3f1174af","ios":"levelo://app?vid=94d31be5-b49c-477c-b9e4-fd5b3f1174af"},"vehicle_type_id":"4","last_reported":1747516100,"current_range_meters":6400,"station_id":"","pricing_plan_id":"cebpf4jnsgd1na2vs0mg"},{"bike_id":"ebb102bc-7539-45cd-8a05-621f4b065849","system_id":"levelo_inurba_marseille","lat":43.30305,"lon":5.392139,"is_reserved":false,"is_disabled":false,"rental_uris":{"android":"levelo://app?vid=ebb102bc-7539-45cd-8a05-621f4b065849","ios":"levelo://app?vid=ebb102bc-7539-45cd-8a05-621f4b065849"},"vehicle_type_id":"4","last_reported":1747516100,"current_range_meters":6400,"station_id":"ce4bgkh2rcd13ifvqbk0","pricing_plan_id":"cebpf4jnsgd1na2vs0mg"},{"bike_id":"be0eeaa6-6a01-46b0-a0ef-e5c5255336fe","system_id":"levelo_inurba_marseille","lat":43.29872,"lon":5.36288,"is_reserved":false,"is_disabled":false,"rental_uris":{"android":"levelo://app?vid=be0eeaa6-6a01-46b0-a0ef-e5c5255336fe","ios":"levelo://app?vid=be0eeaa6-6a01-46b0-a0ef-e5c5255336fe"},"vehicle_type_id":"4","last_reported":1747516100,"current_range_meters":6400,"station_id":"ce4bgpp2rcd13ifvqc3g","pricing_plan_id":"cebpf4jnsgd1na2vs0mg"},{"bike_id":"965d8ef3-2690-41a6-aed5-414376531061","system_id":"levelo_inurba_marseille","lat":43.301798,"lon":5.366113,"is_reserved":false,"is_disabled":false,"rental_uris":{"android":"levelo://app?vid=965d8ef3-2690-41a6-aed5-414376531061","ios":"levelo://app?vid=965d8ef3-2690-41a6-aed5-414376531061"},"vehicle_type_id":"4","last_reported":1747516100,"current_range_meters":6400,"station_id":"ce4bgrh2rcd13ifvqc8g","pricing_plan_id":"cebpf4jnsgd1na2vs0mg"},{"bike_id":"d160da91-ea5e-464c-a921-b126142793d5","system_id":"levelo_inurba_marseille","lat":43.31073,"lon":5.38343,"is_reserved":false,"is_disabled":false,"rental_uris":{"android":"levelo://app?vid=d160da91-ea5e-464c-a921-b126142793d5","ios":"levelo://app?vid=d160da91-ea5e-464c-a921-b126142793d5"},"vehicle_type_id":"4","last_reported":1747516100,"current_range_meters":6400,"station_id":"ce4bgv92rcd13ifvqcr0","pricing_plan_id":"cebpf4jnsgd1na2vs0mg"},{"bike_id":"ceccd8dc-2078-4b2e-aba6-fd544140dba1","system_id":"levelo_inurba_marseille","lat":43.29424,"lon":5.38608,"is_reserved":false,"is_disabled":false,"rental_uris":{"android":"levelo://app?vid=ceccd8dc-2078-4b2e-aba6-fd544140dba1","ios":"levelo://app?vid=ceccd8dc-2078-4b2e-aba6-fd544140dba1"},"vehicle_type_id":"4","last_reported":1747516100,"current_range_meters":6400,"station_id":"ce4bh2h2rcd13ifvqdh0","pricing_plan_id":"cebpf4jnsgd1na2vs0mg"},{"bike_id":"980862ad-514b-4584-a4f6-17bf836981bb","system_id":"levelo_inurba_marseille","lat":43.25501,"lon":5.37649,"is_reserved":false,"is_disabled":false,"rental_uris":{"android":"levelo://app?vid=980862ad-514b-4584-a4f6-17bf836981bb","ios":"levelo://app?vid=980862ad-514b-4584-a4f6-17bf836981bb"},"vehicle_type_id":"4","last_reported":1747516100,"current_range_meters":6400,"station_id":"ce4bhh12rcd13ifvqff0","pricing_plan_id":"cebpf4jnsgd1na2vs0mg"},{"bike_id":"8969c86a-9ffe-4919-a7c3-3ec71d2fc462","system_id":"levelo_inurba_marseille","lat":43.25519,"lon":5.3766,"is_reserved":false,"is_disabled":false,"rental_uris":{"android":"levelo://app?vid=8969c86a-9ffe-4919-a7c3-3ec71d2fc462","ios":"levelo://app?vid=8969c86a-9ffe-4919-a7c3-3ec71d2fc462"},"vehicle_type_id":"4","last_reported":1747516100,"current_range_meters":6400,"station_id":"ce4bhh12rcd13ifvqff0","pricing_plan_id":"cebpf4jnsgd1na2vs0mg"},{"bike_id":"5e16ea8f-95fb-446c-ab51-fae1112c0aff","system_id":"levelo_inurba_marseille","lat":43.25928,"lon":5.40889,"is_reserved":false,"is_disabled":false,"rental_uris":{"android":"levelo://app?vid=5e16ea8f-95fb-446c-ab51-fae1112c0aff","ios":"levelo://app?vid=5e16ea8f-95fb-446c-ab51-fae1112c0aff"},"vehicle_type_id":"4","last_reported":1747516100,"current_range_meters":6400,"station_id":"ce4bhm92rcd13ifvqglg","pricing_plan_id":"cebpf4jnsgd1na2vs0mg"},{"bike_id":"91381b81-084a-478e-b975-fc463814df4d","system_id":"levelo_inurba_marseille","lat":43.24177,"lon":5.39718,"is_reserved":false,"is_disabled":false,"rental_uris":{"android":"levelo://app?vid=91381b81-084a-478e-b975-fc463814df4d","ios":"levelo://app?vid=91381b81-084a-478e-b975-fc463814df4d"},"vehicle_type_id":"4","last_reported":1747516100,"current_range_meters":6400,"station_id":"ce4bhn12rcd13ifvqgpg","pricing_plan_id":"cebpf4jnsgd1na2vs0mg"},{"bike_id":"6f0eb859-c354-4ec9-9ed0-fc59fdc99960","system_id":"levelo_inurba_marseille","lat":43.3171,"lon":5.42389,"is_reserved":false,"is_disabled":false,"rental_uris":{"android":"levelo://app?vid=6f0eb859-c354-4ec9-9ed0-fc59fdc99960","ios":"levelo://app?vid=6f0eb859-c354-4ec9-9ed0-fc59fdc99960"},"vehicle_type_id":"4","last_reported":1747516100,"current_range_meters":6400,"station_id":"ce4bhp92rcd13ifvqhbg","pricing_plan_id":"cebpf4jnsgd1na2vs0mg"},{"bike_id":"26f611de-728d-479b-a369-2aa08e8f7434","system_id":"levelo_inurba_marseille","lat":43.24168,"lon":5.36393,"is_reserved":false,"is_disabled":false,"rental_uris":{"android":"levelo://app?vid=26f611de-728d-479b-a369-2aa08e8f7434","ios":"levelo://app?vid=26f611de-728d-479b-a369-2aa08e8f7434"},"vehicle_type_id":"4","last_reported":1747516100,"current_range_meters":6400,"station_id":"cpo36qri1sfpv3e86is0","pricing_plan_id":"cebpf4jnsgd1na2vs0mg"},{"bike_id":"6cd5c425-f8ac-4068-b8ea-a8bfbef29ee5","system_id":"levelo_inurba_marseille","lat":43.249973,"lon":5.379353,"is_reserved":false,"is_disabled":false,"rental_uris":{"android":"levelo://app?vid=6cd5c425-f8ac-4068-b8ea-a8bfbef29ee5","ios":"levelo://app?vid=6cd5c425-f8ac-4068-b8ea-a8bfbef29ee5"},"vehicle_type_id":"4","last_reported":1747516100,"current_range_meters":6800,"station_id":"","pricing_plan_id":"cebpf4jnsgd1na2vs0mg"},{"bike_id":"3fa58c22-00c6-48db-914d-ec2861a3d890","system_id":"levelo_inurba_marseille","lat":43.31075,"lon":5.40221,"is_reserved":false,"is_disabled":false,"rental_uris":{"android":"levelo://app?vid=3fa58c22-00c6-48db-914d-ec2861a3d890","ios":"levelo://app?vid=3fa58c22-00c6-48db-914d-ec2861a3d890"},"vehicle_type_id":"4","last_reported":1747516100,"current_range_meters":6800,"station_id":"","pricing_plan_id":"cebpf4jnsgd1na2vs0mg"},{"bike_id":"1470b759-94ba-4a26-b65e-599f5dd8d098","system_id":"levelo_inurba_marseille","lat":43.29971,"lon":5.38493,"is_reserved":false,"is_disabled":false,"rental_uris":{"android":"levelo://app?vid=1470b759-94ba-4a26-b65e-599f5dd8d098","ios":"levelo://app?vid=1470b759-94ba-4a26-b65e-599f5dd8d098"},"vehicle_type_id":"4","last_reported":1747516100,"current_range_meters":6800,"station_id":"ce4bgj92rcd13ifvqbd0","pricing_plan_id":"cebpf4jnsgd1na2vs0mg"},{"bike_id":"e1f86132-a499-4917-b983-d1c82b7cc49e","system_id":"levelo_inurba_marseille","lat":43.294075,"lon":5.386282,"is_reserved":false,"is_disabled":false,"rental_uris":{"android":"levelo://app?vid=e1f86132-a499-4917-b983-d1c82b7cc49e","ios":"levelo://app?vid=e1f86132-a499-4917-b983-d1c82b7cc49e"},"vehicle_type_id":"4","last_reported":1747516100,"current_range_meters":6800,"station_id":"ce4bh2h2rcd13ifvqdh0","pricing_plan_id":"cebpf4jnsgd1na2vs0mg"},{"bike_id":"7d8130ae-9331-4223-b554-30ab8f0d0a05","system_id":"levelo_inurba_marseille","lat":43.27322,"lon":5.39098,"is_reserved":false,"is_disabled":false,"rental_uris":{"android":"levelo://app?vid=7d8130ae-9331-4223-b554-30ab8f0d0a05","ios":"levelo://app?vid=7d8130ae-9331-4223-b554-30ab8f0d0a05"},"vehicle_type_id":"4","last_reported":1747516100,"current_range_meters":6800,"station_id":"ce4bhgp2rcd13ifvqfe0","pricing_plan_id":"cebpf4jnsgd1na2vs0mg"},{"bike_id":"3b843dca-d67a-4b0e-916b-710ebb36ec6d","system_id":"levelo_inurba_marseille","lat":43.32541,"lon":5.40122,"is_reserved":false,"is_disabled":false,"rental_uris":{"android":"levelo://app?vid=3b843dca-d67a-4b0e-916b-710ebb36ec6d","ios":"levelo://app?vid=3b843dca-d67a-4b0e-916b-710ebb36ec6d"},"vehicle_type_id":"4","last_reported":1747516100,"current_range_meters":7200,"station_id":"","pricing_plan_id":"cebpf4jnsgd1na2vs0mg"},{"bike_id":"bf106f44-37fe-4238-91dc-77f04a4ad63b","system_id":"levelo_inurba_marseille","lat":43.3136,"lon":5.38496,"is_reserved":false,"is_disabled":false,"rental_uris":{"android":"levelo://app?vid=bf106f44-37fe-4238-91dc-77f04a4ad63b","ios":"levelo://app?vid=bf106f44-37fe-4238-91dc-77f04a4ad63b"},"vehicle_type_id":"4","last_reported":1747516100,"current_range_meters":7200,"station_id":"ce4bgt92rcd13ifvqcf0","pricing_plan_id":"cebpf4jnsgd1na2vs0mg"},{"bike_id":"fd02712b-7e36-413d-9b23-073fcfa4aeec","system_id":"levelo_inurba_marseille","lat":43.30883,"lon":5.3966,"is_reserved":false,"is_disabled":false,"rental_uris":{"android":"levelo://app?vid=fd02712b-7e36-413d-9b23-073fcfa4aeec","ios":"levelo://app?vid=fd02712b-7e36-413d-9b23-073fcfa4aeec"},"vehicle_type_id":"4","last_reported":1747516100,"current_range_meters":7200,"station_id":"ce4bh012rcd13ifvqcv0","pricing_plan_id":"cebpf4jnsgd1na2vs0mg"},{"bike_id":"5cc71a56-4d9d-46ee-a5f0-e4c0de2afc08","system_id":"levelo_inurba_marseille","lat":43.28926,"lon":5.38389,"is_reserved":false,"is_disabled":false,"rental_uris":{"android":"levelo://app?vid=5cc71a56-4d9d-46ee-a5f0-e4c0de2afc08","ios":"levelo://app?vid=5cc71a56-4d9d-46ee-a5f0-e4c0de2afc08"},"vehicle_type_id":"4","last_reported":1747516100,"current_range_meters":7200,"station_id":"ce4bh612rcd13ifvqe6g","pricing_plan_id":"cebpf4jnsgd1na2vs0mg"},{"bike_id":"e7e7e240-1d45-45e9-8121-e3a5e7b9a918","system_id":"levelo_inurba_marseille","lat":43.292566,"lon":5.384414,"is_reserved":false,"is_disabled":false,"rental_uris":{"android":"levelo://app?vid=e7e7e240-1d45-45e9-8121-e3a5e7b9a918","ios":"levelo://app?vid=e7e7e240-1d45-45e9-8121-e3a5e7b9a918"},"vehicle_type_id":"4","last_reported":1747516100,"current_range_meters":7200,"station_id":"ce4bh692rcd13ifvqea0","pricing_plan_id":"cebpf4jnsgd1na2vs0mg"},{"bike_id":"7f6746c4-1c7c-4c44-a078-4a2fb50d8073","system_id":"levelo_inurba_marseille","lat":43.24545,"lon":5.395234,"is_reserved":false,"is_disabled":false,"rental_uris":{"android":"levelo://app?vid=7f6746c4-1c7c-4c44-a078-4a2fb50d8073","ios":"levelo://app?vid=7f6746c4-1c7c-4c44-a078-4a2fb50d8073"},"vehicle_type_id":"4","last_reported":1747516100,"current_range_meters":7200,"station_id":"ce4bhlp2rcd13ifvqgjg","pricing_plan_id":"cebpf4jnsgd1na2vs0mg"},{"bike_id":"fb04a8e0-5b57-4954-a25f-566302202705","system_id":"levelo_inurba_marseille","lat":43.29708,"lon":5.3661,"is_reserved":false,"is_disabled":false,"rental_uris":{"android":"levelo://app?vid=fb04a8e0-5b57-4954-a25f-566302202705","ios":"levelo://app?vid=fb04a8e0-5b57-4954-a25f-566302202705"},"vehicle_type_id":"4","last_reported":1747516100,"current_range_meters":8000,"station_id":"ce4bgn12rcd13ifvqbt0","pricing_plan_id":"cebpf4jnsgd1na2vs0mg"},{"bike_id":"002c3e5d-661c-456a-8f51-2300ecb10546","system_id":"levelo_inurba_marseille","lat":43.29586,"lon":5.36731,"is_reserved":false,"is_disabled":false,"rental_uris":{"android":"levelo://app?vid=002c3e5d-661c-456a-8f51-2300ecb10546","ios":"levelo://app?vid=002c3e5d-661c-456a-8f51-2300ecb10546"},"vehicle_type_id":"4","last_reported":1747516100,"current_range_meters":8000,"station_id":"ce4bgph2rcd13ifvqc2g","pricing_plan_id":"cebpf4jnsgd1na2vs0mg"},{"bike_id":"7fdcf52b-541b-4360-8c0a-0ae336ff6d66","system_id":"levelo_inurba_marseille","lat":43.30133,"lon":5.39858,"is_reserved":false,"is_disabled":false,"rental_uris":{"android":"levelo://app?vid=7fdcf52b-541b-4360-8c0a-0ae336ff6d66","ios":"levelo://app?vid=7fdcf52b-541b-4360-8c0a-0ae336ff6d66"},"vehicle_type_id":"4","last_reported":1747516100,"current_range_meters":8000,"station_id":"ce4bh0h2rcd13ifvqd40","pricing_plan_id":"cebpf4jnsgd1na2vs0mg"},{"bike_id":"19346233-1c23-4456-8d40-edfce5f9559f","system_id":"levelo_inurba_marseille","lat":43.2481,"lon":5.37457,"is_reserved":false,"is_disabled":false,"rental_uris":{"android":"levelo://app?vid=19346233-1c23-4456-8d40-edfce5f9559f","ios":"levelo://app?vid=19346233-1c23-4456-8d40-edfce5f9559f"},"vehicle_type_id":"4","last_reported":1747516100,"current_range_meters":8000,"station_id":"ce4bhgh2rcd13ifvqfb0","pricing_plan_id":"cebpf4jnsgd1na2vs0mg"},{"bike_id":"1e5a7839-d218-47a9-988d-f5fdcdfa5acb","system_id":"levelo_inurba_marseille","lat":43.25832,"lon":5.39447,"is_reserved":false,"is_disabled":false,"rental_uris":{"android":"levelo://app?vid=1e5a7839-d218-47a9-988d-f5fdcdfa5acb","ios":"levelo://app?vid=1e5a7839-d218-47a9-988d-f5fdcdfa5acb"},"vehicle_type_id":"4","last_reported":1747516100,"current_range_meters":8000,"station_id":"ce4bhip2rcd13ifvqft0","pricing_plan_id":"cebpf4jnsgd1na2vs0mg"},{"bike_id":"3b3f5dcc-0fa8-4734-9826-c70b224ae58e","system_id":"levelo_inurba_marseille","lat":43.25866,"lon":5.39897,"is_reserved":false,"is_disabled":false,"rental_uris":{"android":"levelo://app?vid=3b3f5dcc-0fa8-4734-9826-c70b224ae58e","ios":"levelo://app?vid=3b3f5dcc-0fa8-4734-9826-c70b224ae58e"},"vehicle_type_id":"4","last_reported":1747516100,"current_range_meters":8000,"station_id":"ce4bhl92rcd13ifvqghg","pricing_plan_id":"cebpf4jnsgd1na2vs0mg"},{"bike_id":"2bdbf59f-e481-4844-905c-61239f926a33","system_id":"levelo_inurba_marseille","lat":43.23181,"lon":5.39984,"is_reserved":false,"is_disabled":false,"rental_uris":{"android":"levelo://app?vid=2bdbf59f-e481-4844-905c-61239f926a33","ios":"levelo://app?vid=2bdbf59f-e481-4844-905c-61239f926a33"},"vehicle_type_id":"4","last_reported":1747516100,"current_range_meters":8000,"station_id":"ce4bhn12rcd13ifvqgqg","pricing_plan_id":"cebpf4jnsgd1na2vs0mg"},{"bike_id":"4b0b1f5b-0b5f-4c37-a22b-41ace886ce88","system_id":"levelo_inurba_marseille","lat":43.27635,"lon":5.42645,"is_reserved":false,"is_disabled":false,"rental_uris":{"android":"levelo://app?vid=4b0b1f5b-0b5f-4c37-a22b-41ace886ce88","ios":"levelo://app?vid=4b0b1f5b-0b5f-4c37-a22b-41ace886ce88"},"vehicle_type_id":"4","last_reported":1747516100,"current_range_meters":8400,"station_id":"","pricing_plan_id":"cebpf4jnsgd1na2vs0mg"},{"bike_id":"70224a43-c9cb-4cb0-ac4e-ab51ea29662b","system_id":"levelo_inurba_marseille","lat":43.30928,"lon":5.40135,"is_reserved":false,"is_disabled":false,"rental_uris":{"android":"levelo://app?vid=70224a43-c9cb-4cb0-ac4e-ab51ea29662b","ios":"levelo://app?vid=70224a43-c9cb-4cb0-ac4e-ab51ea29662b"},"vehicle_type_id":"4","last_reported":1747516100,"current_range_meters":8400,"station_id":"ce4bgvp2rcd13ifvqct0","pricing_plan_id":"cebpf4jnsgd1na2vs0mg"},{"bike_id":"07ebc00b-a954-4610-aea7-7302ca8282d8","system_id":"levelo_inurba_marseille","lat":43.27374,"lon":5.36258,"is_reserved":false,"is_disabled":false,"rental_uris":{"android":"levelo://app?vid=07ebc00b-a954-4610-aea7-7302ca8282d8","ios":"levelo://app?vid=07ebc00b-a954-4610-aea7-7302ca8282d8"},"vehicle_type_id":"4","last_reported":1747516100,"current_range_meters":8400,"station_id":"ce4bhbh2rcd13ifvqeo0","pricing_plan_id":"cebpf4jnsgd1na2vs0mg"},{"bike_id":"d9bde515-1075-4e11-8b32-4c0fec58c6c3","system_id":"levelo_inurba_marseille","lat":43.2511,"lon":5.4032,"is_reserved":false,"is_disabled":false,"rental_uris":{"android":"levelo://app?vid=d9bde515-1075-4e11-8b32-4c0fec58c6c3","ios":"levelo://app?vid=d9bde515-1075-4e11-8b32-4c0fec58c6c3"},"vehicle_type_id":"4","last_reported":1747516100,"current_range_meters":8400,"station_id":"ce4bhlh2rcd13ifvqgig","pricing_plan_id":"cebpf4jnsgd1na2vs0mg"},{"bike_id":"7711fff8-1c30-4c3a-aa27-6e5dbb51f698","system_id":"levelo_inurba_marseille","lat":43.25122,"lon":5.40323,"is_reserved":false,"is_disabled":false,"rental_uris":{"android":"levelo://app?vid=7711fff8-1c30-4c3a-aa27-6e5dbb51f698","ios":"levelo://app?vid=7711fff8-1c30-4c3a-aa27-6e5dbb51f698"},"vehicle_type_id":"4","last_reported":1747516100,"current_range_meters":8400,"station_id":"ce4bhlh2rcd13ifvqgig","pricing_plan_id":"cebpf4jnsgd1na2vs0mg"},{"bike_id":"18e4ed23-84c4-4801-91e1-7b53274d9ead","system_id":"levelo_inurba_marseille","lat":43.321045,"lon":5.36772,"is_reserved":false,"is_disabled":false,"rental_uris":{"android":"levelo://app?vid=18e4ed23-84c4-4801-91e1-7b53274d9ead","ios":"levelo://app?vid=18e4ed23-84c4-4801-91e1-7b53274d9ead"},"vehicle_type_id":"4","last_reported":1747516100,"current_range_meters":8400,"station_id":"ce4bhrh2rcd13ifvqhug","pricing_plan_id":"cebpf4jnsgd1na2vs0mg"},{"bike_id":"55fb771a-6e76-45c4-a9b7-cda97a0011d0","system_id":"levelo_inurba_marseille","lat":43.286664,"lon":5.383162,"is_reserved":false,"is_disabled":false,"rental_uris":{"android":"levelo://app?vid=55fb771a-6e76-45c4-a9b7-cda97a0011d0","ios":"levelo://app?vid=55fb771a-6e76-45c4-a9b7-cda97a0011d0"},"vehicle_type_id":"4","last_reported":1747516100,"current_range_meters":8800,"station_id":"","pricing_plan_id":"cebpf4jnsgd1na2vs0mg"},{"bike_id":"ffc3ddf2-0082-4578-9e25-c91f5b4279bc","system_id":"levelo_inurba_marseille","lat":43.2832,"lon":5.41114,"is_reserved":false,"is_disabled":false,"rental_uris":{"android":"levelo://app?vid=ffc3ddf2-0082-4578-9e25-c91f5b4279bc","ios":"levelo://app?vid=ffc3ddf2-0082-4578-9e25-c91f5b4279bc"},"vehicle_type_id":"4","last_reported":1747516100,"current_range_meters":8800,"station_id":"","pricing_plan_id":"cebpf4jnsgd1na2vs0mg"},{"bike_id":"dd0bf4a8-6ce4-430e-88df-7de97096471b","system_id":"levelo_inurba_marseille","lat":43.310342,"lon":5.383183,"is_reserved":false,"is_disabled":false,"rental_uris":{"android":"levelo://app?vid=dd0bf4a8-6ce4-430e-88df-7de97096471b","ios":"levelo://app?vid=dd0bf4a8-6ce4-430e-88df-7de97096471b"},"vehicle_type_id":"4","last_reported":1747516100,"current_range_meters":8800,"station_id":"","pricing_plan_id":"cebpf4jnsgd1na2vs0mg"},{"bike_id":"601a4b2e-b95b-4300-a03c-0c86ee9eba75","system_id":"levelo_inurba_marseille","lat":43.2971,"lon":5.37686,"is_reserved":false,"is_disabled":false,"rental_uris":{"android":"levelo://app?vid=601a4b2e-b95b-4300-a03c-0c86ee9eba75","ios":"levelo://app?vid=601a4b2e-b95b-4300-a03c-0c86ee9eba75"},"vehicle_type_id":"4","last_reported":1747516100,"current_range_meters":8800,"station_id":"ce4bgkh2rcd13ifvqbl0","pricing_plan_id":"cebpf4jnsgd1na2vs0mg"},{"bike_id":"ec01235b-c295-4a8d-8e09-9edefa0f040b","system_id":"levelo_inurba_marseille","lat":43.284678,"lon":5.358777,"is_reserved":false,"is_disabled":false,"rental_uris":{"android":"levelo://app?vid=ec01235b-c295-4a8d-8e09-9edefa0f040b","ios":"levelo://app?vid=ec01235b-c295-4a8d-8e09-9edefa0f040b"},"vehicle_type_id":"4","last_reported":1747516100,"current_range_meters":8800,"station_id":"ce4bhah2rcd13ifvqei0","pricing_plan_id":"cebpf4jnsgd1na2vs0mg"},{"bike_id":"4286ba3b-5eaa-4011-a9ab-583230023e41","system_id":"levelo_inurba_marseille","lat":43.27917,"lon":5.39585,"is_reserved":false,"is_disabled":false,"rental_uris":{"android":"levelo://app?vid=4286ba3b-5eaa-4011-a9ab-583230023e41","ios":"levelo://app?vid=4286ba3b-5eaa-4011-a9ab-583230023e41"},"vehicle_type_id":"4","last_reported":1747516100,"current_range_meters":8800,"station_id":"ce4bhf92rcd13ifvqf40","pricing_plan_id":"cebpf4jnsgd1na2vs0mg"},{"bike_id":"d0cc36ba-dea5-4301-b9bc-2db32098db5e","system_id":"levelo_inurba_marseille","lat":43.25088,"lon":5.39525,"is_reserved":false,"is_disabled":false,"rental_uris":{"android":"levelo://app?vid=d0cc36ba-dea5-4301-b9bc-2db32098db5e","ios":"levelo://app?vid=d0cc36ba-dea5-4301-b9bc-2db32098db5e"},"vehicle_type_id":"4","last_reported":1747516100,"current_range_meters":8800,"station_id":"ce4bhm12rcd13ifvqgkg","pricing_plan_id":"cebpf4jnsgd1na2vs0mg"},{"bike_id":"bf984e61-6bf7-4230-8a5b-4fca28462353","system_id":"levelo_inurba_marseille","lat":43.27819,"lon":5.40702,"is_reserved":false,"is_disabled":false,"rental_uris":{"android":"levelo://app?vid=bf984e61-6bf7-4230-8a5b-4fca28462353","ios":"levelo://app?vid=bf984e61-6bf7-4230-8a5b-4fca28462353"},"vehicle_type_id":"4","last_reported":1747516100,"current_range_meters":8800,"station_id":"ce4bhnh2rcd13ifvqgtg","pricing_plan_id":"cebpf4jnsgd1na2vs0mg"},{"bike_id":"26808a24-9e36-4930-921c-a3113ce9be8a","system_id":"levelo_inurba_marseille","lat":43.27214,"lon":5.39112,"is_reserved":false,"is_disabled":false,"rental_uris":{"android":"levelo://app?vid=26808a24-9e36-4930-921c-a3113ce9be8a","ios":"levelo://app?vid=26808a24-9e36-4930-921c-a3113ce9be8a"},"vehicle_type_id":"4","last_reported":1747516100,"current_range_meters":9200,"station_id":"","pricing_plan_id":"cebpf4jnsgd1na2vs0mg"},{"bike_id":"0390d809-9393-482c-b3c5-bf6e57a8f578","system_id":"levelo_inurba_marseille","lat":43.2988,"lon":5.36269,"is_reserved":false,"is_disabled":false,"rental_uris":{"android":"levelo://app?vid=0390d809-9393-482c-b3c5-bf6e57a8f578","ios":"levelo://app?vid=0390d809-9393-482c-b3c5-bf6e57a8f578"},"vehicle_type_id":"4","last_reported":1747516100,"current_range_meters":9200,"station_id":"ce4bgpp2rcd13ifvqc3g","pricing_plan_id":"cebpf4jnsgd1na2vs0mg"},{"bike_id":"6a4abd9f-a0b2-44cb-887b-ada3a1dd2658","system_id":"levelo_inurba_marseille","lat":43.29842,"lon":5.36264,"is_reserved":false,"is_disabled":false,"rental_uris":{"android":"levelo://app?vid=6a4abd9f-a0b2-44cb-887b-ada3a1dd2658","ios":"levelo://app?vid=6a4abd9f-a0b2-44cb-887b-ada3a1dd2658"},"vehicle_type_id":"4","last_reported":1747516100,"current_range_meters":9200,"station_id":"ce4bgpp2rcd13ifvqc3g","pricing_plan_id":"cebpf4jnsgd1na2vs0mg"},{"bike_id":"a063b40b-df40-49a7-9f2d-1f2ba19974f2","system_id":"levelo_inurba_marseille","lat":43.29844,"lon":5.36271,"is_reserved":false,"is_disabled":false,"rental_uris":{"android":"levelo://app?vid=a063b40b-df40-49a7-9f2d-1f2ba19974f2","ios":"levelo://app?vid=a063b40b-df40-49a7-9f2d-1f2ba19974f2"},"vehicle_type_id":"4","last_reported":1747516100,"current_range_meters":9200,"station_id":"ce4bgpp2rcd13ifvqc3g","pricing_plan_id":"cebpf4jnsgd1na2vs0mg"},{"bike_id":"1849f76c-c448-475b-af97-25ec1fb1bae6","system_id":"levelo_inurba_marseille","lat":43.30188,"lon":5.36621,"is_reserved":false,"is_disabled":false,"rental_uris":{"android":"levelo://app?vid=1849f76c-c448-475b-af97-25ec1fb1bae6","ios":"levelo://app?vid=1849f76c-c448-475b-af97-25ec1fb1bae6"},"vehicle_type_id":"4","last_reported":1747516100,"current_range_meters":9200,"station_id":"ce4bgrh2rcd13ifvqc8g","pricing_plan_id":"cebpf4jnsgd1na2vs0mg"},{"bike_id":"4196a761-2fa8-4a3e-9ae1-f1f896dc25b4","system_id":"levelo_inurba_marseille","lat":43.25499,"lon":5.376522,"is_reserved":false,"is_disabled":false,"rental_uris":{"android":"levelo://app?vid=4196a761-2fa8-4a3e-9ae1-f1f896dc25b4","ios":"levelo://app?vid=4196a761-2fa8-4a3e-9ae1-f1f896dc25b4"},"vehicle_type_id":"4","last_reported":1747516100,"current_range_meters":9200,"station_id":"ce4bhh12rcd13ifvqff0","pricing_plan_id":"cebpf4jnsgd1na2vs0mg"},{"bike_id":"1b304bc2-c944-4223-872d-62e1b1fab845","system_id":"levelo_inurba_marseille","lat":43.26932,"lon":5.40243,"is_reserved":false,"is_disabled":false,"rental_uris":{"android":"levelo://app?vid=1b304bc2-c944-4223-872d-62e1b1fab845","ios":"levelo://app?vid=1b304bc2-c944-4223-872d-62e1b1fab845"},"vehicle_type_id":"4","last_reported":1747516100,"current_range_meters":9200,"station_id":"cjm6bp8fraef2m0cb0m0","pricing_plan_id":"cebpf4jnsgd1na2vs0mg"},{"bike_id":"9d1ced73-c438-4da3-99cb-5368d05e355b","system_id":"levelo_inurba_marseille","lat":43.26944,"lon":5.4024,"is_reserved":false,"is_disabled":false,"rental_uris":{"android":"levelo://app?vid=9d1ced73-c438-4da3-99cb-5368d05e355b","ios":"levelo://app?vid=9d1ced73-c438-4da3-99cb-5368d05e355b"},"vehicle_type_id":"4","last_reported":1747516100,"current_range_meters":9200,"station_id":"cjm6bp8fraef2m0cb0m0","pricing_plan_id":"cebpf4jnsgd1na2vs0mg"},{"bike_id":"b8e6468b-87db-4ff6-8122-ef13bf5b7c8c","system_id":"levelo_inurba_marseille","lat":43.31379,"lon":5.37916,"is_reserved":false,"is_disabled":false,"rental_uris":{"android":"levelo://app?vid=b8e6468b-87db-4ff6-8122-ef13bf5b7c8c","ios":"levelo://app?vid=b8e6468b-87db-4ff6-8122-ef13bf5b7c8c"},"vehicle_type_id":"4","last_reported":1747516100,"current_range_meters":9600,"station_id":"","pricing_plan_id":"cebpf4jnsgd1na2vs0mg"},{"bike_id":"84b0ff21-36b7-420d-b07c-be79b5e8591e","system_id":"levelo_inurba_marseille","lat":43.30782,"lon":5.3764,"is_reserved":false,"is_disabled":false,"rental_uris":{"android":"levelo://app?vid=84b0ff21-36b7-420d-b07c-be79b5e8591e","ios":"levelo://app?vid=84b0ff21-36b7-420d-b07c-be79b5e8591e"},"vehicle_type_id":"4","last_reported":1747516100,"current_range_meters":9600,"station_id":"ce4bgv92rcd13ifvqcq0","pricing_plan_id":"cebpf4jnsgd1na2vs0mg"},{"bike_id":"61682b8e-e8fc-41d5-812b-84ee94d1b881","system_id":"levelo_inurba_marseille","lat":43.286136,"lon":5.379677,"is_reserved":false,"is_disabled":false,"rental_uris":{"android":"levelo://app?vid=61682b8e-e8fc-41d5-812b-84ee94d1b881","ios":"levelo://app?vid=61682b8e-e8fc-41d5-812b-84ee94d1b881"},"vehicle_type_id":"4","last_reported":1747516100,"current_range_meters":9600,"station_id":"ce4bh9p2rcd13ifvqec0","pricing_plan_id":"cebpf4jnsgd1na2vs0mg"},{"bike_id":"f96fb7e6-d103-43cc-aa2e-da497d410792","system_id":"levelo_inurba_marseille","lat":43.27913,"lon":5.39609,"is_reserved":false,"is_disabled":false,"rental_uris":{"android":"levelo://app?vid=f96fb7e6-d103-43cc-aa2e-da497d410792","ios":"levelo://app?vid=f96fb7e6-d103-43cc-aa2e-da497d410792"},"vehicle_type_id":"4","last_reported":1747516100,"current_range_meters":9600,"station_id":"ce4bhf92rcd13ifvqf40","pricing_plan_id":"cebpf4jnsgd1na2vs0mg"},{"bike_id":"ca046087-a8bc-4f7b-9b15-45221230521d","system_id":"levelo_inurba_marseille","lat":43.273063,"lon":5.391055,"is_reserved":false,"is_disabled":false,"rental_uris":{"android":"levelo://app?vid=ca046087-a8bc-4f7b-9b15-45221230521d","ios":"levelo://app?vid=ca046087-a8bc-4f7b-9b15-45221230521d"},"vehicle_type_id":"4","last_reported":1747516100,"current_range_meters":9600,"station_id":"ce4bhgp2rcd13ifvqfe0","pricing_plan_id":"cebpf4jnsgd1na2vs0mg"},{"bike_id":"5ea6f467-857b-4ea7-a4b9-4a241fcc702a","system_id":"levelo_inurba_marseille","lat":43.24678,"lon":5.38151,"is_reserved":false,"is_disabled":false,"rental_uris":{"android":"levelo://app?vid=5ea6f467-857b-4ea7-a4b9-4a241fcc702a","ios":"levelo://app?vid=5ea6f467-857b-4ea7-a4b9-4a241fcc702a"},"vehicle_type_id":"4","last_reported":1747516100,"current_range_meters":9600,"station_id":"ce4bhih2rcd13ifvqfr0","pricing_plan_id":"cebpf4jnsgd1na2vs0mg"},{"bike_id":"3db69897-4eb5-42f7-bca3-c41f6cdaef15","system_id":"levelo_inurba_marseille","lat":43.2781,"lon":5.40712,"is_reserved":false,"is_disabled":false,"rental_uris":{"android":"levelo://app?vid=3db69897-4eb5-42f7-bca3-c41f6cdaef15","ios":"levelo://app?vid=3db69897-4eb5-42f7-bca3-c41f6cdaef15"},"vehicle_type_id":"4","last_reported":1747516100,"current_range_meters":9600,"station_id":"ce4bhnh2rcd13ifvqgtg","pricing_plan_id":"cebpf4jnsgd1na2vs0mg"},{"bike_id":"6bad99d6-c400-4729-a6f1-dd5f2da6c3f2","system_id":"levelo_inurba_marseille","lat":43.31731,"lon":5.42394,"is_reserved":false,"is_disabled":false,"rental_uris":{"android":"levelo://app?vid=6bad99d6-c400-4729-a6f1-dd5f2da6c3f2","ios":"levelo://app?vid=6bad99d6-c400-4729-a6f1-dd5f2da6c3f2"},"vehicle_type_id":"4","last_reported":1747516100,"current_range_meters":9600,"station_id":"ce4bhp92rcd13ifvqhbg","pricing_plan_id":"cebpf4jnsgd1na2vs0mg"},{"bike_id":"903f22cf-e0d5-470c-8b87-c131fe0f67d7","system_id":"levelo_inurba_marseille","lat":43.29971,"lon":5.38496,"is_reserved":false,"is_disabled":false,"rental_uris":{"android":"levelo://app?vid=903f22cf-e0d5-470c-8b87-c131fe0f67d7","ios":"levelo://app?vid=903f22cf-e0d5-470c-8b87-c131fe0f67d7"},"vehicle_type_id":"4","last_reported":1747516100,"current_range_meters":10000,"station_id":"ce4bgj92rcd13ifvqbd0","pricing_plan_id":"cebpf4jnsgd1na2vs0mg"},{"bike_id":"d4cde403-1eb8-4fd9-882f-09421c028cb8","system_id":"levelo_inurba_marseille","lat":43.299666,"lon":5.385977,"is_reserved":false,"is_disabled":false,"rental_uris":{"android":"levelo://app?vid=d4cde403-1eb8-4fd9-882f-09421c028cb8","ios":"levelo://app?vid=d4cde403-1eb8-4fd9-882f-09421c028cb8"},"vehicle_type_id":"4","last_reported":1747516100,"current_range_meters":10000,"station_id":"ce4bgj92rcd13ifvqbd0","pricing_plan_id":"cebpf4jnsgd1na2vs0mg"},{"bike_id":"1d9ce790-24b9-4a6d-bdd6-5c6979c21109","system_id":"levelo_inurba_marseille","lat":43.29859,"lon":5.36285,"is_reserved":false,"is_disabled":false,"rental_uris":{"android":"levelo://app?vid=1d9ce790-24b9-4a6d-bdd6-5c6979c21109","ios":"levelo://app?vid=1d9ce790-24b9-4a6d-bdd6-5c6979c21109"},"vehicle_type_id":"4","last_reported":1747516100,"current_range_meters":10000,"station_id":"ce4bgpp2rcd13ifvqc3g","pricing_plan_id":"cebpf4jnsgd1na2vs0mg"},{"bike_id":"02fe123b-78d8-4d5d-998e-147cb9fbb1e5","system_id":"levelo_inurba_marseille","lat":43.30313,"lon":5.36905,"is_reserved":false,"is_disabled":false,"rental_uris":{"android":"levelo://app?vid=02fe123b-78d8-4d5d-998e-147cb9fbb1e5","ios":"levelo://app?vid=02fe123b-78d8-4d5d-998e-147cb9fbb1e5"},"vehicle_type_id":"4","last_reported":1747516100,"current_range_meters":10000,"station_id":"ce4bgqh2rcd13ifvqc5g","pricing_plan_id":"cebpf4jnsgd1na2vs0mg"},{"bike_id":"822dd0b4-7412-48bb-99dc-94cac0c42c1e","system_id":"levelo_inurba_marseille","lat":43.29434,"lon":5.39742,"is_reserved":false,"is_disabled":false,"rental_uris":{"android":"levelo://app?vid=822dd0b4-7412-48bb-99dc-94cac0c42c1e","ios":"levelo://app?vid=822dd0b4-7412-48bb-99dc-94cac0c42c1e"},"vehicle_type_id":"4","last_reported":1747516100,"current_range_meters":10000,"station_id":"ce4bh3h2rcd13ifvqdo0","pricing_plan_id":"cebpf4jnsgd1na2vs0mg"},{"bike_id":"412723f8-7d2a-4825-95e9-00fc00e71d8b","system_id":"levelo_inurba_marseille","lat":43.28976,"lon":5.37838,"is_reserved":false,"is_disabled":false,"rental_uris":{"android":"levelo://app?vid=412723f8-7d2a-4825-95e9-00fc00e71d8b","ios":"levelo://app?vid=412723f8-7d2a-4825-95e9-00fc00e71d8b"},"vehicle_type_id":"4","last_reported":1747516100,"current_range_meters":10000,"station_id":"ce4bh9p2rcd13ifvqed0","pricing_plan_id":"cebpf4jnsgd1na2vs0mg"},{"bike_id":"1ef05c2f-1395-4821-b79c-d7c2cdc7602b","system_id":"levelo_inurba_marseille","lat":43.24544,"lon":5.3952,"is_reserved":false,"is_disabled":false,"rental_uris":{"android":"levelo://app?vid=1ef05c2f-1395-4821-b79c-d7c2cdc7602b","ios":"levelo://app?vid=1ef05c2f-1395-4821-b79c-d7c2cdc7602b"},"vehicle_type_id":"4","last_reported":1747516100,"current_range_meters":10000,"station_id":"ce4bhlp2rcd13ifvqgjg","pricing_plan_id":"cebpf4jnsgd1na2vs0mg"},{"bike_id":"0fb02880-5c6e-4026-9e4a-07529c572b44","system_id":"levelo_inurba_marseille","lat":43.255007,"lon":5.373523,"is_reserved":false,"is_disabled":false,"rental_uris":{"android":"levelo://app?vid=0fb02880-5c6e-4026-9e4a-07529c572b44","ios":"levelo://app?vid=0fb02880-5c6e-4026-9e4a-07529c572b44"},"vehicle_type_id":"4","last_reported":1747516100,"current_range_meters":10800,"station_id":"","pricing_plan_id":"cebpf4jnsgd1na2vs0mg"},{"bike_id":"2f45f9d4-7f31-44fe-8b0b-f1df8fd88772","system_id":"levelo_inurba_marseille","lat":43.29539,"lon":5.3854,"is_reserved":false,"is_disabled":false,"rental_uris":{"android":"levelo://app?vid=2f45f9d4-7f31-44fe-8b0b-f1df8fd88772","ios":"levelo://app?vid=2f45f9d4-7f31-44fe-8b0b-f1df8fd88772"},"vehicle_type_id":"4","last_reported":1747516100,"current_range_meters":10800,"station_id":"ce4bgih2rcd13ifvqba0","pricing_plan_id":"cebpf4jnsgd1na2vs0mg"},{"bike_id":"87db6c6e-35e8-400a-8d77-6a40cf65d836","system_id":"levelo_inurba_marseille","lat":43.29727,"lon":5.36611,"is_reserved":false,"is_disabled":false,"rental_uris":{"android":"levelo://app?vid=87db6c6e-35e8-400a-8d77-6a40cf65d836","ios":"levelo://app?vid=87db6c6e-35e8-400a-8d77-6a40cf65d836"},"vehicle_type_id":"4","last_reported":1747516100,"current_range_meters":10800,"station_id":"ce4bgn12rcd13ifvqbt0","pricing_plan_id":"cebpf4jnsgd1na2vs0mg"},{"bike_id":"cec3f715-614f-4bf0-96bd-7080ba74ba99","system_id":"levelo_inurba_marseille","lat":43.31126,"lon":5.37761,"is_reserved":false,"is_disabled":false,"rental_uris":{"android":"levelo://app?vid=cec3f715-614f-4bf0-96bd-7080ba74ba99","ios":"levelo://app?vid=cec3f715-614f-4bf0-96bd-7080ba74ba99"},"vehicle_type_id":"4","last_reported":1747516100,"current_range_meters":10800,"station_id":"ce4bgt92rcd13ifvqcg0","pricing_plan_id":"cebpf4jnsgd1na2vs0mg"},{"bike_id":"fbb9dc35-fa9d-42e4-9fd8-bc3154190a90","system_id":"levelo_inurba_marseille","lat":43.30919,"lon":5.40143,"is_reserved":false,"is_disabled":false,"rental_uris":{"android":"levelo://app?vid=fbb9dc35-fa9d-42e4-9fd8-bc3154190a90","ios":"levelo://app?vid=fbb9dc35-fa9d-42e4-9fd8-bc3154190a90"},"vehicle_type_id":"4","last_reported":1747516100,"current_range_meters":10800,"station_id":"ce4bgvp2rcd13ifvqct0","pricing_plan_id":"cebpf4jnsgd1na2vs0mg"},{"bike_id":"92d18368-89ae-43a3-87e5-a7d967906a6e","system_id":"levelo_inurba_marseille","lat":43.2989,"lon":5.389,"is_reserved":false,"is_disabled":false,"rental_uris":{"android":"levelo://app?vid=92d18368-89ae-43a3-87e5-a7d967906a6e","ios":"levelo://app?vid=92d18368-89ae-43a3-87e5-a7d967906a6e"},"vehicle_type_id":"4","last_reported":1747516100,"current_range_meters":10800,"station_id":"ce4bh392rcd13ifvqdl0","pricing_plan_id":"cebpf4jnsgd1na2vs0mg"},{"bike_id":"b443d218-a375-4f56-9db8-e757e2e7f14f","system_id":"levelo_inurba_marseille","lat":43.29257,"lon":5.38446,"is_reserved":false,"is_disabled":false,"rental_uris":{"android":"levelo://app?vid=b443d218-a375-4f56-9db8-e757e2e7f14f","ios":"levelo://app?vid=b443d218-a375-4f56-9db8-e757e2e7f14f"},"vehicle_type_id":"4","last_reported":1747516100,"current_range_meters":10800,"station_id":"ce4bh692rcd13ifvqea0","pricing_plan_id":"cebpf4jnsgd1na2vs0mg"},{"bike_id":"156e1494-a6cd-49c1-8701-cbfab25a9010","system_id":"levelo_inurba_marseille","lat":43.29963,"lon":5.41315,"is_reserved":false,"is_disabled":false,"rental_uris":{"android":"levelo://app?vid=156e1494-a6cd-49c1-8701-cbfab25a9010","ios":"levelo://app?vid=156e1494-a6cd-49c1-8701-cbfab25a9010"},"vehicle_type_id":"4","last_reported":1747516100,"current_range_meters":10800,"station_id":"ce4bhp12rcd13ifvqh9g","pricing_plan_id":"cebpf4jnsgd1na2vs0mg"},{"bike_id":"2013cd87-0d43-443c-a50a-2ae65b408add","system_id":"levelo_inurba_marseille","lat":43.32375,"lon":5.3886,"is_reserved":false,"is_disabled":false,"rental_uris":{"android":"levelo://app?vid=2013cd87-0d43-443c-a50a-2ae65b408add","ios":"levelo://app?vid=2013cd87-0d43-443c-a50a-2ae65b408add"},"vehicle_type_id":"4","last_reported":1747516100,"current_range_meters":10800,"station_id":"ce4bhqp2rcd13ifvqhog","pricing_plan_id":"cebpf4jnsgd1na2vs0mg"},{"bike_id":"6e1bd625-3ec1-43df-9657-36d71ae09f8d","system_id":"levelo_inurba_marseille","lat":43.3375,"lon":5.3747,"is_reserved":false,"is_disabled":false,"rental_uris":{"android":"levelo://app?vid=6e1bd625-3ec1-43df-9657-36d71ae09f8d","ios":"levelo://app?vid=6e1bd625-3ec1-43df-9657-36d71ae09f8d"},"vehicle_type_id":"4","last_reported":1747516100,"current_range_meters":11200,"station_id":"","pricing_plan_id":"cebpf4jnsgd1na2vs0mg"},{"bike_id":"7de5a038-d421-4d00-ac4f-e44c8f7ab21f","system_id":"levelo_inurba_marseille","lat":43.31079,"lon":5.38356,"is_reserved":false,"is_disabled":false,"rental_uris":{"android":"levelo://app?vid=7de5a038-d421-4d00-ac4f-e44c8f7ab21f","ios":"levelo://app?vid=7de5a038-d421-4d00-ac4f-e44c8f7ab21f"},"vehicle_type_id":"4","last_reported":1747516100,"current_range_meters":11200,"station_id":"ce4bgv92rcd13ifvqcr0","pricing_plan_id":"cebpf4jnsgd1na2vs0mg"},{"bike_id":"263e113b-6016-4c2e-99e3-07599985b63f","system_id":"levelo_inurba_marseille","lat":43.27917,"lon":5.395773,"is_reserved":false,"is_disabled":false,"rental_uris":{"android":"levelo://app?vid=263e113b-6016-4c2e-99e3-07599985b63f","ios":"levelo://app?vid=263e113b-6016-4c2e-99e3-07599985b63f"},"vehicle_type_id":"4","last_reported":1747516100,"current_range_meters":11200,"station_id":"ce4bhf92rcd13ifvqf40","pricing_plan_id":"cebpf4jnsgd1na2vs0mg"},{"bike_id":"8a783ed4-c3a1-408f-b059-3a42dbad5c1e","system_id":"levelo_inurba_marseille","lat":43.25494,"lon":5.37649,"is_reserved":false,"is_disabled":false,"rental_uris":{"android":"levelo://app?vid=8a783ed4-c3a1-408f-b059-3a42dbad5c1e","ios":"levelo://app?vid=8a783ed4-c3a1-408f-b059-3a42dbad5c1e"},"vehicle_type_id":"4","last_reported":1747516100,"current_range_meters":11200,"station_id":"ce4bhh12rcd13ifvqff0","pricing_plan_id":"cebpf4jnsgd1na2vs0mg"},{"bike_id":"792c9dbd-158e-4661-91d4-2c1ed379e655","system_id":"levelo_inurba_marseille","lat":43.24653,"lon":5.38167,"is_reserved":false,"is_disabled":false,"rental_uris":{"android":"levelo://app?vid=792c9dbd-158e-4661-91d4-2c1ed379e655","ios":"levelo://app?vid=792c9dbd-158e-4661-91d4-2c1ed379e655"},"vehicle_type_id":"4","last_reported":1747516100,"current_range_meters":11200,"station_id":"ce4bhih2rcd13ifvqfr0","pricing_plan_id":"cebpf4jnsgd1na2vs0mg"},{"bike_id":"3980d76b-e904-45ba-9bbd-4ee10919b44c","system_id":"levelo_inurba_marseille","lat":43.31063,"lon":5.38175,"is_reserved":false,"is_disabled":false,"rental_uris":{"android":"levelo://app?vid=3980d76b-e904-45ba-9bbd-4ee10919b44c","ios":"levelo://app?vid=3980d76b-e904-45ba-9bbd-4ee10919b44c"},"vehicle_type_id":"4","last_reported":1747516100,"current_range_meters":11600,"station_id":"","pricing_plan_id":"cebpf4jnsgd1na2vs0mg"},{"bike_id":"14603e41-b2dd-4757-a53c-2e366aa4f983","system_id":"levelo_inurba_marseille","lat":43.26982,"lon":5.42823,"is_reserved":false,"is_disabled":false,"rental_uris":{"android":"levelo://app?vid=14603e41-b2dd-4757-a53c-2e366aa4f983","ios":"levelo://app?vid=14603e41-b2dd-4757-a53c-2e366aa4f983"},"vehicle_type_id":"4","last_reported":1747516100,"current_range_meters":11600,"station_id":"","pricing_plan_id":"cebpf4jnsgd1na2vs0mg"},{"bike_id":"28cb6e9a-350f-4cbb-bcd9-68e9a528e185","system_id":"levelo_inurba_marseille","lat":43.3054,"lon":5.38414,"is_reserved":false,"is_disabled":false,"rental_uris":{"android":"levelo://app?vid=28cb6e9a-350f-4cbb-bcd9-68e9a528e185","ios":"levelo://app?vid=28cb6e9a-350f-4cbb-bcd9-68e9a528e185"},"vehicle_type_id":"4","last_reported":1747516100,"current_range_meters":11600,"station_id":"ce4bgg92rcd13ifvqb30","pricing_plan_id":"cebpf4jnsgd1na2vs0mg"},{"bike_id":"4a86f4fc-3711-4a60-b7dd-21c6880091fe","system_id":"levelo_inurba_marseille","lat":43.27695,"lon":5.38909,"is_reserved":false,"is_disabled":false,"rental_uris":{"android":"levelo://app?vid=4a86f4fc-3711-4a60-b7dd-21c6880091fe","ios":"levelo://app?vid=4a86f4fc-3711-4a60-b7dd-21c6880091fe"},"vehicle_type_id":"4","last_reported":1747516100,"current_range_meters":11600,"station_id":"ce4bhi12rcd13ifvqfo0","pricing_plan_id":"cebpf4jnsgd1na2vs0mg"},{"bike_id":"568c285b-7bb4-44cf-b478-ca49daab28c4","system_id":"levelo_inurba_marseille","lat":43.337444,"lon":5.374475,"is_reserved":false,"is_disabled":false,"rental_uris":{"android":"levelo://app?vid=568c285b-7bb4-44cf-b478-ca49daab28c4","ios":"levelo://app?vid=568c285b-7bb4-44cf-b478-ca49daab28c4"},"vehicle_type_id":"4","last_reported":1747516100,"current_range_meters":12000,"station_id":"","pricing_plan_id":"cebpf4jnsgd1na2vs0mg"},{"bike_id":"0f42c805-92e1-4274-b532-29e3edd02304","system_id":"levelo_inurba_marseille","lat":43.2925,"lon":5.40133,"is_reserved":false,"is_disabled":false,"rental_uris":{"android":"levelo://app?vid=0f42c805-92e1-4274-b532-29e3edd02304","ios":"levelo://app?vid=0f42c805-92e1-4274-b532-29e3edd02304"},"vehicle_type_id":"4","last_reported":1747516100,"current_range_meters":12000,"station_id":"ce4bh312rcd13ifvqdk0","pricing_plan_id":"cebpf4jnsgd1na2vs0mg"},{"bike_id":"713ee3bf-aa75-4a9f-b4ee-641086f720e6","system_id":"levelo_inurba_marseille","lat":43.2944,"lon":5.39753,"is_reserved":false,"is_disabled":false,"rental_uris":{"android":"levelo://app?vid=713ee3bf-aa75-4a9f-b4ee-641086f720e6","ios":"levelo://app?vid=713ee3bf-aa75-4a9f-b4ee-641086f720e6"},"vehicle_type_id":"4","last_reported":1747516100,"current_range_meters":12000,"station_id":"ce4bh3h2rcd13ifvqdo0","pricing_plan_id":"cebpf4jnsgd1na2vs0mg"},{"bike_id":"8e537c52-f2c0-45f9-a566-f85e07145cb5","system_id":"levelo_inurba_marseille","lat":43.26033,"lon":5.37545,"is_reserved":false,"is_disabled":false,"rental_uris":{"android":"levelo://app?vid=8e537c52-f2c0-45f9-a566-f85e07145cb5","ios":"levelo://app?vid=8e537c52-f2c0-45f9-a566-f85e07145cb5"},"vehicle_type_id":"4","last_reported":1747516100,"current_range_meters":12000,"station_id":"ce4bhgh2rcd13ifvqfa0","pricing_plan_id":"cebpf4jnsgd1na2vs0mg"},{"bike_id":"19b50b44-0209-4ccf-866f-dd25298070ba","system_id":"levelo_inurba_marseille","lat":43.25871,"lon":5.39926,"is_reserved":false,"is_disabled":false,"rental_uris":{"android":"levelo://app?vid=19b50b44-0209-4ccf-866f-dd25298070ba","ios":"levelo://app?vid=19b50b44-0209-4ccf-866f-dd25298070ba"},"vehicle_type_id":"4","last_reported":1747516100,"current_range_meters":12000,"station_id":"ce4bhl92rcd13ifvqghg","pricing_plan_id":"cebpf4jnsgd1na2vs0mg"},{"bike_id":"6d5ba0c6-9bcc-46a1-9a3e-ef5dd87f95db","system_id":"levelo_inurba_marseille","lat":43.2957,"lon":5.42254,"is_reserved":false,"is_disabled":false,"rental_uris":{"android":"levelo://app?vid=6d5ba0c6-9bcc-46a1-9a3e-ef5dd87f95db","ios":"levelo://app?vid=6d5ba0c6-9bcc-46a1-9a3e-ef5dd87f95db"},"vehicle_type_id":"4","last_reported":1747516100,"current_range_meters":12000,"station_id":"ce4bhph2rcd13ifvqhdg","pricing_plan_id":"cebpf4jnsgd1na2vs0mg"},{"bike_id":"a7859b2f-e38e-451f-916a-2c10fa0fa7ec","system_id":"levelo_inurba_marseille","lat":43.29031,"lon":5.38148,"is_reserved":false,"is_disabled":false,"rental_uris":{"android":"levelo://app?vid=a7859b2f-e38e-451f-916a-2c10fa0fa7ec","ios":"levelo://app?vid=a7859b2f-e38e-451f-916a-2c10fa0fa7ec"},"vehicle_type_id":"4","last_reported":1747516100,"current_range_meters":12400,"station_id":"ce4bh4p2rcd13ifvqe1g","pricing_plan_id":"cebpf4jnsgd1na2vs0mg"},{"bike_id":"3f2493b1-ebc1-44d1-8191-db748279be54","system_id":"levelo_inurba_marseille","lat":43.29265,"lon":5.38436,"is_reserved":false,"is_disabled":false,"rental_uris":{"android":"levelo://app?vid=3f2493b1-ebc1-44d1-8191-db748279be54","ios":"levelo://app?vid=3f2493b1-ebc1-44d1-8191-db748279be54"},"vehicle_type_id":"4","last_reported":1747516100,"current_range_meters":12400,"station_id":"ce4bh692rcd13ifvqea0","pricing_plan_id":"cebpf4jnsgd1na2vs0mg"},{"bike_id":"29aa72c6-f162-4bc6-9a3f-bcaa869077c9","system_id":"levelo_inurba_marseille","lat":43.26056,"lon":5.39398,"is_reserved":false,"is_disabled":false,"rental_uris":{"android":"levelo://app?vid=29aa72c6-f162-4bc6-9a3f-bcaa869077c9","ios":"levelo://app?vid=29aa72c6-f162-4bc6-9a3f-bcaa869077c9"},"vehicle_type_id":"4","last_reported":1747516100,"current_range_meters":12400,"station_id":"ce4bhh92rcd13ifvqfj0","pricing_plan_id":"cebpf4jnsgd1na2vs0mg"},{"bike_id":"ab6ad873-88a9-439c-9d29-fb8d2340bca0","system_id":"levelo_inurba_marseille","lat":43.27176,"lon":5.40996,"is_reserved":false,"is_disabled":false,"rental_uris":{"android":"levelo://app?vid=ab6ad873-88a9-439c-9d29-fb8d2340bca0","ios":"levelo://app?vid=ab6ad873-88a9-439c-9d29-fb8d2340bca0"},"vehicle_type_id":"4","last_reported":1747516100,"current_range_meters":12400,"station_id":"ce4bhl12rcd13ifvqgf0","pricing_plan_id":"cebpf4jnsgd1na2vs0mg"},{"bike_id":"e53ed2f4-bd74-44ba-bb7d-fbdf8d7e98c4","system_id":"levelo_inurba_marseille","lat":43.28352,"lon":5.38104,"is_reserved":false,"is_disabled":false,"rental_uris":{"android":"levelo://app?vid=e53ed2f4-bd74-44ba-bb7d-fbdf8d7e98c4","ios":"levelo://app?vid=e53ed2f4-bd74-44ba-bb7d-fbdf8d7e98c4"},"vehicle_type_id":"4","last_reported":1747516100,"current_range_meters":12800,"station_id":"ce4bh412rcd13ifvqdr0","pricing_plan_id":"cebpf4jnsgd1na2vs0mg"},{"bike_id":"c608898e-58b6-42f7-903a-6008119c7a64","system_id":"levelo_inurba_marseille","lat":43.24072,"lon":5.37759,"is_reserved":false,"is_disabled":false,"rental_uris":{"android":"levelo://app?vid=c608898e-58b6-42f7-903a-6008119c7a64","ios":"levelo://app?vid=c608898e-58b6-42f7-903a-6008119c7a64"},"vehicle_type_id":"4","last_reported":1747516100,"current_range_meters":12800,"station_id":"ce4bhnp2rcd13ifvqgvg","pricing_plan_id":"cebpf4jnsgd1na2vs0mg"},{"bike_id":"68552e02-e8c8-4064-9632-7772370886f0","system_id":"levelo_inurba_marseille","lat":43.31676,"lon":5.37334,"is_reserved":false,"is_disabled":false,"rental_uris":{"android":"levelo://app?vid=68552e02-e8c8-4064-9632-7772370886f0","ios":"levelo://app?vid=68552e02-e8c8-4064-9632-7772370886f0"},"vehicle_type_id":"4","last_reported":1747516100,"current_range_meters":13600,"station_id":"","pricing_plan_id":"cebpf4jnsgd1na2vs0mg"},{"bike_id":"698b6da3-f791-464e-bd42-2877a2a3c7c7","system_id":"levelo_inurba_marseille","lat":43.29518,"lon":5.37517,"is_reserved":false,"is_disabled":false,"rental_uris":{"android":"levelo://app?vid=698b6da3-f791-464e-bd42-2877a2a3c7c7","ios":"levelo://app?vid=698b6da3-f791-464e-bd42-2877a2a3c7c7"},"vehicle_type_id":"4","last_reported":1747516100,"current_range_meters":13600,"station_id":"ce4bgkp2rcd13ifvqbmg","pricing_plan_id":"cebpf4jnsgd1na2vs0mg"},{"bike_id":"c5ddb572-22d8-4ba5-8736-5dc6eed67101","system_id":"levelo_inurba_marseille","lat":43.30315,"lon":5.36903,"is_reserved":false,"is_disabled":false,"rental_uris":{"android":"levelo://app?vid=c5ddb572-22d8-4ba5-8736-5dc6eed67101","ios":"levelo://app?vid=c5ddb572-22d8-4ba5-8736-5dc6eed67101"},"vehicle_type_id":"4","last_reported":1747516100,"current_range_meters":13600,"station_id":"ce4bgqh2rcd13ifvqc5g","pricing_plan_id":"cebpf4jnsgd1na2vs0mg"},{"bike_id":"1b35896f-3b70-409d-9af6-6b64c212bebd","system_id":"levelo_inurba_marseille","lat":43.305471,"lon":5.365527,"is_reserved":false,"is_disabled":false,"rental_uris":{"android":"levelo://app?vid=1b35896f-3b70-409d-9af6-6b64c212bebd","ios":"levelo://app?vid=1b35896f-3b70-409d-9af6-6b64c212bebd"},"vehicle_type_id":"4","last_reported":1747516100,"current_range_meters":13600,"station_id":"ce4bgs12rcd13ifvqcag","pricing_plan_id":"cebpf4jnsgd1na2vs0mg"},{"bike_id":"eb652563-8d1c-48e1-8cd3-64c94674cb96","system_id":"levelo_inurba_marseille","lat":43.31324,"lon":5.39693,"is_reserved":false,"is_disabled":false,"rental_uris":{"android":"levelo://app?vid=eb652563-8d1c-48e1-8cd3-64c94674cb96","ios":"levelo://app?vid=eb652563-8d1c-48e1-8cd3-64c94674cb96"},"vehicle_type_id":"4","last_reported":1747516100,"current_range_meters":13600,"station_id":"ce4bgvp2rcd13ifvqcu0","pricing_plan_id":"cebpf4jnsgd1na2vs0mg"},{"bike_id":"3a3094cc-2193-4eb7-ac3b-62de3c27af13","system_id":"levelo_inurba_marseille","lat":43.29261,"lon":5.40904,"is_reserved":false,"is_disabled":false,"rental_uris":{"android":"levelo://app?vid=3a3094cc-2193-4eb7-ac3b-62de3c27af13","ios":"levelo://app?vid=3a3094cc-2193-4eb7-ac3b-62de3c27af13"},"vehicle_type_id":"4","last_reported":1747516100,"current_range_meters":13600,"station_id":"ce4bh192rcd13ifvqdc0","pricing_plan_id":"cebpf4jnsgd1na2vs0mg"},{"bike_id":"be3d292a-7dfb-407b-9f3e-273ddc4c0eae","system_id":"levelo_inurba_marseille","lat":43.248097,"lon":5.374571,"is_reserved":false,"is_disabled":false,"rental_uris":{"android":"levelo://app?vid=be3d292a-7dfb-407b-9f3e-273ddc4c0eae","ios":"levelo://app?vid=be3d292a-7dfb-407b-9f3e-273ddc4c0eae"},"vehicle_type_id":"4","last_reported":1747516100,"current_range_meters":13600,"station_id":"ce4bhgh2rcd13ifvqfb0","pricing_plan_id":"cebpf4jnsgd1na2vs0mg"},{"bike_id":"8d3ba799-4866-4e13-8f0a-753a801550a2","system_id":"levelo_inurba_marseille","lat":43.27334,"lon":5.39105,"is_reserved":false,"is_disabled":false,"rental_uris":{"android":"levelo://app?vid=8d3ba799-4866-4e13-8f0a-753a801550a2","ios":"levelo://app?vid=8d3ba799-4866-4e13-8f0a-753a801550a2"},"vehicle_type_id":"4","last_reported":1747516100,"current_range_meters":13600,"station_id":"ce4bhgp2rcd13ifvqfe0","pricing_plan_id":"cebpf4jnsgd1na2vs0mg"},{"bike_id":"c90dd575-5445-4bc6-a14b-63ac755e403d","system_id":"levelo_inurba_marseille","lat":43.29946,"lon":5.36581,"is_reserved":false,"is_disabled":false,"rental_uris":{"android":"levelo://app?vid=c90dd575-5445-4bc6-a14b-63ac755e403d","ios":"levelo://app?vid=c90dd575-5445-4bc6-a14b-63ac755e403d"},"vehicle_type_id":"4","last_reported":1747516100,"current_range_meters":14000,"station_id":"ce4bgm92rcd13ifvqbr0","pricing_plan_id":"cebpf4jnsgd1na2vs0mg"},{"bike_id":"f1881f4f-ab7f-4b0b-8ca0-8a2a9d7462d7","system_id":"levelo_inurba_marseille","lat":43.29948,"lon":5.36534,"is_reserved":false,"is_disabled":false,"rental_uris":{"android":"levelo://app?vid=f1881f4f-ab7f-4b0b-8ca0-8a2a9d7462d7","ios":"levelo://app?vid=f1881f4f-ab7f-4b0b-8ca0-8a2a9d7462d7"},"vehicle_type_id":"4","last_reported":1747516100,"current_range_meters":14000,"station_id":"ce4bgm92rcd13ifvqbr0","pricing_plan_id":"cebpf4jnsgd1na2vs0mg"},{"bike_id":"45c27b0a-68f7-4a24-bcb9-b142af76fc25","system_id":"levelo_inurba_marseille","lat":43.29711,"lon":5.36615,"is_reserved":false,"is_disabled":false,"rental_uris":{"android":"levelo://app?vid=45c27b0a-68f7-4a24-bcb9-b142af76fc25","ios":"levelo://app?vid=45c27b0a-68f7-4a24-bcb9-b142af76fc25"},"vehicle_type_id":"4","last_reported":1747516100,"current_range_meters":14000,"station_id":"ce4bgn12rcd13ifvqbt0","pricing_plan_id":"cebpf4jnsgd1na2vs0mg"},{"bike_id":"8e525222-591d-4ada-9599-c7ddb875b96a","system_id":"levelo_inurba_marseille","lat":43.28356,"lon":5.38096,"is_reserved":false,"is_disabled":false,"rental_uris":{"android":"levelo://app?vid=8e525222-591d-4ada-9599-c7ddb875b96a","ios":"levelo://app?vid=8e525222-591d-4ada-9599-c7ddb875b96a"},"vehicle_type_id":"4","last_reported":1747516100,"current_range_meters":14000,"station_id":"ce4bh412rcd13ifvqdr0","pricing_plan_id":"cebpf4jnsgd1na2vs0mg"},{"bike_id":"caf4c81d-8b81-4d8d-a4f9-9d00bac7ad70","system_id":"levelo_inurba_marseille","lat":43.30784,"lon":5.4281,"is_reserved":false,"is_disabled":false,"rental_uris":{"android":"levelo://app?vid=caf4c81d-8b81-4d8d-a4f9-9d00bac7ad70","ios":"levelo://app?vid=caf4c81d-8b81-4d8d-a4f9-9d00bac7ad70"},"vehicle_type_id":"4","last_reported":1747516100,"current_range_meters":14400,"station_id":"","pricing_plan_id":"cebpf4jnsgd1na2vs0mg"},{"bike_id":"2efcc48d-0767-4d21-826d-c6f250fd7e94","system_id":"levelo_inurba_marseille","lat":43.29196,"lon":5.39309,"is_reserved":false,"is_disabled":false,"rental_uris":{"android":"levelo://app?vid=2efcc48d-0767-4d21-826d-c6f250fd7e94","ios":"levelo://app?vid=2efcc48d-0767-4d21-826d-c6f250fd7e94"},"vehicle_type_id":"4","last_reported":1747516100,"current_range_meters":14400,"station_id":"ce4bh192rcd13ifvqdd0","pricing_plan_id":"cebpf4jnsgd1na2vs0mg"},{"bike_id":"ded177be-a4f3-496d-9d9c-1530b8470b93","system_id":"levelo_inurba_marseille","lat":43.24073,"lon":5.37749,"is_reserved":false,"is_disabled":false,"rental_uris":{"android":"levelo://app?vid=ded177be-a4f3-496d-9d9c-1530b8470b93","ios":"levelo://app?vid=ded177be-a4f3-496d-9d9c-1530b8470b93"},"vehicle_type_id":"4","last_reported":1747516100,"current_range_meters":14400,"station_id":"ce4bhnp2rcd13ifvqgvg","pricing_plan_id":"cebpf4jnsgd1na2vs0mg"},{"bike_id":"79a9eb8a-df7d-4e20-8814-470538a6d06b","system_id":"levelo_inurba_marseille","lat":43.24076,"lon":5.3773,"is_reserved":false,"is_disabled":false,"rental_uris":{"android":"levelo://app?vid=79a9eb8a-df7d-4e20-8814-470538a6d06b","ios":"levelo://app?vid=79a9eb8a-df7d-4e20-8814-470538a6d06b"},"vehicle_type_id":"4","last_reported":1747516100,"current_range_meters":14400,"station_id":"ce4bhnp2rcd13ifvqgvg","pricing_plan_id":"cebpf4jnsgd1na2vs0mg"},{"bike_id":"2982f8f9-3e19-49ea-9a85-599b036f532b","system_id":"levelo_inurba_marseille","lat":43.29968,"lon":5.38493,"is_reserved":false,"is_disabled":false,"rental_uris":{"android":"levelo://app?vid=2982f8f9-3e19-49ea-9a85-599b036f532b","ios":"levelo://app?vid=2982f8f9-3e19-49ea-9a85-599b036f532b"},"vehicle_type_id":"4","last_reported":1747516100,"current_range_meters":14800,"station_id":"ce4bgj92rcd13ifvqbd0","pricing_plan_id":"cebpf4jnsgd1na2vs0mg"},{"bike_id":"9e1a5fd5-2836-4dd0-918f-7584c78cf495","system_id":"levelo_inurba_marseille","lat":43.29886,"lon":5.3628,"is_reserved":false,"is_disabled":false,"rental_uris":{"android":"levelo://app?vid=9e1a5fd5-2836-4dd0-918f-7584c78cf495","ios":"levelo://app?vid=9e1a5fd5-2836-4dd0-918f-7584c78cf495"},"vehicle_type_id":"4","last_reported":1747516100,"current_range_meters":14800,"station_id":"ce4bgpp2rcd13ifvqc3g","pricing_plan_id":"cebpf4jnsgd1na2vs0mg"},{"bike_id":"9e278352-dea4-4b35-96e3-a4d9dbca1114","system_id":"levelo_inurba_marseille","lat":43.31069,"lon":5.38351,"is_reserved":false,"is_disabled":false,"rental_uris":{"android":"levelo://app?vid=9e278352-dea4-4b35-96e3-a4d9dbca1114","ios":"levelo://app?vid=9e278352-dea4-4b35-96e3-a4d9dbca1114"},"vehicle_type_id":"4","last_reported":1747516100,"current_range_meters":14800,"station_id":"ce4bgv92rcd13ifvqcr0","pricing_plan_id":"cebpf4jnsgd1na2vs0mg"},{"bike_id":"0df27879-b9ab-4c1d-86ff-031abc232570","system_id":"levelo_inurba_marseille","lat":43.28695,"lon":5.37398,"is_reserved":false,"is_disabled":false,"rental_uris":{"android":"levelo://app?vid=0df27879-b9ab-4c1d-86ff-031abc232570","ios":"levelo://app?vid=0df27879-b9ab-4c1d-86ff-031abc232570"},"vehicle_type_id":"4","last_reported":1747516100,"current_range_meters":14800,"station_id":"ce4bh3p2rcd13ifvqdq0","pricing_plan_id":"cebpf4jnsgd1na2vs0mg"},{"bike_id":"06ce6dc4-ef33-4c7e-8fe4-965d98e984fb","system_id":"levelo_inurba_marseille","lat":43.28354,"lon":5.38101,"is_reserved":false,"is_disabled":false,"rental_uris":{"android":"levelo://app?vid=06ce6dc4-ef33-4c7e-8fe4-965d98e984fb","ios":"levelo://app?vid=06ce6dc4-ef33-4c7e-8fe4-965d98e984fb"},"vehicle_type_id":"4","last_reported":1747516100,"current_range_meters":14800,"station_id":"ce4bh412rcd13ifvqdr0","pricing_plan_id":"cebpf4jnsgd1na2vs0mg"},{"bike_id":"e00a00f0-0adb-467e-80eb-b4195bbd96b5","system_id":"levelo_inurba_marseille","lat":43.26942,"lon":5.402558,"is_reserved":false,"is_disabled":false,"rental_uris":{"android":"levelo://app?vid=e00a00f0-0adb-467e-80eb-b4195bbd96b5","ios":"levelo://app?vid=e00a00f0-0adb-467e-80eb-b4195bbd96b5"},"vehicle_type_id":"4","last_reported":1747516100,"current_range_meters":14800,"station_id":"cjm6bp8fraef2m0cb0m0","pricing_plan_id":"cebpf4jnsgd1na2vs0mg"},{"bike_id":"6fcf7786-604b-45e4-ad5a-9622ad3ce05f","system_id":"levelo_inurba_marseille","lat":43.29198,"lon":5.39327,"is_reserved":false,"is_disabled":false,"rental_uris":{"android":"levelo://app?vid=6fcf7786-604b-45e4-ad5a-9622ad3ce05f","ios":"levelo://app?vid=6fcf7786-604b-45e4-ad5a-9622ad3ce05f"},"vehicle_type_id":"4","last_reported":1747516100,"current_range_meters":15200,"station_id":"ce4bh192rcd13ifvqdd0","pricing_plan_id":"cebpf4jnsgd1na2vs0mg"},{"bike_id":"84774866-5b58-403f-a46d-cc2704d65810","system_id":"levelo_inurba_marseille","lat":43.26033,"lon":5.37547,"is_reserved":false,"is_disabled":false,"rental_uris":{"android":"levelo://app?vid=84774866-5b58-403f-a46d-cc2704d65810","ios":"levelo://app?vid=84774866-5b58-403f-a46d-cc2704d65810"},"vehicle_type_id":"4","last_reported":1747516100,"current_range_meters":15200,"station_id":"ce4bhgh2rcd13ifvqfa0","pricing_plan_id":"cebpf4jnsgd1na2vs0mg"},{"bike_id":"073b04fc-81d8-4d02-9068-9f3e68c33eb2","system_id":"levelo_inurba_marseille","lat":43.25825,"lon":5.39425,"is_reserved":false,"is_disabled":false,"rental_uris":{"android":"levelo://app?vid=073b04fc-81d8-4d02-9068-9f3e68c33eb2","ios":"levelo://app?vid=073b04fc-81d8-4d02-9068-9f3e68c33eb2"},"vehicle_type_id":"4","last_reported":1747516100,"current_range_meters":15200,"station_id":"ce4bhip2rcd13ifvqft0","pricing_plan_id":"cebpf4jnsgd1na2vs0mg"},{"bike_id":"f45ae3b4-a896-4cd7-b392-fcf09165ae94","system_id":"levelo_inurba_marseille","lat":43.25087,"lon":5.39526,"is_reserved":false,"is_disabled":false,"rental_uris":{"android":"levelo://app?vid=f45ae3b4-a896-4cd7-b392-fcf09165ae94","ios":"levelo://app?vid=f45ae3b4-a896-4cd7-b392-fcf09165ae94"},"vehicle_type_id":"4","last_reported":1747516100,"current_range_meters":15200,"station_id":"ce4bhm12rcd13ifvqgkg","pricing_plan_id":"cebpf4jnsgd1na2vs0mg"},{"bike_id":"37945036-6906-4d13-a968-d85472d6a9f3","system_id":"levelo_inurba_marseille","lat":43.2956,"lon":5.42292,"is_reserved":false,"is_disabled":false,"rental_uris":{"android":"levelo://app?vid=37945036-6906-4d13-a968-d85472d6a9f3","ios":"levelo://app?vid=37945036-6906-4d13-a968-d85472d6a9f3"},"vehicle_type_id":"4","last_reported":1747516100,"current_range_meters":15200,"station_id":"ce4bhph2rcd13ifvqhdg","pricing_plan_id":"cebpf4jnsgd1na2vs0mg"},{"bike_id":"b26a0dd7-cbdc-4ab7-8def-31c4b88b224a","system_id":"levelo_inurba_marseille","lat":43.31222,"lon":5.392513,"is_reserved":false,"is_disabled":false,"rental_uris":{"android":"levelo://app?vid=b26a0dd7-cbdc-4ab7-8def-31c4b88b224a","ios":"levelo://app?vid=b26a0dd7-cbdc-4ab7-8def-31c4b88b224a"},"vehicle_type_id":"4","last_reported":1747516100,"current_range_meters":16000,"station_id":"","pricing_plan_id":"cebpf4jnsgd1na2vs0mg"},{"bike_id":"8a67ee22-e899-46db-bf38-31fcb7e4849f","system_id":"levelo_inurba_marseille","lat":43.2961,"lon":5.37732,"is_reserved":false,"is_disabled":false,"rental_uris":{"android":"levelo://app?vid=8a67ee22-e899-46db-bf38-31fcb7e4849f","ios":"levelo://app?vid=8a67ee22-e899-46db-bf38-31fcb7e4849f"},"vehicle_type_id":"4","last_reported":1747516100,"current_range_meters":16000,"station_id":"","pricing_plan_id":"cebpf4jnsgd1na2vs0mg"},{"bike_id":"d796888f-19f7-44cb-b77a-5927886255b3","system_id":"levelo_inurba_marseille","lat":43.29715,"lon":5.37136,"is_reserved":false,"is_disabled":false,"rental_uris":{"android":"levelo://app?vid=d796888f-19f7-44cb-b77a-5927886255b3","ios":"levelo://app?vid=d796888f-19f7-44cb-b77a-5927886255b3"},"vehicle_type_id":"4","last_reported":1747516100,"current_range_meters":16000,"station_id":"","pricing_plan_id":"cebpf4jnsgd1na2vs0mg"},{"bike_id":"f19468d0-fe69-4651-9dcc-73fcb6e09c42","system_id":"levelo_inurba_marseille","lat":43.27619,"lon":5.3611,"is_reserved":false,"is_disabled":false,"rental_uris":{"android":"levelo://app?vid=f19468d0-fe69-4651-9dcc-73fcb6e09c42","ios":"levelo://app?vid=f19468d0-fe69-4651-9dcc-73fcb6e09c42"},"vehicle_type_id":"4","last_reported":1747516100,"current_range_meters":16000,"station_id":"ce4bgj92rcd13ifvqbe0","pricing_plan_id":"cebpf4jnsgd1na2vs0mg"},{"bike_id":"76871383-10fa-4962-88ed-84808bf1cde0","system_id":"levelo_inurba_marseille","lat":43.30432,"lon":5.38881,"is_reserved":false,"is_disabled":false,"rental_uris":{"android":"levelo://app?vid=76871383-10fa-4962-88ed-84808bf1cde0","ios":"levelo://app?vid=76871383-10fa-4962-88ed-84808bf1cde0"},"vehicle_type_id":"4","last_reported":1747516100,"current_range_meters":16000,"station_id":"ce4bgk12rcd13ifvqbi0","pricing_plan_id":"cebpf4jnsgd1na2vs0mg"},{"bike_id":"04269c60-bfe4-40eb-b665-65024ed20f2e","system_id":"levelo_inurba_marseille","lat":43.29251,"lon":5.40911,"is_reserved":false,"is_disabled":false,"rental_uris":{"android":"levelo://app?vid=04269c60-bfe4-40eb-b665-65024ed20f2e","ios":"levelo://app?vid=04269c60-bfe4-40eb-b665-65024ed20f2e"},"vehicle_type_id":"4","last_reported":1747516100,"current_range_meters":16000,"station_id":"ce4bh192rcd13ifvqdc0","pricing_plan_id":"cebpf4jnsgd1na2vs0mg"},{"bike_id":"a69b4031-fd7e-4c8b-b58d-05893b7af308","system_id":"levelo_inurba_marseille","lat":43.2921,"lon":5.39327,"is_reserved":false,"is_disabled":false,"rental_uris":{"android":"levelo://app?vid=a69b4031-fd7e-4c8b-b58d-05893b7af308","ios":"levelo://app?vid=a69b4031-fd7e-4c8b-b58d-05893b7af308"},"vehicle_type_id":"4","last_reported":1747516100,"current_range_meters":16000,"station_id":"ce4bh192rcd13ifvqdd0","pricing_plan_id":"cebpf4jnsgd1na2vs0mg"},{"bike_id":"f821f506-65b2-46f8-a79c-bc3d1f7410d4","system_id":"levelo_inurba_marseille","lat":43.273116,"lon":5.390772,"is_reserved":false,"is_disabled":false,"rental_uris":{"android":"levelo://app?vid=f821f506-65b2-46f8-a79c-bc3d1f7410d4","ios":"levelo://app?vid=f821f506-65b2-46f8-a79c-bc3d1f7410d4"},"vehicle_type_id":"4","last_reported":1747516100,"current_range_meters":16000,"station_id":"ce4bhgp2rcd13ifvqfe0","pricing_plan_id":"cebpf4jnsgd1na2vs0mg"},{"bike_id":"55982159-14b0-423d-a8c0-c157cf2770cd","system_id":"levelo_inurba_marseille","lat":43.2779,"lon":5.3623,"is_reserved":false,"is_disabled":false,"rental_uris":{"android":"levelo://app?vid=55982159-14b0-423d-a8c0-c157cf2770cd","ios":"levelo://app?vid=55982159-14b0-423d-a8c0-c157cf2770cd"},"vehicle_type_id":"4","last_reported":1747516100,"current_range_meters":16400,"station_id":"","pricing_plan_id":"cebpf4jnsgd1na2vs0mg"},{"bike_id":"ab7916db-a9ad-471d-a8d0-a86bfe6bd38a","system_id":"levelo_inurba_marseille","lat":43.27258,"lon":5.39085,"is_reserved":false,"is_disabled":false,"rental_uris":{"android":"levelo://app?vid=ab7916db-a9ad-471d-a8d0-a86bfe6bd38a","ios":"levelo://app?vid=ab7916db-a9ad-471d-a8d0-a86bfe6bd38a"},"vehicle_type_id":"4","last_reported":1747516100,"current_range_meters":16400,"station_id":"","pricing_plan_id":"cebpf4jnsgd1na2vs0mg"},{"bike_id":"0c159fb1-4611-4289-8bc9-111bb87fd7a0","system_id":"levelo_inurba_marseille","lat":43.2953,"lon":5.38541,"is_reserved":false,"is_disabled":false,"rental_uris":{"android":"levelo://app?vid=0c159fb1-4611-4289-8bc9-111bb87fd7a0","ios":"levelo://app?vid=0c159fb1-4611-4289-8bc9-111bb87fd7a0"},"vehicle_type_id":"4","last_reported":1747516100,"current_range_meters":16400,"station_id":"ce4bgih2rcd13ifvqba0","pricing_plan_id":"cebpf4jnsgd1na2vs0mg"},{"bike_id":"2168b8e4-08cf-4a57-bc27-b3754735edd5","system_id":"levelo_inurba_marseille","lat":43.31243,"lon":5.36854,"is_reserved":false,"is_disabled":false,"rental_uris":{"android":"levelo://app?vid=2168b8e4-08cf-4a57-bc27-b3754735edd5","ios":"levelo://app?vid=2168b8e4-08cf-4a57-bc27-b3754735edd5"},"vehicle_type_id":"4","last_reported":1747516100,"current_range_meters":16400,"station_id":"ce4bgl92rcd13ifvqbq0","pricing_plan_id":"cebpf4jnsgd1na2vs0mg"},{"bike_id":"50c9adbe-bbd3-462b-8f15-3b59fdc53268","system_id":"levelo_inurba_marseille","lat":43.27954,"lon":5.38685,"is_reserved":false,"is_disabled":false,"rental_uris":{"android":"levelo://app?vid=50c9adbe-bbd3-462b-8f15-3b59fdc53268","ios":"levelo://app?vid=50c9adbe-bbd3-462b-8f15-3b59fdc53268"},"vehicle_type_id":"4","last_reported":1747516100,"current_range_meters":16400,"station_id":"ce4bhg12rcd13ifvqf80","pricing_plan_id":"cebpf4jnsgd1na2vs0mg"},{"bike_id":"9362f1e0-7ac4-4494-8ba4-b77601b663e8","system_id":"levelo_inurba_marseille","lat":43.30524,"lon":5.36717,"is_reserved":false,"is_disabled":false,"rental_uris":{"android":"levelo://app?vid=9362f1e0-7ac4-4494-8ba4-b77601b663e8","ios":"levelo://app?vid=9362f1e0-7ac4-4494-8ba4-b77601b663e8"},"vehicle_type_id":"4","last_reported":1747516100,"current_range_meters":16800,"station_id":"ce4bgrp2rcd13ifvqc9g","pricing_plan_id":"cebpf4jnsgd1na2vs0mg"},{"bike_id":"2195474a-814d-4bec-a1f4-736dbc7774bf","system_id":"levelo_inurba_marseille","lat":43.29165,"lon":5.37172,"is_reserved":false,"is_disabled":false,"rental_uris":{"android":"levelo://app?vid=2195474a-814d-4bec-a1f4-736dbc7774bf","ios":"levelo://app?vid=2195474a-814d-4bec-a1f4-736dbc7774bf"},"vehicle_type_id":"4","last_reported":1747516100,"current_range_meters":16800,"station_id":"ce4bha92rcd13ifvqeh0","pricing_plan_id":"cebpf4jnsgd1na2vs0mg"},{"bike_id":"7d54daff-ed02-44de-931e-3c45734869bc","system_id":"levelo_inurba_marseille","lat":43.27372,"lon":5.36259,"is_reserved":false,"is_disabled":false,"rental_uris":{"android":"levelo://app?vid=7d54daff-ed02-44de-931e-3c45734869bc","ios":"levelo://app?vid=7d54daff-ed02-44de-931e-3c45734869bc"},"vehicle_type_id":"4","last_reported":1747516100,"current_range_meters":16800,"station_id":"ce4bhbh2rcd13ifvqeo0","pricing_plan_id":"cebpf4jnsgd1na2vs0mg"},{"bike_id":"484ee506-cd7e-4048-9611-e01f985d78b6","system_id":"levelo_inurba_marseille","lat":43.24806,"lon":5.37455,"is_reserved":false,"is_disabled":false,"rental_uris":{"android":"levelo://app?vid=484ee506-cd7e-4048-9611-e01f985d78b6","ios":"levelo://app?vid=484ee506-cd7e-4048-9611-e01f985d78b6"},"vehicle_type_id":"4","last_reported":1747516100,"current_range_meters":16800,"station_id":"ce4bhgh2rcd13ifvqfb0","pricing_plan_id":"cebpf4jnsgd1na2vs0mg"},{"bike_id":"06c033d2-3862-4b05-a45e-6ce62efead61","system_id":"levelo_inurba_marseille","lat":43.27809,"lon":5.4071,"is_reserved":false,"is_disabled":false,"rental_uris":{"android":"levelo://app?vid=06c033d2-3862-4b05-a45e-6ce62efead61","ios":"levelo://app?vid=06c033d2-3862-4b05-a45e-6ce62efead61"},"vehicle_type_id":"4","last_reported":1747516100,"current_range_meters":16800,"station_id":"ce4bhnh2rcd13ifvqgtg","pricing_plan_id":"cebpf4jnsgd1na2vs0mg"},{"bike_id":"db647a88-7197-40ac-aeb0-6195ce252bd5","system_id":"levelo_inurba_marseille","lat":43.31083,"lon":5.42431,"is_reserved":false,"is_disabled":false,"rental_uris":{"android":"levelo://app?vid=db647a88-7197-40ac-aeb0-6195ce252bd5","ios":"levelo://app?vid=db647a88-7197-40ac-aeb0-6195ce252bd5"},"vehicle_type_id":"4","last_reported":1747516100,"current_range_meters":16800,"station_id":"ce4bhp92rcd13ifvqhag","pricing_plan_id":"cebpf4jnsgd1na2vs0mg"},{"bike_id":"9571922b-97de-465f-842d-20cc571886e1","system_id":"levelo_inurba_marseille","lat":43.29978,"lon":5.37423,"is_reserved":false,"is_disabled":false,"rental_uris":{"android":"levelo://app?vid=9571922b-97de-465f-842d-20cc571886e1","ios":"levelo://app?vid=9571922b-97de-465f-842d-20cc571886e1"},"vehicle_type_id":"4","last_reported":1747516100,"current_range_meters":17200,"station_id":"","pricing_plan_id":"cebpf4jnsgd1na2vs0mg"},{"bike_id":"d96dc6bd-f013-4f09-a73c-897b2d8c0f21","system_id":"levelo_inurba_marseille","lat":43.31074,"lon":5.38367,"is_reserved":false,"is_disabled":false,"rental_uris":{"android":"levelo://app?vid=d96dc6bd-f013-4f09-a73c-897b2d8c0f21","ios":"levelo://app?vid=d96dc6bd-f013-4f09-a73c-897b2d8c0f21"},"vehicle_type_id":"4","last_reported":1747516100,"current_range_meters":17200,"station_id":"ce4bgv92rcd13ifvqcr0","pricing_plan_id":"cebpf4jnsgd1na2vs0mg"},{"bike_id":"b463707a-b2ea-4171-bf05-9c5498669648","system_id":"levelo_inurba_marseille","lat":43.296344,"lon":5.406077,"is_reserved":false,"is_disabled":false,"rental_uris":{"android":"levelo://app?vid=b463707a-b2ea-4171-bf05-9c5498669648","ios":"levelo://app?vid=b463707a-b2ea-4171-bf05-9c5498669648"},"vehicle_type_id":"4","last_reported":1747516100,"current_range_meters":17200,"station_id":"ce4bh0h2rcd13ifvqd60","pricing_plan_id":"cebpf4jnsgd1na2vs0mg"},{"bike_id":"53938dfc-7ac1-414c-bf24-f731ccf09b34","system_id":"levelo_inurba_marseille","lat":43.29419,"lon":5.38625,"is_reserved":false,"is_disabled":false,"rental_uris":{"android":"levelo://app?vid=53938dfc-7ac1-414c-bf24-f731ccf09b34","ios":"levelo://app?vid=53938dfc-7ac1-414c-bf24-f731ccf09b34"},"vehicle_type_id":"4","last_reported":1747516100,"current_range_meters":17200,"station_id":"ce4bh2h2rcd13ifvqdh0","pricing_plan_id":"cebpf4jnsgd1na2vs0mg"},{"bike_id":"b70526ec-43a3-4b67-9608-c5e3c822eab0","system_id":"levelo_inurba_marseille","lat":43.29427,"lon":5.38603,"is_reserved":false,"is_disabled":false,"rental_uris":{"android":"levelo://app?vid=b70526ec-43a3-4b67-9608-c5e3c822eab0","ios":"levelo://app?vid=b70526ec-43a3-4b67-9608-c5e3c822eab0"},"vehicle_type_id":"4","last_reported":1747516100,"current_range_meters":17200,"station_id":"ce4bh2h2rcd13ifvqdh0","pricing_plan_id":"cebpf4jnsgd1na2vs0mg"},{"bike_id":"82c75689-ac7c-4ced-85f4-24e0d3bec9dd","system_id":"levelo_inurba_marseille","lat":43.23979,"lon":5.36616,"is_reserved":false,"is_disabled":false,"rental_uris":{"android":"levelo://app?vid=82c75689-ac7c-4ced-85f4-24e0d3bec9dd","ios":"levelo://app?vid=82c75689-ac7c-4ced-85f4-24e0d3bec9dd"},"vehicle_type_id":"4","last_reported":1747516100,"current_range_meters":17200,"station_id":"ce4bhi12rcd13ifvqfp0","pricing_plan_id":"cebpf4jnsgd1na2vs0mg"},{"bike_id":"617a8a84-8cf1-4dde-9805-1db23cd27280","system_id":"levelo_inurba_marseille","lat":43.26231,"lon":5.40456,"is_reserved":false,"is_disabled":false,"rental_uris":{"android":"levelo://app?vid=617a8a84-8cf1-4dde-9805-1db23cd27280","ios":"levelo://app?vid=617a8a84-8cf1-4dde-9805-1db23cd27280"},"vehicle_type_id":"4","last_reported":1747516100,"current_range_meters":17200,"station_id":"ce4bhmh2rcd13ifvqgmg","pricing_plan_id":"cebpf4jnsgd1na2vs0mg"},{"bike_id":"13742bd2-0818-475b-86f9-91d8f9461453","system_id":"levelo_inurba_marseille","lat":43.27516,"lon":5.42427,"is_reserved":false,"is_disabled":false,"rental_uris":{"android":"levelo://app?vid=13742bd2-0818-475b-86f9-91d8f9461453","ios":"levelo://app?vid=13742bd2-0818-475b-86f9-91d8f9461453"},"vehicle_type_id":"4","last_reported":1747516100,"current_range_meters":17200,"station_id":"ce4bhn92rcd13ifvqgrg","pricing_plan_id":"cebpf4jnsgd1na2vs0mg"},{"bike_id":"b74f2437-06c0-4464-930c-1f2344a6120c","system_id":"levelo_inurba_marseille","lat":43.22509,"lon":5.34797,"is_reserved":false,"is_disabled":false,"rental_uris":{"android":"levelo://app?vid=b74f2437-06c0-4464-930c-1f2344a6120c","ios":"levelo://app?vid=b74f2437-06c0-4464-930c-1f2344a6120c"},"vehicle_type_id":"4","last_reported":1747516100,"current_range_meters":17200,"station_id":"st_cvj5dfep6f1abm77gieg","pricing_plan_id":"cebpf4jnsgd1na2vs0mg"},{"bike_id":"cfb3f049-f7cb-4ec9-b1a9-0a8a4b33e367","system_id":"levelo_inurba_marseille","lat":43.29534,"lon":5.38547,"is_reserved":false,"is_disabled":false,"rental_uris":{"android":"levelo://app?vid=cfb3f049-f7cb-4ec9-b1a9-0a8a4b33e367","ios":"levelo://app?vid=cfb3f049-f7cb-4ec9-b1a9-0a8a4b33e367"},"vehicle_type_id":"4","last_reported":1747516100,"current_range_meters":17600,"station_id":"ce4bgih2rcd13ifvqba0","pricing_plan_id":"cebpf4jnsgd1na2vs0mg"},{"bike_id":"b69de628-a7f3-4697-9924-e51fd055f2aa","system_id":"levelo_inurba_marseille","lat":43.313595,"lon":5.38488,"is_reserved":false,"is_disabled":false,"rental_uris":{"android":"levelo://app?vid=b69de628-a7f3-4697-9924-e51fd055f2aa","ios":"levelo://app?vid=b69de628-a7f3-4697-9924-e51fd055f2aa"},"vehicle_type_id":"4","last_reported":1747516100,"current_range_meters":17600,"station_id":"ce4bgt92rcd13ifvqcf0","pricing_plan_id":"cebpf4jnsgd1na2vs0mg"},{"bike_id":"a850da5e-2c6f-4699-bc79-e368f4fdbff8","system_id":"levelo_inurba_marseille","lat":43.31078,"lon":5.3835,"is_reserved":false,"is_disabled":false,"rental_uris":{"android":"levelo://app?vid=a850da5e-2c6f-4699-bc79-e368f4fdbff8","ios":"levelo://app?vid=a850da5e-2c6f-4699-bc79-e368f4fdbff8"},"vehicle_type_id":"4","last_reported":1747516100,"current_range_meters":17600,"station_id":"ce4bgv92rcd13ifvqcr0","pricing_plan_id":"cebpf4jnsgd1na2vs0mg"},{"bike_id":"8fed72fb-43ad-44b1-baae-b66fd5026f76","system_id":"levelo_inurba_marseille","lat":43.27376,"lon":5.36253,"is_reserved":false,"is_disabled":false,"rental_uris":{"android":"levelo://app?vid=8fed72fb-43ad-44b1-baae-b66fd5026f76","ios":"levelo://app?vid=8fed72fb-43ad-44b1-baae-b66fd5026f76"},