{"last_updated":1753218605,"ttl":60,"version":"2.2","data":{"bikes":[{"bike_id":"f694e406-e107-448d-bab8-f88112b0c9a2","system_id":"levelo_inurba_marseille","lat":43.34972,"lon":5.35411,"is_reserved":false,"is_disabled":false,"rental_uris":{"android":"levelo://app?vid=f694e406-e107-448d-bab8-f88112b0c9a2","ios":"levelo://app?vid=f694e406-e107-448d-bab8-f88112b0c9a2"},"vehicle_type_id":"4","last_reported":1753218605,"current_range_meters":3600,"station_id":"","pricing_plan_id":"cebpf4jnsgd1na2vs0mg"},{"bike_id":"494c7a7e-6b2a-40b5-8b8f-8e08c9ec74a1","system_id":"levelo_inurba_marseille","lat":43.330235,"lon":5.390391,"is_reserved":false,"is_disabled":false,"rental_uris":{"android":"levelo://app?vid=494c7a7e-6b2a-40b5-8b8f-8e08c9ec74a1","ios":"levelo://app?vid=494c7a7e-6b2a-40b5-8b8f-8e08c9ec74a1"},"vehicle_type_id":"4","last_reported":1753218605,"current_range_meters":3200,"station_id":"ce4bhr92rcd13ifvqhrg","pricing_plan_id":"cebpf4jnsgd1na2vs0mg"},{"bike_id":"2570fccc-bc83-4857-aceb-da270b9d0cad","system_id":"levelo_inurba_marseille","lat":43.29508,"lon":5.38182,"is_reserved":false,"is_disabled":false,"rental_uris":{"android":"levelo://app?vid=2570fccc-bc83-4857-aceb-da270b9d0cad","ios":"levelo://app?vid=2570fccc-bc83-4857-aceb-da270b9d0cad"},"vehicle_type_id":"4","last_reported":1753218605,"current_range_meters":3200,"station_id":"","pricing_plan_id":"cebpf4jnsgd1na2vs0mg"},{"bike_id":"50216683-5015-40c9-b87f-1fcc0ed7cb90","system_id":"levelo_inurba_marseille","lat":43.30738,"lon":5.42453,"is_reserved":false,"is_disabled":false,"rental_uris":{"android":"levelo://app?vid=50216683-5015-40c9-b87f-1fcc0ed7cb90","ios":"levelo://app?vid=50216683-5015-40c9-b87f-1fcc0ed7cb90"},"vehicle_type_id":"4","last_reported":1753218605,"current_range_meters":3200,"station_id":"st_cvj6ca6bvosntc0bfgr0","pricing_plan_id":"cebpf4jnsgd1na2vs0mg"},{"bike_id":"6b70b204-e321-47d4-8a82-040c209ae294","system_id":"levelo_inurba_marseille","lat":43.32001,"lon":5.38166,"is_reserved":false,"is_disabled":false,"rental_uris":{"android":"levelo://app?vid=6b70b204-e321-47d4-8a82-040c209ae294","ios":"levelo://app?vid=6b70b204-e321-47d4-8a82-040c209ae294"},"vehicle_type_id":"4","last_reported":1753218605,"current_range_meters":3600,"station_id":"ce4bhr12rcd13ifvqhpg","pricing_plan_id":"cebpf4jnsgd1na2vs0mg"},{"bike_id":"12d71656-d9d0-41c2-95c1-76f7128ad791","system_id":"levelo_inurba_marseille","lat":43.265498,"lon":5.372938,"is_reserved":false,"is_disabled":false,"rental_uris":{"android":"levelo://app?vid=12d71656-d9d0-41c2-95c1-76f7128ad791","ios":"levelo://app?vid=12d71656-d9d0-41c2-95c1-76f7128ad791"},"vehicle_type_id":"4","last_reported":1753218605,"current_range_meters":3600,"station_id":"ce4bhg12rcd13ifvqf70","pricing_plan_id":"cebpf4jnsgd1na2vs0mg"},{"bike_id":"45124328-1a1f-4c0b-8cea-1ff5c8e8f839","system_id":"levelo_inurba_marseille","lat":43.28701,"lon":5.37384,"is_reserved":false,"is_disabled":false,"rental_uris":{"android":"levelo://app?vid=45124328-1a1f-4c0b-8cea-1ff5c8e8f839","ios":"levelo://app?vid=45124328-1a1f-4c0b-8cea-1ff5c8e8f839"},"vehicle_type_id":"4","last_reported":1753218605,"current_range_meters":3600,"station_id":"ce4bh3p2rcd13ifvqdq0","pricing_plan_id":"cebpf4jnsgd1na2vs0mg"},{"bike_id":"0dbbf050-f782-45de-a8fb-06035d82c115","system_id":"levelo_inurba_marseille","lat":43.26568,"lon":5.39019,"is_reserved":false,"is_disabled":true,"rental_uris":{"android":"levelo://app?vid=0dbbf050-f782-45de-a8fb-06035d82c115","ios":"levelo://app?vid=0dbbf050-f782-45de-a8fb-06035d82c115"},"vehicle_type_id":"4","last_reported":1753218605,"current_range_meters":4000,"station_id":"ce4bhe12rcd13ifvqf30","pricing_plan_id":"cebpf4jnsgd1na2vs0mg"},{"bike_id":"c61b7c08-6a70-4e99-a8c9-a8a8534912e6","system_id":"levelo_inurba_marseille","lat":43.307777,"lon":5.400756,"is_reserved":false,"is_disabled":false,"rental_uris":{"android":"levelo://app?vid=c61b7c08-6a70-4e99-a8c9-a8a8534912e6","ios":"levelo://app?vid=c61b7c08-6a70-4e99-a8c9-a8a8534912e6"},"vehicle_type_id":"4","last_reported":1753218605,"current_range_meters":4400,"station_id":"ce4bgvp2rcd13ifvqct0","pricing_plan_id":"cebpf4jnsgd1na2vs0mg"},{"bike_id":"1621bc4d-3737-45b0-abaa-8456ffcf1a2b","system_id":"levelo_inurba_marseille","lat":43.29883,"lon":5.38898,"is_reserved":false,"is_disabled":false,"rental_uris":{"android":"levelo://app?vid=1621bc4d-3737-45b0-abaa-8456ffcf1a2b","ios":"levelo://app?vid=1621bc4d-3737-45b0-abaa-8456ffcf1a2b"},"vehicle_type_id":"4","last_reported":1753218605,"current_range_meters":4400,"station_id":"ce4bh392rcd13ifvqdl0","pricing_plan_id":"cebpf4jnsgd1na2vs0mg"},{"bike_id":"87566d45-16cd-4cec-836b-9f08a1c19041","system_id":"levelo_inurba_marseille","lat":43.28981,"lon":5.37832,"is_reserved":false,"is_disabled":false,"rental_uris":{"android":"levelo://app?vid=87566d45-16cd-4cec-836b-9f08a1c19041","ios":"levelo://app?vid=87566d45-16cd-4cec-836b-9f08a1c19041"},"vehicle_type_id":"4","last_reported":1753218605,"current_range_meters":4000,"station_id":"ce4bh9p2rcd13ifvqed0","pricing_plan_id":"cebpf4jnsgd1na2vs0mg"},{"bike_id":"85a5c837-2ce7-40d8-af0b-883362dd3119","system_id":"levelo_inurba_marseille","lat":43.27803,"lon":5.35505,"is_reserved":false,"is_disabled":false,"rental_uris":{"android":"levelo://app?vid=85a5c837-2ce7-40d8-af0b-883362dd3119","ios":"levelo://app?vid=85a5c837-2ce7-40d8-af0b-883362dd3119"},"vehicle_type_id":"4","last_reported":1753218605,"current_range_meters":4800,"station_id":"","pricing_plan_id":"cebpf4jnsgd1na2vs0mg"},{"bike_id":"8e54c51e-2947-47ab-9ce0-102fce8af159","system_id":"levelo_inurba_marseille","lat":43.29373,"lon":5.37838,"is_reserved":false,"is_disabled":false,"rental_uris":{"android":"levelo://app?vid=8e54c51e-2947-47ab-9ce0-102fce8af159","ios":"levelo://app?vid=8e54c51e-2947-47ab-9ce0-102fce8af159"},"vehicle_type_id":"4","last_reported":1753218605,"current_range_meters":4800,"station_id":"ce4bgjh2rcd13ifvqbf0","pricing_plan_id":"cebpf4jnsgd1na2vs0mg"},{"bike_id":"00ee427d-eea7-471a-9de9-c72a5fb3887b","system_id":"levelo_inurba_marseille","lat":43.28724,"lon":5.36096,"is_reserved":false,"is_disabled":false,"rental_uris":{"android":"levelo://app?vid=00ee427d-eea7-471a-9de9-c72a5fb3887b","ios":"levelo://app?vid=00ee427d-eea7-471a-9de9-c72a5fb3887b"},"vehicle_type_id":"4","last_reported":1753218605,"current_range_meters":4800,"station_id":"cki0cbj6b192h4jlfktg","pricing_plan_id":"cebpf4jnsgd1na2vs0mg"},{"bike_id":"62c9fb5d-bff4-4129-8d7d-a27ad43b2477","system_id":"levelo_inurba_marseille","lat":43.23154,"lon":5.43704,"is_reserved":false,"is_disabled":false,"rental_uris":{"android":"levelo://app?vid=62c9fb5d-bff4-4129-8d7d-a27ad43b2477","ios":"levelo://app?vid=62c9fb5d-bff4-4129-8d7d-a27ad43b2477"},"vehicle_type_id":"4","last_reported":1753218605,"current_range_meters":4800,"station_id":"ce4bhmp2rcd13ifvqgog","pricing_plan_id":"cebpf4jnsgd1na2vs0mg"},{"bike_id":"89f7ed1b-aedc-4a97-881c-71130fcf490c","system_id":"levelo_inurba_marseille","lat":43.246587,"lon":5.381639,"is_reserved":false,"is_disabled":false,"rental_uris":{"android":"levelo://app?vid=89f7ed1b-aedc-4a97-881c-71130fcf490c","ios":"levelo://app?vid=89f7ed1b-aedc-4a97-881c-71130fcf490c"},"vehicle_type_id":"4","last_reported":1753218605,"current_range_meters":6000,"station_id":"ce4bgg92rcd13ifvqb30","pricing_plan_id":"cebpf4jnsgd1na2vs0mg"},{"bike_id":"adbee0ad-6a23-4abd-b7da-17c69fd87e5d","system_id":"levelo_inurba_marseille","lat":43.28461,"lon":5.35882,"is_reserved":false,"is_disabled":false,"rental_uris":{"android":"levelo://app?vid=adbee0ad-6a23-4abd-b7da-17c69fd87e5d","ios":"levelo://app?vid=adbee0ad-6a23-4abd-b7da-17c69fd87e5d"},"vehicle_type_id":"4","last_reported":1753218605,"current_range_meters":6400,"station_id":"ce4bhah2rcd13ifvqei0","pricing_plan_id":"cebpf4jnsgd1na2vs0mg"},{"bike_id":"20bab09b-981d-4511-83af-05d3395e11cb","system_id":"levelo_inurba_marseille","lat":43.28861,"lon":5.3935,"is_reserved":false,"is_disabled":true,"rental_uris":{"android":"levelo://app?vid=20bab09b-981d-4511-83af-05d3395e11cb","ios":"levelo://app?vid=20bab09b-981d-4511-83af-05d3395e11cb"},"vehicle_type_id":"4","last_reported":1753218605,"current_range_meters":6400,"station_id":"ce4bh2p2rcd13ifvqdi0","pricing_plan_id":"cebpf4jnsgd1na2vs0mg"},{"bike_id":"ae51e3c8-0767-4a21-8fea-103e0d52f3cb","system_id":"levelo_inurba_marseille","lat":43.29604,"lon":5.38102,"is_reserved":false,"is_disabled":false,"rental_uris":{"android":"levelo://app?vid=ae51e3c8-0767-4a21-8fea-103e0d52f3cb","ios":"levelo://app?vid=ae51e3c8-0767-4a21-8fea-103e0d52f3cb"},"vehicle_type_id":"4","last_reported":1753218605,"current_range_meters":6400,"station_id":"ce4bgl12rcd13ifvqbo0","pricing_plan_id":"cebpf4jnsgd1na2vs0mg"},{"bike_id":"160e537d-eaed-4d8a-ae0d-5da86341d1a1","system_id":"levelo_inurba_marseille","lat":43.29788,"lon":5.3934,"is_reserved":false,"is_disabled":false,"rental_uris":{"android":"levelo://app?vid=160e537d-eaed-4d8a-ae0d-5da86341d1a1","ios":"levelo://app?vid=160e537d-eaed-4d8a-ae0d-5da86341d1a1"},"vehicle_type_id":"4","last_reported":1753218605,"current_range_meters":6800,"station_id":"chh1huq6cuj3fo74tm60","pricing_plan_id":"cebpf4jnsgd1na2vs0mg"},{"bike_id":"728e604f-a28b-409d-a28f-c9de09b1f024","system_id":"levelo_inurba_marseille","lat":43.308008,"lon":5.381505,"is_reserved":false,"is_disabled":false,"rental_uris":{"android":"levelo://app?vid=728e604f-a28b-409d-a28f-c9de09b1f024","ios":"levelo://app?vid=728e604f-a28b-409d-a28f-c9de09b1f024"},"vehicle_type_id":"4","last_reported":1753218605,"current_range_meters":6800,"station_id":"ce4bgt12rcd13ifvqce0","pricing_plan_id":"cebpf4jnsgd1na2vs0mg"},{"bike_id":"288e40f1-8fbf-4748-a95b-1be5b48bdbe8","system_id":"levelo_inurba_marseille","lat":43.28943,"lon":5.3664,"is_reserved":false,"is_disabled":true,"rental_uris":{"android":"levelo://app?vid=288e40f1-8fbf-4748-a95b-1be5b48bdbe8","ios":"levelo://app?vid=288e40f1-8fbf-4748-a95b-1be5b48bdbe8"},"vehicle_type_id":"4","last_reported":1753218605,"current_range_meters":6800,"station_id":"ce4bhap2rcd13ifvqek0","pricing_plan_id":"cebpf4jnsgd1na2vs0mg"},{"bike_id":"5a860519-c14f-42b7-b882-9e8aca90d7fe","system_id":"levelo_inurba_marseille","lat":43.300137,"lon":5.400516,"is_reserved":false,"is_disabled":false,"rental_uris":{"android":"levelo://app?vid=5a860519-c14f-42b7-b882-9e8aca90d7fe","ios":"levelo://app?vid=5a860519-c14f-42b7-b882-9e8aca90d7fe"},"vehicle_type_id":"4","last_reported":1753218605,"current_range_meters":6800,"station_id":"ce4bh192rcd13ifvqdc0","pricing_plan_id":"cebpf4jnsgd1na2vs0mg"},{"bike_id":"374764e9-1483-4c39-a939-2017d46b717a","system_id":"levelo_inurba_marseille","lat":43.280392,"lon":5.350086,"is_reserved":false,"is_disabled":false,"rental_uris":{"android":"levelo://app?vid=374764e9-1483-4c39-a939-2017d46b717a","ios":"levelo://app?vid=374764e9-1483-4c39-a939-2017d46b717a"},"vehicle_type_id":"4","last_reported":1753218605,"current_range_meters":6800,"station_id":"","pricing_plan_id":"cebpf4jnsgd1na2vs0mg"},{"bike_id":"182b5ac5-19bc-444a-89f2-b3859e96195c","system_id":"levelo_inurba_marseille","lat":43.3133,"lon":5.39699,"is_reserved":false,"is_disabled":false,"rental_uris":{"android":"levelo://app?vid=182b5ac5-19bc-444a-89f2-b3859e96195c","ios":"levelo://app?vid=182b5ac5-19bc-444a-89f2-b3859e96195c"},"vehicle_type_id":"4","last_reported":1753218605,"current_range_meters":7200,"station_id":"ce4bgvp2rcd13ifvqcu0","pricing_plan_id":"cebpf4jnsgd1na2vs0mg"},{"bike_id":"524573cc-04b7-4ffb-8829-dd50204bf019","system_id":"levelo_inurba_marseille","lat":43.28699,"lon":5.39981,"is_reserved":false,"is_disabled":false,"rental_uris":{"android":"levelo://app?vid=524573cc-04b7-4ffb-8829-dd50204bf019","ios":"levelo://app?vid=524573cc-04b7-4ffb-8829-dd50204bf019"},"vehicle_type_id":"4","last_reported":1753218605,"current_range_meters":6800,"station_id":"ce4bho92rcd13ifvqh3g","pricing_plan_id":"cebpf4jnsgd1na2vs0mg"},{"bike_id":"39637038-cb43-4821-82e9-970b0ec637f2","system_id":"levelo_inurba_marseille","lat":43.31711,"lon":5.37729,"is_reserved":false,"is_disabled":false,"rental_uris":{"android":"levelo://app?vid=39637038-cb43-4821-82e9-970b0ec637f2","ios":"levelo://app?vid=39637038-cb43-4821-82e9-970b0ec637f2"},"vehicle_type_id":"4","last_reported":1753218605,"current_range_meters":7200,"station_id":"ce4bgth2rcd13ifvqch0","pricing_plan_id":"cebpf4jnsgd1na2vs0mg"},{"bike_id":"42413a25-16d1-4419-b44a-45580e0c6ac6","system_id":"levelo_inurba_marseille","lat":43.33757,"lon":5.37479,"is_reserved":false,"is_disabled":false,"rental_uris":{"android":"levelo://app?vid=42413a25-16d1-4419-b44a-45580e0c6ac6","ios":"levelo://app?vid=42413a25-16d1-4419-b44a-45580e0c6ac6"},"vehicle_type_id":"4","last_reported":1753218605,"current_range_meters":8000,"station_id":"","pricing_plan_id":"cebpf4jnsgd1na2vs0mg"},{"bike_id":"f81d648c-1981-4daf-be99-4792234208b2","system_id":"levelo_inurba_marseille","lat":43.26267,"lon":5.37186,"is_reserved":false,"is_disabled":false,"rental_uris":{"android":"levelo://app?vid=f81d648c-1981-4daf-be99-4792234208b2","ios":"levelo://app?vid=f81d648c-1981-4daf-be99-4792234208b2"},"vehicle_type_id":"4","last_reported":1753218605,"current_range_meters":8000,"station_id":"","pricing_plan_id":"cebpf4jnsgd1na2vs0mg"},{"bike_id":"eced6d5d-e31c-4ab2-9c43-59598a75994e","system_id":"levelo_inurba_marseille","lat":43.32028,"lon":5.41549,"is_reserved":false,"is_disabled":false,"rental_uris":{"android":"levelo://app?vid=eced6d5d-e31c-4ab2-9c43-59598a75994e","ios":"levelo://app?vid=eced6d5d-e31c-4ab2-9c43-59598a75994e"},"vehicle_type_id":"4","last_reported":1753218605,"current_range_meters":8000,"station_id":"ce4bhq92rcd13ifvqhkg","pricing_plan_id":"cebpf4jnsgd1na2vs0mg"},{"bike_id":"3808bbbc-bf71-4de1-97ee-2481d526b56a","system_id":"levelo_inurba_marseille","lat":43.270746,"lon":5.422875,"is_reserved":false,"is_disabled":true,"rental_uris":{"android":"levelo://app?vid=3808bbbc-bf71-4de1-97ee-2481d526b56a","ios":"levelo://app?vid=3808bbbc-bf71-4de1-97ee-2481d526b56a"},"vehicle_type_id":"4","last_reported":1753218605,"current_range_meters":8000,"station_id":"ce4bhk92rcd13ifvqgb0","pricing_plan_id":"cebpf4jnsgd1na2vs0mg"},{"bike_id":"ad023e0f-2397-4b19-8381-54e5fd7cf00a","system_id":"levelo_inurba_marseille","lat":43.320435,"lon":5.414877,"is_reserved":false,"is_disabled":false,"rental_uris":{"android":"levelo://app?vid=ad023e0f-2397-4b19-8381-54e5fd7cf00a","ios":"levelo://app?vid=ad023e0f-2397-4b19-8381-54e5fd7cf00a"},"vehicle_type_id":"4","last_reported":1753218605,"current_range_meters":8000,"station_id":"ce4bhq92rcd13ifvqhkg","pricing_plan_id":"cebpf4jnsgd1na2vs0mg"},{"bike_id":"88d57b72-53b5-4325-9a90-71d185a85bfc","system_id":"levelo_inurba_marseille","lat":43.289999,"lon":5.371633,"is_reserved":false,"is_disabled":false,"rental_uris":{"android":"levelo://app?vid=88d57b72-53b5-4325-9a90-71d185a85bfc","ios":"levelo://app?vid=88d57b72-53b5-4325-9a90-71d185a85bfc"},"vehicle_type_id":"4","last_reported":1753218605,"current_range_meters":8000,"station_id":"ce4bht12rcd13ifvqi60","pricing_plan_id":"cebpf4jnsgd1na2vs0mg"},{"bike_id":"edd8a134-a4d5-4d16-9c34-1daa9fc998fe","system_id":"levelo_inurba_marseille","lat":43.31329,"lon":5.39691,"is_reserved":false,"is_disabled":false,"rental_uris":{"android":"levelo://app?vid=edd8a134-a4d5-4d16-9c34-1daa9fc998fe","ios":"levelo://app?vid=edd8a134-a4d5-4d16-9c34-1daa9fc998fe"},"vehicle_type_id":"4","last_reported":1753218605,"current_range_meters":8000,"station_id":"ce4bgvp2rcd13ifvqcu0","pricing_plan_id":"cebpf4jnsgd1na2vs0mg"},{"bike_id":"20b84c68-5722-4a59-91bd-2967f8c1fd6e","system_id":"levelo_inurba_marseille","lat":43.30425,"lon":5.39744,"is_reserved":false,"is_disabled":false,"rental_uris":{"android":"levelo://app?vid=20b84c68-5722-4a59-91bd-2967f8c1fd6e","ios":"levelo://app?vid=20b84c68-5722-4a59-91bd-2967f8c1fd6e"},"vehicle_type_id":"4","last_reported":1753218605,"current_range_meters":8000,"station_id":"ce4bh092rcd13ifvqd20","pricing_plan_id":"cebpf4jnsgd1na2vs0mg"},{"bike_id":"548651c1-96df-4ea7-8a2c-5d042a08eb68","system_id":"levelo_inurba_marseille","lat":43.33606,"lon":5.41037,"is_reserved":false,"is_disabled":false,"rental_uris":{"android":"levelo://app?vid=548651c1-96df-4ea7-8a2c-5d042a08eb68","ios":"levelo://app?vid=548651c1-96df-4ea7-8a2c-5d042a08eb68"},"vehicle_type_id":"4","last_reported":1753218605,"current_range_meters":7200,"station_id":"ce4bhqh2rcd13ifvqhmg","pricing_plan_id":"cebpf4jnsgd1na2vs0mg"},{"bike_id":"efda8583-2d93-44e3-8c9a-af98b469b6a6","system_id":"levelo_inurba_marseille","lat":43.29023,"lon":5.38136,"is_reserved":false,"is_disabled":false,"rental_uris":{"android":"levelo://app?vid=efda8583-2d93-44e3-8c9a-af98b469b6a6","ios":"levelo://app?vid=efda8583-2d93-44e3-8c9a-af98b469b6a6"},"vehicle_type_id":"4","last_reported":1753218605,"current_range_meters":8400,"station_id":"ce4bh4p2rcd13ifvqe1g","pricing_plan_id":"cebpf4jnsgd1na2vs0mg"},{"bike_id":"36c804c1-e116-432f-b883-355821b3c55d","system_id":"levelo_inurba_marseille","lat":43.298,"lon":5.39351,"is_reserved":false,"is_disabled":false,"rental_uris":{"android":"levelo://app?vid=36c804c1-e116-432f-b883-355821b3c55d","ios":"levelo://app?vid=36c804c1-e116-432f-b883-355821b3c55d"},"vehicle_type_id":"4","last_reported":1753218605,"current_range_meters":8400,"station_id":"chh1huq6cuj3fo74tm60","pricing_plan_id":"cebpf4jnsgd1na2vs0mg"},{"bike_id":"3eb8cd9f-24db-4c56-915a-668134d5d369","system_id":"levelo_inurba_marseille","lat":43.284168,"lon":5.3498,"is_reserved":false,"is_disabled":false,"rental_uris":{"android":"levelo://app?vid=3eb8cd9f-24db-4c56-915a-668134d5d369","ios":"levelo://app?vid=3eb8cd9f-24db-4c56-915a-668134d5d369"},"vehicle_type_id":"4","last_reported":1753218605,"current_range_meters":8400,"station_id":"ce4bh292rcd13ifvqdg0","pricing_plan_id":"cebpf4jnsgd1na2vs0mg"},{"bike_id":"3cef1158-540c-4055-a46b-73e02d1c17f7","system_id":"levelo_inurba_marseille","lat":43.31366,"lon":5.3745,"is_reserved":false,"is_disabled":false,"rental_uris":{"android":"levelo://app?vid=3cef1158-540c-4055-a46b-73e02d1c17f7","ios":"levelo://app?vid=3cef1158-540c-4055-a46b-73e02d1c17f7"},"vehicle_type_id":"4","last_reported":1753218605,"current_range_meters":8400,"station_id":"","pricing_plan_id":"cebpf4jnsgd1na2vs0mg"},{"bike_id":"bc8e8184-a6af-4eda-9557-7e503f0c793c","system_id":"levelo_inurba_marseille","lat":43.24172,"lon":5.39708,"is_reserved":false,"is_disabled":true,"rental_uris":{"android":"levelo://app?vid=bc8e8184-a6af-4eda-9557-7e503f0c793c","ios":"levelo://app?vid=bc8e8184-a6af-4eda-9557-7e503f0c793c"},"vehicle_type_id":"4","last_reported":1753218605,"current_range_meters":8400,"station_id":"ce4bhn12rcd13ifvqgpg","pricing_plan_id":"cebpf4jnsgd1na2vs0mg"},{"bike_id":"0690741f-9a35-4106-8fb8-49f40b38c33f","system_id":"levelo_inurba_marseille","lat":43.28568,"lon":5.39502,"is_reserved":false,"is_disabled":false,"rental_uris":{"android":"levelo://app?vid=0690741f-9a35-4106-8fb8-49f40b38c33f","ios":"levelo://app?vid=0690741f-9a35-4106-8fb8-49f40b38c33f"},"vehicle_type_id":"4","last_reported":1753218605,"current_range_meters":8400,"station_id":"ce4bh292rcd13ifvqdg0","pricing_plan_id":"cebpf4jnsgd1na2vs0mg"},{"bike_id":"35ac6290-31bc-45e5-963e-c2d1bcb894f3","system_id":"levelo_inurba_marseille","lat":43.26026,"lon":5.3755,"is_reserved":false,"is_disabled":false,"rental_uris":{"android":"levelo://app?vid=35ac6290-31bc-45e5-963e-c2d1bcb894f3","ios":"levelo://app?vid=35ac6290-31bc-45e5-963e-c2d1bcb894f3"},"vehicle_type_id":"4","last_reported":1753218605,"current_range_meters":8800,"station_id":"ce4bhgh2rcd13ifvqfa0","pricing_plan_id":"cebpf4jnsgd1na2vs0mg"},{"bike_id":"9500fb2d-9bd0-40f9-af5d-349f330e6114","system_id":"levelo_inurba_marseille","lat":43.30529,"lon":5.38432,"is_reserved":false,"is_disabled":false,"rental_uris":{"android":"levelo://app?vid=9500fb2d-9bd0-40f9-af5d-349f330e6114","ios":"levelo://app?vid=9500fb2d-9bd0-40f9-af5d-349f330e6114"},"vehicle_type_id":"4","last_reported":1753218605,"current_range_meters":8800,"station_id":"ce4bgg92rcd13ifvqb30","pricing_plan_id":"cebpf4jnsgd1na2vs0mg"},{"bike_id":"09715af2-1841-4b4c-8ac3-dafdd7ec196f","system_id":"levelo_inurba_marseille","lat":43.28336,"lon":5.38105,"is_reserved":false,"is_disabled":false,"rental_uris":{"android":"levelo://app?vid=09715af2-1841-4b4c-8ac3-dafdd7ec196f","ios":"levelo://app?vid=09715af2-1841-4b4c-8ac3-dafdd7ec196f"},"vehicle_type_id":"4","last_reported":1753218605,"current_range_meters":8800,"station_id":"ce4bh412rcd13ifvqdr0","pricing_plan_id":"cebpf4jnsgd1na2vs0mg"},{"bike_id":"28d6f0eb-86d8-4aa0-b418-59d9208d85ea","system_id":"levelo_inurba_marseille","lat":43.31267,"lon":5.40166,"is_reserved":false,"is_disabled":false,"rental_uris":{"android":"levelo://app?vid=28d6f0eb-86d8-4aa0-b418-59d9208d85ea","ios":"levelo://app?vid=28d6f0eb-86d8-4aa0-b418-59d9208d85ea"},"vehicle_type_id":"4","last_reported":1753218605,"current_range_meters":8800,"station_id":"ce4bh092rcd13ifvqd30","pricing_plan_id":"cebpf4jnsgd1na2vs0mg"},{"bike_id":"547506c5-de08-4fef-9973-2152478185b6","system_id":"levelo_inurba_marseille","lat":43.30934,"lon":5.40154,"is_reserved":false,"is_disabled":false,"rental_uris":{"android":"levelo://app?vid=547506c5-de08-4fef-9973-2152478185b6","ios":"levelo://app?vid=547506c5-de08-4fef-9973-2152478185b6"},"vehicle_type_id":"4","last_reported":1753218605,"current_range_meters":9200,"station_id":"ce4bgvp2rcd13ifvqct0","pricing_plan_id":"cebpf4jnsgd1na2vs0mg"},{"bike_id":"e4761578-ae86-4dfa-b146-0428e5d8cca7","system_id":"levelo_inurba_marseille","lat":43.24177,"lon":5.36417,"is_reserved":false,"is_disabled":true,"rental_uris":{"android":"levelo://app?vid=e4761578-ae86-4dfa-b146-0428e5d8cca7","ios":"levelo://app?vid=e4761578-ae86-4dfa-b146-0428e5d8cca7"},"vehicle_type_id":"4","last_reported":1753218605,"current_range_meters":9200,"station_id":"cpo36qri1sfpv3e86is0","pricing_plan_id":"cebpf4jnsgd1na2vs0mg"},{"bike_id":"f3a3329f-eb96-4f6e-bf85-996081eb70f6","system_id":"levelo_inurba_marseille","lat":43.28856,"lon":5.39324,"is_reserved":false,"is_disabled":false,"rental_uris":{"android":"levelo://app?vid=f3a3329f-eb96-4f6e-bf85-996081eb70f6","ios":"levelo://app?vid=f3a3329f-eb96-4f6e-bf85-996081eb70f6"},"vehicle_type_id":"4","last_reported":1753218605,"current_range_meters":9200,"station_id":"ce4bh2p2rcd13ifvqdi0","pricing_plan_id":"cebpf4jnsgd1na2vs0mg"},{"bike_id":"c56efe0b-4276-431e-ab23-40e82bd65e65","system_id":"levelo_inurba_marseille","lat":43.29887,"lon":5.38899,"is_reserved":false,"is_disabled":false,"rental_uris":{"android":"levelo://app?vid=c56efe0b-4276-431e-ab23-40e82bd65e65","ios":"levelo://app?vid=c56efe0b-4276-431e-ab23-40e82bd65e65"},"vehicle_type_id":"4","last_reported":1753218605,"current_range_meters":9200,"station_id":"ce4bh392rcd13ifvqdl0","pricing_plan_id":"cebpf4jnsgd1na2vs0mg"},{"bike_id":"641697c4-992f-4ad7-9935-fa3f53a64f02","system_id":"levelo_inurba_marseille","lat":43.30887,"lon":5.39655,"is_reserved":false,"is_disabled":false,"rental_uris":{"android":"levelo://app?vid=641697c4-992f-4ad7-9935-fa3f53a64f02","ios":"levelo://app?vid=641697c4-992f-4ad7-9935-fa3f53a64f02"},"vehicle_type_id":"4","last_reported":1753218605,"current_range_meters":8800,"station_id":"ce4bh012rcd13ifvqcv0","pricing_plan_id":"cebpf4jnsgd1na2vs0mg"},{"bike_id":"effef797-28f1-477c-a309-15b467a22c31","system_id":"levelo_inurba_marseille","lat":43.31358,"lon":5.38491,"is_reserved":false,"is_disabled":false,"rental_uris":{"android":"levelo://app?vid=effef797-28f1-477c-a309-15b467a22c31","ios":"levelo://app?vid=effef797-28f1-477c-a309-15b467a22c31"},"vehicle_type_id":"4","last_reported":1753218605,"current_range_meters":9600,"station_id":"ce4bgt92rcd13ifvqcf0","pricing_plan_id":"cebpf4jnsgd1na2vs0mg"},{"bike_id":"e7ebacba-3b5e-4b60-b005-2c484514c670","system_id":"levelo_inurba_marseille","lat":43.29448,"lon":5.39746,"is_reserved":false,"is_disabled":false,"rental_uris":{"android":"levelo://app?vid=e7ebacba-3b5e-4b60-b005-2c484514c670","ios":"levelo://app?vid=e7ebacba-3b5e-4b60-b005-2c484514c670"},"vehicle_type_id":"4","last_reported":1753218605,"current_range_meters":9600,"station_id":"ce4bh3h2rcd13ifvqdo0","pricing_plan_id":"cebpf4jnsgd1na2vs0mg"},{"bike_id":"6ab0a592-0c64-4461-a14c-30b5246d5275","system_id":"levelo_inurba_marseille","lat":43.3136,"lon":5.38491,"is_reserved":false,"is_disabled":false,"rental_uris":{"android":"levelo://app?vid=6ab0a592-0c64-4461-a14c-30b5246d5275","ios":"levelo://app?vid=6ab0a592-0c64-4461-a14c-30b5246d5275"},"vehicle_type_id":"4","last_reported":1753218605,"current_range_meters":9600,"station_id":"ce4bgt92rcd13ifvqcf0","pricing_plan_id":"cebpf4jnsgd1na2vs0mg"},{"bike_id":"77db7b20-6faf-47ef-b5a9-6f70743b2c8b","system_id":"levelo_inurba_marseille","lat":43.30885,"lon":5.39647,"is_reserved":false,"is_disabled":false,"rental_uris":{"android":"levelo://app?vid=77db7b20-6faf-47ef-b5a9-6f70743b2c8b","ios":"levelo://app?vid=77db7b20-6faf-47ef-b5a9-6f70743b2c8b"},"vehicle_type_id":"4","last_reported":1753218605,"current_range_meters":9600,"station_id":"ce4bh012rcd13ifvqcv0","pricing_plan_id":"cebpf4jnsgd1na2vs0mg"},{"bike_id":"b5bdc370-283e-464f-b18c-27cdac0e07d6","system_id":"levelo_inurba_marseille","lat":43.33718,"lon":5.39193,"is_reserved":false,"is_disabled":false,"rental_uris":{"android":"levelo://app?vid=b5bdc370-283e-464f-b18c-27cdac0e07d6","ios":"levelo://app?vid=b5bdc370-283e-464f-b18c-27cdac0e07d6"},"vehicle_type_id":"4","last_reported":1753218605,"current_range_meters":9200,"station_id":"ce4bhr92rcd13ifvqhsg","pricing_plan_id":"cebpf4jnsgd1na2vs0mg"},{"bike_id":"b3e19d7b-a98f-4fbf-9f64-5a4fc3374ee5","system_id":"levelo_inurba_marseille","lat":43.28573,"lon":5.38337,"is_reserved":false,"is_disabled":false,"rental_uris":{"android":"levelo://app?vid=b3e19d7b-a98f-4fbf-9f64-5a4fc3374ee5","ios":"levelo://app?vid=b3e19d7b-a98f-4fbf-9f64-5a4fc3374ee5"},"vehicle_type_id":"4","last_reported":1753218605,"current_range_meters":10000,"station_id":"","pricing_plan_id":"cebpf4jnsgd1na2vs0mg"},{"bike_id":"9ae7d50c-a3ea-4136-8080-315c191e000a","system_id":"levelo_inurba_marseille","lat":43.28757,"lon":5.38419,"is_reserved":false,"is_disabled":false,"rental_uris":{"android":"levelo://app?vid=9ae7d50c-a3ea-4136-8080-315c191e000a","ios":"levelo://app?vid=9ae7d50c-a3ea-4136-8080-315c191e000a"},"vehicle_type_id":"4","last_reported":1753218605,"current_range_meters":10000,"station_id":"","pricing_plan_id":"cebpf4jnsgd1na2vs0mg"},{"bike_id":"20bd7eaf-91cf-4b1b-ac34-30246c6b1a0f","system_id":"levelo_inurba_marseille","lat":43.249926,"lon":5.389256,"is_reserved":false,"is_disabled":false,"rental_uris":{"android":"levelo://app?vid=20bd7eaf-91cf-4b1b-ac34-30246c6b1a0f","ios":"levelo://app?vid=20bd7eaf-91cf-4b1b-ac34-30246c6b1a0f"},"vehicle_type_id":"4","last_reported":1753218605,"current_range_meters":10000,"station_id":"ce4bhgp2rcd13ifvqfd0","pricing_plan_id":"cebpf4jnsgd1na2vs0mg"},{"bike_id":"b1700b43-437b-46f9-ad6c-b53dec15791d","system_id":"levelo_inurba_marseille","lat":43.265696,"lon":5.390026,"is_reserved":false,"is_disabled":false,"rental_uris":{"android":"levelo://app?vid=b1700b43-437b-46f9-ad6c-b53dec15791d","ios":"levelo://app?vid=b1700b43-437b-46f9-ad6c-b53dec15791d"},"vehicle_type_id":"4","last_reported":1753218605,"current_range_meters":10000,"station_id":"ce4bhe12rcd13ifvqf30","pricing_plan_id":"cebpf4jnsgd1na2vs0mg"},{"bike_id":"e842d2d2-fa04-4633-861e-cb945631c334","system_id":"levelo_inurba_marseille","lat":43.27372,"lon":5.36259,"is_reserved":false,"is_disabled":false,"rental_uris":{"android":"levelo://app?vid=e842d2d2-fa04-4633-861e-cb945631c334","ios":"levelo://app?vid=e842d2d2-fa04-4633-861e-cb945631c334"},"vehicle_type_id":"4","last_reported":1753218605,"current_range_meters":10000,"station_id":"ce4bhbh2rcd13ifvqeo0","pricing_plan_id":"cebpf4jnsgd1na2vs0mg"},{"bike_id":"67e823d9-1583-4577-96fe-637ab6d21095","system_id":"levelo_inurba_marseille","lat":43.30423,"lon":5.39747,"is_reserved":false,"is_disabled":false,"rental_uris":{"android":"levelo://app?vid=67e823d9-1583-4577-96fe-637ab6d21095","ios":"levelo://app?vid=67e823d9-1583-4577-96fe-637ab6d21095"},"vehicle_type_id":"4","last_reported":1753218605,"current_range_meters":10000,"station_id":"ce4bh092rcd13ifvqd20","pricing_plan_id":"cebpf4jnsgd1na2vs0mg"},{"bike_id":"7a568569-b392-41ed-bc91-5aaf454dd52a","system_id":"levelo_inurba_marseille","lat":43.30724,"lon":5.42444,"is_reserved":false,"is_disabled":false,"rental_uris":{"android":"levelo://app?vid=7a568569-b392-41ed-bc91-5aaf454dd52a","ios":"levelo://app?vid=7a568569-b392-41ed-bc91-5aaf454dd52a"},"vehicle_type_id":"4","last_reported":1753218605,"current_range_meters":10800,"station_id":"st_cvj6ca6bvosntc0bfgr0","pricing_plan_id":"cebpf4jnsgd1na2vs0mg"},{"bike_id":"8c1d0819-f991-43c1-a0ae-15c2c54fdbcd","system_id":"levelo_inurba_marseille","lat":43.2737,"lon":5.36248,"is_reserved":false,"is_disabled":true,"rental_uris":{"android":"levelo://app?vid=8c1d0819-f991-43c1-a0ae-15c2c54fdbcd","ios":"levelo://app?vid=8c1d0819-f991-43c1-a0ae-15c2c54fdbcd"},"vehicle_type_id":"4","last_reported":1753218605,"current_range_meters":10800,"station_id":"ce4bhbh2rcd13ifvqeo0","pricing_plan_id":"cebpf4jnsgd1na2vs0mg"},{"bike_id":"36569050-bd8e-4d40-bd96-3184a6ceafb9","system_id":"levelo_inurba_marseille","lat":43.29531,"lon":5.3903,"is_reserved":false,"is_disabled":false,"rental_uris":{"android":"levelo://app?vid=36569050-bd8e-4d40-bd96-3184a6ceafb9","ios":"levelo://app?vid=36569050-bd8e-4d40-bd96-3184a6ceafb9"},"vehicle_type_id":"4","last_reported":1753218605,"current_range_meters":10800,"station_id":"ce4bh3p2rcd13ifvqdp0","pricing_plan_id":"cebpf4jnsgd1na2vs0mg"},{"bike_id":"64b8f271-cbd9-463d-b980-c72f39eba919","system_id":"levelo_inurba_marseille","lat":43.30307,"lon":5.36889,"is_reserved":false,"is_disabled":false,"rental_uris":{"android":"levelo://app?vid=64b8f271-cbd9-463d-b980-c72f39eba919","ios":"levelo://app?vid=64b8f271-cbd9-463d-b980-c72f39eba919"},"vehicle_type_id":"4","last_reported":1753218605,"current_range_meters":11200,"station_id":"ce4bgqh2rcd13ifvqc5g","pricing_plan_id":"cebpf4jnsgd1na2vs0mg"},{"bike_id":"8683ce90-f074-4b78-8033-8d3c6f735b73","system_id":"levelo_inurba_marseille","lat":43.32364,"lon":5.36752,"is_reserved":false,"is_disabled":true,"rental_uris":{"android":"levelo://app?vid=8683ce90-f074-4b78-8033-8d3c6f735b73","ios":"levelo://app?vid=8683ce90-f074-4b78-8033-8d3c6f735b73"},"vehicle_type_id":"4","last_reported":1753218605,"current_range_meters":11200,"station_id":"ce4bhsh2rcd13ifvqi2g","pricing_plan_id":"cebpf4jnsgd1na2vs0mg"},{"bike_id":"365bc9b2-68bd-4764-ad7a-4ff9aa780715","system_id":"levelo_inurba_marseille","lat":43.2989,"lon":5.43653,"is_reserved":false,"is_disabled":false,"rental_uris":{"android":"levelo://app?vid=365bc9b2-68bd-4764-ad7a-4ff9aa780715","ios":"levelo://app?vid=365bc9b2-68bd-4764-ad7a-4ff9aa780715"},"vehicle_type_id":"4","last_reported":1753218605,"current_range_meters":11200,"station_id":"ce4bhpp2rcd13ifvqhfg","pricing_plan_id":"cebpf4jnsgd1na2vs0mg"},{"bike_id":"06410ab7-646b-4a92-8c67-9be9379422d4","system_id":"levelo_inurba_marseille","lat":43.3304,"lon":5.41286,"is_reserved":false,"is_disabled":false,"rental_uris":{"android":"levelo://app?vid=06410ab7-646b-4a92-8c67-9be9379422d4","ios":"levelo://app?vid=06410ab7-646b-4a92-8c67-9be9379422d4"},"vehicle_type_id":"4","last_reported":1753218605,"current_range_meters":11200,"station_id":"","pricing_plan_id":"cebpf4jnsgd1na2vs0mg"},{"bike_id":"b1e97b1e-2d80-4c94-8524-09126906d203","system_id":"levelo_inurba_marseille","lat":43.28674,"lon":5.36339,"is_reserved":false,"is_disabled":false,"rental_uris":{"android":"levelo://app?vid=b1e97b1e-2d80-4c94-8524-09126906d203","ios":"levelo://app?vid=b1e97b1e-2d80-4c94-8524-09126906d203"},"vehicle_type_id":"4","last_reported":1753218605,"current_range_meters":10800,"station_id":"ce4bhah2rcd13ifvqej0","pricing_plan_id":"cebpf4jnsgd1na2vs0mg"},{"bike_id":"a11d093c-4602-402e-9085-6aff7f1a8370","system_id":"levelo_inurba_marseille","lat":43.29536,"lon":5.38538,"is_reserved":false,"is_disabled":true,"rental_uris":{"android":"levelo://app?vid=a11d093c-4602-402e-9085-6aff7f1a8370","ios":"levelo://app?vid=a11d093c-4602-402e-9085-6aff7f1a8370"},"vehicle_type_id":"4","last_reported":1753218605,"current_range_meters":11200,"station_id":"ce4bgih2rcd13ifvqba0","pricing_plan_id":"cebpf4jnsgd1na2vs0mg"},{"bike_id":"7fb5bcd6-8736-4bd8-a486-0be39fbf5af6","system_id":"levelo_inurba_marseille","lat":43.295755,"lon":5.375209,"is_reserved":false,"is_disabled":false,"rental_uris":{"android":"levelo://app?vid=7fb5bcd6-8736-4bd8-a486-0be39fbf5af6","ios":"levelo://app?vid=7fb5bcd6-8736-4bd8-a486-0be39fbf5af6"},"vehicle_type_id":"4","last_reported":1753218605,"current_range_meters":10800,"station_id":"ce4bgh92rcd13ifvqb50","pricing_plan_id":"cebpf4jnsgd1na2vs0mg"},{"bike_id":"b8008208-948b-4e90-9c08-0feb9806fcd6","system_id":"levelo_inurba_marseille","lat":43.32032,"lon":5.41543,"is_reserved":false,"is_disabled":false,"rental_uris":{"android":"levelo://app?vid=b8008208-948b-4e90-9c08-0feb9806fcd6","ios":"levelo://app?vid=b8008208-948b-4e90-9c08-0feb9806fcd6"},"vehicle_type_id":"4","last_reported":1753218605,"current_range_meters":11200,"station_id":"ce4bhq92rcd13ifvqhkg","pricing_plan_id":"cebpf4jnsgd1na2vs0mg"},{"bike_id":"a5f1f0d6-c678-45f4-9b29-96eaa29a3e36","system_id":"levelo_inurba_marseille","lat":43.25132,"lon":5.37345,"is_reserved":false,"is_disabled":false,"rental_uris":{"android":"levelo://app?vid=a5f1f0d6-c678-45f4-9b29-96eaa29a3e36","ios":"levelo://app?vid=a5f1f0d6-c678-45f4-9b29-96eaa29a3e36"},"vehicle_type_id":"4","last_reported":1753218605,"current_range_meters":11200,"station_id":"","pricing_plan_id":"cebpf4jnsgd1na2vs0mg"},{"bike_id":"82c8233f-aee5-442c-9e9a-7411a4a6a37b","system_id":"levelo_inurba_marseille","lat":43.30431,"lon":5.39759,"is_reserved":false,"is_disabled":false,"rental_uris":{"android":"levelo://app?vid=82c8233f-aee5-442c-9e9a-7411a4a6a37b","ios":"levelo://app?vid=82c8233f-aee5-442c-9e9a-7411a4a6a37b"},"vehicle_type_id":"4","last_reported":1753218605,"current_range_meters":11600,"station_id":"ce4bh092rcd13ifvqd20","pricing_plan_id":"cebpf4jnsgd1na2vs0mg"},{"bike_id":"556ebe47-8298-4d93-93a6-d2e6e5588882","system_id":"levelo_inurba_marseille","lat":43.30432,"lon":5.39743,"is_reserved":false,"is_disabled":false,"rental_uris":{"android":"levelo://app?vid=556ebe47-8298-4d93-93a6-d2e6e5588882","ios":"levelo://app?vid=556ebe47-8298-4d93-93a6-d2e6e5588882"},"vehicle_type_id":"4","last_reported":1753218605,"current_range_meters":11600,"station_id":"ce4bh092rcd13ifvqd20","pricing_plan_id":"cebpf4jnsgd1na2vs0mg"},{"bike_id":"667ac414-cef7-4b17-8024-2403b284bfb0","system_id":"levelo_inurba_marseille","lat":43.2894,"lon":5.39625,"is_reserved":false,"is_disabled":false,"rental_uris":{"android":"levelo://app?vid=667ac414-cef7-4b17-8024-2403b284bfb0","ios":"levelo://app?vid=667ac414-cef7-4b17-8024-2403b284bfb0"},"vehicle_type_id":"4","last_reported":1753218605,"current_range_meters":11200,"station_id":"ce4bh3h2rcd13ifvqdn0","pricing_plan_id":"cebpf4jnsgd1na2vs0mg"},{"bike_id":"c05f8a9b-b11a-421b-bf54-758864ba593c","system_id":"levelo_inurba_marseille","lat":43.2592,"lon":5.40893,"is_reserved":false,"is_disabled":true,"rental_uris":{"android":"levelo://app?vid=c05f8a9b-b11a-421b-bf54-758864ba593c","ios":"levelo://app?vid=c05f8a9b-b11a-421b-bf54-758864ba593c"},"vehicle_type_id":"4","last_reported":1753218605,"current_range_meters":11600,"station_id":"ce4bhm92rcd13ifvqglg","pricing_plan_id":"cebpf4jnsgd1na2vs0mg"},{"bike_id":"85d3e27d-f61f-46fd-813d-3c35c5d54efd","system_id":"levelo_inurba_marseille","lat":43.27937,"lon":5.41046,"is_reserved":false,"is_disabled":false,"rental_uris":{"android":"levelo://app?vid=85d3e27d-f61f-46fd-813d-3c35c5d54efd","ios":"levelo://app?vid=85d3e27d-f61f-46fd-813d-3c35c5d54efd"},"vehicle_type_id":"4","last_reported":1753218605,"current_range_meters":11600,"station_id":"ce4bhnp2rcd13ifvqh0g","pricing_plan_id":"cebpf4jnsgd1na2vs0mg"},{"bike_id":"638a34c0-d48b-41ea-8500-84dc77b5a6a8","system_id":"levelo_inurba_marseille","lat":43.30542,"lon":5.38436,"is_reserved":false,"is_disabled":false,"rental_uris":{"android":"levelo://app?vid=638a34c0-d48b-41ea-8500-84dc77b5a6a8","ios":"levelo://app?vid=638a34c0-d48b-41ea-8500-84dc77b5a6a8"},"vehicle_type_id":"4","last_reported":1753218605,"current_range_meters":11600,"station_id":"ce4bgg92rcd13ifvqb30","pricing_plan_id":"cebpf4jnsgd1na2vs0mg"},{"bike_id":"db191c83-44db-4bb3-8957-d1fc8d61a38a","system_id":"levelo_inurba_marseille","lat":43.25119,"lon":5.40317,"is_reserved":false,"is_disabled":false,"rental_uris":{"android":"levelo://app?vid=db191c83-44db-4bb3-8957-d1fc8d61a38a","ios":"levelo://app?vid=db191c83-44db-4bb3-8957-d1fc8d61a38a"},"vehicle_type_id":"4","last_reported":1753218605,"current_range_meters":11600,"station_id":"ce4bhlh2rcd13ifvqgig","pricing_plan_id":"cebpf4jnsgd1na2vs0mg"},{"bike_id":"7dbbb529-7a14-4c15-91b2-36294d397550","system_id":"levelo_inurba_marseille","lat":43.23197,"lon":5.35548,"is_reserved":false,"is_disabled":false,"rental_uris":{"android":"levelo://app?vid=7dbbb529-7a14-4c15-91b2-36294d397550","ios":"levelo://app?vid=7dbbb529-7a14-4c15-91b2-36294d397550"},"vehicle_type_id":"4","last_reported":1753218605,"current_range_meters":11600,"station_id":"ce4bhu92rcd13ifvqi70","pricing_plan_id":"cebpf4jnsgd1na2vs0mg"},{"bike_id":"4433bd94-c5b0-4a48-96c6-dd6c81bebbf0","system_id":"levelo_inurba_marseille","lat":43.32644,"lon":5.40977,"is_reserved":false,"is_disabled":false,"rental_uris":{"android":"levelo://app?vid=4433bd94-c5b0-4a48-96c6-dd6c81bebbf0","ios":"levelo://app?vid=4433bd94-c5b0-4a48-96c6-dd6c81bebbf0"},"vehicle_type_id":"4","last_reported":1753218605,"current_range_meters":11600,"station_id":"ce4bhpp2rcd13ifvqhgg","pricing_plan_id":"cebpf4jnsgd1na2vs0mg"},{"bike_id":"60bd88c8-069a-4db5-9754-662f4da96274","system_id":"levelo_inurba_marseille","lat":43.29958,"lon":5.41323,"is_reserved":false,"is_disabled":false,"rental_uris":{"android":"levelo://app?vid=60bd88c8-069a-4db5-9754-662f4da96274","ios":"levelo://app?vid=60bd88c8-069a-4db5-9754-662f4da96274"},"vehicle_type_id":"4","last_reported":1753218605,"current_range_meters":12000,"station_id":"ce4bhp12rcd13ifvqh9g","pricing_plan_id":"cebpf4jnsgd1na2vs0mg"},{"bike_id":"1c9ede40-2dd2-4e45-aa1e-9a326f5967a7","system_id":"levelo_inurba_marseille","lat":43.29515,"lon":5.39397,"is_reserved":false,"is_disabled":false,"rental_uris":{"android":"levelo://app?vid=1c9ede40-2dd2-4e45-aa1e-9a326f5967a7","ios":"levelo://app?vid=1c9ede40-2dd2-4e45-aa1e-9a326f5967a7"},"vehicle_type_id":"4","last_reported":1753218605,"current_range_meters":12000,"station_id":"ce4bh292rcd13ifvqdf0","pricing_plan_id":"cebpf4jnsgd1na2vs0mg"},{"bike_id":"52289c8f-2dc9-4c80-8d92-272e145c2039","system_id":"levelo_inurba_marseille","lat":43.21753,"lon":5.34612,"is_reserved":false,"is_disabled":false,"rental_uris":{"android":"levelo://app?vid=52289c8f-2dc9-4c80-8d92-272e145c2039","ios":"levelo://app?vid=52289c8f-2dc9-4c80-8d92-272e145c2039"},"vehicle_type_id":"4","last_reported":1753218605,"current_range_meters":12000,"station_id":"st_cvj6r9ubvosntc0bgbag","pricing_plan_id":"cebpf4jnsgd1na2vs0mg"},{"bike_id":"331d957c-8364-49e8-ac7c-ace81aa0cfd4","system_id":"levelo_inurba_marseille","lat":43.32369,"lon":5.38888,"is_reserved":false,"is_disabled":false,"rental_uris":{"android":"levelo://app?vid=331d957c-8364-49e8-ac7c-ace81aa0cfd4","ios":"levelo://app?vid=331d957c-8364-49e8-ac7c-ace81aa0cfd4"},"vehicle_type_id":"4","last_reported":1753218605,"current_range_meters":12000,"station_id":"ce4bhqp2rcd13ifvqhog","pricing_plan_id":"cebpf4jnsgd1na2vs0mg"},{"bike_id":"3522d1e5-b203-4956-bcd9-49a04e46390a","system_id":"levelo_inurba_marseille","lat":43.28001,"lon":5.40014,"is_reserved":false,"is_disabled":false,"rental_uris":{"android":"levelo://app?vid=3522d1e5-b203-4956-bcd9-49a04e46390a","ios":"levelo://app?vid=3522d1e5-b203-4956-bcd9-49a04e46390a"},"vehicle_type_id":"4","last_reported":1753218605,"current_range_meters":12000,"station_id":"ce4bho92rcd13ifvqh4g","pricing_plan_id":"cebpf4jnsgd1na2vs0mg"},{"bike_id":"47b8aae7-f1c0-4dfa-bc2e-f1264bdba72b","system_id":"levelo_inurba_marseille","lat":43.31293,"lon":5.39012,"is_reserved":false,"is_disabled":false,"rental_uris":{"android":"levelo://app?vid=47b8aae7-f1c0-4dfa-bc2e-f1264bdba72b","ios":"levelo://app?vid=47b8aae7-f1c0-4dfa-bc2e-f1264bdba72b"},"vehicle_type_id":"4","last_reported":1753218605,"current_range_meters":12000,"station_id":"","pricing_plan_id":"cebpf4jnsgd1na2vs0mg"},{"bike_id":"1a28eacd-d2c2-40ad-acea-38ff342b2427","system_id":"levelo_inurba_marseille","lat":43.29604,"lon":5.38103,"is_reserved":false,"is_disabled":false,"rental_uris":{"android":"levelo://app?vid=1a28eacd-d2c2-40ad-acea-38ff342b2427","ios":"levelo://app?vid=1a28eacd-d2c2-40ad-acea-38ff342b2427"},"vehicle_type_id":"4","last_reported":1753218605,"current_range_meters":12000,"station_id":"ce4bgl12rcd13ifvqbo0","pricing_plan_id":"cebpf4jnsgd1na2vs0mg"},{"bike_id":"24d857c5-33b8-4ce9-9ad1-372846643c69","system_id":"levelo_inurba_marseille","lat":43.30617,"lon":5.39289,"is_reserved":false,"is_disabled":false,"rental_uris":{"android":"levelo://app?vid=24d857c5-33b8-4ce9-9ad1-372846643c69","ios":"levelo://app?vid=24d857c5-33b8-4ce9-9ad1-372846643c69"},"vehicle_type_id":"4","last_reported":1753218605,"current_range_meters":12400,"station_id":"ce4bh0p2rcd13ifvqd80","pricing_plan_id":"cebpf4jnsgd1na2vs0mg"},{"bike_id":"89e5300e-f524-48d1-8669-762241baab60","system_id":"levelo_inurba_marseille","lat":43.22958,"lon":5.35391,"is_reserved":false,"is_disabled":false,"rental_uris":{"android":"levelo://app?vid=89e5300e-f524-48d1-8669-762241baab60","ios":"levelo://app?vid=89e5300e-f524-48d1-8669-762241baab60"},"vehicle_type_id":"4","last_reported":1753218605,"current_range_meters":12400,"station_id":"cpo3532slgdg3j2ikp40","pricing_plan_id":"cebpf4jnsgd1na2vs0mg"},{"bike_id":"cfcf5d1e-84fe-4bc2-9b0b-5468b403f920","system_id":"levelo_inurba_marseille","lat":43.295986,"lon":5.378057,"is_reserved":false,"is_disabled":false,"rental_uris":{"android":"levelo://app?vid=cfcf5d1e-84fe-4bc2-9b0b-5468b403f920","ios":"levelo://app?vid=cfcf5d1e-84fe-4bc2-9b0b-5468b403f920"},"vehicle_type_id":"4","last_reported":1753218605,"current_range_meters":12400,"station_id":"ce4bh612rcd13ifvqe6g","pricing_plan_id":"cebpf4jnsgd1na2vs0mg"},{"bike_id":"0c7a70d1-5257-4f92-81ea-3fbf563949dc","system_id":"levelo_inurba_marseille","lat":43.29239,"lon":5.38441,"is_reserved":false,"is_disabled":false,"rental_uris":{"android":"levelo://app?vid=0c7a70d1-5257-4f92-81ea-3fbf563949dc","ios":"levelo://app?vid=0c7a70d1-5257-4f92-81ea-3fbf563949dc"},"vehicle_type_id":"4","last_reported":1753218605,"current_range_meters":12400,"station_id":"ce4bh692rcd13ifvqea0","pricing_plan_id":"cebpf4jnsgd1na2vs0mg"},{"bike_id":"e011ef90-fb99-44dc-8482-6680775f46cf","system_id":"levelo_inurba_marseille","lat":43.29705,"lon":5.36602,"is_reserved":false,"is_disabled":false,"rental_uris":{"android":"levelo://app?vid=e011ef90-fb99-44dc-8482-6680775f46cf","ios":"levelo://app?vid=e011ef90-fb99-44dc-8482-6680775f46cf"},"vehicle_type_id":"4","last_reported":1753218605,"current_range_meters":12800,"station_id":"ce4bgn12rcd13ifvqbt0","pricing_plan_id":"cebpf4jnsgd1na2vs0mg"},{"bike_id":"f0c1c567-3404-405c-9e98-69849925e354","system_id":"levelo_inurba_marseille","lat":43.24406,"lon":5.37085,"is_reserved":false,"is_disabled":false,"rental_uris":{"android":"levelo://app?vid=f0c1c567-3404-405c-9e98-69849925e354","ios":"levelo://app?vid=f0c1c567-3404-405c-9e98-69849925e354"},"vehicle_type_id":"4","last_reported":1753218605,"current_range_meters":12800,"station_id":"ce4bhhh2rcd13ifvqfk0","pricing_plan_id":"cebpf4jnsgd1na2vs0mg"},{"bike_id":"4a35db4e-5a3f-4d45-b760-465bfb68f087","system_id":"levelo_inurba_marseille","lat":43.29279,"lon":5.36841,"is_reserved":false,"is_disabled":false,"rental_uris":{"android":"levelo://app?vid=4a35db4e-5a3f-4d45-b760-465bfb68f087","ios":"levelo://app?vid=4a35db4e-5a3f-4d45-b760-465bfb68f087"},"vehicle_type_id":"4","last_reported":1753218605,"current_range_meters":12800,"station_id":"ce4bhbp2rcd13ifvqesg","pricing_plan_id":"cebpf4jnsgd1na2vs0mg"},{"bike_id":"f1cc4863-18d9-4986-a458-7e95f6fd6178","system_id":"levelo_inurba_marseille","lat":43.30545,"lon":5.36554,"is_reserved":false,"is_disabled":false,"rental_uris":{"android":"levelo://app?vid=f1cc4863-18d9-4986-a458-7e95f6fd6178","ios":"levelo://app?vid=f1cc4863-18d9-4986-a458-7e95f6fd6178"},"vehicle_type_id":"4","last_reported":1753218605,"current_range_meters":12800,"station_id":"ce4bgs12rcd13ifvqcag","pricing_plan_id":"cebpf4jnsgd1na2vs0mg"},{"bike_id":"14dce4ef-3cdb-4379-9358-4a1fbdce8f93","system_id":"levelo_inurba_marseille","lat":43.28724,"lon":5.35203,"is_reserved":false,"is_disabled":false,"rental_uris":{"android":"levelo://app?vid=14dce4ef-3cdb-4379-9358-4a1fbdce8f93","ios":"levelo://app?vid=14dce4ef-3cdb-4379-9358-4a1fbdce8f93"},"vehicle_type_id":"4","last_reported":1753218605,"current_range_meters":12800,"station_id":"","pricing_plan_id":"cebpf4jnsgd1na2vs0mg"},{"bike_id":"c6f94700-b62b-4a08-a88f-3e41a975f0d0","system_id":"levelo_inurba_marseille","lat":43.28442,"lon":5.38559,"is_reserved":false,"is_disabled":true,"rental_uris":{"android":"levelo://app?vid=c6f94700-b62b-4a08-a88f-3e41a975f0d0","ios":"levelo://app?vid=c6f94700-b62b-4a08-a88f-3e41a975f0d0"},"vehicle_type_id":"4","last_reported":1753218605,"current_range_meters":12800,"station_id":"ce4bh8p2rcd13ifvqeb0","pricing_plan_id":"cebpf4jnsgd1na2vs0mg"},{"bike_id":"74124f40-7b28-4b7a-8c35-43ba0f799b46","system_id":"levelo_inurba_marseille","lat":43.225052,"lon":5.347857,"is_reserved":false,"is_disabled":false,"rental_uris":{"android":"levelo://app?vid=74124f40-7b28-4b7a-8c35-43ba0f799b46","ios":"levelo://app?vid=74124f40-7b28-4b7a-8c35-43ba0f799b46"},"vehicle_type_id":"4","last_reported":1753218605,"current_range_meters":12800,"station_id":"","pricing_plan_id":"cebpf4jnsgd1na2vs0mg"},{"bike_id":"05d42747-d0a7-485b-804a-c208d042127e","system_id":"levelo_inurba_marseille","lat":43.241744,"lon":5.363938,"is_reserved":false,"is_disabled":false,"rental_uris":{"android":"levelo://app?vid=05d42747-d0a7-485b-804a-c208d042127e","ios":"levelo://app?vid=05d42747-d0a7-485b-804a-c208d042127e"},"vehicle_type_id":"4","last_reported":1753218605,"current_range_meters":12800,"station_id":"cpo36qri1sfpv3e86is0","pricing_plan_id":"cebpf4jnsgd1na2vs0mg"},{"bike_id":"aa5097b6-6968-4aec-b711-e7780938924b","system_id":"levelo_inurba_marseille","lat":43.32954,"lon":5.359,"is_reserved":false,"is_disabled":false,"rental_uris":{"android":"levelo://app?vid=aa5097b6-6968-4aec-b711-e7780938924b","ios":"levelo://app?vid=aa5097b6-6968-4aec-b711-e7780938924b"},"vehicle_type_id":"4","last_reported":1753218605,"current_range_meters":12800,"station_id":"","pricing_plan_id":"cebpf4jnsgd1na2vs0mg"},{"bike_id":"1d2a2034-e546-46ab-9953-5221647be86a","system_id":"levelo_inurba_marseille","lat":43.31491,"lon":5.37307,"is_reserved":false,"is_disabled":false,"rental_uris":{"android":"levelo://app?vid=1d2a2034-e546-46ab-9953-5221647be86a","ios":"levelo://app?vid=1d2a2034-e546-46ab-9953-5221647be86a"},"vehicle_type_id":"4","last_reported":1753218605,"current_range_meters":13600,"station_id":"ce4bgt12rcd13ifvqcd0","pricing_plan_id":"cebpf4jnsgd1na2vs0mg"},{"bike_id":"f7d24d79-fb73-44fe-a579-eccbe39a5e1e","system_id":"levelo_inurba_marseille","lat":43.24171,"lon":5.36405,"is_reserved":false,"is_disabled":false,"rental_uris":{"android":"levelo://app?vid=f7d24d79-fb73-44fe-a579-eccbe39a5e1e","ios":"levelo://app?vid=f7d24d79-fb73-44fe-a579-eccbe39a5e1e"},"vehicle_type_id":"4","last_reported":1753218605,"current_range_meters":13600,"station_id":"cpo36qri1sfpv3e86is0","pricing_plan_id":"cebpf4jnsgd1na2vs0mg"},{"bike_id":"c9dbd36b-479c-4a5c-b200-3aa7673340d9","system_id":"levelo_inurba_marseille","lat":43.241448,"lon":5.363743,"is_reserved":false,"is_disabled":false,"rental_uris":{"android":"levelo://app?vid=c9dbd36b-479c-4a5c-b200-3aa7673340d9","ios":"levelo://app?vid=c9dbd36b-479c-4a5c-b200-3aa7673340d9"},"vehicle_type_id":"4","last_reported":1753218605,"current_range_meters":13600,"station_id":"","pricing_plan_id":"cebpf4jnsgd1na2vs0mg"},{"bike_id":"1738d951-1025-410a-8c7d-a423eb90ac30","system_id":"levelo_inurba_marseille","lat":43.28357,"lon":5.38112,"is_reserved":false,"is_disabled":false,"rental_uris":{"android":"levelo://app?vid=1738d951-1025-410a-8c7d-a423eb90ac30","ios":"levelo://app?vid=1738d951-1025-410a-8c7d-a423eb90ac30"},"vehicle_type_id":"4","last_reported":1753218605,"current_range_meters":13600,"station_id":"ce4bh412rcd13ifvqdr0","pricing_plan_id":"cebpf4jnsgd1na2vs0mg"},{"bike_id":"85b65ca0-7365-40fb-8905-5a0638bc8593","system_id":"levelo_inurba_marseille","lat":43.2294,"lon":5.35388,"is_reserved":false,"is_disabled":false,"rental_uris":{"android":"levelo://app?vid=85b65ca0-7365-40fb-8905-5a0638bc8593","ios":"levelo://app?vid=85b65ca0-7365-40fb-8905-5a0638bc8593"},"vehicle_type_id":"4","last_reported":1753218605,"current_range_meters":13600,"station_id":"cpo3532slgdg3j2ikp40","pricing_plan_id":"cebpf4jnsgd1na2vs0mg"},{"bike_id":"74566338-da79-46b2-9e0a-87427f28c699","system_id":"levelo_inurba_marseille","lat":43.29874,"lon":5.3892,"is_reserved":false,"is_disabled":false,"rental_uris":{"android":"levelo://app?vid=74566338-da79-46b2-9e0a-87427f28c699","ios":"levelo://app?vid=74566338-da79-46b2-9e0a-87427f28c699"},"vehicle_type_id":"4","last_reported":1753218605,"current_range_meters":13600,"station_id":"ce4bh392rcd13ifvqdl0","pricing_plan_id":"cebpf4jnsgd1na2vs0mg"},{"bike_id":"14ccb160-29ff-436c-b37f-91da99a35cc9","system_id":"levelo_inurba_marseille","lat":43.31069,"lon":5.38348,"is_reserved":false,"is_disabled":false,"rental_uris":{"android":"levelo://app?vid=14ccb160-29ff-436c-b37f-91da99a35cc9","ios":"levelo://app?vid=14ccb160-29ff-436c-b37f-91da99a35cc9"},"vehicle_type_id":"4","last_reported":1753218605,"current_range_meters":13600,"station_id":"ce4bgv92rcd13ifvqcr0","pricing_plan_id":"cebpf4jnsgd1na2vs0mg"},{"bike_id":"dfb70569-575b-4627-ace4-b72c9d7227f9","system_id":"levelo_inurba_marseille","lat":43.24057,"lon":5.3775,"is_reserved":false,"is_disabled":false,"rental_uris":{"android":"levelo://app?vid=dfb70569-575b-4627-ace4-b72c9d7227f9","ios":"levelo://app?vid=dfb70569-575b-4627-ace4-b72c9d7227f9"},"vehicle_type_id":"4","last_reported":1753218605,"current_range_meters":14000,"station_id":"ce4bhnp2rcd13ifvqgvg","pricing_plan_id":"cebpf4jnsgd1na2vs0mg"},{"bike_id":"356040ad-1162-4af2-a60b-9e46effaf81e","system_id":"levelo_inurba_marseille","lat":43.29529,"lon":5.394,"is_reserved":false,"is_disabled":false,"rental_uris":{"android":"levelo://app?vid=356040ad-1162-4af2-a60b-9e46effaf81e","ios":"levelo://app?vid=356040ad-1162-4af2-a60b-9e46effaf81e"},"vehicle_type_id":"4","last_reported":1753218605,"current_range_meters":14000,"station_id":"ce4bh292rcd13ifvqdf0","pricing_plan_id":"cebpf4jnsgd1na2vs0mg"},{"bike_id":"2354a578-b732-43f4-ac7f-14badb5b4c61","system_id":"levelo_inurba_marseille","lat":43.2251,"lon":5.34793,"is_reserved":false,"is_disabled":false,"rental_uris":{"android":"levelo://app?vid=2354a578-b732-43f4-ac7f-14badb5b4c61","ios":"levelo://app?vid=2354a578-b732-43f4-ac7f-14badb5b4c61"},"vehicle_type_id":"4","last_reported":1753218605,"current_range_meters":14000,"station_id":"st_cvj5dfep6f1abm77gieg","pricing_plan_id":"cebpf4jnsgd1na2vs0mg"},{"bike_id":"f9c9ff83-8548-4acb-a33b-495af4adeef4","system_id":"levelo_inurba_marseille","lat":43.3236,"lon":5.36723,"is_reserved":false,"is_disabled":false,"rental_uris":{"android":"levelo://app?vid=f9c9ff83-8548-4acb-a33b-495af4adeef4","ios":"levelo://app?vid=f9c9ff83-8548-4acb-a33b-495af4adeef4"},"vehicle_type_id":"4","last_reported":1753218605,"current_range_meters":14000,"station_id":"ce4bhsh2rcd13ifvqi2g","pricing_plan_id":"cebpf4jnsgd1na2vs0mg"},{"bike_id":"9325a0ea-0562-4d1b-bba7-267057bee759","system_id":"levelo_inurba_marseille","lat":43.24662,"lon":5.38169,"is_reserved":false,"is_disabled":false,"rental_uris":{"android":"levelo://app?vid=9325a0ea-0562-4d1b-bba7-267057bee759","ios":"levelo://app?vid=9325a0ea-0562-4d1b-bba7-267057bee759"},"vehicle_type_id":"4","last_reported":1753218605,"current_range_meters":13600,"station_id":"ce4bhih2rcd13ifvqfr0","pricing_plan_id":"cebpf4jnsgd1na2vs0mg"},{"bike_id":"f04af0ce-35ee-4802-af13-2cf1cd15950b","system_id":"levelo_inurba_marseille","lat":43.29586,"lon":5.38111,"is_reserved":false,"is_disabled":false,"rental_uris":{"android":"levelo://app?vid=f04af0ce-35ee-4802-af13-2cf1cd15950b","ios":"levelo://app?vid=f04af0ce-35ee-4802-af13-2cf1cd15950b"},"vehicle_type_id":"4","last_reported":1753218605,"current_range_meters":14000,"station_id":"ce4bgl12rcd13ifvqbo0","pricing_plan_id":"cebpf4jnsgd1na2vs0mg"},{"bike_id":"a642de60-b36d-49cc-9f3d-68bea4476ea7","system_id":"levelo_inurba_marseille","lat":43.26023,"lon":5.37565,"is_reserved":false,"is_disabled":false,"rental_uris":{"android":"levelo://app?vid=a642de60-b36d-49cc-9f3d-68bea4476ea7","ios":"levelo://app?vid=a642de60-b36d-49cc-9f3d-68bea4476ea7"},"vehicle_type_id":"4","last_reported":1753218605,"current_range_meters":14000,"station_id":"ce4bhgh2rcd13ifvqfa0","pricing_plan_id":"cebpf4jnsgd1na2vs0mg"},{"bike_id":"b8157e49-d09e-4d5e-90fd-5d667c09b9a5","system_id":"levelo_inurba_marseille","lat":43.29058,"lon":5.3717,"is_reserved":false,"is_disabled":true,"rental_uris":{"android":"levelo://app?vid=b8157e49-d09e-4d5e-90fd-5d667c09b9a5","ios":"levelo://app?vid=b8157e49-d09e-4d5e-90fd-5d667c09b9a5"},"vehicle_type_id":"4","last_reported":1753218605,"current_range_meters":14000,"station_id":"ce4bgh92rcd13ifvqb40","pricing_plan_id":"cebpf4jnsgd1na2vs0mg"},{"bike_id":"4f49f800-124a-4848-b2d5-b9087fb98c0b","system_id":"levelo_inurba_marseille","lat":43.30224,"lon":5.39471,"is_reserved":false,"is_disabled":false,"rental_uris":{"android":"levelo://app?vid=4f49f800-124a-4848-b2d5-b9087fb98c0b","ios":"levelo://app?vid=4f49f800-124a-4848-b2d5-b9087fb98c0b"},"vehicle_type_id":"4","last_reported":1753218605,"current_range_meters":14000,"station_id":"ce4bh0p2rcd13ifvqd70","pricing_plan_id":"cebpf4jnsgd1na2vs0mg"},{"bike_id":"1814aead-c7f1-4b20-8570-698d90166305","system_id":"levelo_inurba_marseille","lat":43.2582,"lon":5.39438,"is_reserved":false,"is_disabled":true,"rental_uris":{"android":"levelo://app?vid=1814aead-c7f1-4b20-8570-698d90166305","ios":"levelo://app?vid=1814aead-c7f1-4b20-8570-698d90166305"},"vehicle_type_id":"4","last_reported":1753218605,"current_range_meters":14000,"station_id":"ce4bhih2rcd13ifvqfr0","pricing_plan_id":"cebpf4jnsgd1na2vs0mg"},{"bike_id":"3c21b9e1-b296-4844-a6d5-b8d19c7f36c9","system_id":"levelo_inurba_marseille","lat":43.29191,"lon":5.38451,"is_reserved":false,"is_disabled":false,"rental_uris":{"android":"levelo://app?vid=3c21b9e1-b296-4844-a6d5-b8d19c7f36c9","ios":"levelo://app?vid=3c21b9e1-b296-4844-a6d5-b8d19c7f36c9"},"vehicle_type_id":"4","last_reported":1753218605,"current_range_meters":14000,"station_id":"","pricing_plan_id":"cebpf4jnsgd1na2vs0mg"},{"bike_id":"72576955-e119-40d4-89ab-e52fbaca2af9","system_id":"levelo_inurba_marseille","lat":43.26395,"lon":5.40821,"is_reserved":false,"is_disabled":false,"rental_uris":{"android":"levelo://app?vid=72576955-e119-40d4-89ab-e52fbaca2af9","ios":"levelo://app?vid=72576955-e119-40d4-89ab-e52fbaca2af9"},"vehicle_type_id":"4","last_reported":1753218605,"current_range_meters":14000,"station_id":"","pricing_plan_id":"cebpf4jnsgd1na2vs0mg"},{"bike_id":"a3c91e3d-fc14-404a-9d55-d141affaa7cb","system_id":"levelo_inurba_marseille","lat":43.3088,"lon":5.39636,"is_reserved":false,"is_disabled":false,"rental_uris":{"android":"levelo://app?vid=a3c91e3d-fc14-404a-9d55-d141affaa7cb","ios":"levelo://app?vid=a3c91e3d-fc14-404a-9d55-d141affaa7cb"},"vehicle_type_id":"4","last_reported":1753218605,"current_range_meters":14400,"station_id":"ce4bh012rcd13ifvqcv0","pricing_plan_id":"cebpf4jnsgd1na2vs0mg"},{"bike_id":"4b7e1140-f850-42d8-8abf-a703996a9176","system_id":"levelo_inurba_marseille","lat":43.30851,"lon":5.39659,"is_reserved":false,"is_disabled":false,"rental_uris":{"android":"levelo://app?vid=4b7e1140-f850-42d8-8abf-a703996a9176","ios":"levelo://app?vid=4b7e1140-f850-42d8-8abf-a703996a9176"},"vehicle_type_id":"4","last_reported":1753218605,"current_range_meters":14400,"station_id":"ce4bh012rcd13ifvqcv0","pricing_plan_id":"cebpf4jnsgd1na2vs0mg"},{"bike_id":"7c6e0bb1-b4be-40a5-899e-f7c0467e78f8","system_id":"levelo_inurba_marseille","lat":43.29261,"lon":5.37623,"is_reserved":false,"is_disabled":false,"rental_uris":{"android":"levelo://app?vid=7c6e0bb1-b4be-40a5-899e-f7c0467e78f8","ios":"levelo://app?vid=7c6e0bb1-b4be-40a5-899e-f7c0467e78f8"},"vehicle_type_id":"4","last_reported":1753218605,"current_range_meters":14400,"station_id":"ce4bgi12rcd13ifvqb80","pricing_plan_id":"cebpf4jnsgd1na2vs0mg"},{"bike_id":"ea663d1d-55ee-48c2-9d7a-f8c09f0385a8","system_id":"levelo_inurba_marseille","lat":43.29869,"lon":5.39737,"is_reserved":false,"is_disabled":false,"rental_uris":{"android":"levelo://app?vid=ea663d1d-55ee-48c2-9d7a-f8c09f0385a8","ios":"levelo://app?vid=ea663d1d-55ee-48c2-9d7a-f8c09f0385a8"},"vehicle_type_id":"4","last_reported":1753218605,"current_range_meters":14400,"station_id":"ce4bh0h2rcd13ifvqd50","pricing_plan_id":"cebpf4jnsgd1na2vs0mg"},{"bike_id":"1e6792f6-e23b-4a70-9f0d-cfc180638578","system_id":"levelo_inurba_marseille","lat":43.27413,"lon":5.39416,"is_reserved":false,"is_disabled":false,"rental_uris":{"android":"levelo://app?vid=1e6792f6-e23b-4a70-9f0d-cfc180638578","ios":"levelo://app?vid=1e6792f6-e23b-4a70-9f0d-cfc180638578"},"vehicle_type_id":"4","last_reported":1753218605,"current_range_meters":14400,"station_id":"ce4bhgp2rcd13ifvqfe0","pricing_plan_id":"cebpf4jnsgd1na2vs0mg"},{"bike_id":"c774f4c2-bc5f-4cf6-9563-a432097878f3","system_id":"levelo_inurba_marseille","lat":43.29197,"lon":5.358,"is_reserved":false,"is_disabled":false,"rental_uris":{"android":"levelo://app?vid=c774f4c2-bc5f-4cf6-9563-a432097878f3","ios":"levelo://app?vid=c774f4c2-bc5f-4cf6-9563-a432097878f3"},"vehicle_type_id":"4","last_reported":1753218605,"current_range_meters":14400,"station_id":"ce4bhb12rcd13ifvqel0","pricing_plan_id":"cebpf4jnsgd1na2vs0mg"},{"bike_id":"e44893bb-5cdf-4921-b4e8-39ee578180a1","system_id":"levelo_inurba_marseille","lat":43.24092,"lon":5.37768,"is_reserved":false,"is_disabled":false,"rental_uris":{"android":"levelo://app?vid=e44893bb-5cdf-4921-b4e8-39ee578180a1","ios":"levelo://app?vid=e44893bb-5cdf-4921-b4e8-39ee578180a1"},"vehicle_type_id":"4","last_reported":1753218605,"current_range_meters":14400,"station_id":"ce4bhnp2rcd13ifvqgvg","pricing_plan_id":"cebpf4jnsgd1na2vs0mg"},{"bike_id":"64493569-96d5-4062-836d-ee3198d6bee4","system_id":"levelo_inurba_marseille","lat":43.251157,"lon":5.40317,"is_reserved":false,"is_disabled":false,"rental_uris":{"android":"levelo://app?vid=64493569-96d5-4062-836d-ee3198d6bee4","ios":"levelo://app?vid=64493569-96d5-4062-836d-ee3198d6bee4"},"vehicle_type_id":"4","last_reported":1753218605,"current_range_meters":14800,"station_id":"ce4bhlh2rcd13ifvqgig","pricing_plan_id":"cebpf4jnsgd1na2vs0mg"},{"bike_id":"c7961dde-1f83-4665-ba7f-9fad410e721e","system_id":"levelo_inurba_marseille","lat":43.31077,"lon":5.38349,"is_reserved":false,"is_disabled":false,"rental_uris":{"android":"levelo://app?vid=c7961dde-1f83-4665-ba7f-9fad410e721e","ios":"levelo://app?vid=c7961dde-1f83-4665-ba7f-9fad410e721e"},"vehicle_type_id":"4","last_reported":1753218605,"current_range_meters":14800,"station_id":"ce4bgv92rcd13ifvqcr0","pricing_plan_id":"cebpf4jnsgd1na2vs0mg"},{"bike_id":"535ecc09-6590-40fa-a131-69903ee7e903","system_id":"levelo_inurba_marseille","lat":43.29786,"lon":5.39339,"is_reserved":false,"is_disabled":false,"rental_uris":{"android":"levelo://app?vid=535ecc09-6590-40fa-a131-69903ee7e903","ios":"levelo://app?vid=535ecc09-6590-40fa-a131-69903ee7e903"},"vehicle_type_id":"4","last_reported":1753218605,"current_range_meters":14800,"station_id":"chh1huq6cuj3fo74tm60","pricing_plan_id":"cebpf4jnsgd1na2vs0mg"},{"bike_id":"f7b9c3dd-5a48-4223-9e16-fc94c12023fb","system_id":"levelo_inurba_marseille","lat":43.30792,"lon":5.37648,"is_reserved":false,"is_disabled":false,"rental_uris":{"android":"levelo://app?vid=f7b9c3dd-5a48-4223-9e16-fc94c12023fb","ios":"levelo://app?vid=f7b9c3dd-5a48-4223-9e16-fc94c12023fb"},"vehicle_type_id":"4","last_reported":1753218605,"current_range_meters":14800,"station_id":"ce4bgv92rcd13ifvqcq0","pricing_plan_id":"cebpf4jnsgd1na2vs0mg"},{"bike_id":"fe50cf1d-fc61-4e48-98f2-ea42037cc2b3","system_id":"levelo_inurba_marseille","lat":43.22921,"lon":5.35373,"is_reserved":false,"is_disabled":false,"rental_uris":{"android":"levelo://app?vid=fe50cf1d-fc61-4e48-98f2-ea42037cc2b3","ios":"levelo://app?vid=fe50cf1d-fc61-4e48-98f2-ea42037cc2b3"},"vehicle_type_id":"4","last_reported":1753218605,"current_range_meters":14800,"station_id":"cpo3532slgdg3j2ikp40","pricing_plan_id":"cebpf4jnsgd1na2vs0mg"},{"bike_id":"0ea7a10a-9a1f-48d6-ba0c-cd300cee1999","system_id":"levelo_inurba_marseille","lat":43.27066,"lon":5.42291,"is_reserved":false,"is_disabled":false,"rental_uris":{"android":"levelo://app?vid=0ea7a10a-9a1f-48d6-ba0c-cd300cee1999","ios":"levelo://app?vid=0ea7a10a-9a1f-48d6-ba0c-cd300cee1999"},"vehicle_type_id":"4","last_reported":1753218605,"current_range_meters":14800,"station_id":"ce4bhk92rcd13ifvqgb0","pricing_plan_id":"cebpf4jnsgd1na2vs0mg"},{"bike_id":"d3eea4a0-76ba-4059-ba6b-c1ecd6270925","system_id":"levelo_inurba_marseille","lat":43.21198,"lon":5.35086,"is_reserved":false,"is_disabled":false,"rental_uris":{"android":"levelo://app?vid=d3eea4a0-76ba-4059-ba6b-c1ecd6270925","ios":"levelo://app?vid=d3eea4a0-76ba-4059-ba6b-c1ecd6270925"},"vehicle_type_id":"4","last_reported":1753218605,"current_range_meters":15200,"station_id":"st_cvj6sg6p6f1abm77japg","pricing_plan_id":"cebpf4jnsgd1na2vs0mg"},{"bike_id":"2a1b4af5-6af6-4f64-b15d-d54e276cdf73","system_id":"levelo_inurba_marseille","lat":43.29969,"lon":5.38517,"is_reserved":false,"is_disabled":false,"rental_uris":{"android":"levelo://app?vid=2a1b4af5-6af6-4f64-b15d-d54e276cdf73","ios":"levelo://app?vid=2a1b4af5-6af6-4f64-b15d-d54e276cdf73"},"vehicle_type_id":"4","last_reported":1753218605,"current_range_meters":15200,"station_id":"ce4bgj92rcd13ifvqbd0","pricing_plan_id":"cebpf4jnsgd1na2vs0mg"},{"bike_id":"fb51b7d6-b62a-4bec-ba1c-4aac15b3ac8e","system_id":"levelo_inurba_marseille","lat":43.2762,"lon":5.36109,"is_reserved":false,"is_disabled":false,"rental_uris":{"android":"levelo://app?vid=fb51b7d6-b62a-4bec-ba1c-4aac15b3ac8e","ios":"levelo://app?vid=fb51b7d6-b62a-4bec-ba1c-4aac15b3ac8e"},"vehicle_type_id":"4","last_reported":1753218605,"current_range_meters":15200,"station_id":"ce4bgj92rcd13ifvqbe0","pricing_plan_id":"cebpf4jnsgd1na2vs0mg"},{"bike_id":"5f939e31-b016-450d-a865-6c7b859d10c2","system_id":"levelo_inurba_marseille","lat":43.28697,"lon":5.37393,"is_reserved":false,"is_disabled":false,"rental_uris":{"android":"levelo://app?vid=5f939e31-b016-450d-a865-6c7b859d10c2","ios":"levelo://app?vid=5f939e31-b016-450d-a865-6c7b859d10c2"},"vehicle_type_id":"4","last_reported":1753218605,"current_range_meters":15200,"station_id":"ce4bh3p2rcd13ifvqdq0","pricing_plan_id":"cebpf4jnsgd1na2vs0mg"},{"bike_id":"43a915db-082e-4ccc-9781-e6e7248ab853","system_id":"levelo_inurba_marseille","lat":43.31075,"lon":5.38349,"is_reserved":false,"is_disabled":false,"rental_uris":{"android":"levelo://app?vid=43a915db-082e-4ccc-9781-e6e7248ab853","ios":"levelo://app?vid=43a915db-082e-4ccc-9781-e6e7248ab853"},"vehicle_type_id":"4","last_reported":1753218605,"current_range_meters":15200,"station_id":"ce4bgv92rcd13ifvqcr0","pricing_plan_id":"cebpf4jnsgd1na2vs0mg"},{"bike_id":"bcc6bc29-7fae-4f03-8856-ee1e25299c76","system_id":"levelo_inurba_marseille","lat":43.30087,"lon":5.39067,"is_reserved":false,"is_disabled":false,"rental_uris":{"android":"levelo://app?vid=bcc6bc29-7fae-4f03-8856-ee1e25299c76","ios":"levelo://app?vid=bcc6bc29-7fae-4f03-8856-ee1e25299c76"},"vehicle_type_id":"4","last_reported":1753218605,"current_range_meters":14800,"station_id":"ce4bh192rcd13ifvqdb0","pricing_plan_id":"cebpf4jnsgd1na2vs0mg"},{"bike_id":"8e6b8fb4-b52b-417c-af31-79aa8bf4509c","system_id":"levelo_inurba_marseille","lat":43.30654,"lon":5.40077,"is_reserved":false,"is_disabled":false,"rental_uris":{"android":"levelo://app?vid=8e6b8fb4-b52b-417c-af31-79aa8bf4509c","ios":"levelo://app?vid=8e6b8fb4-b52b-417c-af31-79aa8bf4509c"},"vehicle_type_id":"4","last_reported":1753218605,"current_range_meters":16000,"station_id":"ce4bh112rcd13ifvqda0","pricing_plan_id":"cebpf4jnsgd1na2vs0mg"},{"bike_id":"28274406-e950-4679-a750-aafaa517a1e7","system_id":"levelo_inurba_marseille","lat":43.29259,"lon":5.40899,"is_reserved":false,"is_disabled":false,"rental_uris":{"android":"levelo://app?vid=28274406-e950-4679-a750-aafaa517a1e7","ios":"levelo://app?vid=28274406-e950-4679-a750-aafaa517a1e7"},"vehicle_type_id":"4","last_reported":1753218605,"current_range_meters":16000,"station_id":"ce4bh192rcd13ifvqdc0","pricing_plan_id":"cebpf4jnsgd1na2vs0mg"},{"bike_id":"d26281fd-2a07-44cf-ae5e-1ca4c1f8938d","system_id":"levelo_inurba_marseille","lat":43.24809,"lon":5.37454,"is_reserved":false,"is_disabled":false,"rental_uris":{"android":"levelo://app?vid=d26281fd-2a07-44cf-ae5e-1ca4c1f8938d","ios":"levelo://app?vid=d26281fd-2a07-44cf-ae5e-1ca4c1f8938d"},"vehicle_type_id":"4","last_reported":1753218605,"current_range_meters":16000,"station_id":"ce4bhgh2rcd13ifvqfb0","pricing_plan_id":"cebpf4jnsgd1na2vs0mg"},{"bike_id":"7f63f9a0-7ea4-40f1-844d-1425837a99f2","system_id":"levelo_inurba_marseille","lat":43.29669,"lon":5.3802,"is_reserved":false,"is_disabled":false,"rental_uris":{"android":"levelo://app?vid=7f63f9a0-7ea4-40f1-844d-1425837a99f2","ios":"levelo://app?vid=7f63f9a0-7ea4-40f1-844d-1425837a99f2"},"vehicle_type_id":"4","last_reported":1753218605,"current_range_meters":16000,"station_id":"","pricing_plan_id":"cebpf4jnsgd1na2vs0mg"},{"bike_id":"093c2cb0-1994-4bd3-a77d-f6c63ce5413a","system_id":"levelo_inurba_marseille","lat":43.22511,"lon":5.34775,"is_reserved":false,"is_disabled":true,"rental_uris":{"android":"levelo://app?vid=093c2cb0-1994-4bd3-a77d-f6c63ce5413a","ios":"levelo://app?vid=093c2cb0-1994-4bd3-a77d-f6c63ce5413a"},"vehicle_type_id":"4","last_reported":1753218605,"current_range_meters":16000,"station_id":"st_cvj5dfep6f1abm77gieg","pricing_plan_id":"cebpf4jnsgd1na2vs0mg"},{"bike_id":"48af5488-6afa-46d8-b781-df5aa91844e8","system_id":"levelo_inurba_marseille","lat":43.31377,"lon":5.38517,"is_reserved":false,"is_disabled":false,"rental_uris":{"android":"levelo://app?vid=48af5488-6afa-46d8-b781-df5aa91844e8","ios":"levelo://app?vid=48af5488-6afa-46d8-b781-df5aa91844e8"},"vehicle_type_id":"4","last_reported":1753218605,"current_range_meters":16000,"station_id":"ce4bgt92rcd13ifvqcf0","pricing_plan_id":"cebpf4jnsgd1na2vs0mg"},{"bike_id":"650db757-2eee-41d7-bbf5-735668e2866a","system_id":"levelo_inurba_marseille","lat":43.25121,"lon":5.40322,"is_reserved":false,"is_disabled":false,"rental_uris":{"android":"levelo://app?vid=650db757-2eee-41d7-bbf5-735668e2866a","ios":"levelo://app?vid=650db757-2eee-41d7-bbf5-735668e2866a"},"vehicle_type_id":"4","last_reported":1753218605,"current_range_meters":16000,"station_id":"ce4bhlh2rcd13ifvqgig","pricing_plan_id":"cebpf4jnsgd1na2vs0mg"},{"bike_id":"44b70f3f-5c1c-4948-a533-634ec93fa322","system_id":"levelo_inurba_marseille","lat":43.33441,"lon":5.40083,"is_reserved":false,"is_disabled":false,"rental_uris":{"android":"levelo://app?vid=44b70f3f-5c1c-4948-a533-634ec93fa322","ios":"levelo://app?vid=44b70f3f-5c1c-4948-a533-634ec93fa322"},"vehicle_type_id":"4","last_reported":1753218605,"current_range_meters":16000,"station_id":"","pricing_plan_id":"cebpf4jnsgd1na2vs0mg"},{"bike_id":"8f27d8cb-cab0-4ad7-a6e2-98d698605d17","system_id":"levelo_inurba_marseille","lat":43.251133,"lon":5.403191,"is_reserved":false,"is_disabled":false,"rental_uris":{"android":"levelo://app?vid=8f27d8cb-cab0-4ad7-a6e2-98d698605d17","ios":"levelo://app?vid=8f27d8cb-cab0-4ad7-a6e2-98d698605d17"},"vehicle_type_id":"4","last_reported":1753218605,"current_range_meters":16400,"station_id":"","pricing_plan_id":"cebpf4jnsgd1na2vs0mg"},{"bike_id":"6912b39d-9a51-46c2-9a88-bea38d6a7e23","system_id":"levelo_inurba_marseille","lat":43.29874,"lon":5.38927,"is_reserved":false,"is_disabled":false,"rental_uris":{"android":"levelo://app?vid=6912b39d-9a51-46c2-9a88-bea38d6a7e23","ios":"levelo://app?vid=6912b39d-9a51-46c2-9a88-bea38d6a7e23"},"vehicle_type_id":"4","last_reported":1753218605,"current_range_meters":16400,"station_id":"ce4bh392rcd13ifvqdl0","pricing_plan_id":"cebpf4jnsgd1na2vs0mg"},{"bike_id":"cc926983-7496-48df-9677-b8723ddc96b9","system_id":"levelo_inurba_marseille","lat":43.22936,"lon":5.35377,"is_reserved":false,"is_disabled":false,"rental_uris":{"android":"levelo://app?vid=cc926983-7496-48df-9677-b8723ddc96b9","ios":"levelo://app?vid=cc926983-7496-48df-9677-b8723ddc96b9"},"vehicle_type_id":"4","last_reported":1753218605,"current_range_meters":16400,"station_id":"cpo3532slgdg3j2ikp40","pricing_plan_id":"cebpf4jnsgd1na2vs0mg"},{"bike_id":"b461780b-2a4b-4e08-994e-d300a01c475a","system_id":"levelo_inurba_marseille","lat":43.29531,"lon":5.39054,"is_reserved":false,"is_disabled":false,"rental_uris":{"android":"levelo://app?vid=b461780b-2a4b-4e08-994e-d300a01c475a","ios":"levelo://app?vid=b461780b-2a4b-4e08-994e-d300a01c475a"},"vehicle_type_id":"4","last_reported":1753218605,"current_range_meters":16400,"station_id":"ce4bh3p2rcd13ifvqdp0","pricing_plan_id":"cebpf4jnsgd1na2vs0mg"},{"bike_id":"9a143ed1-a3c7-421c-a22c-84e79d27e230","system_id":"levelo_inurba_marseille","lat":43.28409,"lon":5.35017,"is_reserved":false,"is_disabled":true,"rental_uris":{"android":"levelo://app?vid=9a143ed1-a3c7-421c-a22c-84e79d27e230","ios":"levelo://app?vid=9a143ed1-a3c7-421c-a22c-84e79d27e230"},"vehicle_type_id":"4","last_reported":1753218605,"current_range_meters":16400,"station_id":"ce4bhbh2rcd13ifvqepg","pricing_plan_id":"cebpf4jnsgd1na2vs0mg"},{"bike_id":"db4f7d16-4447-4752-b9fa-314b60a317e8","system_id":"levelo_inurba_marseille","lat":43.29905,"lon":5.37933,"is_reserved":false,"is_disabled":false,"rental_uris":{"android":"levelo://app?vid=db4f7d16-4447-4752-b9fa-314b60a317e8","ios":"levelo://app?vid=db4f7d16-4447-4752-b9fa-314b60a317e8"},"vehicle_type_id":"4","last_reported":1753218605,"current_range_meters":16400,"station_id":"","pricing_plan_id":"cebpf4jnsgd1na2vs0mg"},{"bike_id":"433d457c-a5fb-4a79-8eef-bdd9237750e1","system_id":"levelo_inurba_marseille","lat":43.29513,"lon":5.39047,"is_reserved":false,"is_disabled":false,"rental_uris":{"android":"levelo://app?vid=433d457c-a5fb-4a79-8eef-bdd9237750e1","ios":"levelo://app?vid=433d457c-a5fb-4a79-8eef-bdd9237750e1"},"vehicle_type_id":"4","last_reported":1753218605,"current_range_meters":16400,"station_id":"ce4bh3p2rcd13ifvqdp0","pricing_plan_id":"cebpf4jnsgd1na2vs0mg"},{"bike_id":"bd8b3fb1-321c-4e37-81e9-99c1f736b8c6","system_id":"levelo_inurba_marseille","lat":43.28728,"lon":5.36072,"is_reserved":false,"is_disabled":false,"rental_uris":{"android":"levelo://app?vid=bd8b3fb1-321c-4e37-81e9-99c1f736b8c6","ios":"levelo://app?vid=bd8b3fb1-321c-4e37-81e9-99c1f736b8c6"},"vehicle_type_id":"4","last_reported":1753218605,"current_range_meters":16400,"station_id":"cki0cbj6b192h4jlfktg","pricing_plan_id":"cebpf4jnsgd1na2vs0mg"},{"bike_id":"ae656939-3fcc-45d6-8bd7-56d0b99d5384","system_id":"levelo_inurba_marseille","lat":43.28959,"lon":5.36444,"is_reserved":false,"is_disabled":false,"rental_uris":{"android":"levelo://app?vid=ae656939-3fcc-45d6-8bd7-56d0b99d5384","ios":"levelo://app?vid=ae656939-3fcc-45d6-8bd7-56d0b99d5384"},"vehicle_type_id":"4","last_reported":1753218605,"current_range_meters":16400,"station_id":"","pricing_plan_id":"cebpf4jnsgd1na2vs0mg"},{"bike_id":"fe07410f-2ac3-4d42-a644-c798c7a25a84","system_id":"levelo_inurba_marseille","lat":43.26571,"lon":5.372879,"is_reserved":false,"is_disabled":false,"rental_uris":{"android":"levelo://app?vid=fe07410f-2ac3-4d42-a644-c798c7a25a84","ios":"levelo://app?vid=fe07410f-2ac3-4d42-a644-c798c7a25a84"},"vehicle_type_id":"4","last_reported":1753218605,"current_range_meters":16400,"station_id":"","pricing_plan_id":"cebpf4jnsgd1na2vs0mg"},{"bike_id":"f80f42bd-0da5-4ce7-89cf-040dcd98cefe","system_id":"levelo_inurba_marseille","lat":43.28726,"lon":5.37949,"is_reserved":false,"is_disabled":false,"rental_uris":{"android":"levelo://app?vid=f80f42bd-0da5-4ce7-89cf-040dcd98cefe","ios":"levelo://app?vid=f80f42bd-0da5-4ce7-89cf-040dcd98cefe"},"vehicle_type_id":"4","last_reported":1753218605,"current_range_meters":16400,"station_id":"ce4bh9p2rcd13ifvqec0","pricing_plan_id":"cebpf4jnsgd1na2vs0mg"},{"bike_id":"274edca9-b562-4cb0-8e1a-0bddf66bc358","system_id":"levelo_inurba_marseille","lat":43.29227,"lon":5.39346,"is_reserved":false,"is_disabled":false,"rental_uris":{"android":"levelo://app?vid=274edca9-b562-4cb0-8e1a-0bddf66bc358","ios":"levelo://app?vid=274edca9-b562-4cb0-8e1a-0bddf66bc358"},"vehicle_type_id":"4","last_reported":1753218605,"current_range_meters":16400,"station_id":"ce4bh192rcd13ifvqdd0","pricing_plan_id":"cebpf4jnsgd1na2vs0mg"},{"bike_id":"fb0f45ea-8473-47f0-a76e-d1f6bf1d24f0","system_id":"levelo_inurba_marseille","lat":43.2953,"lon":5.38544,"is_reserved":false,"is_disabled":false,"rental_uris":{"android":"levelo://app?vid=fb0f45ea-8473-47f0-a76e-d1f6bf1d24f0","ios":"levelo://app?vid=fb0f45ea-8473-47f0-a76e-d1f6bf1d24f0"},"vehicle_type_id":"4","last_reported":1753218605,"current_range_meters":16400,"station_id":"ce4bgih2rcd13ifvqba0","pricing_plan_id":"cebpf4jnsgd1na2vs0mg"},{"bike_id":"4e058d12-541f-4837-a62b-0e0602a8306c","system_id":"levelo_inurba_marseille","lat":43.24639,"lon":5.389,"is_reserved":false,"is_disabled":false,"rental_uris":{"android":"levelo://app?vid=4e058d12-541f-4837-a62b-0e0602a8306c","ios":"levelo://app?vid=4e058d12-541f-4837-a62b-0e0602a8306c"},"vehicle_type_id":"4","last_reported":1753218605,"current_range_meters":16400,"station_id":"ce4bhg12rcd13ifvqf60","pricing_plan_id":"cebpf4jnsgd1na2vs0mg"},{"bike_id":"6093672b-1e9a-4299-b920-36e4f293a348","system_id":"levelo_inurba_marseille","lat":43.229224,"lon":5.353884,"is_reserved":false,"is_disabled":false,"rental_uris":{"android":"levelo://app?vid=6093672b-1e9a-4299-b920-36e4f293a348","ios":"levelo://app?vid=6093672b-1e9a-4299-b920-36e4f293a348"},"vehicle_type_id":"4","last_reported":1753218605,"current_range_meters":16800,"station_id":"cpo3532slgdg3j2ikp40","pricing_plan_id":"cebpf4jnsgd1na2vs0mg"},{"bike_id":"31fb8300-58bf-4c50-bd95-729e29a89941","system_id":"levelo_inurba_marseille","lat":43.30933,"lon":5.4016,"is_reserved":false,"is_disabled":false,"rental_uris":{"android":"levelo://app?vid=31fb8300-58bf-4c50-bd95-729e29a89941","ios":"levelo://app?vid=31fb8300-58bf-4c50-bd95-729e29a89941"},"vehicle_type_id":"4","last_reported":1753218605,"current_range_meters":16800,"station_id":"ce4bgvp2rcd13ifvqct0","pricing_plan_id":"cebpf4jnsgd1na2vs0mg"},{"bike_id":"1a2751da-031a-4246-8d2c-dd848ee0e802","system_id":"levelo_inurba_marseille","lat":43.295363,"lon":5.385446,"is_reserved":false,"is_disabled":true,"rental_uris":{"android":"levelo://app?vid=1a2751da-031a-4246-8d2c-dd848ee0e802","ios":"levelo://app?vid=1a2751da-031a-4246-8d2c-dd848ee0e802"},"vehicle_type_id":"4","last_reported":1753218605,"current_range_meters":16800,"station_id":"ce4bgih2rcd13ifvqba0","pricing_plan_id":"cebpf4jnsgd1na2vs0mg"},{"bike_id":"fb81ee79-6688-4d05-be53-1ac881d0c7b8","system_id":"levelo_inurba_marseille","lat":43.23198,"lon":5.35551,"is_reserved":false,"is_disabled":false,"rental_uris":{"android":"levelo://app?vid=fb81ee79-6688-4d05-be53-1ac881d0c7b8","ios":"levelo://app?vid=fb81ee79-6688-4d05-be53-1ac881d0c7b8"},"vehicle_type_id":"4","last_reported":1753218605,"current_range_meters":16800,"station_id":"ce4bhu92rcd13ifvqi70","pricing_plan_id":"cebpf4jnsgd1na2vs0mg"},{"bike_id":"6a102a90-f6e0-499a-a8df-486cf33a7ee2","system_id":"levelo_inurba_marseille","lat":43.21177,"lon":5.35075,"is_reserved":false,"is_disabled":false,"rental_uris":{"android":"levelo://app?vid=6a102a90-f6e0-499a-a8df-486cf33a7ee2","ios":"levelo://app?vid=6a102a90-f6e0-499a-a8df-486cf33a7ee2"},"vehicle_type_id":"4","last_reported":1753218605,"current_range_meters":16800,"station_id":"st_cvj6sg6p6f1abm77japg","pricing_plan_id":"cebpf4jnsgd1na2vs0mg"},{"bike_id":"fd9b5521-00bf-4cae-959b-c2de14fd16eb","system_id":"levelo_inurba_marseille","lat":43.29193,"lon":5.39324,"is_reserved":false,"is_disabled":false,"rental_uris":{"android":"levelo://app?vid=fd9b5521-00bf-4cae-959b-c2de14fd16eb","ios":"levelo://app?vid=fd9b5521-00bf-4cae-959b-c2de14fd16eb"},"vehicle_type_id":"4","last_reported":1753218605,"current_range_meters":16800,"station_id":"ce4bh192rcd13ifvqdd0","pricing_plan_id":"cebpf4jnsgd1na2vs0mg"},{"bike_id":"8d2d4834-e140-4bd5-86bd-3bba44fb6399","system_id":"levelo_inurba_marseille","lat":43.2885,"lon":5.39298,"is_reserved":false,"is_disabled":false,"rental_uris":{"android":"levelo://app?vid=8d2d4834-e140-4bd5-86bd-3bba44fb6399","ios":"levelo://app?vid=8d2d4834-e140-4bd5-86bd-3bba44fb6399"},"vehicle_type_id":"4","last_reported":1753218605,"current_range_meters":16800,"station_id":"ce4bh2p2rcd13ifvqdi0","pricing_plan_id":"cebpf4jnsgd1na2vs0mg"},{"bike_id":"b564f4b5-cb36-4694-a241-a0b2dbccb790","system_id":"levelo_inurba_marseille","lat":43.3079,"lon":5.38148,"is_reserved":false,"is_disabled":false,"rental_uris":{"android":"levelo://app?vid=b564f4b5-cb36-4694-a241-a0b2dbccb790","ios":"levelo://app?vid=b564f4b5-cb36-4694-a241-a0b2dbccb790"},"vehicle_type_id":"4","last_reported":1753218605,"current_range_meters":16800,"station_id":"ce4bgt12rcd13ifvqce0","pricing_plan_id":"cebpf4jnsgd1na2vs0mg"},{"bike_id":"5b47a81d-ead0-4c4b-8864-c63aeb4bcd3d","system_id":"levelo_inurba_marseille","lat":43.21209,"lon":5.3508,"is_reserved":false,"is_disabled":false,"rental_uris":{"android":"levelo://app?vid=5b47a81d-ead0-4c4b-8864-c63aeb4bcd3d","ios":"levelo://app?vid=5b47a81d-ead0-4c4b-8864-c63aeb4bcd3d"},"vehicle_type_id":"4","last_reported":1753218605,"current_range_meters":16800,"station_id":"st_cvj6sg6p6f1abm77japg","pricing_plan_id":"cebpf4jnsgd1na2vs0mg"},{"bike_id":"317582b7-4f6d-4edf-8352-04987657336f","system_id":"levelo_inurba_marseille","lat":43.2954,"lon":5.38543,"is_reserved":false,"is_disabled":false,"rental_uris":{"android":"levelo://app?vid=317582b7-4f6d-4edf-8352-04987657336f","ios":"levelo://app?vid=317582b7-4f6d-4edf-8352-04987657336f"},"vehicle_type_id":"4","last_reported":1753218605,"current_range_meters":16800,"station_id":"ce4bgih2rcd13ifvqba0","pricing_plan_id":"cebpf4jnsgd1na2vs0mg"},{"bike_id":"11251068-6f7d-46bb-896b-3c17e0064bb4","system_id":"levelo_inurba_marseille","lat":43.31338,"lon":5.39709,"is_reserved":false,"is_disabled":false,"rental_uris":{"android":"levelo://app?vid=11251068-6f7d-46bb-896b-3c17e0064bb4","ios":"levelo://app?vid=11251068-6f7d-46bb-896b-3c17e0064bb4"},"vehicle_type_id":"4","last_reported":1753218605,"current_range_meters":17200,"station_id":"ce4bgvp2rcd13ifvqcu0","pricing_plan_id":"cebpf4jnsgd1na2vs0mg"},{"bike_id":"a387fa16-ff23-4cd8-97be-762516d7ebf7","system_id":"levelo_inurba_marseille","lat":43.30531,"lon":5.38434,"is_reserved":false,"is_disabled":false,"rental_uris":{"android":"levelo://app?vid=a387fa16-ff23-4cd8-97be-762516d7ebf7","ios":"levelo://app?vid=a387fa16-ff23-4cd8-97be-762516d7ebf7"},"vehicle_type_id":"4","last_reported":1753218605,"current_range_meters":17200,"station_id":"ce4bgg92rcd13ifvqb30","pricing_plan_id":"cebpf4jnsgd1na2vs0mg"},{"bike_id":"f9c41163-5ecd-4c1a-8ac0-2a6141a12633","system_id":"levelo_inurba_marseille","lat":43.31058,"lon":5.38345,"is_reserved":false,"is_disabled":false,"rental_uris":{"android":"levelo://app?vid=f9c41163-5ecd-4c1a-8ac0-2a6141a12633","ios":"levelo://app?vid=f9c41163-5ecd-4c1a-8ac0-2a6141a12633"},"vehicle_type_id":"4","last_reported":1753218605,"current_range_meters":17200,"station_id":"ce4bgv92rcd13ifvqcr0","pricing_plan_id":"cebpf4jnsgd1na2vs0mg"},{"bike_id":"6402a619-c98c-4905-b335-4eeff59e1131","system_id":"levelo_inurba_marseille","lat":43.29171,"lon":5.3931,"is_reserved":false,"is_disabled":false,"rental_uris":{"android":"levelo://app?vid=6402a619-c98c-4905-b335-4eeff59e1131","ios":"levelo://app?vid=6402a619-c98c-4905-b335-4eeff59e1131"},"vehicle_type_id":"4","last_reported":1753218605,"current_range_meters":17200,"station_id":"ce4bh192rcd13ifvqdd0","pricing_plan_id":"cebpf4jnsgd1na2vs0mg"},{"bike_id":"d8a56d44-1350-4bc6-a5be-019371538d08","system_id":"levelo_inurba_marseille","lat":43.26942,"lon":5.40258,"is_reserved":false,"is_disabled":false,"rental_uris":{"android":"levelo://app?vid=d8a56d44-1350-4bc6-a5be-019371538d08","ios":"levelo://app?vid=d8a56d44-1350-4bc6-a5be-019371538d08"},"vehicle_type_id":"4","last_reported":1753218605,"current_range_meters":17200,"station_id":"cjm6bp8fraef2m0cb0m0","pricing_plan_id":"cebpf4jnsgd1na2vs0mg"},{"bike_id":"d509b331-e799-4503-90e7-40b1e687c26f","system_id":"levelo_inurba_marseille","lat":43.28596,"lon":5.37086,"is_reserved":false,"is_disabled":true,"rental_uris":{"android":"levelo://app?vid=d509b331-e799-4503-90e7-40b1e687c26f","ios":"levelo://app?vid=d509b331-e799-4503-90e7-40b1e687c26f"},"vehicle_type_id":"4","last_reported":1753218605,"current_range_meters":17600,"station_id":"ce4bht12rcd13ifvqi60","pricing_plan_id":"cebpf4jnsgd1na2vs0mg"},{"bike_id":"dcc90529-6796-4414-854c-340f2f729bd1","system_id":"levelo_inurba_marseille","lat":43.29529,"lon":5.39032,"is_reserved":false,"is_disabled":false,"rental_uris":{"android":"levelo://app?vid=dcc90529-6796-4414-854c-340f2f729bd1","ios":"levelo://app?vid=dcc90529-6796-4414-854c-340f2f729bd1"},"vehicle_type_id":"4","last_reported":1753218605,"current_range_meters":17200,"station_id":"ce4bh3p2rcd13ifvqdp0","pricing_plan_id":"cebpf4jnsgd1na2vs0mg"},{"bike_id":"4355f60b-bb67-4c5e-a729-7d6782d7e997","system_id":"levelo_inurba_marseille","lat":43.27934,"lon":5.41055,"is_reserved":false,"is_disabled":false,"rental_uris":{"android":"levelo://app?vid=4355f60b-bb67-4c5e-a729-7d6782d7e997","ios":"levelo://app?vid=4355f60b-bb67-4c5e-a729-7d6782d7e997"},"vehicle_type_id":"4","last_reported":1753218605,"current_range_meters":17200,"station_id":"ce4bhnp2rcd13ifvqh0g","pricing_plan_id":"cebpf4jnsgd1na2vs0mg"},{"bike_id":"0328809f-87e4-43d4-9881-2db7d232e7fc","system_id":"levelo_inurba_marseille","lat":43.28932,"lon":5.3663,"is_reserved":false,"is_disabled":false,"rental_uris":{"android":"levelo://app?vid=0328809f-87e4-43d4-9881-2db7d232e7fc","ios":"levelo://app?vid=0328809f-87e4-43d4-9881-2db7d232e7fc"},"vehicle_type_id":"4","last_reported":1753218605,"current_range_meters":17200,"station_id":"ce4bhap2rcd13ifvqek0","pricing_plan_id":"cebpf4jnsgd1na2vs0mg"},{"bike_id":"c2033e64-b9db-48af-8d36-56740d87e7de","system_id":"levelo_inurba_marseille","lat":43.30929,"lon":5.401557,"is_reserved":false,"is_disabled":false,"rental_uris":{"android":"levelo://app?vid=c2033e64-b9db-48af-8d36-56740d87e7de","ios":"levelo://app?vid=c2033e64-b9db-48af-8d36-56740d87e7de"},"vehicle_type_id":"4","last_reported":1753218605,"current_range_meters":17200,"station_id":"ce4bgvp2rcd13ifvqct0","pricing_plan_id":"cebpf4jnsgd1na2vs0mg"},{"bike_id":"4bc1afe9-f862-4fe6-823d-1e675851c7f8","system_id":"levelo_inurba_marseille","lat":43.28963,"lon":5.37829,"is_reserved":false,"is_disabled":false,"rental_uris":{"android":"levelo://app?vid=4bc1afe9-f862-4fe6-823d-1e675851c7f8","ios":"levelo://app?vid=4bc1afe9-f862-4fe6-823d-1e675851c7f8"},"vehicle_type_id":"4","last_reported":1753218605,"current_range_meters":17600,"station_id":"ce4bh9p2rcd13ifvqed0","pricing_plan_id":"cebpf4jnsgd1na2vs0mg"},{"bike_id":"4f1dd806-4cc0-4731-a103-d84b6076bb8f","system_id":"levelo_inurba_marseille","lat":43.25588,"lon":5.38223,"is_reserved":false,"is_disabled":true,"rental_uris":{"android":"levelo://app?vid=4f1dd806-4cc0-4731-a103-d84b6076bb8f","ios":"levelo://app?vid=4f1dd806-4cc0-4731-a103-d84b6076bb8f"},"vehicle_type_id":"4","last_reported":1753218605,"current_range_meters":17600,"station_id":"ce4bhih2rcd13ifvqfs0","pricing_plan_id":"cebpf4jnsgd1na2vs0mg"},{"bike_id":"e3a9e6d1-788b-4774-babe-289560a0bee7","system_id":"levelo_inurba_marseille","lat":43.29964,"lon":5.37436,"is_reserved":false,"is_disabled":false,"rental_uris":{"android":"levelo://app?vid=e3a9e6d1-788b-4774-babe-289560a0bee7","ios":"levelo://app?vid=e3a9e6d1-788b-4774-babe-289560a0bee7"},"vehicle_type_id":"4","last_reported":1753218605,"current_range_meters":17600,"station_id":"","pricing_plan_id":"cebpf4jnsgd1na2vs0mg"},{"bike_id":"ff2e471b-0da3-47af-bd18-814d2ed7bf29","system_id":"levelo_inurba_marseille","lat":43.27579,"lon":5.38449,"is_reserved":false,"is_disabled":false,"rental_uris":{"android":"levelo://app?vid=ff2e471b-0da3-47af-bd18-814d2ed7bf29","ios":"levelo://app?vid=ff2e471b-0da3-47af-bd18-814d2ed7bf29"},"vehicle_type_id":"4","last_reported":1753218605,"current_range_meters":17600,"station_id":"ce4bhh92rcd13ifvqfi0","pricing_plan_id":"cebpf4jnsgd1na2vs0mg"},{"bike_id":"8aec3a73-d103-49b7-b4a7-cc0238b8e0dd","system_id":"levelo_inurba_marseille","lat":43.24063,"lon":5.37755,"is_reserved":false,"is_disabled":false,"rental_uris":{"android":"levelo://app?vid=8aec3a73-d103-49b7-b4a7-cc0238b8e0dd","ios":"levelo://app?vid=8aec3a73-d103-49b7-b4a7-cc0238b8e0dd"},"vehicle_type_id":"4","last_reported":1753218605,"current_range_meters":17600,"station_id":"ce4bhnp2rcd13ifvqgvg","pricing_plan_id":"cebpf4jnsgd1na2vs0mg"},{"bike_id":"3c5ec4da-c7fb-4377-8a25-fa299fc765b1","system_id":"levelo_inurba_marseille","lat":43.22924,"lon":5.35373,"is_reserved":false,"is_disabled":false,"rental_uris":{"android":"levelo://app?vid=3c5ec4da-c7fb-4377-8a25-fa299fc765b1","ios":"levelo://app?vid=3c5ec4da-c7fb-4377-8a25-fa299fc765b1"},"vehicle_type_id":"4","last_reported":1753218605,"current_range_meters":17600,"station_id":"cpo3532slgdg3j2ikp40","pricing_plan_id":"cebpf4jnsgd1na2vs0mg"},{"bike_id":"ddc8155e-fc47-4a15-a3ee-119f1670310c","system_id":"levelo_inurba_marseille","lat":43.28848,"lon":5.39301,"is_reserved":false,"is_disabled":false,"rental_uris":{"android":"levelo://app?vid=ddc8155e-fc47-4a15-a3ee-119f1670310c","ios":"levelo://app?vid=ddc8155e-fc47-4a15-a3ee-119f1670310c"},"vehicle_type_id":"4","last_reported":1753218605,"current_range_meters":17200,"station_id":"ce4bh2p2rcd13ifvqdi0","pricing_plan_id":"cebpf4jnsgd1na2vs0mg"},{"bike_id":"5984b2a9-df08-472f-9972-51a1ce9935d3","system_id":"levelo_inurba_marseille","lat":43.21765,"lon":5.34619,"is_reserved":false,"is_disabled":false,"rental_uris":{"android":"levelo://app?vid=5984b2a9-df08-472f-9972-51a1ce9935d3","ios":"levelo://app?vid=5984b2a9-df08-472f-9972-51a1ce9935d3"},"vehicle_type_id":"4","last_reported":1753218605,"current_range_meters":17600,"station_id":"st_cvj6r9ubvosntc0bgbag","pricing_plan_id":"cebpf4jnsgd1na2vs0mg"},{"bike_id":"fdc30c44-819b-440d-9095-7ac1b5eabb16","system_id":"levelo_inurba_marseille","lat":43.35899,"lon":5.41451,"is_reserved":false,"is_disabled":false,"rental_uris":{"android":"levelo://app?vid=fdc30c44-819b-440d-9095-7ac1b5eabb16","ios":"levelo://app?vid=fdc30c44-819b-440d-9095-7ac1b5eabb16"},"vehicle_type_id":"4","last_reported":1753218605,"current_range_meters":17600,"station_id":"","pricing_plan_id":"cebpf4jnsgd1na2vs0mg"},{"bike_id":"52bb6f06-cba4-4ec4-91a6-c6d033921e91","system_id":"levelo_inurba_marseille","lat":43.3055,"lon":5.36561,"is_reserved":false,"is_disabled":false,"rental_uris":{"android":"levelo://app?vid=52bb6f06-cba4-4ec4-91a6-c6d033921e91","ios":"levelo://app?vid=52bb6f06-cba4-4ec4-91a6-c6d033921e91"},"vehicle_type_id":"4","last_reported":1753218605,"current_range_meters":18000,"station_id":"ce4bgs12rcd13ifvqcag","pricing_plan_id":"cebpf4jnsgd1na2vs0mg"},{"bike_id":"869b3531-b500-41ef-9b48-7d699d16ba5f","system_id":"levelo_inurba_marseille","lat":43.24381,"lon":5.37048,"is_reserved":false,"is_disabled":false,"rental_uris":{"android":"levelo://app?vid=869b3531-b500-41ef-9b48-7d699d16ba5f","ios":"levelo://app?vid=869b3531-b500-41ef-9b48-7d699d16ba5f"},"vehicle_type_id":"4","last_reported":1753218605,"current_range_meters":18000,"station_id":"ce4bhhh2rcd13ifvqfk0","pricing_plan_id":"cebpf4jnsgd1na2vs0mg"},{"bike_id":"d40e7c0e-7ca5-4d3f-84c4-2ebc0681611f","system_id":"levelo_inurba_marseille","lat":43.296455,"lon":5.3718,"is_reserved":false,"is_disabled":false,"rental_uris":{"android":"levelo://app?vid=d40e7c0e-7ca5-4d3f-84c4-2ebc0681611f","ios":"levelo://app?vid=d40e7c0e-7ca5-4d3f-84c4-2ebc0681611f"},"vehicle_type_id":"4","last_reported":1753218605,"current_range_meters":18000,"station_id":"ce4bgnh2rcd13ifvqc0g","pricing_plan_id":"cebpf4jnsgd1na2vs0mg"},{"bike_id":"e1bf140c-2230-44d3-b62e-1f590a00979e","system_id":"levelo_inurba_marseille","lat":43.30541,"lon":5.36527,"is_reserved":false,"is_disabled":false,"rental_uris":{"android":"levelo://app?vid=e1bf140c-2230-44d3-b62e-1f590a00979e","ios":"levelo://app?vid=e1bf140c-2230-44d3-b62e-1f590a00979e"},"vehicle_type_id":"4","last_reported":1753218605,"current_range_meters":18000,"station_id":"ce4bgs12rcd13ifvqcag","pricing_plan_id":"cebpf4jnsgd1na2vs0mg"},{"bike_id":"87efb87e-9c1b-48bc-9816-65bf93d44e2c","system_id":"levelo_inurba_marseille","lat":43.276176,"lon":5.361005,"is_reserved":false,"is_disabled":false,"rental_uris":{"android":"levelo://app?vid=87efb87e-9c1b-48bc-9816-65bf93d44e2c","ios":"levelo://app?vid=87efb87e-9c1b-48bc-9816-65bf93d44e2c"},"vehicle_type_id":"4","last_reported":1753218605,"current_range_meters":18000,"station_id":"","pricing_plan_id":"cebpf4jnsgd1na2vs0mg"},{"bike_id":"94296c19-c476-420e-a7ef-87b8d25dfbc8","system_id":"levelo_inurba_marseille","lat":43.31326,"lon":5.39691,"is_reserved":false,"is_disabled":false,"rental_uris":{"android":"levelo://app?vid=94296c19-c476-420e-a7ef-87b8d25dfbc8","ios":"levelo://app?vid=94296c19-c476-420e-a7ef-87b8d25dfbc8"},"vehicle_type_id":"4","last_reported":1753218605,"current_range_meters":18000,"station_id":"ce4bgvp2rcd13ifvqcu0","pricing_plan_id":"cebpf4jnsgd1na2vs0mg"},{"bike_id":"f7f39aad-16f1-48af-b53a-a700e9df1b9a","system_id":"levelo_inurba_marseille","lat":43.25124,"lon":5.40328,"is_reserved":false,"is_disabled":false,"rental_uris":{"android":"levelo://app?vid=f7f39aad-16f1-48af-b53a-a700e9df1b9a","ios":"levelo://app?vid=f7f39aad-16f1-48af-b53a-a700e9df1b9a"},"vehicle_type_id":"4","last_reported":1753218605,"current_range_meters":18000,"station_id":"ce4bhlh2rcd13ifvqgig","pricing_plan_id":"cebpf4jnsgd1na2vs0mg"},{"bike_id":"40003ce9-0410-467e-8a20-fc80535a1e4d","system_id":"levelo_inurba_marseille","lat":43.28062,"lon":5.39631,"is_reserved":false,"is_disabled":false,"rental_uris":{"android":"levelo://app?vid=40003ce9-0410-467e-8a20-fc80535a1e4d","ios":"levelo://app?vid=40003ce9-0410-467e-8a20-fc80535a1e4d"},"vehicle_type_id":"4","last_reported":1753218605,"current_range_meters":18000,"station_id":"ce4bho12rcd13ifvqh2g","pricing_plan_id":"cebpf4jnsgd1na2vs0mg"},{"bike_id":"b147d87d-ad6b-4ee0-89e1-f2e85a2edd30","system_id":"levelo_inurba_marseille","lat":43.3211,"lon":5.36765,"is_reserved":false,"is_disabled":false,"rental_uris":{"android":"levelo://app?vid=b147d87d-ad6b-4ee0-89e1-f2e85a2edd30","ios":"levelo://app?vid=b147d87d-ad6b-4ee0-89e1-f2e85a2edd30"},"vehicle_type_id":"4","last_reported":1753218605,"current_range_meters":18000,"station_id":"ce4bhrh2rcd13ifvqhug","pricing_plan_id":"cebpf4jnsgd1na2vs0mg"},{"bike_id":"3c46ac99-e222-4f73-89b6-c3dd91f8950d","system_id":"levelo_inurba_marseille","lat":43.25125,"lon":5.4033,"is_reserved":false,"is_disabled":false,"rental_uris":{"android":"levelo://app?vid=3c46ac99-e222-4f73-89b6-c3dd91f8950d","ios":"levelo://app?vid=3c46ac99-e222-4f73-89b6-c3dd91f8950d"},"vehicle_type_id":"4","last_reported":1753218605,"current_range_meters":18800,"station_id":"ce4bhlh2rcd13ifvqgig","pricing_plan_id":"cebpf4jnsgd1na2vs0mg"},{"bike_id":"c55feb4b-7127-41f8-a2ba-6d662cb67878","system_id":"levelo_inurba_marseille","lat":43.28709,"lon":5.37393,"is_reserved":false,"is_disabled":false,"rental_uris":{"android":"levelo://app?vid=c55feb4b-7127-41f8-a2ba-6d662cb67878","ios":"levelo://app?vid=c55feb4b-7127-41f8-a2ba-6d662cb67878"},"vehicle_type_id":"4","last_reported":1753218605,"current_range_meters":18000,"station_id":"ce4bh3p2rcd13ifvqdq0","pricing_plan_id":"cebpf4jnsgd1na2vs0mg"},{"bike_id":"b5ce8d93-17c0-45a5-b2b1-eefce45c2d79","system_id":"levelo_inurba_marseille","lat":43.31825,"lon":5.43508,"is_reserved":false,"is_disabled":false,"rental_uris":{"android":"levelo://app?vid=b5ce8d93-17c0-45a5-b2b1-eefce45c2d79","ios":"levelo://app?vid=b5ce8d93-17c0-45a5-b2b1-eefce45c2d79"},"vehicle_type_id":"4","last_reported":1753218605,"current_range_meters":18800,"station_id":"","pricing_plan_id":"cebpf4jnsgd1na2vs0mg"},{"bike_id":"c7fb7bc9-cce5-4dbe-9d25-1adaba45ad0d","system_id":"levelo_inurba_marseille","lat":43.28699,"lon":5.3738,"is_reserved":false,"is_disabled":true,"rental_uris":{"android":"levelo://app?vid=c7fb7bc9-cce5-4dbe-9d25-1adaba45ad0d","ios":"levelo://app?vid=c7fb7bc9-cce5-4dbe-9d25-1adaba45ad0d"},"vehicle_type_id":"4","last_reported":1753218605,"current_range_meters":18800,"station_id":"ce4bh3p2rcd13ifvqdq0","pricing_plan_id":"cebpf4jnsgd1na2vs0mg"},{"bike_id":"229ed28b-3a89-4c10-9e6a-e083ca258aa3","system_id":"levelo_inurba_marseille","lat":43.29514,"lon":5.39401,"is_reserved":false,"is_disabled":false,"rental_uris":{"android":"levelo://app?vid=229ed28b-3a89-4c10-9e6a-e083ca258aa3","ios":"levelo://app?vid=229ed28b-3a89-4c10-9e6a-e083ca258aa3"},"vehicle_type_id":"4","last_reported":1753218605,"current_range_meters":18800,"station_id":"ce4bh292rcd13ifvqdf0","pricing_plan_id":"cebpf4jnsgd1na2vs0mg"},{"bike_id":"98dca6ca-f3f1-4735-ae0a-f8c0632de0fb","system_id":"levelo_inurba_marseille","lat":43.29516,"lon":5.39417,"is_reserved":false,"is_disabled":false,"rental_uris":{"android":"levelo://app?vid=98dca6ca-f3f1-4735-ae0a-f8c0632de0fb","ios":"levelo://app?vid=98dca6ca-f3f1-4735-ae0a-f8c0632de0fb"},"vehicle_type_id":"4","last_reported":1753218605,"current_range_meters":18800,"station_id":"ce4bh292rcd13ifvqdf0","pricing_plan_id":"cebpf4jnsgd1na2vs0mg"},{"bike_id":"0a7e2862-d8ec-4c77-89d9-cfcdd51f8d75","system_id":"levelo_inurba_marseille","lat":43.31772,"lon":5.3687,"is_reserved":false,"is_disabled":false,"rental_uris":{"android":"levelo://app?vid=0a7e2862-d8ec-4c77-89d9-cfcdd51f8d75","ios":"levelo://app?vid=0a7e2862-d8ec-4c77-89d9-cfcdd51f8d75"},"vehicle_type_id":"4","last_reported":1753218605,"current_range_meters":18800,"station_id":"","pricing_plan_id":"cebpf4jnsgd1na2vs0mg"},{"bike_id":"1f83965a-eecb-471c-849e-4e4dfa89fe28","system_id":"levelo_inurba_marseille","lat":43.292715,"lon":5.384266,"is_reserved":false,"is_disabled":false,"rental_uris":{"android":"levelo://app?vid=1f83965a-eecb-471c-849e-4e4dfa89fe28","ios":"levelo://app?vid=1f83965a-eecb-471c-849e-4e4dfa89fe28"},"vehicle_type_id":"4","last_reported":1753218605,"current_range_meters":18800,"station_id":"ce4bh692rcd13ifvqea0","pricing_plan_id":"cebpf4jnsgd1na2vs0mg"},{"bike_id":"9ce312f1-cb07-4159-91d6-c11a68a5ee71","system_id":"levelo_inurba_marseille","lat":43.21205,"lon":5.35072,"is_reserved":false,"is_disabled":false,"rental_uris":{"android":"levelo://app?vid=9ce312f1-cb07-4159-91d6-c11a68a5ee71","ios":"levelo://app?vid=9ce312f1-cb07-4159-91d6-c11a68a5ee71"},"vehicle_type_id":"4","last_reported":1753218605,"current_range_meters":18800,"station_id":"st_cvj6sg6p6f1abm77japg","pricing_plan_id":"cebpf4jnsgd1na2vs0mg"},{"bike_id":"5852fb24-002a-478f-8f94-97d04ec82aee","system_id":"levelo_inurba_marseille","lat":43.29245,"lon":5.36029,"is_reserved":false,"is_disabled":false,"rental_uris":{"android":"levelo://app?vid=5852fb24-002a-478f-8f94-97d04ec82aee","ios":"levelo://app?vid=5852fb24-002a-478f-8f94-97d04ec82aee"},"vehicle_type_id":"4","last_reported":1753218605,"current_range_meters":19200,"station_id":"ce4bhbh2rcd13ifvqeqg","pricing_plan_id":"cebpf4jnsgd1na2vs0mg"},{"bike_id":"ed189939-8cb6-4782-929d-f2f7add8d8c9","system_id":"levelo_inurba_marseille","lat":43.31059,"lon":5.38361,"is_reserved":false,"is_disabled":true,"rental_uris":{"android":"levelo://app?vid=ed189939-8cb6-4782-929d-f2f7add8d8c9","ios":"levelo://app?vid=ed189939-8cb6-4782-929d-f2f7add8d8c9"},"vehicle_type_id":"4","last_reported":1753218605,"current_range_meters":19200,"station_id":"ce4bgv92rcd13ifvqcr0","pricing_plan_id":"cebpf4jnsgd1na2vs0mg"},{"bike_id":"d7ffbc21-817e-44a9-9bca-84d15669cc1a","system_id":"levelo_inurba_marseille","lat":43.28001,"lon":5.41659,"is_reserved":false,"is_disabled":false,"rental_uris":{"android":"levelo://app?vid=d7ffbc21-817e-44a9-9bca-84d15669cc1a","ios":"levelo://app?vid=d7ffbc21-817e-44a9-9bca-84d15669cc1a"},"vehicle_type_id":"4","last_reported":1753218605,"current_range_meters":19200,"station_id":"ce4bho12rcd13ifvqh1g","pricing_plan_id":"cebpf4jnsgd1na2vs0mg"},{"bike_id":"faa32080-b901-4937-b1b8-7fdadb12c092","system_id":"levelo_inurba_marseille","lat":43.29532,"lon":5.38547,"is_reserved":false,"is_disabled":false,"rental_uris":{"android":"levelo://app?vid=faa32080-b901-4937-b1b8-7fdadb12c092","ios":"levelo://app?vid=faa32080-b901-4937-b1b8-7fdadb12c092"},"vehicle_type_id":"4","last_reported":1753218605,"current_range_meters":18800,"station_id":"ce4bgih2rcd13ifvqba0","pricing_plan_id":"cebpf4jnsgd1na2vs0mg"},{"bike_id":"a3f47c45-2d07-4bb2-9bc1-bc717c032ea0","system_id":"levelo_inurba_marseille","lat":43.28159,"lon":5.42635,"is_reserved":false,"is_disabled":false,"rental_uris":{"android":"levelo://app?vid=a3f47c45-2d07-4bb2-9bc1-bc717c032ea0","ios":"levelo://app?vid=a3f47c45-2d07-4bb2-9bc1-bc717c032ea0"},"vehicle_type_id":"4","last_reported":1753218605,"current_range_meters":19200,"station_id":"ce4bhnh2rcd13ifvqgug","pricing_plan_id":"cebpf4jnsgd1na2vs0mg"},{"bike_id":"87304162-6179-4a31-ba9b-3189dfa3532e","system_id":"levelo_inurba_marseille","lat":43.30929,"lon":5.40157,"is_reserved":false,"is_disabled":false,"rental_uris":{"android":"levelo://app?vid=87304162-6179-4a31-ba9b-3189dfa3532e","ios":"levelo://app?vid=87304162-6179-4a31-ba9b-3189dfa3532e"},"vehicle_type_id":"4","last_reported":1753218605,"current_range_meters":19200,"station_id":"ce4bgvp2rcd13ifvqct0","pricing_plan_id":"cebpf4jnsgd1na2vs0mg"},{"bike_id":"a0de01aa-cd68-4a4d-8bab-65fa167b8610","system_id":"levelo_inurba_marseille","lat":43.23186,"lon":5.35565,"is_reserved":false,"is_disabled":false,"rental_uris":{"android":"levelo://app?vid=a0de01aa-cd68-4a4d-8bab-65fa167b8610","ios":"levelo://app?vid=a0de01aa-cd68-4a4d-8bab-65fa167b8610"},"vehicle_type_id":"4","last_reported":1753218605,"current_range_meters":19200,"station_id":"ce4bhu92rcd13ifvqi70","pricing_plan_id":"cebpf4jnsgd1na2vs0mg"},{"bike_id":"254eece4-d1c6-4728-af3a-66deec60193b","system_id":"levelo_inurba_marseille","lat":43.29508,"lon":5.39038,"is_reserved":false,"is_disabled":false,"rental_uris":{"android":"levelo://app?vid=254eece4-d1c6-4728-af3a-66deec60193b","ios":"levelo://app?vid=254eece4-d1c6-4728-af3a-66deec60193b"},"vehicle_type_id":"4","last_reported":1753218605,"current_range_meters":19200,"station_id":"ce4bh3p2rcd13ifvqdp0","pricing_plan_id":"cebpf4jnsgd1na2vs0mg"},{"bike_id":"28eb2d20-272a-4630-b5f4-872c32ed191a","system_id":"levelo_inurba_marseille","lat":43.26559,"lon":5.37285,"is_reserved":false,"is_disabled":false,"rental_uris":{"android":"levelo://app?vid=28eb2d20-272a-4630-b5f4-872c32ed191a","ios":"levelo://app?vid=28eb2d20-272a-4630-b5f4-872c32ed191a"},"vehicle_type_id":"4","last_reported":1753218605,"current_range_meters":19200,"station_id":"ce4bhg12rcd13ifvqf70","pricing_plan_id":"cebpf4jnsgd1na2vs0mg"},{"bike_id":"1d2f0901-4598-49b1-8c78-fb5430f7d425","system_id":"levelo_inurba_marseille","lat":43.3059,"lon":5.39356,"is_reserved":false,"is_disabled":false,"rental_uris":{"android":"levelo://app?vid=1d2f0901-4598-49b1-8c78-fb5430f7d425","ios":"levelo://app?vid=1d2f0901-4598-49b1-8c78-fb5430f7d425"},"vehicle_type_id":"4","last_reported":1753218605,"current_range_meters":19200,"station_id":"ce4bh0p2rcd13ifvqd80","pricing_plan_id":"cebpf4jnsgd1na2vs0mg"},