{"last_updated":1744960194,"ttl":60,"version":"2.2","data":{"bikes":[{"bike_id":"1c2b1d51-e0d9-4b04-9d1a-d20dcfdc47b4","system_id":"levelo_inurba_marseille","lat":43.25941,"lon":5.40903,"is_reserved":false,"is_disabled":false,"rental_uris":{"android":"levelo://app?vid=1c2b1d51-e0d9-4b04-9d1a-d20dcfdc47b4","ios":"levelo://app?vid=1c2b1d51-e0d9-4b04-9d1a-d20dcfdc47b4"},"vehicle_type_id":"4","last_reported":1744960194,"current_range_meters":2800,"station_id":"ce4bhm92rcd13ifvqglg","pricing_plan_id":"cebpf4jnsgd1na2vs0mg"},{"bike_id":"a44b0c5b-e070-4c7f-9fda-6ede7ae62d46","system_id":"levelo_inurba_marseille","lat":43.301517,"lon":5.380962,"is_reserved":false,"is_disabled":false,"rental_uris":{"android":"levelo://app?vid=a44b0c5b-e070-4c7f-9fda-6ede7ae62d46","ios":"levelo://app?vid=a44b0c5b-e070-4c7f-9fda-6ede7ae62d46"},"vehicle_type_id":"4","last_reported":1744960194,"current_range_meters":3200,"station_id":"ce4bgjp2rcd13ifvqbh0","pricing_plan_id":"cebpf4jnsgd1na2vs0mg"},{"bike_id":"74f0b638-dbda-448b-9ebe-e6c98a35f8a0","system_id":"levelo_inurba_marseille","lat":43.30277,"lon":5.37726,"is_reserved":false,"is_disabled":false,"rental_uris":{"android":"levelo://app?vid=74f0b638-dbda-448b-9ebe-e6c98a35f8a0","ios":"levelo://app?vid=74f0b638-dbda-448b-9ebe-e6c98a35f8a0"},"vehicle_type_id":"4","last_reported":1744960194,"current_range_meters":3200,"station_id":"ce4bguh2rcd13ifvqcj0","pricing_plan_id":"cebpf4jnsgd1na2vs0mg"},{"bike_id":"9f87218f-476c-4818-b2b1-325a51dc8349","system_id":"levelo_inurba_marseille","lat":43.32471,"lon":5.3659,"is_reserved":false,"is_disabled":false,"rental_uris":{"android":"levelo://app?vid=9f87218f-476c-4818-b2b1-325a51dc8349","ios":"levelo://app?vid=9f87218f-476c-4818-b2b1-325a51dc8349"},"vehicle_type_id":"4","last_reported":1744960194,"current_range_meters":3200,"station_id":"ce4bhs12rcd13ifvqhvg","pricing_plan_id":"cebpf4jnsgd1na2vs0mg"},{"bike_id":"f02fbd2d-fa06-4812-8c7e-81e91b54d5fc","system_id":"levelo_inurba_marseille","lat":43.29418,"lon":5.38621,"is_reserved":false,"is_disabled":false,"rental_uris":{"android":"levelo://app?vid=f02fbd2d-fa06-4812-8c7e-81e91b54d5fc","ios":"levelo://app?vid=f02fbd2d-fa06-4812-8c7e-81e91b54d5fc"},"vehicle_type_id":"4","last_reported":1744960194,"current_range_meters":3600,"station_id":"ce4bh2h2rcd13ifvqdh0","pricing_plan_id":"cebpf4jnsgd1na2vs0mg"},{"bike_id":"f1646aaa-bed1-413f-bf16-4efa976c65bb","system_id":"levelo_inurba_marseille","lat":43.28368,"lon":5.38108,"is_reserved":false,"is_disabled":false,"rental_uris":{"android":"levelo://app?vid=f1646aaa-bed1-413f-bf16-4efa976c65bb","ios":"levelo://app?vid=f1646aaa-bed1-413f-bf16-4efa976c65bb"},"vehicle_type_id":"4","last_reported":1744960194,"current_range_meters":3600,"station_id":"ce4bh412rcd13ifvqdr0","pricing_plan_id":"cebpf4jnsgd1na2vs0mg"},{"bike_id":"f4558e74-ea6c-4b6b-b883-2ee1d1dde301","system_id":"levelo_inurba_marseille","lat":43.30462,"lon":5.37903,"is_reserved":false,"is_disabled":false,"rental_uris":{"android":"levelo://app?vid=f4558e74-ea6c-4b6b-b883-2ee1d1dde301","ios":"levelo://app?vid=f4558e74-ea6c-4b6b-b883-2ee1d1dde301"},"vehicle_type_id":"4","last_reported":1744960194,"current_range_meters":4400,"station_id":"ce4bgup2rcd13ifvqcn0","pricing_plan_id":"cebpf4jnsgd1na2vs0mg"},{"bike_id":"f5d7d99f-ba7b-4f71-9921-dadc41557965","system_id":"levelo_inurba_marseille","lat":43.30891,"lon":5.37211,"is_reserved":false,"is_disabled":false,"rental_uris":{"android":"levelo://app?vid=f5d7d99f-ba7b-4f71-9921-dadc41557965","ios":"levelo://app?vid=f5d7d99f-ba7b-4f71-9921-dadc41557965"},"vehicle_type_id":"4","last_reported":1744960194,"current_range_meters":4400,"station_id":"ce4bguh2rcd13ifvqckg","pricing_plan_id":"cebpf4jnsgd1na2vs0mg"},{"bike_id":"fc6c592c-eaa9-41b0-9286-47406a85eea4","system_id":"levelo_inurba_marseille","lat":43.30526,"lon":5.36722,"is_reserved":false,"is_disabled":false,"rental_uris":{"android":"levelo://app?vid=fc6c592c-eaa9-41b0-9286-47406a85eea4","ios":"levelo://app?vid=fc6c592c-eaa9-41b0-9286-47406a85eea4"},"vehicle_type_id":"4","last_reported":1744960194,"current_range_meters":4800,"station_id":"ce4bgrp2rcd13ifvqc9g","pricing_plan_id":"cebpf4jnsgd1na2vs0mg"},{"bike_id":"0cb0ce16-9c3d-45a7-98bb-46531d1b45ec","system_id":"levelo_inurba_marseille","lat":43.29206,"lon":5.36074,"is_reserved":false,"is_disabled":false,"rental_uris":{"android":"levelo://app?vid=0cb0ce16-9c3d-45a7-98bb-46531d1b45ec","ios":"levelo://app?vid=0cb0ce16-9c3d-45a7-98bb-46531d1b45ec"},"vehicle_type_id":"4","last_reported":1744960194,"current_range_meters":4800,"station_id":"ce4bhbh2rcd13ifvqeqg","pricing_plan_id":"cebpf4jnsgd1na2vs0mg"},{"bike_id":"c516a792-abfc-4ab0-afac-a0797a6cddec","system_id":"levelo_inurba_marseille","lat":43.262146,"lon":5.374413,"is_reserved":false,"is_disabled":false,"rental_uris":{"android":"levelo://app?vid=c516a792-abfc-4ab0-afac-a0797a6cddec","ios":"levelo://app?vid=c516a792-abfc-4ab0-afac-a0797a6cddec"},"vehicle_type_id":"4","last_reported":1744960194,"current_range_meters":4800,"station_id":"ce4bhgp2rcd13ifvqfc0","pricing_plan_id":"cebpf4jnsgd1na2vs0mg"},{"bike_id":"857f2ddd-7ee5-4382-8a43-96654bba9ba2","system_id":"levelo_inurba_marseille","lat":43.23968,"lon":5.36634,"is_reserved":false,"is_disabled":false,"rental_uris":{"android":"levelo://app?vid=857f2ddd-7ee5-4382-8a43-96654bba9ba2","ios":"levelo://app?vid=857f2ddd-7ee5-4382-8a43-96654bba9ba2"},"vehicle_type_id":"4","last_reported":1744960194,"current_range_meters":5600,"station_id":"ce4bhi12rcd13ifvqfp0","pricing_plan_id":"cebpf4jnsgd1na2vs0mg"},{"bike_id":"593f200f-acc6-4515-9b2c-377663e6c433","system_id":"levelo_inurba_marseille","lat":43.21747,"lon":5.34595,"is_reserved":false,"is_disabled":false,"rental_uris":{"android":"levelo://app?vid=593f200f-acc6-4515-9b2c-377663e6c433","ios":"levelo://app?vid=593f200f-acc6-4515-9b2c-377663e6c433"},"vehicle_type_id":"4","last_reported":1744960194,"current_range_meters":5600,"station_id":"st_cvj6r9ubvosntc0bgbag","pricing_plan_id":"cebpf4jnsgd1na2vs0mg"},{"bike_id":"45ea7eb3-68b7-463e-b765-f2b962e284b0","system_id":"levelo_inurba_marseille","lat":43.30933,"lon":5.40144,"is_reserved":false,"is_disabled":false,"rental_uris":{"android":"levelo://app?vid=45ea7eb3-68b7-463e-b765-f2b962e284b0","ios":"levelo://app?vid=45ea7eb3-68b7-463e-b765-f2b962e284b0"},"vehicle_type_id":"4","last_reported":1744960194,"current_range_meters":5600,"station_id":"ce4bgvp2rcd13ifvqct0","pricing_plan_id":"cebpf4jnsgd1na2vs0mg"},{"bike_id":"3f4e1186-3d94-409e-8a28-6e2e16b869a1","system_id":"levelo_inurba_marseille","lat":43.26689,"lon":5.38279,"is_reserved":false,"is_disabled":true,"rental_uris":{"android":"levelo://app?vid=3f4e1186-3d94-409e-8a28-6e2e16b869a1","ios":"levelo://app?vid=3f4e1186-3d94-409e-8a28-6e2e16b869a1"},"vehicle_type_id":"4","last_reported":1744960194,"current_range_meters":5600,"station_id":"ce4bhg92rcd13ifvqf90","pricing_plan_id":"cebpf4jnsgd1na2vs0mg"},{"bike_id":"72b9edeb-9d79-4989-adcd-249b8ef0989a","system_id":"levelo_inurba_marseille","lat":43.30593,"lon":5.37228,"is_reserved":false,"is_disabled":false,"rental_uris":{"android":"levelo://app?vid=72b9edeb-9d79-4989-adcd-249b8ef0989a","ios":"levelo://app?vid=72b9edeb-9d79-4989-adcd-249b8ef0989a"},"vehicle_type_id":"4","last_reported":1744960194,"current_range_meters":6000,"station_id":"ce4bgqh2rcd13ifvqc4g","pricing_plan_id":"cebpf4jnsgd1na2vs0mg"},{"bike_id":"7b09dfe8-4549-4e15-baf3-df132e32d464","system_id":"levelo_inurba_marseille","lat":43.24179,"lon":5.39733,"is_reserved":false,"is_disabled":false,"rental_uris":{"android":"levelo://app?vid=7b09dfe8-4549-4e15-baf3-df132e32d464","ios":"levelo://app?vid=7b09dfe8-4549-4e15-baf3-df132e32d464"},"vehicle_type_id":"4","last_reported":1744960194,"current_range_meters":6400,"station_id":"ce4bhn12rcd13ifvqgpg","pricing_plan_id":"cebpf4jnsgd1na2vs0mg"},{"bike_id":"a31a49f5-1f5d-4e17-b115-f2a47d4c28a1","system_id":"levelo_inurba_marseille","lat":43.299177,"lon":5.365415,"is_reserved":false,"is_disabled":false,"rental_uris":{"android":"levelo://app?vid=a31a49f5-1f5d-4e17-b115-f2a47d4c28a1","ios":"levelo://app?vid=a31a49f5-1f5d-4e17-b115-f2a47d4c28a1"},"vehicle_type_id":"4","last_reported":1744960194,"current_range_meters":6400,"station_id":"ce4bgm92rcd13ifvqbr0","pricing_plan_id":"cebpf4jnsgd1na2vs0mg"},{"bike_id":"f57acb1a-2d22-481f-9311-39903e65c833","system_id":"levelo_inurba_marseille","lat":43.24672,"lon":5.38167,"is_reserved":false,"is_disabled":false,"rental_uris":{"android":"levelo://app?vid=f57acb1a-2d22-481f-9311-39903e65c833","ios":"levelo://app?vid=f57acb1a-2d22-481f-9311-39903e65c833"},"vehicle_type_id":"4","last_reported":1744960194,"current_range_meters":6400,"station_id":"ce4bhih2rcd13ifvqfr0","pricing_plan_id":"cebpf4jnsgd1na2vs0mg"},{"bike_id":"2a297b53-e6c9-4a44-8832-a1535085da75","system_id":"levelo_inurba_marseille","lat":43.319915,"lon":5.381466,"is_reserved":false,"is_disabled":true,"rental_uris":{"android":"levelo://app?vid=2a297b53-e6c9-4a44-8832-a1535085da75","ios":"levelo://app?vid=2a297b53-e6c9-4a44-8832-a1535085da75"},"vehicle_type_id":"4","last_reported":1744960194,"current_range_meters":6800,"station_id":"ce4bhr12rcd13ifvqhpg","pricing_plan_id":"cebpf4jnsgd1na2vs0mg"},{"bike_id":"b21206dd-bd87-4577-aaf6-5eb738ce0879","system_id":"levelo_inurba_marseille","lat":43.273104,"lon":5.390412,"is_reserved":false,"is_disabled":false,"rental_uris":{"android":"levelo://app?vid=b21206dd-bd87-4577-aaf6-5eb738ce0879","ios":"levelo://app?vid=b21206dd-bd87-4577-aaf6-5eb738ce0879"},"vehicle_type_id":"4","last_reported":1744960194,"current_range_meters":6800,"station_id":"ce4bhgp2rcd13ifvqfd0","pricing_plan_id":"cebpf4jnsgd1na2vs0mg"},{"bike_id":"2df22311-bac1-4b8f-abff-11893969de63","system_id":"levelo_inurba_marseille","lat":43.31063,"lon":5.37845,"is_reserved":false,"is_disabled":false,"rental_uris":{"android":"levelo://app?vid=2df22311-bac1-4b8f-abff-11893969de63","ios":"levelo://app?vid=2df22311-bac1-4b8f-abff-11893969de63"},"vehicle_type_id":"4","last_reported":1744960194,"current_range_meters":6800,"station_id":"","pricing_plan_id":"cebpf4jnsgd1na2vs0mg"},{"bike_id":"88ce086b-91b3-4da1-a45f-e9ca4f83e1d2","system_id":"levelo_inurba_marseille","lat":43.284668,"lon":5.384033,"is_reserved":false,"is_disabled":true,"rental_uris":{"android":"levelo://app?vid=88ce086b-91b3-4da1-a45f-e9ca4f83e1d2","ios":"levelo://app?vid=88ce086b-91b3-4da1-a45f-e9ca4f83e1d2"},"vehicle_type_id":"4","last_reported":1744960194,"current_range_meters":6800,"station_id":"ce4bhbh2rcd13ifvqeo0","pricing_plan_id":"cebpf4jnsgd1na2vs0mg"},{"bike_id":"ce90eeb4-f81d-4b80-9b35-94fd4698915f","system_id":"levelo_inurba_marseille","lat":43.2842,"lon":5.349999,"is_reserved":false,"is_disabled":false,"rental_uris":{"android":"levelo://app?vid=ce90eeb4-f81d-4b80-9b35-94fd4698915f","ios":"levelo://app?vid=ce90eeb4-f81d-4b80-9b35-94fd4698915f"},"vehicle_type_id":"4","last_reported":1744960194,"current_range_meters":6800,"station_id":"ce4bhbh2rcd13ifvqepg","pricing_plan_id":"cebpf4jnsgd1na2vs0mg"},{"bike_id":"683727aa-af5c-4a30-b620-923da0da034b","system_id":"levelo_inurba_marseille","lat":43.26885,"lon":5.40424,"is_reserved":false,"is_disabled":false,"rental_uris":{"android":"levelo://app?vid=683727aa-af5c-4a30-b620-923da0da034b","ios":"levelo://app?vid=683727aa-af5c-4a30-b620-923da0da034b"},"vehicle_type_id":"4","last_reported":1744960194,"current_range_meters":6800,"station_id":"cjm6bp8fraef2m0cb0m0","pricing_plan_id":"cebpf4jnsgd1na2vs0mg"},{"bike_id":"7dc2b057-c723-4085-81df-1c0164148761","system_id":"levelo_inurba_marseille","lat":43.3096,"lon":5.39047,"is_reserved":false,"is_disabled":false,"rental_uris":{"android":"levelo://app?vid=7dc2b057-c723-4085-81df-1c0164148761","ios":"levelo://app?vid=7dc2b057-c723-4085-81df-1c0164148761"},"vehicle_type_id":"4","last_reported":1744960194,"current_range_meters":6800,"station_id":"ce4bgup2rcd13ifvqco0","pricing_plan_id":"cebpf4jnsgd1na2vs0mg"},{"bike_id":"1bdba7a7-a82e-4252-906c-80db6beb180e","system_id":"levelo_inurba_marseille","lat":43.33769,"lon":5.3749,"is_reserved":false,"is_disabled":false,"rental_uris":{"android":"levelo://app?vid=1bdba7a7-a82e-4252-906c-80db6beb180e","ios":"levelo://app?vid=1bdba7a7-a82e-4252-906c-80db6beb180e"},"vehicle_type_id":"4","last_reported":1744960194,"current_range_meters":7200,"station_id":"","pricing_plan_id":"cebpf4jnsgd1na2vs0mg"},{"bike_id":"6a52c25e-e42a-4237-a980-f6f82f2e061e","system_id":"levelo_inurba_marseille","lat":43.21211,"lon":5.35069,"is_reserved":false,"is_disabled":false,"rental_uris":{"android":"levelo://app?vid=6a52c25e-e42a-4237-a980-f6f82f2e061e","ios":"levelo://app?vid=6a52c25e-e42a-4237-a980-f6f82f2e061e"},"vehicle_type_id":"4","last_reported":1744960194,"current_range_meters":7200,"station_id":"st_cvj6sg6p6f1abm77japg","pricing_plan_id":"cebpf4jnsgd1na2vs0mg"},{"bike_id":"d03355fa-c7f9-4104-958e-81d7994c7f64","system_id":"levelo_inurba_marseille","lat":43.28166,"lon":5.42663,"is_reserved":false,"is_disabled":false,"rental_uris":{"android":"levelo://app?vid=d03355fa-c7f9-4104-958e-81d7994c7f64","ios":"levelo://app?vid=d03355fa-c7f9-4104-958e-81d7994c7f64"},"vehicle_type_id":"4","last_reported":1744960194,"current_range_meters":7200,"station_id":"ce4bhnh2rcd13ifvqgug","pricing_plan_id":"cebpf4jnsgd1na2vs0mg"},{"bike_id":"b066ca97-ba3e-4e64-b79a-c11d1ef9416d","system_id":"levelo_inurba_marseille","lat":43.25581,"lon":5.38268,"is_reserved":false,"is_disabled":false,"rental_uris":{"android":"levelo://app?vid=b066ca97-ba3e-4e64-b79a-c11d1ef9416d","ios":"levelo://app?vid=b066ca97-ba3e-4e64-b79a-c11d1ef9416d"},"vehicle_type_id":"4","last_reported":1744960194,"current_range_meters":7200,"station_id":"ce4bhih2rcd13ifvqfs0","pricing_plan_id":"cebpf4jnsgd1na2vs0mg"},{"bike_id":"09e29c8d-0531-4ea0-befd-5427ca701da3","system_id":"levelo_inurba_marseille","lat":43.30622,"lon":5.37243,"is_reserved":false,"is_disabled":true,"rental_uris":{"android":"levelo://app?vid=09e29c8d-0531-4ea0-befd-5427ca701da3","ios":"levelo://app?vid=09e29c8d-0531-4ea0-befd-5427ca701da3"},"vehicle_type_id":"4","last_reported":1744960194,"current_range_meters":7200,"station_id":"ce4bgqh2rcd13ifvqc4g","pricing_plan_id":"cebpf4jnsgd1na2vs0mg"},{"bike_id":"3d94f279-1922-4b43-a725-5083fe1be271","system_id":"levelo_inurba_marseille","lat":43.29249,"lon":5.37653,"is_reserved":false,"is_disabled":true,"rental_uris":{"android":"levelo://app?vid=3d94f279-1922-4b43-a725-5083fe1be271","ios":"levelo://app?vid=3d94f279-1922-4b43-a725-5083fe1be271"},"vehicle_type_id":"4","last_reported":1744960194,"current_range_meters":7200,"station_id":"ce4bgi12rcd13ifvqb80","pricing_plan_id":"cebpf4jnsgd1na2vs0mg"},{"bike_id":"13b00410-bb9e-4396-a252-e1c023113219","system_id":"levelo_inurba_marseille","lat":43.30988,"lon":5.38468,"is_reserved":false,"is_disabled":false,"rental_uris":{"android":"levelo://app?vid=13b00410-bb9e-4396-a252-e1c023113219","ios":"levelo://app?vid=13b00410-bb9e-4396-a252-e1c023113219"},"vehicle_type_id":"4","last_reported":1744960194,"current_range_meters":7200,"station_id":"","pricing_plan_id":"cebpf4jnsgd1na2vs0mg"},{"bike_id":"39be16c5-68ae-4e52-bf6f-508730a7a748","system_id":"levelo_inurba_marseille","lat":43.27174,"lon":5.41001,"is_reserved":false,"is_disabled":false,"rental_uris":{"android":"levelo://app?vid=39be16c5-68ae-4e52-bf6f-508730a7a748","ios":"levelo://app?vid=39be16c5-68ae-4e52-bf6f-508730a7a748"},"vehicle_type_id":"4","last_reported":1744960194,"current_range_meters":8000,"station_id":"ce4bhl12rcd13ifvqgf0","pricing_plan_id":"cebpf4jnsgd1na2vs0mg"},{"bike_id":"0a0b0a73-2b27-49fb-801a-3111dcebfbac","system_id":"levelo_inurba_marseille","lat":43.27522,"lon":5.42454,"is_reserved":false,"is_disabled":false,"rental_uris":{"android":"levelo://app?vid=0a0b0a73-2b27-49fb-801a-3111dcebfbac","ios":"levelo://app?vid=0a0b0a73-2b27-49fb-801a-3111dcebfbac"},"vehicle_type_id":"4","last_reported":1744960194,"current_range_meters":8000,"station_id":"ce4bhn92rcd13ifvqgrg","pricing_plan_id":"cebpf4jnsgd1na2vs0mg"},{"bike_id":"634d8e15-416b-4c50-8ebb-215dec257ec9","system_id":"levelo_inurba_marseille","lat":43.25938,"lon":5.40905,"is_reserved":false,"is_disabled":false,"rental_uris":{"android":"levelo://app?vid=634d8e15-416b-4c50-8ebb-215dec257ec9","ios":"levelo://app?vid=634d8e15-416b-4c50-8ebb-215dec257ec9"},"vehicle_type_id":"4","last_reported":1744960194,"current_range_meters":8000,"station_id":"ce4bhm92rcd13ifvqglg","pricing_plan_id":"cebpf4jnsgd1na2vs0mg"},{"bike_id":"61bfb762-82cf-49af-be3a-77f66f7fd7c6","system_id":"levelo_inurba_marseille","lat":43.3254,"lon":5.41423,"is_reserved":false,"is_disabled":false,"rental_uris":{"android":"levelo://app?vid=61bfb762-82cf-49af-be3a-77f66f7fd7c6","ios":"levelo://app?vid=61bfb762-82cf-49af-be3a-77f66f7fd7c6"},"vehicle_type_id":"4","last_reported":1744960194,"current_range_meters":8000,"station_id":"ce4bhq12rcd13ifvqhhg","pricing_plan_id":"cebpf4jnsgd1na2vs0mg"},{"bike_id":"6a42fdd6-075d-4748-811a-29f5845c8920","system_id":"levelo_inurba_marseille","lat":43.21754,"lon":5.346,"is_reserved":false,"is_disabled":false,"rental_uris":{"android":"levelo://app?vid=6a42fdd6-075d-4748-811a-29f5845c8920","ios":"levelo://app?vid=6a42fdd6-075d-4748-811a-29f5845c8920"},"vehicle_type_id":"4","last_reported":1744960194,"current_range_meters":8400,"station_id":"st_cvj6r9ubvosntc0bgbag","pricing_plan_id":"cebpf4jnsgd1na2vs0mg"},{"bike_id":"9dac2e69-a062-49d6-92a9-7e004e1a897d","system_id":"levelo_inurba_marseille","lat":43.2419,"lon":5.39734,"is_reserved":false,"is_disabled":false,"rental_uris":{"android":"levelo://app?vid=9dac2e69-a062-49d6-92a9-7e004e1a897d","ios":"levelo://app?vid=9dac2e69-a062-49d6-92a9-7e004e1a897d"},"vehicle_type_id":"4","last_reported":1744960194,"current_range_meters":8400,"station_id":"ce4bhn12rcd13ifvqgpg","pricing_plan_id":"cebpf4jnsgd1na2vs0mg"},{"bike_id":"35f0c2b6-9a06-495e-8706-de8e51ba7f42","system_id":"levelo_inurba_marseille","lat":43.31214,"lon":5.36851,"is_reserved":false,"is_disabled":false,"rental_uris":{"android":"levelo://app?vid=35f0c2b6-9a06-495e-8706-de8e51ba7f42","ios":"levelo://app?vid=35f0c2b6-9a06-495e-8706-de8e51ba7f42"},"vehicle_type_id":"4","last_reported":1744960194,"current_range_meters":8400,"station_id":"ce4bgl92rcd13ifvqbq0","pricing_plan_id":"cebpf4jnsgd1na2vs0mg"},{"bike_id":"4620dd1c-65ba-4d81-a1e2-ea8a8e06b932","system_id":"levelo_inurba_marseille","lat":43.26191,"lon":5.37448,"is_reserved":false,"is_disabled":false,"rental_uris":{"android":"levelo://app?vid=4620dd1c-65ba-4d81-a1e2-ea8a8e06b932","ios":"levelo://app?vid=4620dd1c-65ba-4d81-a1e2-ea8a8e06b932"},"vehicle_type_id":"4","last_reported":1744960194,"current_range_meters":8400,"station_id":"ce4bhgp2rcd13ifvqfc0","pricing_plan_id":"cebpf4jnsgd1na2vs0mg"},{"bike_id":"e3061286-add2-4bc6-a803-66a4d7d63e42","system_id":"levelo_inurba_marseille","lat":43.28632,"lon":5.35125,"is_reserved":false,"is_disabled":false,"rental_uris":{"android":"levelo://app?vid=e3061286-add2-4bc6-a803-66a4d7d63e42","ios":"levelo://app?vid=e3061286-add2-4bc6-a803-66a4d7d63e42"},"vehicle_type_id":"4","last_reported":1744960194,"current_range_meters":8400,"station_id":"ce4bhch2rcd13ifvqeug","pricing_plan_id":"cebpf4jnsgd1na2vs0mg"},{"bike_id":"cdabb6dc-a812-4354-a204-13eec6b19a92","system_id":"levelo_inurba_marseille","lat":43.26785,"lon":5.3942,"is_reserved":false,"is_disabled":false,"rental_uris":{"android":"levelo://app?vid=cdabb6dc-a812-4354-a204-13eec6b19a92","ios":"levelo://app?vid=cdabb6dc-a812-4354-a204-13eec6b19a92"},"vehicle_type_id":"4","last_reported":1744960194,"current_range_meters":8400,"station_id":"ce4bhh12rcd13ifvqfg0","pricing_plan_id":"cebpf4jnsgd1na2vs0mg"},{"bike_id":"72823705-7f07-4adb-897d-e1709234e554","system_id":"levelo_inurba_marseille","lat":43.2319,"lon":5.39993,"is_reserved":false,"is_disabled":false,"rental_uris":{"android":"levelo://app?vid=72823705-7f07-4adb-897d-e1709234e554","ios":"levelo://app?vid=72823705-7f07-4adb-897d-e1709234e554"},"vehicle_type_id":"4","last_reported":1744960194,"current_range_meters":8800,"station_id":"ce4bhn12rcd13ifvqgqg","pricing_plan_id":"cebpf4jnsgd1na2vs0mg"},{"bike_id":"eb666760-6f98-4e0f-a4e9-040e353f2dc4","system_id":"levelo_inurba_marseille","lat":43.292206,"lon":5.360402,"is_reserved":false,"is_disabled":false,"rental_uris":{"android":"levelo://app?vid=eb666760-6f98-4e0f-a4e9-040e353f2dc4","ios":"levelo://app?vid=eb666760-6f98-4e0f-a4e9-040e353f2dc4"},"vehicle_type_id":"4","last_reported":1744960194,"current_range_meters":8800,"station_id":"ce4bhbh2rcd13ifvqeqg","pricing_plan_id":"cebpf4jnsgd1na2vs0mg"},{"bike_id":"1e954ebd-6f87-4cd4-8c0c-e1f08423f7c4","system_id":"levelo_inurba_marseille","lat":43.29933,"lon":5.36576,"is_reserved":false,"is_disabled":false,"rental_uris":{"android":"levelo://app?vid=1e954ebd-6f87-4cd4-8c0c-e1f08423f7c4","ios":"levelo://app?vid=1e954ebd-6f87-4cd4-8c0c-e1f08423f7c4"},"vehicle_type_id":"4","last_reported":1744960194,"current_range_meters":9200,"station_id":"ce4bgm92rcd13ifvqbr0","pricing_plan_id":"cebpf4jnsgd1na2vs0mg"},{"bike_id":"94388ca8-3e8c-4644-99c4-22a2607d604e","system_id":"levelo_inurba_marseille","lat":43.309471,"lon":5.390291,"is_reserved":false,"is_disabled":false,"rental_uris":{"android":"levelo://app?vid=94388ca8-3e8c-4644-99c4-22a2607d604e","ios":"levelo://app?vid=94388ca8-3e8c-4644-99c4-22a2607d604e"},"vehicle_type_id":"4","last_reported":1744960194,"current_range_meters":9200,"station_id":"","pricing_plan_id":"cebpf4jnsgd1na2vs0mg"},{"bike_id":"d8c92fd5-6cfb-4bf1-9128-686caeaac452","system_id":"levelo_inurba_marseille","lat":43.30426,"lon":5.397443,"is_reserved":false,"is_disabled":false,"rental_uris":{"android":"levelo://app?vid=d8c92fd5-6cfb-4bf1-9128-686caeaac452","ios":"levelo://app?vid=d8c92fd5-6cfb-4bf1-9128-686caeaac452"},"vehicle_type_id":"4","last_reported":1744960194,"current_range_meters":9200,"station_id":"ce4bh092rcd13ifvqd20","pricing_plan_id":"cebpf4jnsgd1na2vs0mg"},{"bike_id":"2426fcf0-2f40-4856-94c1-3f40fa14775e","system_id":"levelo_inurba_marseille","lat":43.25935,"lon":5.40911,"is_reserved":false,"is_disabled":false,"rental_uris":{"android":"levelo://app?vid=2426fcf0-2f40-4856-94c1-3f40fa14775e","ios":"levelo://app?vid=2426fcf0-2f40-4856-94c1-3f40fa14775e"},"vehicle_type_id":"4","last_reported":1744960194,"current_range_meters":9600,"station_id":"ce4bhm92rcd13ifvqglg","pricing_plan_id":"cebpf4jnsgd1na2vs0mg"},{"bike_id":"fe7c7689-3731-4056-8d49-6381cc08a48b","system_id":"levelo_inurba_marseille","lat":43.29971,"lon":5.38498,"is_reserved":false,"is_disabled":true,"rental_uris":{"android":"levelo://app?vid=fe7c7689-3731-4056-8d49-6381cc08a48b","ios":"levelo://app?vid=fe7c7689-3731-4056-8d49-6381cc08a48b"},"vehicle_type_id":"4","last_reported":1744960194,"current_range_meters":9600,"station_id":"ce4bgj92rcd13ifvqbd0","pricing_plan_id":"cebpf4jnsgd1na2vs0mg"},{"bike_id":"3e314cce-73bc-42af-a459-e1c407d7c1e9","system_id":"levelo_inurba_marseille","lat":43.27425,"lon":5.39426,"is_reserved":false,"is_disabled":false,"rental_uris":{"android":"levelo://app?vid=3e314cce-73bc-42af-a459-e1c407d7c1e9","ios":"levelo://app?vid=3e314cce-73bc-42af-a459-e1c407d7c1e9"},"vehicle_type_id":"4","last_reported":1744960194,"current_range_meters":9600,"station_id":"ce4bhdp2rcd13ifvqf20","pricing_plan_id":"cebpf4jnsgd1na2vs0mg"},{"bike_id":"2f52d163-dd56-4334-be9f-8d6905835b03","system_id":"levelo_inurba_marseille","lat":43.31378,"lon":5.3668,"is_reserved":false,"is_disabled":false,"rental_uris":{"android":"levelo://app?vid=2f52d163-dd56-4334-be9f-8d6905835b03","ios":"levelo://app?vid=2f52d163-dd56-4334-be9f-8d6905835b03"},"vehicle_type_id":"4","last_reported":1744960194,"current_range_meters":9600,"station_id":"ce4bgr92rcd13ifvqc6g","pricing_plan_id":"cebpf4jnsgd1na2vs0mg"},{"bike_id":"c5ad34a5-de23-413d-9e8b-ec61ed7009c1","system_id":"levelo_inurba_marseille","lat":43.28648,"lon":5.35144,"is_reserved":false,"is_disabled":false,"rental_uris":{"android":"levelo://app?vid=c5ad34a5-de23-413d-9e8b-ec61ed7009c1","ios":"levelo://app?vid=c5ad34a5-de23-413d-9e8b-ec61ed7009c1"},"vehicle_type_id":"4","last_reported":1744960194,"current_range_meters":9600,"station_id":"ce4bhch2rcd13ifvqeug","pricing_plan_id":"cebpf4jnsgd1na2vs0mg"},{"bike_id":"8033c8a6-9666-4125-9e17-3e7eaf5cf07f","system_id":"levelo_inurba_marseille","lat":43.25617,"lon":5.38304,"is_reserved":false,"is_disabled":false,"rental_uris":{"android":"levelo://app?vid=8033c8a6-9666-4125-9e17-3e7eaf5cf07f","ios":"levelo://app?vid=8033c8a6-9666-4125-9e17-3e7eaf5cf07f"},"vehicle_type_id":"4","last_reported":1744960194,"current_range_meters":9600,"station_id":"ce4bhih2rcd13ifvqfs0","pricing_plan_id":"cebpf4jnsgd1na2vs0mg"},{"bike_id":"b2b8d432-4103-4791-a0a7-7837878d706a","system_id":"levelo_inurba_marseille","lat":43.26792,"lon":5.39418,"is_reserved":false,"is_disabled":false,"rental_uris":{"android":"levelo://app?vid=b2b8d432-4103-4791-a0a7-7837878d706a","ios":"levelo://app?vid=b2b8d432-4103-4791-a0a7-7837878d706a"},"vehicle_type_id":"4","last_reported":1744960194,"current_range_meters":9600,"station_id":"ce4bhh12rcd13ifvqfg0","pricing_plan_id":"cebpf4jnsgd1na2vs0mg"},{"bike_id":"ec8c9ac7-1e95-4171-97f3-226ce1e3c951","system_id":"levelo_inurba_marseille","lat":43.32114,"lon":5.3678,"is_reserved":false,"is_disabled":false,"rental_uris":{"android":"levelo://app?vid=ec8c9ac7-1e95-4171-97f3-226ce1e3c951","ios":"levelo://app?vid=ec8c9ac7-1e95-4171-97f3-226ce1e3c951"},"vehicle_type_id":"4","last_reported":1744960194,"current_range_meters":10000,"station_id":"ce4bhrh2rcd13ifvqhug","pricing_plan_id":"cebpf4jnsgd1na2vs0mg"},{"bike_id":"98da1440-ddaf-41c4-ae43-8bc3e685a3bb","system_id":"levelo_inurba_marseille","lat":43.28426,"lon":5.34992,"is_reserved":false,"is_disabled":false,"rental_uris":{"android":"levelo://app?vid=98da1440-ddaf-41c4-ae43-8bc3e685a3bb","ios":"levelo://app?vid=98da1440-ddaf-41c4-ae43-8bc3e685a3bb"},"vehicle_type_id":"4","last_reported":1744960194,"current_range_meters":10000,"station_id":"ce4bhbh2rcd13ifvqepg","pricing_plan_id":"cebpf4jnsgd1na2vs0mg"},{"bike_id":"64a47f4a-f4e2-4e1b-949e-3e6cf7bc5e72","system_id":"levelo_inurba_marseille","lat":43.271974,"lon":5.409962,"is_reserved":false,"is_disabled":true,"rental_uris":{"android":"levelo://app?vid=64a47f4a-f4e2-4e1b-949e-3e6cf7bc5e72","ios":"levelo://app?vid=64a47f4a-f4e2-4e1b-949e-3e6cf7bc5e72"},"vehicle_type_id":"4","last_reported":1744960194,"current_range_meters":10000,"station_id":"ce4bhl12rcd13ifvqgf0","pricing_plan_id":"cebpf4jnsgd1na2vs0mg"},{"bike_id":"41fb0398-f2fe-4abb-ae37-a38f47615ea9","system_id":"levelo_inurba_marseille","lat":43.32365,"lon":5.36786,"is_reserved":false,"is_disabled":true,"rental_uris":{"android":"levelo://app?vid=41fb0398-f2fe-4abb-ae37-a38f47615ea9","ios":"levelo://app?vid=41fb0398-f2fe-4abb-ae37-a38f47615ea9"},"vehicle_type_id":"4","last_reported":1744960194,"current_range_meters":10000,"station_id":"ce4bhsh2rcd13ifvqi2g","pricing_plan_id":"cebpf4jnsgd1na2vs0mg"},{"bike_id":"4a17a27b-4979-4133-9ae1-996785f8fee4","system_id":"levelo_inurba_marseille","lat":43.23077,"lon":5.35506,"is_reserved":false,"is_disabled":false,"rental_uris":{"android":"levelo://app?vid=4a17a27b-4979-4133-9ae1-996785f8fee4","ios":"levelo://app?vid=4a17a27b-4979-4133-9ae1-996785f8fee4"},"vehicle_type_id":"4","last_reported":1744960194,"current_range_meters":10000,"station_id":"cpo3342slgdg3j2ifvpg","pricing_plan_id":"cebpf4jnsgd1na2vs0mg"},{"bike_id":"db8a50ff-1d30-465e-b416-eb0297a72a2b","system_id":"levelo_inurba_marseille","lat":43.29842,"lon":5.36287,"is_reserved":false,"is_disabled":false,"rental_uris":{"android":"levelo://app?vid=db8a50ff-1d30-465e-b416-eb0297a72a2b","ios":"levelo://app?vid=db8a50ff-1d30-465e-b416-eb0297a72a2b"},"vehicle_type_id":"4","last_reported":1744960194,"current_range_meters":10000,"station_id":"ce4bgpp2rcd13ifvqc3g","pricing_plan_id":"cebpf4jnsgd1na2vs0mg"},{"bike_id":"70b6b133-6705-4dfd-b4a7-6e88067904e8","system_id":"levelo_inurba_marseille","lat":43.24167,"lon":5.36397,"is_reserved":false,"is_disabled":false,"rental_uris":{"android":"levelo://app?vid=70b6b133-6705-4dfd-b4a7-6e88067904e8","ios":"levelo://app?vid=70b6b133-6705-4dfd-b4a7-6e88067904e8"},"vehicle_type_id":"4","last_reported":1744960194,"current_range_meters":10000,"station_id":"cpo36qri1sfpv3e86is0","pricing_plan_id":"cebpf4jnsgd1na2vs0mg"},{"bike_id":"a3cae938-8278-43d4-833d-10b5f8afeb69","system_id":"levelo_inurba_marseille","lat":43.26193,"lon":5.37447,"is_reserved":false,"is_disabled":false,"rental_uris":{"android":"levelo://app?vid=a3cae938-8278-43d4-833d-10b5f8afeb69","ios":"levelo://app?vid=a3cae938-8278-43d4-833d-10b5f8afeb69"},"vehicle_type_id":"4","last_reported":1744960194,"current_range_meters":10000,"station_id":"ce4bhgp2rcd13ifvqfc0","pricing_plan_id":"cebpf4jnsgd1na2vs0mg"},{"bike_id":"4b33f286-5cd5-4322-a997-29c53282b349","system_id":"levelo_inurba_marseille","lat":43.2716,"lon":5.41007,"is_reserved":false,"is_disabled":false,"rental_uris":{"android":"levelo://app?vid=4b33f286-5cd5-4322-a997-29c53282b349","ios":"levelo://app?vid=4b33f286-5cd5-4322-a997-29c53282b349"},"vehicle_type_id":"4","last_reported":1744960194,"current_range_meters":10000,"station_id":"ce4bhl12rcd13ifvqgf0","pricing_plan_id":"cebpf4jnsgd1na2vs0mg"},{"bike_id":"f348c235-69d5-41ec-b5f7-0a83dab5339a","system_id":"levelo_inurba_marseille","lat":43.28995,"lon":5.35591,"is_reserved":false,"is_disabled":true,"rental_uris":{"android":"levelo://app?vid=f348c235-69d5-41ec-b5f7-0a83dab5339a","ios":"levelo://app?vid=f348c235-69d5-41ec-b5f7-0a83dab5339a"},"vehicle_type_id":"4","last_reported":1744960194,"current_range_meters":10000,"station_id":"ce4bhb92rcd13ifvqen0","pricing_plan_id":"cebpf4jnsgd1na2vs0mg"},{"bike_id":"a63481db-7746-4af1-8aa6-37097b5fd4eb","system_id":"levelo_inurba_marseille","lat":43.31102,"lon":5.37812,"is_reserved":false,"is_disabled":false,"rental_uris":{"android":"levelo://app?vid=a63481db-7746-4af1-8aa6-37097b5fd4eb","ios":"levelo://app?vid=a63481db-7746-4af1-8aa6-37097b5fd4eb"},"vehicle_type_id":"4","last_reported":1744960194,"current_range_meters":10000,"station_id":"ce4bgt92rcd13ifvqcg0","pricing_plan_id":"cebpf4jnsgd1na2vs0mg"},{"bike_id":"04657881-18eb-45ab-8fbd-9926a7c863cf","system_id":"levelo_inurba_marseille","lat":43.286105,"lon":5.351077,"is_reserved":false,"is_disabled":false,"rental_uris":{"android":"levelo://app?vid=04657881-18eb-45ab-8fbd-9926a7c863cf","ios":"levelo://app?vid=04657881-18eb-45ab-8fbd-9926a7c863cf"},"vehicle_type_id":"4","last_reported":1744960194,"current_range_meters":10000,"station_id":"ce4bhch2rcd13ifvqeug","pricing_plan_id":"cebpf4jnsgd1na2vs0mg"},{"bike_id":"d7e9d8be-e49c-45a8-80f8-1f65bfb83645","system_id":"levelo_inurba_marseille","lat":43.23583,"lon":5.40341,"is_reserved":false,"is_disabled":false,"rental_uris":{"android":"levelo://app?vid=d7e9d8be-e49c-45a8-80f8-1f65bfb83645","ios":"levelo://app?vid=d7e9d8be-e49c-45a8-80f8-1f65bfb83645"},"vehicle_type_id":"4","last_reported":1744960194,"current_range_meters":10000,"station_id":"","pricing_plan_id":"cebpf4jnsgd1na2vs0mg"},{"bike_id":"5fddd535-ab4d-402f-9080-0ad0b96c0735","system_id":"levelo_inurba_marseille","lat":43.309311,"lon":5.367487,"is_reserved":false,"is_disabled":false,"rental_uris":{"android":"levelo://app?vid=5fddd535-ab4d-402f-9080-0ad0b96c0735","ios":"levelo://app?vid=5fddd535-ab4d-402f-9080-0ad0b96c0735"},"vehicle_type_id":"4","last_reported":1744960194,"current_range_meters":10800,"station_id":"","pricing_plan_id":"cebpf4jnsgd1na2vs0mg"},{"bike_id":"f85d96c5-43aa-42d3-a992-c2e785d61e81","system_id":"levelo_inurba_marseille","lat":43.266971,"lon":5.382418,"is_reserved":false,"is_disabled":false,"rental_uris":{"android":"levelo://app?vid=f85d96c5-43aa-42d3-a992-c2e785d61e81","ios":"levelo://app?vid=f85d96c5-43aa-42d3-a992-c2e785d61e81"},"vehicle_type_id":"4","last_reported":1744960194,"current_range_meters":10800,"station_id":"ce4bhg92rcd13ifvqf90","pricing_plan_id":"cebpf4jnsgd1na2vs0mg"},{"bike_id":"5e08de35-3e0c-4d5f-b69b-a662212c4dac","system_id":"levelo_inurba_marseille","lat":43.24148,"lon":5.39736,"is_reserved":false,"is_disabled":false,"rental_uris":{"android":"levelo://app?vid=5e08de35-3e0c-4d5f-b69b-a662212c4dac","ios":"levelo://app?vid=5e08de35-3e0c-4d5f-b69b-a662212c4dac"},"vehicle_type_id":"4","last_reported":1744960194,"current_range_meters":10800,"station_id":"ce4bhn12rcd13ifvqgpg","pricing_plan_id":"cebpf4jnsgd1na2vs0mg"},{"bike_id":"ae0e1566-e631-4bc5-9aed-0ebca70f0554","system_id":"levelo_inurba_marseille","lat":43.28609,"lon":5.35126,"is_reserved":false,"is_disabled":false,"rental_uris":{"android":"levelo://app?vid=ae0e1566-e631-4bc5-9aed-0ebca70f0554","ios":"levelo://app?vid=ae0e1566-e631-4bc5-9aed-0ebca70f0554"},"vehicle_type_id":"4","last_reported":1744960194,"current_range_meters":10800,"station_id":"ce4bhch2rcd13ifvqeug","pricing_plan_id":"cebpf4jnsgd1na2vs0mg"},{"bike_id":"0a7939c3-716d-4dac-9706-591a6c449d42","system_id":"levelo_inurba_marseille","lat":43.26211,"lon":5.37444,"is_reserved":false,"is_disabled":false,"rental_uris":{"android":"levelo://app?vid=0a7939c3-716d-4dac-9706-591a6c449d42","ios":"levelo://app?vid=0a7939c3-716d-4dac-9706-591a6c449d42"},"vehicle_type_id":"4","last_reported":1744960194,"current_range_meters":10800,"station_id":"ce4bhgp2rcd13ifvqfc0","pricing_plan_id":"cebpf4jnsgd1na2vs0mg"},{"bike_id":"21092c07-6713-4bda-93a0-0d1eb9144b1f","system_id":"levelo_inurba_marseille","lat":43.23202,"lon":5.39999,"is_reserved":false,"is_disabled":false,"rental_uris":{"android":"levelo://app?vid=21092c07-6713-4bda-93a0-0d1eb9144b1f","ios":"levelo://app?vid=21092c07-6713-4bda-93a0-0d1eb9144b1f"},"vehicle_type_id":"4","last_reported":1744960194,"current_range_meters":10800,"station_id":"ce4bhn12rcd13ifvqgqg","pricing_plan_id":"cebpf4jnsgd1na2vs0mg"},{"bike_id":"a8acab35-e8ef-4d3d-a4b5-67d71ab7687d","system_id":"levelo_inurba_marseille","lat":43.23958,"lon":5.36652,"is_reserved":false,"is_disabled":false,"rental_uris":{"android":"levelo://app?vid=a8acab35-e8ef-4d3d-a4b5-67d71ab7687d","ios":"levelo://app?vid=a8acab35-e8ef-4d3d-a4b5-67d71ab7687d"},"vehicle_type_id":"4","last_reported":1744960194,"current_range_meters":11200,"station_id":"ce4bhi12rcd13ifvqfp0","pricing_plan_id":"cebpf4jnsgd1na2vs0mg"},{"bike_id":"e14c265e-eca3-4791-a3e7-f534121ae166","system_id":"levelo_inurba_marseille","lat":43.2294,"lon":5.35386,"is_reserved":false,"is_disabled":false,"rental_uris":{"android":"levelo://app?vid=e14c265e-eca3-4791-a3e7-f534121ae166","ios":"levelo://app?vid=e14c265e-eca3-4791-a3e7-f534121ae166"},"vehicle_type_id":"4","last_reported":1744960194,"current_range_meters":11200,"station_id":"cpo3532slgdg3j2ikp40","pricing_plan_id":"cebpf4jnsgd1na2vs0mg"},{"bike_id":"52307e0a-ff90-49ff-9206-cd8bdc5b31d4","system_id":"levelo_inurba_marseille","lat":43.29273,"lon":5.36846,"is_reserved":false,"is_disabled":false,"rental_uris":{"android":"levelo://app?vid=52307e0a-ff90-49ff-9206-cd8bdc5b31d4","ios":"levelo://app?vid=52307e0a-ff90-49ff-9206-cd8bdc5b31d4"},"vehicle_type_id":"4","last_reported":1744960194,"current_range_meters":11200,"station_id":"ce4bhbp2rcd13ifvqesg","pricing_plan_id":"cebpf4jnsgd1na2vs0mg"},{"bike_id":"f720e68a-58c8-440f-bcbc-822e9ccaaecb","system_id":"levelo_inurba_marseille","lat":43.29932,"lon":5.36561,"is_reserved":false,"is_disabled":false,"rental_uris":{"android":"levelo://app?vid=f720e68a-58c8-440f-bcbc-822e9ccaaecb","ios":"levelo://app?vid=f720e68a-58c8-440f-bcbc-822e9ccaaecb"},"vehicle_type_id":"4","last_reported":1744960194,"current_range_meters":11200,"station_id":"ce4bgm92rcd13ifvqbr0","pricing_plan_id":"cebpf4jnsgd1na2vs0mg"},{"bike_id":"69dcc09d-aa97-47b9-b298-7bde504bc3c8","system_id":"levelo_inurba_marseille","lat":43.24069,"lon":5.37748,"is_reserved":false,"is_disabled":false,"rental_uris":{"android":"levelo://app?vid=69dcc09d-aa97-47b9-b298-7bde504bc3c8","ios":"levelo://app?vid=69dcc09d-aa97-47b9-b298-7bde504bc3c8"},"vehicle_type_id":"4","last_reported":1744960194,"current_range_meters":10800,"station_id":"ce4bhnp2rcd13ifvqgvg","pricing_plan_id":"cebpf4jnsgd1na2vs0mg"},{"bike_id":"1210dc72-37b8-49f7-b249-6faa54daba28","system_id":"levelo_inurba_marseille","lat":43.323527,"lon":5.367517,"is_reserved":false,"is_disabled":false,"rental_uris":{"android":"levelo://app?vid=1210dc72-37b8-49f7-b249-6faa54daba28","ios":"levelo://app?vid=1210dc72-37b8-49f7-b249-6faa54daba28"},"vehicle_type_id":"4","last_reported":1744960194,"current_range_meters":11600,"station_id":"ce4bhsh2rcd13ifvqi2g","pricing_plan_id":"cebpf4jnsgd1na2vs0mg"},{"bike_id":"94db8460-8919-43c5-b6c2-b1d73dbe3d16","system_id":"levelo_inurba_marseille","lat":43.26188,"lon":5.40447,"is_reserved":false,"is_disabled":false,"rental_uris":{"android":"levelo://app?vid=94db8460-8919-43c5-b6c2-b1d73dbe3d16","ios":"levelo://app?vid=94db8460-8919-43c5-b6c2-b1d73dbe3d16"},"vehicle_type_id":"4","last_reported":1744960194,"current_range_meters":11600,"station_id":"ce4bhmh2rcd13ifvqgmg","pricing_plan_id":"cebpf4jnsgd1na2vs0mg"},{"bike_id":"860add7b-e12e-4e2c-b219-89fa78edf4d3","system_id":"levelo_inurba_marseille","lat":43.29843,"lon":5.36269,"is_reserved":false,"is_disabled":false,"rental_uris":{"android":"levelo://app?vid=860add7b-e12e-4e2c-b219-89fa78edf4d3","ios":"levelo://app?vid=860add7b-e12e-4e2c-b219-89fa78edf4d3"},"vehicle_type_id":"4","last_reported":1744960194,"current_range_meters":12000,"station_id":"ce4bgpp2rcd13ifvqc3g","pricing_plan_id":"cebpf4jnsgd1na2vs0mg"},{"bike_id":"f044dc61-a8f7-4401-bf36-4720b4980ba6","system_id":"levelo_inurba_marseille","lat":43.26231,"lon":5.40451,"is_reserved":false,"is_disabled":false,"rental_uris":{"android":"levelo://app?vid=f044dc61-a8f7-4401-bf36-4720b4980ba6","ios":"levelo://app?vid=f044dc61-a8f7-4401-bf36-4720b4980ba6"},"vehicle_type_id":"4","last_reported":1744960194,"current_range_meters":12000,"station_id":"ce4bhmh2rcd13ifvqgmg","pricing_plan_id":"cebpf4jnsgd1na2vs0mg"},{"bike_id":"0fb1a105-b046-4c66-baab-c2dec6ff86a2","system_id":"levelo_inurba_marseille","lat":43.2862,"lon":5.370624,"is_reserved":false,"is_disabled":false,"rental_uris":{"android":"levelo://app?vid=0fb1a105-b046-4c66-baab-c2dec6ff86a2","ios":"levelo://app?vid=0fb1a105-b046-4c66-baab-c2dec6ff86a2"},"vehicle_type_id":"4","last_reported":1744960194,"current_range_meters":12000,"station_id":"ce4bht12rcd13ifvqi60","pricing_plan_id":"cebpf4jnsgd1na2vs0mg"},{"bike_id":"ba9786bb-1cac-4b75-83c5-e113aaf2f7c3","system_id":"levelo_inurba_marseille","lat":43.31368,"lon":5.36686,"is_reserved":false,"is_disabled":false,"rental_uris":{"android":"levelo://app?vid=ba9786bb-1cac-4b75-83c5-e113aaf2f7c3","ios":"levelo://app?vid=ba9786bb-1cac-4b75-83c5-e113aaf2f7c3"},"vehicle_type_id":"4","last_reported":1744960194,"current_range_meters":12400,"station_id":"ce4bgr92rcd13ifvqc6g","pricing_plan_id":"cebpf4jnsgd1na2vs0mg"},{"bike_id":"2daa1a4a-afb7-470b-9fac-d2f8da0290d5","system_id":"levelo_inurba_marseille","lat":43.2556,"lon":5.3825,"is_reserved":false,"is_disabled":false,"rental_uris":{"android":"levelo://app?vid=2daa1a4a-afb7-470b-9fac-d2f8da0290d5","ios":"levelo://app?vid=2daa1a4a-afb7-470b-9fac-d2f8da0290d5"},"vehicle_type_id":"4","last_reported":1744960194,"current_range_meters":12400,"station_id":"ce4bhih2rcd13ifvqfs0","pricing_plan_id":"cebpf4jnsgd1na2vs0mg"},{"bike_id":"0b73279b-3544-425f-8ea6-2a11b8dc5e95","system_id":"levelo_inurba_marseille","lat":43.31318,"lon":5.39725,"is_reserved":false,"is_disabled":false,"rental_uris":{"android":"levelo://app?vid=0b73279b-3544-425f-8ea6-2a11b8dc5e95","ios":"levelo://app?vid=0b73279b-3544-425f-8ea6-2a11b8dc5e95"},"vehicle_type_id":"4","last_reported":1744960194,"current_range_meters":12400,"station_id":"ce4bgvp2rcd13ifvqcu0","pricing_plan_id":"cebpf4jnsgd1na2vs0mg"},{"bike_id":"7de48f14-7797-4b06-ac93-3d5cdc757db4","system_id":"levelo_inurba_marseille","lat":43.30462,"lon":5.37916,"is_reserved":false,"is_disabled":true,"rental_uris":{"android":"levelo://app?vid=7de48f14-7797-4b06-ac93-3d5cdc757db4","ios":"levelo://app?vid=7de48f14-7797-4b06-ac93-3d5cdc757db4"},"vehicle_type_id":"4","last_reported":1744960194,"current_range_meters":12800,"station_id":"ce4bgup2rcd13ifvqcn0","pricing_plan_id":"cebpf4jnsgd1na2vs0mg"},{"bike_id":"b05102a8-8877-412e-aa52-3e7e2e12ebc2","system_id":"levelo_inurba_marseille","lat":43.27945,"lon":5.41053,"is_reserved":false,"is_disabled":false,"rental_uris":{"android":"levelo://app?vid=b05102a8-8877-412e-aa52-3e7e2e12ebc2","ios":"levelo://app?vid=b05102a8-8877-412e-aa52-3e7e2e12ebc2"},"vehicle_type_id":"4","last_reported":1744960194,"current_range_meters":12800,"station_id":"ce4bhnp2rcd13ifvqh0g","pricing_plan_id":"cebpf4jnsgd1na2vs0mg"},{"bike_id":"a06bfa88-6fd0-439b-a217-59369ba38f78","system_id":"levelo_inurba_marseille","lat":43.28435,"lon":5.37531,"is_reserved":false,"is_disabled":false,"rental_uris":{"android":"levelo://app?vid=a06bfa88-6fd0-439b-a217-59369ba38f78","ios":"levelo://app?vid=a06bfa88-6fd0-439b-a217-59369ba38f78"},"vehicle_type_id":"4","last_reported":1744960194,"current_range_meters":12800,"station_id":"ce4bh412rcd13ifvqds0","pricing_plan_id":"cebpf4jnsgd1na2vs0mg"},{"bike_id":"9ccc1250-0ff6-4acc-bd2f-67431ef76582","system_id":"levelo_inurba_marseille","lat":43.28415,"lon":5.34986,"is_reserved":false,"is_disabled":false,"rental_uris":{"android":"levelo://app?vid=9ccc1250-0ff6-4acc-bd2f-67431ef76582","ios":"levelo://app?vid=9ccc1250-0ff6-4acc-bd2f-67431ef76582"},"vehicle_type_id":"4","last_reported":1744960194,"current_range_meters":12800,"station_id":"ce4bhbh2rcd13ifvqepg","pricing_plan_id":"cebpf4jnsgd1na2vs0mg"},{"bike_id":"253bc5b8-5bd7-4c5d-8bee-873f92fa7636","system_id":"levelo_inurba_marseille","lat":43.28851,"lon":5.35857,"is_reserved":false,"is_disabled":false,"rental_uris":{"android":"levelo://app?vid=253bc5b8-5bd7-4c5d-8bee-873f92fa7636","ios":"levelo://app?vid=253bc5b8-5bd7-4c5d-8bee-873f92fa7636"},"vehicle_type_id":"4","last_reported":1744960194,"current_range_meters":13600,"station_id":"ce4bhb12rcd13ifvqem0","pricing_plan_id":"cebpf4jnsgd1na2vs0mg"},{"bike_id":"3e755304-b8bd-4cdd-9d9f-e5e64b526a98","system_id":"levelo_inurba_marseille","lat":43.26684,"lon":5.38273,"is_reserved":false,"is_disabled":false,"rental_uris":{"android":"levelo://app?vid=3e755304-b8bd-4cdd-9d9f-e5e64b526a98","ios":"levelo://app?vid=3e755304-b8bd-4cdd-9d9f-e5e64b526a98"},"vehicle_type_id":"4","last_reported":1744960194,"current_range_meters":14000,"station_id":"ce4bhg92rcd13ifvqf90","pricing_plan_id":"cebpf4jnsgd1na2vs0mg"},{"bike_id":"fdb736b6-d23f-4fa0-8b91-7424bf67be26","system_id":"levelo_inurba_marseille","lat":43.34155,"lon":5.40917,"is_reserved":false,"is_disabled":false,"rental_uris":{"android":"levelo://app?vid=fdb736b6-d23f-4fa0-8b91-7424bf67be26","ios":"levelo://app?vid=fdb736b6-d23f-4fa0-8b91-7424bf67be26"},"vehicle_type_id":"4","last_reported":1744960194,"current_range_meters":14000,"station_id":"ce4bhqh2rcd13ifvqhlg","pricing_plan_id":"cebpf4jnsgd1na2vs0mg"},{"bike_id":"076355f1-ba05-4b14-94f8-7678f1392346","system_id":"levelo_inurba_marseille","lat":43.28383,"lon":5.35008,"is_reserved":false,"is_disabled":false,"rental_uris":{"android":"levelo://app?vid=076355f1-ba05-4b14-94f8-7678f1392346","ios":"levelo://app?vid=076355f1-ba05-4b14-94f8-7678f1392346"},"vehicle_type_id":"4","last_reported":1744960194,"current_range_meters":14000,"station_id":"","pricing_plan_id":"cebpf4jnsgd1na2vs0mg"},{"bike_id":"a0ddb0a5-f7f0-4281-aa27-9e82747cc573","system_id":"levelo_inurba_marseille","lat":43.33754,"lon":5.37491,"is_reserved":false,"is_disabled":false,"rental_uris":{"android":"levelo://app?vid=a0ddb0a5-f7f0-4281-aa27-9e82747cc573","ios":"levelo://app?vid=a0ddb0a5-f7f0-4281-aa27-9e82747cc573"},"vehicle_type_id":"4","last_reported":1744960194,"current_range_meters":14000,"station_id":"","pricing_plan_id":"cebpf4jnsgd1na2vs0mg"},{"bike_id":"9fe6b68c-b08e-4d81-8c7d-760938ace4d6","system_id":"levelo_inurba_marseille","lat":43.29228,"lon":5.36079,"is_reserved":false,"is_disabled":false,"rental_uris":{"android":"levelo://app?vid=9fe6b68c-b08e-4d81-8c7d-760938ace4d6","ios":"levelo://app?vid=9fe6b68c-b08e-4d81-8c7d-760938ace4d6"},"vehicle_type_id":"4","last_reported":1744960194,"current_range_meters":14400,"station_id":"ce4bhbh2rcd13ifvqeqg","pricing_plan_id":"cebpf4jnsgd1na2vs0mg"},{"bike_id":"bbb1c662-cc65-4c72-8489-de78d2f0f12f","system_id":"levelo_inurba_marseille","lat":43.23058,"lon":5.35492,"is_reserved":false,"is_disabled":false,"rental_uris":{"android":"levelo://app?vid=bbb1c662-cc65-4c72-8489-de78d2f0f12f","ios":"levelo://app?vid=bbb1c662-cc65-4c72-8489-de78d2f0f12f"},"vehicle_type_id":"4","last_reported":1744960194,"current_range_meters":14400,"station_id":"cpo3342slgdg3j2ifvpg","pricing_plan_id":"cebpf4jnsgd1na2vs0mg"},{"bike_id":"bd492354-2d79-4427-82ee-84e4a12dea30","system_id":"levelo_inurba_marseille","lat":43.212,"lon":5.3507,"is_reserved":false,"is_disabled":false,"rental_uris":{"android":"levelo://app?vid=bd492354-2d79-4427-82ee-84e4a12dea30","ios":"levelo://app?vid=bd492354-2d79-4427-82ee-84e4a12dea30"},"vehicle_type_id":"4","last_reported":1744960194,"current_range_meters":14400,"station_id":"st_cvj6sg6p6f1abm77japg","pricing_plan_id":"cebpf4jnsgd1na2vs0mg"},{"bike_id":"7ed91d22-3d5b-4254-83bf-64eb2a7d5481","system_id":"levelo_inurba_marseille","lat":43.22512,"lon":5.34785,"is_reserved":false,"is_disabled":false,"rental_uris":{"android":"levelo://app?vid=7ed91d22-3d5b-4254-83bf-64eb2a7d5481","ios":"levelo://app?vid=7ed91d22-3d5b-4254-83bf-64eb2a7d5481"},"vehicle_type_id":"4","last_reported":1744960194,"current_range_meters":14400,"station_id":"","pricing_plan_id":"cebpf4jnsgd1na2vs0mg"},{"bike_id":"001f7578-2809-4f13-b395-fda605716a8f","system_id":"levelo_inurba_marseille","lat":43.28417,"lon":5.34991,"is_reserved":false,"is_disabled":false,"rental_uris":{"android":"levelo://app?vid=001f7578-2809-4f13-b395-fda605716a8f","ios":"levelo://app?vid=001f7578-2809-4f13-b395-fda605716a8f"},"vehicle_type_id":"4","last_reported":1744960194,"current_range_meters":14400,"station_id":"ce4bhbh2rcd13ifvqepg","pricing_plan_id":"cebpf4jnsgd1na2vs0mg"},{"bike_id":"51f32d2c-1879-464c-acba-93c57bc66ab6","system_id":"levelo_inurba_marseille","lat":43.29032,"lon":5.35917,"is_reserved":false,"is_disabled":true,"rental_uris":{"android":"levelo://app?vid=51f32d2c-1879-464c-acba-93c57bc66ab6","ios":"levelo://app?vid=51f32d2c-1879-464c-acba-93c57bc66ab6"},"vehicle_type_id":"4","last_reported":1744960194,"current_range_meters":14400,"station_id":"ce4bha92rcd13ifvqeg0","pricing_plan_id":"cebpf4jnsgd1na2vs0mg"},{"bike_id":"007ee9c7-c769-4de9-a218-517ff098b9cd","system_id":"levelo_inurba_marseille","lat":43.314505,"lon":5.373787,"is_reserved":false,"is_disabled":false,"rental_uris":{"android":"levelo://app?vid=007ee9c7-c769-4de9-a218-517ff098b9cd","ios":"levelo://app?vid=007ee9c7-c769-4de9-a218-517ff098b9cd"},"vehicle_type_id":"4","last_reported":1744960194,"current_range_meters":14400,"station_id":"","pricing_plan_id":"cebpf4jnsgd1na2vs0mg"},{"bike_id":"0ffafc47-74ff-4ddc-86e8-6f4cf8df5cd2","system_id":"levelo_inurba_marseille","lat":43.22925,"lon":5.35388,"is_reserved":false,"is_disabled":false,"rental_uris":{"android":"levelo://app?vid=0ffafc47-74ff-4ddc-86e8-6f4cf8df5cd2","ios":"levelo://app?vid=0ffafc47-74ff-4ddc-86e8-6f4cf8df5cd2"},"vehicle_type_id":"4","last_reported":1744960194,"current_range_meters":14400,"station_id":"cpo3532slgdg3j2ikp40","pricing_plan_id":"cebpf4jnsgd1na2vs0mg"},{"bike_id":"b507333b-d12b-4fd9-9e05-5782ab44431e","system_id":"levelo_inurba_marseille","lat":43.33762,"lon":5.37467,"is_reserved":false,"is_disabled":false,"rental_uris":{"android":"levelo://app?vid=b507333b-d12b-4fd9-9e05-5782ab44431e","ios":"levelo://app?vid=b507333b-d12b-4fd9-9e05-5782ab44431e"},"vehicle_type_id":"4","last_reported":1744960194,"current_range_meters":14400,"station_id":"","pricing_plan_id":"cebpf4jnsgd1na2vs0mg"},{"bike_id":"ef740a24-2f8b-411f-a8c5-46dfc5500e3d","system_id":"levelo_inurba_marseille","lat":43.29023,"lon":5.39974,"is_reserved":false,"is_disabled":false,"rental_uris":{"android":"levelo://app?vid=ef740a24-2f8b-411f-a8c5-46dfc5500e3d","ios":"levelo://app?vid=ef740a24-2f8b-411f-a8c5-46dfc5500e3d"},"vehicle_type_id":"4","last_reported":1744960194,"current_range_meters":14000,"station_id":"ce4bh392rcd13ifvqdm0","pricing_plan_id":"cebpf4jnsgd1na2vs0mg"},{"bike_id":"51955508-b17b-401f-89d0-91ac7d688484","system_id":"levelo_inurba_marseille","lat":43.25819,"lon":5.3944,"is_reserved":false,"is_disabled":false,"rental_uris":{"android":"levelo://app?vid=51955508-b17b-401f-89d0-91ac7d688484","ios":"levelo://app?vid=51955508-b17b-401f-89d0-91ac7d688484"},"vehicle_type_id":"4","last_reported":1744960194,"current_range_meters":14400,"station_id":"ce4bhip2rcd13ifvqft0","pricing_plan_id":"cebpf4jnsgd1na2vs0mg"},{"bike_id":"934a8fc0-98f8-4aaf-a145-d485dee937c7","system_id":"levelo_inurba_marseille","lat":43.32362,"lon":5.36769,"is_reserved":false,"is_disabled":false,"rental_uris":{"android":"levelo://app?vid=934a8fc0-98f8-4aaf-a145-d485dee937c7","ios":"levelo://app?vid=934a8fc0-98f8-4aaf-a145-d485dee937c7"},"vehicle_type_id":"4","last_reported":1744960194,"current_range_meters":14400,"station_id":"ce4bhsh2rcd13ifvqi2g","pricing_plan_id":"cebpf4jnsgd1na2vs0mg"},{"bike_id":"5cdbc4c1-0642-46e4-87cf-2386924265b5","system_id":"levelo_inurba_marseille","lat":43.26557,"lon":5.37347,"is_reserved":false,"is_disabled":false,"rental_uris":{"android":"levelo://app?vid=5cdbc4c1-0642-46e4-87cf-2386924265b5","ios":"levelo://app?vid=5cdbc4c1-0642-46e4-87cf-2386924265b5"},"vehicle_type_id":"4","last_reported":1744960194,"current_range_meters":14400,"station_id":"ce4bhg12rcd13ifvqf70","pricing_plan_id":"cebpf4jnsgd1na2vs0mg"},{"bike_id":"135f0758-d03d-42f1-a2d6-49e93dc7a634","system_id":"levelo_inurba_marseille","lat":43.29857,"lon":5.36278,"is_reserved":false,"is_disabled":false,"rental_uris":{"android":"levelo://app?vid=135f0758-d03d-42f1-a2d6-49e93dc7a634","ios":"levelo://app?vid=135f0758-d03d-42f1-a2d6-49e93dc7a634"},"vehicle_type_id":"4","last_reported":1744960194,"current_range_meters":14400,"station_id":"ce4bgpp2rcd13ifvqc3g","pricing_plan_id":"cebpf4jnsgd1na2vs0mg"},{"bike_id":"4cdeb94d-6b8c-4d5b-a59f-49def5ff14db","system_id":"levelo_inurba_marseille","lat":43.27497,"lon":5.42468,"is_reserved":false,"is_disabled":false,"rental_uris":{"android":"levelo://app?vid=4cdeb94d-6b8c-4d5b-a59f-49def5ff14db","ios":"levelo://app?vid=4cdeb94d-6b8c-4d5b-a59f-49def5ff14db"},"vehicle_type_id":"4","last_reported":1744960194,"current_range_meters":14800,"station_id":"ce4bhn92rcd13ifvqgrg","pricing_plan_id":"cebpf4jnsgd1na2vs0mg"},{"bike_id":"e3b9c86b-9e49-41d1-83da-e803d37c2cf4","system_id":"levelo_inurba_marseille","lat":43.30118,"lon":5.38783,"is_reserved":false,"is_disabled":true,"rental_uris":{"android":"levelo://app?vid=e3b9c86b-9e49-41d1-83da-e803d37c2cf4","ios":"levelo://app?vid=e3b9c86b-9e49-41d1-83da-e803d37c2cf4"},"vehicle_type_id":"4","last_reported":1744960194,"current_range_meters":15200,"station_id":"ce4bghh2rcd13ifvqb60","pricing_plan_id":"cebpf4jnsgd1na2vs0mg"},{"bike_id":"87dfde22-0946-4fff-8481-b20f78b7b350","system_id":"levelo_inurba_marseille","lat":43.31216,"lon":5.36837,"is_reserved":false,"is_disabled":false,"rental_uris":{"android":"levelo://app?vid=87dfde22-0946-4fff-8481-b20f78b7b350","ios":"levelo://app?vid=87dfde22-0946-4fff-8481-b20f78b7b350"},"vehicle_type_id":"4","last_reported":1744960194,"current_range_meters":15200,"station_id":"ce4bgl92rcd13ifvqbq0","pricing_plan_id":"cebpf4jnsgd1na2vs0mg"},{"bike_id":"90a191a3-77b7-49f4-a6f6-fe4f1f55fcb7","system_id":"levelo_inurba_marseille","lat":43.3019,"lon":5.38082,"is_reserved":false,"is_disabled":false,"rental_uris":{"android":"levelo://app?vid=90a191a3-77b7-49f4-a6f6-fe4f1f55fcb7","ios":"levelo://app?vid=90a191a3-77b7-49f4-a6f6-fe4f1f55fcb7"},"vehicle_type_id":"4","last_reported":1744960194,"current_range_meters":15200,"station_id":"","pricing_plan_id":"cebpf4jnsgd1na2vs0mg"},{"bike_id":"48229575-bb87-4106-aa7e-b66ccc2bfdc5","system_id":"levelo_inurba_marseille","lat":43.31356,"lon":5.36705,"is_reserved":false,"is_disabled":false,"rental_uris":{"android":"levelo://app?vid=48229575-bb87-4106-aa7e-b66ccc2bfdc5","ios":"levelo://app?vid=48229575-bb87-4106-aa7e-b66ccc2bfdc5"},"vehicle_type_id":"4","last_reported":1744960194,"current_range_meters":15200,"station_id":"ce4bgr92rcd13ifvqc6g","pricing_plan_id":"cebpf4jnsgd1na2vs0mg"},{"bike_id":"8f05c592-8cc0-48b3-abca-ba24955823de","system_id":"levelo_inurba_marseille","lat":43.299103,"lon":5.403813,"is_reserved":false,"is_disabled":false,"rental_uris":{"android":"levelo://app?vid=8f05c592-8cc0-48b3-abca-ba24955823de","ios":"levelo://app?vid=8f05c592-8cc0-48b3-abca-ba24955823de"},"vehicle_type_id":"4","last_reported":1744960194,"current_range_meters":15200,"station_id":"","pricing_plan_id":"cebpf4jnsgd1na2vs0mg"},{"bike_id":"b1ef82b0-7a77-4486-8ec7-83765358e14a","system_id":"levelo_inurba_marseille","lat":43.2903,"lon":5.3866,"is_reserved":false,"is_disabled":true,"rental_uris":{"android":"levelo://app?vid=b1ef82b0-7a77-4486-8ec7-83765358e14a","ios":"levelo://app?vid=b1ef82b0-7a77-4486-8ec7-83765358e14a"},"vehicle_type_id":"4","last_reported":1744960194,"current_range_meters":16000,"station_id":"ce4bh4p2rcd13ifvqe0g","pricing_plan_id":"cebpf4jnsgd1na2vs0mg"},{"bike_id":"ecf1b2ce-6838-4d42-ab1f-fc94cebd3b05","system_id":"levelo_inurba_marseille","lat":43.32372,"lon":5.38887,"is_reserved":false,"is_disabled":false,"rental_uris":{"android":"levelo://app?vid=ecf1b2ce-6838-4d42-ab1f-fc94cebd3b05","ios":"levelo://app?vid=ecf1b2ce-6838-4d42-ab1f-fc94cebd3b05"},"vehicle_type_id":"4","last_reported":1744960194,"current_range_meters":16000,"station_id":"ce4bhqp2rcd13ifvqhog","pricing_plan_id":"cebpf4jnsgd1na2vs0mg"},{"bike_id":"a6ac5e02-064d-42a6-b7a2-72da49b9d797","system_id":"levelo_inurba_marseille","lat":43.27967,"lon":5.38752,"is_reserved":false,"is_disabled":false,"rental_uris":{"android":"levelo://app?vid=a6ac5e02-064d-42a6-b7a2-72da49b9d797","ios":"levelo://app?vid=a6ac5e02-064d-42a6-b7a2-72da49b9d797"},"vehicle_type_id":"4","last_reported":1744960194,"current_range_meters":16000,"station_id":"ce4bhg12rcd13ifvqf80","pricing_plan_id":"cebpf4jnsgd1na2vs0mg"},{"bike_id":"3d8c248e-bb6e-4b01-81fc-fc98a296095f","system_id":"levelo_inurba_marseille","lat":43.26215,"lon":5.37439,"is_reserved":false,"is_disabled":false,"rental_uris":{"android":"levelo://app?vid=3d8c248e-bb6e-4b01-81fc-fc98a296095f","ios":"levelo://app?vid=3d8c248e-bb6e-4b01-81fc-fc98a296095f"},"vehicle_type_id":"4","last_reported":1744960194,"current_range_meters":16000,"station_id":"ce4bhgp2rcd13ifvqfc0","pricing_plan_id":"cebpf4jnsgd1na2vs0mg"},{"bike_id":"ef6e9c6f-8f69-4fcf-9727-b556a001e5bc","system_id":"levelo_inurba_marseille","lat":43.2955,"lon":5.42302,"is_reserved":false,"is_disabled":false,"rental_uris":{"android":"levelo://app?vid=ef6e9c6f-8f69-4fcf-9727-b556a001e5bc","ios":"levelo://app?vid=ef6e9c6f-8f69-4fcf-9727-b556a001e5bc"},"vehicle_type_id":"4","last_reported":1744960194,"current_range_meters":16000,"station_id":"ce4bhph2rcd13ifvqhdg","pricing_plan_id":"cebpf4jnsgd1na2vs0mg"},{"bike_id":"33efbe4e-e642-4271-be29-4926b421ca5b","system_id":"levelo_inurba_marseille","lat":43.24176,"lon":5.36395,"is_reserved":false,"is_disabled":false,"rental_uris":{"android":"levelo://app?vid=33efbe4e-e642-4271-be29-4926b421ca5b","ios":"levelo://app?vid=33efbe4e-e642-4271-be29-4926b421ca5b"},"vehicle_type_id":"4","last_reported":1744960194,"current_range_meters":16000,"station_id":"cpo36qri1sfpv3e86is0","pricing_plan_id":"cebpf4jnsgd1na2vs0mg"},{"bike_id":"7eb8853e-3665-40f5-8308-1299f0674652","system_id":"levelo_inurba_marseille","lat":43.30365,"lon":5.42487,"is_reserved":false,"is_disabled":false,"rental_uris":{"android":"levelo://app?vid=7eb8853e-3665-40f5-8308-1299f0674652","ios":"levelo://app?vid=7eb8853e-3665-40f5-8308-1299f0674652"},"vehicle_type_id":"4","last_reported":1744960194,"current_range_meters":16000,"station_id":"ce4bhoh2rcd13ifvqh6g","pricing_plan_id":"cebpf4jnsgd1na2vs0mg"},{"bike_id":"f9d3fbe6-73e5-424e-af02-f446d5b07152","system_id":"levelo_inurba_marseille","lat":43.21755,"lon":5.34602,"is_reserved":false,"is_disabled":false,"rental_uris":{"android":"levelo://app?vid=f9d3fbe6-73e5-424e-af02-f446d5b07152","ios":"levelo://app?vid=f9d3fbe6-73e5-424e-af02-f446d5b07152"},"vehicle_type_id":"4","last_reported":1744960194,"current_range_meters":16000,"station_id":"st_cvj6r9ubvosntc0bgbag","pricing_plan_id":"cebpf4jnsgd1na2vs0mg"},{"bike_id":"ddb81e49-3ca3-408e-bb7e-97e32c56d0f7","system_id":"levelo_inurba_marseille","lat":43.2792,"lon":5.37986,"is_reserved":false,"is_disabled":false,"rental_uris":{"android":"levelo://app?vid=ddb81e49-3ca3-408e-bb7e-97e32c56d0f7","ios":"levelo://app?vid=ddb81e49-3ca3-408e-bb7e-97e32c56d0f7"},"vehicle_type_id":"4","last_reported":1744960194,"current_range_meters":16000,"station_id":"ce4bhf92rcd13ifvqf50","pricing_plan_id":"cebpf4jnsgd1na2vs0mg"},{"bike_id":"68342d9f-f0b6-47e7-b690-b27078e67a77","system_id":"levelo_inurba_marseille","lat":43.24145,"lon":5.36445,"is_reserved":false,"is_disabled":false,"rental_uris":{"android":"levelo://app?vid=68342d9f-f0b6-47e7-b690-b27078e67a77","ios":"levelo://app?vid=68342d9f-f0b6-47e7-b690-b27078e67a77"},"vehicle_type_id":"4","last_reported":1744960194,"current_range_meters":16400,"station_id":"cpo36qri1sfpv3e86is0","pricing_plan_id":"cebpf4jnsgd1na2vs0mg"},{"bike_id":"5fba1097-d266-4f11-ba7e-0f0b630b3da9","system_id":"levelo_inurba_marseille","lat":43.30802,"lon":5.43516,"is_reserved":false,"is_disabled":false,"rental_uris":{"android":"levelo://app?vid=5fba1097-d266-4f11-ba7e-0f0b630b3da9","ios":"levelo://app?vid=5fba1097-d266-4f11-ba7e-0f0b630b3da9"},"vehicle_type_id":"4","last_reported":1744960194,"current_range_meters":16400,"station_id":"ce4bhph2rcd13ifvqheg","pricing_plan_id":"cebpf4jnsgd1na2vs0mg"},{"bike_id":"5c991962-d5a0-46ab-b8d3-7e26135894a2","system_id":"levelo_inurba_marseille","lat":43.26032,"lon":5.37555,"is_reserved":false,"is_disabled":false,"rental_uris":{"android":"levelo://app?vid=5c991962-d5a0-46ab-b8d3-7e26135894a2","ios":"levelo://app?vid=5c991962-d5a0-46ab-b8d3-7e26135894a2"},"vehicle_type_id":"4","last_reported":1744960194,"current_range_meters":16000,"station_id":"ce4bhgh2rcd13ifvqfa0","pricing_plan_id":"cebpf4jnsgd1na2vs0mg"},{"bike_id":"ae6f6bc3-b076-4713-869e-a7f6201bc7ea","system_id":"levelo_inurba_marseille","lat":43.24835,"lon":5.37453,"is_reserved":false,"is_disabled":false,"rental_uris":{"android":"levelo://app?vid=ae6f6bc3-b076-4713-869e-a7f6201bc7ea","ios":"levelo://app?vid=ae6f6bc3-b076-4713-869e-a7f6201bc7ea"},"vehicle_type_id":"4","last_reported":1744960194,"current_range_meters":16400,"station_id":"","pricing_plan_id":"cebpf4jnsgd1na2vs0mg"},{"bike_id":"d13edfb3-be13-4c51-b95d-b78f7cf50b6c","system_id":"levelo_inurba_marseille","lat":43.28665,"lon":5.38674,"is_reserved":false,"is_disabled":false,"rental_uris":{"android":"levelo://app?vid=d13edfb3-be13-4c51-b95d-b78f7cf50b6c","ios":"levelo://app?vid=d13edfb3-be13-4c51-b95d-b78f7cf50b6c"},"vehicle_type_id":"4","last_reported":1744960194,"current_range_meters":16400,"station_id":"ce4bh492rcd13ifvqdug","pricing_plan_id":"cebpf4jnsgd1na2vs0mg"},{"bike_id":"5e6be620-a3d0-49c3-9ff0-b85332cde817","system_id":"levelo_inurba_marseille","lat":43.23197,"lon":5.35573,"is_reserved":false,"is_disabled":false,"rental_uris":{"android":"levelo://app?vid=5e6be620-a3d0-49c3-9ff0-b85332cde817","ios":"levelo://app?vid=5e6be620-a3d0-49c3-9ff0-b85332cde817"},"vehicle_type_id":"4","last_reported":1744960194,"current_range_meters":16400,"station_id":"ce4bhu92rcd13ifvqi70","pricing_plan_id":"cebpf4jnsgd1na2vs0mg"},{"bike_id":"54c18ae4-fb9e-4f9c-8e98-a792665bc160","system_id":"levelo_inurba_marseille","lat":43.32115,"lon":5.3677,"is_reserved":false,"is_disabled":false,"rental_uris":{"android":"levelo://app?vid=54c18ae4-fb9e-4f9c-8e98-a792665bc160","ios":"levelo://app?vid=54c18ae4-fb9e-4f9c-8e98-a792665bc160"},"vehicle_type_id":"4","last_reported":1744960194,"current_range_meters":16400,"station_id":"ce4bhrh2rcd13ifvqhug","pricing_plan_id":"cebpf4jnsgd1na2vs0mg"},{"bike_id":"f9257457-af89-46ea-a09c-323ad0c42b2f","system_id":"levelo_inurba_marseille","lat":43.31378,"lon":5.36701,"is_reserved":false,"is_disabled":false,"rental_uris":{"android":"levelo://app?vid=f9257457-af89-46ea-a09c-323ad0c42b2f","ios":"levelo://app?vid=f9257457-af89-46ea-a09c-323ad0c42b2f"},"vehicle_type_id":"4","last_reported":1744960194,"current_range_meters":16400,"station_id":"ce4bgr92rcd13ifvqc6g","pricing_plan_id":"cebpf4jnsgd1na2vs0mg"},{"bike_id":"db092bab-860c-4e5b-840d-945206939097","system_id":"levelo_inurba_marseille","lat":43.26553,"lon":5.37301,"is_reserved":false,"is_disabled":false,"rental_uris":{"android":"levelo://app?vid=db092bab-860c-4e5b-840d-945206939097","ios":"levelo://app?vid=db092bab-860c-4e5b-840d-945206939097"},"vehicle_type_id":"4","last_reported":1744960194,"current_range_meters":16800,"station_id":"ce4bhg12rcd13ifvqf70","pricing_plan_id":"cebpf4jnsgd1na2vs0mg"},{"bike_id":"19481d9b-6a00-4a11-8cb7-677b61ea5d1e","system_id":"levelo_inurba_marseille","lat":43.2815,"lon":5.42651,"is_reserved":false,"is_disabled":false,"rental_uris":{"android":"levelo://app?vid=19481d9b-6a00-4a11-8cb7-677b61ea5d1e","ios":"levelo://app?vid=19481d9b-6a00-4a11-8cb7-677b61ea5d1e"},"vehicle_type_id":"4","last_reported":1744960194,"current_range_meters":16800,"station_id":"ce4bhnh2rcd13ifvqgug","pricing_plan_id":"cebpf4jnsgd1na2vs0mg"},{"bike_id":"f11c1877-2531-4187-8a4e-82f9bf9c66d8","system_id":"levelo_inurba_marseille","lat":43.25013,"lon":5.3892,"is_reserved":false,"is_disabled":false,"rental_uris":{"android":"levelo://app?vid=f11c1877-2531-4187-8a4e-82f9bf9c66d8","ios":"levelo://app?vid=f11c1877-2531-4187-8a4e-82f9bf9c66d8"},"vehicle_type_id":"4","last_reported":1744960194,"current_range_meters":16800,"station_id":"ce4bhgp2rcd13ifvqfd0","pricing_plan_id":"cebpf4jnsgd1na2vs0mg"},{"bike_id":"789c3822-56ca-4769-bcd4-8845bdea2fda","system_id":"levelo_inurba_marseille","lat":43.241656,"lon":5.363934,"is_reserved":false,"is_disabled":false,"rental_uris":{"android":"levelo://app?vid=789c3822-56ca-4769-bcd4-8845bdea2fda","ios":"levelo://app?vid=789c3822-56ca-4769-bcd4-8845bdea2fda"},"vehicle_type_id":"4","last_reported":1744960194,"current_range_meters":16800,"station_id":"cpo36qri1sfpv3e86is0","pricing_plan_id":"cebpf4jnsgd1na2vs0mg"},{"bike_id":"07006dad-1eac-4c5b-8e9f-977d282a6f86","system_id":"levelo_inurba_marseille","lat":43.307344,"lon":5.424387,"is_reserved":false,"is_disabled":false,"rental_uris":{"android":"levelo://app?vid=07006dad-1eac-4c5b-8e9f-977d282a6f86","ios":"levelo://app?vid=07006dad-1eac-4c5b-8e9f-977d282a6f86"},"vehicle_type_id":"4","last_reported":1744960194,"current_range_meters":16800,"station_id":"st_cvj6ca6bvosntc0bfgr0","pricing_plan_id":"cebpf4jnsgd1na2vs0mg"},{"bike_id":"b90acf1e-92f2-45e3-a0be-5f20323ea3d1","system_id":"levelo_inurba_marseille","lat":43.23189,"lon":5.39988,"is_reserved":false,"is_disabled":false,"rental_uris":{"android":"levelo://app?vid=b90acf1e-92f2-45e3-a0be-5f20323ea3d1","ios":"levelo://app?vid=b90acf1e-92f2-45e3-a0be-5f20323ea3d1"},"vehicle_type_id":"4","last_reported":1744960194,"current_range_meters":16800,"station_id":"ce4bhn12rcd13ifvqgqg","pricing_plan_id":"cebpf4jnsgd1na2vs0mg"},{"bike_id":"ecd9b5fe-4b17-4d30-a270-9ff21e0a9ad2","system_id":"levelo_inurba_marseille","lat":43.2417,"lon":5.36397,"is_reserved":false,"is_disabled":false,"rental_uris":{"android":"levelo://app?vid=ecd9b5fe-4b17-4d30-a270-9ff21e0a9ad2","ios":"levelo://app?vid=ecd9b5fe-4b17-4d30-a270-9ff21e0a9ad2"},"vehicle_type_id":"4","last_reported":1744960194,"current_range_meters":16800,"station_id":"cpo36qri1sfpv3e86is0","pricing_plan_id":"cebpf4jnsgd1na2vs0mg"},{"bike_id":"d8ed359f-b119-41a5-a7c7-15f875d7a3f7","system_id":"levelo_inurba_marseille","lat":43.32343,"lon":5.40624,"is_reserved":false,"is_disabled":false,"rental_uris":{"android":"levelo://app?vid=d8ed359f-b119-41a5-a7c7-15f875d7a3f7","ios":"levelo://app?vid=d8ed359f-b119-41a5-a7c7-15f875d7a3f7"},"vehicle_type_id":"4","last_reported":1744960194,"current_range_meters":17200,"station_id":"ce4bhq92rcd13ifvqhjg","pricing_plan_id":"cebpf4jnsgd1na2vs0mg"},{"bike_id":"9e6be64f-f795-43d2-bb10-c23f47531980","system_id":"levelo_inurba_marseille","lat":43.24393,"lon":5.3706,"is_reserved":false,"is_disabled":false,"rental_uris":{"android":"levelo://app?vid=9e6be64f-f795-43d2-bb10-c23f47531980","ios":"levelo://app?vid=9e6be64f-f795-43d2-bb10-c23f47531980"},"vehicle_type_id":"4","last_reported":1744960194,"current_range_meters":17200,"station_id":"ce4bhhh2rcd13ifvqfk0","pricing_plan_id":"cebpf4jnsgd1na2vs0mg"},{"bike_id":"9f45b2bf-53d1-4e39-9a64-fb391bdbd395","system_id":"levelo_inurba_marseille","lat":43.3372,"lon":5.39201,"is_reserved":false,"is_disabled":false,"rental_uris":{"android":"levelo://app?vid=9f45b2bf-53d1-4e39-9a64-fb391bdbd395","ios":"levelo://app?vid=9f45b2bf-53d1-4e39-9a64-fb391bdbd395"},"vehicle_type_id":"4","last_reported":1744960194,"current_range_meters":17200,"station_id":"ce4bhr92rcd13ifvqhsg","pricing_plan_id":"cebpf4jnsgd1na2vs0mg"},{"bike_id":"38f3965c-7391-46cb-a55d-a74d728bc029","system_id":"levelo_inurba_marseille","lat":43.2827,"lon":5.35071,"is_reserved":false,"is_disabled":false,"rental_uris":{"android":"levelo://app?vid=38f3965c-7391-46cb-a55d-a74d728bc029","ios":"levelo://app?vid=38f3965c-7391-46cb-a55d-a74d728bc029"},"vehicle_type_id":"4","last_reported":1744960194,"current_range_meters":17200,"station_id":"ce4bhbp2rcd13ifvqerg","pricing_plan_id":"cebpf4jnsgd1na2vs0mg"},{"bike_id":"030978cd-eddc-40be-b582-b7fe69c6a341","system_id":"levelo_inurba_marseille","lat":43.30441,"lon":5.37917,"is_reserved":false,"is_disabled":false,"rental_uris":{"android":"levelo://app?vid=030978cd-eddc-40be-b582-b7fe69c6a341","ios":"levelo://app?vid=030978cd-eddc-40be-b582-b7fe69c6a341"},"vehicle_type_id":"4","last_reported":1744960194,"current_range_meters":17200,"station_id":"ce4bgup2rcd13ifvqcn0","pricing_plan_id":"cebpf4jnsgd1na2vs0mg"},{"bike_id":"5ba68281-2a4d-44b9-a4b0-c49e0b08d425","system_id":"levelo_inurba_marseille","lat":43.28407,"lon":5.37521,"is_reserved":false,"is_disabled":false,"rental_uris":{"android":"levelo://app?vid=5ba68281-2a4d-44b9-a4b0-c49e0b08d425","ios":"levelo://app?vid=5ba68281-2a4d-44b9-a4b0-c49e0b08d425"},"vehicle_type_id":"4","last_reported":1744960194,"current_range_meters":17200,"station_id":"ce4bh412rcd13ifvqds0","pricing_plan_id":"cebpf4jnsgd1na2vs0mg"},{"bike_id":"d54700c1-6669-4cc2-a95e-e2d8eead96e5","system_id":"levelo_inurba_marseille","lat":43.2781,"lon":5.4071,"is_reserved":false,"is_disabled":false,"rental_uris":{"android":"levelo://app?vid=d54700c1-6669-4cc2-a95e-e2d8eead96e5","ios":"levelo://app?vid=d54700c1-6669-4cc2-a95e-e2d8eead96e5"},"vehicle_type_id":"4","last_reported":1744960194,"current_range_meters":17200,"station_id":"ce4bhnh2rcd13ifvqgtg","pricing_plan_id":"cebpf4jnsgd1na2vs0mg"},{"bike_id":"36b90cff-40d2-47e2-985b-e09410752cc5","system_id":"levelo_inurba_marseille","lat":43.298859,"lon":5.436549,"is_reserved":false,"is_disabled":false,"rental_uris":{"android":"levelo://app?vid=36b90cff-40d2-47e2-985b-e09410752cc5","ios":"levelo://app?vid=36b90cff-40d2-47e2-985b-e09410752cc5"},"vehicle_type_id":"4","last_reported":1744960194,"current_range_meters":17600,"station_id":"ce4bhpp2rcd13ifvqhfg","pricing_plan_id":"cebpf4jnsgd1na2vs0mg"},{"bike_id":"cf7c3680-f452-4084-8e92-20f914fb6ae3","system_id":"levelo_inurba_marseille","lat":43.23957,"lon":5.36639,"is_reserved":false,"is_disabled":false,"rental_uris":{"android":"levelo://app?vid=cf7c3680-f452-4084-8e92-20f914fb6ae3","ios":"levelo://app?vid=cf7c3680-f452-4084-8e92-20f914fb6ae3"},"vehicle_type_id":"4","last_reported":1744960194,"current_range_meters":17600,"station_id":"ce4bhi12rcd13ifvqfp0","pricing_plan_id":"cebpf4jnsgd1na2vs0mg"},{"bike_id":"f1d513e7-93f2-472b-b840-4c42490aad95","system_id":"levelo_inurba_marseille","lat":43.24164,"lon":5.36391,"is_reserved":false,"is_disabled":false,"rental_uris":{"android":"levelo://app?vid=f1d513e7-93f2-472b-b840-4c42490aad95","ios":"levelo://app?vid=f1d513e7-93f2-472b-b840-4c42490aad95"},"vehicle_type_id":"4","last_reported":1744960194,"current_range_meters":17600,"station_id":"cpo36qri1sfpv3e86is0","pricing_plan_id":"cebpf4jnsgd1na2vs0mg"},{"bike_id":"9b9a35aa-906d-48c6-9d82-6cef2d86224f","system_id":"levelo_inurba_marseille","lat":43.26681,"lon":5.38279,"is_reserved":false,"is_disabled":false,"rental_uris":{"android":"levelo://app?vid=9b9a35aa-906d-48c6-9d82-6cef2d86224f","ios":"levelo://app?vid=9b9a35aa-906d-48c6-9d82-6cef2d86224f"},"vehicle_type_id":"4","last_reported":1744960194,"current_range_meters":17600,"station_id":"ce4bhg92rcd13ifvqf90","pricing_plan_id":"cebpf4jnsgd1na2vs0mg"},{"bike_id":"06c69cbf-f6a8-4497-b97f-4ec81764e0ec","system_id":"levelo_inurba_marseille","lat":43.25577,"lon":5.38234,"is_reserved":false,"is_disabled":false,"rental_uris":{"android":"levelo://app?vid=06c69cbf-f6a8-4497-b97f-4ec81764e0ec","ios":"levelo://app?vid=06c69cbf-f6a8-4497-b97f-4ec81764e0ec"},"vehicle_type_id":"4","last_reported":1744960194,"current_range_meters":17600,"station_id":"ce4bhih2rcd13ifvqfs0","pricing_plan_id":"cebpf4jnsgd1na2vs0mg"},{"bike_id":"0513d50a-d6e4-4093-a8cf-4d32d2c45b4c","system_id":"levelo_inurba_marseille","lat":43.32476,"lon":5.36568,"is_reserved":false,"is_disabled":false,"rental_uris":{"android":"levelo://app?vid=0513d50a-d6e4-4093-a8cf-4d32d2c45b4c","ios":"levelo://app?vid=0513d50a-d6e4-4093-a8cf-4d32d2c45b4c"},"vehicle_type_id":"4","last_reported":1744960194,"current_range_meters":17600,"station_id":"ce4bhs12rcd13ifvqhvg","pricing_plan_id":"cebpf4jnsgd1na2vs0mg"},{"bike_id":"3efba3c6-091f-42f0-a6b1-6019d320c613","system_id":"levelo_inurba_marseille","lat":43.30416,"lon":5.39759,"is_reserved":false,"is_disabled":false,"rental_uris":{"android":"levelo://app?vid=3efba3c6-091f-42f0-a6b1-6019d320c613","ios":"levelo://app?vid=3efba3c6-091f-42f0-a6b1-6019d320c613"},"vehicle_type_id":"4","last_reported":1744960194,"current_range_meters":18000,"station_id":"ce4bh092rcd13ifvqd20","pricing_plan_id":"cebpf4jnsgd1na2vs0mg"},{"bike_id":"91aa591a-3e56-4092-a295-ecb6aebe69eb","system_id":"levelo_inurba_marseille","lat":43.22498,"lon":5.34799,"is_reserved":false,"is_disabled":false,"rental_uris":{"android":"levelo://app?vid=91aa591a-3e56-4092-a295-ecb6aebe69eb","ios":"levelo://app?vid=91aa591a-3e56-4092-a295-ecb6aebe69eb"},"vehicle_type_id":"4","last_reported":1744960194,"current_range_meters":18000,"station_id":"st_cvj5dfep6f1abm77gieg","pricing_plan_id":"cebpf4jnsgd1na2vs0mg"},{"bike_id":"82a001e1-327f-4a58-b355-bcf2e1a86bf6","system_id":"levelo_inurba_marseille","lat":43.30902,"lon":5.36702,"is_reserved":false,"is_disabled":false,"rental_uris":{"android":"levelo://app?vid=82a001e1-327f-4a58-b355-bcf2e1a86bf6","ios":"levelo://app?vid=82a001e1-327f-4a58-b355-bcf2e1a86bf6"},"vehicle_type_id":"4","last_reported":1744960194,"current_range_meters":18000,"station_id":"","pricing_plan_id":"cebpf4jnsgd1na2vs0mg"},{"bike_id":"5db7c5ab-73d5-47e4-9713-3ef31de4325c","system_id":"levelo_inurba_marseille","lat":43.308,"lon":5.37358,"is_reserved":false,"is_disabled":false,"rental_uris":{"android":"levelo://app?vid=5db7c5ab-73d5-47e4-9713-3ef31de4325c","ios":"levelo://app?vid=5db7c5ab-73d5-47e4-9713-3ef31de4325c"},"vehicle_type_id":"4","last_reported":1744960194,"current_range_meters":18000,"station_id":"","pricing_plan_id":"cebpf4jnsgd1na2vs0mg"},{"bike_id":"4c05fc04-5a3e-4846-ae6c-06609c17f5be","system_id":"levelo_inurba_marseille","lat":43.26225,"lon":5.40461,"is_reserved":false,"is_disabled":false,"rental_uris":{"android":"levelo://app?vid=4c05fc04-5a3e-4846-ae6c-06609c17f5be","ios":"levelo://app?vid=4c05fc04-5a3e-4846-ae6c-06609c17f5be"},"vehicle_type_id":"4","last_reported":1744960194,"current_range_meters":18000,"station_id":"ce4bhmh2rcd13ifvqgmg","pricing_plan_id":"cebpf4jnsgd1na2vs0mg"},{"bike_id":"d88748e0-a20d-4da3-badf-58fc87c117ed","system_id":"levelo_inurba_marseille","lat":43.27316,"lon":5.39083,"is_reserved":false,"is_disabled":false,"rental_uris":{"android":"levelo://app?vid=d88748e0-a20d-4da3-badf-58fc87c117ed","ios":"levelo://app?vid=d88748e0-a20d-4da3-badf-58fc87c117ed"},"vehicle_type_id":"4","last_reported":1744960194,"current_range_meters":18000,"station_id":"ce4bhgp2rcd13ifvqfe0","pricing_plan_id":"cebpf4jnsgd1na2vs0mg"},{"bike_id":"bfa49018-87e7-4e6d-a73f-f9b53d1a144b","system_id":"levelo_inurba_marseille","lat":43.31359,"lon":5.36705,"is_reserved":false,"is_disabled":false,"rental_uris":{"android":"levelo://app?vid=bfa49018-87e7-4e6d-a73f-f9b53d1a144b","ios":"levelo://app?vid=bfa49018-87e7-4e6d-a73f-f9b53d1a144b"},"vehicle_type_id":"4","last_reported":1744960194,"current_range_meters":18000,"station_id":"ce4bgr92rcd13ifvqc6g","pricing_plan_id":"cebpf4jnsgd1na2vs0mg"},{"bike_id":"0318086b-603d-4065-a7b0-7a0a33e1efe8","system_id":"levelo_inurba_marseille","lat":43.303,"lon":5.3689,"is_reserved":false,"is_disabled":false,"rental_uris":{"android":"levelo://app?vid=0318086b-603d-4065-a7b0-7a0a33e1efe8","ios":"levelo://app?vid=0318086b-603d-4065-a7b0-7a0a33e1efe8"},"vehicle_type_id":"4","last_reported":1744960194,"current_range_meters":18000,"station_id":"ce4bgqh2rcd13ifvqc5g","pricing_plan_id":"cebpf4jnsgd1na2vs0mg"},{"bike_id":"9eb6738d-486c-4d0a-88f4-70b8d81983d1","system_id":"levelo_inurba_marseille","lat":43.21778,"lon":5.34619,"is_reserved":false,"is_disabled":false,"rental_uris":{"android":"levelo://app?vid=9eb6738d-486c-4d0a-88f4-70b8d81983d1","ios":"levelo://app?vid=9eb6738d-486c-4d0a-88f4-70b8d81983d1"},"vehicle_type_id":"4","last_reported":1744960194,"current_range_meters":18000,"station_id":"st_cvj6r9ubvosntc0bgbag","pricing_plan_id":"cebpf4jnsgd1na2vs0mg"},{"bike_id":"80bac1fe-218c-4068-937c-4aa733df023f","system_id":"levelo_inurba_marseille","lat":43.28623,"lon":5.37053,"is_reserved":false,"is_disabled":false,"rental_uris":{"android":"levelo://app?vid=80bac1fe-218c-4068-937c-4aa733df023f","ios":"levelo://app?vid=80bac1fe-218c-4068-937c-4aa733df023f"},"vehicle_type_id":"4","last_reported":1744960194,"current_range_meters":18000,"station_id":"ce4bht12rcd13ifvqi60","pricing_plan_id":"cebpf4jnsgd1na2vs0mg"},{"bike_id":"8296043d-2944-485e-b916-c0e8588a8c06","system_id":"levelo_inurba_marseille","lat":43.31279,"lon":5.36832,"is_reserved":false,"is_disabled":false,"rental_uris":{"android":"levelo://app?vid=8296043d-2944-485e-b916-c0e8588a8c06","ios":"levelo://app?vid=8296043d-2944-485e-b916-c0e8588a8c06"},"vehicle_type_id":"4","last_reported":1744960194,"current_range_meters":18800,"station_id":"ce4bgl92rcd13ifvqbq0","pricing_plan_id":"cebpf4jnsgd1na2vs0mg"},{"bike_id":"5feefca4-b943-48ef-be41-7b14345fc5ec","system_id":"levelo_inurba_marseille","lat":43.25944,"lon":5.409,"is_reserved":false,"is_disabled":false,"rental_uris":{"android":"levelo://app?vid=5feefca4-b943-48ef-be41-7b14345fc5ec","ios":"levelo://app?vid=5feefca4-b943-48ef-be41-7b14345fc5ec"},"vehicle_type_id":"4","last_reported":1744960194,"current_range_meters":18800,"station_id":"ce4bhm92rcd13ifvqglg","pricing_plan_id":"cebpf4jnsgd1na2vs0mg"},{"bike_id":"044f6785-0e94-4d33-b79a-26d70dd9d306","system_id":"levelo_inurba_marseille","lat":43.25873,"lon":5.39924,"is_reserved":false,"is_disabled":true,"rental_uris":{"android":"levelo://app?vid=044f6785-0e94-4d33-b79a-26d70dd9d306","ios":"levelo://app?vid=044f6785-0e94-4d33-b79a-26d70dd9d306"},"vehicle_type_id":"4","last_reported":1744960194,"current_range_meters":18800,"station_id":"ce4bhl92rcd13ifvqghg","pricing_plan_id":"cebpf4jnsgd1na2vs0mg"},{"bike_id":"b0e1b825-ba82-4aba-838e-c05aa42c1c23","system_id":"levelo_inurba_marseille","lat":43.3095,"lon":5.39061,"is_reserved":false,"is_disabled":false,"rental_uris":{"android":"levelo://app?vid=b0e1b825-ba82-4aba-838e-c05aa42c1c23","ios":"levelo://app?vid=b0e1b825-ba82-4aba-838e-c05aa42c1c23"},"vehicle_type_id":"4","last_reported":1744960194,"current_range_meters":18800,"station_id":"ce4bgup2rcd13ifvqco0","pricing_plan_id":"cebpf4jnsgd1na2vs0mg"},{"bike_id":"693ea077-1dd9-4910-8fe1-00972fd3d75f","system_id":"levelo_inurba_marseille","lat":43.25929,"lon":5.40883,"is_reserved":false,"is_disabled":false,"rental_uris":{"android":"levelo://app?vid=693ea077-1dd9-4910-8fe1-00972fd3d75f","ios":"levelo://app?vid=693ea077-1dd9-4910-8fe1-00972fd3d75f"},"vehicle_type_id":"4","last_reported":1744960194,"current_range_meters":18800,"station_id":"ce4bhm92rcd13ifvqglg","pricing_plan_id":"cebpf4jnsgd1na2vs0mg"},{"bike_id":"aea2afb6-112e-4c3a-968a-5eb5aa77e9be","system_id":"levelo_inurba_marseille","lat":43.21194,"lon":5.35077,"is_reserved":false,"is_disabled":false,"rental_uris":{"android":"levelo://app?vid=aea2afb6-112e-4c3a-968a-5eb5aa77e9be","ios":"levelo://app?vid=aea2afb6-112e-4c3a-968a-5eb5aa77e9be"},"vehicle_type_id":"4","last_reported":1744960194,"current_range_meters":18800,"station_id":"st_cvj6sg6p6f1abm77japg","pricing_plan_id":"cebpf4jnsgd1na2vs0mg"},{"bike_id":"035fbcc7-87fa-4706-9245-7ee0613b771f","system_id":"levelo_inurba_marseille","lat":43.2418,"lon":5.39739,"is_reserved":false,"is_disabled":false,"rental_uris":{"android":"levelo://app?vid=035fbcc7-87fa-4706-9245-7ee0613b771f","ios":"levelo://app?vid=035fbcc7-87fa-4706-9245-7ee0613b771f"},"vehicle_type_id":"4","last_reported":1744960194,"current_range_meters":18800,"station_id":"ce4bhn12rcd13ifvqgpg","pricing_plan_id":"cebpf4jnsgd1na2vs0mg"},{"bike_id":"97810717-897c-4f4d-9ad9-90d53e06c4e0","system_id":"levelo_inurba_marseille","lat":43.24646,"lon":5.38893,"is_reserved":false,"is_disabled":false,"rental_uris":{"android":"levelo://app?vid=97810717-897c-4f4d-9ad9-90d53e06c4e0","ios":"levelo://app?vid=97810717-897c-4f4d-9ad9-90d53e06c4e0"},"vehicle_type_id":"4","last_reported":1744960194,"current_range_meters":18800,"station_id":"ce4bhg12rcd13ifvqf60","pricing_plan_id":"cebpf4jnsgd1na2vs0mg"},{"bike_id":"3b54f401-8be5-46ae-a7fc-1720160bb69c","system_id":"levelo_inurba_marseille","lat":43.24178,"lon":5.39731,"is_reserved":false,"is_disabled":false,"rental_uris":{"android":"levelo://app?vid=3b54f401-8be5-46ae-a7fc-1720160bb69c","ios":"levelo://app?vid=3b54f401-8be5-46ae-a7fc-1720160bb69c"},"vehicle_type_id":"4","last_reported":1744960194,"current_range_meters":18800,"station_id":"ce4bhn12rcd13ifvqgpg","pricing_plan_id":"cebpf4jnsgd1na2vs0mg"},{"bike_id":"bb9cc5b6-0c7a-4871-8383-15ba04455dec","system_id":"levelo_inurba_marseille","lat":43.29892,"lon":5.43664,"is_reserved":false,"is_disabled":false,"rental_uris":{"android":"levelo://app?vid=bb9cc5b6-0c7a-4871-8383-15ba04455dec","ios":"levelo://app?vid=bb9cc5b6-0c7a-4871-8383-15ba04455dec"},"vehicle_type_id":"4","last_reported":1744960194,"current_range_meters":19200,"station_id":"ce4bhpp2rcd13ifvqhfg","pricing_plan_id":"cebpf4jnsgd1na2vs0mg"},{"bike_id":"13639961-333f-4b59-8b23-36bcf6df258e","system_id":"levelo_inurba_marseille","lat":43.24389,"lon":5.37064,"is_reserved":false,"is_disabled":false,"rental_uris":{"android":"levelo://app?vid=13639961-333f-4b59-8b23-36bcf6df258e","ios":"levelo://app?vid=13639961-333f-4b59-8b23-36bcf6df258e"},"vehicle_type_id":"4","last_reported":1744960194,"current_range_meters":19200,"station_id":"ce4bhhh2rcd13ifvqfk0","pricing_plan_id":"cebpf4jnsgd1na2vs0mg"},{"bike_id":"666c452f-bc61-4405-8374-62677582612f","system_id":"levelo_inurba_marseille","lat":43.258599,"lon":5.38899,"is_reserved":false,"is_disabled":false,"rental_uris":{"android":"levelo://app?vid=666c452f-bc61-4405-8374-62677582612f","ios":"levelo://app?vid=666c452f-bc61-4405-8374-62677582612f"},"vehicle_type_id":"4","last_reported":1744960194,"current_range_meters":19200,"station_id":"","pricing_plan_id":"cebpf4jnsgd1na2vs0mg"},{"bike_id":"5bfdd3ac-ac87-4124-a941-1bd318b8cd03","system_id":"levelo_inurba_marseille","lat":43.30421,"lon":5.37931,"is_reserved":false,"is_disabled":false,"rental_uris":{"android":"levelo://app?vid=5bfdd3ac-ac87-4124-a941-1bd318b8cd03","ios":"levelo://app?vid=5bfdd3ac-ac87-4124-a941-1bd318b8cd03"},"vehicle_type_id":"4","last_reported":1744960194,"current_range_meters":19200,"station_id":"ce4bgup2rcd13ifvqcn0","pricing_plan_id":"cebpf4jnsgd1na2vs0mg"},{"bike_id":"eb0220de-5641-4549-8ce6-f907772fde4d","system_id":"levelo_inurba_marseille","lat":43.2656,"lon":5.37286,"is_reserved":false,"is_disabled":true,"rental_uris":{"android":"levelo://app?vid=eb0220de-5641-4549-8ce6-f907772fde4d","ios":"levelo://app?vid=eb0220de-5641-4549-8ce6-f907772fde4d"},"vehicle_type_id":"4","last_reported":1744960194,"current_range_meters":19600,"station_id":"ce4bhg12rcd13ifvqf70","pricing_plan_id":"cebpf4jnsgd1na2vs0mg"},{"bike_id":"d05b7cc4-f88b-4d02-ae6c-c344f22c0e5c","system_id":"levelo_inurba_marseille","lat":43.2979,"lon":5.36537,"is_reserved":false,"is_disabled":false,"rental_uris":{"android":"levelo://app?vid=d05b7cc4-f88b-4d02-ae6c-c344f22c0e5c","ios":"levelo://app?vid=d05b7cc4-f88b-4d02-ae6c-c344f22c0e5c"},"vehicle_type_id":"4","last_reported":1744960194,"current_range_meters":19600,"station_id":"","pricing_plan_id":"cebpf4jnsgd1na2vs0mg"},{"bike_id":"98fe4d37-d8c0-4f00-8054-516bc255211f","system_id":"levelo_inurba_marseille","lat":43.33619,"lon":5.40992,"is_reserved":false,"is_disabled":false,"rental_uris":{"android":"levelo://app?vid=98fe4d37-d8c0-4f00-8054-516bc255211f","ios":"levelo://app?vid=98fe4d37-d8c0-4f00-8054-516bc255211f"},"vehicle_type_id":"4","last_reported":1744960194,"current_range_meters":19600,"station_id":"ce4bhqh2rcd13ifvqhmg","pricing_plan_id":"cebpf4jnsgd1na2vs0mg"},{"bike_id":"056beed3-732b-4c15-871c-8c4749c0b234","system_id":"levelo_inurba_marseille","lat":43.2659,"lon":5.39022,"is_reserved":false,"is_disabled":false,"rental_uris":{"android":"levelo://app?vid=056beed3-732b-4c15-871c-8c4749c0b234","ios":"levelo://app?vid=056beed3-732b-4c15-871c-8c4749c0b234"},"vehicle_type_id":"4","last_reported":1744960194,"current_range_meters":19600,"station_id":"ce4bhe12rcd13ifvqf30","pricing_plan_id":"cebpf4jnsgd1na2vs0mg"},{"bike_id":"24213b37-b766-4d9c-a174-f6bf34920497","system_id":"levelo_inurba_marseille","lat":43.28469,"lon":5.384178,"is_reserved":false,"is_disabled":false,"rental_uris":{"android":"levelo://app?vid=24213b37-b766-4d9c-a174-f6bf34920497","ios":"levelo://app?vid=24213b37-b766-4d9c-a174-f6bf34920497"},"vehicle_type_id":"4","last_reported":1744960194,"current_range_meters":19600,"station_id":"ce4bh512rcd13ifvqe3g","pricing_plan_id":"cebpf4jnsgd1na2vs0mg"},{"bike_id":"17de6571-3c1c-4621-995b-d445cb9c6f14","system_id":"levelo_inurba_marseille","lat":43.21197,"lon":5.35075,"is_reserved":false,"is_disabled":false,"rental_uris":{"android":"levelo://app?vid=17de6571-3c1c-4621-995b-d445cb9c6f14","ios":"levelo://app?vid=17de6571-3c1c-4621-995b-d445cb9c6f14"},"vehicle_type_id":"4","last_reported":1744960194,"current_range_meters":19600,"station_id":"st_cvj6sg6p6f1abm77japg","pricing_plan_id":"cebpf4jnsgd1na2vs0mg"},{"bike_id":"2a2994c4-9d5b-41bc-8d3e-94028939d7d6","system_id":"levelo_inurba_marseille","lat":43.32041,"lon":5.41553,"is_reserved":false,"is_disabled":false,"rental_uris":{"android":"levelo://app?vid=2a2994c4-9d5b-41bc-8d3e-94028939d7d6","ios":"levelo://app?vid=2a2994c4-9d5b-41bc-8d3e-94028939d7d6"},"vehicle_type_id":"4","last_reported":1744960194,"current_range_meters":19600,"station_id":"ce4bhq92rcd13ifvqhkg","pricing_plan_id":"cebpf4jnsgd1na2vs0mg"},{"bike_id":"7d61685e-6150-40cc-9fee-865aea60477b","system_id":"levelo_inurba_marseille","lat":43.291016,"lon":5.38141,"is_reserved":false,"is_disabled":false,"rental_uris":{"android":"levelo://app?vid=7d61685e-6150-40cc-9fee-865aea60477b","ios":"levelo://app?vid=7d61685e-6150-40cc-9fee-865aea60477b"},"vehicle_type_id":"4","last_reported":1744960194,"current_range_meters":19600,"station_id":"ce4bh512rcd13ifvqe2g","pricing_plan_id":"cebpf4jnsgd1na2vs0mg"},{"bike_id":"beae55ab-1a39-49d3-9e51-9498979f641f","system_id":"levelo_inurba_marseille","lat":43.29926,"lon":5.36556,"is_reserved":false,"is_disabled":false,"rental_uris":{"android":"levelo://app?vid=beae55ab-1a39-49d3-9e51-9498979f641f","ios":"levelo://app?vid=beae55ab-1a39-49d3-9e51-9498979f641f"},"vehicle_type_id":"4","last_reported":1744960194,"current_range_meters":19600,"station_id":"ce4bgm92rcd13ifvqbr0","pricing_plan_id":"cebpf4jnsgd1na2vs0mg"},{"bike_id":"59fb3a06-5a0c-4f19-91c7-f9718e1b4a84","system_id":"levelo_inurba_marseille","lat":43.30467,"lon":5.3791,"is_reserved":false,"is_disabled":false,"rental_uris":{"android":"levelo://app?vid=59fb3a06-5a0c-4f19-91c7-f9718e1b4a84","ios":"levelo://app?vid=59fb3a06-5a0c-4f19-91c7-f9718e1b4a84"},"vehicle_type_id":"4","last_reported":1744960194,"current_range_meters":19600,"station_id":"ce4bgup2rcd13ifvqcn0","pricing_plan_id":"cebpf4jnsgd1na2vs0mg"},{"bike_id":"180b3f69-b0c2-4b3b-b85a-fbadbd18c065","system_id":"levelo_inurba_marseille","lat":43.29934,"lon":5.36534,"is_reserved":false,"is_disabled":false,"rental_uris":{"android":"levelo://app?vid=180b3f69-b0c2-4b3b-b85a-fbadbd18c065","ios":"levelo://app?vid=180b3f69-b0c2-4b3b-b85a-fbadbd18c065"},"vehicle_type_id":"4","last_reported":1744960194,"current_range_meters":19600,"station_id":"ce4bgm92rcd13ifvqbr0","pricing_plan_id":"cebpf4jnsgd1na2vs0mg"},{"bike_id":"987be364-159b-4328-8e36-ce83f9f46917","system_id":"levelo_inurba_marseille","lat":43.30543,"lon":5.36556,"is_reserved":false,"is_disabled":false,"rental_uris":{"android":"levelo://app?vid=987be364-159b-4328-8e36-ce83f9f46917","ios":"levelo://app?vid=987be364-159b-4328-8e36-ce83f9f46917"},"vehicle_type_id":"4","last_reported":1744960194,"current_range_meters":19600,"station_id":"ce4bgs12rcd13ifvqcag","pricing_plan_id":"cebpf4jnsgd1na2vs0mg"},{"bike_id":"70b53ef0-f398-4d05-a310-2ef74f46b58a","system_id":"levelo_inurba_marseille","lat":43.2732,"lon":5.39118,"is_reserved":false,"is_disabled":false,"rental_uris":{"android":"levelo://app?vid=70b53ef0-f398-4d05-a310-2ef74f46b58a","ios":"levelo://app?vid=70b53ef0-f398-4d05-a310-2ef74f46b58a"},"vehicle_type_id":"4","last_reported":1744960194,"current_range_meters":20000,"station_id":"ce4bhgp2rcd13ifvqfe0","pricing_plan_id":"cebpf4jnsgd1na2vs0mg"},{"bike_id":"42dd028e-0432-4d4d-bf6a-c55cff40bc12","system_id":"levelo_inurba_marseille","lat":43.32337,"lon":5.40617,"is_reserved":false,"is_disabled":false,"rental_uris":{"android":"levelo://app?vid=42dd028e-0432-4d4d-bf6a-c55cff40bc12","ios":"levelo://app?vid=42dd028e-0432-4d4d-bf6a-c55cff40bc12"},"vehicle_type_id":"4","last_reported":1744960194,"current_range_meters":20000,"station_id":"ce4bhq92rcd13ifvqhjg","pricing_plan_id":"cebpf4jnsgd1na2vs0mg"},{"bike_id":"3c2d0971-31c0-4871-bc30-b012337e8557","system_id":"levelo_inurba_marseille","lat":43.25938,"lon":5.40904,"is_reserved":false,"is_disabled":false,"rental_uris":{"android":"levelo://app?vid=3c2d0971-31c0-4871-bc30-b012337e8557","ios":"levelo://app?vid=3c2d0971-31c0-4871-bc30-b012337e8557"},"vehicle_type_id":"4","last_reported":1744960194,"current_range_meters":20000,"station_id":"ce4bhm92rcd13ifvqglg","pricing_plan_id":"cebpf4jnsgd1na2vs0mg"},{"bike_id":"d82883a3-5de5-4bae-9b83-31aee1083be4","system_id":"levelo_inurba_marseille","lat":43.28933,"lon":5.36642,"is_reserved":false,"is_disabled":false,"rental_uris":{"android":"levelo://app?vid=d82883a3-5de5-4bae-9b83-31aee1083be4","ios":"levelo://app?vid=d82883a3-5de5-4bae-9b83-31aee1083be4"},"vehicle_type_id":"4","last_reported":1744960194,"current_range_meters":20000,"station_id":"","pricing_plan_id":"cebpf4jnsgd1na2vs0mg"},{"bike_id":"3c37d3ec-c1f3-47c3-9356-b25b0d14152b","system_id":"levelo_inurba_marseille","lat":43.2864,"lon":5.37065,"is_reserved":false,"is_disabled":false,"rental_uris":{"android":"levelo://app?vid=3c37d3ec-c1f3-47c3-9356-b25b0d14152b","ios":"levelo://app?vid=3c37d3ec-c1f3-47c3-9356-b25b0d14152b"},"vehicle_type_id":"4","last_reported":1744960194,"current_range_meters":20000,"station_id":"ce4bht12rcd13ifvqi60","pricing_plan_id":"cebpf4jnsgd1na2vs0mg"},{"bike_id":"e19797c2-1f12-4455-ad19-bbeb287ac8ad","system_id":"levelo_inurba_marseille","lat":43.28146,"lon":5.42655,"is_reserved":false,"is_disabled":false,"rental_uris":{"android":"levelo://app?vid=e19797c2-1f12-4455-ad19-bbeb287ac8ad","ios":"levelo://app?vid=e19797c2-1f12-4455-ad19-bbeb287ac8ad"},"vehicle_type_id":"4","last_reported":1744960194,"current_range_meters":20000,"station_id":"ce4bhnh2rcd13ifvqgug","pricing_plan_id":"cebpf4jnsgd1na2vs0mg"},{"bike_id":"42c3e51b-5fea-495e-a803-0f667b77b50a","system_id":"levelo_inurba_marseille","lat":43.3091,"lon":5.368449,"is_reserved":false,"is_disabled":false,"rental_uris":{"android":"levelo://app?vid=42c3e51b-5fea-495e-a803-0f667b77b50a","ios":"levelo://app?vid=42c3e51b-5fea-495e-a803-0f667b77b50a"},"vehicle_type_id":"4","last_reported":1744960194,"current_range_meters":20000,"station_id":"ce4bgjh2rcd13ifvqbg0","pricing_plan_id":"cebpf4jnsgd1na2vs0mg"},{"bike_id":"d97cbab2-d72d-4dd8-a91c-0f35d353653c","system_id":"levelo_inurba_marseille","lat":43.24166,"lon":5.36399,"is_reserved":false,"is_disabled":false,"rental_uris":{"android":"levelo://app?vid=d97cbab2-d72d-4dd8-a91c-0f35d353653c","ios":"levelo://app?vid=d97cbab2-d72d-4dd8-a91c-0f35d353653c"},"vehicle_type_id":"4","last_reported":1744960194,"current_range_meters":20000,"station_id":"cpo36qri1sfpv3e86is0","pricing_plan_id":"cebpf4jnsgd1na2vs0mg"},{"bike_id":"f690738c-7184-40d0-8e24-653d6c176a31","system_id":"levelo_inurba_marseille","lat":43.29561,"lon":5.42291,"is_reserved":false,"is_disabled":false,"rental_uris":{"android":"levelo://app?vid=f690738c-7184-40d0-8e24-653d6c176a31","ios":"levelo://app?vid=f690738c-7184-40d0-8e24-653d6c176a31"},"vehicle_type_id":"4","last_reported":1744960194,"current_range_meters":20000,"station_id":"ce4bhph2rcd13ifvqhdg","pricing_plan_id":"cebpf4jnsgd1na2vs0mg"},{"bike_id":"b38577c8-dd14-4abe-a122-af410dfd3505","system_id":"levelo_inurba_marseille","lat":43.30267,"lon":5.37717,"is_reserved":false,"is_disabled":false,"rental_uris":{"android":"levelo://app?vid=b38577c8-dd14-4abe-a122-af410dfd3505","ios":"levelo://app?vid=b38577c8-dd14-4abe-a122-af410dfd3505"},"vehicle_type_id":"4","last_reported":1744960194,"current_range_meters":20000,"station_id":"ce4bguh2rcd13ifvqcj0","pricing_plan_id":"cebpf4jnsgd1na2vs0mg"},{"bike_id":"f73f2ebe-f046-4676-9482-4c8784a9f888","system_id":"levelo_inurba_marseille","lat":43.29534,"lon":5.37513,"is_reserved":false,"is_disabled":false,"rental_uris":{"android":"levelo://app?vid=f73f2ebe-f046-4676-9482-4c8784a9f888","ios":"levelo://app?vid=f73f2ebe-f046-4676-9482-4c8784a9f888"},"vehicle_type_id":"4","last_reported":1744960194,"current_range_meters":20000,"station_id":"ce4bgkp2rcd13ifvqbmg","pricing_plan_id":"cebpf4jnsgd1na2vs0mg"},{"bike_id":"b3db7714-dbf3-4bc4-a6f1-64ff1086c08f","system_id":"levelo_inurba_marseille","lat":43.21764,"lon":5.34605,"is_reserved":false,"is_disabled":false,"rental_uris":{"android":"levelo://app?vid=b3db7714-dbf3-4bc4-a6f1-64ff1086c08f","ios":"levelo://app?vid=b3db7714-dbf3-4bc4-a6f1-64ff1086c08f"},"vehicle_type_id":"4","last_reported":1744960194,"current_range_meters":20000,"station_id":"st_cvj6r9ubvosntc0bgbag","pricing_plan_id":"cebpf4jnsgd1na2vs0mg"},{"bike_id":"3aa21b95-1b32-4a0f-afd5-5b5e7c484284","system_id":"levelo_inurba_marseille","lat":43.25939,"lon":5.40905,"is_reserved":false,"is_disabled":false,"rental_uris":{"android":"levelo://app?vid=3aa21b95-1b32-4a0f-afd5-5b5e7c484284","ios":"levelo://app?vid=3aa21b95-1b32-4a0f-afd5-5b5e7c484284"},"vehicle_type_id":"4","last_reported":1744960194,"current_range_meters":20400,"station_id":"ce4bhm92rcd13ifvqglg","pricing_plan_id":"cebpf4jnsgd1na2vs0mg"},{"bike_id":"e2fb8f13-893e-42f2-bc76-7e47ec81fcbb","system_id":"levelo_inurba_marseille","lat":43.24167,"lon":5.39741,"is_reserved":false,"is_disabled":false,"rental_uris":{"android":"levelo://app?vid=e2fb8f13-893e-42f2-bc76-7e47ec81fcbb","ios":"levelo://app?vid=e2fb8f13-893e-42f2-bc76-7e47ec81fcbb"},"vehicle_type_id":"4","last_reported":1744960194,"current_range_meters":20400,"station_id":"ce4bhn12rcd13ifvqgpg","pricing_plan_id":"cebpf4jnsgd1na2vs0mg"},{"bike_id":"d775a69a-2038-4c31-b285-96fb9d926a56","system_id":"levelo_inurba_marseille","lat":43.3137,"lon":5.36705,"is_reserved":false,"is_disabled":false,"rental_uris":{"android":"levelo://app?vid=d775a69a-2038-4c31-b285-96fb9d926a56","ios":"levelo://app?vid=d775a69a-2038-4c31-b285-96fb9d926a56"},"vehicle_type_id":"4","last_reported":1744960194,"current_range_meters":20400,"station_id":"ce4bgr92rcd13ifvqc6g","pricing_plan_id":"cebpf4jnsgd1na2vs0mg"},{"bike_id":"16a87873-6101-4cc9-8c92-5091ac50ec91","system_id":"levelo_inurba_marseille","lat":43.33739,"lon":5.39186,"is_reserved":false,"is_disabled":false,"rental_uris":{"android":"levelo://app?vid=16a87873-6101-4cc9-8c92-5091ac50ec91","ios":"levelo://app?vid=16a87873-6101-4cc9-8c92-5091ac50ec91"},"vehicle_type_id":"4","last_reported":1744960194,"current_range_meters":20400,"station_id":"ce4bhr92rcd13ifvqhsg","pricing_plan_id":"cebpf4jnsgd1na2vs0mg"},{"bike_id":"d52be970-ec48-4545-bc59-de81d161700d","system_id":"levelo_inurba_marseille","lat":43.25583,"lon":5.38249,"is_reserved":false,"is_disabled":false,"rental_uris":{"android":"levelo://app?vid=d52be970-ec48-4545-bc59-de81d161700d","ios":"levelo://app?vid=d52be970-ec48-4545-bc59-de81d161700d"},"vehicle_type_id":"4","last_reported":1744960194,"current_range_meters":20400,"station_id":"ce4bhih2rcd13ifvqfs0","pricing_plan_id":"cebpf4jnsgd1na2vs0mg"},{"bike_id":"58548f78-eda8-4d56-a865-fdc28eb02f6e","system_id":"levelo_inurba_marseille","lat":43.290371,"lon":5.399753,"is_reserved":false,"is_disabled":false,"rental_uris":{"android":"levelo://app?vid=58548f78-eda8-4d56-a865-fdc28eb02f6e","ios":"levelo://app?vid=58548f78-eda8-4d56-a865-fdc28eb02f6e"},"vehicle_type_id":"4","last_reported":1744960194,"current_range_meters":20400,"station_id":"ce4bh192rcd13ifvqdd0","pricing_plan_id":"cebpf4jnsgd1na2vs0mg"},{"bike_id":"32e1baf6-f2a8-4876-8b0a-9cc13511ff65","system_id":"levelo_inurba_marseille","lat":43.24174,"lon":5.39727,"is_reserved":false,"is_disabled":false,"rental_uris":{"android":"levelo://app?vid=32e1baf6-f2a8-4876-8b0a-9cc13511ff65","ios":"levelo://app?vid=32e1baf6-f2a8-4876-8b0a-9cc13511ff65"},"vehicle_type_id":"4","last_reported":1744960194,"current_range_meters":20400,"station_id":"ce4bhn12rcd13ifvqgpg","pricing_plan_id":"cebpf4jnsgd1na2vs0mg"},{"bike_id":"dd97b628-8cd2-47d8-8ce1-148fea3fc4f5","system_id":"levelo_inurba_marseille","lat":43.22934,"lon":5.35377,"is_reserved":false,"is_disabled":false,"rental_uris":{"android":"levelo://app?vid=dd97b628-8cd2-47d8-8ce1-148fea3fc4f5","ios":"levelo://app?vid=dd97b628-8cd2-47d8-8ce1-148fea3fc4f5"},"vehicle_type_id":"4","last_reported":1744960194,"current_range_meters":20400,"station_id":"cpo3532slgdg3j2ikp40","pricing_plan_id":"cebpf4jnsgd1na2vs0mg"},{"bike_id":"c76ab7f1-9a5b-4de7-92d0-9656e4ec1c06","system_id":"levelo_inurba_marseille","lat":43.26215,"lon":5.4051,"is_reserved":false,"is_disabled":false,"rental_uris":{"android":"levelo://app?vid=c76ab7f1-9a5b-4de7-92d0-9656e4ec1c06","ios":"levelo://app?vid=c76ab7f1-9a5b-4de7-92d0-9656e4ec1c06"},"vehicle_type_id":"4","last_reported":1744960194,"current_range_meters":20400,"station_id":"ce4bhmh2rcd13ifvqgmg","pricing_plan_id":"cebpf4jnsgd1na2vs0mg"},{"bike_id":"20dd2fb4-8e76-4164-aeb7-8c4771f432e4","system_id":"levelo_inurba_marseille","lat":43.28159,"lon":5.42655,"is_reserved":false,"is_disabled":true,"rental_uris":{"android":"levelo://app?vid=20dd2fb4-8e76-4164-aeb7-8c4771f432e4","ios":"levelo://app?vid=20dd2fb4-8e76-4164-aeb7-8c4771f432e4"},"vehicle_type_id":"4","last_reported":1744960194,"current_range_meters":20400,"station_id":"ce4bhnh2rcd13ifvqgug","pricing_plan_id":"cebpf4jnsgd1na2vs0mg"},{"bike_id":"6174526a-15fe-4b71-b726-6dddc04d710e","system_id":"levelo_inurba_marseille","lat":43.313257,"lon":5.39697,"is_reserved":false,"is_disabled":false,"rental_uris":{"android":"levelo://app?vid=6174526a-15fe-4b71-b726-6dddc04d710e","ios":"levelo://app?vid=6174526a-15fe-4b71-b726-6dddc04d710e"},"vehicle_type_id":"4","last_reported":1744960194,"current_range_meters":20400,"station_id":"ce4bgvp2rcd13ifvqcu0","pricing_plan_id":"cebpf4jnsgd1na2vs0mg"},{"bike_id":"09f95fea-c6da-4763-8600-a88272da027a","system_id":"levelo_inurba_marseille","lat":43.31358,"lon":5.36711,"is_reserved":false,"is_disabled":false,"rental_uris":{"android":"levelo://app?vid=09f95fea-c6da-4763-8600-a88272da027a","ios":"levelo://app?vid=09f95fea-c6da-4763-8600-a88272da027a"},"vehicle_type_id":"4","last_reported":1744960194,"current_range_meters":20400,"station_id":"ce4bgr92rcd13ifvqc6g","pricing_plan_id":"cebpf4jnsgd1na2vs0mg"},{"bike_id":"f2e71557-937c-4177-acc6-1e31fc110a32","system_id":"levelo_inurba_marseille","lat":43.308904,"lon":5.371933,"is_reserved":false,"is_disabled":false,"rental_uris":{"android":"levelo://app?vid=f2e71557-937c-4177-acc6-1e31fc110a32","ios":"levelo://app?vid=f2e71557-937c-4177-acc6-1e31fc110a32"},"vehicle_type_id":"4","last_reported":1744960194,"current_range_meters":20800,"station_id":"ce4bguh2rcd13ifvqckg","pricing_plan_id":"cebpf4jnsgd1na2vs0mg"},{"bike_id":"970f976d-90a5-4b6f-855e-22119ee3260b","system_id":"levelo_inurba_marseille","lat":43.30187,"lon":5.36607,"is_reserved":false,"is_disabled":false,"rental_uris":{"android":"levelo://app?vid=970f976d-90a5-4b6f-855e-22119ee3260b","ios":"levelo://app?vid=970f976d-90a5-4b6f-855e-22119ee3260b"},"vehicle_type_id":"4","last_reported":1744960194,"current_range_meters":20400,"station_id":"ce4bgrh2rcd13ifvqc8g","pricing_plan_id":"cebpf4jnsgd1na2vs0mg"},{"bike_id":"ff6fdeb3-4f98-4ba9-96e2-a417ad336a28","system_id":"levelo_inurba_marseille","lat":43.24792,"lon":5.37471,"is_reserved":false,"is_disabled":false,"rental_uris":{"android":"levelo://app?vid=ff6fdeb3-4f98-4ba9-96e2-a417ad336a28","ios":"levelo://app?vid=ff6fdeb3-4f98-4ba9-96e2-a417ad336a28"},"vehicle_type_id":"4","last_reported":1744960194,"current_range_meters":20800,"station_id":"ce4bhgh2rcd13ifvqfb0","pricing_plan_id":"cebpf4jnsgd1na2vs0mg"},{"bike_id":"154def0d-0d4f-486e-8308-5952a9e62ef1","system_id":"levelo_inurba_marseille","lat":43.22928,"lon":5.35384,"is_reserved":false,"is_disabled":false,"rental_uris":{"android":"levelo://app?vid=154def0d-0d4f-486e-8308-5952a9e62ef1","ios":"levelo://app?vid=154def0d-0d4f-486e-8308-5952a9e62ef1"},"vehicle_type_id":"4","last_reported":1744960194,"current_range_meters":20800,"station_id":"cpo3532slgdg3j2ikp40","pricing_plan_id":"cebpf4jnsgd1na2vs0mg"},{"bike_id":"c75bafc4-11d8-4695-846f-79877fb8cef3","system_id":"levelo_inurba_marseille","lat":43.241788,"lon":5.397259,"is_reserved":false,"is_disabled":false,"rental_uris":{"android":"levelo://app?vid=c75bafc4-11d8-4695-846f-79877fb8cef3","ios":"levelo://app?vid=c75bafc4-11d8-4695-846f-79877fb8cef3"},"vehicle_type_id":"4","last_reported":1744960194,"current_range_meters":21600,"station_id":"ce4bhn12rcd13ifvqgpg","pricing_plan_id":"cebpf4jnsgd1na2vs0mg"},{"bike_id":"c1ea8874-c398-4dae-a47b-b901840ac6c6","system_id":"levelo_inurba_marseille","lat":43.26778,"lon":5.39421,"is_reserved":false,"is_disabled":true,"rental_uris":{"android":"levelo://app?vid=c1ea8874-c398-4dae-a47b-b901840ac6c6","ios":"levelo://app?vid=c1ea8874-c398-4dae-a47b-b901840ac6c6"},"vehicle_type_id":"4","last_reported":1744960194,"current_range_meters":21600,"station_id":"ce4bhh12rcd13ifvqfg0","pricing_plan_id":"cebpf4jnsgd1na2vs0mg"},{"bike_id":"20c115d3-5c54-411b-97dd-5acc81a682f0","system_id":"levelo_inurba_marseille","lat":43.231902,"lon":5.399879,"is_reserved":false,"is_disabled":false,"rental_uris":{"android":"levelo://app?vid=20c115d3-5c54-411b-97dd-5acc81a682f0","ios":"levelo://app?vid=20c115d3-5c54-411b-97dd-5acc81a682f0"},"vehicle_type_id":"4","last_reported":1744960194,"current_range_meters":21600,"station_id":"ce4bhn12rcd13ifvqgqg","pricing_plan_id":"cebpf4jnsgd1na2vs0mg"},