{"last_updated":1705784750,"ttl":30,"version":"2.2","data":{"bikes":[{"bike_id":"34a6a011-aa73-46d6-a314-8fd58010ba98","system_id":"levelo_inurba_marseille","lat":43.312239,"lon":5.368562,"is_reserved":false,"is_disabled":false,"rental_uris":{"android":"levelo://app?vid=34a6a011-aa73-46d6-a314-8fd58010ba98","ios":"levelo://app?vid=34a6a011-aa73-46d6-a314-8fd58010ba98"},"vehicle_type_id":"4","last_reported":1705784750,"current_range_meters":0,"station_id":"ce4bgl92rcd13ifvqbq0","pricing_plan_id":"free"},{"bike_id":"729219a7-ecda-4bd7-b56e-ed076795c979","system_id":"levelo_inurba_marseille","lat":43.312239,"lon":5.368562,"is_reserved":false,"is_disabled":false,"rental_uris":{"android":"levelo://app?vid=729219a7-ecda-4bd7-b56e-ed076795c979","ios":"levelo://app?vid=729219a7-ecda-4bd7-b56e-ed076795c979"},"vehicle_type_id":"4","last_reported":1705784750,"current_range_meters":15600,"station_id":"ce4bgl92rcd13ifvqbq0","pricing_plan_id":"free"},{"bike_id":"535040ec-87b8-49d0-b6a1-4e0df1bed790","system_id":"levelo_inurba_marseille","lat":43.312239,"lon":5.368562,"is_reserved":false,"is_disabled":false,"rental_uris":{"android":"levelo://app?vid=535040ec-87b8-49d0-b6a1-4e0df1bed790","ios":"levelo://app?vid=535040ec-87b8-49d0-b6a1-4e0df1bed790"},"vehicle_type_id":"4","last_reported":1705784750,"current_range_meters":22400,"station_id":"ce4bgl92rcd13ifvqbq0","pricing_plan_id":"free"},{"bike_id":"a521a0a5-59f2-40d3-8de7-de14f18e15a4","system_id":"levelo_inurba_marseille","lat":43.312239,"lon":5.368562,"is_reserved":false,"is_disabled":false,"rental_uris":{"android":"levelo://app?vid=a521a0a5-59f2-40d3-8de7-de14f18e15a4","ios":"levelo://app?vid=a521a0a5-59f2-40d3-8de7-de14f18e15a4"},"vehicle_type_id":"4","last_reported":1705784750,"current_range_meters":8800,"station_id":"ce4bgl92rcd13ifvqbq0","pricing_plan_id":"free"},{"bike_id":"dd4f008f-9d97-4306-af31-f7d9c999c7a3","system_id":"levelo_inurba_marseille","lat":43.312264,"lon":5.368637,"is_reserved":false,"is_disabled":false,"rental_uris":{"android":"levelo://app?vid=dd4f008f-9d97-4306-af31-f7d9c999c7a3","ios":"levelo://app?vid=dd4f008f-9d97-4306-af31-f7d9c999c7a3"},"vehicle_type_id":"4","last_reported":1705784750,"current_range_meters":1600,"station_id":"ce4bgl92rcd13ifvqbq0","pricing_plan_id":"free"},{"bike_id":"8956bbe4-5271-4896-ba6e-d25e6599609d","system_id":"levelo_inurba_marseille","lat":43.314811,"lon":5.373103,"is_reserved":false,"is_disabled":false,"rental_uris":{"android":"levelo://app?vid=8956bbe4-5271-4896-ba6e-d25e6599609d","ios":"levelo://app?vid=8956bbe4-5271-4896-ba6e-d25e6599609d"},"vehicle_type_id":"4","last_reported":1705784750,"current_range_meters":2000,"station_id":"ce4bgt12rcd13ifvqcd0","pricing_plan_id":"free"},{"bike_id":"f9dabc1e-f9f7-4f9c-9d3a-3e10ecbc5811","system_id":"levelo_inurba_marseille","lat":43.314811,"lon":5.373103,"is_reserved":false,"is_disabled":false,"rental_uris":{"android":"levelo://app?vid=f9dabc1e-f9f7-4f9c-9d3a-3e10ecbc5811","ios":"levelo://app?vid=f9dabc1e-f9f7-4f9c-9d3a-3e10ecbc5811"},"vehicle_type_id":"4","last_reported":1705784750,"current_range_meters":24000,"station_id":"ce4bgt12rcd13ifvqcd0","pricing_plan_id":"free"},{"bike_id":"960e2057-412f-4e20-a975-1e9c6d457912","system_id":"levelo_inurba_marseille","lat":43.314811,"lon":5.373103,"is_reserved":false,"is_disabled":false,"rental_uris":{"android":"levelo://app?vid=960e2057-412f-4e20-a975-1e9c6d457912","ios":"levelo://app?vid=960e2057-412f-4e20-a975-1e9c6d457912"},"vehicle_type_id":"4","last_reported":1705784750,"current_range_meters":17200,"station_id":"ce4bgt12rcd13ifvqcd0","pricing_plan_id":"free"},{"bike_id":"72372ad7-dd20-4883-afbf-2e097ce5703e","system_id":"levelo_inurba_marseille","lat":43.314811,"lon":5.373104,"is_reserved":false,"is_disabled":false,"rental_uris":{"android":"levelo://app?vid=72372ad7-dd20-4883-afbf-2e097ce5703e","ios":"levelo://app?vid=72372ad7-dd20-4883-afbf-2e097ce5703e"},"vehicle_type_id":"4","last_reported":1705784750,"current_range_meters":26000,"station_id":"ce4bgt12rcd13ifvqcd0","pricing_plan_id":"free"},{"bike_id":"0cfa87d4-451e-47f2-ba17-cc8ab96f7bfb","system_id":"levelo_inurba_marseille","lat":43.314811,"lon":5.373103,"is_reserved":false,"is_disabled":false,"rental_uris":{"android":"levelo://app?vid=0cfa87d4-451e-47f2-ba17-cc8ab96f7bfb","ios":"levelo://app?vid=0cfa87d4-451e-47f2-ba17-cc8ab96f7bfb"},"vehicle_type_id":"4","last_reported":1705784750,"current_range_meters":15600,"station_id":"ce4bgt12rcd13ifvqcd0","pricing_plan_id":"free"},{"bike_id":"c13706f5-a285-4ae8-9f5c-52fffc076d25","system_id":"levelo_inurba_marseille","lat":43.309039,"lon":5.371797,"is_reserved":false,"is_disabled":false,"rental_uris":{"android":"levelo://app?vid=c13706f5-a285-4ae8-9f5c-52fffc076d25","ios":"levelo://app?vid=c13706f5-a285-4ae8-9f5c-52fffc076d25"},"vehicle_type_id":"4","last_reported":1705784750,"current_range_meters":22000,"station_id":"ce4bguh2rcd13ifvqckg","pricing_plan_id":"free"},{"bike_id":"b323cae5-9f30-466c-a6e3-b75de2ff4222","system_id":"levelo_inurba_marseille","lat":43.305368,"lon":5.367343,"is_reserved":false,"is_disabled":false,"rental_uris":{"android":"levelo://app?vid=b323cae5-9f30-466c-a6e3-b75de2ff4222","ios":"levelo://app?vid=b323cae5-9f30-466c-a6e3-b75de2ff4222"},"vehicle_type_id":"4","last_reported":1705784750,"current_range_meters":23200,"station_id":"ce4bgrp2rcd13ifvqc9g","pricing_plan_id":"free"},{"bike_id":"d99cc874-8fe3-4642-bb15-5da0bab5e6c6","system_id":"levelo_inurba_marseille","lat":43.305989,"lon":5.37225,"is_reserved":false,"is_disabled":false,"rental_uris":{"android":"levelo://app?vid=d99cc874-8fe3-4642-bb15-5da0bab5e6c6","ios":"levelo://app?vid=d99cc874-8fe3-4642-bb15-5da0bab5e6c6"},"vehicle_type_id":"4","last_reported":1705784750,"current_range_meters":19200,"station_id":"ce4bgqh2rcd13ifvqc4g","pricing_plan_id":"free"},{"bike_id":"72fa3a44-d20b-4084-8051-434581f38108","system_id":"levelo_inurba_marseille","lat":43.305989,"lon":5.37225,"is_reserved":false,"is_disabled":false,"rental_uris":{"android":"levelo://app?vid=72fa3a44-d20b-4084-8051-434581f38108","ios":"levelo://app?vid=72fa3a44-d20b-4084-8051-434581f38108"},"vehicle_type_id":"4","last_reported":1705784750,"current_range_meters":11200,"station_id":"ce4bgqh2rcd13ifvqc4g","pricing_plan_id":"free"},{"bike_id":"7c820774-c348-446e-9e87-9725afac3bd0","system_id":"levelo_inurba_marseille","lat":43.311131,"lon":5.377651,"is_reserved":false,"is_disabled":false,"rental_uris":{"android":"levelo://app?vid=7c820774-c348-446e-9e87-9725afac3bd0","ios":"levelo://app?vid=7c820774-c348-446e-9e87-9725afac3bd0"},"vehicle_type_id":"4","last_reported":1705784750,"current_range_meters":400,"station_id":"ce4bgt92rcd13ifvqcg0","pricing_plan_id":"free"},{"bike_id":"4e08da87-a30f-4db2-9a50-8e5df3ecbe85","system_id":"levelo_inurba_marseille","lat":43.307945,"lon":5.376487,"is_reserved":false,"is_disabled":false,"rental_uris":{"android":"levelo://app?vid=4e08da87-a30f-4db2-9a50-8e5df3ecbe85","ios":"levelo://app?vid=4e08da87-a30f-4db2-9a50-8e5df3ecbe85"},"vehicle_type_id":"4","last_reported":1705784750,"current_range_meters":5200,"station_id":"ce4bgv92rcd13ifvqcq0","pricing_plan_id":"free"},{"bike_id":"cd7ccd92-eafc-4268-a297-e3c64c0af6c3","system_id":"levelo_inurba_marseille","lat":43.317075,"lon":5.377367,"is_reserved":false,"is_disabled":false,"rental_uris":{"android":"levelo://app?vid=cd7ccd92-eafc-4268-a297-e3c64c0af6c3","ios":"levelo://app?vid=cd7ccd92-eafc-4268-a297-e3c64c0af6c3"},"vehicle_type_id":"4","last_reported":1705784750,"current_range_meters":28000,"station_id":"ce4bgth2rcd13ifvqch0","pricing_plan_id":"free"},{"bike_id":"d7854f2c-e25b-4567-9ca1-100b79dde627","system_id":"levelo_inurba_marseille","lat":43.317075,"lon":5.377367,"is_reserved":false,"is_disabled":false,"rental_uris":{"android":"levelo://app?vid=d7854f2c-e25b-4567-9ca1-100b79dde627","ios":"levelo://app?vid=d7854f2c-e25b-4567-9ca1-100b79dde627"},"vehicle_type_id":"4","last_reported":1705784750,"current_range_meters":20800,"station_id":"ce4bgth2rcd13ifvqch0","pricing_plan_id":"free"},{"bike_id":"bc5fa535-88b3-406b-bd14-afa0bf9eb036","system_id":"levelo_inurba_marseille","lat":43.317005,"lon":5.377527,"is_reserved":false,"is_disabled":false,"rental_uris":{"android":"levelo://app?vid=bc5fa535-88b3-406b-bd14-afa0bf9eb036","ios":"levelo://app?vid=bc5fa535-88b3-406b-bd14-afa0bf9eb036"},"vehicle_type_id":"4","last_reported":1705784750,"current_range_meters":8400,"station_id":"ce4bgth2rcd13ifvqch0","pricing_plan_id":"free"},{"bike_id":"c5e37bd6-6f81-4cf3-b74b-87c0ce98b56a","system_id":"levelo_inurba_marseille","lat":43.31707,"lon":5.37753,"is_reserved":false,"is_disabled":false,"rental_uris":{"android":"levelo://app?vid=c5e37bd6-6f81-4cf3-b74b-87c0ce98b56a","ios":"levelo://app?vid=c5e37bd6-6f81-4cf3-b74b-87c0ce98b56a"},"vehicle_type_id":"4","last_reported":1705784750,"current_range_meters":14400,"station_id":"ce4bgth2rcd13ifvqch0","pricing_plan_id":"free"},{"bike_id":"a91f1b0c-c2f2-4f8d-95b4-3dc81767a0bd","system_id":"levelo_inurba_marseille","lat":43.317075,"lon":5.377367,"is_reserved":false,"is_disabled":false,"rental_uris":{"android":"levelo://app?vid=a91f1b0c-c2f2-4f8d-95b4-3dc81767a0bd","ios":"levelo://app?vid=a91f1b0c-c2f2-4f8d-95b4-3dc81767a0bd"},"vehicle_type_id":"4","last_reported":1705784750,"current_range_meters":26800,"station_id":"ce4bgth2rcd13ifvqch0","pricing_plan_id":"free"},{"bike_id":"12c26ea7-bf34-4d48-af42-41fcadc8a32d","system_id":"levelo_inurba_marseille","lat":43.317075,"lon":5.377367,"is_reserved":false,"is_disabled":false,"rental_uris":{"android":"levelo://app?vid=12c26ea7-bf34-4d48-af42-41fcadc8a32d","ios":"levelo://app?vid=12c26ea7-bf34-4d48-af42-41fcadc8a32d"},"vehicle_type_id":"4","last_reported":1705784750,"current_range_meters":28400,"station_id":"ce4bgth2rcd13ifvqch0","pricing_plan_id":"free"},{"bike_id":"601c5d0b-8b81-4894-afa1-2bf02a9165ff","system_id":"levelo_inurba_marseille","lat":43.303046,"lon":5.368981,"is_reserved":false,"is_disabled":false,"rental_uris":{"android":"levelo://app?vid=601c5d0b-8b81-4894-afa1-2bf02a9165ff","ios":"levelo://app?vid=601c5d0b-8b81-4894-afa1-2bf02a9165ff"},"vehicle_type_id":"4","last_reported":1705784750,"current_range_meters":2400,"station_id":"ce4bgqh2rcd13ifvqc5g","pricing_plan_id":"free"},{"bike_id":"0cbc1ab5-ca9e-4f92-95dd-129957baa8f9","system_id":"levelo_inurba_marseille","lat":43.303046,"lon":5.368981,"is_reserved":false,"is_disabled":false,"rental_uris":{"android":"levelo://app?vid=0cbc1ab5-ca9e-4f92-95dd-129957baa8f9","ios":"levelo://app?vid=0cbc1ab5-ca9e-4f92-95dd-129957baa8f9"},"vehicle_type_id":"4","last_reported":1705784750,"current_range_meters":1200,"station_id":"ce4bgqh2rcd13ifvqc5g","pricing_plan_id":"free"},{"bike_id":"c4413af1-e2e5-4b72-9f9c-fdb7bea27aab","system_id":"levelo_inurba_marseille","lat":43.31534,"lon":5.38029,"is_reserved":false,"is_disabled":false,"rental_uris":{"android":"levelo://app?vid=c4413af1-e2e5-4b72-9f9c-fdb7bea27aab","ios":"levelo://app?vid=c4413af1-e2e5-4b72-9f9c-fdb7bea27aab"},"vehicle_type_id":"4","last_reported":1705784750,"current_range_meters":9600,"station_id":"ce4bhsp2rcd13ifvqi50","pricing_plan_id":"free"},{"bike_id":"3862edf2-e94e-4d3f-94e0-6891a732e7e3","system_id":"levelo_inurba_marseille","lat":43.315293,"lon":5.380349,"is_reserved":false,"is_disabled":false,"rental_uris":{"android":"levelo://app?vid=3862edf2-e94e-4d3f-94e0-6891a732e7e3","ios":"levelo://app?vid=3862edf2-e94e-4d3f-94e0-6891a732e7e3"},"vehicle_type_id":"4","last_reported":1705784750,"current_range_meters":16400,"station_id":"ce4bhsp2rcd13ifvqi50","pricing_plan_id":"free"},{"bike_id":"4c39755b-785e-408e-9884-cbb52d8ecf85","system_id":"levelo_inurba_marseille","lat":43.31537,"lon":5.38038,"is_reserved":false,"is_disabled":false,"rental_uris":{"android":"levelo://app?vid=4c39755b-785e-408e-9884-cbb52d8ecf85","ios":"levelo://app?vid=4c39755b-785e-408e-9884-cbb52d8ecf85"},"vehicle_type_id":"4","last_reported":1705784750,"current_range_meters":5200,"station_id":"ce4bhsp2rcd13ifvqi50","pricing_plan_id":"free"},{"bike_id":"f062aafc-3e01-4d38-9365-0c29ad7606ba","system_id":"levelo_inurba_marseille","lat":43.301939,"lon":5.366286,"is_reserved":false,"is_disabled":false,"rental_uris":{"android":"levelo://app?vid=f062aafc-3e01-4d38-9365-0c29ad7606ba","ios":"levelo://app?vid=f062aafc-3e01-4d38-9365-0c29ad7606ba"},"vehicle_type_id":"4","last_reported":1705784750,"current_range_meters":24400,"station_id":"ce4bgrh2rcd13ifvqc8g","pricing_plan_id":"free"},{"bike_id":"1734f839-a8d8-441a-838c-2f96750dac61","system_id":"levelo_inurba_marseille","lat":43.301939,"lon":5.366286,"is_reserved":false,"is_disabled":false,"rental_uris":{"android":"levelo://app?vid=1734f839-a8d8-441a-838c-2f96750dac61","ios":"levelo://app?vid=1734f839-a8d8-441a-838c-2f96750dac61"},"vehicle_type_id":"4","last_reported":1705784750,"current_range_meters":16000,"station_id":"ce4bgrh2rcd13ifvqc8g","pricing_plan_id":"free"},{"bike_id":"00f5005b-649e-4afe-ae05-a25f3c39b541","system_id":"levelo_inurba_marseille","lat":43.308012,"lon":5.381511,"is_reserved":false,"is_disabled":false,"rental_uris":{"android":"levelo://app?vid=00f5005b-649e-4afe-ae05-a25f3c39b541","ios":"levelo://app?vid=00f5005b-649e-4afe-ae05-a25f3c39b541"},"vehicle_type_id":"4","last_reported":1705784750,"current_range_meters":1200,"station_id":"ce4bgt12rcd13ifvqce0","pricing_plan_id":"free"},{"bike_id":"66687e60-9245-4a0c-87a5-9370475f3080","system_id":"levelo_inurba_marseille","lat":43.308012,"lon":5.381511,"is_reserved":false,"is_disabled":false,"rental_uris":{"android":"levelo://app?vid=66687e60-9245-4a0c-87a5-9370475f3080","ios":"levelo://app?vid=66687e60-9245-4a0c-87a5-9370475f3080"},"vehicle_type_id":"4","last_reported":1705784750,"current_range_meters":18400,"station_id":"ce4bgt12rcd13ifvqce0","pricing_plan_id":"free"},{"bike_id":"d655f5bb-ed30-48d1-8fea-b10c22e797ad","system_id":"levelo_inurba_marseille","lat":43.324771,"lon":5.36557,"is_reserved":false,"is_disabled":false,"rental_uris":{"android":"levelo://app?vid=d655f5bb-ed30-48d1-8fea-b10c22e797ad","ios":"levelo://app?vid=d655f5bb-ed30-48d1-8fea-b10c22e797ad"},"vehicle_type_id":"4","last_reported":1705784750,"current_range_meters":13600,"station_id":"ce4bhs12rcd13ifvqhvg","pricing_plan_id":"free"},{"bike_id":"6cbaa73a-5f5e-4107-89bb-de878da68fc1","system_id":"levelo_inurba_marseille","lat":43.304631,"lon":5.379223,"is_reserved":false,"is_disabled":false,"rental_uris":{"android":"levelo://app?vid=6cbaa73a-5f5e-4107-89bb-de878da68fc1","ios":"levelo://app?vid=6cbaa73a-5f5e-4107-89bb-de878da68fc1"},"vehicle_type_id":"4","last_reported":1705784750,"current_range_meters":23600,"station_id":"","pricing_plan_id":"free"},{"bike_id":"2179bf7d-2ef3-478f-ab07-0d1474ed1fd2","system_id":"levelo_inurba_marseille","lat":43.324793,"lon":5.365736,"is_reserved":false,"is_disabled":false,"rental_uris":{"android":"levelo://app?vid=2179bf7d-2ef3-478f-ab07-0d1474ed1fd2","ios":"levelo://app?vid=2179bf7d-2ef3-478f-ab07-0d1474ed1fd2"},"vehicle_type_id":"4","last_reported":1705784750,"current_range_meters":25600,"station_id":"ce4bhs12rcd13ifvqhvg","pricing_plan_id":"free"},{"bike_id":"3cb5ad2b-e743-4194-9d67-007686b421e8","system_id":"levelo_inurba_marseille","lat":43.324771,"lon":5.36557,"is_reserved":false,"is_disabled":false,"rental_uris":{"android":"levelo://app?vid=3cb5ad2b-e743-4194-9d67-007686b421e8","ios":"levelo://app?vid=3cb5ad2b-e743-4194-9d67-007686b421e8"},"vehicle_type_id":"4","last_reported":1705784750,"current_range_meters":15600,"station_id":"ce4bhs12rcd13ifvqhvg","pricing_plan_id":"free"},{"bike_id":"6fca3aa1-7845-4dc1-bf44-91570d5b1a5a","system_id":"levelo_inurba_marseille","lat":43.324771,"lon":5.36557,"is_reserved":false,"is_disabled":false,"rental_uris":{"android":"levelo://app?vid=6fca3aa1-7845-4dc1-bf44-91570d5b1a5a","ios":"levelo://app?vid=6fca3aa1-7845-4dc1-bf44-91570d5b1a5a"},"vehicle_type_id":"4","last_reported":1705784750,"current_range_meters":22000,"station_id":"ce4bhs12rcd13ifvqhvg","pricing_plan_id":"free"},{"bike_id":"71a126c7-b719-426c-b069-4af1d4a5ba47","system_id":"levelo_inurba_marseille","lat":43.324825,"lon":5.365695,"is_reserved":false,"is_disabled":false,"rental_uris":{"android":"levelo://app?vid=71a126c7-b719-426c-b069-4af1d4a5ba47","ios":"levelo://app?vid=71a126c7-b719-426c-b069-4af1d4a5ba47"},"vehicle_type_id":"4","last_reported":1705784750,"current_range_meters":29200,"station_id":"ce4bhs12rcd13ifvqhvg","pricing_plan_id":"free"},{"bike_id":"473641ac-6aae-4372-b0d6-cad5571f515f","system_id":"levelo_inurba_marseille","lat":43.324771,"lon":5.36557,"is_reserved":false,"is_disabled":false,"rental_uris":{"android":"levelo://app?vid=473641ac-6aae-4372-b0d6-cad5571f515f","ios":"levelo://app?vid=473641ac-6aae-4372-b0d6-cad5571f515f"},"vehicle_type_id":"4","last_reported":1705784750,"current_range_meters":28000,"station_id":"ce4bhs12rcd13ifvqhvg","pricing_plan_id":"free"},{"bike_id":"c7d678ca-5190-4aab-9b8d-cdb0cac2118f","system_id":"levelo_inurba_marseille","lat":43.324771,"lon":5.36557,"is_reserved":false,"is_disabled":false,"rental_uris":{"android":"levelo://app?vid=c7d678ca-5190-4aab-9b8d-cdb0cac2118f","ios":"levelo://app?vid=c7d678ca-5190-4aab-9b8d-cdb0cac2118f"},"vehicle_type_id":"4","last_reported":1705784750,"current_range_meters":12000,"station_id":"ce4bhs12rcd13ifvqhvg","pricing_plan_id":"free"},{"bike_id":"e84949e8-ecc8-4c62-b9c7-ea4d6dec9773","system_id":"levelo_inurba_marseille","lat":43.3249,"lon":5.365718,"is_reserved":false,"is_disabled":false,"rental_uris":{"android":"levelo://app?vid=e84949e8-ecc8-4c62-b9c7-ea4d6dec9773","ios":"levelo://app?vid=e84949e8-ecc8-4c62-b9c7-ea4d6dec9773"},"vehicle_type_id":"4","last_reported":1705784750,"current_range_meters":4800,"station_id":"ce4bhs12rcd13ifvqhvg","pricing_plan_id":"free"},{"bike_id":"e0e67bdf-320d-49b0-a854-3c618a175f30","system_id":"levelo_inurba_marseille","lat":43.30282,"lon":5.377019,"is_reserved":false,"is_disabled":false,"rental_uris":{"android":"levelo://app?vid=e0e67bdf-320d-49b0-a854-3c618a175f30","ios":"levelo://app?vid=e0e67bdf-320d-49b0-a854-3c618a175f30"},"vehicle_type_id":"4","last_reported":1705784750,"current_range_meters":17200,"station_id":"","pricing_plan_id":"free"},{"bike_id":"6090d268-7bbb-48e5-aa55-8998d9f62d8c","system_id":"levelo_inurba_marseille","lat":43.30143,"lon":5.37413,"is_reserved":false,"is_disabled":false,"rental_uris":{"android":"levelo://app?vid=6090d268-7bbb-48e5-aa55-8998d9f62d8c","ios":"levelo://app?vid=6090d268-7bbb-48e5-aa55-8998d9f62d8c"},"vehicle_type_id":"4","last_reported":1705784750,"current_range_meters":7200,"station_id":"ce4bgs92rcd13ifvqcc0","pricing_plan_id":"free"},{"bike_id":"b1411ad7-0900-4640-a8c2-12cf6a56628b","system_id":"levelo_inurba_marseille","lat":43.30143,"lon":5.37413,"is_reserved":false,"is_disabled":false,"rental_uris":{"android":"levelo://app?vid=b1411ad7-0900-4640-a8c2-12cf6a56628b","ios":"levelo://app?vid=b1411ad7-0900-4640-a8c2-12cf6a56628b"},"vehicle_type_id":"4","last_reported":1705784750,"current_range_meters":21200,"station_id":"ce4bgs92rcd13ifvqcc0","pricing_plan_id":"free"},{"bike_id":"2efb11ae-f254-458b-ac9a-cd928c977472","system_id":"levelo_inurba_marseille","lat":43.301429,"lon":5.37413,"is_reserved":false,"is_disabled":false,"rental_uris":{"android":"levelo://app?vid=2efb11ae-f254-458b-ac9a-cd928c977472","ios":"levelo://app?vid=2efb11ae-f254-458b-ac9a-cd928c977472"},"vehicle_type_id":"4","last_reported":1705784750,"current_range_meters":21600,"station_id":"ce4bgs92rcd13ifvqcc0","pricing_plan_id":"free"},{"bike_id":"72d01924-77bf-442f-9297-97b14e6dcd1b","system_id":"levelo_inurba_marseille","lat":43.30143,"lon":5.37413,"is_reserved":false,"is_disabled":false,"rental_uris":{"android":"levelo://app?vid=72d01924-77bf-442f-9297-97b14e6dcd1b","ios":"levelo://app?vid=72d01924-77bf-442f-9297-97b14e6dcd1b"},"vehicle_type_id":"4","last_reported":1705784750,"current_range_meters":28000,"station_id":"ce4bgs92rcd13ifvqcc0","pricing_plan_id":"free"},{"bike_id":"cc24f19f-3914-474c-8fd9-6bbb87405512","system_id":"levelo_inurba_marseille","lat":43.319914,"lon":5.381398,"is_reserved":false,"is_disabled":false,"rental_uris":{"android":"levelo://app?vid=cc24f19f-3914-474c-8fd9-6bbb87405512","ios":"levelo://app?vid=cc24f19f-3914-474c-8fd9-6bbb87405512"},"vehicle_type_id":"4","last_reported":1705784750,"current_range_meters":6000,"station_id":"ce4bhr12rcd13ifvqhpg","pricing_plan_id":"free"},{"bike_id":"f0e6f343-5d11-4ccd-b521-fba2ec1496b9","system_id":"levelo_inurba_marseille","lat":43.319967,"lon":5.38143,"is_reserved":false,"is_disabled":false,"rental_uris":{"android":"levelo://app?vid=f0e6f343-5d11-4ccd-b521-fba2ec1496b9","ios":"levelo://app?vid=f0e6f343-5d11-4ccd-b521-fba2ec1496b9"},"vehicle_type_id":"4","last_reported":1705784750,"current_range_meters":8000,"station_id":"ce4bhr12rcd13ifvqhpg","pricing_plan_id":"free"},{"bike_id":"b56b44a8-4957-45a0-ab05-24598deb6b43","system_id":"levelo_inurba_marseille","lat":43.319955,"lon":5.381455,"is_reserved":false,"is_disabled":false,"rental_uris":{"android":"levelo://app?vid=b56b44a8-4957-45a0-ab05-24598deb6b43","ios":"levelo://app?vid=b56b44a8-4957-45a0-ab05-24598deb6b43"},"vehicle_type_id":"4","last_reported":1705784750,"current_range_meters":30400,"station_id":"ce4bhr12rcd13ifvqhpg","pricing_plan_id":"free"},{"bike_id":"a5605478-720f-48fe-b19d-580b9c358f06","system_id":"levelo_inurba_marseille","lat":43.31995,"lon":5.38156,"is_reserved":false,"is_disabled":false,"rental_uris":{"android":"levelo://app?vid=a5605478-720f-48fe-b19d-580b9c358f06","ios":"levelo://app?vid=a5605478-720f-48fe-b19d-580b9c358f06"},"vehicle_type_id":"4","last_reported":1705784750,"current_range_meters":26000,"station_id":"ce4bhr12rcd13ifvqhpg","pricing_plan_id":"free"},{"bike_id":"0cc6fa33-c74b-4329-9c6b-687b5f16df41","system_id":"levelo_inurba_marseille","lat":43.31995,"lon":5.38158,"is_reserved":false,"is_disabled":false,"rental_uris":{"android":"levelo://app?vid=0cc6fa33-c74b-4329-9c6b-687b5f16df41","ios":"levelo://app?vid=0cc6fa33-c74b-4329-9c6b-687b5f16df41"},"vehicle_type_id":"4","last_reported":1705784750,"current_range_meters":0,"station_id":"ce4bhr12rcd13ifvqhpg","pricing_plan_id":"free"},{"bike_id":"0d9f1411-1078-40f7-9677-3aeb65d8f10a","system_id":"levelo_inurba_marseille","lat":43.319977,"lon":5.3816,"is_reserved":false,"is_disabled":false,"rental_uris":{"android":"levelo://app?vid=0d9f1411-1078-40f7-9677-3aeb65d8f10a","ios":"levelo://app?vid=0d9f1411-1078-40f7-9677-3aeb65d8f10a"},"vehicle_type_id":"4","last_reported":1705784750,"current_range_meters":26800,"station_id":"ce4bhr12rcd13ifvqhpg","pricing_plan_id":"free"},{"bike_id":"54f5fd89-ff6c-4439-b459-e153c5adac72","system_id":"levelo_inurba_marseille","lat":43.32004,"lon":5.381575,"is_reserved":false,"is_disabled":false,"rental_uris":{"android":"levelo://app?vid=54f5fd89-ff6c-4439-b459-e153c5adac72","ios":"levelo://app?vid=54f5fd89-ff6c-4439-b459-e153c5adac72"},"vehicle_type_id":"4","last_reported":1705784750,"current_range_meters":0,"station_id":"ce4bhr12rcd13ifvqhpg","pricing_plan_id":"free"},{"bike_id":"cc9fd4b8-bc9a-481a-aab4-51922a0463ea","system_id":"levelo_inurba_marseille","lat":43.313571,"lon":5.384829,"is_reserved":false,"is_disabled":false,"rental_uris":{"android":"levelo://app?vid=cc9fd4b8-bc9a-481a-aab4-51922a0463ea","ios":"levelo://app?vid=cc9fd4b8-bc9a-481a-aab4-51922a0463ea"},"vehicle_type_id":"4","last_reported":1705784750,"current_range_meters":17600,"station_id":"ce4bgt92rcd13ifvqcf0","pricing_plan_id":"free"},{"bike_id":"4bff56c5-a323-4e32-abf0-85feae549bdf","system_id":"levelo_inurba_marseille","lat":43.299495,"lon":5.365405,"is_reserved":false,"is_disabled":false,"rental_uris":{"android":"levelo://app?vid=4bff56c5-a323-4e32-abf0-85feae549bdf","ios":"levelo://app?vid=4bff56c5-a323-4e32-abf0-85feae549bdf"},"vehicle_type_id":"4","last_reported":1705784750,"current_range_meters":3600,"station_id":"ce4bgm92rcd13ifvqbr0","pricing_plan_id":"free"},{"bike_id":"6d6abd61-c1bd-45b5-ab4f-daf18b6de516","system_id":"levelo_inurba_marseille","lat":43.299222,"lon":5.365554,"is_reserved":false,"is_disabled":false,"rental_uris":{"android":"levelo://app?vid=6d6abd61-c1bd-45b5-ab4f-daf18b6de516","ios":"levelo://app?vid=6d6abd61-c1bd-45b5-ab4f-daf18b6de516"},"vehicle_type_id":"4","last_reported":1705784750,"current_range_meters":400,"station_id":"ce4bgm92rcd13ifvqbr0","pricing_plan_id":"free"},{"bike_id":"2bb16dc6-dfd7-482f-a0d2-1143dfe9ac86","system_id":"levelo_inurba_marseille","lat":43.299724,"lon":5.371829,"is_reserved":false,"is_disabled":false,"rental_uris":{"android":"levelo://app?vid=2bb16dc6-dfd7-482f-a0d2-1143dfe9ac86","ios":"levelo://app?vid=2bb16dc6-dfd7-482f-a0d2-1143dfe9ac86"},"vehicle_type_id":"4","last_reported":1705784750,"current_range_meters":5600,"station_id":"ce4bgr92rcd13ifvqc7g","pricing_plan_id":"free"},{"bike_id":"fa8e28df-8165-41c6-af6e-cb91ff43a35c","system_id":"levelo_inurba_marseille","lat":43.299724,"lon":5.371829,"is_reserved":false,"is_disabled":false,"rental_uris":{"android":"levelo://app?vid=fa8e28df-8165-41c6-af6e-cb91ff43a35c","ios":"levelo://app?vid=fa8e28df-8165-41c6-af6e-cb91ff43a35c"},"vehicle_type_id":"4","last_reported":1705784750,"current_range_meters":29600,"station_id":"ce4bgr92rcd13ifvqc7g","pricing_plan_id":"free"},{"bike_id":"446064a6-a0c5-46e7-bc5e-428a28ac3133","system_id":"levelo_inurba_marseille","lat":43.299724,"lon":5.371829,"is_reserved":false,"is_disabled":false,"rental_uris":{"android":"levelo://app?vid=446064a6-a0c5-46e7-bc5e-428a28ac3133","ios":"levelo://app?vid=446064a6-a0c5-46e7-bc5e-428a28ac3133"},"vehicle_type_id":"4","last_reported":1705784750,"current_range_meters":5600,"station_id":"ce4bgr92rcd13ifvqc7g","pricing_plan_id":"free"},{"bike_id":"b816b70f-9212-4ca7-8800-623f71eb67e2","system_id":"levelo_inurba_marseille","lat":43.305364,"lon":5.384119,"is_reserved":false,"is_disabled":false,"rental_uris":{"android":"levelo://app?vid=b816b70f-9212-4ca7-8800-623f71eb67e2","ios":"levelo://app?vid=b816b70f-9212-4ca7-8800-623f71eb67e2"},"vehicle_type_id":"4","last_reported":1705784750,"current_range_meters":24400,"station_id":"ce4bgg92rcd13ifvqb30","pricing_plan_id":"free"},{"bike_id":"9b31d146-f436-4bc6-bbb8-5572936408c0","system_id":"levelo_inurba_marseille","lat":43.305364,"lon":5.384119,"is_reserved":false,"is_disabled":false,"rental_uris":{"android":"levelo://app?vid=9b31d146-f436-4bc6-bbb8-5572936408c0","ios":"levelo://app?vid=9b31d146-f436-4bc6-bbb8-5572936408c0"},"vehicle_type_id":"4","last_reported":1705784750,"current_range_meters":16800,"station_id":"ce4bgg92rcd13ifvqb30","pricing_plan_id":"free"},{"bike_id":"31f874f7-95c2-43d9-abcb-000911d13d58","system_id":"levelo_inurba_marseille","lat":43.299243,"lon":5.374807,"is_reserved":false,"is_disabled":false,"rental_uris":{"android":"levelo://app?vid=31f874f7-95c2-43d9-abcb-000911d13d58","ios":"levelo://app?vid=31f874f7-95c2-43d9-abcb-000911d13d58"},"vehicle_type_id":"4","last_reported":1705784750,"current_range_meters":16000,"station_id":"ce4bgjh2rcd13ifvqbg0","pricing_plan_id":"free"},{"bike_id":"0cae6503-9733-4545-a7dd-fa0b5d53f51b","system_id":"levelo_inurba_marseille","lat":43.299243,"lon":5.374807,"is_reserved":false,"is_disabled":false,"rental_uris":{"android":"levelo://app?vid=0cae6503-9733-4545-a7dd-fa0b5d53f51b","ios":"levelo://app?vid=0cae6503-9733-4545-a7dd-fa0b5d53f51b"},"vehicle_type_id":"4","last_reported":1705784750,"current_range_meters":26000,"station_id":"ce4bgjh2rcd13ifvqbg0","pricing_plan_id":"free"},{"bike_id":"84f9c5a3-f6c8-498e-906f-003b310cec9c","system_id":"levelo_inurba_marseille","lat":43.299243,"lon":5.37481,"is_reserved":false,"is_disabled":false,"rental_uris":{"android":"levelo://app?vid=84f9c5a3-f6c8-498e-906f-003b310cec9c","ios":"levelo://app?vid=84f9c5a3-f6c8-498e-906f-003b310cec9c"},"vehicle_type_id":"4","last_reported":1705784750,"current_range_meters":27600,"station_id":"ce4bgjh2rcd13ifvqbg0","pricing_plan_id":"free"},{"bike_id":"28fa235b-270d-4ae4-a610-203d0b4cbd8a","system_id":"levelo_inurba_marseille","lat":43.299243,"lon":5.37481,"is_reserved":false,"is_disabled":false,"rental_uris":{"android":"levelo://app?vid=28fa235b-270d-4ae4-a610-203d0b4cbd8a","ios":"levelo://app?vid=28fa235b-270d-4ae4-a610-203d0b4cbd8a"},"vehicle_type_id":"4","last_reported":1705784750,"current_range_meters":7600,"station_id":"ce4bgjh2rcd13ifvqbg0","pricing_plan_id":"free"},{"bike_id":"d1da8d70-f4c2-4064-bac5-ba3f328c4021","system_id":"levelo_inurba_marseille","lat":43.322872,"lon":5.382756,"is_reserved":false,"is_disabled":false,"rental_uris":{"android":"levelo://app?vid=d1da8d70-f4c2-4064-bac5-ba3f328c4021","ios":"levelo://app?vid=d1da8d70-f4c2-4064-bac5-ba3f328c4021"},"vehicle_type_id":"4","last_reported":1705784750,"current_range_meters":16800,"station_id":"ce4bhr12rcd13ifvqhqg","pricing_plan_id":"free"},{"bike_id":"583c6f1a-e64f-4c9e-ac8b-28623b01e801","system_id":"levelo_inurba_marseille","lat":43.322872,"lon":5.382756,"is_reserved":false,"is_disabled":false,"rental_uris":{"android":"levelo://app?vid=583c6f1a-e64f-4c9e-ac8b-28623b01e801","ios":"levelo://app?vid=583c6f1a-e64f-4c9e-ac8b-28623b01e801"},"vehicle_type_id":"4","last_reported":1705784750,"current_range_meters":28400,"station_id":"ce4bhr12rcd13ifvqhqg","pricing_plan_id":"free"},{"bike_id":"34c8b400-5074-46e3-aa02-f5d274dfaa4f","system_id":"levelo_inurba_marseille","lat":43.322872,"lon":5.382756,"is_reserved":false,"is_disabled":false,"rental_uris":{"android":"levelo://app?vid=34c8b400-5074-46e3-aa02-f5d274dfaa4f","ios":"levelo://app?vid=34c8b400-5074-46e3-aa02-f5d274dfaa4f"},"vehicle_type_id":"4","last_reported":1705784750,"current_range_meters":24000,"station_id":"ce4bhr12rcd13ifvqhqg","pricing_plan_id":"free"},{"bike_id":"c3ab95e9-b05f-4b19-b4ee-7abea1f52c27","system_id":"levelo_inurba_marseille","lat":43.322872,"lon":5.382756,"is_reserved":false,"is_disabled":false,"rental_uris":{"android":"levelo://app?vid=c3ab95e9-b05f-4b19-b4ee-7abea1f52c27","ios":"levelo://app?vid=c3ab95e9-b05f-4b19-b4ee-7abea1f52c27"},"vehicle_type_id":"4","last_reported":1705784750,"current_range_meters":32000,"station_id":"ce4bhr12rcd13ifvqhqg","pricing_plan_id":"free"},{"bike_id":"afe2d6ba-ebda-4981-9104-c77037901f05","system_id":"levelo_inurba_marseille","lat":43.322872,"lon":5.382756,"is_reserved":false,"is_disabled":false,"rental_uris":{"android":"levelo://app?vid=afe2d6ba-ebda-4981-9104-c77037901f05","ios":"levelo://app?vid=afe2d6ba-ebda-4981-9104-c77037901f05"},"vehicle_type_id":"4","last_reported":1705784750,"current_range_meters":23600,"station_id":"ce4bhr12rcd13ifvqhqg","pricing_plan_id":"free"},{"bike_id":"e9aa2399-b7a6-4ead-9378-7f8a5f8f4a05","system_id":"levelo_inurba_marseille","lat":43.322872,"lon":5.382756,"is_reserved":false,"is_disabled":false,"rental_uris":{"android":"levelo://app?vid=e9aa2399-b7a6-4ead-9378-7f8a5f8f4a05","ios":"levelo://app?vid=e9aa2399-b7a6-4ead-9378-7f8a5f8f4a05"},"vehicle_type_id":"4","last_reported":1705784750,"current_range_meters":6400,"station_id":"ce4bhr12rcd13ifvqhqg","pricing_plan_id":"free"},{"bike_id":"510e4003-ad50-4182-a4bb-6da1b111fff5","system_id":"levelo_inurba_marseille","lat":43.322872,"lon":5.382756,"is_reserved":false,"is_disabled":false,"rental_uris":{"android":"levelo://app?vid=510e4003-ad50-4182-a4bb-6da1b111fff5","ios":"levelo://app?vid=510e4003-ad50-4182-a4bb-6da1b111fff5"},"vehicle_type_id":"4","last_reported":1705784750,"current_range_meters":18400,"station_id":"ce4bhr12rcd13ifvqhqg","pricing_plan_id":"free"},{"bike_id":"85cedcff-9e9a-415d-8415-195178ea3cb7","system_id":"levelo_inurba_marseille","lat":43.328253,"lon":5.366822,"is_reserved":false,"is_disabled":false,"rental_uris":{"android":"levelo://app?vid=85cedcff-9e9a-415d-8415-195178ea3cb7","ios":"levelo://app?vid=85cedcff-9e9a-415d-8415-195178ea3cb7"},"vehicle_type_id":"4","last_reported":1705784750,"current_range_meters":5200,"station_id":"ce4bhs92rcd13ifvqi0g","pricing_plan_id":"free"},{"bike_id":"8c76cce8-dc76-403d-a9b8-0a976afb5aaf","system_id":"levelo_inurba_marseille","lat":43.328257,"lon":5.36676,"is_reserved":false,"is_disabled":false,"rental_uris":{"android":"levelo://app?vid=8c76cce8-dc76-403d-a9b8-0a976afb5aaf","ios":"levelo://app?vid=8c76cce8-dc76-403d-a9b8-0a976afb5aaf"},"vehicle_type_id":"4","last_reported":1705784750,"current_range_meters":3600,"station_id":"ce4bhs92rcd13ifvqi0g","pricing_plan_id":"free"},{"bike_id":"ea0178f3-2c6b-4af6-b062-91b0b8dde1df","system_id":"levelo_inurba_marseille","lat":43.32826,"lon":5.366812,"is_reserved":false,"is_disabled":false,"rental_uris":{"android":"levelo://app?vid=ea0178f3-2c6b-4af6-b062-91b0b8dde1df","ios":"levelo://app?vid=ea0178f3-2c6b-4af6-b062-91b0b8dde1df"},"vehicle_type_id":"4","last_reported":1705784750,"current_range_meters":22400,"station_id":"ce4bhs92rcd13ifvqi0g","pricing_plan_id":"free"},{"bike_id":"2849c95b-f1a6-402d-aac7-80ea81f2feb2","system_id":"levelo_inurba_marseille","lat":43.32826,"lon":5.3668,"is_reserved":false,"is_disabled":false,"rental_uris":{"android":"levelo://app?vid=2849c95b-f1a6-402d-aac7-80ea81f2feb2","ios":"levelo://app?vid=2849c95b-f1a6-402d-aac7-80ea81f2feb2"},"vehicle_type_id":"4","last_reported":1705784750,"current_range_meters":20000,"station_id":"ce4bhs92rcd13ifvqi0g","pricing_plan_id":"free"},{"bike_id":"33a5b9b9-aec4-4925-974d-72730cfc5f44","system_id":"levelo_inurba_marseille","lat":43.32826,"lon":5.36675,"is_reserved":false,"is_disabled":false,"rental_uris":{"android":"levelo://app?vid=33a5b9b9-aec4-4925-974d-72730cfc5f44","ios":"levelo://app?vid=33a5b9b9-aec4-4925-974d-72730cfc5f44"},"vehicle_type_id":"4","last_reported":1705784750,"current_range_meters":12400,"station_id":"ce4bhs92rcd13ifvqi0g","pricing_plan_id":"free"},{"bike_id":"6da9db5a-42ba-4fa8-afc9-4fdbb45498c1","system_id":"levelo_inurba_marseille","lat":43.328264,"lon":5.366823,"is_reserved":false,"is_disabled":false,"rental_uris":{"android":"levelo://app?vid=6da9db5a-42ba-4fa8-afc9-4fdbb45498c1","ios":"levelo://app?vid=6da9db5a-42ba-4fa8-afc9-4fdbb45498c1"},"vehicle_type_id":"4","last_reported":1705784750,"current_range_meters":14800,"station_id":"ce4bhs92rcd13ifvqi0g","pricing_plan_id":"free"},{"bike_id":"02f97db8-1e1e-4f38-89f3-11868234f7c3","system_id":"levelo_inurba_marseille","lat":43.32828,"lon":5.36678,"is_reserved":false,"is_disabled":false,"rental_uris":{"android":"levelo://app?vid=02f97db8-1e1e-4f38-89f3-11868234f7c3","ios":"levelo://app?vid=02f97db8-1e1e-4f38-89f3-11868234f7c3"},"vehicle_type_id":"4","last_reported":1705784750,"current_range_meters":29600,"station_id":"ce4bhs92rcd13ifvqi0g","pricing_plan_id":"free"},{"bike_id":"bbed20d0-b1ed-48ce-b8df-3eedaa717d2e","system_id":"levelo_inurba_marseille","lat":43.328307,"lon":5.366853,"is_reserved":false,"is_disabled":false,"rental_uris":{"android":"levelo://app?vid=bbed20d0-b1ed-48ce-b8df-3eedaa717d2e","ios":"levelo://app?vid=bbed20d0-b1ed-48ce-b8df-3eedaa717d2e"},"vehicle_type_id":"4","last_reported":1705784750,"current_range_meters":400,"station_id":"ce4bhs92rcd13ifvqi0g","pricing_plan_id":"free"},{"bike_id":"6cebbd79-b1a6-4319-a439-893d8762e220","system_id":"levelo_inurba_marseille","lat":43.32831,"lon":5.3668,"is_reserved":false,"is_disabled":false,"rental_uris":{"android":"levelo://app?vid=6cebbd79-b1a6-4319-a439-893d8762e220","ios":"levelo://app?vid=6cebbd79-b1a6-4319-a439-893d8762e220"},"vehicle_type_id":"4","last_reported":1705784750,"current_range_meters":4000,"station_id":"ce4bhs92rcd13ifvqi0g","pricing_plan_id":"free"},{"bike_id":"a1372ffa-3076-49e1-851b-6ec0ac400a60","system_id":"levelo_inurba_marseille","lat":43.328371,"lon":5.366909,"is_reserved":false,"is_disabled":false,"rental_uris":{"android":"levelo://app?vid=a1372ffa-3076-49e1-851b-6ec0ac400a60","ios":"levelo://app?vid=a1372ffa-3076-49e1-851b-6ec0ac400a60"},"vehicle_type_id":"4","last_reported":1705784750,"current_range_meters":8800,"station_id":"ce4bhs92rcd13ifvqi0g","pricing_plan_id":"free"},{"bike_id":"289d6ba1-3edf-4a84-8210-90b472d195a5","system_id":"levelo_inurba_marseille","lat":43.328371,"lon":5.366909,"is_reserved":false,"is_disabled":false,"rental_uris":{"android":"levelo://app?vid=289d6ba1-3edf-4a84-8210-90b472d195a5","ios":"levelo://app?vid=289d6ba1-3edf-4a84-8210-90b472d195a5"},"vehicle_type_id":"4","last_reported":1705784750,"current_range_meters":29200,"station_id":"ce4bhs92rcd13ifvqi0g","pricing_plan_id":"free"},{"bike_id":"38082c03-fac1-44d3-a79f-5142b4a113a9","system_id":"levelo_inurba_marseille","lat":43.328373,"lon":5.366902,"is_reserved":false,"is_disabled":false,"rental_uris":{"android":"levelo://app?vid=38082c03-fac1-44d3-a79f-5142b4a113a9","ios":"levelo://app?vid=38082c03-fac1-44d3-a79f-5142b4a113a9"},"vehicle_type_id":"4","last_reported":1705784750,"current_range_meters":8000,"station_id":"ce4bhs92rcd13ifvqi0g","pricing_plan_id":"free"},{"bike_id":"5ace7d10-4c94-4c1f-a180-c96d0515502c","system_id":"levelo_inurba_marseille","lat":43.297163,"lon":5.365866,"is_reserved":false,"is_disabled":false,"rental_uris":{"android":"levelo://app?vid=5ace7d10-4c94-4c1f-a180-c96d0515502c","ios":"levelo://app?vid=5ace7d10-4c94-4c1f-a180-c96d0515502c"},"vehicle_type_id":"4","last_reported":1705784750,"current_range_meters":26800,"station_id":"ce4bgn12rcd13ifvqbt0","pricing_plan_id":"free"},{"bike_id":"60ac6f7a-a1b7-4f15-92a7-4bf5a59ec130","system_id":"levelo_inurba_marseille","lat":43.2968,"lon":5.37291,"is_reserved":false,"is_disabled":false,"rental_uris":{"android":"levelo://app?vid=60ac6f7a-a1b7-4f15-92a7-4bf5a59ec130","ios":"levelo://app?vid=60ac6f7a-a1b7-4f15-92a7-4bf5a59ec130"},"vehicle_type_id":"4","last_reported":1705784750,"current_range_meters":14800,"station_id":"ce4bgk12rcd13ifvqbj0","pricing_plan_id":"free"},{"bike_id":"af3c7840-e36b-4084-b1c9-b0cb75eeaea9","system_id":"levelo_inurba_marseille","lat":43.295897,"lon":5.36792,"is_reserved":false,"is_disabled":false,"rental_uris":{"android":"levelo://app?vid=af3c7840-e36b-4084-b1c9-b0cb75eeaea9","ios":"levelo://app?vid=af3c7840-e36b-4084-b1c9-b0cb75eeaea9"},"vehicle_type_id":"4","last_reported":1705784750,"current_range_meters":10000,"station_id":"","pricing_plan_id":"free"},{"bike_id":"e162349b-e0c2-416a-bdbf-fb5db9a682d4","system_id":"levelo_inurba_marseille","lat":43.29581,"lon":5.36745,"is_reserved":false,"is_disabled":false,"rental_uris":{"android":"levelo://app?vid=e162349b-e0c2-416a-bdbf-fb5db9a682d4","ios":"levelo://app?vid=e162349b-e0c2-416a-bdbf-fb5db9a682d4"},"vehicle_type_id":"4","last_reported":1705784750,"current_range_meters":800,"station_id":"ce4bgph2rcd13ifvqc2g","pricing_plan_id":"free"},{"bike_id":"9873c1d8-a410-4bcd-98da-465cc5df3d1e","system_id":"levelo_inurba_marseille","lat":43.296921,"lon":5.376579,"is_reserved":false,"is_disabled":false,"rental_uris":{"android":"levelo://app?vid=9873c1d8-a410-4bcd-98da-465cc5df3d1e","ios":"levelo://app?vid=9873c1d8-a410-4bcd-98da-465cc5df3d1e"},"vehicle_type_id":"4","last_reported":1705784750,"current_range_meters":9600,"station_id":"ce4bgkh2rcd13ifvqbl0","pricing_plan_id":"free"},{"bike_id":"13a3985d-97f0-4f37-86ee-1fecc72c9fdf","system_id":"levelo_inurba_marseille","lat":43.309589,"lon":5.390258,"is_reserved":false,"is_disabled":false,"rental_uris":{"android":"levelo://app?vid=13a3985d-97f0-4f37-86ee-1fecc72c9fdf","ios":"levelo://app?vid=13a3985d-97f0-4f37-86ee-1fecc72c9fdf"},"vehicle_type_id":"4","last_reported":1705784750,"current_range_meters":23200,"station_id":"ce4bgup2rcd13ifvqco0","pricing_plan_id":"free"},{"bike_id":"51dfd2c6-c074-45f7-ac62-218e44090726","system_id":"levelo_inurba_marseille","lat":43.309589,"lon":5.390258,"is_reserved":false,"is_disabled":false,"rental_uris":{"android":"levelo://app?vid=51dfd2c6-c074-45f7-ac62-218e44090726","ios":"levelo://app?vid=51dfd2c6-c074-45f7-ac62-218e44090726"},"vehicle_type_id":"4","last_reported":1705784750,"current_range_meters":10400,"station_id":"ce4bgup2rcd13ifvqco0","pricing_plan_id":"free"},{"bike_id":"d8436429-bb91-40c6-83c0-88d08317b683","system_id":"levelo_inurba_marseille","lat":43.309589,"lon":5.390258,"is_reserved":false,"is_disabled":false,"rental_uris":{"android":"levelo://app?vid=d8436429-bb91-40c6-83c0-88d08317b683","ios":"levelo://app?vid=d8436429-bb91-40c6-83c0-88d08317b683"},"vehicle_type_id":"4","last_reported":1705784750,"current_range_meters":15600,"station_id":"ce4bgup2rcd13ifvqco0","pricing_plan_id":"free"},{"bike_id":"87e142e4-41ad-4da1-9200-fa40f1401429","system_id":"levelo_inurba_marseille","lat":43.309589,"lon":5.390258,"is_reserved":false,"is_disabled":false,"rental_uris":{"android":"levelo://app?vid=87e142e4-41ad-4da1-9200-fa40f1401429","ios":"levelo://app?vid=87e142e4-41ad-4da1-9200-fa40f1401429"},"vehicle_type_id":"4","last_reported":1705784750,"current_range_meters":25200,"station_id":"ce4bgup2rcd13ifvqco0","pricing_plan_id":"free"},{"bike_id":"ed94dfe5-5be0-41b3-b788-048885752514","system_id":"levelo_inurba_marseille","lat":43.309589,"lon":5.390258,"is_reserved":false,"is_disabled":false,"rental_uris":{"android":"levelo://app?vid=ed94dfe5-5be0-41b3-b788-048885752514","ios":"levelo://app?vid=ed94dfe5-5be0-41b3-b788-048885752514"},"vehicle_type_id":"4","last_reported":1705784750,"current_range_meters":22400,"station_id":"ce4bgup2rcd13ifvqco0","pricing_plan_id":"free"},{"bike_id":"4624ad1f-df7e-484d-9416-3edd4fbdb819","system_id":"levelo_inurba_marseille","lat":43.309589,"lon":5.390258,"is_reserved":false,"is_disabled":false,"rental_uris":{"android":"levelo://app?vid=4624ad1f-df7e-484d-9416-3edd4fbdb819","ios":"levelo://app?vid=4624ad1f-df7e-484d-9416-3edd4fbdb819"},"vehicle_type_id":"4","last_reported":1705784750,"current_range_meters":29200,"station_id":"ce4bgup2rcd13ifvqco0","pricing_plan_id":"free"},{"bike_id":"f7854319-f2eb-4e3e-9642-154de2b5df19","system_id":"levelo_inurba_marseille","lat":43.298037,"lon":5.381066,"is_reserved":false,"is_disabled":false,"rental_uris":{"android":"levelo://app?vid=f7854319-f2eb-4e3e-9642-154de2b5df19","ios":"levelo://app?vid=f7854319-f2eb-4e3e-9642-154de2b5df19"},"vehicle_type_id":"4","last_reported":1705784750,"current_range_meters":8000,"station_id":"ce4bgip2rcd13ifvqbb0","pricing_plan_id":"free"},{"bike_id":"f9dc5cce-e3ae-491a-b782-01aa7a3d3afd","system_id":"levelo_inurba_marseille","lat":43.317557,"lon":5.390173,"is_reserved":false,"is_disabled":false,"rental_uris":{"android":"levelo://app?vid=f9dc5cce-e3ae-491a-b782-01aa7a3d3afd","ios":"levelo://app?vid=f9dc5cce-e3ae-491a-b782-01aa7a3d3afd"},"vehicle_type_id":"4","last_reported":1705784750,"current_range_meters":13200,"station_id":"ce4bhqp2rcd13ifvqhng","pricing_plan_id":"free"},{"bike_id":"14c5f667-9776-4aea-9b73-719d1df2cf21","system_id":"levelo_inurba_marseille","lat":43.31756,"lon":5.39018,"is_reserved":false,"is_disabled":false,"rental_uris":{"android":"levelo://app?vid=14c5f667-9776-4aea-9b73-719d1df2cf21","ios":"levelo://app?vid=14c5f667-9776-4aea-9b73-719d1df2cf21"},"vehicle_type_id":"4","last_reported":1705784750,"current_range_meters":0,"station_id":"ce4bhqp2rcd13ifvqhng","pricing_plan_id":"free"},{"bike_id":"748d9627-8b8e-4b2a-8558-7d29ebbc21cf","system_id":"levelo_inurba_marseille","lat":43.295748,"lon":5.37522,"is_reserved":false,"is_disabled":false,"rental_uris":{"android":"levelo://app?vid=748d9627-8b8e-4b2a-8558-7d29ebbc21cf","ios":"levelo://app?vid=748d9627-8b8e-4b2a-8558-7d29ebbc21cf"},"vehicle_type_id":"4","last_reported":1705784750,"current_range_meters":31200,"station_id":"ce4bgh92rcd13ifvqb50","pricing_plan_id":"free"},{"bike_id":"4cdf74df-221b-4d1e-9e38-24c1e1a33ec9","system_id":"levelo_inurba_marseille","lat":43.304261,"lon":5.388825,"is_reserved":false,"is_disabled":false,"rental_uris":{"android":"levelo://app?vid=4cdf74df-221b-4d1e-9e38-24c1e1a33ec9","ios":"levelo://app?vid=4cdf74df-221b-4d1e-9e38-24c1e1a33ec9"},"vehicle_type_id":"4","last_reported":1705784750,"current_range_meters":23600,"station_id":"ce4bgk12rcd13ifvqbi0","pricing_plan_id":"free"},{"bike_id":"48e33a0e-2fa8-4f32-8fe8-02a5b1c79e11","system_id":"levelo_inurba_marseille","lat":43.295748,"lon":5.37522,"is_reserved":false,"is_disabled":false,"rental_uris":{"android":"levelo://app?vid=48e33a0e-2fa8-4f32-8fe8-02a5b1c79e11","ios":"levelo://app?vid=48e33a0e-2fa8-4f32-8fe8-02a5b1c79e11"},"vehicle_type_id":"4","last_reported":1705784750,"current_range_meters":15600,"station_id":"ce4bgh92rcd13ifvqb50","pricing_plan_id":"free"},{"bike_id":"c89c4b8b-a5d7-4b32-a6bb-60aee3526710","system_id":"levelo_inurba_marseille","lat":43.295748,"lon":5.37522,"is_reserved":false,"is_disabled":false,"rental_uris":{"android":"levelo://app?vid=c89c4b8b-a5d7-4b32-a6bb-60aee3526710","ios":"levelo://app?vid=c89c4b8b-a5d7-4b32-a6bb-60aee3526710"},"vehicle_type_id":"4","last_reported":1705784750,"current_range_meters":16000,"station_id":"ce4bgh92rcd13ifvqb50","pricing_plan_id":"free"},{"bike_id":"f6c04f9c-4053-4791-8708-1635a5251f75","system_id":"levelo_inurba_marseille","lat":43.296961,"lon":5.379071,"is_reserved":false,"is_disabled":false,"rental_uris":{"android":"levelo://app?vid=f6c04f9c-4053-4791-8708-1635a5251f75","ios":"levelo://app?vid=f6c04f9c-4053-4791-8708-1635a5251f75"},"vehicle_type_id":"4","last_reported":1705784750,"current_range_meters":6400,"station_id":"","pricing_plan_id":"free"},{"bike_id":"00123b23-56e6-4b1c-9f2a-4878bb23e166","system_id":"levelo_inurba_marseille","lat":43.304412,"lon":5.389006,"is_reserved":false,"is_disabled":false,"rental_uris":{"android":"levelo://app?vid=00123b23-56e6-4b1c-9f2a-4878bb23e166","ios":"levelo://app?vid=00123b23-56e6-4b1c-9f2a-4878bb23e166"},"vehicle_type_id":"4","last_reported":1705784750,"current_range_meters":0,"station_id":"ce4bgk12rcd13ifvqbi0","pricing_plan_id":"free"},{"bike_id":"b9c14c77-e5d3-4127-afd8-3b1f104915c7","system_id":"levelo_inurba_marseille","lat":43.304278,"lon":5.388868,"is_reserved":false,"is_disabled":false,"rental_uris":{"android":"levelo://app?vid=b9c14c77-e5d3-4127-afd8-3b1f104915c7","ios":"levelo://app?vid=b9c14c77-e5d3-4127-afd8-3b1f104915c7"},"vehicle_type_id":"4","last_reported":1705784750,"current_range_meters":0,"station_id":"ce4bgk12rcd13ifvqbi0","pricing_plan_id":"free"},{"bike_id":"5125aaf9-8fd3-44c2-84ae-74bb9a481716","system_id":"levelo_inurba_marseille","lat":43.296277,"lon":5.377108,"is_reserved":false,"is_disabled":false,"rental_uris":{"android":"levelo://app?vid=5125aaf9-8fd3-44c2-84ae-74bb9a481716","ios":"levelo://app?vid=5125aaf9-8fd3-44c2-84ae-74bb9a481716"},"vehicle_type_id":"4","last_reported":1705784750,"current_range_meters":16000,"station_id":"ce4bgi92rcd13ifvqb90","pricing_plan_id":"free"},{"bike_id":"4540d9f8-43ad-43b0-9cc5-08cf853f5618","system_id":"levelo_inurba_marseille","lat":43.296277,"lon":5.377108,"is_reserved":false,"is_disabled":false,"rental_uris":{"android":"levelo://app?vid=4540d9f8-43ad-43b0-9cc5-08cf853f5618","ios":"levelo://app?vid=4540d9f8-43ad-43b0-9cc5-08cf853f5618"},"vehicle_type_id":"4","last_reported":1705784750,"current_range_meters":20000,"station_id":"ce4bgi92rcd13ifvqb90","pricing_plan_id":"free"},{"bike_id":"0920abbe-934e-462a-9460-505f9dcda669","system_id":"levelo_inurba_marseille","lat":43.295279,"lon":5.375048,"is_reserved":false,"is_disabled":false,"rental_uris":{"android":"levelo://app?vid=0920abbe-934e-462a-9460-505f9dcda669","ios":"levelo://app?vid=0920abbe-934e-462a-9460-505f9dcda669"},"vehicle_type_id":"4","last_reported":1705784750,"current_range_meters":24000,"station_id":"ce4bgkp2rcd13ifvqbmg","pricing_plan_id":"free"},{"bike_id":"fe555846-b407-4e5f-b82e-3597f82123d7","system_id":"levelo_inurba_marseille","lat":43.29607,"lon":5.3772,"is_reserved":false,"is_disabled":false,"rental_uris":{"android":"levelo://app?vid=fe555846-b407-4e5f-b82e-3597f82123d7","ios":"levelo://app?vid=fe555846-b407-4e5f-b82e-3597f82123d7"},"vehicle_type_id":"4","last_reported":1705784750,"current_range_meters":14400,"station_id":"ce4bgi92rcd13ifvqb90","pricing_plan_id":"free"},{"bike_id":"92cf120e-ff50-4d7c-960a-2023f88ca02e","system_id":"levelo_inurba_marseille","lat":43.295279,"lon":5.375048,"is_reserved":false,"is_disabled":false,"rental_uris":{"android":"levelo://app?vid=92cf120e-ff50-4d7c-960a-2023f88ca02e","ios":"levelo://app?vid=92cf120e-ff50-4d7c-960a-2023f88ca02e"},"vehicle_type_id":"4","last_reported":1705784750,"current_range_meters":6800,"station_id":"ce4bgkp2rcd13ifvqbmg","pricing_plan_id":"free"},{"bike_id":"c3051f8f-796f-4abc-a4ba-7d4e53656e99","system_id":"levelo_inurba_marseille","lat":43.299724,"lon":5.384848,"is_reserved":false,"is_disabled":false,"rental_uris":{"android":"levelo://app?vid=c3051f8f-796f-4abc-a4ba-7d4e53656e99","ios":"levelo://app?vid=c3051f8f-796f-4abc-a4ba-7d4e53656e99"},"vehicle_type_id":"4","last_reported":1705784750,"current_range_meters":16800,"station_id":"ce4bgj92rcd13ifvqbd0","pricing_plan_id":"free"},{"bike_id":"a4ee1b65-9fed-4296-92bc-3eb622e4958f","system_id":"levelo_inurba_marseille","lat":43.32367,"lon":5.388836,"is_reserved":false,"is_disabled":false,"rental_uris":{"android":"levelo://app?vid=a4ee1b65-9fed-4296-92bc-3eb622e4958f","ios":"levelo://app?vid=a4ee1b65-9fed-4296-92bc-3eb622e4958f"},"vehicle_type_id":"4","last_reported":1705784750,"current_range_meters":10000,"station_id":"ce4bhqp2rcd13ifvqhog","pricing_plan_id":"free"},{"bike_id":"e40a1ee4-2e68-4ad5-9ba6-a85dfafcd6c5","system_id":"levelo_inurba_marseille","lat":43.3237,"lon":5.38874,"is_reserved":false,"is_disabled":false,"rental_uris":{"android":"levelo://app?vid=e40a1ee4-2e68-4ad5-9ba6-a85dfafcd6c5","ios":"levelo://app?vid=e40a1ee4-2e68-4ad5-9ba6-a85dfafcd6c5"},"vehicle_type_id":"4","last_reported":1705784750,"current_range_meters":19200,"station_id":"ce4bhqp2rcd13ifvqhog","pricing_plan_id":"free"},{"bike_id":"b061506d-271a-4c55-a4ec-a9c64f6af8ff","system_id":"levelo_inurba_marseille","lat":43.29602,"lon":5.381084,"is_reserved":false,"is_disabled":false,"rental_uris":{"android":"levelo://app?vid=b061506d-271a-4c55-a4ec-a9c64f6af8ff","ios":"levelo://app?vid=b061506d-271a-4c55-a4ec-a9c64f6af8ff"},"vehicle_type_id":"4","last_reported":1705784750,"current_range_meters":29200,"station_id":"ce4bgl12rcd13ifvqbo0","pricing_plan_id":"free"},{"bike_id":"ee42f69a-e1e3-47da-8634-0c9be51e3201","system_id":"levelo_inurba_marseille","lat":43.293259,"lon":5.371586,"is_reserved":false,"is_disabled":false,"rental_uris":{"android":"levelo://app?vid=ee42f69a-e1e3-47da-8634-0c9be51e3201","ios":"levelo://app?vid=ee42f69a-e1e3-47da-8634-0c9be51e3201"},"vehicle_type_id":"4","last_reported":1705784750,"current_range_meters":26800,"station_id":"ce4bgh92rcd13ifvqb40","pricing_plan_id":"free"},{"bike_id":"87faec69-3bc3-4c73-b11b-8f5f9144d589","system_id":"levelo_inurba_marseille","lat":43.30739,"lon":5.39343,"is_reserved":false,"is_disabled":false,"rental_uris":{"android":"levelo://app?vid=87faec69-3bc3-4c73-b11b-8f5f9144d589","ios":"levelo://app?vid=87faec69-3bc3-4c73-b11b-8f5f9144d589"},"vehicle_type_id":"4","last_reported":1705784750,"current_range_meters":0,"station_id":"","pricing_plan_id":"free"},{"bike_id":"a9cc878c-59bb-4d50-a5dc-a7faa01c65f8","system_id":"levelo_inurba_marseille","lat":43.293259,"lon":5.371586,"is_reserved":false,"is_disabled":false,"rental_uris":{"android":"levelo://app?vid=a9cc878c-59bb-4d50-a5dc-a7faa01c65f8","ios":"levelo://app?vid=a9cc878c-59bb-4d50-a5dc-a7faa01c65f8"},"vehicle_type_id":"4","last_reported":1705784750,"current_range_meters":4800,"station_id":"ce4bgh92rcd13ifvqb40","pricing_plan_id":"free"},{"bike_id":"d758a87a-f59f-4867-891f-bbca7fe16f9f","system_id":"levelo_inurba_marseille","lat":43.29305,"lon":5.37441,"is_reserved":false,"is_disabled":false,"rental_uris":{"android":"levelo://app?vid=d758a87a-f59f-4867-891f-bbca7fe16f9f","ios":"levelo://app?vid=d758a87a-f59f-4867-891f-bbca7fe16f9f"},"vehicle_type_id":"4","last_reported":1705784750,"current_range_meters":6000,"station_id":"ce4bgi12rcd13ifvqb70","pricing_plan_id":"free"},{"bike_id":"802103d1-abc7-4011-bb03-47cbf1cb04e9","system_id":"levelo_inurba_marseille","lat":43.293009,"lon":5.374584,"is_reserved":false,"is_disabled":false,"rental_uris":{"android":"levelo://app?vid=802103d1-abc7-4011-bb03-47cbf1cb04e9","ios":"levelo://app?vid=802103d1-abc7-4011-bb03-47cbf1cb04e9"},"vehicle_type_id":"4","last_reported":1705784750,"current_range_meters":11600,"station_id":"ce4bgi12rcd13ifvqb70","pricing_plan_id":"free"},{"bike_id":"cf25e69e-65bb-46c3-b471-35aca8044254","system_id":"levelo_inurba_marseille","lat":43.305994,"lon":5.393687,"is_reserved":false,"is_disabled":false,"rental_uris":{"android":"levelo://app?vid=cf25e69e-65bb-46c3-b471-35aca8044254","ios":"levelo://app?vid=cf25e69e-65bb-46c3-b471-35aca8044254"},"vehicle_type_id":"4","last_reported":1705784750,"current_range_meters":11200,"station_id":"ce4bh0p2rcd13ifvqd80","pricing_plan_id":"free"},{"bike_id":"6eb60686-caba-4551-8d66-02940438c677","system_id":"levelo_inurba_marseille","lat":43.293009,"lon":5.374584,"is_reserved":false,"is_disabled":false,"rental_uris":{"android":"levelo://app?vid=6eb60686-caba-4551-8d66-02940438c677","ios":"levelo://app?vid=6eb60686-caba-4551-8d66-02940438c677"},"vehicle_type_id":"4","last_reported":1705784750,"current_range_meters":26800,"station_id":"ce4bgi12rcd13ifvqb70","pricing_plan_id":"free"},{"bike_id":"a49e7c72-8702-4339-8d01-94811c7ab588","system_id":"levelo_inurba_marseille","lat":43.305994,"lon":5.393687,"is_reserved":false,"is_disabled":false,"rental_uris":{"android":"levelo://app?vid=a49e7c72-8702-4339-8d01-94811c7ab588","ios":"levelo://app?vid=a49e7c72-8702-4339-8d01-94811c7ab588"},"vehicle_type_id":"4","last_reported":1705784750,"current_range_meters":0,"station_id":"ce4bh0p2rcd13ifvqd80","pricing_plan_id":"free"},{"bike_id":"24d8527e-6526-420e-aa6c-fcaa054507a9","system_id":"levelo_inurba_marseille","lat":43.303002,"lon":5.392142,"is_reserved":false,"is_disabled":false,"rental_uris":{"android":"levelo://app?vid=24d8527e-6526-420e-aa6c-fcaa054507a9","ios":"levelo://app?vid=24d8527e-6526-420e-aa6c-fcaa054507a9"},"vehicle_type_id":"4","last_reported":1705784750,"current_range_meters":0,"station_id":"ce4bgkh2rcd13ifvqbk0","pricing_plan_id":"free"},{"bike_id":"bfcbab71-65d3-46ee-bfab-0ecba929b18d","system_id":"levelo_inurba_marseille","lat":43.2936,"lon":5.37835,"is_reserved":false,"is_disabled":false,"rental_uris":{"android":"levelo://app?vid=bfcbab71-65d3-46ee-bfab-0ecba929b18d","ios":"levelo://app?vid=bfcbab71-65d3-46ee-bfab-0ecba929b18d"},"vehicle_type_id":"4","last_reported":1705784750,"current_range_meters":25200,"station_id":"ce4bgjh2rcd13ifvqbf0","pricing_plan_id":"free"},{"bike_id":"ac484f2d-5d6a-4e50-aa19-0ffd0043ca49","system_id":"levelo_inurba_marseille","lat":43.291675,"lon":5.371583,"is_reserved":false,"is_disabled":false,"rental_uris":{"android":"levelo://app?vid=ac484f2d-5d6a-4e50-aa19-0ffd0043ca49","ios":"levelo://app?vid=ac484f2d-5d6a-4e50-aa19-0ffd0043ca49"},"vehicle_type_id":"4","last_reported":1705784750,"current_range_meters":28400,"station_id":"ce4bha92rcd13ifvqeh0","pricing_plan_id":"free"},{"bike_id":"acab2b43-cd3a-4784-9964-7e3f7315b4a0","system_id":"levelo_inurba_marseille","lat":43.309038,"lon":5.396546,"is_reserved":false,"is_disabled":false,"rental_uris":{"android":"levelo://app?vid=acab2b43-cd3a-4784-9964-7e3f7315b4a0","ios":"levelo://app?vid=acab2b43-cd3a-4784-9964-7e3f7315b4a0"},"vehicle_type_id":"4","last_reported":1705784750,"current_range_meters":14000,"station_id":"ce4bh012rcd13ifvqcv0","pricing_plan_id":"free"},{"bike_id":"76ae2780-0df7-4bdc-ac90-62437b19e3df","system_id":"levelo_inurba_marseille","lat":43.30886,"lon":5.39641,"is_reserved":false,"is_disabled":false,"rental_uris":{"android":"levelo://app?vid=76ae2780-0df7-4bdc-ac90-62437b19e3df","ios":"levelo://app?vid=76ae2780-0df7-4bdc-ac90-62437b19e3df"},"vehicle_type_id":"4","last_reported":1705784750,"current_range_meters":21200,"station_id":"ce4bh012rcd13ifvqcv0","pricing_plan_id":"free"},{"bike_id":"9233fa9b-0c1f-4a02-8833-c91df612141c","system_id":"levelo_inurba_marseille","lat":43.291994,"lon":5.357886,"is_reserved":false,"is_disabled":false,"rental_uris":{"android":"levelo://app?vid=9233fa9b-0c1f-4a02-8833-c91df612141c","ios":"levelo://app?vid=9233fa9b-0c1f-4a02-8833-c91df612141c"},"vehicle_type_id":"4","last_reported":1705784750,"current_range_meters":0,"station_id":"ce4bhb12rcd13ifvqel0","pricing_plan_id":"free"},{"bike_id":"8b4d6ebf-f30d-4b78-adb2-3e41b043b797","system_id":"levelo_inurba_marseille","lat":43.309038,"lon":5.396546,"is_reserved":false,"is_disabled":false,"rental_uris":{"android":"levelo://app?vid=8b4d6ebf-f30d-4b78-adb2-3e41b043b797","ios":"levelo://app?vid=8b4d6ebf-f30d-4b78-adb2-3e41b043b797"},"vehicle_type_id":"4","last_reported":1705784750,"current_range_meters":15200,"station_id":"ce4bh012rcd13ifvqcv0","pricing_plan_id":"free"},{"bike_id":"5188d518-d528-4fd6-a87a-33e3fb3a5547","system_id":"levelo_inurba_marseille","lat":43.309038,"lon":5.396546,"is_reserved":false,"is_disabled":false,"rental_uris":{"android":"levelo://app?vid=5188d518-d528-4fd6-a87a-33e3fb3a5547","ios":"levelo://app?vid=5188d518-d528-4fd6-a87a-33e3fb3a5547"},"vehicle_type_id":"4","last_reported":1705784750,"current_range_meters":12800,"station_id":"ce4bh012rcd13ifvqcv0","pricing_plan_id":"free"},{"bike_id":"5fee3607-905b-4ae8-8e0a-e819041d71c4","system_id":"levelo_inurba_marseille","lat":43.295357,"lon":5.385387,"is_reserved":false,"is_disabled":false,"rental_uris":{"android":"levelo://app?vid=5fee3607-905b-4ae8-8e0a-e819041d71c4","ios":"levelo://app?vid=5fee3607-905b-4ae8-8e0a-e819041d71c4"},"vehicle_type_id":"4","last_reported":1705784750,"current_range_meters":16400,"station_id":"ce4bgih2rcd13ifvqba0","pricing_plan_id":"free"},{"bike_id":"e303b867-3eca-4adb-9186-a56e1e0bf620","system_id":"levelo_inurba_marseille","lat":43.29538,"lon":5.38546,"is_reserved":false,"is_disabled":false,"rental_uris":{"android":"levelo://app?vid=e303b867-3eca-4adb-9186-a56e1e0bf620","ios":"levelo://app?vid=e303b867-3eca-4adb-9186-a56e1e0bf620"},"vehicle_type_id":"4","last_reported":1705784750,"current_range_meters":18000,"station_id":"ce4bgih2rcd13ifvqba0","pricing_plan_id":"free"},{"bike_id":"4fba9d37-2b49-455e-92ed-0b71d73806c1","system_id":"levelo_inurba_marseille","lat":43.29529,"lon":5.385581,"is_reserved":false,"is_disabled":false,"rental_uris":{"android":"levelo://app?vid=4fba9d37-2b49-455e-92ed-0b71d73806c1","ios":"levelo://app?vid=4fba9d37-2b49-455e-92ed-0b71d73806c1"},"vehicle_type_id":"4","last_reported":1705784750,"current_range_meters":800,"station_id":"ce4bgih2rcd13ifvqba0","pricing_plan_id":"free"},{"bike_id":"f815d4d3-9d67-430f-8afd-f53599660fd1","system_id":"levelo_inurba_marseille","lat":43.29529,"lon":5.385581,"is_reserved":false,"is_disabled":false,"rental_uris":{"android":"levelo://app?vid=f815d4d3-9d67-430f-8afd-f53599660fd1","ios":"levelo://app?vid=f815d4d3-9d67-430f-8afd-f53599660fd1"},"vehicle_type_id":"4","last_reported":1705784750,"current_range_meters":23600,"station_id":"ce4bgih2rcd13ifvqba0","pricing_plan_id":"free"},{"bike_id":"62bf6ed2-cb92-41e2-8aeb-3e7a631ed965","system_id":"levelo_inurba_marseille","lat":43.295303,"lon":5.385373,"is_reserved":false,"is_disabled":false,"rental_uris":{"android":"levelo://app?vid=62bf6ed2-cb92-41e2-8aeb-3e7a631ed965","ios":"levelo://app?vid=62bf6ed2-cb92-41e2-8aeb-3e7a631ed965"},"vehicle_type_id":"4","last_reported":1705784750,"current_range_meters":800,"station_id":"ce4bgih2rcd13ifvqba0","pricing_plan_id":"free"},{"bike_id":"ff9e52f9-d436-4d13-a634-3c6c04c4f1e4","system_id":"levelo_inurba_marseille","lat":43.29529,"lon":5.385581,"is_reserved":false,"is_disabled":false,"rental_uris":{"android":"levelo://app?vid=ff9e52f9-d436-4d13-a634-3c6c04c4f1e4","ios":"levelo://app?vid=ff9e52f9-d436-4d13-a634-3c6c04c4f1e4"},"vehicle_type_id":"4","last_reported":1705784750,"current_range_meters":2800,"station_id":"ce4bgih2rcd13ifvqba0","pricing_plan_id":"free"},{"bike_id":"3163d038-d44f-452f-b53b-f68cb7bc8c17","system_id":"levelo_inurba_marseille","lat":43.29529,"lon":5.385581,"is_reserved":false,"is_disabled":false,"rental_uris":{"android":"levelo://app?vid=3163d038-d44f-452f-b53b-f68cb7bc8c17","ios":"levelo://app?vid=3163d038-d44f-452f-b53b-f68cb7bc8c17"},"vehicle_type_id":"4","last_reported":1705784750,"current_range_meters":31200,"station_id":"ce4bgih2rcd13ifvqba0","pricing_plan_id":"free"},{"bike_id":"403d666a-bd00-4e0b-8102-03cb9d77a96c","system_id":"levelo_inurba_marseille","lat":43.29535,"lon":5.38547,"is_reserved":false,"is_disabled":false,"rental_uris":{"android":"levelo://app?vid=403d666a-bd00-4e0b-8102-03cb9d77a96c","ios":"levelo://app?vid=403d666a-bd00-4e0b-8102-03cb9d77a96c"},"vehicle_type_id":"4","last_reported":1705784750,"current_range_meters":21200,"station_id":"ce4bgih2rcd13ifvqba0","pricing_plan_id":"free"},{"bike_id":"7b5dbecf-2522-4e46-ad7b-69757e66504b","system_id":"levelo_inurba_marseille","lat":43.29531,"lon":5.3854,"is_reserved":false,"is_disabled":false,"rental_uris":{"android":"levelo://app?vid=7b5dbecf-2522-4e46-ad7b-69757e66504b","ios":"levelo://app?vid=7b5dbecf-2522-4e46-ad7b-69757e66504b"},"vehicle_type_id":"4","last_reported":1705784750,"current_range_meters":29600,"station_id":"ce4bgih2rcd13ifvqba0","pricing_plan_id":"free"},{"bike_id":"acf6545b-bb96-4aab-a08e-f230d897ad29","system_id":"levelo_inurba_marseille","lat":43.2953,"lon":5.38542,"is_reserved":false,"is_disabled":false,"rental_uris":{"android":"levelo://app?vid=acf6545b-bb96-4aab-a08e-f230d897ad29","ios":"levelo://app?vid=acf6545b-bb96-4aab-a08e-f230d897ad29"},"vehicle_type_id":"4","last_reported":1705784750,"current_range_meters":0,"station_id":"ce4bgih2rcd13ifvqba0","pricing_plan_id":"free"},{"bike_id":"d4be000e-cfad-4402-b78e-67140cb16558","system_id":"levelo_inurba_marseille","lat":43.29529,"lon":5.385581,"is_reserved":false,"is_disabled":false,"rental_uris":{"android":"levelo://app?vid=d4be000e-cfad-4402-b78e-67140cb16558","ios":"levelo://app?vid=d4be000e-cfad-4402-b78e-67140cb16558"},"vehicle_type_id":"4","last_reported":1705784750,"current_range_meters":26000,"station_id":"ce4bgih2rcd13ifvqba0","pricing_plan_id":"free"},{"bike_id":"18ea9100-b8d1-4d6a-a062-0912956b248b","system_id":"levelo_inurba_marseille","lat":43.29529,"lon":5.385581,"is_reserved":false,"is_disabled":false,"rental_uris":{"android":"levelo://app?vid=18ea9100-b8d1-4d6a-a062-0912956b248b","ios":"levelo://app?vid=18ea9100-b8d1-4d6a-a062-0912956b248b"},"vehicle_type_id":"4","last_reported":1705784750,"current_range_meters":10800,"station_id":"ce4bgih2rcd13ifvqba0","pricing_plan_id":"free"},{"bike_id":"76f1d78e-fdc4-4bcc-a208-b24741f8728e","system_id":"levelo_inurba_marseille","lat":43.29529,"lon":5.385581,"is_reserved":false,"is_disabled":false,"rental_uris":{"android":"levelo://app?vid=76f1d78e-fdc4-4bcc-a208-b24741f8728e","ios":"levelo://app?vid=76f1d78e-fdc4-4bcc-a208-b24741f8728e"},"vehicle_type_id":"4","last_reported":1705784750,"current_range_meters":11200,"station_id":"ce4bgih2rcd13ifvqba0","pricing_plan_id":"free"},{"bike_id":"a0c3c794-964f-48af-b72b-95fa6c706824","system_id":"levelo_inurba_marseille","lat":43.29529,"lon":5.385581,"is_reserved":false,"is_disabled":false,"rental_uris":{"android":"levelo://app?vid=a0c3c794-964f-48af-b72b-95fa6c706824","ios":"levelo://app?vid=a0c3c794-964f-48af-b72b-95fa6c706824"},"vehicle_type_id":"4","last_reported":1705784750,"current_range_meters":11200,"station_id":"ce4bgih2rcd13ifvqba0","pricing_plan_id":"free"},{"bike_id":"6655e917-2388-4354-bd45-1ac3716c392b","system_id":"levelo_inurba_marseille","lat":43.29529,"lon":5.385581,"is_reserved":false,"is_disabled":false,"rental_uris":{"android":"levelo://app?vid=6655e917-2388-4354-bd45-1ac3716c392b","ios":"levelo://app?vid=6655e917-2388-4354-bd45-1ac3716c392b"},"vehicle_type_id":"4","last_reported":1705784750,"current_range_meters":20400,"station_id":"ce4bgih2rcd13ifvqba0","pricing_plan_id":"free"},{"bike_id":"45318ff3-7044-49ff-95a2-4f822a26333c","system_id":"levelo_inurba_marseille","lat":43.29529,"lon":5.385581,"is_reserved":false,"is_disabled":false,"rental_uris":{"android":"levelo://app?vid=45318ff3-7044-49ff-95a2-4f822a26333c","ios":"levelo://app?vid=45318ff3-7044-49ff-95a2-4f822a26333c"},"vehicle_type_id":"4","last_reported":1705784750,"current_range_meters":21200,"station_id":"ce4bgih2rcd13ifvqba0","pricing_plan_id":"free"},{"bike_id":"9a82bf6f-b3cc-442b-853f-de663054458d","system_id":"levelo_inurba_marseille","lat":43.29529,"lon":5.385581,"is_reserved":false,"is_disabled":false,"rental_uris":{"android":"levelo://app?vid=9a82bf6f-b3cc-442b-853f-de663054458d","ios":"levelo://app?vid=9a82bf6f-b3cc-442b-853f-de663054458d"},"vehicle_type_id":"4","last_reported":1705784750,"current_range_meters":2800,"station_id":"ce4bgih2rcd13ifvqba0","pricing_plan_id":"free"},{"bike_id":"a3fa1e61-6105-448f-b621-0c3cd303570f","system_id":"levelo_inurba_marseille","lat":43.29527,"lon":5.38543,"is_reserved":false,"is_disabled":false,"rental_uris":{"android":"levelo://app?vid=a3fa1e61-6105-448f-b621-0c3cd303570f","ios":"levelo://app?vid=a3fa1e61-6105-448f-b621-0c3cd303570f"},"vehicle_type_id":"4","last_reported":1705784750,"current_range_meters":9600,"station_id":"ce4bgih2rcd13ifvqba0","pricing_plan_id":"free"},{"bike_id":"100d4291-0183-4ba1-8b92-81259cc85ddc","system_id":"levelo_inurba_marseille","lat":43.295307,"lon":5.3855,"is_reserved":false,"is_disabled":false,"rental_uris":{"android":"levelo://app?vid=100d4291-0183-4ba1-8b92-81259cc85ddc","ios":"levelo://app?vid=100d4291-0183-4ba1-8b92-81259cc85ddc"},"vehicle_type_id":"4","last_reported":1705784750,"current_range_meters":22800,"station_id":"ce4bgih2rcd13ifvqba0","pricing_plan_id":"free"},{"bike_id":"6bb211f8-a442-4f42-a6eb-1b59f3b80d78","system_id":"levelo_inurba_marseille","lat":43.295288,"lon":5.385465,"is_reserved":false,"is_disabled":false,"rental_uris":{"android":"levelo://app?vid=6bb211f8-a442-4f42-a6eb-1b59f3b80d78","ios":"levelo://app?vid=6bb211f8-a442-4f42-a6eb-1b59f3b80d78"},"vehicle_type_id":"4","last_reported":1705784750,"current_range_meters":12400,"station_id":"ce4bhbp2rcd13ifvqesg","pricing_plan_id":"free"},{"bike_id":"48f782c8-9e6b-46fc-9a50-60ce750d7812","system_id":"levelo_inurba_marseille","lat":43.29524,"lon":5.38545,"is_reserved":false,"is_disabled":false,"rental_uris":{"android":"levelo://app?vid=48f782c8-9e6b-46fc-9a50-60ce750d7812","ios":"levelo://app?vid=48f782c8-9e6b-46fc-9a50-60ce750d7812"},"vehicle_type_id":"4","last_reported":1705784750,"current_range_meters":13200,"station_id":"ce4bgih2rcd13ifvqba0","pricing_plan_id":"free"},{"bike_id":"5143edea-60b8-4831-9621-a0615982c08b","system_id":"levelo_inurba_marseille","lat":43.29523,"lon":5.38549,"is_reserved":false,"is_disabled":false,"rental_uris":{"android":"levelo://app?vid=5143edea-60b8-4831-9621-a0615982c08b","ios":"levelo://app?vid=5143edea-60b8-4831-9621-a0615982c08b"},"vehicle_type_id":"4","last_reported":1705784750,"current_range_meters":7600,"station_id":"ce4bgih2rcd13ifvqba0","pricing_plan_id":"free"},{"bike_id":"d447e559-c129-4df8-bce6-a631556945a6","system_id":"levelo_inurba_marseille","lat":43.29519,"lon":5.38543,"is_reserved":false,"is_disabled":false,"rental_uris":{"android":"levelo://app?vid=d447e559-c129-4df8-bce6-a631556945a6","ios":"levelo://app?vid=d447e559-c129-4df8-bce6-a631556945a6"},"vehicle_type_id":"4","last_reported":1705784750,"current_range_meters":12400,"station_id":"ce4bgih2rcd13ifvqba0","pricing_plan_id":"free"},{"bike_id":"1cf91632-dd68-4520-b213-d92d0f8a1e76","system_id":"levelo_inurba_marseille","lat":43.291994,"lon":5.392907,"is_reserved":false,"is_disabled":false,"rental_uris":{"android":"levelo://app?vid=1cf91632-dd68-4520-b213-d92d0f8a1e76","ios":"levelo://app?vid=1cf91632-dd68-4520-b213-d92d0f8a1e76"},"vehicle_type_id":"4","last_reported":1705784750,"current_range_meters":1600,"station_id":"ce4bh192rcd13ifvqdd0","pricing_plan_id":"free"},{"bike_id":"52a2826c-92aa-49a8-a34f-35f68d74448c","system_id":"levelo_inurba_marseille","lat":43.290631,"lon":5.359244,"is_reserved":false,"is_disabled":false,"rental_uris":{"android":"levelo://app?vid=52a2826c-92aa-49a8-a34f-35f68d74448c","ios":"levelo://app?vid=52a2826c-92aa-49a8-a34f-35f68d74448c"},"vehicle_type_id":"4","last_reported":1705784750,"current_range_meters":13200,"station_id":"ce4bha92rcd13ifvqeg0","pricing_plan_id":"free"},{"bike_id":"7b03bc98-b942-4348-87bf-ecc8bd0fff5b","system_id":"levelo_inurba_marseille","lat":43.290631,"lon":5.359244,"is_reserved":false,"is_disabled":false,"rental_uris":{"android":"levelo://app?vid=7b03bc98-b942-4348-87bf-ecc8bd0fff5b","ios":"levelo://app?vid=7b03bc98-b942-4348-87bf-ecc8bd0fff5b"},"vehicle_type_id":"4","last_reported":1705784750,"current_range_meters":22800,"station_id":"ce4bha92rcd13ifvqeg0","pricing_plan_id":"free"},{"bike_id":"7fe6c574-13c3-4dc3-a9b9-2b496fda1cfa","system_id":"levelo_inurba_marseille","lat":43.290631,"lon":5.359244,"is_reserved":false,"is_disabled":false,"rental_uris":{"android":"levelo://app?vid=7fe6c574-13c3-4dc3-a9b9-2b496fda1cfa","ios":"levelo://app?vid=7fe6c574-13c3-4dc3-a9b9-2b496fda1cfa"},"vehicle_type_id":"4","last_reported":1705784750,"current_range_meters":14800,"station_id":"ce4bha92rcd13ifvqeg0","pricing_plan_id":"free"},{"bike_id":"a40fd70b-4e0c-47b0-9544-2823f18535c5","system_id":"levelo_inurba_marseille","lat":43.294153,"lon":5.386305,"is_reserved":false,"is_disabled":false,"rental_uris":{"android":"levelo://app?vid=a40fd70b-4e0c-47b0-9544-2823f18535c5","ios":"levelo://app?vid=a40fd70b-4e0c-47b0-9544-2823f18535c5"},"vehicle_type_id":"4","last_reported":1705784750,"current_range_meters":14000,"station_id":"ce4bh2h2rcd13ifvqdh0","pricing_plan_id":"free"},{"bike_id":"138910dd-ebaa-473c-8df6-b416e2f81509","system_id":"levelo_inurba_marseille","lat":43.294153,"lon":5.386305,"is_reserved":false,"is_disabled":false,"rental_uris":{"android":"levelo://app?vid=138910dd-ebaa-473c-8df6-b416e2f81509","ios":"levelo://app?vid=138910dd-ebaa-473c-8df6-b416e2f81509"},"vehicle_type_id":"4","last_reported":1705784750,"current_range_meters":12800,"station_id":"ce4bh2h2rcd13ifvqdh0","pricing_plan_id":"free"},{"bike_id":"3ab5ce3f-01ef-4fc9-8121-c5ce97f358c8","system_id":"levelo_inurba_marseille","lat":43.294153,"lon":5.386305,"is_reserved":false,"is_disabled":false,"rental_uris":{"android":"levelo://app?vid=3ab5ce3f-01ef-4fc9-8121-c5ce97f358c8","ios":"levelo://app?vid=3ab5ce3f-01ef-4fc9-8121-c5ce97f358c8"},"vehicle_type_id":"4","last_reported":1705784750,"current_range_meters":18000,"station_id":"ce4bh2h2rcd13ifvqdh0","pricing_plan_id":"free"},{"bike_id":"eb34e74f-d237-4830-831b-87a0c643cfec","system_id":"levelo_inurba_marseille","lat":43.294153,"lon":5.386305,"is_reserved":false,"is_disabled":false,"rental_uris":{"android":"levelo://app?vid=eb34e74f-d237-4830-831b-87a0c643cfec","ios":"levelo://app?vid=eb34e74f-d237-4830-831b-87a0c643cfec"},"vehicle_type_id":"4","last_reported":1705784750,"current_range_meters":22400,"station_id":"ce4bh2h2rcd13ifvqdh0","pricing_plan_id":"free"},{"bike_id":"0439bd8e-ead1-445d-ab47-1a0c42cb8060","system_id":"levelo_inurba_marseille","lat":43.294153,"lon":5.386305,"is_reserved":false,"is_disabled":false,"rental_uris":{"android":"levelo://app?vid=0439bd8e-ead1-445d-ab47-1a0c42cb8060","ios":"levelo://app?vid=0439bd8e-ead1-445d-ab47-1a0c42cb8060"},"vehicle_type_id":"4","last_reported":1705784750,"current_range_meters":18000,"station_id":"ce4bh2h2rcd13ifvqdh0","pricing_plan_id":"free"},{"bike_id":"f8f381fe-6d00-4445-b91e-e5a4b98c5080","system_id":"levelo_inurba_marseille","lat":43.294153,"lon":5.386305,"is_reserved":false,"is_disabled":false,"rental_uris":{"android":"levelo://app?vid=f8f381fe-6d00-4445-b91e-e5a4b98c5080","ios":"levelo://app?vid=f8f381fe-6d00-4445-b91e-e5a4b98c5080"},"vehicle_type_id":"4","last_reported":1705784750,"current_range_meters":5200,"station_id":"ce4bh2h2rcd13ifvqdh0","pricing_plan_id":"free"},{"bike_id":"4110cc40-00fb-46fb-ac89-fc9b01bbe2d5","system_id":"levelo_inurba_marseille","lat":43.294153,"lon":5.386305,"is_reserved":false,"is_disabled":false,"rental_uris":{"android":"levelo://app?vid=4110cc40-00fb-46fb-ac89-fc9b01bbe2d5","ios":"levelo://app?vid=4110cc40-00fb-46fb-ac89-fc9b01bbe2d5"},"vehicle_type_id":"4","last_reported":1705784750,"current_range_meters":4000,"station_id":"ce4bh2h2rcd13ifvqdh0","pricing_plan_id":"free"},{"bike_id":"12ef3eb4-2004-4e07-ab15-e1fc760b5526","system_id":"levelo_inurba_marseille","lat":43.294153,"lon":5.386305,"is_reserved":false,"is_disabled":false,"rental_uris":{"android":"levelo://app?vid=12ef3eb4-2004-4e07-ab15-e1fc760b5526","ios":"levelo://app?vid=12ef3eb4-2004-4e07-ab15-e1fc760b5526"},"vehicle_type_id":"4","last_reported":1705784750,"current_range_meters":19200,"station_id":"ce4bh2h2rcd13ifvqdh0","pricing_plan_id":"free"},{"bike_id":"06a567c5-a375-40b9-b251-b24038f61365","system_id":"levelo_inurba_marseille","lat":43.29419,"lon":5.38622,"is_reserved":false,"is_disabled":false,"rental_uris":{"android":"levelo://app?vid=06a567c5-a375-40b9-b251-b24038f61365","ios":"levelo://app?vid=06a567c5-a375-40b9-b251-b24038f61365"},"vehicle_type_id":"4","last_reported":1705784750,"current_range_meters":0,"station_id":"ce4bh2h2rcd13ifvqdh0","pricing_plan_id":"free"},{"bike_id":"7e5fccc6-7000-4ab1-a115-12612d382787","system_id":"levelo_inurba_marseille","lat":43.294153,"lon":5.386305,"is_reserved":false,"is_disabled":false,"rental_uris":{"android":"levelo://app?vid=7e5fccc6-7000-4ab1-a115-12612d382787","ios":"levelo://app?vid=7e5fccc6-7000-4ab1-a115-12612d382787"},"vehicle_type_id":"4","last_reported":1705784750,"current_range_meters":13600,"station_id":"ce4bh2h2rcd13ifvqdh0","pricing_plan_id":"free"},{"bike_id":"54f5dc37-8463-4b18-9237-f6aaa4875d33","system_id":"levelo_inurba_marseille","lat":43.29421,"lon":5.38627,"is_reserved":false,"is_disabled":false,"rental_uris":{"android":"levelo://app?vid=54f5dc37-8463-4b18-9237-f6aaa4875d33","ios":"levelo://app?vid=54f5dc37-8463-4b18-9237-f6aaa4875d33"},"vehicle_type_id":"4","last_reported":1705784750,"current_range_meters":10000,"station_id":"ce4bh2h2rcd13ifvqdh0","pricing_plan_id":"free"},{"bike_id":"c09a7444-f7d2-4efe-98f1-b6dbb8a410ce","system_id":"levelo_inurba_marseille","lat":43.29425,"lon":5.38636,"is_reserved":false,"is_disabled":false,"rental_uris":{"android":"levelo://app?vid=c09a7444-f7d2-4efe-98f1-b6dbb8a410ce","ios":"levelo://app?vid=c09a7444-f7d2-4efe-98f1-b6dbb8a410ce"},"vehicle_type_id":"4","last_reported":1705784750,"current_range_meters":0,"station_id":"ce4bh2h2rcd13ifvqdh0","pricing_plan_id":"free"},{"bike_id":"9dc55439-78e3-4583-a1f4-dc1588e4d562","system_id":"levelo_inurba_marseille","lat":43.2942,"lon":5.38628,"is_reserved":false,"is_disabled":false,"rental_uris":{"android":"levelo://app?vid=9dc55439-78e3-4583-a1f4-dc1588e4d562","ios":"levelo://app?vid=9dc55439-78e3-4583-a1f4-dc1588e4d562"},"vehicle_type_id":"4","last_reported":1705784750,"current_range_meters":22000,"station_id":"ce4bh2h2rcd13ifvqdh0","pricing_plan_id":"free"},{"bike_id":"40061d23-e485-4ee8-954f-f0b6102cf859","system_id":"levelo_inurba_marseille","lat":43.294153,"lon":5.386305,"is_reserved":false,"is_disabled":false,"rental_uris":{"android":"levelo://app?vid=40061d23-e485-4ee8-954f-f0b6102cf859","ios":"levelo://app?vid=40061d23-e485-4ee8-954f-f0b6102cf859"},"vehicle_type_id":"4","last_reported":1705784750,"current_range_meters":12000,"station_id":"ce4bh2h2rcd13ifvqdh0","pricing_plan_id":"free"},{"bike_id":"971e103e-f56b-4ee3-a09c-9d6dc7a5c56a","system_id":"levelo_inurba_marseille","lat":43.2942,"lon":5.38629,"is_reserved":false,"is_disabled":false,"rental_uris":{"android":"levelo://app?vid=971e103e-f56b-4ee3-a09c-9d6dc7a5c56a","ios":"levelo://app?vid=971e103e-f56b-4ee3-a09c-9d6dc7a5c56a"},"vehicle_type_id":"4","last_reported":1705784750,"current_range_meters":15600,"station_id":"ce4bh2h2rcd13ifvqdh0","pricing_plan_id":"free"},{"bike_id":"086f92b7-4901-4ffd-bfe7-30a174da9518","system_id":"levelo_inurba_marseille","lat":43.294153,"lon":5.386305,"is_reserved":false,"is_disabled":false,"rental_uris":{"android":"levelo://app?vid=086f92b7-4901-4ffd-bfe7-30a174da9518","ios":"levelo://app?vid=086f92b7-4901-4ffd-bfe7-30a174da9518"},"vehicle_type_id":"4","last_reported":1705784750,"current_range_meters":2000,"station_id":"ce4bh2h2rcd13ifvqdh0","pricing_plan_id":"free"},{"bike_id":"99616dff-460b-4b2e-98c3-a3427ae12ba5","system_id":"levelo_inurba_marseille","lat":43.294153,"lon":5.386305,"is_reserved":false,"is_disabled":false,"rental_uris":{"android":"levelo://app?vid=99616dff-460b-4b2e-98c3-a3427ae12ba5","ios":"levelo://app?vid=99616dff-460b-4b2e-98c3-a3427ae12ba5"},"vehicle_type_id":"4","last_reported":1705784750,"current_range_meters":18400,"station_id":"ce4bh2h2rcd13ifvqdh0","pricing_plan_id":"free"},{"bike_id":"5cbc1c31-19c0-4eea-ba5e-c969c4f5ae37","system_id":"levelo_inurba_marseille","lat":43.29416,"lon":5.38624,"is_reserved":false,"is_disabled":false,"rental_uris":{"android":"levelo://app?vid=5cbc1c31-19c0-4eea-ba5e-c969c4f5ae37","ios":"levelo://app?vid=5cbc1c31-19c0-4eea-ba5e-c969c4f5ae37"},"vehicle_type_id":"4","last_reported":1705784750,"current_range_meters":6800,"station_id":"ce4bh2h2rcd13ifvqdh0","pricing_plan_id":"free"},{"bike_id":"8f4a89d0-b67d-423b-9b95-3339befbf269","system_id":"levelo_inurba_marseille","lat":43.29416,"lon":5.38628,"is_reserved":false,"is_disabled":false,"rental_uris":{"android":"levelo://app?vid=8f4a89d0-b67d-423b-9b95-3339befbf269","ios":"levelo://app?vid=8f4a89d0-b67d-423b-9b95-3339befbf269"},"vehicle_type_id":"4","last_reported":1705784750,"current_range_meters":17600,"station_id":"ce4bh2h2rcd13ifvqdh0","pricing_plan_id":"free"},{"bike_id":"6873e2df-ec2e-4ed3-98ba-e902f8bc63aa","system_id":"levelo_inurba_marseille","lat":43.29417,"lon":5.3863,"is_reserved":false,"is_disabled":false,"rental_uris":{"android":"levelo://app?vid=6873e2df-ec2e-4ed3-98ba-e902f8bc63aa","ios":"levelo://app?vid=6873e2df-ec2e-4ed3-98ba-e902f8bc63aa"},"vehicle_type_id":"4","last_reported":1705784750,"current_range_meters":11200,"station_id":"ce4bh2h2rcd13ifvqdh0","pricing_plan_id":"free"},{"bike_id":"71a2eed9-ca85-4bf7-adc0-9016dbb76473","system_id":"levelo_inurba_marseille","lat":43.294153,"lon":5.386305,"is_reserved":false,"is_disabled":false,"rental_uris":{"android":"levelo://app?vid=71a2eed9-ca85-4bf7-adc0-9016dbb76473","ios":"levelo://app?vid=71a2eed9-ca85-4bf7-adc0-9016dbb76473"},"vehicle_type_id":"4","last_reported":1705784750,"current_range_meters":9600,"station_id":"ce4bh2h2rcd13ifvqdh0","pricing_plan_id":"free"},{"bike_id":"c862920a-3651-4f26-887f-01bb9335b1f3","system_id":"levelo_inurba_marseille","lat":43.294153,"lon":5.386305,"is_reserved":false,"is_disabled":false,"rental_uris":{"android":"levelo://app?vid=c862920a-3651-4f26-887f-01bb9335b1f3","ios":"levelo://app?vid=c862920a-3651-4f26-887f-01bb9335b1f3"},"vehicle_type_id":"4","last_reported":1705784750,"current_range_meters":2000,"station_id":"ce4bh2h2rcd13ifvqdh0","pricing_plan_id":"free"},{"bike_id":"ec2bd82a-7f0d-45c4-a1e9-307797bace1a","system_id":"levelo_inurba_marseille","lat":43.29417,"lon":5.38634,"is_reserved":false,"is_disabled":false,"rental_uris":{"android":"levelo://app?vid=ec2bd82a-7f0d-45c4-a1e9-307797bace1a","ios":"levelo://app?vid=ec2bd82a-7f0d-45c4-a1e9-307797bace1a"},"vehicle_type_id":"4","last_reported":1705784750,"current_range_meters":4800,"station_id":"ce4bh2h2rcd13ifvqdh0","pricing_plan_id":"free"},{"bike_id":"6773d709-dbb1-461e-9b78-00775d1a74c9","system_id":"levelo_inurba_marseille","lat":43.29414,"lon":5.3863,"is_reserved":false,"is_disabled":false,"rental_uris":{"android":"levelo://app?vid=6773d709-dbb1-461e-9b78-00775d1a74c9","ios":"levelo://app?vid=6773d709-dbb1-461e-9b78-00775d1a74c9"},"vehicle_type_id":"4","last_reported":1705784750,"current_range_meters":14400,"station_id":"ce4bh2h2rcd13ifvqdh0","pricing_plan_id":"free"},{"bike_id":"a0811e8b-051b-4397-b56a-440189a5dbdf","system_id":"levelo_inurba_marseille","lat":43.29413,"lon":5.3863,"is_reserved":false,"is_disabled":false,"rental_uris":{"android":"levelo://app?vid=a0811e8b-051b-4397-b56a-440189a5dbdf","ios":"levelo://app?vid=a0811e8b-051b-4397-b56a-440189a5dbdf"},"vehicle_type_id":"4","last_reported":1705784750,"current_range_meters":20800,"station_id":"ce4bh2h2rcd13ifvqdh0","pricing_plan_id":"free"},{"bike_id":"f7a8c47b-50c9-4780-b74b-e9be9208eaa3","system_id":"levelo_inurba_marseille","lat":43.29413,"lon":5.38633,"is_reserved":false,"is_disabled":false,"rental_uris":{"android":"levelo://app?vid=f7a8c47b-50c9-4780-b74b-e9be9208eaa3","ios":"levelo://app?vid=f7a8c47b-50c9-4780-b74b-e9be9208eaa3"},"vehicle_type_id":"4","last_reported":1705784750,"current_range_meters":4400,"station_id":"ce4bh2h2rcd13ifvqdh0","pricing_plan_id":"free"},{"bike_id":"29949a25-6cc1-4ee9-87b9-5f19314750fd","system_id":"levelo_inurba_marseille","lat":43.294153,"lon":5.386305,"is_reserved":false,"is_disabled":false,"rental_uris":{"android":"levelo://app?vid=29949a25-6cc1-4ee9-87b9-5f19314750fd","ios":"levelo://app?vid=29949a25-6cc1-4ee9-87b9-5f19314750fd"},"vehicle_type_id":"4","last_reported":1705784750,"current_range_meters":14800,"station_id":"ce4bh2h2rcd13ifvqdh0","pricing_plan_id":"free"},{"bike_id":"f4d6bce2-a1ac-4e12-b145-94ade68b811d","system_id":"levelo_inurba_marseille","lat":43.292644,"lon":5.384257,"is_reserved":false,"is_disabled":false,"rental_uris":{"android":"levelo://app?vid=f4d6bce2-a1ac-4e12-b145-94ade68b811d","ios":"levelo://app?vid=f4d6bce2-a1ac-4e12-b145-94ade68b811d"},"vehicle_type_id":"4","last_reported":1705784750,"current_range_meters":1600,"station_id":"ce4bh692rcd13ifvqea0","pricing_plan_id":"free"},{"bike_id":"7b5a115c-c3a3-4ceb-bfee-96d889d95199","system_id":"levelo_inurba_marseille","lat":43.292644,"lon":5.384257,"is_reserved":false,"is_disabled":false,"rental_uris":{"android":"levelo://app?vid=7b5a115c-c3a3-4ceb-bfee-96d889d95199","ios":"levelo://app?vid=7b5a115c-c3a3-4ceb-bfee-96d889d95199"},"vehicle_type_id":"4","last_reported":1705784750,"current_range_meters":4800,"station_id":"ce4bh692rcd13ifvqea0","pricing_plan_id":"free"},{"bike_id":"4e80ed62-aaa6-4e11-8712-7712ccc73000","system_id":"levelo_inurba_marseille","lat":43.29263,"lon":5.38433,"is_reserved":false,"is_disabled":false,"rental_uris":{"android":"levelo://app?vid=4e80ed62-aaa6-4e11-8712-7712ccc73000","ios":"levelo://app?vid=4e80ed62-aaa6-4e11-8712-7712ccc73000"},"vehicle_type_id":"4","last_reported":1705784750,"current_range_meters":28000,"station_id":"ce4bh692rcd13ifvqea0","pricing_plan_id":"free"},{"bike_id":"b0a87033-e5a5-4927-86f0-ee7ce35a0ab0","system_id":"levelo_inurba_marseille","lat":43.292644,"lon":5.384257,"is_reserved":false,"is_disabled":false,"rental_uris":{"android":"levelo://app?vid=b0a87033-e5a5-4927-86f0-ee7ce35a0ab0","ios":"levelo://app?vid=b0a87033-e5a5-4927-86f0-ee7ce35a0ab0"},"vehicle_type_id":"4","last_reported":1705784750,"current_range_meters":21600,"station_id":"ce4bh692rcd13ifvqea0","pricing_plan_id":"free"},{"bike_id":"3d1379db-275e-4989-9389-6a0e032c3d47","system_id":"levelo_inurba_marseille","lat":43.292644,"lon":5.384257,"is_reserved":false,"is_disabled":false,"rental_uris":{"android":"levelo://app?vid=3d1379db-275e-4989-9389-6a0e032c3d47","ios":"levelo://app?vid=3d1379db-275e-4989-9389-6a0e032c3d47"},"vehicle_type_id":"4","last_reported":1705784750,"current_range_meters":24400,"station_id":"ce4bh692rcd13ifvqea0","pricing_plan_id":"free"},{"bike_id":"51077dc9-1aee-4877-a4f5-e2b3a6390b25","system_id":"levelo_inurba_marseille","lat":43.292644,"lon":5.384257,"is_reserved":false,"is_disabled":false,"rental_uris":{"android":"levelo://app?vid=51077dc9-1aee-4877-a4f5-e2b3a6390b25","ios":"levelo://app?vid=51077dc9-1aee-4877-a4f5-e2b3a6390b25"},"vehicle_type_id":"4","last_reported":1705784750,"current_range_meters":18000,"station_id":"ce4bh692rcd13ifvqea0","pricing_plan_id":"free"},{"bike_id":"08c43f04-0d64-48d0-96de-0e5dc7619dae","system_id":"levelo_inurba_marseille","lat":43.29268,"lon":5.38452,"is_reserved":false,"is_disabled":false,"rental_uris":{"android":"levelo://app?vid=08c43f04-0d64-48d0-96de-0e5dc7619dae","ios":"levelo://app?vid=08c43f04-0d64-48d0-96de-0e5dc7619dae"},"vehicle_type_id":"4","last_reported":1705784750,"current_range_meters":11200,"station_id":"ce4bh692rcd13ifvqea0","pricing_plan_id":"free"},{"bike_id":"3def18f1-63e0-4353-a276-e101b32849b7","system_id":"levelo_inurba_marseille","lat":43.292644,"lon":5.384257,"is_reserved":false,"is_disabled":false,"rental_uris":{"android":"levelo://app?vid=3def18f1-63e0-4353-a276-e101b32849b7","ios":"levelo://app?vid=3def18f1-63e0-4353-a276-e101b32849b7"},"vehicle_type_id":"4","last_reported":1705784750,"current_range_meters":22400,"station_id":"ce4bh692rcd13ifvqea0","pricing_plan_id":"free"},{"bike_id":"91fab5ef-a35c-4615-bd68-d012ded2ac76","system_id":"levelo_inurba_marseille","lat":43.292644,"lon":5.384257,"is_reserved":false,"is_disabled":false,"rental_uris":{"android":"levelo://app?vid=91fab5ef-a35c-4615-bd68-d012ded2ac76","ios":"levelo://app?vid=91fab5ef-a35c-4615-bd68-d012ded2ac76"},"vehicle_type_id":"4","last_reported":1705784750,"current_range_meters":400,"station_id":"ce4bh692rcd13ifvqea0","pricing_plan_id":"free"},{"bike_id":"8e478361-8555-4807-b564-f5d5357a20f6","system_id":"levelo_inurba_marseille","lat":43.292644,"lon":5.384257,"is_reserved":false,"is_disabled":false,"rental_uris":{"android":"levelo://app?vid=8e478361-8555-4807-b564-f5d5357a20f6","ios":"levelo://app?vid=8e478361-8555-4807-b564-f5d5357a20f6"},"vehicle_type_id":"4","last_reported":1705784750,"current_range_meters":16000,"station_id":"ce4bh692rcd13ifvqea0","pricing_plan_id":"free"},{"bike_id":"8fe0d050-22d8-406a-af28-fd2eca073649","system_id":"levelo_inurba_marseille","lat":43.292644,"lon":5.384257,"is_reserved":false,"is_disabled":false,"rental_uris":{"android":"levelo://app?vid=8fe0d050-22d8-406a-af28-fd2eca073649","ios":"levelo://app?vid=8fe0d050-22d8-406a-af28-fd2eca073649"},"vehicle_type_id":"4","last_reported":1705784750,"current_range_meters":12000,"station_id":"ce4bh692rcd13ifvqea0","pricing_plan_id":"free"},{"bike_id":"72395b48-4b63-4d69-b4b9-f4ad3ea2a007","system_id":"levelo_inurba_marseille","lat":43.292642,"lon":5.384254,"is_reserved":false,"is_disabled":false,"rental_uris":{"android":"levelo://app?vid=72395b48-4b63-4d69-b4b9-f4ad3ea2a007","ios":"levelo://app?vid=72395b48-4b63-4d69-b4b9-f4ad3ea2a007"},"vehicle_type_id":"4","last_reported":1705784750,"current_range_meters":14000,"station_id":"ce4bh692rcd13ifvqea0","pricing_plan_id":"free"},{"bike_id":"5704607a-d303-48a5-b07f-526a9e510885","system_id":"levelo_inurba_marseille","lat":43.292642,"lon":5.384254,"is_reserved":false,"is_disabled":false,"rental_uris":{"android":"levelo://app?vid=5704607a-d303-48a5-b07f-526a9e510885","ios":"levelo://app?vid=5704607a-d303-48a5-b07f-526a9e510885"},"vehicle_type_id":"4","last_reported":1705784750,"current_range_meters":24400,"station_id":"ce4bh692rcd13ifvqea0","pricing_plan_id":"free"},{"bike_id":"dcd1b7a4-4c9e-44fe-9dc4-2eed582ba7fa","system_id":"levelo_inurba_marseille","lat":43.292644,"lon":5.384257,"is_reserved":false,"is_disabled":false,"rental_uris":{"android":"levelo://app?vid=dcd1b7a4-4c9e-44fe-9dc4-2eed582ba7fa","ios":"levelo://app?vid=dcd1b7a4-4c9e-44fe-9dc4-2eed582ba7fa"},"vehicle_type_id":"4","last_reported":1705784750,"current_range_meters":2800,"station_id":"ce4bh692rcd13ifvqea0","pricing_plan_id":"free"},{"bike_id":"b59e42f0-0574-47d9-a572-c4d5b0b8aa3e","system_id":"levelo_inurba_marseille","lat":43.29258,"lon":5.3844,"is_reserved":false,"is_disabled":false,"rental_uris":{"android":"levelo://app?vid=b59e42f0-0574-47d9-a572-c4d5b0b8aa3e","ios":"levelo://app?vid=b59e42f0-0574-47d9-a572-c4d5b0b8aa3e"},"vehicle_type_id":"4","last_reported":1705784750,"current_range_meters":5600,"station_id":"ce4bh692rcd13ifvqea0","pricing_plan_id":"free"},{"bike_id":"b4d7ffb1-c921-44da-bae7-91b28d2b717b","system_id":"levelo_inurba_marseille","lat":43.292644,"lon":5.384257,"is_reserved":false,"is_disabled":false,"rental_uris":{"android":"levelo://app?vid=b4d7ffb1-c921-44da-bae7-91b28d2b717b","ios":"levelo://app?vid=b4d7ffb1-c921-44da-bae7-91b28d2b717b"},"vehicle_type_id":"4","last_reported":1705784750,"current_range_meters":26000,"station_id":"ce4bh692rcd13ifvqea0","pricing_plan_id":"free"},{"bike_id":"ba64bc27-90fb-4625-8247-50c3b90c368d","system_id":"levelo_inurba_marseille","lat":43.292644,"lon":5.384257,"is_reserved":false,"is_disabled":false,"rental_uris":{"android":"levelo://app?vid=ba64bc27-90fb-4625-8247-50c3b90c368d","ios":"levelo://app?vid=ba64bc27-90fb-4625-8247-50c3b90c368d"},"vehicle_type_id":"4","last_reported":1705784750,"current_range_meters":14800,"station_id":"ce4bh692rcd13ifvqea0","pricing_plan_id":"free"},{"bike_id":"c14b71c7-aac4-4dc4-bc1d-bf5fa7afa5d9","system_id":"levelo_inurba_marseille","lat":43.29253,"lon":5.38439,"is_reserved":false,"is_disabled":false,"rental_uris":{"android":"levelo://app?vid=c14b71c7-aac4-4dc4-bc1d-bf5fa7afa5d9","ios":"levelo://app?vid=c14b71c7-aac4-4dc4-bc1d-bf5fa7afa5d9"},"vehicle_type_id":"4","last_reported":1705784750,"current_range_meters":7600,"station_id":"ce4bh692rcd13ifvqea0","pricing_plan_id":"free"},{"bike_id":"0088ee8a-da9c-4939-8ad0-b8e15cc8c240","system_id":"levelo_inurba_marseille","lat":43.29253,"lon":5.3844,"is_reserved":false,"is_disabled":false,"rental_uris":{"android":"levelo://app?vid=0088ee8a-da9c-4939-8ad0-b8e15cc8c240","ios":"levelo://app?vid=0088ee8a-da9c-4939-8ad0-b8e15cc8c240"},"vehicle_type_id":"4","last_reported":1705784750,"current_range_meters":5200,"station_id":"ce4bh692rcd13ifvqea0","pricing_plan_id":"free"},{"bike_id":"f9086869-8581-43d9-a9fa-aa82ad29cd11","system_id":"levelo_inurba_marseille","lat":43.292644,"lon":5.384257,"is_reserved":false,"is_disabled":false,"rental_uris":{"android":"levelo://app?vid=f9086869-8581-43d9-a9fa-aa82ad29cd11","ios":"levelo://app?vid=f9086869-8581-43d9-a9fa-aa82ad29cd11"},"vehicle_type_id":"4","last_reported":1705784750,"current_range_meters":19600,"station_id":"ce4bh692rcd13ifvqea0","pricing_plan_id":"free"},{"bike_id":"88ba9907-2fa3-4f35-b02b-92cb17d71fdb","system_id":"levelo_inurba_marseille","lat":43.30148,"lon":5.39602,"is_reserved":false,"is_disabled":false,"rental_uris":{"android":"levelo://app?vid=88ba9907-2fa3-4f35-b02b-92cb17d71fdb","ios":"levelo://app?vid=88ba9907-2fa3-4f35-b02b-92cb17d71fdb"},"vehicle_type_id":"4","last_reported":1705784750,"current_range_meters":0,"station_id":"","pricing_plan_id":"free"},{"bike_id":"be9edcde-0300-4849-acab-4146d7766768","system_id":"levelo_inurba_marseille","lat":43.290104,"lon":5.356111,"is_reserved":false,"is_disabled":false,"rental_uris":{"android":"levelo://app?vid=be9edcde-0300-4849-acab-4146d7766768","ios":"levelo://app?vid=be9edcde-0300-4849-acab-4146d7766768"},"vehicle_type_id":"4","last_reported":1705784750,"current_range_meters":24400,"station_id":"ce4bhb92rcd13ifvqen0","pricing_plan_id":"free"},{"bike_id":"c21f2d6e-fbb9-4917-9354-c361dd477ec8","system_id":"levelo_inurba_marseille","lat":43.29101,"lon":5.38132,"is_reserved":false,"is_disabled":false,"rental_uris":{"android":"levelo://app?vid=c21f2d6e-fbb9-4917-9354-c361dd477ec8","ios":"levelo://app?vid=c21f2d6e-fbb9-4917-9354-c361dd477ec8"},"vehicle_type_id":"4","last_reported":1705784750,"current_range_meters":12000,"station_id":"ce4bh512rcd13ifvqe2g","pricing_plan_id":"free"},{"bike_id":"b9d15a43-0490-4405-bbd8-c1a39f5e7aaa","system_id":"levelo_inurba_marseille","lat":43.290995,"lon":5.381361,"is_reserved":false,"is_disabled":false,"rental_uris":{"android":"levelo://app?vid=b9d15a43-0490-4405-bbd8-c1a39f5e7aaa","ios":"levelo://app?vid=b9d15a43-0490-4405-bbd8-c1a39f5e7aaa"},"vehicle_type_id":"4","last_reported":1705784750,"current_range_meters":18800,"station_id":"ce4bh512rcd13ifvqe2g","pricing_plan_id":"free"},{"bike_id":"f20e7da2-0a09-4c95-a962-b771bb67edca","system_id":"levelo_inurba_marseille","lat":43.290995,"lon":5.381357,"is_reserved":false,"is_disabled":false,"rental_uris":{"android":"levelo://app?vid=f20e7da2-0a09-4c95-a962-b771bb67edca","ios":"levelo://app?vid=f20e7da2-0a09-4c95-a962-b771bb67edca"},"vehicle_type_id":"4","last_reported":1705784750,"current_range_meters":12000,"station_id":"ce4bh512rcd13ifvqe2g","pricing_plan_id":"free"},{"bike_id":"d4c58954-d043-4fb0-95a0-460118a9b0d4","system_id":"levelo_inurba_marseille","lat":43.290995,"lon":5.381361,"is_reserved":false,"is_disabled":false,"rental_uris":{"android":"levelo://app?vid=d4c58954-d043-4fb0-95a0-460118a9b0d4","ios":"levelo://app?vid=d4c58954-d043-4fb0-95a0-460118a9b0d4"},"vehicle_type_id":"4","last_reported":1705784750,"current_range_meters":14400,"station_id":"ce4bh512rcd13ifvqe2g","pricing_plan_id":"free"},{"bike_id":"ccb5818c-f1b5-43a9-9fbc-c65dce8a8931","system_id":"levelo_inurba_marseille","lat":43.290995,"lon":5.381361,"is_reserved":false,"is_disabled":false,"rental_uris":{"android":"levelo://app?vid=ccb5818c-f1b5-43a9-9fbc-c65dce8a8931","ios":"levelo://app?vid=ccb5818c-f1b5-43a9-9fbc-c65dce8a8931"},"vehicle_type_id":"4","last_reported":1705784750,"current_range_meters":14400,"station_id":"ce4bh512rcd13ifvqe2g","pricing_plan_id":"free"},{"bike_id":"9aaae932-16a5-4bf3-94bf-5bd8fe283dd0","system_id":"levelo_inurba_marseille","lat":43.290995,"lon":5.381361,"is_reserved":false,"is_disabled":false,"rental_uris":{"android":"levelo://app?vid=9aaae932-16a5-4bf3-94bf-5bd8fe283dd0","ios":"levelo://app?vid=9aaae932-16a5-4bf3-94bf-5bd8fe283dd0"},"vehicle_type_id":"4","last_reported":1705784750,"current_range_meters":9600,"station_id":"ce4bh512rcd13ifvqe2g","pricing_plan_id":"free"},{"bike_id":"925eaff5-3e49-4fa2-bc92-9f7181735632","system_id":"levelo_inurba_marseille","lat":43.329734,"lon":5.390652,"is_reserved":false,"is_disabled":false,"rental_uris":{"android":"levelo://app?vid=925eaff5-3e49-4fa2-bc92-9f7181735632","ios":"levelo://app?vid=925eaff5-3e49-4fa2-bc92-9f7181735632"},"vehicle_type_id":"4","last_reported":1705784750,"current_range_meters":20400,"station_id":"","pricing_plan_id":"free"},{"bike_id":"84f62bb3-0ff9-42c9-806a-d7797256af13","system_id":"levelo_inurba_marseille","lat":43.33006,"lon":5.39026,"is_reserved":false,"is_disabled":false,"rental_uris":{"android":"levelo://app?vid=84f62bb3-0ff9-42c9-806a-d7797256af13","ios":"levelo://app?vid=84f62bb3-0ff9-42c9-806a-d7797256af13"},"vehicle_type_id":"4","last_reported":1705784750,"current_range_meters":27600,"station_id":"ce4bhr92rcd13ifvqhrg","pricing_plan_id":"free"},{"bike_id":"1f4e6c82-c09b-4969-9f00-1c19d215f144","system_id":"levelo_inurba_marseille","lat":43.29084,"lon":5.38127,"is_reserved":false,"is_disabled":false,"rental_uris":{"android":"levelo://app?vid=1f4e6c82-c09b-4969-9f00-1c19d215f144","ios":"levelo://app?vid=1f4e6c82-c09b-4969-9f00-1c19d215f144"},"vehicle_type_id":"4","last_reported":1705784750,"current_range_meters":0,"station_id":"ce4bh512rcd13ifvqe2g","pricing_plan_id":"free"},{"bike_id":"a9151ad6-2d74-4948-803a-27e85b3073c7","system_id":"levelo_inurba_marseille","lat":43.313575,"lon":5.400266,"is_reserved":false,"is_disabled":false,"rental_uris":{"android":"levelo://app?vid=a9151ad6-2d74-4948-803a-27e85b3073c7","ios":"levelo://app?vid=a9151ad6-2d74-4948-803a-27e85b3073c7"},"vehicle_type_id":"4","last_reported":1705784750,"current_range_meters":0,"station_id":"","pricing_plan_id":"free"},{"bike_id":"db7d6f91-17e6-471b-82e6-7f16e173ee3b","system_id":"levelo_inurba_marseille","lat":43.290995,"lon":5.381361,"is_reserved":false,"is_disabled":false,"rental_uris":{"android":"levelo://app?vid=db7d6f91-17e6-471b-82e6-7f16e173ee3b","ios":"levelo://app?vid=db7d6f91-17e6-471b-82e6-7f16e173ee3b"},"vehicle_type_id":"4","last_reported":1705784750,"current_range_meters":25200,"station_id":"ce4bh512rcd13ifvqe2g","pricing_plan_id":"free"},{"bike_id":"e7583e3a-5e99-472a-8c58-b6b38893ca2a","system_id":"levelo_inurba_marseille","lat":43.290995,"lon":5.381361,"is_reserved":false,"is_disabled":false,"rental_uris":{"android":"levelo://app?vid=e7583e3a-5e99-472a-8c58-b6b38893ca2a","ios":"levelo://app?vid=e7583e3a-5e99-472a-8c58-b6b38893ca2a"},"vehicle_type_id":"4","last_reported":1705784750,"current_range_meters":26800,"station_id":"ce4bh512rcd13ifvqe2g","pricing_plan_id":"free"},{"bike_id":"9f38b239-3480-4496-b007-61cf910f901d","system_id":"levelo_inurba_marseille","lat":43.295374,"lon":5.39037,"is_reserved":false,"is_disabled":false,"rental_uris":{"android":"levelo://app?vid=9f38b239-3480-4496-b007-61cf910f901d","ios":"levelo://app?vid=9f38b239-3480-4496-b007-61cf910f901d"},"vehicle_type_id":"4","last_reported":1705784750,"current_range_meters":4000,"station_id":"ce4bh3p2rcd13ifvqdp0","pricing_plan_id":"free"},{"bike_id":"09c49bc2-2e04-4555-a199-2984d7125e9e","system_id":"levelo_inurba_marseille","lat":43.289743,"lon":5.378304,"is_reserved":false,"is_disabled":false,"rental_uris":{"android":"levelo://app?vid=09c49bc2-2e04-4555-a199-2984d7125e9e","ios":"levelo://app?vid=09c49bc2-2e04-4555-a199-2984d7125e9e"},"vehicle_type_id":"4","last_reported":1705784750,"current_range_meters":22400,"station_id":"ce4bh9p2rcd13ifvqed0","pricing_plan_id":"free"},{"bike_id":"6704dc67-27ee-4e72-aca0-e0abd3383b68","system_id":"levelo_inurba_marseille","lat":43.29785,"lon":5.39341,"is_reserved":false,"is_disabled":false,"rental_uris":{"android":"levelo://app?vid=6704dc67-27ee-4e72-aca0-e0abd3383b68","ios":"levelo://app?vid=6704dc67-27ee-4e72-aca0-e0abd3383b68"},"vehicle_type_id":"4","last_reported":1705784750,"current_range_meters":12400,"station_id":"chh1huq6cuj3fo74tm60","pricing_plan_id":"free"},{"bike_id":"61a47225-9023-4170-8356-939f32448f11","system_id":"levelo_inurba_marseille","lat":43.29784,"lon":5.39343,"is_reserved":false,"is_disabled":false,"rental_uris":{"android":"levelo://app?vid=61a47225-9023-4170-8356-939f32448f11","ios":"levelo://app?vid=61a47225-9023-4170-8356-939f32448f11"},"vehicle_type_id":"4","last_reported":1705784750,"current_range_meters":10800,"station_id":"chh1huq6cuj3fo74tm60","pricing_plan_id":"free"},{"bike_id":"e9903908-8f23-4055-b015-b594fba7b066","system_id":"levelo_inurba_marseille","lat":43.29775,"lon":5.39339,"is_reserved":false,"is_disabled":false,"rental_uris":{"android":"levelo://app?vid=e9903908-8f23-4055-b015-b594fba7b066","ios":"levelo://app?vid=e9903908-8f23-4055-b015-b594fba7b066"},"vehicle_type_id":"4","last_reported":1705784750,"current_range_meters":24800,"station_id":"chh1huq6cuj3fo74tm60","pricing_plan_id":"free"},{"bike_id":"3e644e07-b3c8-452b-b4f2-79c00d67e841","system_id":"levelo_inurba_marseille","lat":43.330442,"lon":5.389148,"is_reserved":false,"is_disabled":false,"rental_uris":{"android":"levelo://app?vid=3e644e07-b3c8-452b-b4f2-79c00d67e841","ios":"levelo://app?vid=3e644e07-b3c8-452b-b4f2-79c00d67e841"},"vehicle_type_id":"4","last_reported":1705784750,"current_range_meters":2800,"station_id":"ce4bhr92rcd13ifvqhrg","pricing_plan_id":"free"},{"bike_id":"666f93f9-f164-4abb-94bf-7f407cbe3755","system_id":"levelo_inurba_marseille","lat":43.295169,"lon":5.390426,"is_reserved":false,"is_disabled":false,"rental_uris":{"android":"levelo://app?vid=666f93f9-f164-4abb-94bf-7f407cbe3755","ios":"levelo://app?vid=666f93f9-f164-4abb-94bf-7f407cbe3755"},"vehicle_type_id":"4","last_reported":1705784750,"current_range_meters":1600,"station_id":"ce4bh3p2rcd13ifvqdp0","pricing_plan_id":"free"},{"bike_id":"6fde3cfb-702b-4089-a6f6-82265d0c0c9c","system_id":"levelo_inurba_marseille","lat":43.330442,"lon":5.389148,"is_reserved":false,"is_disabled":false,"rental_uris":{"android":"levelo://app?vid=6fde3cfb-702b-4089-a6f6-82265d0c0c9c","ios":"levelo://app?vid=6fde3cfb-702b-4089-a6f6-82265d0c0c9c"},"vehicle_type_id":"4","last_reported":1705784750,"current_range_meters":24800,"station_id":"ce4bhr92rcd13ifvqhrg","pricing_plan_id":"free"},{"bike_id":"ab001c16-e197-4d75-bc32-a8f3a5199351","system_id":"levelo_inurba_marseille","lat":43.330442,"lon":5.389148,"is_reserved":false,"is_disabled":false,"rental_uris":{"android":"levelo://app?vid=ab001c16-e197-4d75-bc32-a8f3a5199351","ios":"levelo://app?vid=ab001c16-e197-4d75-bc32-a8f3a5199351"},"vehicle_type_id":"4","last_reported":1705784750,"current_range_meters":14000,"station_id":"ce4bhr92rcd13ifvqhrg","pricing_plan_id":"free"},