{"last_updated":1693515974,"ttl":30,"version":"2.2","data":{"bikes":[{"bike_id":"62789b38-bb62-4102-a70e-5f3003218213","system_id":"levelo_inurba_marseille","lat":43.31341,"lon":5.367098,"is_reserved":false,"is_disabled":false,"rental_uris":{"android":"levelo://app?vid=62789b38-bb62-4102-a70e-5f3003218213","ios":"levelo://app?vid=62789b38-bb62-4102-a70e-5f3003218213"},"vehicle_type_id":"4","last_reported":1693515974,"current_range_meters":1200,"station_id":"ce4bgr92rcd13ifvqc6g","pricing_plan_id":"free"},{"bike_id":"d75929ed-2b53-411f-a637-20eaae9bf0b5","system_id":"levelo_inurba_marseille","lat":43.31353,"lon":5.36829,"is_reserved":false,"is_disabled":false,"rental_uris":{"android":"levelo://app?vid=d75929ed-2b53-411f-a637-20eaae9bf0b5","ios":"levelo://app?vid=d75929ed-2b53-411f-a637-20eaae9bf0b5"},"vehicle_type_id":"4","last_reported":1693515974,"current_range_meters":0,"station_id":"","pricing_plan_id":"free"},{"bike_id":"7c4a2f2e-07cf-43e7-8bcc-4357ffe9055d","system_id":"levelo_inurba_marseille","lat":43.312239,"lon":5.368562,"is_reserved":false,"is_disabled":false,"rental_uris":{"android":"levelo://app?vid=7c4a2f2e-07cf-43e7-8bcc-4357ffe9055d","ios":"levelo://app?vid=7c4a2f2e-07cf-43e7-8bcc-4357ffe9055d"},"vehicle_type_id":"4","last_reported":1693515974,"current_range_meters":5200,"station_id":"ce4bgl92rcd13ifvqbq0","pricing_plan_id":"free"},{"bike_id":"2e732f08-54d8-4343-84f9-849a5c609df2","system_id":"levelo_inurba_marseille","lat":43.31203,"lon":5.3687,"is_reserved":false,"is_disabled":false,"rental_uris":{"android":"levelo://app?vid=2e732f08-54d8-4343-84f9-849a5c609df2","ios":"levelo://app?vid=2e732f08-54d8-4343-84f9-849a5c609df2"},"vehicle_type_id":"4","last_reported":1693515974,"current_range_meters":20800,"station_id":"ce4bgl92rcd13ifvqbq0","pricing_plan_id":"free"},{"bike_id":"eb895e59-7017-409b-9717-32df052afd94","system_id":"levelo_inurba_marseille","lat":43.309076,"lon":5.368465,"is_reserved":false,"is_disabled":false,"rental_uris":{"android":"levelo://app?vid=eb895e59-7017-409b-9717-32df052afd94","ios":"levelo://app?vid=eb895e59-7017-409b-9717-32df052afd94"},"vehicle_type_id":"4","last_reported":1693515974,"current_range_meters":8400,"station_id":"ce4bgn92rcd13ifvqbvg","pricing_plan_id":"free"},{"bike_id":"ad27212e-f60c-4c81-9af9-bcdc9d84d84a","system_id":"levelo_inurba_marseille","lat":43.314811,"lon":5.373103,"is_reserved":false,"is_disabled":false,"rental_uris":{"android":"levelo://app?vid=ad27212e-f60c-4c81-9af9-bcdc9d84d84a","ios":"levelo://app?vid=ad27212e-f60c-4c81-9af9-bcdc9d84d84a"},"vehicle_type_id":"4","last_reported":1693515974,"current_range_meters":23200,"station_id":"ce4bgt12rcd13ifvqcd0","pricing_plan_id":"free"},{"bike_id":"d2be997d-44d2-40a5-bb20-02aeaaf65fa5","system_id":"levelo_inurba_marseille","lat":43.314811,"lon":5.373104,"is_reserved":false,"is_disabled":false,"rental_uris":{"android":"levelo://app?vid=d2be997d-44d2-40a5-bb20-02aeaaf65fa5","ios":"levelo://app?vid=d2be997d-44d2-40a5-bb20-02aeaaf65fa5"},"vehicle_type_id":"4","last_reported":1693515974,"current_range_meters":30800,"station_id":"ce4bgt12rcd13ifvqcd0","pricing_plan_id":"free"},{"bike_id":"48b6ddc8-a4d4-4e88-a7d2-81bede47171f","system_id":"levelo_inurba_marseille","lat":43.314811,"lon":5.373103,"is_reserved":false,"is_disabled":false,"rental_uris":{"android":"levelo://app?vid=48b6ddc8-a4d4-4e88-a7d2-81bede47171f","ios":"levelo://app?vid=48b6ddc8-a4d4-4e88-a7d2-81bede47171f"},"vehicle_type_id":"4","last_reported":1693515974,"current_range_meters":22800,"station_id":"ce4bgt12rcd13ifvqcd0","pricing_plan_id":"free"},{"bike_id":"53e22d60-5a0d-45f8-955e-9c1c15c8c7aa","system_id":"levelo_inurba_marseille","lat":43.314811,"lon":5.373103,"is_reserved":false,"is_disabled":false,"rental_uris":{"android":"levelo://app?vid=53e22d60-5a0d-45f8-955e-9c1c15c8c7aa","ios":"levelo://app?vid=53e22d60-5a0d-45f8-955e-9c1c15c8c7aa"},"vehicle_type_id":"4","last_reported":1693515974,"current_range_meters":24400,"station_id":"ce4bgt12rcd13ifvqcd0","pricing_plan_id":"free"},{"bike_id":"bafd55a4-dad2-4801-85e2-aa64db4d21fd","system_id":"levelo_inurba_marseille","lat":43.309039,"lon":5.371797,"is_reserved":false,"is_disabled":false,"rental_uris":{"android":"levelo://app?vid=bafd55a4-dad2-4801-85e2-aa64db4d21fd","ios":"levelo://app?vid=bafd55a4-dad2-4801-85e2-aa64db4d21fd"},"vehicle_type_id":"4","last_reported":1693515974,"current_range_meters":10000,"station_id":"ce4bguh2rcd13ifvqckg","pricing_plan_id":"free"},{"bike_id":"a4b43c21-b3b5-4d22-9bff-c60fc87d05df","system_id":"levelo_inurba_marseille","lat":43.305714,"lon":5.365633,"is_reserved":false,"is_disabled":false,"rental_uris":{"android":"levelo://app?vid=a4b43c21-b3b5-4d22-9bff-c60fc87d05df","ios":"levelo://app?vid=a4b43c21-b3b5-4d22-9bff-c60fc87d05df"},"vehicle_type_id":"4","last_reported":1693515974,"current_range_meters":13600,"station_id":"ce4bgs12rcd13ifvqcag","pricing_plan_id":"free"},{"bike_id":"45894cdb-0358-41ac-8b8e-e34b15459e03","system_id":"levelo_inurba_marseille","lat":43.305714,"lon":5.365633,"is_reserved":false,"is_disabled":false,"rental_uris":{"android":"levelo://app?vid=45894cdb-0358-41ac-8b8e-e34b15459e03","ios":"levelo://app?vid=45894cdb-0358-41ac-8b8e-e34b15459e03"},"vehicle_type_id":"4","last_reported":1693515974,"current_range_meters":12400,"station_id":"ce4bgs12rcd13ifvqcag","pricing_plan_id":"free"},{"bike_id":"4989ecb4-b634-4745-b026-690d1f2bd043","system_id":"levelo_inurba_marseille","lat":43.30531,"lon":5.36711,"is_reserved":false,"is_disabled":false,"rental_uris":{"android":"levelo://app?vid=4989ecb4-b634-4745-b026-690d1f2bd043","ios":"levelo://app?vid=4989ecb4-b634-4745-b026-690d1f2bd043"},"vehicle_type_id":"4","last_reported":1693515974,"current_range_meters":26400,"station_id":"ce4bgrp2rcd13ifvqc9g","pricing_plan_id":"free"},{"bike_id":"5d8bb6c0-e976-4482-ab77-af63e9c39d43","system_id":"levelo_inurba_marseille","lat":43.30528,"lon":5.3672,"is_reserved":false,"is_disabled":false,"rental_uris":{"android":"levelo://app?vid=5d8bb6c0-e976-4482-ab77-af63e9c39d43","ios":"levelo://app?vid=5d8bb6c0-e976-4482-ab77-af63e9c39d43"},"vehicle_type_id":"4","last_reported":1693515974,"current_range_meters":22400,"station_id":"ce4bgrp2rcd13ifvqc9g","pricing_plan_id":"free"},{"bike_id":"3fbda355-5f57-40e2-8458-dac8e794abfc","system_id":"levelo_inurba_marseille","lat":43.305989,"lon":5.37225,"is_reserved":false,"is_disabled":false,"rental_uris":{"android":"levelo://app?vid=3fbda355-5f57-40e2-8458-dac8e794abfc","ios":"levelo://app?vid=3fbda355-5f57-40e2-8458-dac8e794abfc"},"vehicle_type_id":"4","last_reported":1693515974,"current_range_meters":30800,"station_id":"ce4bgqh2rcd13ifvqc4g","pricing_plan_id":"free"},{"bike_id":"1ff1631f-017b-439d-a57f-31be5de23b35","system_id":"levelo_inurba_marseille","lat":43.30607,"lon":5.37226,"is_reserved":false,"is_disabled":false,"rental_uris":{"android":"levelo://app?vid=1ff1631f-017b-439d-a57f-31be5de23b35","ios":"levelo://app?vid=1ff1631f-017b-439d-a57f-31be5de23b35"},"vehicle_type_id":"4","last_reported":1693515974,"current_range_meters":3200,"station_id":"ce4bgqh2rcd13ifvqc4g","pricing_plan_id":"free"},{"bike_id":"2bbcaeff-e759-4924-8508-e646486783dd","system_id":"levelo_inurba_marseille","lat":43.305989,"lon":5.37225,"is_reserved":false,"is_disabled":false,"rental_uris":{"android":"levelo://app?vid=2bbcaeff-e759-4924-8508-e646486783dd","ios":"levelo://app?vid=2bbcaeff-e759-4924-8508-e646486783dd"},"vehicle_type_id":"4","last_reported":1693515974,"current_range_meters":14000,"station_id":"ce4bgqh2rcd13ifvqc4g","pricing_plan_id":"free"},{"bike_id":"8fcd7729-c20b-4ec7-bb66-ec955674b2a8","system_id":"levelo_inurba_marseille","lat":43.30604,"lon":5.37225,"is_reserved":false,"is_disabled":false,"rental_uris":{"android":"levelo://app?vid=8fcd7729-c20b-4ec7-bb66-ec955674b2a8","ios":"levelo://app?vid=8fcd7729-c20b-4ec7-bb66-ec955674b2a8"},"vehicle_type_id":"4","last_reported":1693515974,"current_range_meters":18800,"station_id":"ce4bgqh2rcd13ifvqc4g","pricing_plan_id":"free"},{"bike_id":"743fcfd5-cfcd-4686-a6d0-afe1fa139a75","system_id":"levelo_inurba_marseille","lat":43.311125,"lon":5.377624,"is_reserved":false,"is_disabled":false,"rental_uris":{"android":"levelo://app?vid=743fcfd5-cfcd-4686-a6d0-afe1fa139a75","ios":"levelo://app?vid=743fcfd5-cfcd-4686-a6d0-afe1fa139a75"},"vehicle_type_id":"4","last_reported":1693515974,"current_range_meters":6000,"station_id":"ce4bgt92rcd13ifvqcg0","pricing_plan_id":"free"},{"bike_id":"ebb1e737-3e6e-4c4e-9b80-31f243e2753f","system_id":"levelo_inurba_marseille","lat":43.311125,"lon":5.377624,"is_reserved":false,"is_disabled":false,"rental_uris":{"android":"levelo://app?vid=ebb1e737-3e6e-4c4e-9b80-31f243e2753f","ios":"levelo://app?vid=ebb1e737-3e6e-4c4e-9b80-31f243e2753f"},"vehicle_type_id":"4","last_reported":1693515974,"current_range_meters":27200,"station_id":"ce4bgt92rcd13ifvqcg0","pricing_plan_id":"free"},{"bike_id":"d5d1e986-e555-4fda-89fe-4969aae7c020","system_id":"levelo_inurba_marseille","lat":43.311125,"lon":5.377624,"is_reserved":false,"is_disabled":false,"rental_uris":{"android":"levelo://app?vid=d5d1e986-e555-4fda-89fe-4969aae7c020","ios":"levelo://app?vid=d5d1e986-e555-4fda-89fe-4969aae7c020"},"vehicle_type_id":"4","last_reported":1693515974,"current_range_meters":18000,"station_id":"ce4bgt92rcd13ifvqcg0","pricing_plan_id":"free"},{"bike_id":"b9d91588-e630-4524-94d5-6932e771abaf","system_id":"levelo_inurba_marseille","lat":43.311125,"lon":5.377624,"is_reserved":false,"is_disabled":false,"rental_uris":{"android":"levelo://app?vid=b9d91588-e630-4524-94d5-6932e771abaf","ios":"levelo://app?vid=b9d91588-e630-4524-94d5-6932e771abaf"},"vehicle_type_id":"4","last_reported":1693515974,"current_range_meters":17600,"station_id":"ce4bgt92rcd13ifvqcg0","pricing_plan_id":"free"},{"bike_id":"0e132f95-b564-4cbb-a281-14957b4e22e7","system_id":"levelo_inurba_marseille","lat":43.311125,"lon":5.377624,"is_reserved":false,"is_disabled":false,"rental_uris":{"android":"levelo://app?vid=0e132f95-b564-4cbb-a281-14957b4e22e7","ios":"levelo://app?vid=0e132f95-b564-4cbb-a281-14957b4e22e7"},"vehicle_type_id":"4","last_reported":1693515974,"current_range_meters":6800,"station_id":"ce4bgt92rcd13ifvqcg0","pricing_plan_id":"free"},{"bike_id":"48a53056-83f6-45e2-b8c9-b4e3347f5447","system_id":"levelo_inurba_marseille","lat":43.30794,"lon":5.3765,"is_reserved":false,"is_disabled":false,"rental_uris":{"android":"levelo://app?vid=48a53056-83f6-45e2-b8c9-b4e3347f5447","ios":"levelo://app?vid=48a53056-83f6-45e2-b8c9-b4e3347f5447"},"vehicle_type_id":"4","last_reported":1693515974,"current_range_meters":25200,"station_id":"ce4bgv92rcd13ifvqcq0","pricing_plan_id":"free"},{"bike_id":"c1c049c7-0738-4e66-873f-c29bf64ea3c1","system_id":"levelo_inurba_marseille","lat":43.30793,"lon":5.37659,"is_reserved":false,"is_disabled":false,"rental_uris":{"android":"levelo://app?vid=c1c049c7-0738-4e66-873f-c29bf64ea3c1","ios":"levelo://app?vid=c1c049c7-0738-4e66-873f-c29bf64ea3c1"},"vehicle_type_id":"4","last_reported":1693515974,"current_range_meters":24400,"station_id":"ce4bgv92rcd13ifvqcq0","pricing_plan_id":"free"},{"bike_id":"c027755b-6d82-4144-b8fa-e0134e18968e","system_id":"levelo_inurba_marseille","lat":43.307945,"lon":5.376487,"is_reserved":false,"is_disabled":false,"rental_uris":{"android":"levelo://app?vid=c027755b-6d82-4144-b8fa-e0134e18968e","ios":"levelo://app?vid=c027755b-6d82-4144-b8fa-e0134e18968e"},"vehicle_type_id":"4","last_reported":1693515974,"current_range_meters":23200,"station_id":"ce4bgv92rcd13ifvqcq0","pricing_plan_id":"free"},{"bike_id":"0e4cc0f7-798f-4344-bd2b-f4a8248707b9","system_id":"levelo_inurba_marseille","lat":43.307945,"lon":5.376487,"is_reserved":false,"is_disabled":false,"rental_uris":{"android":"levelo://app?vid=0e4cc0f7-798f-4344-bd2b-f4a8248707b9","ios":"levelo://app?vid=0e4cc0f7-798f-4344-bd2b-f4a8248707b9"},"vehicle_type_id":"4","last_reported":1693515974,"current_range_meters":1600,"station_id":"ce4bgv92rcd13ifvqcq0","pricing_plan_id":"free"},{"bike_id":"537a927d-8a1c-43e0-871b-ee68f3239d6e","system_id":"levelo_inurba_marseille","lat":43.317075,"lon":5.377367,"is_reserved":false,"is_disabled":false,"rental_uris":{"android":"levelo://app?vid=537a927d-8a1c-43e0-871b-ee68f3239d6e","ios":"levelo://app?vid=537a927d-8a1c-43e0-871b-ee68f3239d6e"},"vehicle_type_id":"4","last_reported":1693515974,"current_range_meters":31200,"station_id":"ce4bgth2rcd13ifvqch0","pricing_plan_id":"free"},{"bike_id":"cd3d548f-bd59-45ea-a76c-bcaa7c22f274","system_id":"levelo_inurba_marseille","lat":43.317075,"lon":5.377367,"is_reserved":false,"is_disabled":false,"rental_uris":{"android":"levelo://app?vid=cd3d548f-bd59-45ea-a76c-bcaa7c22f274","ios":"levelo://app?vid=cd3d548f-bd59-45ea-a76c-bcaa7c22f274"},"vehicle_type_id":"4","last_reported":1693515974,"current_range_meters":31200,"station_id":"ce4bgth2rcd13ifvqch0","pricing_plan_id":"free"},{"bike_id":"536c548e-f26a-4f2c-8478-2c31233ebf18","system_id":"levelo_inurba_marseille","lat":43.317075,"lon":5.377367,"is_reserved":false,"is_disabled":false,"rental_uris":{"android":"levelo://app?vid=536c548e-f26a-4f2c-8478-2c31233ebf18","ios":"levelo://app?vid=536c548e-f26a-4f2c-8478-2c31233ebf18"},"vehicle_type_id":"4","last_reported":1693515974,"current_range_meters":25600,"station_id":"ce4bgth2rcd13ifvqch0","pricing_plan_id":"free"},{"bike_id":"4893d0e9-e77e-40b6-919b-6e49e19570ed","system_id":"levelo_inurba_marseille","lat":43.317075,"lon":5.377367,"is_reserved":false,"is_disabled":false,"rental_uris":{"android":"levelo://app?vid=4893d0e9-e77e-40b6-919b-6e49e19570ed","ios":"levelo://app?vid=4893d0e9-e77e-40b6-919b-6e49e19570ed"},"vehicle_type_id":"4","last_reported":1693515974,"current_range_meters":30400,"station_id":"ce4bgth2rcd13ifvqch0","pricing_plan_id":"free"},{"bike_id":"e2f9764a-7a45-4f7c-87e1-a583bc7334cb","system_id":"levelo_inurba_marseille","lat":43.303046,"lon":5.368981,"is_reserved":false,"is_disabled":false,"rental_uris":{"android":"levelo://app?vid=e2f9764a-7a45-4f7c-87e1-a583bc7334cb","ios":"levelo://app?vid=e2f9764a-7a45-4f7c-87e1-a583bc7334cb"},"vehicle_type_id":"4","last_reported":1693515974,"current_range_meters":21200,"station_id":"ce4bgqh2rcd13ifvqc5g","pricing_plan_id":"free"},{"bike_id":"f72b7f77-06ae-40ea-b296-9089da9e4c45","system_id":"levelo_inurba_marseille","lat":43.315293,"lon":5.380349,"is_reserved":false,"is_disabled":false,"rental_uris":{"android":"levelo://app?vid=f72b7f77-06ae-40ea-b296-9089da9e4c45","ios":"levelo://app?vid=f72b7f77-06ae-40ea-b296-9089da9e4c45"},"vehicle_type_id":"4","last_reported":1693515974,"current_range_meters":400,"station_id":"ce4bhsp2rcd13ifvqi50","pricing_plan_id":"free"},{"bike_id":"4abf28c8-542d-4caa-ab46-9f81497b0977","system_id":"levelo_inurba_marseille","lat":43.315293,"lon":5.380349,"is_reserved":false,"is_disabled":false,"rental_uris":{"android":"levelo://app?vid=4abf28c8-542d-4caa-ab46-9f81497b0977","ios":"levelo://app?vid=4abf28c8-542d-4caa-ab46-9f81497b0977"},"vehicle_type_id":"4","last_reported":1693515974,"current_range_meters":800,"station_id":"ce4bhsp2rcd13ifvqi50","pricing_plan_id":"free"},{"bike_id":"58bb6726-9040-4762-b7cf-63391bfe0a32","system_id":"levelo_inurba_marseille","lat":43.31538,"lon":5.38034,"is_reserved":false,"is_disabled":false,"rental_uris":{"android":"levelo://app?vid=58bb6726-9040-4762-b7cf-63391bfe0a32","ios":"levelo://app?vid=58bb6726-9040-4762-b7cf-63391bfe0a32"},"vehicle_type_id":"4","last_reported":1693515974,"current_range_meters":15200,"station_id":"ce4bhsp2rcd13ifvqi50","pricing_plan_id":"free"},{"bike_id":"d64fac4b-7291-4ebb-93ea-846f2836ea09","system_id":"levelo_inurba_marseille","lat":43.32361,"lon":5.36887,"is_reserved":false,"is_disabled":false,"rental_uris":{"android":"levelo://app?vid=d64fac4b-7291-4ebb-93ea-846f2836ea09","ios":"levelo://app?vid=d64fac4b-7291-4ebb-93ea-846f2836ea09"},"vehicle_type_id":"4","last_reported":1693515974,"current_range_meters":30000,"station_id":"","pricing_plan_id":"free"},{"bike_id":"2d9d9d94-77f1-440a-8c18-c528574d1035","system_id":"levelo_inurba_marseille","lat":43.32362,"lon":5.36887,"is_reserved":false,"is_disabled":false,"rental_uris":{"android":"levelo://app?vid=2d9d9d94-77f1-440a-8c18-c528574d1035","ios":"levelo://app?vid=2d9d9d94-77f1-440a-8c18-c528574d1035"},"vehicle_type_id":"4","last_reported":1693515974,"current_range_meters":24000,"station_id":"","pricing_plan_id":"free"},{"bike_id":"7d609aa9-6391-44ec-8aaf-29553188135c","system_id":"levelo_inurba_marseille","lat":43.30793,"lon":5.3816,"is_reserved":false,"is_disabled":false,"rental_uris":{"android":"levelo://app?vid=7d609aa9-6391-44ec-8aaf-29553188135c","ios":"levelo://app?vid=7d609aa9-6391-44ec-8aaf-29553188135c"},"vehicle_type_id":"4","last_reported":1693515974,"current_range_meters":5200,"station_id":"ce4bgt12rcd13ifvqce0","pricing_plan_id":"free"},{"bike_id":"ab2a71b1-cf45-4170-b2e5-464b1779fc70","system_id":"levelo_inurba_marseille","lat":43.32002,"lon":5.38171,"is_reserved":false,"is_disabled":false,"rental_uris":{"android":"levelo://app?vid=ab2a71b1-cf45-4170-b2e5-464b1779fc70","ios":"levelo://app?vid=ab2a71b1-cf45-4170-b2e5-464b1779fc70"},"vehicle_type_id":"4","last_reported":1693515974,"current_range_meters":1600,"station_id":"ce4bhr12rcd13ifvqhpg","pricing_plan_id":"free"},{"bike_id":"ae2e290b-8206-49b0-aace-5747457af896","system_id":"levelo_inurba_marseille","lat":43.313571,"lon":5.384829,"is_reserved":false,"is_disabled":false,"rental_uris":{"android":"levelo://app?vid=ae2e290b-8206-49b0-aace-5747457af896","ios":"levelo://app?vid=ae2e290b-8206-49b0-aace-5747457af896"},"vehicle_type_id":"4","last_reported":1693515974,"current_range_meters":7600,"station_id":"ce4bgt92rcd13ifvqcf0","pricing_plan_id":"free"},{"bike_id":"f720a373-6ca4-4583-85c8-3a1e16bb8838","system_id":"levelo_inurba_marseille","lat":43.29935,"lon":5.3655,"is_reserved":false,"is_disabled":false,"rental_uris":{"android":"levelo://app?vid=f720a373-6ca4-4583-85c8-3a1e16bb8838","ios":"levelo://app?vid=f720a373-6ca4-4583-85c8-3a1e16bb8838"},"vehicle_type_id":"4","last_reported":1693515974,"current_range_meters":24800,"station_id":"ce4bgm92rcd13ifvqbr0","pricing_plan_id":"free"},{"bike_id":"9c668d33-94e7-4708-abe1-831b9916f33d","system_id":"levelo_inurba_marseille","lat":43.29977,"lon":5.3719,"is_reserved":false,"is_disabled":false,"rental_uris":{"android":"levelo://app?vid=9c668d33-94e7-4708-abe1-831b9916f33d","ios":"levelo://app?vid=9c668d33-94e7-4708-abe1-831b9916f33d"},"vehicle_type_id":"4","last_reported":1693515974,"current_range_meters":21600,"station_id":"ce4bgr92rcd13ifvqc7g","pricing_plan_id":"free"},{"bike_id":"59a876c7-8f4f-4ace-b80e-ac615f164960","system_id":"levelo_inurba_marseille","lat":43.29972,"lon":5.37189,"is_reserved":false,"is_disabled":false,"rental_uris":{"android":"levelo://app?vid=59a876c7-8f4f-4ace-b80e-ac615f164960","ios":"levelo://app?vid=59a876c7-8f4f-4ace-b80e-ac615f164960"},"vehicle_type_id":"4","last_reported":1693515974,"current_range_meters":15600,"station_id":"ce4bgr92rcd13ifvqc7g","pricing_plan_id":"free"},{"bike_id":"803198ba-2ae9-496e-ab4a-959afaa03092","system_id":"levelo_inurba_marseille","lat":43.29885,"lon":5.36709,"is_reserved":false,"is_disabled":false,"rental_uris":{"android":"levelo://app?vid=803198ba-2ae9-496e-ab4a-959afaa03092","ios":"levelo://app?vid=803198ba-2ae9-496e-ab4a-959afaa03092"},"vehicle_type_id":"4","last_reported":1693515974,"current_range_meters":8000,"station_id":"","pricing_plan_id":"free"},{"bike_id":"34e4e463-358d-4af3-bc2b-39a81f4ea9fa","system_id":"levelo_inurba_marseille","lat":43.31231,"lon":5.38686,"is_reserved":false,"is_disabled":false,"rental_uris":{"android":"levelo://app?vid=34e4e463-358d-4af3-bc2b-39a81f4ea9fa","ios":"levelo://app?vid=34e4e463-358d-4af3-bc2b-39a81f4ea9fa"},"vehicle_type_id":"4","last_reported":1693515974,"current_range_meters":17200,"station_id":"","pricing_plan_id":"free"},{"bike_id":"c7f595b3-4087-4089-b19d-c5f23bab0474","system_id":"levelo_inurba_marseille","lat":43.29928,"lon":5.3747,"is_reserved":false,"is_disabled":false,"rental_uris":{"android":"levelo://app?vid=c7f595b3-4087-4089-b19d-c5f23bab0474","ios":"levelo://app?vid=c7f595b3-4087-4089-b19d-c5f23bab0474"},"vehicle_type_id":"4","last_reported":1693515974,"current_range_meters":10800,"station_id":"ce4bgjh2rcd13ifvqbg0","pricing_plan_id":"free"},{"bike_id":"5d87c11d-8c46-4f07-b383-149754ffeb7f","system_id":"levelo_inurba_marseille","lat":43.31166,"lon":5.38711,"is_reserved":false,"is_disabled":false,"rental_uris":{"android":"levelo://app?vid=5d87c11d-8c46-4f07-b383-149754ffeb7f","ios":"levelo://app?vid=5d87c11d-8c46-4f07-b383-149754ffeb7f"},"vehicle_type_id":"4","last_reported":1693515974,"current_range_meters":22000,"station_id":"ce4bgv12rcd13ifvqcp0","pricing_plan_id":"free"},{"bike_id":"2f9e2def-2173-4eb4-a460-9a385f59debe","system_id":"levelo_inurba_marseille","lat":43.29911,"lon":5.37473,"is_reserved":false,"is_disabled":false,"rental_uris":{"android":"levelo://app?vid=2f9e2def-2173-4eb4-a460-9a385f59debe","ios":"levelo://app?vid=2f9e2def-2173-4eb4-a460-9a385f59debe"},"vehicle_type_id":"4","last_reported":1693515974,"current_range_meters":31200,"station_id":"ce4bgjh2rcd13ifvqbg0","pricing_plan_id":"free"},{"bike_id":"8143ebd5-c5c5-467f-a353-1c0066f90341","system_id":"levelo_inurba_marseille","lat":43.297774,"lon":5.370875,"is_reserved":false,"is_disabled":false,"rental_uris":{"android":"levelo://app?vid=8143ebd5-c5c5-467f-a353-1c0066f90341","ios":"levelo://app?vid=8143ebd5-c5c5-467f-a353-1c0066f90341"},"vehicle_type_id":"4","last_reported":1693515974,"current_range_meters":31200,"station_id":"ce4bgop2rcd13ifvqc1g","pricing_plan_id":"free"},{"bike_id":"924d6452-f7f7-4baa-af9a-49926af70474","system_id":"levelo_inurba_marseille","lat":43.297794,"lon":5.370888,"is_reserved":false,"is_disabled":false,"rental_uris":{"android":"levelo://app?vid=924d6452-f7f7-4baa-af9a-49926af70474","ios":"levelo://app?vid=924d6452-f7f7-4baa-af9a-49926af70474"},"vehicle_type_id":"4","last_reported":1693515974,"current_range_meters":28400,"station_id":"ce4bgop2rcd13ifvqc1g","pricing_plan_id":"free"},{"bike_id":"36dc30cc-8707-401f-a548-16d5de607dc5","system_id":"levelo_inurba_marseille","lat":43.32287,"lon":5.38269,"is_reserved":false,"is_disabled":false,"rental_uris":{"android":"levelo://app?vid=36dc30cc-8707-401f-a548-16d5de607dc5","ios":"levelo://app?vid=36dc30cc-8707-401f-a548-16d5de607dc5"},"vehicle_type_id":"4","last_reported":1693515974,"current_range_meters":23200,"station_id":"ce4bhr12rcd13ifvqhqg","pricing_plan_id":"free"},{"bike_id":"c29114e8-dc25-4be3-832f-1611beb9061c","system_id":"levelo_inurba_marseille","lat":43.322903,"lon":5.382703,"is_reserved":false,"is_disabled":false,"rental_uris":{"android":"levelo://app?vid=c29114e8-dc25-4be3-832f-1611beb9061c","ios":"levelo://app?vid=c29114e8-dc25-4be3-832f-1611beb9061c"},"vehicle_type_id":"4","last_reported":1693515974,"current_range_meters":7200,"station_id":"ce4bhr12rcd13ifvqhqg","pricing_plan_id":"free"},{"bike_id":"dd789220-e7b5-42c1-b9dc-dc4243148021","system_id":"levelo_inurba_marseille","lat":43.297163,"lon":5.365866,"is_reserved":false,"is_disabled":false,"rental_uris":{"android":"levelo://app?vid=dd789220-e7b5-42c1-b9dc-dc4243148021","ios":"levelo://app?vid=dd789220-e7b5-42c1-b9dc-dc4243148021"},"vehicle_type_id":"4","last_reported":1693515974,"current_range_meters":30400,"station_id":"ce4bgn12rcd13ifvqbt0","pricing_plan_id":"free"},{"bike_id":"bd0bd295-6ecc-40c4-a4d0-89f645593756","system_id":"levelo_inurba_marseille","lat":43.297163,"lon":5.365866,"is_reserved":false,"is_disabled":false,"rental_uris":{"android":"levelo://app?vid=bd0bd295-6ecc-40c4-a4d0-89f645593756","ios":"levelo://app?vid=bd0bd295-6ecc-40c4-a4d0-89f645593756"},"vehicle_type_id":"4","last_reported":1693515974,"current_range_meters":21600,"station_id":"ce4bgn12rcd13ifvqbt0","pricing_plan_id":"free"},{"bike_id":"2d38d843-9501-4a8b-8d1e-e53e054245cc","system_id":"levelo_inurba_marseille","lat":43.32164,"lon":5.38573,"is_reserved":false,"is_disabled":false,"rental_uris":{"android":"levelo://app?vid=2d38d843-9501-4a8b-8d1e-e53e054245cc","ios":"levelo://app?vid=2d38d843-9501-4a8b-8d1e-e53e054245cc"},"vehicle_type_id":"4","last_reported":1693515974,"current_range_meters":28400,"station_id":"","pricing_plan_id":"free"},{"bike_id":"5d5971a6-6675-4dc8-85e8-3d684ee9976c","system_id":"levelo_inurba_marseille","lat":43.2968,"lon":5.37291,"is_reserved":false,"is_disabled":false,"rental_uris":{"android":"levelo://app?vid=5d5971a6-6675-4dc8-85e8-3d684ee9976c","ios":"levelo://app?vid=5d5971a6-6675-4dc8-85e8-3d684ee9976c"},"vehicle_type_id":"4","last_reported":1693515974,"current_range_meters":28000,"station_id":"ce4bgk12rcd13ifvqbj0","pricing_plan_id":"free"},{"bike_id":"10d32cd1-8307-45ca-ad3e-2653e5514234","system_id":"levelo_inurba_marseille","lat":43.2964,"lon":5.37123,"is_reserved":false,"is_disabled":false,"rental_uris":{"android":"levelo://app?vid=10d32cd1-8307-45ca-ad3e-2653e5514234","ios":"levelo://app?vid=10d32cd1-8307-45ca-ad3e-2653e5514234"},"vehicle_type_id":"4","last_reported":1693515974,"current_range_meters":0,"station_id":"","pricing_plan_id":"free"},{"bike_id":"65d934c8-ea94-404c-b991-a012f59c0b64","system_id":"levelo_inurba_marseille","lat":43.296131,"lon":5.370773,"is_reserved":false,"is_disabled":false,"rental_uris":{"android":"levelo://app?vid=65d934c8-ea94-404c-b991-a012f59c0b64","ios":"levelo://app?vid=65d934c8-ea94-404c-b991-a012f59c0b64"},"vehicle_type_id":"4","last_reported":1693515974,"current_range_meters":26400,"station_id":"ce4bgnh2rcd13ifvqc0g","pricing_plan_id":"free"},{"bike_id":"d3139180-8ba9-4c91-b6e4-8baae3c22113","system_id":"levelo_inurba_marseille","lat":43.296131,"lon":5.370773,"is_reserved":false,"is_disabled":false,"rental_uris":{"android":"levelo://app?vid=d3139180-8ba9-4c91-b6e4-8baae3c22113","ios":"levelo://app?vid=d3139180-8ba9-4c91-b6e4-8baae3c22113"},"vehicle_type_id":"4","last_reported":1693515974,"current_range_meters":31200,"station_id":"ce4bgnh2rcd13ifvqc0g","pricing_plan_id":"free"},{"bike_id":"7a69e924-6c96-40e6-92b8-de7aab8275b9","system_id":"levelo_inurba_marseille","lat":43.296131,"lon":5.370773,"is_reserved":false,"is_disabled":false,"rental_uris":{"android":"levelo://app?vid=7a69e924-6c96-40e6-92b8-de7aab8275b9","ios":"levelo://app?vid=7a69e924-6c96-40e6-92b8-de7aab8275b9"},"vehicle_type_id":"4","last_reported":1693515974,"current_range_meters":9600,"station_id":"ce4bgnh2rcd13ifvqc0g","pricing_plan_id":"free"},{"bike_id":"f7db89d2-5e6e-4ec0-b120-9f4a3e1feff0","system_id":"levelo_inurba_marseille","lat":43.29573,"lon":5.367355,"is_reserved":false,"is_disabled":false,"rental_uris":{"android":"levelo://app?vid=f7db89d2-5e6e-4ec0-b120-9f4a3e1feff0","ios":"levelo://app?vid=f7db89d2-5e6e-4ec0-b120-9f4a3e1feff0"},"vehicle_type_id":"4","last_reported":1693515974,"current_range_meters":4400,"station_id":"ce4bgph2rcd13ifvqc2g","pricing_plan_id":"free"},{"bike_id":"2a2ff8cb-6cae-4113-9333-4fdb258e1355","system_id":"levelo_inurba_marseille","lat":43.299028,"lon":5.381509,"is_reserved":false,"is_disabled":false,"rental_uris":{"android":"levelo://app?vid=2a2ff8cb-6cae-4113-9333-4fdb258e1355","ios":"levelo://app?vid=2a2ff8cb-6cae-4113-9333-4fdb258e1355"},"vehicle_type_id":"4","last_reported":1693515974,"current_range_meters":2400,"station_id":"ce4bgj12rcd13ifvqbc0","pricing_plan_id":"free"},{"bike_id":"c66dfd4a-6e6b-485c-8a06-ca20f0ddbdbf","system_id":"levelo_inurba_marseille","lat":43.299028,"lon":5.381509,"is_reserved":false,"is_disabled":false,"rental_uris":{"android":"levelo://app?vid=c66dfd4a-6e6b-485c-8a06-ca20f0ddbdbf","ios":"levelo://app?vid=c66dfd4a-6e6b-485c-8a06-ca20f0ddbdbf"},"vehicle_type_id":"4","last_reported":1693515974,"current_range_meters":31200,"station_id":"ce4bgj12rcd13ifvqbc0","pricing_plan_id":"free"},{"bike_id":"f6a5d662-e9ff-4690-a933-f4e6477cf81a","system_id":"levelo_inurba_marseille","lat":43.299028,"lon":5.381509,"is_reserved":false,"is_disabled":false,"rental_uris":{"android":"levelo://app?vid=f6a5d662-e9ff-4690-a933-f4e6477cf81a","ios":"levelo://app?vid=f6a5d662-e9ff-4690-a933-f4e6477cf81a"},"vehicle_type_id":"4","last_reported":1693515974,"current_range_meters":29600,"station_id":"ce4bgj12rcd13ifvqbc0","pricing_plan_id":"free"},{"bike_id":"74603b1d-5a06-445b-bae1-cbfb427aa90e","system_id":"levelo_inurba_marseille","lat":43.309589,"lon":5.390258,"is_reserved":false,"is_disabled":false,"rental_uris":{"android":"levelo://app?vid=74603b1d-5a06-445b-bae1-cbfb427aa90e","ios":"levelo://app?vid=74603b1d-5a06-445b-bae1-cbfb427aa90e"},"vehicle_type_id":"4","last_reported":1693515974,"current_range_meters":22800,"station_id":"ce4bgup2rcd13ifvqco0","pricing_plan_id":"free"},{"bike_id":"1fd06e91-0c47-4509-911f-b7a31d518c64","system_id":"levelo_inurba_marseille","lat":43.299028,"lon":5.381509,"is_reserved":false,"is_disabled":false,"rental_uris":{"android":"levelo://app?vid=1fd06e91-0c47-4509-911f-b7a31d518c64","ios":"levelo://app?vid=1fd06e91-0c47-4509-911f-b7a31d518c64"},"vehicle_type_id":"4","last_reported":1693515974,"current_range_meters":20000,"station_id":"ce4bgj12rcd13ifvqbc0","pricing_plan_id":"free"},{"bike_id":"2c93ce6f-c5e1-4ec9-9941-ebb7469bb8f2","system_id":"levelo_inurba_marseille","lat":43.31763,"lon":5.39005,"is_reserved":false,"is_disabled":false,"rental_uris":{"android":"levelo://app?vid=2c93ce6f-c5e1-4ec9-9941-ebb7469bb8f2","ios":"levelo://app?vid=2c93ce6f-c5e1-4ec9-9941-ebb7469bb8f2"},"vehicle_type_id":"4","last_reported":1693515974,"current_range_meters":22800,"station_id":"ce4bhqp2rcd13ifvqhng","pricing_plan_id":"free"},{"bike_id":"935beb17-0fba-4795-85f1-edd7d3c4d835","system_id":"levelo_inurba_marseille","lat":43.317557,"lon":5.390173,"is_reserved":false,"is_disabled":false,"rental_uris":{"android":"levelo://app?vid=935beb17-0fba-4795-85f1-edd7d3c4d835","ios":"levelo://app?vid=935beb17-0fba-4795-85f1-edd7d3c4d835"},"vehicle_type_id":"4","last_reported":1693515974,"current_range_meters":27600,"station_id":"ce4bhqp2rcd13ifvqhng","pricing_plan_id":"free"},{"bike_id":"720dd94e-a706-4e3a-afd3-a1f49ede6b8a","system_id":"levelo_inurba_marseille","lat":43.31759,"lon":5.39013,"is_reserved":false,"is_disabled":false,"rental_uris":{"android":"levelo://app?vid=720dd94e-a706-4e3a-afd3-a1f49ede6b8a","ios":"levelo://app?vid=720dd94e-a706-4e3a-afd3-a1f49ede6b8a"},"vehicle_type_id":"4","last_reported":1693515974,"current_range_meters":20000,"station_id":"","pricing_plan_id":"free"},{"bike_id":"c63902aa-3d94-4474-9770-f7fdd1026ca3","system_id":"levelo_inurba_marseille","lat":43.317557,"lon":5.390173,"is_reserved":false,"is_disabled":false,"rental_uris":{"android":"levelo://app?vid=c63902aa-3d94-4474-9770-f7fdd1026ca3","ios":"levelo://app?vid=c63902aa-3d94-4474-9770-f7fdd1026ca3"},"vehicle_type_id":"4","last_reported":1693515974,"current_range_meters":4400,"station_id":"ce4bhqp2rcd13ifvqhng","pricing_plan_id":"free"},{"bike_id":"792b5992-c376-483e-a72d-036ff9063de7","system_id":"levelo_inurba_marseille","lat":43.317557,"lon":5.390173,"is_reserved":false,"is_disabled":false,"rental_uris":{"android":"levelo://app?vid=792b5992-c376-483e-a72d-036ff9063de7","ios":"levelo://app?vid=792b5992-c376-483e-a72d-036ff9063de7"},"vehicle_type_id":"4","last_reported":1693515974,"current_range_meters":16400,"station_id":"ce4bhqp2rcd13ifvqhng","pricing_plan_id":"free"},{"bike_id":"86d37462-6f2c-4ee1-b5e1-16f3e9285866","system_id":"levelo_inurba_marseille","lat":43.31755,"lon":5.39023,"is_reserved":false,"is_disabled":false,"rental_uris":{"android":"levelo://app?vid=86d37462-6f2c-4ee1-b5e1-16f3e9285866","ios":"levelo://app?vid=86d37462-6f2c-4ee1-b5e1-16f3e9285866"},"vehicle_type_id":"4","last_reported":1693515974,"current_range_meters":22800,"station_id":"ce4bhqp2rcd13ifvqhng","pricing_plan_id":"free"},{"bike_id":"88d9d596-f438-4684-ae9f-d2d3fa8d2d69","system_id":"levelo_inurba_marseille","lat":43.317557,"lon":5.390173,"is_reserved":false,"is_disabled":false,"rental_uris":{"android":"levelo://app?vid=88d9d596-f438-4684-ae9f-d2d3fa8d2d69","ios":"levelo://app?vid=88d9d596-f438-4684-ae9f-d2d3fa8d2d69"},"vehicle_type_id":"4","last_reported":1693515974,"current_range_meters":19600,"station_id":"ce4bhqp2rcd13ifvqhng","pricing_plan_id":"free"},{"bike_id":"a3c3bd2c-55bc-49d7-b4d7-41e93c26373a","system_id":"levelo_inurba_marseille","lat":43.317557,"lon":5.390173,"is_reserved":false,"is_disabled":false,"rental_uris":{"android":"levelo://app?vid=a3c3bd2c-55bc-49d7-b4d7-41e93c26373a","ios":"levelo://app?vid=a3c3bd2c-55bc-49d7-b4d7-41e93c26373a"},"vehicle_type_id":"4","last_reported":1693515974,"current_range_meters":15200,"station_id":"ce4bhqp2rcd13ifvqhng","pricing_plan_id":"free"},{"bike_id":"3576e508-5e18-40e2-93e2-9ac9dce76ede","system_id":"levelo_inurba_marseille","lat":43.317557,"lon":5.390173,"is_reserved":false,"is_disabled":false,"rental_uris":{"android":"levelo://app?vid=3576e508-5e18-40e2-93e2-9ac9dce76ede","ios":"levelo://app?vid=3576e508-5e18-40e2-93e2-9ac9dce76ede"},"vehicle_type_id":"4","last_reported":1693515974,"current_range_meters":29600,"station_id":"ce4bhqp2rcd13ifvqhng","pricing_plan_id":"free"},{"bike_id":"1389e75d-d269-4088-996e-871885fd01a0","system_id":"levelo_inurba_marseille","lat":43.298037,"lon":5.381066,"is_reserved":false,"is_disabled":false,"rental_uris":{"android":"levelo://app?vid=1389e75d-d269-4088-996e-871885fd01a0","ios":"levelo://app?vid=1389e75d-d269-4088-996e-871885fd01a0"},"vehicle_type_id":"4","last_reported":1693515974,"current_range_meters":2000,"station_id":"ce4bgip2rcd13ifvqbb0","pricing_plan_id":"free"},{"bike_id":"4c0e38c9-aa6e-44e3-b5cd-3eee15aa1f77","system_id":"levelo_inurba_marseille","lat":43.29808,"lon":5.38114,"is_reserved":false,"is_disabled":false,"rental_uris":{"android":"levelo://app?vid=4c0e38c9-aa6e-44e3-b5cd-3eee15aa1f77","ios":"levelo://app?vid=4c0e38c9-aa6e-44e3-b5cd-3eee15aa1f77"},"vehicle_type_id":"4","last_reported":1693515974,"current_range_meters":6400,"station_id":"ce4bgip2rcd13ifvqbb0","pricing_plan_id":"free"},{"bike_id":"dedf9b14-334c-4493-b8c2-4338335d693a","system_id":"levelo_inurba_marseille","lat":43.29799,"lon":5.38099,"is_reserved":false,"is_disabled":false,"rental_uris":{"android":"levelo://app?vid=dedf9b14-334c-4493-b8c2-4338335d693a","ios":"levelo://app?vid=dedf9b14-334c-4493-b8c2-4338335d693a"},"vehicle_type_id":"4","last_reported":1693515974,"current_range_meters":4000,"station_id":"ce4bgip2rcd13ifvqbb0","pricing_plan_id":"free"},{"bike_id":"0c414cdc-6a7c-438f-84e8-e8ea1cd21f46","system_id":"levelo_inurba_marseille","lat":43.298037,"lon":5.381066,"is_reserved":false,"is_disabled":false,"rental_uris":{"android":"levelo://app?vid=0c414cdc-6a7c-438f-84e8-e8ea1cd21f46","ios":"levelo://app?vid=0c414cdc-6a7c-438f-84e8-e8ea1cd21f46"},"vehicle_type_id":"4","last_reported":1693515974,"current_range_meters":24800,"station_id":"ce4bgip2rcd13ifvqbb0","pricing_plan_id":"free"},{"bike_id":"55c0bf14-cf07-471f-a93d-fb8a2740021e","system_id":"levelo_inurba_marseille","lat":43.298037,"lon":5.381066,"is_reserved":false,"is_disabled":false,"rental_uris":{"android":"levelo://app?vid=55c0bf14-cf07-471f-a93d-fb8a2740021e","ios":"levelo://app?vid=55c0bf14-cf07-471f-a93d-fb8a2740021e"},"vehicle_type_id":"4","last_reported":1693515974,"current_range_meters":23600,"station_id":"ce4bgip2rcd13ifvqbb0","pricing_plan_id":"free"},{"bike_id":"622d6978-a8dc-460a-bf69-c65029d17378","system_id":"levelo_inurba_marseille","lat":43.304278,"lon":5.388868,"is_reserved":false,"is_disabled":false,"rental_uris":{"android":"levelo://app?vid=622d6978-a8dc-460a-bf69-c65029d17378","ios":"levelo://app?vid=622d6978-a8dc-460a-bf69-c65029d17378"},"vehicle_type_id":"4","last_reported":1693515974,"current_range_meters":8400,"station_id":"ce4bgk12rcd13ifvqbi0","pricing_plan_id":"free"},{"bike_id":"54f499d3-155f-4bff-9db1-b0ca228fd428","system_id":"levelo_inurba_marseille","lat":43.304278,"lon":5.388868,"is_reserved":false,"is_disabled":false,"rental_uris":{"android":"levelo://app?vid=54f499d3-155f-4bff-9db1-b0ca228fd428","ios":"levelo://app?vid=54f499d3-155f-4bff-9db1-b0ca228fd428"},"vehicle_type_id":"4","last_reported":1693515974,"current_range_meters":14400,"station_id":"ce4bgk12rcd13ifvqbi0","pricing_plan_id":"free"},{"bike_id":"288911d0-55a3-4d36-912c-3c33cd2f7812","system_id":"levelo_inurba_marseille","lat":43.30424,"lon":5.38899,"is_reserved":false,"is_disabled":false,"rental_uris":{"android":"levelo://app?vid=288911d0-55a3-4d36-912c-3c33cd2f7812","ios":"levelo://app?vid=288911d0-55a3-4d36-912c-3c33cd2f7812"},"vehicle_type_id":"4","last_reported":1693515974,"current_range_meters":12000,"station_id":"ce4bgk12rcd13ifvqbi0","pricing_plan_id":"free"},{"bike_id":"91e9e279-e27f-4ed3-bbe8-c2fb4bbc933a","system_id":"levelo_inurba_marseille","lat":43.296277,"lon":5.377108,"is_reserved":false,"is_disabled":false,"rental_uris":{"android":"levelo://app?vid=91e9e279-e27f-4ed3-bbe8-c2fb4bbc933a","ios":"levelo://app?vid=91e9e279-e27f-4ed3-bbe8-c2fb4bbc933a"},"vehicle_type_id":"4","last_reported":1693515974,"current_range_meters":1600,"station_id":"ce4bgi92rcd13ifvqb90","pricing_plan_id":"free"},{"bike_id":"d1cf8ac0-4aa4-443a-9add-c0d9d48d28de","system_id":"levelo_inurba_marseille","lat":43.299722,"lon":5.384784,"is_reserved":false,"is_disabled":false,"rental_uris":{"android":"levelo://app?vid=d1cf8ac0-4aa4-443a-9add-c0d9d48d28de","ios":"levelo://app?vid=d1cf8ac0-4aa4-443a-9add-c0d9d48d28de"},"vehicle_type_id":"4","last_reported":1693515974,"current_range_meters":19600,"station_id":"ce4bgj92rcd13ifvqbd0","pricing_plan_id":"free"},{"bike_id":"35ecc92c-5d30-4095-9eda-427e6d470d0d","system_id":"levelo_inurba_marseille","lat":43.295279,"lon":5.375048,"is_reserved":false,"is_disabled":false,"rental_uris":{"android":"levelo://app?vid=35ecc92c-5d30-4095-9eda-427e6d470d0d","ios":"levelo://app?vid=35ecc92c-5d30-4095-9eda-427e6d470d0d"},"vehicle_type_id":"4","last_reported":1693515974,"current_range_meters":1600,"station_id":"ce4bgkp2rcd13ifvqbmg","pricing_plan_id":"free"},{"bike_id":"32431900-e5b2-4351-92b6-d8ed3ec60164","system_id":"levelo_inurba_marseille","lat":43.32364,"lon":5.3888,"is_reserved":false,"is_disabled":false,"rental_uris":{"android":"levelo://app?vid=32431900-e5b2-4351-92b6-d8ed3ec60164","ios":"levelo://app?vid=32431900-e5b2-4351-92b6-d8ed3ec60164"},"vehicle_type_id":"4","last_reported":1693515974,"current_range_meters":12400,"station_id":"ce4bhqp2rcd13ifvqhog","pricing_plan_id":"free"},{"bike_id":"75dd2d9b-e11c-4209-90bf-8c81a9698c47","system_id":"levelo_inurba_marseille","lat":43.32363,"lon":5.38882,"is_reserved":false,"is_disabled":false,"rental_uris":{"android":"levelo://app?vid=75dd2d9b-e11c-4209-90bf-8c81a9698c47","ios":"levelo://app?vid=75dd2d9b-e11c-4209-90bf-8c81a9698c47"},"vehicle_type_id":"4","last_reported":1693515974,"current_range_meters":13200,"station_id":"ce4bhqp2rcd13ifvqhog","pricing_plan_id":"free"},{"bike_id":"2b97dc1d-285c-4b1c-a64a-1cdad8afbc16","system_id":"levelo_inurba_marseille","lat":43.32366,"lon":5.38883,"is_reserved":false,"is_disabled":false,"rental_uris":{"android":"levelo://app?vid=2b97dc1d-285c-4b1c-a64a-1cdad8afbc16","ios":"levelo://app?vid=2b97dc1d-285c-4b1c-a64a-1cdad8afbc16"},"vehicle_type_id":"4","last_reported":1693515974,"current_range_meters":16000,"station_id":"ce4bhqp2rcd13ifvqhog","pricing_plan_id":"free"},{"bike_id":"441b4bf0-2f81-424d-80e6-f67d81a2e87f","system_id":"levelo_inurba_marseille","lat":43.32367,"lon":5.38883,"is_reserved":false,"is_disabled":false,"rental_uris":{"android":"levelo://app?vid=441b4bf0-2f81-424d-80e6-f67d81a2e87f","ios":"levelo://app?vid=441b4bf0-2f81-424d-80e6-f67d81a2e87f"},"vehicle_type_id":"4","last_reported":1693515974,"current_range_meters":13200,"station_id":"ce4bhqp2rcd13ifvqhog","pricing_plan_id":"free"},{"bike_id":"37e31ec5-f687-46c8-8606-4ed15a7044f0","system_id":"levelo_inurba_marseille","lat":43.32366,"lon":5.38888,"is_reserved":false,"is_disabled":false,"rental_uris":{"android":"levelo://app?vid=37e31ec5-f687-46c8-8606-4ed15a7044f0","ios":"levelo://app?vid=37e31ec5-f687-46c8-8606-4ed15a7044f0"},"vehicle_type_id":"4","last_reported":1693515974,"current_range_meters":2800,"station_id":"ce4bhqp2rcd13ifvqhog","pricing_plan_id":"free"},{"bike_id":"065bcbbf-4978-40a8-9cc4-a0cbd2ceb2cb","system_id":"levelo_inurba_marseille","lat":43.32369,"lon":5.38886,"is_reserved":false,"is_disabled":false,"rental_uris":{"android":"levelo://app?vid=065bcbbf-4978-40a8-9cc4-a0cbd2ceb2cb","ios":"levelo://app?vid=065bcbbf-4978-40a8-9cc4-a0cbd2ceb2cb"},"vehicle_type_id":"4","last_reported":1693515974,"current_range_meters":12800,"station_id":"ce4bhqp2rcd13ifvqhog","pricing_plan_id":"free"},{"bike_id":"e8b4dc4b-544b-4b6f-b1bd-be63b4683f6e","system_id":"levelo_inurba_marseille","lat":43.29602,"lon":5.381084,"is_reserved":false,"is_disabled":false,"rental_uris":{"android":"levelo://app?vid=e8b4dc4b-544b-4b6f-b1bd-be63b4683f6e","ios":"levelo://app?vid=e8b4dc4b-544b-4b6f-b1bd-be63b4683f6e"},"vehicle_type_id":"4","last_reported":1693515974,"current_range_meters":28800,"station_id":"ce4bgl12rcd13ifvqbo0","pricing_plan_id":"free"},{"bike_id":"5a3a50cc-32e2-455f-b26b-345f0fc0c89d","system_id":"levelo_inurba_marseille","lat":43.29602,"lon":5.381084,"is_reserved":false,"is_disabled":false,"rental_uris":{"android":"levelo://app?vid=5a3a50cc-32e2-455f-b26b-345f0fc0c89d","ios":"levelo://app?vid=5a3a50cc-32e2-455f-b26b-345f0fc0c89d"},"vehicle_type_id":"4","last_reported":1693515974,"current_range_meters":14000,"station_id":"ce4bgl12rcd13ifvqbo0","pricing_plan_id":"free"},{"bike_id":"fe9be1d6-637a-4764-b3dd-b9f4d12bfb76","system_id":"levelo_inurba_marseille","lat":43.29305,"lon":5.3718,"is_reserved":false,"is_disabled":false,"rental_uris":{"android":"levelo://app?vid=fe9be1d6-637a-4764-b3dd-b9f4d12bfb76","ios":"levelo://app?vid=fe9be1d6-637a-4764-b3dd-b9f4d12bfb76"},"vehicle_type_id":"4","last_reported":1693515974,"current_range_meters":25200,"station_id":"ce4bgh92rcd13ifvqb40","pricing_plan_id":"free"},{"bike_id":"af378848-4ab5-4a0c-a75c-c290cd6c3483","system_id":"levelo_inurba_marseille","lat":43.32459,"lon":5.38946,"is_reserved":false,"is_disabled":false,"rental_uris":{"android":"levelo://app?vid=af378848-4ab5-4a0c-a75c-c290cd6c3483","ios":"levelo://app?vid=af378848-4ab5-4a0c-a75c-c290cd6c3483"},"vehicle_type_id":"4","last_reported":1693515974,"current_range_meters":6000,"station_id":"","pricing_plan_id":"free"},{"bike_id":"cddddfb0-4a61-4f2c-8cd8-d2e8bb96d8bc","system_id":"levelo_inurba_marseille","lat":43.29244,"lon":5.36695,"is_reserved":false,"is_disabled":false,"rental_uris":{"android":"levelo://app?vid=cddddfb0-4a61-4f2c-8cd8-d2e8bb96d8bc","ios":"levelo://app?vid=cddddfb0-4a61-4f2c-8cd8-d2e8bb96d8bc"},"vehicle_type_id":"4","last_reported":1693515974,"current_range_meters":31200,"station_id":"","pricing_plan_id":"free"},{"bike_id":"38fef587-7cc5-4800-b069-87b8f296a10a","system_id":"levelo_inurba_marseille","lat":43.30298,"lon":5.39217,"is_reserved":false,"is_disabled":false,"rental_uris":{"android":"levelo://app?vid=38fef587-7cc5-4800-b069-87b8f296a10a","ios":"levelo://app?vid=38fef587-7cc5-4800-b069-87b8f296a10a"},"vehicle_type_id":"4","last_reported":1693515974,"current_range_meters":27600,"station_id":"ce4bgkh2rcd13ifvqbk0","pricing_plan_id":"free"},{"bike_id":"59d4a7cc-c4d8-47e1-a63f-2e26b5d209c3","system_id":"levelo_inurba_marseille","lat":43.2936,"lon":5.37835,"is_reserved":false,"is_disabled":false,"rental_uris":{"android":"levelo://app?vid=59d4a7cc-c4d8-47e1-a63f-2e26b5d209c3","ios":"levelo://app?vid=59d4a7cc-c4d8-47e1-a63f-2e26b5d209c3"},"vehicle_type_id":"4","last_reported":1693515974,"current_range_meters":30800,"station_id":"ce4bgjh2rcd13ifvqbf0","pricing_plan_id":"free"},{"bike_id":"36963fc1-cac2-4f1b-add0-659bdd860f36","system_id":"levelo_inurba_marseille","lat":43.2936,"lon":5.37835,"is_reserved":false,"is_disabled":false,"rental_uris":{"android":"levelo://app?vid=36963fc1-cac2-4f1b-add0-659bdd860f36","ios":"levelo://app?vid=36963fc1-cac2-4f1b-add0-659bdd860f36"},"vehicle_type_id":"4","last_reported":1693515974,"current_range_meters":3600,"station_id":"ce4bgjh2rcd13ifvqbf0","pricing_plan_id":"free"},{"bike_id":"0724f352-a262-45b7-9b71-9a09ff17d945","system_id":"levelo_inurba_marseille","lat":43.30297,"lon":5.3923,"is_reserved":false,"is_disabled":false,"rental_uris":{"android":"levelo://app?vid=0724f352-a262-45b7-9b71-9a09ff17d945","ios":"levelo://app?vid=0724f352-a262-45b7-9b71-9a09ff17d945"},"vehicle_type_id":"4","last_reported":1693515974,"current_range_meters":2400,"station_id":"ce4bgkh2rcd13ifvqbk0","pricing_plan_id":"free"},{"bike_id":"86b64568-cc83-4d15-a45b-170dcf78cb6b","system_id":"levelo_inurba_marseille","lat":43.2936,"lon":5.37835,"is_reserved":false,"is_disabled":false,"rental_uris":{"android":"levelo://app?vid=86b64568-cc83-4d15-a45b-170dcf78cb6b","ios":"levelo://app?vid=86b64568-cc83-4d15-a45b-170dcf78cb6b"},"vehicle_type_id":"4","last_reported":1693515974,"current_range_meters":13600,"station_id":"ce4bgjh2rcd13ifvqbf0","pricing_plan_id":"free"},{"bike_id":"ca34f27f-1709-477d-af7f-7432ddc46623","system_id":"levelo_inurba_marseille","lat":43.298764,"lon":5.388973,"is_reserved":false,"is_disabled":false,"rental_uris":{"android":"levelo://app?vid=ca34f27f-1709-477d-af7f-7432ddc46623","ios":"levelo://app?vid=ca34f27f-1709-477d-af7f-7432ddc46623"},"vehicle_type_id":"4","last_reported":1693515974,"current_range_meters":4000,"station_id":"ce4bh392rcd13ifvqdl0","pricing_plan_id":"free"},{"bike_id":"b127cb02-a67f-4944-955b-2653cb69db42","system_id":"levelo_inurba_marseille","lat":43.29142,"lon":5.36689,"is_reserved":false,"is_disabled":false,"rental_uris":{"android":"levelo://app?vid=b127cb02-a67f-4944-955b-2653cb69db42","ios":"levelo://app?vid=b127cb02-a67f-4944-955b-2653cb69db42"},"vehicle_type_id":"4","last_reported":1693515974,"current_range_meters":26000,"station_id":"ce4bhc92rcd13ifvqetg","pricing_plan_id":"free"},{"bike_id":"3fc362f5-ecfd-4d9f-bafb-f110042ce278","system_id":"levelo_inurba_marseille","lat":43.298731,"lon":5.389079,"is_reserved":false,"is_disabled":false,"rental_uris":{"android":"levelo://app?vid=3fc362f5-ecfd-4d9f-bafb-f110042ce278","ios":"levelo://app?vid=3fc362f5-ecfd-4d9f-bafb-f110042ce278"},"vehicle_type_id":"4","last_reported":1693515974,"current_range_meters":17600,"station_id":"ce4bh392rcd13ifvqdl0","pricing_plan_id":"free"},{"bike_id":"15d3ef78-e5a7-4786-9706-a26a63e380e6","system_id":"levelo_inurba_marseille","lat":43.291675,"lon":5.371583,"is_reserved":false,"is_disabled":false,"rental_uris":{"android":"levelo://app?vid=15d3ef78-e5a7-4786-9706-a26a63e380e6","ios":"levelo://app?vid=15d3ef78-e5a7-4786-9706-a26a63e380e6"},"vehicle_type_id":"4","last_reported":1693515974,"current_range_meters":24400,"station_id":"ce4bha92rcd13ifvqeh0","pricing_plan_id":"free"},{"bike_id":"bc8f43bd-6136-4c4d-9a33-355c902c1d00","system_id":"levelo_inurba_marseille","lat":43.298764,"lon":5.388973,"is_reserved":false,"is_disabled":false,"rental_uris":{"android":"levelo://app?vid=bc8f43bd-6136-4c4d-9a33-355c902c1d00","ios":"levelo://app?vid=bc8f43bd-6136-4c4d-9a33-355c902c1d00"},"vehicle_type_id":"4","last_reported":1693515974,"current_range_meters":10800,"station_id":"ce4bh392rcd13ifvqdl0","pricing_plan_id":"free"},{"bike_id":"d35ffc08-60b6-48ac-bc16-7b2b03131663","system_id":"levelo_inurba_marseille","lat":43.309038,"lon":5.396546,"is_reserved":false,"is_disabled":false,"rental_uris":{"android":"levelo://app?vid=d35ffc08-60b6-48ac-bc16-7b2b03131663","ios":"levelo://app?vid=d35ffc08-60b6-48ac-bc16-7b2b03131663"},"vehicle_type_id":"4","last_reported":1693515974,"current_range_meters":11200,"station_id":"ce4bh012rcd13ifvqcv0","pricing_plan_id":"free"},{"bike_id":"362acb2d-efde-4da9-905b-2b5d01e9a3dd","system_id":"levelo_inurba_marseille","lat":43.291994,"lon":5.357886,"is_reserved":false,"is_disabled":false,"rental_uris":{"android":"levelo://app?vid=362acb2d-efde-4da9-905b-2b5d01e9a3dd","ios":"levelo://app?vid=362acb2d-efde-4da9-905b-2b5d01e9a3dd"},"vehicle_type_id":"4","last_reported":1693515974,"current_range_meters":31200,"station_id":"ce4bhb12rcd13ifvqel0","pricing_plan_id":"free"},{"bike_id":"73c2e0c0-a939-4bc3-943a-e52094180bff","system_id":"levelo_inurba_marseille","lat":43.291994,"lon":5.357886,"is_reserved":false,"is_disabled":false,"rental_uris":{"android":"levelo://app?vid=73c2e0c0-a939-4bc3-943a-e52094180bff","ios":"levelo://app?vid=73c2e0c0-a939-4bc3-943a-e52094180bff"},"vehicle_type_id":"4","last_reported":1693515974,"current_range_meters":26400,"station_id":"ce4bhb12rcd13ifvqel0","pricing_plan_id":"free"},{"bike_id":"411aecea-7042-42e2-9e4b-b0e27cbcc21a","system_id":"levelo_inurba_marseille","lat":43.3133,"lon":5.39689,"is_reserved":false,"is_disabled":false,"rental_uris":{"android":"levelo://app?vid=411aecea-7042-42e2-9e4b-b0e27cbcc21a","ios":"levelo://app?vid=411aecea-7042-42e2-9e4b-b0e27cbcc21a"},"vehicle_type_id":"4","last_reported":1693515974,"current_range_meters":22800,"station_id":"ce4bgvp2rcd13ifvqcu0","pricing_plan_id":"free"},{"bike_id":"0f8222cc-ccbc-46f3-83f0-e8dfa7cc4061","system_id":"levelo_inurba_marseille","lat":43.30881,"lon":5.39641,"is_reserved":false,"is_disabled":false,"rental_uris":{"android":"levelo://app?vid=0f8222cc-ccbc-46f3-83f0-e8dfa7cc4061","ios":"levelo://app?vid=0f8222cc-ccbc-46f3-83f0-e8dfa7cc4061"},"vehicle_type_id":"4","last_reported":1693515974,"current_range_meters":31200,"station_id":"ce4bh012rcd13ifvqcv0","pricing_plan_id":"free"},{"bike_id":"76f71a50-52ee-4ce8-9597-6912c4a2e3a3","system_id":"levelo_inurba_marseille","lat":43.313291,"lon":5.396838,"is_reserved":false,"is_disabled":false,"rental_uris":{"android":"levelo://app?vid=76f71a50-52ee-4ce8-9597-6912c4a2e3a3","ios":"levelo://app?vid=76f71a50-52ee-4ce8-9597-6912c4a2e3a3"},"vehicle_type_id":"4","last_reported":1693515974,"current_range_meters":7600,"station_id":"ce4bgvp2rcd13ifvqcu0","pricing_plan_id":"free"},{"bike_id":"325b0f05-8635-49f3-99ea-b09d973b2e73","system_id":"levelo_inurba_marseille","lat":43.313291,"lon":5.396838,"is_reserved":false,"is_disabled":false,"rental_uris":{"android":"levelo://app?vid=325b0f05-8635-49f3-99ea-b09d973b2e73","ios":"levelo://app?vid=325b0f05-8635-49f3-99ea-b09d973b2e73"},"vehicle_type_id":"4","last_reported":1693515974,"current_range_meters":1600,"station_id":"ce4bgvp2rcd13ifvqcu0","pricing_plan_id":"free"},{"bike_id":"478e5943-5bdf-46ce-b102-8c9dcf2b43b7","system_id":"levelo_inurba_marseille","lat":43.31327,"lon":5.39694,"is_reserved":false,"is_disabled":false,"rental_uris":{"android":"levelo://app?vid=478e5943-5bdf-46ce-b102-8c9dcf2b43b7","ios":"levelo://app?vid=478e5943-5bdf-46ce-b102-8c9dcf2b43b7"},"vehicle_type_id":"4","last_reported":1693515974,"current_range_meters":16400,"station_id":"ce4bgvp2rcd13ifvqcu0","pricing_plan_id":"free"},{"bike_id":"07e27ff4-77b5-4fd0-93a8-f24b799c166c","system_id":"levelo_inurba_marseille","lat":43.31331,"lon":5.39696,"is_reserved":false,"is_disabled":false,"rental_uris":{"android":"levelo://app?vid=07e27ff4-77b5-4fd0-93a8-f24b799c166c","ios":"levelo://app?vid=07e27ff4-77b5-4fd0-93a8-f24b799c166c"},"vehicle_type_id":"4","last_reported":1693515974,"current_range_meters":22000,"station_id":"ce4bgvp2rcd13ifvqcu0","pricing_plan_id":"free"},{"bike_id":"5bb50458-ce48-4c00-a9a6-172a3f0bb3a1","system_id":"levelo_inurba_marseille","lat":43.31323,"lon":5.39698,"is_reserved":false,"is_disabled":false,"rental_uris":{"android":"levelo://app?vid=5bb50458-ce48-4c00-a9a6-172a3f0bb3a1","ios":"levelo://app?vid=5bb50458-ce48-4c00-a9a6-172a3f0bb3a1"},"vehicle_type_id":"4","last_reported":1693515974,"current_range_meters":31200,"station_id":"ce4bgvp2rcd13ifvqcu0","pricing_plan_id":"free"},{"bike_id":"23d9ee89-f609-4ccd-a540-511e10d81855","system_id":"levelo_inurba_marseille","lat":43.313291,"lon":5.396838,"is_reserved":false,"is_disabled":false,"rental_uris":{"android":"levelo://app?vid=23d9ee89-f609-4ccd-a540-511e10d81855","ios":"levelo://app?vid=23d9ee89-f609-4ccd-a540-511e10d81855"},"vehicle_type_id":"4","last_reported":1693515974,"current_range_meters":7600,"station_id":"ce4bgvp2rcd13ifvqcu0","pricing_plan_id":"free"},{"bike_id":"5e9a18df-20fe-4272-82cd-f489868dbaef","system_id":"levelo_inurba_marseille","lat":43.309038,"lon":5.396546,"is_reserved":false,"is_disabled":false,"rental_uris":{"android":"levelo://app?vid=5e9a18df-20fe-4272-82cd-f489868dbaef","ios":"levelo://app?vid=5e9a18df-20fe-4272-82cd-f489868dbaef"},"vehicle_type_id":"4","last_reported":1693515974,"current_range_meters":8800,"station_id":"ce4bh012rcd13ifvqcv0","pricing_plan_id":"free"},{"bike_id":"e0b2f192-f373-4c48-a309-3bc1ba23c795","system_id":"levelo_inurba_marseille","lat":43.313291,"lon":5.396838,"is_reserved":false,"is_disabled":false,"rental_uris":{"android":"levelo://app?vid=e0b2f192-f373-4c48-a309-3bc1ba23c795","ios":"levelo://app?vid=e0b2f192-f373-4c48-a309-3bc1ba23c795"},"vehicle_type_id":"4","last_reported":1693515974,"current_range_meters":25600,"station_id":"ce4bgvp2rcd13ifvqcu0","pricing_plan_id":"free"},{"bike_id":"f157e90b-ab4a-4fdf-bb58-fa8dacb8a23e","system_id":"levelo_inurba_marseille","lat":43.30884,"lon":5.39654,"is_reserved":false,"is_disabled":false,"rental_uris":{"android":"levelo://app?vid=f157e90b-ab4a-4fdf-bb58-fa8dacb8a23e","ios":"levelo://app?vid=f157e90b-ab4a-4fdf-bb58-fa8dacb8a23e"},"vehicle_type_id":"4","last_reported":1693515974,"current_range_meters":9200,"station_id":"ce4bh012rcd13ifvqcv0","pricing_plan_id":"free"},{"bike_id":"0d962e12-b732-4464-bc89-f40845207671","system_id":"levelo_inurba_marseille","lat":43.33235,"lon":5.38036,"is_reserved":false,"is_disabled":false,"rental_uris":{"android":"levelo://app?vid=0d962e12-b732-4464-bc89-f40845207671","ios":"levelo://app?vid=0d962e12-b732-4464-bc89-f40845207671"},"vehicle_type_id":"4","last_reported":1693515974,"current_range_meters":14000,"station_id":"","pricing_plan_id":"free"},{"bike_id":"c504068a-e788-4744-abe1-0a7e7715dabc","system_id":"levelo_inurba_marseille","lat":43.309038,"lon":5.396546,"is_reserved":false,"is_disabled":false,"rental_uris":{"android":"levelo://app?vid=c504068a-e788-4744-abe1-0a7e7715dabc","ios":"levelo://app?vid=c504068a-e788-4744-abe1-0a7e7715dabc"},"vehicle_type_id":"4","last_reported":1693515974,"current_range_meters":8800,"station_id":"ce4bh012rcd13ifvqcv0","pricing_plan_id":"free"},{"bike_id":"575a5eac-3e90-42db-95f5-bb7f0f8a53e1","system_id":"levelo_inurba_marseille","lat":43.309038,"lon":5.396546,"is_reserved":false,"is_disabled":false,"rental_uris":{"android":"levelo://app?vid=575a5eac-3e90-42db-95f5-bb7f0f8a53e1","ios":"levelo://app?vid=575a5eac-3e90-42db-95f5-bb7f0f8a53e1"},"vehicle_type_id":"4","last_reported":1693515974,"current_range_meters":0,"station_id":"ce4bh012rcd13ifvqcv0","pricing_plan_id":"free"},{"bike_id":"f248ae25-d5df-4d1f-bdaa-934a8a3c2166","system_id":"levelo_inurba_marseille","lat":43.30882,"lon":5.39661,"is_reserved":false,"is_disabled":false,"rental_uris":{"android":"levelo://app?vid=f248ae25-d5df-4d1f-bdaa-934a8a3c2166","ios":"levelo://app?vid=f248ae25-d5df-4d1f-bdaa-934a8a3c2166"},"vehicle_type_id":"4","last_reported":1693515974,"current_range_meters":24400,"station_id":"ce4bh012rcd13ifvqcv0","pricing_plan_id":"free"},{"bike_id":"9bf7bc6b-c4d7-4717-819a-3f16d7fd5fd9","system_id":"levelo_inurba_marseille","lat":43.29539,"lon":5.38543,"is_reserved":false,"is_disabled":false,"rental_uris":{"android":"levelo://app?vid=9bf7bc6b-c4d7-4717-819a-3f16d7fd5fd9","ios":"levelo://app?vid=9bf7bc6b-c4d7-4717-819a-3f16d7fd5fd9"},"vehicle_type_id":"4","last_reported":1693515974,"current_range_meters":9600,"station_id":"ce4bgih2rcd13ifvqba0","pricing_plan_id":"free"},{"bike_id":"c0d2ba17-4fd5-46fc-895e-b8ded262e59a","system_id":"levelo_inurba_marseille","lat":43.29533,"lon":5.38538,"is_reserved":false,"is_disabled":false,"rental_uris":{"android":"levelo://app?vid=c0d2ba17-4fd5-46fc-895e-b8ded262e59a","ios":"levelo://app?vid=c0d2ba17-4fd5-46fc-895e-b8ded262e59a"},"vehicle_type_id":"4","last_reported":1693515974,"current_range_meters":29600,"station_id":"ce4bgih2rcd13ifvqba0","pricing_plan_id":"free"},{"bike_id":"3f0ac73d-48ef-471b-96a4-792e80b97939","system_id":"levelo_inurba_marseille","lat":43.29529,"lon":5.385581,"is_reserved":false,"is_disabled":false,"rental_uris":{"android":"levelo://app?vid=3f0ac73d-48ef-471b-96a4-792e80b97939","ios":"levelo://app?vid=3f0ac73d-48ef-471b-96a4-792e80b97939"},"vehicle_type_id":"4","last_reported":1693515974,"current_range_meters":4000,"station_id":"ce4bgih2rcd13ifvqba0","pricing_plan_id":"free"},{"bike_id":"6e17efc1-4daf-40f0-8e61-3405b4748290","system_id":"levelo_inurba_marseille","lat":43.29529,"lon":5.385581,"is_reserved":false,"is_disabled":false,"rental_uris":{"android":"levelo://app?vid=6e17efc1-4daf-40f0-8e61-3405b4748290","ios":"levelo://app?vid=6e17efc1-4daf-40f0-8e61-3405b4748290"},"vehicle_type_id":"4","last_reported":1693515974,"current_range_meters":0,"station_id":"ce4bgih2rcd13ifvqba0","pricing_plan_id":"free"},{"bike_id":"bca2d692-d42e-4515-850e-f1b16e9af251","system_id":"levelo_inurba_marseille","lat":43.29529,"lon":5.385581,"is_reserved":false,"is_disabled":false,"rental_uris":{"android":"levelo://app?vid=bca2d692-d42e-4515-850e-f1b16e9af251","ios":"levelo://app?vid=bca2d692-d42e-4515-850e-f1b16e9af251"},"vehicle_type_id":"4","last_reported":1693515974,"current_range_meters":12400,"station_id":"ce4bgih2rcd13ifvqba0","pricing_plan_id":"free"},{"bike_id":"38bff366-05c0-4999-902a-6a073f3c7d63","system_id":"levelo_inurba_marseille","lat":43.29525,"lon":5.38543,"is_reserved":false,"is_disabled":false,"rental_uris":{"android":"levelo://app?vid=38bff366-05c0-4999-902a-6a073f3c7d63","ios":"levelo://app?vid=38bff366-05c0-4999-902a-6a073f3c7d63"},"vehicle_type_id":"4","last_reported":1693515974,"current_range_meters":14400,"station_id":"ce4bgih2rcd13ifvqba0","pricing_plan_id":"free"},{"bike_id":"8ece6798-fe07-4f2c-a897-242837d4a521","system_id":"levelo_inurba_marseille","lat":43.29387,"lon":5.3834,"is_reserved":false,"is_disabled":false,"rental_uris":{"android":"levelo://app?vid=8ece6798-fe07-4f2c-a897-242837d4a521","ios":"levelo://app?vid=8ece6798-fe07-4f2c-a897-242837d4a521"},"vehicle_type_id":"4","last_reported":1693515974,"current_range_meters":400,"station_id":"","pricing_plan_id":"free"},{"bike_id":"bd4c5834-556b-4fac-bdb8-0427fd31e76e","system_id":"levelo_inurba_marseille","lat":43.30214,"lon":5.39467,"is_reserved":false,"is_disabled":false,"rental_uris":{"android":"levelo://app?vid=bd4c5834-556b-4fac-bdb8-0427fd31e76e","ios":"levelo://app?vid=bd4c5834-556b-4fac-bdb8-0427fd31e76e"},"vehicle_type_id":"4","last_reported":1693515974,"current_range_meters":31200,"station_id":"ce4bh0p2rcd13ifvqd70","pricing_plan_id":"free"},{"bike_id":"42aa2d9a-eb04-489e-bf79-5fa03196eb1a","system_id":"levelo_inurba_marseille","lat":43.29036,"lon":5.37558,"is_reserved":false,"is_disabled":false,"rental_uris":{"android":"levelo://app?vid=42aa2d9a-eb04-489e-bf79-5fa03196eb1a","ios":"levelo://app?vid=42aa2d9a-eb04-489e-bf79-5fa03196eb1a"},"vehicle_type_id":"4","last_reported":1693515974,"current_range_meters":6800,"station_id":"ce4bh692rcd13ifvqe90","pricing_plan_id":"free"},{"bike_id":"1269b231-f8df-44f9-9eee-19f8cb87dbe4","system_id":"levelo_inurba_marseille","lat":43.2942,"lon":5.38623,"is_reserved":false,"is_disabled":false,"rental_uris":{"android":"levelo://app?vid=1269b231-f8df-44f9-9eee-19f8cb87dbe4","ios":"levelo://app?vid=1269b231-f8df-44f9-9eee-19f8cb87dbe4"},"vehicle_type_id":"4","last_reported":1693515974,"current_range_meters":8800,"station_id":"","pricing_plan_id":"free"},{"bike_id":"127d5f10-5c6c-4e97-bc6a-5daa30ea6293","system_id":"levelo_inurba_marseille","lat":43.29416,"lon":5.38622,"is_reserved":false,"is_disabled":false,"rental_uris":{"android":"levelo://app?vid=127d5f10-5c6c-4e97-bc6a-5daa30ea6293","ios":"levelo://app?vid=127d5f10-5c6c-4e97-bc6a-5daa30ea6293"},"vehicle_type_id":"4","last_reported":1693515974,"current_range_meters":5200,"station_id":"ce4bh2h2rcd13ifvqdh0","pricing_plan_id":"free"},{"bike_id":"d5def59f-e01b-40aa-8bdc-a6c4c6c922b0","system_id":"levelo_inurba_marseille","lat":43.294153,"lon":5.386305,"is_reserved":false,"is_disabled":false,"rental_uris":{"android":"levelo://app?vid=d5def59f-e01b-40aa-8bdc-a6c4c6c922b0","ios":"levelo://app?vid=d5def59f-e01b-40aa-8bdc-a6c4c6c922b0"},"vehicle_type_id":"4","last_reported":1693515974,"current_range_meters":19200,"station_id":"ce4bh2h2rcd13ifvqdh0","pricing_plan_id":"free"},{"bike_id":"d8b214b2-a37a-4d67-916c-a8af2b7fdeab","system_id":"levelo_inurba_marseille","lat":43.29414,"lon":5.38625,"is_reserved":false,"is_disabled":false,"rental_uris":{"android":"levelo://app?vid=d8b214b2-a37a-4d67-916c-a8af2b7fdeab","ios":"levelo://app?vid=d8b214b2-a37a-4d67-916c-a8af2b7fdeab"},"vehicle_type_id":"4","last_reported":1693515974,"current_range_meters":30000,"station_id":"ce4bh2h2rcd13ifvqdh0","pricing_plan_id":"free"},{"bike_id":"c9cd1d97-48a6-4a6c-aa8a-6f470aede447","system_id":"levelo_inurba_marseille","lat":43.29031,"lon":5.3757,"is_reserved":false,"is_disabled":false,"rental_uris":{"android":"levelo://app?vid=c9cd1d97-48a6-4a6c-aa8a-6f470aede447","ios":"levelo://app?vid=c9cd1d97-48a6-4a6c-aa8a-6f470aede447"},"vehicle_type_id":"4","last_reported":1693515974,"current_range_meters":21200,"station_id":"","pricing_plan_id":"free"},{"bike_id":"1fbc37e7-6550-4776-9302-130e97958a86","system_id":"levelo_inurba_marseille","lat":43.294153,"lon":5.386305,"is_reserved":false,"is_disabled":false,"rental_uris":{"android":"levelo://app?vid=1fbc37e7-6550-4776-9302-130e97958a86","ios":"levelo://app?vid=1fbc37e7-6550-4776-9302-130e97958a86"},"vehicle_type_id":"4","last_reported":1693515974,"current_range_meters":6000,"station_id":"ce4bh2h2rcd13ifvqdh0","pricing_plan_id":"free"},{"bike_id":"30cb7a44-4515-42d5-94f7-ba049e918346","system_id":"levelo_inurba_marseille","lat":43.29412,"lon":5.38625,"is_reserved":false,"is_disabled":false,"rental_uris":{"android":"levelo://app?vid=30cb7a44-4515-42d5-94f7-ba049e918346","ios":"levelo://app?vid=30cb7a44-4515-42d5-94f7-ba049e918346"},"vehicle_type_id":"4","last_reported":1693515974,"current_range_meters":400,"station_id":"ce4bh2h2rcd13ifvqdh0","pricing_plan_id":"free"},{"bike_id":"2f93318d-a393-4e93-88c9-60d3ec241b0e","system_id":"levelo_inurba_marseille","lat":43.28941,"lon":5.36632,"is_reserved":false,"is_disabled":false,"rental_uris":{"android":"levelo://app?vid=2f93318d-a393-4e93-88c9-60d3ec241b0e","ios":"levelo://app?vid=2f93318d-a393-4e93-88c9-60d3ec241b0e"},"vehicle_type_id":"4","last_reported":1693515974,"current_range_meters":30400,"station_id":"ce4bhap2rcd13ifvqek0","pricing_plan_id":"free"},{"bike_id":"1cf275d1-1308-411a-bd93-657bac551aca","system_id":"levelo_inurba_marseille","lat":43.294162,"lon":5.386292,"is_reserved":false,"is_disabled":false,"rental_uris":{"android":"levelo://app?vid=1cf275d1-1308-411a-bd93-657bac551aca","ios":"levelo://app?vid=1cf275d1-1308-411a-bd93-657bac551aca"},"vehicle_type_id":"4","last_reported":1693515974,"current_range_meters":32000,"station_id":"ce4bh2h2rcd13ifvqdh0","pricing_plan_id":"free"},{"bike_id":"8dbcb37c-7d82-4e0d-99c8-c9a5e80879f2","system_id":"levelo_inurba_marseille","lat":43.294162,"lon":5.386292,"is_reserved":false,"is_disabled":false,"rental_uris":{"android":"levelo://app?vid=8dbcb37c-7d82-4e0d-99c8-c9a5e80879f2","ios":"levelo://app?vid=8dbcb37c-7d82-4e0d-99c8-c9a5e80879f2"},"vehicle_type_id":"4","last_reported":1693515974,"current_range_meters":5600,"station_id":"ce4bh2h2rcd13ifvqdh0","pricing_plan_id":"free"},{"bike_id":"a03f68fe-e623-418c-961e-baaf6038e1fb","system_id":"levelo_inurba_marseille","lat":43.289184,"lon":5.366408,"is_reserved":false,"is_disabled":false,"rental_uris":{"android":"levelo://app?vid=a03f68fe-e623-418c-961e-baaf6038e1fb","ios":"levelo://app?vid=a03f68fe-e623-418c-961e-baaf6038e1fb"},"vehicle_type_id":"4","last_reported":1693515974,"current_range_meters":30400,"station_id":"ce4bhap2rcd13ifvqek0","pricing_plan_id":"free"},{"bike_id":"c0f7b016-7300-46b2-ac05-e6ff7008fe3d","system_id":"levelo_inurba_marseille","lat":43.289184,"lon":5.366408,"is_reserved":false,"is_disabled":false,"rental_uris":{"android":"levelo://app?vid=c0f7b016-7300-46b2-ac05-e6ff7008fe3d","ios":"levelo://app?vid=c0f7b016-7300-46b2-ac05-e6ff7008fe3d"},"vehicle_type_id":"4","last_reported":1693515974,"current_range_meters":29200,"station_id":"ce4bhap2rcd13ifvqek0","pricing_plan_id":"free"},{"bike_id":"310f4f4c-6524-45af-b2bf-11c2fc49e7fd","system_id":"levelo_inurba_marseille","lat":43.294153,"lon":5.386305,"is_reserved":false,"is_disabled":false,"rental_uris":{"android":"levelo://app?vid=310f4f4c-6524-45af-b2bf-11c2fc49e7fd","ios":"levelo://app?vid=310f4f4c-6524-45af-b2bf-11c2fc49e7fd"},"vehicle_type_id":"4","last_reported":1693515974,"current_range_meters":28000,"station_id":"ce4bh2h2rcd13ifvqdh0","pricing_plan_id":"free"},{"bike_id":"f3f10931-625a-47ca-9eb2-44bc0aaf22f7","system_id":"levelo_inurba_marseille","lat":43.289468,"lon":5.363719,"is_reserved":false,"is_disabled":false,"rental_uris":{"android":"levelo://app?vid=f3f10931-625a-47ca-9eb2-44bc0aaf22f7","ios":"levelo://app?vid=f3f10931-625a-47ca-9eb2-44bc0aaf22f7"},"vehicle_type_id":"4","last_reported":1693515974,"current_range_meters":30000,"station_id":"ce4bhc92rcd13ifvqetg","pricing_plan_id":"free"},{"bike_id":"dad628ef-ab95-4bcc-b021-ead90e8ef58c","system_id":"levelo_inurba_marseille","lat":43.29268,"lon":5.38445,"is_reserved":false,"is_disabled":false,"rental_uris":{"android":"levelo://app?vid=dad628ef-ab95-4bcc-b021-ead90e8ef58c","ios":"levelo://app?vid=dad628ef-ab95-4bcc-b021-ead90e8ef58c"},"vehicle_type_id":"4","last_reported":1693515974,"current_range_meters":31200,"station_id":"ce4bh692rcd13ifvqea0","pricing_plan_id":"free"},{"bike_id":"70b2c338-a643-4495-92eb-53df7846433a","system_id":"levelo_inurba_marseille","lat":43.292644,"lon":5.384257,"is_reserved":false,"is_disabled":false,"rental_uris":{"android":"levelo://app?vid=70b2c338-a643-4495-92eb-53df7846433a","ios":"levelo://app?vid=70b2c338-a643-4495-92eb-53df7846433a"},"vehicle_type_id":"4","last_reported":1693515974,"current_range_meters":4000,"station_id":"ce4bh692rcd13ifvqea0","pricing_plan_id":"free"},{"bike_id":"2a162ff1-1ef7-4456-916d-50e4fc0122d5","system_id":"levelo_inurba_marseille","lat":43.304274,"lon":5.397513,"is_reserved":false,"is_disabled":false,"rental_uris":{"android":"levelo://app?vid=2a162ff1-1ef7-4456-916d-50e4fc0122d5","ios":"levelo://app?vid=2a162ff1-1ef7-4456-916d-50e4fc0122d5"},"vehicle_type_id":"4","last_reported":1693515974,"current_range_meters":0,"station_id":"ce4bh092rcd13ifvqd20","pricing_plan_id":"free"},{"bike_id":"3c78add8-fb68-4711-8c98-159a287b09b6","system_id":"levelo_inurba_marseille","lat":43.29265,"lon":5.38448,"is_reserved":false,"is_disabled":false,"rental_uris":{"android":"levelo://app?vid=3c78add8-fb68-4711-8c98-159a287b09b6","ios":"levelo://app?vid=3c78add8-fb68-4711-8c98-159a287b09b6"},"vehicle_type_id":"4","last_reported":1693515974,"current_range_meters":1200,"station_id":"ce4bh692rcd13ifvqea0","pricing_plan_id":"free"},{"bike_id":"041555c1-d2b0-4af6-8c1d-b13c088bed88","system_id":"levelo_inurba_marseille","lat":43.29264,"lon":5.38449,"is_reserved":false,"is_disabled":false,"rental_uris":{"android":"levelo://app?vid=041555c1-d2b0-4af6-8c1d-b13c088bed88","ios":"levelo://app?vid=041555c1-d2b0-4af6-8c1d-b13c088bed88"},"vehicle_type_id":"4","last_reported":1693515974,"current_range_meters":28800,"station_id":"ce4bh692rcd13ifvqea0","pricing_plan_id":"free"},{"bike_id":"6e06cae1-68fd-4f71-8aad-5f350b62a254","system_id":"levelo_inurba_marseille","lat":43.29255,"lon":5.38439,"is_reserved":false,"is_disabled":false,"rental_uris":{"android":"levelo://app?vid=6e06cae1-68fd-4f71-8aad-5f350b62a254","ios":"levelo://app?vid=6e06cae1-68fd-4f71-8aad-5f350b62a254"},"vehicle_type_id":"4","last_reported":1693515974,"current_range_meters":30400,"station_id":"ce4bh692rcd13ifvqea0","pricing_plan_id":"free"},{"bike_id":"ceccc87a-bc09-4f17-aa5a-b5e90f29210e","system_id":"levelo_inurba_marseille","lat":43.33034,"lon":5.38913,"is_reserved":false,"is_disabled":false,"rental_uris":{"android":"levelo://app?vid=ceccc87a-bc09-4f17-aa5a-b5e90f29210e","ios":"levelo://app?vid=ceccc87a-bc09-4f17-aa5a-b5e90f29210e"},"vehicle_type_id":"4","last_reported":1693515974,"current_range_meters":31200,"station_id":"ce4bhr92rcd13ifvqhrg","pricing_plan_id":"free"},{"bike_id":"d11b89ea-03d9-4bd1-8d94-225f53817def","system_id":"levelo_inurba_marseille","lat":43.33044,"lon":5.38916,"is_reserved":false,"is_disabled":false,"rental_uris":{"android":"levelo://app?vid=d11b89ea-03d9-4bd1-8d94-225f53817def","ios":"levelo://app?vid=d11b89ea-03d9-4bd1-8d94-225f53817def"},"vehicle_type_id":"4","last_reported":1693515974,"current_range_meters":17200,"station_id":"ce4bhr92rcd13ifvqhrg","pricing_plan_id":"free"},{"bike_id":"eed6fdbf-9470-49dd-b5db-5589c61979b7","system_id":"levelo_inurba_marseille","lat":43.33043,"lon":5.38919,"is_reserved":false,"is_disabled":false,"rental_uris":{"android":"levelo://app?vid=eed6fdbf-9470-49dd-b5db-5589c61979b7","ios":"levelo://app?vid=eed6fdbf-9470-49dd-b5db-5589c61979b7"},"vehicle_type_id":"4","last_reported":1693515974,"current_range_meters":14000,"station_id":"ce4bhr92rcd13ifvqhrg","pricing_plan_id":"free"},{"bike_id":"85d3fcbb-b3e0-4fc3-8e4f-a6c1a1674e24","system_id":"levelo_inurba_marseille","lat":43.33039,"lon":5.38926,"is_reserved":false,"is_disabled":false,"rental_uris":{"android":"levelo://app?vid=85d3fcbb-b3e0-4fc3-8e4f-a6c1a1674e24","ios":"levelo://app?vid=85d3fcbb-b3e0-4fc3-8e4f-a6c1a1674e24"},"vehicle_type_id":"4","last_reported":1693515974,"current_range_meters":31200,"station_id":"ce4bhr92rcd13ifvqhrg","pricing_plan_id":"free"},{"bike_id":"4e30d318-d393-470d-bf06-98566a9cf8f0","system_id":"levelo_inurba_marseille","lat":43.330437,"lon":5.389218,"is_reserved":false,"is_disabled":false,"rental_uris":{"android":"levelo://app?vid=4e30d318-d393-470d-bf06-98566a9cf8f0","ios":"levelo://app?vid=4e30d318-d393-470d-bf06-98566a9cf8f0"},"vehicle_type_id":"4","last_reported":1693515974,"current_range_meters":21200,"station_id":"","pricing_plan_id":"free"},{"bike_id":"4d9b8553-77fc-41f2-8d1a-d8ec15d7d40c","system_id":"levelo_inurba_marseille","lat":43.33047,"lon":5.38917,"is_reserved":false,"is_disabled":false,"rental_uris":{"android":"levelo://app?vid=4d9b8553-77fc-41f2-8d1a-d8ec15d7d40c","ios":"levelo://app?vid=4d9b8553-77fc-41f2-8d1a-d8ec15d7d40c"},"vehicle_type_id":"4","last_reported":1693515974,"current_range_meters":7600,"station_id":"ce4bhr92rcd13ifvqhrg","pricing_plan_id":"free"},{"bike_id":"d346ead7-ea15-4af0-898b-f25c067a214a","system_id":"levelo_inurba_marseille","lat":43.33044,"lon":5.38924,"is_reserved":false,"is_disabled":false,"rental_uris":{"android":"levelo://app?vid=d346ead7-ea15-4af0-898b-f25c067a214a","ios":"levelo://app?vid=d346ead7-ea15-4af0-898b-f25c067a214a"},"vehicle_type_id":"4","last_reported":1693515974,"current_range_meters":27200,"station_id":"ce4bhr92rcd13ifvqhrg","pricing_plan_id":"free"},{"bike_id":"028b16b4-c861-455c-93e2-214442c48086","system_id":"levelo_inurba_marseille","lat":43.290103,"lon":5.356114,"is_reserved":false,"is_disabled":false,"rental_uris":{"android":"levelo://app?vid=028b16b4-c861-455c-93e2-214442c48086","ios":"levelo://app?vid=028b16b4-c861-455c-93e2-214442c48086"},"vehicle_type_id":"4","last_reported":1693515974,"current_range_meters":30800,"station_id":"ce4bhb92rcd13ifvqen0","pricing_plan_id":"free"},{"bike_id":"1895038e-acdb-4d35-aa35-e1291f23a30a","system_id":"levelo_inurba_marseille","lat":43.290104,"lon":5.356111,"is_reserved":false,"is_disabled":false,"rental_uris":{"android":"levelo://app?vid=1895038e-acdb-4d35-aa35-e1291f23a30a","ios":"levelo://app?vid=1895038e-acdb-4d35-aa35-e1291f23a30a"},"vehicle_type_id":"4","last_reported":1693515974,"current_range_meters":31200,"station_id":"ce4bhb92rcd13ifvqen0","pricing_plan_id":"free"},{"bike_id":"8713c042-c057-45d4-ba74-2404b54d4b18","system_id":"levelo_inurba_marseille","lat":43.290995,"lon":5.381361,"is_reserved":false,"is_disabled":false,"rental_uris":{"android":"levelo://app?vid=8713c042-c057-45d4-ba74-2404b54d4b18","ios":"levelo://app?vid=8713c042-c057-45d4-ba74-2404b54d4b18"},"vehicle_type_id":"4","last_reported":1693515974,"current_range_meters":27200,"station_id":"ce4bh512rcd13ifvqe2g","pricing_plan_id":"free"},{"bike_id":"74f8ec96-92f0-4e89-8aa1-dc7dc990987b","system_id":"levelo_inurba_marseille","lat":43.290995,"lon":5.381361,"is_reserved":false,"is_disabled":false,"rental_uris":{"android":"levelo://app?vid=74f8ec96-92f0-4e89-8aa1-dc7dc990987b","ios":"levelo://app?vid=74f8ec96-92f0-4e89-8aa1-dc7dc990987b"},"vehicle_type_id":"4","last_reported":1693515974,"current_range_meters":3600,"station_id":"ce4bh512rcd13ifvqe2g","pricing_plan_id":"free"},{"bike_id":"5aace7f0-6da2-472a-9163-7dbf6c5341da","system_id":"levelo_inurba_marseille","lat":43.295169,"lon":5.390426,"is_reserved":false,"is_disabled":false,"rental_uris":{"android":"levelo://app?vid=5aace7f0-6da2-472a-9163-7dbf6c5341da","ios":"levelo://app?vid=5aace7f0-6da2-472a-9163-7dbf6c5341da"},"vehicle_type_id":"4","last_reported":1693515974,"current_range_meters":24400,"station_id":"ce4bh3p2rcd13ifvqdp0","pricing_plan_id":"free"},{"bike_id":"2d29dc5e-55ba-4d5c-b741-275aef79d5b3","system_id":"levelo_inurba_marseille","lat":43.295169,"lon":5.390426,"is_reserved":false,"is_disabled":false,"rental_uris":{"android":"levelo://app?vid=2d29dc5e-55ba-4d5c-b741-275aef79d5b3","ios":"levelo://app?vid=2d29dc5e-55ba-4d5c-b741-275aef79d5b3"},"vehicle_type_id":"4","last_reported":1693515974,"current_range_meters":28800,"station_id":"ce4bh3p2rcd13ifvqdp0","pricing_plan_id":"free"},{"bike_id":"18579c07-be6f-4597-92a4-a85860f62c6b","system_id":"levelo_inurba_marseille","lat":43.2901,"lon":5.381269,"is_reserved":false,"is_disabled":false,"rental_uris":{"android":"levelo://app?vid=18579c07-be6f-4597-92a4-a85860f62c6b","ios":"levelo://app?vid=18579c07-be6f-4597-92a4-a85860f62c6b"},"vehicle_type_id":"4","last_reported":1693515974,"current_range_meters":29600,"station_id":"ce4bh4p2rcd13ifvqe1g","pricing_plan_id":"free"},{"bike_id":"a2b1472e-82a7-45c0-b29e-45fc7225b773","system_id":"levelo_inurba_marseille","lat":43.290227,"lon":5.381329,"is_reserved":false,"is_disabled":false,"rental_uris":{"android":"levelo://app?vid=a2b1472e-82a7-45c0-b29e-45fc7225b773","ios":"levelo://app?vid=a2b1472e-82a7-45c0-b29e-45fc7225b773"},"vehicle_type_id":"4","last_reported":1693515974,"current_range_meters":29200,"station_id":"ce4bh4p2rcd13ifvqe1g","pricing_plan_id":"free"},{"bike_id":"1d9352ac-6161-451c-9bd5-a9bf04be3b1d","system_id":"levelo_inurba_marseille","lat":43.28856,"lon":5.358371,"is_reserved":false,"is_disabled":false,"rental_uris":{"android":"levelo://app?vid=1d9352ac-6161-451c-9bd5-a9bf04be3b1d","ios":"levelo://app?vid=1d9352ac-6161-451c-9bd5-a9bf04be3b1d"},"vehicle_type_id":"4","last_reported":1693515974,"current_range_meters":12400,"station_id":"ce4bhb12rcd13ifvqem0","pricing_plan_id":"free"},{"bike_id":"554f6af1-a6d1-4bfa-b292-6eabb65d2b15","system_id":"levelo_inurba_marseille","lat":43.28857,"lon":5.35863,"is_reserved":false,"is_disabled":false,"rental_uris":{"android":"levelo://app?vid=554f6af1-a6d1-4bfa-b292-6eabb65d2b15","ios":"levelo://app?vid=554f6af1-a6d1-4bfa-b292-6eabb65d2b15"},"vehicle_type_id":"4","last_reported":1693515974,"current_range_meters":10000,"station_id":"ce4bhb12rcd13ifvqem0","pricing_plan_id":"free"},{"bike_id":"f2400329-9dc1-4467-ba9c-4b91bc7268af","system_id":"levelo_inurba_marseille","lat":43.28856,"lon":5.35847,"is_reserved":false,"is_disabled":false,"rental_uris":{"android":"levelo://app?vid=f2400329-9dc1-4467-ba9c-4b91bc7268af","ios":"levelo://app?vid=f2400329-9dc1-4467-ba9c-4b91bc7268af"},"vehicle_type_id":"4","last_reported":1693515974,"current_range_meters":24800,"station_id":"ce4bhb12rcd13ifvqem0","pricing_plan_id":"free"},{"bike_id":"132e539c-75fb-49f5-8856-9085a009171d","system_id":"levelo_inurba_marseille","lat":43.28856,"lon":5.358371,"is_reserved":false,"is_disabled":false,"rental_uris":{"android":"levelo://app?vid=132e539c-75fb-49f5-8856-9085a009171d","ios":"levelo://app?vid=132e539c-75fb-49f5-8856-9085a009171d"},"vehicle_type_id":"4","last_reported":1693515974,"current_range_meters":9200,"station_id":"ce4bhb12rcd13ifvqem0","pricing_plan_id":"free"},{"bike_id":"b68a05bc-5031-4fcb-a75f-f8f082c494fc","system_id":"levelo_inurba_marseille","lat":43.3127,"lon":5.40165,"is_reserved":false,"is_disabled":false,"rental_uris":{"android":"levelo://app?vid=b68a05bc-5031-4fcb-a75f-f8f082c494fc","ios":"levelo://app?vid=b68a05bc-5031-4fcb-a75f-f8f082c494fc"},"vehicle_type_id":"4","last_reported":1693515974,"current_range_meters":5200,"station_id":"ce4bh092rcd13ifvqd30","pricing_plan_id":"free"},{"bike_id":"c1d62780-9a9d-413f-b902-1c1792b30bb8","system_id":"levelo_inurba_marseille","lat":43.30938,"lon":5.40145,"is_reserved":false,"is_disabled":false,"rental_uris":{"android":"levelo://app?vid=c1d62780-9a9d-413f-b902-1c1792b30bb8","ios":"levelo://app?vid=c1d62780-9a9d-413f-b902-1c1792b30bb8"},"vehicle_type_id":"4","last_reported":1693515974,"current_range_meters":0,"station_id":"ce4bgvp2rcd13ifvqct0","pricing_plan_id":"free"},{"bike_id":"f0bc2004-863c-42b6-afed-e8bfe56e5520","system_id":"levelo_inurba_marseille","lat":43.31266,"lon":5.40178,"is_reserved":false,"is_disabled":false,"rental_uris":{"android":"levelo://app?vid=f0bc2004-863c-42b6-afed-e8bfe56e5520","ios":"levelo://app?vid=f0bc2004-863c-42b6-afed-e8bfe56e5520"},"vehicle_type_id":"4","last_reported":1693515974,"current_range_meters":6000,"station_id":"ce4bh092rcd13ifvqd30","pricing_plan_id":"free"},{"bike_id":"d3580968-fe25-4585-8899-8a88ce38b9a1","system_id":"levelo_inurba_marseille","lat":43.31268,"lon":5.40183,"is_reserved":false,"is_disabled":false,"rental_uris":{"android":"levelo://app?vid=d3580968-fe25-4585-8899-8a88ce38b9a1","ios":"levelo://app?vid=d3580968-fe25-4585-8899-8a88ce38b9a1"},"vehicle_type_id":"4","last_reported":1693515974,"current_range_meters":12800,"station_id":"ce4bh092rcd13ifvqd30","pricing_plan_id":"free"},{"bike_id":"ac5ca390-354e-44c9-8e9e-b99aaba0527d","system_id":"levelo_inurba_marseille","lat":43.30645,"lon":5.40075,"is_reserved":false,"is_disabled":false,"rental_uris":{"android":"levelo://app?vid=ac5ca390-354e-44c9-8e9e-b99aaba0527d","ios":"levelo://app?vid=ac5ca390-354e-44c9-8e9e-b99aaba0527d"},"vehicle_type_id":"4","last_reported":1693515974,"current_range_meters":14800,"station_id":"ce4bh112rcd13ifvqda0","pricing_plan_id":"free"},{"bike_id":"32d23beb-ab00-4ce9-a0e7-650aed08b142","system_id":"levelo_inurba_marseille","lat":43.30636,"lon":5.4008,"is_reserved":false,"is_disabled":false,"rental_uris":{"android":"levelo://app?vid=32d23beb-ab00-4ce9-a0e7-650aed08b142","ios":"levelo://app?vid=32d23beb-ab00-4ce9-a0e7-650aed08b142"},"vehicle_type_id":"4","last_reported":1693515974,"current_range_meters":0,"station_id":"ce4bh112rcd13ifvqda0","pricing_plan_id":"free"},{"bike_id":"1a245a12-247c-4310-8227-d60ec709bd70","system_id":"levelo_inurba_marseille","lat":43.3065,"lon":5.4009,"is_reserved":false,"is_disabled":false,"rental_uris":{"android":"levelo://app?vid=1a245a12-247c-4310-8227-d60ec709bd70","ios":"levelo://app?vid=1a245a12-247c-4310-8227-d60ec709bd70"},"vehicle_type_id":"4","last_reported":1693515974,"current_range_meters":17200,"station_id":"ce4bh112rcd13ifvqda0","pricing_plan_id":"free"},{"bike_id":"0ce85060-ca7d-488c-aea3-8447fa080b53","system_id":"levelo_inurba_marseille","lat":43.30632,"lon":5.40089,"is_reserved":false,"is_disabled":false,"rental_uris":{"android":"levelo://app?vid=0ce85060-ca7d-488c-aea3-8447fa080b53","ios":"levelo://app?vid=0ce85060-ca7d-488c-aea3-8447fa080b53"},"vehicle_type_id":"4","last_reported":1693515974,"current_range_meters":20000,"station_id":"ce4bh112rcd13ifvqda0","pricing_plan_id":"free"},{"bike_id":"f18057ea-de22-4d4f-85b3-567cd26c841f","system_id":"levelo_inurba_marseille","lat":43.3064,"lon":5.40094,"is_reserved":false,"is_disabled":false,"rental_uris":{"android":"levelo://app?vid=f18057ea-de22-4d4f-85b3-567cd26c841f","ios":"levelo://app?vid=f18057ea-de22-4d4f-85b3-567cd26c841f"},"vehicle_type_id":"4","last_reported":1693515974,"current_range_meters":14800,"station_id":"ce4bh112rcd13ifvqda0","pricing_plan_id":"free"},{"bike_id":"f03f66d6-5844-4ee5-80b9-c7517b2a1bc9","system_id":"levelo_inurba_marseille","lat":43.30647,"lon":5.40099,"is_reserved":false,"is_disabled":false,"rental_uris":{"android":"levelo://app?vid=f03f66d6-5844-4ee5-80b9-c7517b2a1bc9","ios":"levelo://app?vid=f03f66d6-5844-4ee5-80b9-c7517b2a1bc9"},"vehicle_type_id":"4","last_reported":1693515974,"current_range_meters":4800,"station_id":"ce4bh112rcd13ifvqda0","pricing_plan_id":"free"},{"bike_id":"8affe3bd-078b-42ea-99e2-5c0e6b036425","system_id":"levelo_inurba_marseille","lat":43.30642,"lon":5.401031,"is_reserved":false,"is_disabled":false,"rental_uris":{"android":"levelo://app?vid=8affe3bd-078b-42ea-99e2-5c0e6b036425","ios":"levelo://app?vid=8affe3bd-078b-42ea-99e2-5c0e6b036425"},"vehicle_type_id":"4","last_reported":1693515974,"current_range_meters":12000,"station_id":"ce4bh112rcd13ifvqda0","pricing_plan_id":"free"},{"bike_id":"2bbc36d3-aeaa-4702-84e7-2dfb69da76f8","system_id":"levelo_inurba_marseille","lat":43.30639,"lon":5.40106,"is_reserved":false,"is_disabled":false,"rental_uris":{"android":"levelo://app?vid=2bbc36d3-aeaa-4702-84e7-2dfb69da76f8","ios":"levelo://app?vid=2bbc36d3-aeaa-4702-84e7-2dfb69da76f8"},"vehicle_type_id":"4","last_reported":1693515974,"current_range_meters":20800,"station_id":"ce4bh112rcd13ifvqda0","pricing_plan_id":"free"},{"bike_id":"64d4d48a-9f87-4b48-984b-0b3cf1d9c0a9","system_id":"levelo_inurba_marseille","lat":43.28706,"lon":5.37386,"is_reserved":false,"is_disabled":false,"rental_uris":{"android":"levelo://app?vid=64d4d48a-9f87-4b48-984b-0b3cf1d9c0a9","ios":"levelo://app?vid=64d4d48a-9f87-4b48-984b-0b3cf1d9c0a9"},"vehicle_type_id":"4","last_reported":1693515974,"current_range_meters":21200,"station_id":"ce4bh3p2rcd13ifvqdq0","pricing_plan_id":"free"},{"bike_id":"75199276-b705-4ad7-b6a9-49aeaa84628a","system_id":"levelo_inurba_marseille","lat":43.28668,"lon":5.363437,"is_reserved":false,"is_disabled":false,"rental_uris":{"android":"levelo://app?vid=75199276-b705-4ad7-b6a9-49aeaa84628a","ios":"levelo://app?vid=75199276-b705-4ad7-b6a9-49aeaa84628a"},"vehicle_type_id":"4","last_reported":1693515974,"current_range_meters":29600,"station_id":"ce4bhah2rcd13ifvqej0","pricing_plan_id":"free"},{"bike_id":"5c24a42b-cc56-4a1a-a4be-fdfcb421222e","system_id":"levelo_inurba_marseille","lat":43.28664,"lon":5.36351,"is_reserved":false,"is_disabled":false,"rental_uris":{"android":"levelo://app?vid=5c24a42b-cc56-4a1a-a4be-fdfcb421222e","ios":"levelo://app?vid=5c24a42b-cc56-4a1a-a4be-fdfcb421222e"},"vehicle_type_id":"4","last_reported":1693515974,"current_range_meters":31200,"station_id":"ce4bhah2rcd13ifvqej0","pricing_plan_id":"free"},{"bike_id":"2365150f-73ab-4507-aea4-76016e6109c8","system_id":"levelo_inurba_marseille","lat":43.286593,"lon":5.363346,"is_reserved":false,"is_disabled":false,"rental_uris":{"android":"levelo://app?vid=2365150f-73ab-4507-aea4-76016e6109c8","ios":"levelo://app?vid=2365150f-73ab-4507-aea4-76016e6109c8"},"vehicle_type_id":"4","last_reported":1693515974,"current_range_meters":31200,"station_id":"ce4bhah2rcd13ifvqej0","pricing_plan_id":"free"},{"bike_id":"cedd28a1-83ab-4002-870a-1061637809c0","system_id":"levelo_inurba_marseille","lat":43.286976,"lon":5.373721,"is_reserved":false,"is_disabled":false,"rental_uris":{"android":"levelo://app?vid=cedd28a1-83ab-4002-870a-1061637809c0","ios":"levelo://app?vid=cedd28a1-83ab-4002-870a-1061637809c0"},"vehicle_type_id":"4","last_reported":1693515974,"current_range_meters":31600,"station_id":"ce4bh3p2rcd13ifvqdq0","pricing_plan_id":"free"},{"bike_id":"32ca0286-c3ad-4617-a680-4d06b07b1a4c","system_id":"levelo_inurba_marseille","lat":43.286961,"lon":5.373785,"is_reserved":false,"is_disabled":false,"rental_uris":{"android":"levelo://app?vid=32ca0286-c3ad-4617-a680-4d06b07b1a4c","ios":"levelo://app?vid=32ca0286-c3ad-4617-a680-4d06b07b1a4c"},"vehicle_type_id":"4","last_reported":1693515974,"current_range_meters":14000,"station_id":"ce4bh3p2rcd13ifvqdq0","pricing_plan_id":"free"},{"bike_id":"f5b318ec-31b4-4aa3-aa5e-d7ca37f77522","system_id":"levelo_inurba_marseille","lat":43.295196,"lon":5.39397,"is_reserved":false,"is_disabled":false,"rental_uris":{"android":"levelo://app?vid=f5b318ec-31b4-4aa3-aa5e-d7ca37f77522","ios":"levelo://app?vid=f5b318ec-31b4-4aa3-aa5e-d7ca37f77522"},"vehicle_type_id":"4","last_reported":1693515974,"current_range_meters":12800,"station_id":"ce4bh292rcd13ifvqdf0","pricing_plan_id":"free"},{"bike_id":"4fd243bb-6585-4a8c-88ee-b88191ff48c5","system_id":"levelo_inurba_marseille","lat":43.28695,"lon":5.37398,"is_reserved":false,"is_disabled":false,"rental_uris":{"android":"levelo://app?vid=4fd243bb-6585-4a8c-88ee-b88191ff48c5","ios":"levelo://app?vid=4fd243bb-6585-4a8c-88ee-b88191ff48c5"},"vehicle_type_id":"4","last_reported":1693515974,"current_range_meters":31200,"station_id":"ce4bh3p2rcd13ifvqdq0","pricing_plan_id":"free"},{"bike_id":"94f9e37f-4a0f-40ad-bb49-85ea3433508a","system_id":"levelo_inurba_marseille","lat":43.28694,"lon":5.37394,"is_reserved":false,"is_disabled":false,"rental_uris":{"android":"levelo://app?vid=94f9e37f-4a0f-40ad-bb49-85ea3433508a","ios":"levelo://app?vid=94f9e37f-4a0f-40ad-bb49-85ea3433508a"},"vehicle_type_id":"4","last_reported":1693515974,"current_range_meters":12400,"station_id":"ce4bh3p2rcd13ifvqdq0","pricing_plan_id":"free"},{"bike_id":"20fe1189-67f7-4313-8511-5768fb92aa3b","system_id":"levelo_inurba_marseille","lat":43.28693,"lon":5.3739,"is_reserved":false,"is_disabled":false,"rental_uris":{"android":"levelo://app?vid=20fe1189-67f7-4313-8511-5768fb92aa3b","ios":"levelo://app?vid=20fe1189-67f7-4313-8511-5768fb92aa3b"},"vehicle_type_id":"4","last_reported":1693515974,"current_range_meters":31200,"station_id":"ce4bh3p2rcd13ifvqdq0","pricing_plan_id":"free"},{"bike_id":"1685caf6-6a2c-414c-aa8f-90c7e3639759","system_id":"levelo_inurba_marseille","lat":43.28692,"lon":5.37396,"is_reserved":false,"is_disabled":false,"rental_uris":{"android":"levelo://app?vid=1685caf6-6a2c-414c-aa8f-90c7e3639759","ios":"levelo://app?vid=1685caf6-6a2c-414c-aa8f-90c7e3639759"},"vehicle_type_id":"4","last_reported":1693515974,"current_range_meters":30800,"station_id":"ce4bh3p2rcd13ifvqdq0","pricing_plan_id":"free"},{"bike_id":"799c2e73-41ee-40f6-9a1b-d684fa4ac2ab","system_id":"levelo_inurba_marseille","lat":43.290345,"lon":5.38646,"is_reserved":false,"is_disabled":false,"rental_uris":{"android":"levelo://app?vid=799c2e73-41ee-40f6-9a1b-d684fa4ac2ab","ios":"levelo://app?vid=799c2e73-41ee-40f6-9a1b-d684fa4ac2ab"},"vehicle_type_id":"4","last_reported":1693515974,"current_range_meters":31200,"station_id":"ce4bh4p2rcd13ifvqe0g","pricing_plan_id":"free"},{"bike_id":"2d6aaca1-7167-47a9-9992-68b9d42032a9","system_id":"levelo_inurba_marseille","lat":43.29034,"lon":5.38648,"is_reserved":false,"is_disabled":false,"rental_uris":{"android":"levelo://app?vid=2d6aaca1-7167-47a9-9992-68b9d42032a9","ios":"levelo://app?vid=2d6aaca1-7167-47a9-9992-68b9d42032a9"},"vehicle_type_id":"4","last_reported":1693515974,"current_range_meters":18800,"station_id":"ce4bh4p2rcd13ifvqe0g","pricing_plan_id":"free"},{"bike_id":"99589471-a6d8-494a-be38-3d5b199fd0b7","system_id":"levelo_inurba_marseille","lat":43.295194,"lon":5.39397,"is_reserved":false,"is_disabled":false,"rental_uris":{"android":"levelo://app?vid=99589471-a6d8-494a-be38-3d5b199fd0b7","ios":"levelo://app?vid=99589471-a6d8-494a-be38-3d5b199fd0b7"},"vehicle_type_id":"4","last_reported":1693515974,"current_range_meters":0,"station_id":"ce4bh292rcd13ifvqdf0","pricing_plan_id":"free"},{"bike_id":"900f6eab-e341-4cba-9f72-5afa5d2f7e2a","system_id":"levelo_inurba_marseille","lat":43.286039,"lon":5.370681,"is_reserved":false,"is_disabled":false,"rental_uris":{"android":"levelo://app?vid=900f6eab-e341-4cba-9f72-5afa5d2f7e2a","ios":"levelo://app?vid=900f6eab-e341-4cba-9f72-5afa5d2f7e2a"},"vehicle_type_id":"4","last_reported":1693515974,"current_range_meters":30000,"station_id":"ce4bht12rcd13ifvqi60","pricing_plan_id":"free"},{"bike_id":"cd3856c3-ccef-4377-a144-97c25e85d915","system_id":"levelo_inurba_marseille","lat":43.28615,"lon":5.37063,"is_reserved":false,"is_disabled":false,"rental_uris":{"android":"levelo://app?vid=cd3856c3-ccef-4377-a144-97c25e85d915","ios":"levelo://app?vid=cd3856c3-ccef-4377-a144-97c25e85d915"},"vehicle_type_id":"4","last_reported":1693515974,"current_range_meters":800,"station_id":"ce4bht12rcd13ifvqi60","pricing_plan_id":"free"},{"bike_id":"2f0ffa2d-cf76-4483-9e0b-f310ccd624ad","system_id":"levelo_inurba_marseille","lat":43.286039,"lon":5.370679,"is_reserved":false,"is_disabled":false,"rental_uris":{"android":"levelo://app?vid=2f0ffa2d-cf76-4483-9e0b-f310ccd624ad","ios":"levelo://app?vid=2f0ffa2d-cf76-4483-9e0b-f310ccd624ad"},"vehicle_type_id":"4","last_reported":1693515974,"current_range_meters":3600,"station_id":"ce4bht12rcd13ifvqi60","pricing_plan_id":"free"},{"bike_id":"c25cf05c-2b54-4cd8-bc38-5438bcaf9cce","system_id":"levelo_inurba_marseille","lat":43.286039,"lon":5.370681,"is_reserved":false,"is_disabled":false,"rental_uris":{"android":"levelo://app?vid=c25cf05c-2b54-4cd8-bc38-5438bcaf9cce","ios":"levelo://app?vid=c25cf05c-2b54-4cd8-bc38-5438bcaf9cce"},"vehicle_type_id":"4","last_reported":1693515974,"current_range_meters":30000,"station_id":"ce4bht12rcd13ifvqi60","pricing_plan_id":"free"},{"bike_id":"6b3e56e8-6fff-4d4d-826c-6f5621ba6ec6","system_id":"levelo_inurba_marseille","lat":43.286039,"lon":5.370679,"is_reserved":false,"is_disabled":false,"rental_uris":{"android":"levelo://app?vid=6b3e56e8-6fff-4d4d-826c-6f5621ba6ec6","ios":"levelo://app?vid=6b3e56e8-6fff-4d4d-826c-6f5621ba6ec6"},"vehicle_type_id":"4","last_reported":1693515974,"current_range_meters":22000,"station_id":"ce4bht12rcd13ifvqi60","pricing_plan_id":"free"},{"bike_id":"5f7d1634-cfb6-4d32-b398-d9819da334d8","system_id":"levelo_inurba_marseille","lat":43.28605,"lon":5.37066,"is_reserved":false,"is_disabled":false,"rental_uris":{"android":"levelo://app?vid=5f7d1634-cfb6-4d32-b398-d9819da334d8","ios":"levelo://app?vid=5f7d1634-cfb6-4d32-b398-d9819da334d8"},"vehicle_type_id":"4","last_reported":1693515974,"current_range_meters":12400,"station_id":"ce4bht12rcd13ifvqi60","pricing_plan_id":"free"},{"bike_id":"101b60af-a09f-4311-90d6-2cf293212c15","system_id":"levelo_inurba_marseille","lat":43.28603,"lon":5.37066,"is_reserved":false,"is_disabled":false,"rental_uris":{"android":"levelo://app?vid=101b60af-a09f-4311-90d6-2cf293212c15","ios":"levelo://app?vid=101b60af-a09f-4311-90d6-2cf293212c15"},"vehicle_type_id":"4","last_reported":1693515974,"current_range_meters":31200,"station_id":"ce4bht12rcd13ifvqi60","pricing_plan_id":"free"},{"bike_id":"b7d6e6a9-4c7f-4492-b8e2-3fad200aa9b9","system_id":"levelo_inurba_marseille","lat":43.287184,"lon":5.37937,"is_reserved":false,"is_disabled":false,"rental_uris":{"android":"levelo://app?vid=b7d6e6a9-4c7f-4492-b8e2-3fad200aa9b9","ios":"levelo://app?vid=b7d6e6a9-4c7f-4492-b8e2-3fad200aa9b9"},"vehicle_type_id":"4","last_reported":1693515974,"current_range_meters":12800,"station_id":"ce4bh9p2rcd13ifvqec0","pricing_plan_id":"free"},{"bike_id":"2580aaae-fad9-472e-89a4-5307945aa9f7","system_id":"levelo_inurba_marseille","lat":43.316474,"lon":5.404305,"is_reserved":false,"is_disabled":false,"rental_uris":{"android":"levelo://app?vid=2580aaae-fad9-472e-89a4-5307945aa9f7","ios":"levelo://app?vid=2580aaae-fad9-472e-89a4-5307945aa9f7"},"vehicle_type_id":"4","last_reported":1693515974,"current_range_meters":31200,"station_id":"ce4bh012rcd13ifvqd00","pricing_plan_id":"free"},{"bike_id":"5e0b65a3-4830-4efe-8df2-f90e6871cc74","system_id":"levelo_inurba_marseille","lat":43.30742,"lon":5.40394,"is_reserved":false,"is_disabled":false,"rental_uris":{"android":"levelo://app?vid=5e0b65a3-4830-4efe-8df2-f90e6871cc74","ios":"levelo://app?vid=5e0b65a3-4830-4efe-8df2-f90e6871cc74"},"vehicle_type_id":"4","last_reported":1693515974,"current_range_meters":400,"station_id":"","pricing_plan_id":"free"},{"bike_id":"1ee7ff4d-2db5-46d0-a97a-150762d061cb","system_id":"levelo_inurba_marseille","lat":43.316495,"lon":5.40433,"is_reserved":false,"is_disabled":false,"rental_uris":{"android":"levelo://app?vid=1ee7ff4d-2db5-46d0-a97a-150762d061cb","ios":"levelo://app?vid=1ee7ff4d-2db5-46d0-a97a-150762d061cb"},"vehicle_type_id":"4","last_reported":1693515974,"current_range_meters":30800,"station_id":"ce4bh012rcd13ifvqd00","pricing_plan_id":"free"},{"bike_id":"5d8438f0-e707-4dd4-a459-7949d10a73ab","system_id":"levelo_inurba_marseille","lat":43.31655,"lon":5.404387,"is_reserved":false,"is_disabled":false,"rental_uris":{"android":"levelo://app?vid=5d8438f0-e707-4dd4-a459-7949d10a73ab","ios":"levelo://app?vid=5d8438f0-e707-4dd4-a459-7949d10a73ab"},"vehicle_type_id":"4","last_reported":1693515974,"current_range_meters":18000,"station_id":"ce4bh012rcd13ifvqd00","pricing_plan_id":"free"},{"bike_id":"cc43793a-9aa6-4204-babf-e3b987b4e60c","system_id":"levelo_inurba_marseille","lat":43.30859,"lon":5.40523,"is_reserved":false,"is_disabled":false,"rental_uris":{"android":"levelo://app?vid=cc43793a-9aa6-4204-babf-e3b987b4e60c","ios":"levelo://app?vid=cc43793a-9aa6-4204-babf-e3b987b4e60c"},"vehicle_type_id":"4","last_reported":1693515974,"current_range_meters":4000,"station_id":"","pricing_plan_id":"free"},{"bike_id":"34ce472b-5243-413b-84b9-41f3b9586ebb","system_id":"levelo_inurba_marseille","lat":43.291994,"lon":5.392907,"is_reserved":false,"is_disabled":false,"rental_uris":{"android":"levelo://app?vid=34ce472b-5243-413b-84b9-41f3b9586ebb","ios":"levelo://app?vid=34ce472b-5243-413b-84b9-41f3b9586ebb"},"vehicle_type_id":"4","last_reported":1693515974,"current_range_meters":4000,"station_id":"ce4bh192rcd13ifvqdd0","pricing_plan_id":"free"},{"bike_id":"cf12bce4-a670-428f-932c-8ed3516901c3","system_id":"levelo_inurba_marseille","lat":43.291994,"lon":5.392907,"is_reserved":false,"is_disabled":false,"rental_uris":{"android":"levelo://app?vid=cf12bce4-a670-428f-932c-8ed3516901c3","ios":"levelo://app?vid=cf12bce4-a670-428f-932c-8ed3516901c3"},"vehicle_type_id":"4","last_reported":1693515974,"current_range_meters":6400,"station_id":"ce4bh192rcd13ifvqdd0","pricing_plan_id":"free"},{"bike_id":"13c40963-7066-4fb4-97d6-0a68d6978631","system_id":"levelo_inurba_marseille","lat":43.284538,"lon":5.358657,"is_reserved":false,"is_disabled":false,"rental_uris":{"android":"levelo://app?vid=13c40963-7066-4fb4-97d6-0a68d6978631","ios":"levelo://app?vid=13c40963-7066-4fb4-97d6-0a68d6978631"},"vehicle_type_id":"4","last_reported":1693515974,"current_range_meters":31200,"station_id":"ce4bhah2rcd13ifvqei0","pricing_plan_id":"free"},{"bike_id":"2b6b1938-0ac6-40e6-9de1-a6420c661e2e","system_id":"levelo_inurba_marseille","lat":43.284534,"lon":5.358662,"is_reserved":false,"is_disabled":false,"rental_uris":{"android":"levelo://app?vid=2b6b1938-0ac6-40e6-9de1-a6420c661e2e","ios":"levelo://app?vid=2b6b1938-0ac6-40e6-9de1-a6420c661e2e"},"vehicle_type_id":"4","last_reported":1693515974,"current_range_meters":30000,"station_id":"ce4bhah2rcd13ifvqei0","pricing_plan_id":"free"},{"bike_id":"fca61ddf-5086-4b84-bcda-2b5628d11dd0","system_id":"levelo_inurba_marseille","lat":43.284538,"lon":5.358657,"is_reserved":false,"is_disabled":false,"rental_uris":{"android":"levelo://app?vid=fca61ddf-5086-4b84-bcda-2b5628d11dd0","ios":"levelo://app?vid=fca61ddf-5086-4b84-bcda-2b5628d11dd0"},"vehicle_type_id":"4","last_reported":1693515974,"current_range_meters":31200,"station_id":"ce4bhah2rcd13ifvqei0","pricing_plan_id":"free"},{"bike_id":"c2df6584-17cf-4c13-b23e-779e9df97a22","system_id":"levelo_inurba_marseille","lat":43.284534,"lon":5.358662,"is_reserved":false,"is_disabled":false,"rental_uris":{"android":"levelo://app?vid=c2df6584-17cf-4c13-b23e-779e9df97a22","ios":"levelo://app?vid=c2df6584-17cf-4c13-b23e-779e9df97a22"},"vehicle_type_id":"4","last_reported":1693515974,"current_range_meters":28800,"station_id":"ce4bhah2rcd13ifvqei0","pricing_plan_id":"free"},{"bike_id":"32617297-c458-4356-ab28-aa2d7d7a1f00","system_id":"levelo_inurba_marseille","lat":43.284606,"lon":5.358949,"is_reserved":false,"is_disabled":false,"rental_uris":{"android":"levelo://app?vid=32617297-c458-4356-ab28-aa2d7d7a1f00","ios":"levelo://app?vid=32617297-c458-4356-ab28-aa2d7d7a1f00"},"vehicle_type_id":"4","last_reported":1693515974,"current_range_meters":30800,"station_id":"ce4bhah2rcd13ifvqei0","pricing_plan_id":"free"},{"bike_id":"eb4a7818-0654-45db-9894-1ec3870e24eb","system_id":"levelo_inurba_marseille","lat":43.284538,"lon":5.358657,"is_reserved":false,"is_disabled":false,"rental_uris":{"android":"levelo://app?vid=eb4a7818-0654-45db-9894-1ec3870e24eb","ios":"levelo://app?vid=eb4a7818-0654-45db-9894-1ec3870e24eb"},"vehicle_type_id":"4","last_reported":1693515974,"current_range_meters":31200,"station_id":"ce4bhah2rcd13ifvqei0","pricing_plan_id":"free"},{"bike_id":"bc87bbec-560b-4fbb-a282-0d1cc3c0392f","system_id":"levelo_inurba_marseille","lat":43.284595,"lon":5.358925,"is_reserved":false,"is_disabled":false,"rental_uris":{"android":"levelo://app?vid=bc87bbec-560b-4fbb-a282-0d1cc3c0392f","ios":"levelo://app?vid=bc87bbec-560b-4fbb-a282-0d1cc3c0392f"},"vehicle_type_id":"4","last_reported":1693515974,"current_range_meters":11600,"station_id":"","pricing_plan_id":"free"},{"bike_id":"b11b8281-02f8-4a3d-80bf-c66cc589cdcc","system_id":"levelo_inurba_marseille","lat":43.28457,"lon":5.35907,"is_reserved":false,"is_disabled":false,"rental_uris":{"android":"levelo://app?vid=b11b8281-02f8-4a3d-80bf-c66cc589cdcc","ios":"levelo://app?vid=b11b8281-02f8-4a3d-80bf-c66cc589cdcc"},"vehicle_type_id":"4","last_reported":1693515974,"current_range_meters":31200,"station_id":"ce4bhah2rcd13ifvqei0","pricing_plan_id":"free"},{"bike_id":"f74331e3-eb48-4d17-b024-989d719bd070","system_id":"levelo_inurba_marseille","lat":43.284538,"lon":5.358657,"is_reserved":false,"is_disabled":false,"rental_uris":{"android":"levelo://app?vid=f74331e3-eb48-4d17-b024-989d719bd070","ios":"levelo://app?vid=f74331e3-eb48-4d17-b024-989d719bd070"},"vehicle_type_id":"4","last_reported":1693515974,"current_range_meters":29600,"station_id":"ce4bhah2rcd13ifvqei0","pricing_plan_id":"free"},{"bike_id":"d62b2ca5-d3ea-4109-9b4f-1c777f66b098","system_id":"levelo_inurba_marseille","lat":43.284538,"lon":5.358657,"is_reserved":false,"is_disabled":false,"rental_uris":{"android":"levelo://app?vid=d62b2ca5-d3ea-4109-9b4f-1c777f66b098","ios":"levelo://app?vid=d62b2ca5-d3ea-4109-9b4f-1c777f66b098"},"vehicle_type_id":"4","last_reported":1693515974,"current_range_meters":13200,"station_id":"ce4bhah2rcd13ifvqei0","pricing_plan_id":"free"},{"bike_id":"06e032b1-85cb-4c74-a178-3b23b9713367","system_id":"levelo_inurba_marseille","lat":43.284534,"lon":5.358662,"is_reserved":false,"is_disabled":false,"rental_uris":{"android":"levelo://app?vid=06e032b1-85cb-4c74-a178-3b23b9713367","ios":"levelo://app?vid=06e032b1-85cb-4c74-a178-3b23b9713367"},"vehicle_type_id":"4","last_reported":1693515974,"current_range_meters":32000,"station_id":"ce4bhah2rcd13ifvqei0","pricing_plan_id":"free"},{"bike_id":"c52af409-f309-4d2d-83ea-5ed934d88fdd","system_id":"levelo_inurba_marseille","lat":43.284534,"lon":5.358662,"is_reserved":false,"is_disabled":false,"rental_uris":{"android":"levelo://app?vid=c52af409-f309-4d2d-83ea-5ed934d88fdd","ios":"levelo://app?vid=c52af409-f309-4d2d-83ea-5ed934d88fdd"},"vehicle_type_id":"4","last_reported":1693515974,"current_range_meters":31600,"station_id":"ce4bhah2rcd13ifvqei0","pricing_plan_id":"free"},{"bike_id":"a019faef-b545-4fb8-ad1b-5eae89e15e55","system_id":"levelo_inurba_marseille","lat":43.284534,"lon":5.358662,"is_reserved":false,"is_disabled":false,"rental_uris":{"android":"levelo://app?vid=a019faef-b545-4fb8-ad1b-5eae89e15e55","ios":"levelo://app?vid=a019faef-b545-4fb8-ad1b-5eae89e15e55"},"vehicle_type_id":"4","last_reported":1693515974,"current_range_meters":22400,"station_id":"ce4bhah2rcd13ifvqei0","pricing_plan_id":"free"},