{"last_updated":1728184655,"ttl":60,"version":"2.2","data":{"bikes":[{"bike_id":"b3fb91ee-2552-4bb1-b638-e1c008f0fbc7","system_id":"levelo_inurba_marseille","lat":43.26059,"lon":5.39395,"is_reserved":false,"is_disabled":false,"rental_uris":{"android":"levelo://app?vid=b3fb91ee-2552-4bb1-b638-e1c008f0fbc7","ios":"levelo://app?vid=b3fb91ee-2552-4bb1-b638-e1c008f0fbc7"},"vehicle_type_id":"4","last_reported":1728184655,"current_range_meters":38400,"station_id":"ce4bhh92rcd13ifvqfj0","pricing_plan_id":"cebpf4jnsgd1na2vs0mg"},{"bike_id":"e626ce58-ed24-403d-b16f-1544c4a5d89a","system_id":"levelo_inurba_marseille","lat":43.231948,"lon":5.355519,"is_reserved":false,"is_disabled":false,"rental_uris":{"android":"levelo://app?vid=e626ce58-ed24-403d-b16f-1544c4a5d89a","ios":"levelo://app?vid=e626ce58-ed24-403d-b16f-1544c4a5d89a"},"vehicle_type_id":"4","last_reported":1728184655,"current_range_meters":38000,"station_id":"ce4bhu92rcd13ifvqi70","pricing_plan_id":"cebpf4jnsgd1na2vs0mg"},{"bike_id":"8141a509-e797-4ec3-9b27-a12ebc8090b6","system_id":"levelo_inurba_marseille","lat":43.25119,"lon":5.40313,"is_reserved":false,"is_disabled":false,"rental_uris":{"android":"levelo://app?vid=8141a509-e797-4ec3-9b27-a12ebc8090b6","ios":"levelo://app?vid=8141a509-e797-4ec3-9b27-a12ebc8090b6"},"vehicle_type_id":"4","last_reported":1728184655,"current_range_meters":38400,"station_id":"ce4bhlh2rcd13ifvqgig","pricing_plan_id":"cebpf4jnsgd1na2vs0mg"},{"bike_id":"9671f252-4906-4ded-9eb9-fd7886dcac1f","system_id":"levelo_inurba_marseille","lat":43.31751,"lon":5.39007,"is_reserved":false,"is_disabled":false,"rental_uris":{"android":"levelo://app?vid=9671f252-4906-4ded-9eb9-fd7886dcac1f","ios":"levelo://app?vid=9671f252-4906-4ded-9eb9-fd7886dcac1f"},"vehicle_type_id":"4","last_reported":1728184655,"current_range_meters":38400,"station_id":"ce4bhqp2rcd13ifvqhng","pricing_plan_id":"cebpf4jnsgd1na2vs0mg"},{"bike_id":"1983c93e-c965-4222-b577-534bb342f583","system_id":"levelo_inurba_marseille","lat":43.24161,"lon":5.39724,"is_reserved":false,"is_disabled":false,"rental_uris":{"android":"levelo://app?vid=1983c93e-c965-4222-b577-534bb342f583","ios":"levelo://app?vid=1983c93e-c965-4222-b577-534bb342f583"},"vehicle_type_id":"4","last_reported":1728184655,"current_range_meters":39200,"station_id":"ce4bhn12rcd13ifvqgpg","pricing_plan_id":"cebpf4jnsgd1na2vs0mg"},{"bike_id":"442824c6-8b63-4a71-93f0-6531329b40f0","system_id":"levelo_inurba_marseille","lat":43.29188,"lon":5.35795,"is_reserved":false,"is_disabled":false,"rental_uris":{"android":"levelo://app?vid=442824c6-8b63-4a71-93f0-6531329b40f0","ios":"levelo://app?vid=442824c6-8b63-4a71-93f0-6531329b40f0"},"vehicle_type_id":"4","last_reported":1728184655,"current_range_meters":30000,"station_id":"ce4bhb12rcd13ifvqel0","pricing_plan_id":"cebpf4jnsgd1na2vs0mg"},{"bike_id":"3edccbad-c604-40df-acb2-6e9d91b67298","system_id":"levelo_inurba_marseille","lat":43.33768,"lon":5.37429,"is_reserved":false,"is_disabled":false,"rental_uris":{"android":"levelo://app?vid=3edccbad-c604-40df-acb2-6e9d91b67298","ios":"levelo://app?vid=3edccbad-c604-40df-acb2-6e9d91b67298"},"vehicle_type_id":"4","last_reported":1728184655,"current_range_meters":30800,"station_id":"","pricing_plan_id":"cebpf4jnsgd1na2vs0mg"},{"bike_id":"09c53e36-d9b8-4544-8eb2-f1537b93caf8","system_id":"levelo_inurba_marseille","lat":43.29573,"lon":5.39969,"is_reserved":false,"is_disabled":false,"rental_uris":{"android":"levelo://app?vid=09c53e36-d9b8-4544-8eb2-f1537b93caf8","ios":"levelo://app?vid=09c53e36-d9b8-4544-8eb2-f1537b93caf8"},"vehicle_type_id":"4","last_reported":1728184655,"current_range_meters":38000,"station_id":"ce4bh312rcd13ifvqdj0","pricing_plan_id":"cebpf4jnsgd1na2vs0mg"},{"bike_id":"f42ba909-c6af-4d4c-bcad-ee9c6f8944ff","system_id":"levelo_inurba_marseille","lat":43.31747,"lon":5.39043,"is_reserved":false,"is_disabled":false,"rental_uris":{"android":"levelo://app?vid=f42ba909-c6af-4d4c-bcad-ee9c6f8944ff","ios":"levelo://app?vid=f42ba909-c6af-4d4c-bcad-ee9c6f8944ff"},"vehicle_type_id":"4","last_reported":1728184655,"current_range_meters":38800,"station_id":"ce4bhqp2rcd13ifvqhng","pricing_plan_id":"cebpf4jnsgd1na2vs0mg"},{"bike_id":"3909790d-3de1-474b-a13a-3b4e83c3bcea","system_id":"levelo_inurba_marseille","lat":43.28708,"lon":5.39971,"is_reserved":false,"is_disabled":false,"rental_uris":{"android":"levelo://app?vid=3909790d-3de1-474b-a13a-3b4e83c3bcea","ios":"levelo://app?vid=3909790d-3de1-474b-a13a-3b4e83c3bcea"},"vehicle_type_id":"4","last_reported":1728184655,"current_range_meters":39200,"station_id":"ce4bho92rcd13ifvqh3g","pricing_plan_id":"cebpf4jnsgd1na2vs0mg"},{"bike_id":"b8dec4cf-aa31-4f5e-aa1a-10311b6d7c46","system_id":"levelo_inurba_marseille","lat":43.29043,"lon":5.35913,"is_reserved":false,"is_disabled":false,"rental_uris":{"android":"levelo://app?vid=b8dec4cf-aa31-4f5e-aa1a-10311b6d7c46","ios":"levelo://app?vid=b8dec4cf-aa31-4f5e-aa1a-10311b6d7c46"},"vehicle_type_id":"4","last_reported":1728184655,"current_range_meters":38800,"station_id":"ce4bha92rcd13ifvqeg0","pricing_plan_id":"cebpf4jnsgd1na2vs0mg"},{"bike_id":"0690d114-c8c7-4e46-a5a2-7f449cdff008","system_id":"levelo_inurba_marseille","lat":43.30801,"lon":5.43522,"is_reserved":false,"is_disabled":false,"rental_uris":{"android":"levelo://app?vid=0690d114-c8c7-4e46-a5a2-7f449cdff008","ios":"levelo://app?vid=0690d114-c8c7-4e46-a5a2-7f449cdff008"},"vehicle_type_id":"4","last_reported":1728184655,"current_range_meters":23200,"station_id":"ce4bhph2rcd13ifvqheg","pricing_plan_id":"cebpf4jnsgd1na2vs0mg"},{"bike_id":"8195a949-d8da-4b7a-98ae-cccaaeea515e","system_id":"levelo_inurba_marseille","lat":43.290463,"lon":5.359145,"is_reserved":false,"is_disabled":false,"rental_uris":{"android":"levelo://app?vid=8195a949-d8da-4b7a-98ae-cccaaeea515e","ios":"levelo://app?vid=8195a949-d8da-4b7a-98ae-cccaaeea515e"},"vehicle_type_id":"4","last_reported":1728184655,"current_range_meters":38800,"station_id":"ce4bha92rcd13ifvqeg0","pricing_plan_id":"cebpf4jnsgd1na2vs0mg"},{"bike_id":"183db38c-26dd-41d3-9d10-e85fe759ef93","system_id":"levelo_inurba_marseille","lat":43.29416,"lon":5.38629,"is_reserved":false,"is_disabled":false,"rental_uris":{"android":"levelo://app?vid=183db38c-26dd-41d3-9d10-e85fe759ef93","ios":"levelo://app?vid=183db38c-26dd-41d3-9d10-e85fe759ef93"},"vehicle_type_id":"4","last_reported":1728184655,"current_range_meters":3600,"station_id":"ce4bh2h2rcd13ifvqdh0","pricing_plan_id":"cebpf4jnsgd1na2vs0mg"},{"bike_id":"5247e496-daed-4465-8046-4c6092253b0e","system_id":"levelo_inurba_marseille","lat":43.23144,"lon":5.43722,"is_reserved":false,"is_disabled":false,"rental_uris":{"android":"levelo://app?vid=5247e496-daed-4465-8046-4c6092253b0e","ios":"levelo://app?vid=5247e496-daed-4465-8046-4c6092253b0e"},"vehicle_type_id":"4","last_reported":1728184655,"current_range_meters":38400,"station_id":"ce4bhmp2rcd13ifvqgog","pricing_plan_id":"cebpf4jnsgd1na2vs0mg"},{"bike_id":"633b889a-a22f-4e08-baac-8b530217db02","system_id":"levelo_inurba_marseille","lat":43.30781,"lon":5.37658,"is_reserved":false,"is_disabled":false,"rental_uris":{"android":"levelo://app?vid=633b889a-a22f-4e08-baac-8b530217db02","ios":"levelo://app?vid=633b889a-a22f-4e08-baac-8b530217db02"},"vehicle_type_id":"4","last_reported":1728184655,"current_range_meters":28000,"station_id":"ce4bgv92rcd13ifvqcq0","pricing_plan_id":"cebpf4jnsgd1na2vs0mg"},{"bike_id":"45724e92-532e-484e-b4a7-5ca3c85c5df6","system_id":"levelo_inurba_marseille","lat":43.23965,"lon":5.36639,"is_reserved":false,"is_disabled":false,"rental_uris":{"android":"levelo://app?vid=45724e92-532e-484e-b4a7-5ca3c85c5df6","ios":"levelo://app?vid=45724e92-532e-484e-b4a7-5ca3c85c5df6"},"vehicle_type_id":"4","last_reported":1728184655,"current_range_meters":20800,"station_id":"ce4bhi12rcd13ifvqfp0","pricing_plan_id":"cebpf4jnsgd1na2vs0mg"},{"bike_id":"b287de09-225f-4862-8d67-b67d53011f62","system_id":"levelo_inurba_marseille","lat":43.28155,"lon":5.42646,"is_reserved":false,"is_disabled":false,"rental_uris":{"android":"levelo://app?vid=b287de09-225f-4862-8d67-b67d53011f62","ios":"levelo://app?vid=b287de09-225f-4862-8d67-b67d53011f62"},"vehicle_type_id":"4","last_reported":1728184655,"current_range_meters":15200,"station_id":"ce4bhnh2rcd13ifvqgug","pricing_plan_id":"cebpf4jnsgd1na2vs0mg"},{"bike_id":"31ea6b97-9b1b-4830-91db-ea5d9e36526f","system_id":"levelo_inurba_marseille","lat":43.28034,"lon":5.369521,"is_reserved":false,"is_disabled":false,"rental_uris":{"android":"levelo://app?vid=31ea6b97-9b1b-4830-91db-ea5d9e36526f","ios":"levelo://app?vid=31ea6b97-9b1b-4830-91db-ea5d9e36526f"},"vehicle_type_id":"4","last_reported":1728184655,"current_range_meters":38000,"station_id":"ce4bha12rcd13ifvqef0","pricing_plan_id":"cebpf4jnsgd1na2vs0mg"},{"bike_id":"ba0180d4-cf64-48df-8270-0db5fe20d0c7","system_id":"levelo_inurba_marseille","lat":43.29558,"lon":5.42297,"is_reserved":false,"is_disabled":false,"rental_uris":{"android":"levelo://app?vid=ba0180d4-cf64-48df-8270-0db5fe20d0c7","ios":"levelo://app?vid=ba0180d4-cf64-48df-8270-0db5fe20d0c7"},"vehicle_type_id":"4","last_reported":1728184655,"current_range_meters":39200,"station_id":"ce4bhph2rcd13ifvqhdg","pricing_plan_id":"cebpf4jnsgd1na2vs0mg"},{"bike_id":"6266ab0d-036e-4351-aec4-c2f2013119e5","system_id":"levelo_inurba_marseille","lat":43.32485,"lon":5.36559,"is_reserved":false,"is_disabled":false,"rental_uris":{"android":"levelo://app?vid=6266ab0d-036e-4351-aec4-c2f2013119e5","ios":"levelo://app?vid=6266ab0d-036e-4351-aec4-c2f2013119e5"},"vehicle_type_id":"4","last_reported":1728184655,"current_range_meters":39200,"station_id":"ce4bhs12rcd13ifvqhvg","pricing_plan_id":"cebpf4jnsgd1na2vs0mg"},{"bike_id":"a2153ac2-6bee-4af8-9fcf-4a9bf85c4fae","system_id":"levelo_inurba_marseille","lat":43.31707,"lon":5.40458,"is_reserved":false,"is_disabled":false,"rental_uris":{"android":"levelo://app?vid=a2153ac2-6bee-4af8-9fcf-4a9bf85c4fae","ios":"levelo://app?vid=a2153ac2-6bee-4af8-9fcf-4a9bf85c4fae"},"vehicle_type_id":"4","last_reported":1728184655,"current_range_meters":39200,"station_id":"ce4bh012rcd13ifvqd00","pricing_plan_id":"cebpf4jnsgd1na2vs0mg"},{"bike_id":"2c1ccc48-7b9a-4b96-82c1-feb476287a75","system_id":"levelo_inurba_marseille","lat":43.25087,"lon":5.39523,"is_reserved":false,"is_disabled":false,"rental_uris":{"android":"levelo://app?vid=2c1ccc48-7b9a-4b96-82c1-feb476287a75","ios":"levelo://app?vid=2c1ccc48-7b9a-4b96-82c1-feb476287a75"},"vehicle_type_id":"4","last_reported":1728184655,"current_range_meters":37600,"station_id":"ce4bhm12rcd13ifvqgkg","pricing_plan_id":"cebpf4jnsgd1na2vs0mg"},{"bike_id":"4dbd6601-2a53-4250-961c-bd7955351e14","system_id":"levelo_inurba_marseille","lat":43.29555,"lon":5.42279,"is_reserved":false,"is_disabled":false,"rental_uris":{"android":"levelo://app?vid=4dbd6601-2a53-4250-961c-bd7955351e14","ios":"levelo://app?vid=4dbd6601-2a53-4250-961c-bd7955351e14"},"vehicle_type_id":"4","last_reported":1728184655,"current_range_meters":28400,"station_id":"ce4bhph2rcd13ifvqhdg","pricing_plan_id":"cebpf4jnsgd1na2vs0mg"},{"bike_id":"f11dd066-6b94-4d0b-8a87-cb59e5dabda0","system_id":"levelo_inurba_marseille","lat":43.312722,"lon":5.401681,"is_reserved":false,"is_disabled":false,"rental_uris":{"android":"levelo://app?vid=f11dd066-6b94-4d0b-8a87-cb59e5dabda0","ios":"levelo://app?vid=f11dd066-6b94-4d0b-8a87-cb59e5dabda0"},"vehicle_type_id":"4","last_reported":1728184655,"current_range_meters":39200,"station_id":"ce4bh092rcd13ifvqd30","pricing_plan_id":"cebpf4jnsgd1na2vs0mg"},{"bike_id":"00701e8c-727e-42bd-85e1-66be4568d66b","system_id":"levelo_inurba_marseille","lat":43.29046,"lon":5.35924,"is_reserved":false,"is_disabled":false,"rental_uris":{"android":"levelo://app?vid=00701e8c-727e-42bd-85e1-66be4568d66b","ios":"levelo://app?vid=00701e8c-727e-42bd-85e1-66be4568d66b"},"vehicle_type_id":"4","last_reported":1728184655,"current_range_meters":38800,"station_id":"ce4bha92rcd13ifvqeg0","pricing_plan_id":"cebpf4jnsgd1na2vs0mg"},{"bike_id":"2d7a2cb1-2897-4c0f-8a7d-31c222bf8d7d","system_id":"levelo_inurba_marseille","lat":43.30963,"lon":5.39045,"is_reserved":false,"is_disabled":false,"rental_uris":{"android":"levelo://app?vid=2d7a2cb1-2897-4c0f-8a7d-31c222bf8d7d","ios":"levelo://app?vid=2d7a2cb1-2897-4c0f-8a7d-31c222bf8d7d"},"vehicle_type_id":"4","last_reported":1728184655,"current_range_meters":38000,"station_id":"ce4bgup2rcd13ifvqco0","pricing_plan_id":"cebpf4jnsgd1na2vs0mg"},{"bike_id":"6eb49694-06bb-41cb-98b9-71b7074bd821","system_id":"levelo_inurba_marseille","lat":43.31892,"lon":5.40735,"is_reserved":false,"is_disabled":false,"rental_uris":{"android":"levelo://app?vid=6eb49694-06bb-41cb-98b9-71b7074bd821","ios":"levelo://app?vid=6eb49694-06bb-41cb-98b9-71b7074bd821"},"vehicle_type_id":"4","last_reported":1728184655,"current_range_meters":24000,"station_id":"ce4bhq12rcd13ifvqhig","pricing_plan_id":"cebpf4jnsgd1na2vs0mg"},{"bike_id":"75dbce07-c755-4145-9e54-8edf0905547b","system_id":"levelo_inurba_marseille","lat":43.27841,"lon":5.39205,"is_reserved":false,"is_disabled":false,"rental_uris":{"android":"levelo://app?vid=75dbce07-c755-4145-9e54-8edf0905547b","ios":"levelo://app?vid=75dbce07-c755-4145-9e54-8edf0905547b"},"vehicle_type_id":"4","last_reported":1728184655,"current_range_meters":37600,"station_id":"ce4bhjp2rcd13ifvqga0","pricing_plan_id":"cebpf4jnsgd1na2vs0mg"},{"bike_id":"68ecf37e-031f-4b6a-a3d6-30fc7a23d9ad","system_id":"levelo_inurba_marseille","lat":43.28076,"lon":5.39656,"is_reserved":false,"is_disabled":false,"rental_uris":{"android":"levelo://app?vid=68ecf37e-031f-4b6a-a3d6-30fc7a23d9ad","ios":"levelo://app?vid=68ecf37e-031f-4b6a-a3d6-30fc7a23d9ad"},"vehicle_type_id":"4","last_reported":1728184655,"current_range_meters":38000,"station_id":"ce4bho12rcd13ifvqh2g","pricing_plan_id":"cebpf4jnsgd1na2vs0mg"},{"bike_id":"a013fc0e-79f4-4493-bf94-abf4fcb0118b","system_id":"levelo_inurba_marseille","lat":43.28108,"lon":5.37837,"is_reserved":false,"is_disabled":false,"rental_uris":{"android":"levelo://app?vid=a013fc0e-79f4-4493-bf94-abf4fcb0118b","ios":"levelo://app?vid=a013fc0e-79f4-4493-bf94-abf4fcb0118b"},"vehicle_type_id":"4","last_reported":1728184655,"current_range_meters":39200,"station_id":"ce4bha12rcd13ifvqee0","pricing_plan_id":"cebpf4jnsgd1na2vs0mg"},{"bike_id":"254d7b0c-7ec0-4954-a318-3111c9bc2263","system_id":"levelo_inurba_marseille","lat":43.27901,"lon":5.38004,"is_reserved":false,"is_disabled":false,"rental_uris":{"android":"levelo://app?vid=254d7b0c-7ec0-4954-a318-3111c9bc2263","ios":"levelo://app?vid=254d7b0c-7ec0-4954-a318-3111c9bc2263"},"vehicle_type_id":"4","last_reported":1728184655,"current_range_meters":28800,"station_id":"ce4bhf92rcd13ifvqf50","pricing_plan_id":"cebpf4jnsgd1na2vs0mg"},{"bike_id":"8f568ac0-6709-4e1b-976a-2ebd965361a0","system_id":"levelo_inurba_marseille","lat":43.31536,"lon":5.38025,"is_reserved":false,"is_disabled":false,"rental_uris":{"android":"levelo://app?vid=8f568ac0-6709-4e1b-976a-2ebd965361a0","ios":"levelo://app?vid=8f568ac0-6709-4e1b-976a-2ebd965361a0"},"vehicle_type_id":"4","last_reported":1728184655,"current_range_meters":22800,"station_id":"ce4bhsp2rcd13ifvqi50","pricing_plan_id":"cebpf4jnsgd1na2vs0mg"},{"bike_id":"03ebdfef-60b9-4383-b780-f6e10ef5dff9","system_id":"levelo_inurba_marseille","lat":43.33758,"lon":5.37439,"is_reserved":false,"is_disabled":false,"rental_uris":{"android":"levelo://app?vid=03ebdfef-60b9-4383-b780-f6e10ef5dff9","ios":"levelo://app?vid=03ebdfef-60b9-4383-b780-f6e10ef5dff9"},"vehicle_type_id":"4","last_reported":1728184655,"current_range_meters":29600,"station_id":"","pricing_plan_id":"cebpf4jnsgd1na2vs0mg"},{"bike_id":"2af3a296-acf1-4a1b-ac20-a269b1358416","system_id":"levelo_inurba_marseille","lat":43.25832,"lon":5.39435,"is_reserved":false,"is_disabled":false,"rental_uris":{"android":"levelo://app?vid=2af3a296-acf1-4a1b-ac20-a269b1358416","ios":"levelo://app?vid=2af3a296-acf1-4a1b-ac20-a269b1358416"},"vehicle_type_id":"4","last_reported":1728184655,"current_range_meters":38400,"station_id":"ce4bhip2rcd13ifvqft0","pricing_plan_id":"cebpf4jnsgd1na2vs0mg"},{"bike_id":"1c3bbd8d-8d5e-44b9-b34d-bf485a3c73f8","system_id":"levelo_inurba_marseille","lat":43.30136,"lon":5.39865,"is_reserved":false,"is_disabled":false,"rental_uris":{"android":"levelo://app?vid=1c3bbd8d-8d5e-44b9-b34d-bf485a3c73f8","ios":"levelo://app?vid=1c3bbd8d-8d5e-44b9-b34d-bf485a3c73f8"},"vehicle_type_id":"4","last_reported":1728184655,"current_range_meters":36000,"station_id":"ce4bh0h2rcd13ifvqd40","pricing_plan_id":"cebpf4jnsgd1na2vs0mg"},{"bike_id":"8776769b-9d44-4cbf-8bfe-df4892fb90c2","system_id":"levelo_inurba_marseille","lat":43.323651,"lon":5.388807,"is_reserved":false,"is_disabled":false,"rental_uris":{"android":"levelo://app?vid=8776769b-9d44-4cbf-8bfe-df4892fb90c2","ios":"levelo://app?vid=8776769b-9d44-4cbf-8bfe-df4892fb90c2"},"vehicle_type_id":"4","last_reported":1728184655,"current_range_meters":26000,"station_id":"ce4bhqp2rcd13ifvqhog","pricing_plan_id":"cebpf4jnsgd1na2vs0mg"},{"bike_id":"0952ea56-7f44-4708-ab22-7a7a98985b63","system_id":"levelo_inurba_marseille","lat":43.33023,"lon":5.39037,"is_reserved":false,"is_disabled":false,"rental_uris":{"android":"levelo://app?vid=0952ea56-7f44-4708-ab22-7a7a98985b63","ios":"levelo://app?vid=0952ea56-7f44-4708-ab22-7a7a98985b63"},"vehicle_type_id":"4","last_reported":1728184655,"current_range_meters":33200,"station_id":"ce4bhr92rcd13ifvqhrg","pricing_plan_id":"cebpf4jnsgd1na2vs0mg"},{"bike_id":"8c4ede2a-8479-4951-912b-e9104b176599","system_id":"levelo_inurba_marseille","lat":43.33732,"lon":5.39192,"is_reserved":false,"is_disabled":false,"rental_uris":{"android":"levelo://app?vid=8c4ede2a-8479-4951-912b-e9104b176599","ios":"levelo://app?vid=8c4ede2a-8479-4951-912b-e9104b176599"},"vehicle_type_id":"4","last_reported":1728184655,"current_range_meters":9200,"station_id":"ce4bhr92rcd13ifvqhsg","pricing_plan_id":"cebpf4jnsgd1na2vs0mg"},{"bike_id":"0070bd1d-0841-43bf-9fe9-9007ec3667b5","system_id":"levelo_inurba_marseille","lat":43.28911,"lon":5.39498,"is_reserved":false,"is_disabled":false,"rental_uris":{"android":"levelo://app?vid=0070bd1d-0841-43bf-9fe9-9007ec3667b5","ios":"levelo://app?vid=0070bd1d-0841-43bf-9fe9-9007ec3667b5"},"vehicle_type_id":"4","last_reported":1728184655,"current_range_meters":17600,"station_id":"","pricing_plan_id":"cebpf4jnsgd1na2vs0mg"},{"bike_id":"a209a971-131e-491a-94c0-3302688dd8c9","system_id":"levelo_inurba_marseille","lat":43.30809,"lon":5.43507,"is_reserved":false,"is_disabled":false,"rental_uris":{"android":"levelo://app?vid=a209a971-131e-491a-94c0-3302688dd8c9","ios":"levelo://app?vid=a209a971-131e-491a-94c0-3302688dd8c9"},"vehicle_type_id":"4","last_reported":1728184655,"current_range_meters":14800,"station_id":"ce4bhph2rcd13ifvqheg","pricing_plan_id":"cebpf4jnsgd1na2vs0mg"},{"bike_id":"78ed7689-12dc-409d-8545-3f1274f7780d","system_id":"levelo_inurba_marseille","lat":43.29559,"lon":5.42279,"is_reserved":false,"is_disabled":false,"rental_uris":{"android":"levelo://app?vid=78ed7689-12dc-409d-8545-3f1274f7780d","ios":"levelo://app?vid=78ed7689-12dc-409d-8545-3f1274f7780d"},"vehicle_type_id":"4","last_reported":1728184655,"current_range_meters":11200,"station_id":"ce4bhph2rcd13ifvqhdg","pricing_plan_id":"cebpf4jnsgd1na2vs0mg"},{"bike_id":"4018fa26-9a2a-4214-af21-76b3667a940b","system_id":"levelo_inurba_marseille","lat":43.337621,"lon":5.374355,"is_reserved":false,"is_disabled":false,"rental_uris":{"android":"levelo://app?vid=4018fa26-9a2a-4214-af21-76b3667a940b","ios":"levelo://app?vid=4018fa26-9a2a-4214-af21-76b3667a940b"},"vehicle_type_id":"4","last_reported":1728184655,"current_range_meters":29600,"station_id":"","pricing_plan_id":"cebpf4jnsgd1na2vs0mg"},{"bike_id":"87b3bd72-8927-4c18-9784-4bc764e73796","system_id":"levelo_inurba_marseille","lat":43.30651,"lon":5.4007,"is_reserved":false,"is_disabled":false,"rental_uris":{"android":"levelo://app?vid=87b3bd72-8927-4c18-9784-4bc764e73796","ios":"levelo://app?vid=87b3bd72-8927-4c18-9784-4bc764e73796"},"vehicle_type_id":"4","last_reported":1728184655,"current_range_meters":7200,"station_id":"ce4bh112rcd13ifvqda0","pricing_plan_id":"cebpf4jnsgd1na2vs0mg"},{"bike_id":"9d329cdf-7959-4fb8-b905-08ba63c769b2","system_id":"levelo_inurba_marseille","lat":43.27997,"lon":5.41655,"is_reserved":false,"is_disabled":false,"rental_uris":{"android":"levelo://app?vid=9d329cdf-7959-4fb8-b905-08ba63c769b2","ios":"levelo://app?vid=9d329cdf-7959-4fb8-b905-08ba63c769b2"},"vehicle_type_id":"4","last_reported":1728184655,"current_range_meters":32800,"station_id":"ce4bho12rcd13ifvqh1g","pricing_plan_id":"cebpf4jnsgd1na2vs0mg"},{"bike_id":"fac6f7d5-25da-4d75-bd37-6eb9ec641f1f","system_id":"levelo_inurba_marseille","lat":43.23195,"lon":5.35543,"is_reserved":false,"is_disabled":false,"rental_uris":{"android":"levelo://app?vid=fac6f7d5-25da-4d75-bd37-6eb9ec641f1f","ios":"levelo://app?vid=fac6f7d5-25da-4d75-bd37-6eb9ec641f1f"},"vehicle_type_id":"4","last_reported":1728184655,"current_range_meters":38000,"station_id":"ce4bhu92rcd13ifvqi70","pricing_plan_id":"cebpf4jnsgd1na2vs0mg"},{"bike_id":"ac7477e2-647f-4698-b2f1-05ac6bd7ca79","system_id":"levelo_inurba_marseille","lat":43.27379,"lon":5.36257,"is_reserved":false,"is_disabled":false,"rental_uris":{"android":"levelo://app?vid=ac7477e2-647f-4698-b2f1-05ac6bd7ca79","ios":"levelo://app?vid=ac7477e2-647f-4698-b2f1-05ac6bd7ca79"},"vehicle_type_id":"4","last_reported":1728184655,"current_range_meters":36000,"station_id":"ce4bhbh2rcd13ifvqeo0","pricing_plan_id":"cebpf4jnsgd1na2vs0mg"},{"bike_id":"ea1558d2-8ab1-46c9-b214-6b68c55ad7cc","system_id":"levelo_inurba_marseille","lat":43.30956,"lon":5.39033,"is_reserved":false,"is_disabled":false,"rental_uris":{"android":"levelo://app?vid=ea1558d2-8ab1-46c9-b214-6b68c55ad7cc","ios":"levelo://app?vid=ea1558d2-8ab1-46c9-b214-6b68c55ad7cc"},"vehicle_type_id":"4","last_reported":1728184655,"current_range_meters":38800,"station_id":"ce4bgup2rcd13ifvqco0","pricing_plan_id":"cebpf4jnsgd1na2vs0mg"},{"bike_id":"c2631e27-f561-45cd-964c-4f2a217a8c4e","system_id":"levelo_inurba_marseille","lat":43.30645,"lon":5.4009,"is_reserved":false,"is_disabled":false,"rental_uris":{"android":"levelo://app?vid=c2631e27-f561-45cd-964c-4f2a217a8c4e","ios":"levelo://app?vid=c2631e27-f561-45cd-964c-4f2a217a8c4e"},"vehicle_type_id":"4","last_reported":1728184655,"current_range_meters":6400,"station_id":"ce4bh112rcd13ifvqda0","pricing_plan_id":"cebpf4jnsgd1na2vs0mg"},{"bike_id":"2cc84c91-cdbc-4a7f-abf0-469dac05d2b6","system_id":"levelo_inurba_marseille","lat":43.315007,"lon":5.373063,"is_reserved":false,"is_disabled":false,"rental_uris":{"android":"levelo://app?vid=2cc84c91-cdbc-4a7f-abf0-469dac05d2b6","ios":"levelo://app?vid=2cc84c91-cdbc-4a7f-abf0-469dac05d2b6"},"vehicle_type_id":"4","last_reported":1728184655,"current_range_meters":38000,"station_id":"ce4bgt12rcd13ifvqcd0","pricing_plan_id":"cebpf4jnsgd1na2vs0mg"},{"bike_id":"0a6abf91-5934-4bff-86d6-d42b6ef92f8f","system_id":"levelo_inurba_marseille","lat":43.28107,"lon":5.37831,"is_reserved":false,"is_disabled":false,"rental_uris":{"android":"levelo://app?vid=0a6abf91-5934-4bff-86d6-d42b6ef92f8f","ios":"levelo://app?vid=0a6abf91-5934-4bff-86d6-d42b6ef92f8f"},"vehicle_type_id":"4","last_reported":1728184655,"current_range_meters":20400,"station_id":"ce4bha12rcd13ifvqee0","pricing_plan_id":"cebpf4jnsgd1na2vs0mg"},{"bike_id":"aeb150c0-d784-4966-882d-39b5e68454ea","system_id":"levelo_inurba_marseille","lat":43.30639,"lon":5.40099,"is_reserved":false,"is_disabled":false,"rental_uris":{"android":"levelo://app?vid=aeb150c0-d784-4966-882d-39b5e68454ea","ios":"levelo://app?vid=aeb150c0-d784-4966-882d-39b5e68454ea"},"vehicle_type_id":"4","last_reported":1728184655,"current_range_meters":36800,"station_id":"ce4bh112rcd13ifvqda0","pricing_plan_id":"cebpf4jnsgd1na2vs0mg"},{"bike_id":"270d446c-c917-4cb4-bb1b-6308ef4780b2","system_id":"levelo_inurba_marseille","lat":43.31374,"lon":5.38485,"is_reserved":false,"is_disabled":false,"rental_uris":{"android":"levelo://app?vid=270d446c-c917-4cb4-bb1b-6308ef4780b2","ios":"levelo://app?vid=270d446c-c917-4cb4-bb1b-6308ef4780b2"},"vehicle_type_id":"4","last_reported":1728184655,"current_range_meters":10000,"station_id":"ce4bgt92rcd13ifvqcf0","pricing_plan_id":"cebpf4jnsgd1na2vs0mg"},{"bike_id":"be80d8a2-d07f-4e97-a19e-421069027a70","system_id":"levelo_inurba_marseille","lat":43.2454,"lon":5.39521,"is_reserved":false,"is_disabled":false,"rental_uris":{"android":"levelo://app?vid=be80d8a2-d07f-4e97-a19e-421069027a70","ios":"levelo://app?vid=be80d8a2-d07f-4e97-a19e-421069027a70"},"vehicle_type_id":"4","last_reported":1728184655,"current_range_meters":38000,"station_id":"ce4bhlp2rcd13ifvqgjg","pricing_plan_id":"cebpf4jnsgd1na2vs0mg"},{"bike_id":"491813ec-5bcd-4eda-acb2-c01ccb4e9894","system_id":"levelo_inurba_marseille","lat":43.33761,"lon":5.37453,"is_reserved":false,"is_disabled":false,"rental_uris":{"android":"levelo://app?vid=491813ec-5bcd-4eda-acb2-c01ccb4e9894","ios":"levelo://app?vid=491813ec-5bcd-4eda-acb2-c01ccb4e9894"},"vehicle_type_id":"4","last_reported":1728184655,"current_range_meters":30800,"station_id":"","pricing_plan_id":"cebpf4jnsgd1na2vs0mg"},{"bike_id":"8314afce-5c76-45ae-958c-61928c717fd9","system_id":"levelo_inurba_marseille","lat":43.2799,"lon":5.41661,"is_reserved":false,"is_disabled":false,"rental_uris":{"android":"levelo://app?vid=8314afce-5c76-45ae-958c-61928c717fd9","ios":"levelo://app?vid=8314afce-5c76-45ae-958c-61928c717fd9"},"vehicle_type_id":"4","last_reported":1728184655,"current_range_meters":33200,"station_id":"ce4bho12rcd13ifvqh1g","pricing_plan_id":"cebpf4jnsgd1na2vs0mg"},{"bike_id":"51a76279-3bf3-4911-948c-e269af3473c2","system_id":"levelo_inurba_marseille","lat":43.29974,"lon":5.38492,"is_reserved":false,"is_disabled":false,"rental_uris":{"android":"levelo://app?vid=51a76279-3bf3-4911-948c-e269af3473c2","ios":"levelo://app?vid=51a76279-3bf3-4911-948c-e269af3473c2"},"vehicle_type_id":"4","last_reported":1728184655,"current_range_meters":27600,"station_id":"ce4bgj92rcd13ifvqbd0","pricing_plan_id":"cebpf4jnsgd1na2vs0mg"},{"bike_id":"87be7a17-4302-4965-8336-821c2174ed32","system_id":"levelo_inurba_marseille","lat":43.25119,"lon":5.40322,"is_reserved":false,"is_disabled":false,"rental_uris":{"android":"levelo://app?vid=87be7a17-4302-4965-8336-821c2174ed32","ios":"levelo://app?vid=87be7a17-4302-4965-8336-821c2174ed32"},"vehicle_type_id":"4","last_reported":1728184655,"current_range_meters":38400,"station_id":"ce4bhlh2rcd13ifvqgig","pricing_plan_id":"cebpf4jnsgd1na2vs0mg"},{"bike_id":"c56a7f6d-1c51-4af0-848a-53ce2371dbf4","system_id":"levelo_inurba_marseille","lat":43.31726,"lon":5.42403,"is_reserved":false,"is_disabled":false,"rental_uris":{"android":"levelo://app?vid=c56a7f6d-1c51-4af0-848a-53ce2371dbf4","ios":"levelo://app?vid=c56a7f6d-1c51-4af0-848a-53ce2371dbf4"},"vehicle_type_id":"4","last_reported":1728184655,"current_range_meters":17600,"station_id":"ce4bhp92rcd13ifvqhbg","pricing_plan_id":"cebpf4jnsgd1na2vs0mg"},{"bike_id":"baba7691-81ff-4c7d-90d9-c89eba9696cb","system_id":"levelo_inurba_marseille","lat":43.25928,"lon":5.40908,"is_reserved":false,"is_disabled":false,"rental_uris":{"android":"levelo://app?vid=baba7691-81ff-4c7d-90d9-c89eba9696cb","ios":"levelo://app?vid=baba7691-81ff-4c7d-90d9-c89eba9696cb"},"vehicle_type_id":"4","last_reported":1728184655,"current_range_meters":34000,"station_id":"ce4bhm92rcd13ifvqglg","pricing_plan_id":"cebpf4jnsgd1na2vs0mg"},{"bike_id":"598e7482-d528-4354-8ef8-35deedd58485","system_id":"levelo_inurba_marseille","lat":43.29704,"lon":5.36609,"is_reserved":false,"is_disabled":false,"rental_uris":{"android":"levelo://app?vid=598e7482-d528-4354-8ef8-35deedd58485","ios":"levelo://app?vid=598e7482-d528-4354-8ef8-35deedd58485"},"vehicle_type_id":"4","last_reported":1728184655,"current_range_meters":25200,"station_id":"ce4bgn12rcd13ifvqbt0","pricing_plan_id":"cebpf4jnsgd1na2vs0mg"},{"bike_id":"50b3012e-ec86-40b5-9328-579a7f881b99","system_id":"levelo_inurba_marseille","lat":43.29055,"lon":5.35908,"is_reserved":false,"is_disabled":false,"rental_uris":{"android":"levelo://app?vid=50b3012e-ec86-40b5-9328-579a7f881b99","ios":"levelo://app?vid=50b3012e-ec86-40b5-9328-579a7f881b99"},"vehicle_type_id":"4","last_reported":1728184655,"current_range_meters":24400,"station_id":"ce4bha92rcd13ifvqeg0","pricing_plan_id":"cebpf4jnsgd1na2vs0mg"},{"bike_id":"2b08579d-333c-4fe2-94e8-5ba5b8475885","system_id":"levelo_inurba_marseille","lat":43.270742,"lon":5.422811,"is_reserved":false,"is_disabled":false,"rental_uris":{"android":"levelo://app?vid=2b08579d-333c-4fe2-94e8-5ba5b8475885","ios":"levelo://app?vid=2b08579d-333c-4fe2-94e8-5ba5b8475885"},"vehicle_type_id":"4","last_reported":1728184655,"current_range_meters":39200,"station_id":"ce4bhk92rcd13ifvqgb0","pricing_plan_id":"cebpf4jnsgd1na2vs0mg"},{"bike_id":"be1fc320-dd97-4954-ac7c-7de9b96a03e0","system_id":"levelo_inurba_marseille","lat":43.29555,"lon":5.42283,"is_reserved":false,"is_disabled":false,"rental_uris":{"android":"levelo://app?vid=be1fc320-dd97-4954-ac7c-7de9b96a03e0","ios":"levelo://app?vid=be1fc320-dd97-4954-ac7c-7de9b96a03e0"},"vehicle_type_id":"4","last_reported":1728184655,"current_range_meters":16800,"station_id":"ce4bhph2rcd13ifvqhdg","pricing_plan_id":"cebpf4jnsgd1na2vs0mg"},{"bike_id":"1a4b9bee-9297-474e-8c5a-addba9e72262","system_id":"levelo_inurba_marseille","lat":43.27494,"lon":5.42454,"is_reserved":false,"is_disabled":false,"rental_uris":{"android":"levelo://app?vid=1a4b9bee-9297-474e-8c5a-addba9e72262","ios":"levelo://app?vid=1a4b9bee-9297-474e-8c5a-addba9e72262"},"vehicle_type_id":"4","last_reported":1728184655,"current_range_meters":34000,"station_id":"ce4bhn92rcd13ifvqgrg","pricing_plan_id":"cebpf4jnsgd1na2vs0mg"},{"bike_id":"d23ddbe4-840b-4d6d-8e13-a20922334a77","system_id":"levelo_inurba_marseille","lat":43.32485,"lon":5.3655,"is_reserved":false,"is_disabled":false,"rental_uris":{"android":"levelo://app?vid=d23ddbe4-840b-4d6d-8e13-a20922334a77","ios":"levelo://app?vid=d23ddbe4-840b-4d6d-8e13-a20922334a77"},"vehicle_type_id":"4","last_reported":1728184655,"current_range_meters":38800,"station_id":"ce4bhs12rcd13ifvqhvg","pricing_plan_id":"cebpf4jnsgd1na2vs0mg"},{"bike_id":"1f4cb4f2-7c85-4ee8-a1cd-0fd81fda37bd","system_id":"levelo_inurba_marseille","lat":43.25869,"lon":5.39897,"is_reserved":false,"is_disabled":false,"rental_uris":{"android":"levelo://app?vid=1f4cb4f2-7c85-4ee8-a1cd-0fd81fda37bd","ios":"levelo://app?vid=1f4cb4f2-7c85-4ee8-a1cd-0fd81fda37bd"},"vehicle_type_id":"4","last_reported":1728184655,"current_range_meters":27200,"station_id":"ce4bhl92rcd13ifvqghg","pricing_plan_id":"cebpf4jnsgd1na2vs0mg"},{"bike_id":"4af55307-045f-4c66-a045-a91d88bb4c16","system_id":"levelo_inurba_marseille","lat":43.3376,"lon":5.37438,"is_reserved":false,"is_disabled":false,"rental_uris":{"android":"levelo://app?vid=4af55307-045f-4c66-a045-a91d88bb4c16","ios":"levelo://app?vid=4af55307-045f-4c66-a045-a91d88bb4c16"},"vehicle_type_id":"4","last_reported":1728184655,"current_range_meters":33200,"station_id":"","pricing_plan_id":"cebpf4jnsgd1na2vs0mg"},{"bike_id":"41523f19-68f1-4c55-8c6a-46199b7f6643","system_id":"levelo_inurba_marseille","lat":43.28078,"lon":5.39639,"is_reserved":false,"is_disabled":false,"rental_uris":{"android":"levelo://app?vid=41523f19-68f1-4c55-8c6a-46199b7f6643","ios":"levelo://app?vid=41523f19-68f1-4c55-8c6a-46199b7f6643"},"vehicle_type_id":"4","last_reported":1728184655,"current_range_meters":38800,"station_id":"ce4bho12rcd13ifvqh2g","pricing_plan_id":"cebpf4jnsgd1na2vs0mg"},{"bike_id":"5edcea2d-7f6d-4562-855c-bbcc004f28f7","system_id":"levelo_inurba_marseille","lat":43.284654,"lon":5.358853,"is_reserved":false,"is_disabled":false,"rental_uris":{"android":"levelo://app?vid=5edcea2d-7f6d-4562-855c-bbcc004f28f7","ios":"levelo://app?vid=5edcea2d-7f6d-4562-855c-bbcc004f28f7"},"vehicle_type_id":"4","last_reported":1728184655,"current_range_meters":27200,"station_id":"ce4bhah2rcd13ifvqei0","pricing_plan_id":"cebpf4jnsgd1na2vs0mg"},{"bike_id":"f1a5d0a5-6c6c-4e53-a5a3-e81641cb0aa0","system_id":"levelo_inurba_marseille","lat":43.28852,"lon":5.35844,"is_reserved":false,"is_disabled":false,"rental_uris":{"android":"levelo://app?vid=f1a5d0a5-6c6c-4e53-a5a3-e81641cb0aa0","ios":"levelo://app?vid=f1a5d0a5-6c6c-4e53-a5a3-e81641cb0aa0"},"vehicle_type_id":"4","last_reported":1728184655,"current_range_meters":32000,"station_id":"ce4bhb12rcd13ifvqem0","pricing_plan_id":"cebpf4jnsgd1na2vs0mg"},{"bike_id":"13a35d1a-1c21-4cdd-9282-17040c700716","system_id":"levelo_inurba_marseille","lat":43.32541,"lon":5.41425,"is_reserved":false,"is_disabled":false,"rental_uris":{"android":"levelo://app?vid=13a35d1a-1c21-4cdd-9282-17040c700716","ios":"levelo://app?vid=13a35d1a-1c21-4cdd-9282-17040c700716"},"vehicle_type_id":"4","last_reported":1728184655,"current_range_meters":36400,"station_id":"ce4bhq12rcd13ifvqhhg","pricing_plan_id":"cebpf4jnsgd1na2vs0mg"},{"bike_id":"5fe9af2d-0282-40cf-ae73-3a1b842e2f4b","system_id":"levelo_inurba_marseille","lat":43.23059,"lon":5.35493,"is_reserved":false,"is_disabled":false,"rental_uris":{"android":"levelo://app?vid=5fe9af2d-0282-40cf-ae73-3a1b842e2f4b","ios":"levelo://app?vid=5fe9af2d-0282-40cf-ae73-3a1b842e2f4b"},"vehicle_type_id":"4","last_reported":1728184655,"current_range_meters":37600,"station_id":"cpo3342slgdg3j2ifvpg","pricing_plan_id":"cebpf4jnsgd1na2vs0mg"},{"bike_id":"235344ae-d40d-4c9e-a986-52bb5c104ce0","system_id":"levelo_inurba_marseille","lat":43.31699,"lon":5.40463,"is_reserved":false,"is_disabled":false,"rental_uris":{"android":"levelo://app?vid=235344ae-d40d-4c9e-a986-52bb5c104ce0","ios":"levelo://app?vid=235344ae-d40d-4c9e-a986-52bb5c104ce0"},"vehicle_type_id":"4","last_reported":1728184655,"current_range_meters":38800,"station_id":"ce4bh012rcd13ifvqd00","pricing_plan_id":"cebpf4jnsgd1na2vs0mg"},{"bike_id":"9ea4738e-5a15-4edd-9de1-11fd3d014461","system_id":"levelo_inurba_marseille","lat":43.305237,"lon":5.37271,"is_reserved":false,"is_disabled":false,"rental_uris":{"android":"levelo://app?vid=9ea4738e-5a15-4edd-9de1-11fd3d014461","ios":"levelo://app?vid=9ea4738e-5a15-4edd-9de1-11fd3d014461"},"vehicle_type_id":"4","last_reported":1728184655,"current_range_meters":6000,"station_id":"ce4bho92rcd13ifvqh3g","pricing_plan_id":"cebpf4jnsgd1na2vs0mg"},{"bike_id":"545fe2fc-8e70-4b4a-a83b-91c9c5713a74","system_id":"levelo_inurba_marseille","lat":43.25589,"lon":5.38225,"is_reserved":false,"is_disabled":false,"rental_uris":{"android":"levelo://app?vid=545fe2fc-8e70-4b4a-a83b-91c9c5713a74","ios":"levelo://app?vid=545fe2fc-8e70-4b4a-a83b-91c9c5713a74"},"vehicle_type_id":"4","last_reported":1728184655,"current_range_meters":27600,"station_id":"ce4bhih2rcd13ifvqfs0","pricing_plan_id":"cebpf4jnsgd1na2vs0mg"},{"bike_id":"ec6e251e-99d1-4ac4-a075-545dbd029bdc","system_id":"levelo_inurba_marseille","lat":43.28925,"lon":5.36188,"is_reserved":false,"is_disabled":false,"rental_uris":{"android":"levelo://app?vid=ec6e251e-99d1-4ac4-a075-545dbd029bdc","ios":"levelo://app?vid=ec6e251e-99d1-4ac4-a075-545dbd029bdc"},"vehicle_type_id":"4","last_reported":1728184655,"current_range_meters":30800,"station_id":"","pricing_plan_id":"cebpf4jnsgd1na2vs0mg"},{"bike_id":"32de8690-8902-45d9-9261-1a5a54055b39","system_id":"levelo_inurba_marseille","lat":43.33025,"lon":5.39035,"is_reserved":false,"is_disabled":false,"rental_uris":{"android":"levelo://app?vid=32de8690-8902-45d9-9261-1a5a54055b39","ios":"levelo://app?vid=32de8690-8902-45d9-9261-1a5a54055b39"},"vehicle_type_id":"4","last_reported":1728184655,"current_range_meters":38800,"station_id":"ce4bhr92rcd13ifvqhrg","pricing_plan_id":"cebpf4jnsgd1na2vs0mg"},{"bike_id":"6a4acb12-a5ac-4a0e-a8f4-746f667028fc","system_id":"levelo_inurba_marseille","lat":43.292519,"lon":5.409144,"is_reserved":false,"is_disabled":false,"rental_uris":{"android":"levelo://app?vid=6a4acb12-a5ac-4a0e-a8f4-746f667028fc","ios":"levelo://app?vid=6a4acb12-a5ac-4a0e-a8f4-746f667028fc"},"vehicle_type_id":"4","last_reported":1728184655,"current_range_meters":36800,"station_id":"ce4bh192rcd13ifvqdc0","pricing_plan_id":"cebpf4jnsgd1na2vs0mg"},{"bike_id":"f41af709-4741-45bf-a75a-e5e2fdef89e3","system_id":"levelo_inurba_marseille","lat":43.28731,"lon":5.36082,"is_reserved":false,"is_disabled":false,"rental_uris":{"android":"levelo://app?vid=f41af709-4741-45bf-a75a-e5e2fdef89e3","ios":"levelo://app?vid=f41af709-4741-45bf-a75a-e5e2fdef89e3"},"vehicle_type_id":"4","last_reported":1728184655,"current_range_meters":38000,"station_id":"cki0cbj6b192h4jlfktg","pricing_plan_id":"cebpf4jnsgd1na2vs0mg"},{"bike_id":"aea1dc06-88a2-43cb-85cc-4db4d5c60f09","system_id":"levelo_inurba_marseille","lat":43.31328,"lon":5.39695,"is_reserved":false,"is_disabled":false,"rental_uris":{"android":"levelo://app?vid=aea1dc06-88a2-43cb-85cc-4db4d5c60f09","ios":"levelo://app?vid=aea1dc06-88a2-43cb-85cc-4db4d5c60f09"},"vehicle_type_id":"4","last_reported":1728184655,"current_range_meters":38400,"station_id":"ce4bgvp2rcd13ifvqcu0","pricing_plan_id":"cebpf4jnsgd1na2vs0mg"},{"bike_id":"4dd07eeb-bcd6-4372-b474-9207e1e1771d","system_id":"levelo_inurba_marseille","lat":43.30803,"lon":5.43526,"is_reserved":false,"is_disabled":false,"rental_uris":{"android":"levelo://app?vid=4dd07eeb-bcd6-4372-b474-9207e1e1771d","ios":"levelo://app?vid=4dd07eeb-bcd6-4372-b474-9207e1e1771d"},"vehicle_type_id":"4","last_reported":1728184655,"current_range_meters":11200,"station_id":"ce4bhph2rcd13ifvqheg","pricing_plan_id":"cebpf4jnsgd1na2vs0mg"},{"bike_id":"c437175d-0e29-478f-bc71-93de3b699267","system_id":"levelo_inurba_marseille","lat":43.27943,"lon":5.41045,"is_reserved":false,"is_disabled":false,"rental_uris":{"android":"levelo://app?vid=c437175d-0e29-478f-bc71-93de3b699267","ios":"levelo://app?vid=c437175d-0e29-478f-bc71-93de3b699267"},"vehicle_type_id":"4","last_reported":1728184655,"current_range_meters":13600,"station_id":"ce4bhnp2rcd13ifvqh0g","pricing_plan_id":"cebpf4jnsgd1na2vs0mg"},{"bike_id":"a79cc37e-cb1a-479a-99cf-70bd4e6e70b7","system_id":"levelo_inurba_marseille","lat":43.28617,"lon":5.35102,"is_reserved":false,"is_disabled":false,"rental_uris":{"android":"levelo://app?vid=a79cc37e-cb1a-479a-99cf-70bd4e6e70b7","ios":"levelo://app?vid=a79cc37e-cb1a-479a-99cf-70bd4e6e70b7"},"vehicle_type_id":"4","last_reported":1728184655,"current_range_meters":20000,"station_id":"ce4bhch2rcd13ifvqeug","pricing_plan_id":"cebpf4jnsgd1na2vs0mg"},{"bike_id":"be56f1a4-275f-4091-81c4-2d7d1e9dc326","system_id":"levelo_inurba_marseille","lat":43.28156,"lon":5.42643,"is_reserved":false,"is_disabled":false,"rental_uris":{"android":"levelo://app?vid=be56f1a4-275f-4091-81c4-2d7d1e9dc326","ios":"levelo://app?vid=be56f1a4-275f-4091-81c4-2d7d1e9dc326"},"vehicle_type_id":"4","last_reported":1728184655,"current_range_meters":6800,"station_id":"ce4bhnh2rcd13ifvqgug","pricing_plan_id":"cebpf4jnsgd1na2vs0mg"},{"bike_id":"001a42b9-c901-452e-9c8a-fb18f31f236d","system_id":"levelo_inurba_marseille","lat":43.33609,"lon":5.4103,"is_reserved":false,"is_disabled":false,"rental_uris":{"android":"levelo://app?vid=001a42b9-c901-452e-9c8a-fb18f31f236d","ios":"levelo://app?vid=001a42b9-c901-452e-9c8a-fb18f31f236d"},"vehicle_type_id":"4","last_reported":1728184655,"current_range_meters":6800,"station_id":"ce4bhqh2rcd13ifvqhmg","pricing_plan_id":"cebpf4jnsgd1na2vs0mg"},{"bike_id":"efcd7dc6-cf1b-49b9-868e-e23f6839d189","system_id":"levelo_inurba_marseille","lat":43.27839,"lon":5.39199,"is_reserved":false,"is_disabled":false,"rental_uris":{"android":"levelo://app?vid=efcd7dc6-cf1b-49b9-868e-e23f6839d189","ios":"levelo://app?vid=efcd7dc6-cf1b-49b9-868e-e23f6839d189"},"vehicle_type_id":"4","last_reported":1728184655,"current_range_meters":6800,"station_id":"ce4bhjp2rcd13ifvqga0","pricing_plan_id":"cebpf4jnsgd1na2vs0mg"},{"bike_id":"1a978a89-dbeb-45cc-8c83-bb4f90d46fcc","system_id":"levelo_inurba_marseille","lat":43.31702,"lon":5.40462,"is_reserved":false,"is_disabled":false,"rental_uris":{"android":"levelo://app?vid=1a978a89-dbeb-45cc-8c83-bb4f90d46fcc","ios":"levelo://app?vid=1a978a89-dbeb-45cc-8c83-bb4f90d46fcc"},"vehicle_type_id":"4","last_reported":1728184655,"current_range_meters":38800,"station_id":"ce4bh012rcd13ifvqd00","pricing_plan_id":"cebpf4jnsgd1na2vs0mg"},{"bike_id":"2223b6cf-60c6-41bf-b1cd-7d09873a1aa5","system_id":"levelo_inurba_marseille","lat":43.26065,"lon":5.39394,"is_reserved":false,"is_disabled":false,"rental_uris":{"android":"levelo://app?vid=2223b6cf-60c6-41bf-b1cd-7d09873a1aa5","ios":"levelo://app?vid=2223b6cf-60c6-41bf-b1cd-7d09873a1aa5"},"vehicle_type_id":"4","last_reported":1728184655,"current_range_meters":38400,"station_id":"ce4bhh92rcd13ifvqfj0","pricing_plan_id":"cebpf4jnsgd1na2vs0mg"},{"bike_id":"d705d5b1-757b-4816-977e-42560dc6957c","system_id":"levelo_inurba_marseille","lat":43.30882,"lon":5.39644,"is_reserved":false,"is_disabled":false,"rental_uris":{"android":"levelo://app?vid=d705d5b1-757b-4816-977e-42560dc6957c","ios":"levelo://app?vid=d705d5b1-757b-4816-977e-42560dc6957c"},"vehicle_type_id":"4","last_reported":1728184655,"current_range_meters":34000,"station_id":"ce4bh012rcd13ifvqcv0","pricing_plan_id":"cebpf4jnsgd1na2vs0mg"},{"bike_id":"7e4b9590-3379-4154-a614-86d758234e67","system_id":"levelo_inurba_marseille","lat":43.25716,"lon":5.4111,"is_reserved":false,"is_disabled":false,"rental_uris":{"android":"levelo://app?vid=7e4b9590-3379-4154-a614-86d758234e67","ios":"levelo://app?vid=7e4b9590-3379-4154-a614-86d758234e67"},"vehicle_type_id":"4","last_reported":1728184655,"current_range_meters":38400,"station_id":"ce4bhkp2rcd13ifvqgd0","pricing_plan_id":"cebpf4jnsgd1na2vs0mg"},{"bike_id":"6b4b48f5-aae9-4d89-aeb6-ea751b5d55a9","system_id":"levelo_inurba_marseille","lat":43.29173,"lon":5.37139,"is_reserved":false,"is_disabled":false,"rental_uris":{"android":"levelo://app?vid=6b4b48f5-aae9-4d89-aeb6-ea751b5d55a9","ios":"levelo://app?vid=6b4b48f5-aae9-4d89-aeb6-ea751b5d55a9"},"vehicle_type_id":"4","last_reported":1728184655,"current_range_meters":38800,"station_id":"ce4bha92rcd13ifvqeh0","pricing_plan_id":"cebpf4jnsgd1na2vs0mg"},{"bike_id":"b1fb6c66-297c-4ee3-a459-eaa5b221bce3","system_id":"levelo_inurba_marseille","lat":43.29575,"lon":5.42276,"is_reserved":false,"is_disabled":false,"rental_uris":{"android":"levelo://app?vid=b1fb6c66-297c-4ee3-a459-eaa5b221bce3","ios":"levelo://app?vid=b1fb6c66-297c-4ee3-a459-eaa5b221bce3"},"vehicle_type_id":"4","last_reported":1728184655,"current_range_meters":19600,"station_id":"ce4bhph2rcd13ifvqhdg","pricing_plan_id":"cebpf4jnsgd1na2vs0mg"},{"bike_id":"480adf17-48da-4a88-9fcd-dcec4e853ca2","system_id":"levelo_inurba_marseille","lat":43.26791,"lon":5.39412,"is_reserved":false,"is_disabled":false,"rental_uris":{"android":"levelo://app?vid=480adf17-48da-4a88-9fcd-dcec4e853ca2","ios":"levelo://app?vid=480adf17-48da-4a88-9fcd-dcec4e853ca2"},"vehicle_type_id":"4","last_reported":1728184655,"current_range_meters":33200,"station_id":"ce4bhh12rcd13ifvqfg0","pricing_plan_id":"cebpf4jnsgd1na2vs0mg"},{"bike_id":"8681938f-9e36-4a3b-991e-8daa28e998ad","system_id":"levelo_inurba_marseille","lat":43.280786,"lon":5.396589,"is_reserved":false,"is_disabled":false,"rental_uris":{"android":"levelo://app?vid=8681938f-9e36-4a3b-991e-8daa28e998ad","ios":"levelo://app?vid=8681938f-9e36-4a3b-991e-8daa28e998ad"},"vehicle_type_id":"4","last_reported":1728184655,"current_range_meters":38400,"station_id":"ce4bho12rcd13ifvqh2g","pricing_plan_id":"cebpf4jnsgd1na2vs0mg"},{"bike_id":"4197ef8d-f35f-44aa-b27d-dc6b343bfa7a","system_id":"levelo_inurba_marseille","lat":43.27812,"lon":5.40707,"is_reserved":false,"is_disabled":false,"rental_uris":{"android":"levelo://app?vid=4197ef8d-f35f-44aa-b27d-dc6b343bfa7a","ios":"levelo://app?vid=4197ef8d-f35f-44aa-b27d-dc6b343bfa7a"},"vehicle_type_id":"4","last_reported":1728184655,"current_range_meters":38400,"station_id":"ce4bhnh2rcd13ifvqgtg","pricing_plan_id":"cebpf4jnsgd1na2vs0mg"},{"bike_id":"1bd2f7ec-d06e-4723-b3c8-18546fc91d7d","system_id":"levelo_inurba_marseille","lat":43.31278,"lon":5.40169,"is_reserved":false,"is_disabled":false,"rental_uris":{"android":"levelo://app?vid=1bd2f7ec-d06e-4723-b3c8-18546fc91d7d","ios":"levelo://app?vid=1bd2f7ec-d06e-4723-b3c8-18546fc91d7d"},"vehicle_type_id":"4","last_reported":1728184655,"current_range_meters":8800,"station_id":"ce4bh092rcd13ifvqd30","pricing_plan_id":"cebpf4jnsgd1na2vs0mg"},{"bike_id":"2f702661-d611-4ffb-b30a-4a8eb4fc84ee","system_id":"levelo_inurba_marseille","lat":43.27817,"lon":5.407068,"is_reserved":false,"is_disabled":false,"rental_uris":{"android":"levelo://app?vid=2f702661-d611-4ffb-b30a-4a8eb4fc84ee","ios":"levelo://app?vid=2f702661-d611-4ffb-b30a-4a8eb4fc84ee"},"vehicle_type_id":"4","last_reported":1728184655,"current_range_meters":30800,"station_id":"ce4bhnh2rcd13ifvqgtg","pricing_plan_id":"cebpf4jnsgd1na2vs0mg"},{"bike_id":"8c1d94de-77e2-40ee-84c9-e76678b0db66","system_id":"levelo_inurba_marseille","lat":43.2997,"lon":5.37167,"is_reserved":false,"is_disabled":false,"rental_uris":{"android":"levelo://app?vid=8c1d94de-77e2-40ee-84c9-e76678b0db66","ios":"levelo://app?vid=8c1d94de-77e2-40ee-84c9-e76678b0db66"},"vehicle_type_id":"4","last_reported":1728184655,"current_range_meters":38000,"station_id":"ce4bgr92rcd13ifvqc7g","pricing_plan_id":"cebpf4jnsgd1na2vs0mg"},{"bike_id":"9ca4ad83-eaa6-4426-baca-3a3e8322b7ea","system_id":"levelo_inurba_marseille","lat":43.27925,"lon":5.38004,"is_reserved":false,"is_disabled":false,"rental_uris":{"android":"levelo://app?vid=9ca4ad83-eaa6-4426-baca-3a3e8322b7ea","ios":"levelo://app?vid=9ca4ad83-eaa6-4426-baca-3a3e8322b7ea"},"vehicle_type_id":"4","last_reported":1728184655,"current_range_meters":36800,"station_id":"ce4bhf92rcd13ifvqf50","pricing_plan_id":"cebpf4jnsgd1na2vs0mg"},{"bike_id":"edd3d55d-61c7-4fec-aa60-0383480c2666","system_id":"levelo_inurba_marseille","lat":43.278351,"lon":5.392134,"is_reserved":false,"is_disabled":false,"rental_uris":{"android":"levelo://app?vid=edd3d55d-61c7-4fec-aa60-0383480c2666","ios":"levelo://app?vid=edd3d55d-61c7-4fec-aa60-0383480c2666"},"vehicle_type_id":"4","last_reported":1728184655,"current_range_meters":37600,"station_id":"ce4bhjp2rcd13ifvqga0","pricing_plan_id":"cebpf4jnsgd1na2vs0mg"},{"bike_id":"6ff38fbb-3e1f-4d59-a7a6-ab257495a9ff","system_id":"levelo_inurba_marseille","lat":43.25084,"lon":5.39516,"is_reserved":false,"is_disabled":false,"rental_uris":{"android":"levelo://app?vid=6ff38fbb-3e1f-4d59-a7a6-ab257495a9ff","ios":"levelo://app?vid=6ff38fbb-3e1f-4d59-a7a6-ab257495a9ff"},"vehicle_type_id":"4","last_reported":1728184655,"current_range_meters":12400,"station_id":"ce4bhm12rcd13ifvqgkg","pricing_plan_id":"cebpf4jnsgd1na2vs0mg"},{"bike_id":"65c59103-0b30-4b4d-8ddd-ed1931c22228","system_id":"levelo_inurba_marseille","lat":43.30353,"lon":5.41873,"is_reserved":false,"is_disabled":false,"rental_uris":{"android":"levelo://app?vid=65c59103-0b30-4b4d-8ddd-ed1931c22228","ios":"levelo://app?vid=65c59103-0b30-4b4d-8ddd-ed1931c22228"},"vehicle_type_id":"4","last_reported":1728184655,"current_range_meters":36800,"station_id":"ce4bhop2rcd13ifvqh7g","pricing_plan_id":"cebpf4jnsgd1na2vs0mg"},{"bike_id":"2e823ca9-acad-4e59-b240-5790d27f1ff5","system_id":"levelo_inurba_marseille","lat":43.2794,"lon":5.41044,"is_reserved":false,"is_disabled":false,"rental_uris":{"android":"levelo://app?vid=2e823ca9-acad-4e59-b240-5790d27f1ff5","ios":"levelo://app?vid=2e823ca9-acad-4e59-b240-5790d27f1ff5"},"vehicle_type_id":"4","last_reported":1728184655,"current_range_meters":24800,"station_id":"ce4bhnp2rcd13ifvqh0g","pricing_plan_id":"cebpf4jnsgd1na2vs0mg"},{"bike_id":"f207cc7e-6fda-4f2d-8cda-99287e3b61a1","system_id":"levelo_inurba_marseille","lat":43.27993,"lon":5.41656,"is_reserved":false,"is_disabled":false,"rental_uris":{"android":"levelo://app?vid=f207cc7e-6fda-4f2d-8cda-99287e3b61a1","ios":"levelo://app?vid=f207cc7e-6fda-4f2d-8cda-99287e3b61a1"},"vehicle_type_id":"4","last_reported":1728184655,"current_range_meters":28800,"station_id":"ce4bho12rcd13ifvqh1g","pricing_plan_id":"cebpf4jnsgd1na2vs0mg"},{"bike_id":"ce495bce-cc00-487d-99b0-43b1b136d223","system_id":"levelo_inurba_marseille","lat":43.29557,"lon":5.42276,"is_reserved":false,"is_disabled":false,"rental_uris":{"android":"levelo://app?vid=ce495bce-cc00-487d-99b0-43b1b136d223","ios":"levelo://app?vid=ce495bce-cc00-487d-99b0-43b1b136d223"},"vehicle_type_id":"4","last_reported":1728184655,"current_range_meters":31200,"station_id":"ce4bhph2rcd13ifvqhdg","pricing_plan_id":"cebpf4jnsgd1na2vs0mg"},{"bike_id":"48cfda74-5ea4-41e1-bcac-d6e207673b94","system_id":"levelo_inurba_marseille","lat":43.26058,"lon":5.39396,"is_reserved":false,"is_disabled":false,"rental_uris":{"android":"levelo://app?vid=48cfda74-5ea4-41e1-bcac-d6e207673b94","ios":"levelo://app?vid=48cfda74-5ea4-41e1-bcac-d6e207673b94"},"vehicle_type_id":"4","last_reported":1728184655,"current_range_meters":38400,"station_id":"ce4bhh92rcd13ifvqfj0","pricing_plan_id":"cebpf4jnsgd1na2vs0mg"},{"bike_id":"4c890982-9552-4059-b170-81698c459747","system_id":"levelo_inurba_marseille","lat":43.28732,"lon":5.36072,"is_reserved":false,"is_disabled":false,"rental_uris":{"android":"levelo://app?vid=4c890982-9552-4059-b170-81698c459747","ios":"levelo://app?vid=4c890982-9552-4059-b170-81698c459747"},"vehicle_type_id":"4","last_reported":1728184655,"current_range_meters":38800,"station_id":"cki0cbj6b192h4jlfktg","pricing_plan_id":"cebpf4jnsgd1na2vs0mg"},{"bike_id":"cc3075c7-c54d-44a6-b275-dc4c69848582","system_id":"levelo_inurba_marseille","lat":43.25112,"lon":5.4032,"is_reserved":false,"is_disabled":false,"rental_uris":{"android":"levelo://app?vid=cc3075c7-c54d-44a6-b275-dc4c69848582","ios":"levelo://app?vid=cc3075c7-c54d-44a6-b275-dc4c69848582"},"vehicle_type_id":"4","last_reported":1728184655,"current_range_meters":39200,"station_id":"ce4bhlh2rcd13ifvqgig","pricing_plan_id":"cebpf4jnsgd1na2vs0mg"},{"bike_id":"7e764f2b-b5f9-4a10-b1be-189838b6a6be","system_id":"levelo_inurba_marseille","lat":43.273212,"lon":5.390897,"is_reserved":false,"is_disabled":false,"rental_uris":{"android":"levelo://app?vid=7e764f2b-b5f9-4a10-b1be-189838b6a6be","ios":"levelo://app?vid=7e764f2b-b5f9-4a10-b1be-189838b6a6be"},"vehicle_type_id":"4","last_reported":1728184655,"current_range_meters":39200,"station_id":"ce4bhgp2rcd13ifvqfe0","pricing_plan_id":"cebpf4jnsgd1na2vs0mg"},{"bike_id":"490889b1-cee9-4892-9db5-299333956c90","system_id":"levelo_inurba_marseille","lat":43.34148,"lon":5.40903,"is_reserved":false,"is_disabled":false,"rental_uris":{"android":"levelo://app?vid=490889b1-cee9-4892-9db5-299333956c90","ios":"levelo://app?vid=490889b1-cee9-4892-9db5-299333956c90"},"vehicle_type_id":"4","last_reported":1728184655,"current_range_meters":38400,"station_id":"ce4bhqh2rcd13ifvqhlg","pricing_plan_id":"cebpf4jnsgd1na2vs0mg"},{"bike_id":"11d52fa8-13ff-45fc-8a34-3af6df2e27f7","system_id":"levelo_inurba_marseille","lat":43.28476,"lon":5.384179,"is_reserved":false,"is_disabled":false,"rental_uris":{"android":"levelo://app?vid=11d52fa8-13ff-45fc-8a34-3af6df2e27f7","ios":"levelo://app?vid=11d52fa8-13ff-45fc-8a34-3af6df2e27f7"},"vehicle_type_id":"4","last_reported":1728184655,"current_range_meters":36000,"station_id":"ce4bhgp2rcd13ifvqfe0","pricing_plan_id":"cebpf4jnsgd1na2vs0mg"},{"bike_id":"217416a1-1f76-43dc-a1b4-0f159977d7ca","system_id":"levelo_inurba_marseille","lat":43.313298,"lon":5.396943,"is_reserved":false,"is_disabled":false,"rental_uris":{"android":"levelo://app?vid=217416a1-1f76-43dc-a1b4-0f159977d7ca","ios":"levelo://app?vid=217416a1-1f76-43dc-a1b4-0f159977d7ca"},"vehicle_type_id":"4","last_reported":1728184655,"current_range_meters":34000,"station_id":"ce4bgvp2rcd13ifvqcu0","pricing_plan_id":"cebpf4jnsgd1na2vs0mg"},{"bike_id":"85ef83d9-fec6-405f-8a01-7a2d5ed9a2a1","system_id":"levelo_inurba_marseille","lat":43.29262,"lon":5.409,"is_reserved":false,"is_disabled":false,"rental_uris":{"android":"levelo://app?vid=85ef83d9-fec6-405f-8a01-7a2d5ed9a2a1","ios":"levelo://app?vid=85ef83d9-fec6-405f-8a01-7a2d5ed9a2a1"},"vehicle_type_id":"4","last_reported":1728184655,"current_range_meters":27600,"station_id":"ce4bh192rcd13ifvqdc0","pricing_plan_id":"cebpf4jnsgd1na2vs0mg"},{"bike_id":"06e57557-145f-43a2-b93f-f77babfa172d","system_id":"levelo_inurba_marseille","lat":43.29091,"lon":5.39924,"is_reserved":false,"is_disabled":false,"rental_uris":{"android":"levelo://app?vid=06e57557-145f-43a2-b93f-f77babfa172d","ios":"levelo://app?vid=06e57557-145f-43a2-b93f-f77babfa172d"},"vehicle_type_id":"4","last_reported":1728184655,"current_range_meters":38800,"station_id":"","pricing_plan_id":"cebpf4jnsgd1na2vs0mg"},{"bike_id":"bfade276-5a9f-45d5-b641-04bb267aa3b5","system_id":"levelo_inurba_marseille","lat":43.30451,"lon":5.38877,"is_reserved":false,"is_disabled":false,"rental_uris":{"android":"levelo://app?vid=bfade276-5a9f-45d5-b641-04bb267aa3b5","ios":"levelo://app?vid=bfade276-5a9f-45d5-b641-04bb267aa3b5"},"vehicle_type_id":"4","last_reported":1728184655,"current_range_meters":38800,"station_id":"ce4bgk12rcd13ifvqbi0","pricing_plan_id":"cebpf4jnsgd1na2vs0mg"},{"bike_id":"256fa177-60ee-45a2-a2aa-de47baeac3b4","system_id":"levelo_inurba_marseille","lat":43.322217,"lon":5.41354,"is_reserved":false,"is_disabled":false,"rental_uris":{"android":"levelo://app?vid=256fa177-60ee-45a2-a2aa-de47baeac3b4","ios":"levelo://app?vid=256fa177-60ee-45a2-a2aa-de47baeac3b4"},"vehicle_type_id":"4","last_reported":1728184655,"current_range_meters":38400,"station_id":"","pricing_plan_id":"cebpf4jnsgd1na2vs0mg"},{"bike_id":"389cdf32-7eb1-4775-914a-6dc8318d3538","system_id":"levelo_inurba_marseille","lat":43.26782,"lon":5.39412,"is_reserved":false,"is_disabled":false,"rental_uris":{"android":"levelo://app?vid=389cdf32-7eb1-4775-914a-6dc8318d3538","ios":"levelo://app?vid=389cdf32-7eb1-4775-914a-6dc8318d3538"},"vehicle_type_id":"4","last_reported":1728184655,"current_range_meters":31200,"station_id":"ce4bhh12rcd13ifvqfg0","pricing_plan_id":"cebpf4jnsgd1na2vs0mg"},{"bike_id":"168fdd0d-638b-492d-b1ce-678f05dbeac9","system_id":"levelo_inurba_marseille","lat":43.28733,"lon":5.36082,"is_reserved":false,"is_disabled":false,"rental_uris":{"android":"levelo://app?vid=168fdd0d-638b-492d-b1ce-678f05dbeac9","ios":"levelo://app?vid=168fdd0d-638b-492d-b1ce-678f05dbeac9"},"vehicle_type_id":"4","last_reported":1728184655,"current_range_meters":38800,"station_id":"cki0cbj6b192h4jlfktg","pricing_plan_id":"cebpf4jnsgd1na2vs0mg"},{"bike_id":"c1d151d5-477d-4c99-a567-ac040df1816b","system_id":"levelo_inurba_marseille","lat":43.29178,"lon":5.37134,"is_reserved":false,"is_disabled":false,"rental_uris":{"android":"levelo://app?vid=c1d151d5-477d-4c99-a567-ac040df1816b","ios":"levelo://app?vid=c1d151d5-477d-4c99-a567-ac040df1816b"},"vehicle_type_id":"4","last_reported":1728184655,"current_range_meters":38800,"station_id":"ce4bha92rcd13ifvqeh0","pricing_plan_id":"cebpf4jnsgd1na2vs0mg"},{"bike_id":"8da5e341-6cab-4468-9790-0734e5cf3e0b","system_id":"levelo_inurba_marseille","lat":43.2408,"lon":5.37755,"is_reserved":false,"is_disabled":false,"rental_uris":{"android":"levelo://app?vid=8da5e341-6cab-4468-9790-0734e5cf3e0b","ios":"levelo://app?vid=8da5e341-6cab-4468-9790-0734e5cf3e0b"},"vehicle_type_id":"4","last_reported":1728184655,"current_range_meters":38800,"station_id":"ce4bhnp2rcd13ifvqgvg","pricing_plan_id":"cebpf4jnsgd1na2vs0mg"},{"bike_id":"6bf16a2a-f63b-47d9-9110-1efaed25b77a","system_id":"levelo_inurba_marseille","lat":43.2293,"lon":5.35378,"is_reserved":false,"is_disabled":false,"rental_uris":{"android":"levelo://app?vid=6bf16a2a-f63b-47d9-9110-1efaed25b77a","ios":"levelo://app?vid=6bf16a2a-f63b-47d9-9110-1efaed25b77a"},"vehicle_type_id":"4","last_reported":1728184655,"current_range_meters":36400,"station_id":"cpo3532slgdg3j2ikp40","pricing_plan_id":"cebpf4jnsgd1na2vs0mg"},{"bike_id":"428f793c-4121-423c-8663-6edf254533e0","system_id":"levelo_inurba_marseille","lat":43.27569,"lon":5.38417,"is_reserved":false,"is_disabled":false,"rental_uris":{"android":"levelo://app?vid=428f793c-4121-423c-8663-6edf254533e0","ios":"levelo://app?vid=428f793c-4121-423c-8663-6edf254533e0"},"vehicle_type_id":"4","last_reported":1728184655,"current_range_meters":39200,"station_id":"ce4bhh92rcd13ifvqfi0","pricing_plan_id":"cebpf4jnsgd1na2vs0mg"},{"bike_id":"e5eec4b9-9a76-4196-ac0c-40b845f94b12","system_id":"levelo_inurba_marseille","lat":43.294861,"lon":5.422406,"is_reserved":false,"is_disabled":false,"rental_uris":{"android":"levelo://app?vid=e5eec4b9-9a76-4196-ac0c-40b845f94b12","ios":"levelo://app?vid=e5eec4b9-9a76-4196-ac0c-40b845f94b12"},"vehicle_type_id":"4","last_reported":1728184655,"current_range_meters":8800,"station_id":"ce4bgup2rcd13ifvqco0","pricing_plan_id":"cebpf4jnsgd1na2vs0mg"},{"bike_id":"f847f035-9a4d-4206-b6aa-aacd56cdefdc","system_id":"levelo_inurba_marseille","lat":43.28111,"lon":5.37829,"is_reserved":false,"is_disabled":false,"rental_uris":{"android":"levelo://app?vid=f847f035-9a4d-4206-b6aa-aacd56cdefdc","ios":"levelo://app?vid=f847f035-9a4d-4206-b6aa-aacd56cdefdc"},"vehicle_type_id":"4","last_reported":1728184655,"current_range_meters":39200,"station_id":"ce4bha12rcd13ifvqee0","pricing_plan_id":"cebpf4jnsgd1na2vs0mg"},{"bike_id":"f16a1e3c-43c9-4345-8f77-6960f75f80b0","system_id":"levelo_inurba_marseille","lat":43.25003,"lon":5.38933,"is_reserved":false,"is_disabled":false,"rental_uris":{"android":"levelo://app?vid=f16a1e3c-43c9-4345-8f77-6960f75f80b0","ios":"levelo://app?vid=f16a1e3c-43c9-4345-8f77-6960f75f80b0"},"vehicle_type_id":"4","last_reported":1728184655,"current_range_meters":36400,"station_id":"ce4bhgp2rcd13ifvqfd0","pricing_plan_id":"cebpf4jnsgd1na2vs0mg"},{"bike_id":"f962fd38-fe03-4482-936c-e2245547cf0a","system_id":"levelo_inurba_marseille","lat":43.30645,"lon":5.40077,"is_reserved":false,"is_disabled":false,"rental_uris":{"android":"levelo://app?vid=f962fd38-fe03-4482-936c-e2245547cf0a","ios":"levelo://app?vid=f962fd38-fe03-4482-936c-e2245547cf0a"},"vehicle_type_id":"4","last_reported":1728184655,"current_range_meters":34800,"station_id":"ce4bh112rcd13ifvqda0","pricing_plan_id":"cebpf4jnsgd1na2vs0mg"},{"bike_id":"1d8f069e-c200-4a71-9592-c6a3563ce161","system_id":"levelo_inurba_marseille","lat":43.291652,"lon":5.371473,"is_reserved":false,"is_disabled":false,"rental_uris":{"android":"levelo://app?vid=1d8f069e-c200-4a71-9592-c6a3563ce161","ios":"levelo://app?vid=1d8f069e-c200-4a71-9592-c6a3563ce161"},"vehicle_type_id":"4","last_reported":1728184655,"current_range_meters":38800,"station_id":"ce4bha92rcd13ifvqeh0","pricing_plan_id":"cebpf4jnsgd1na2vs0mg"},{"bike_id":"467f4dad-860b-40f5-b4ca-9e05ccc20611","system_id":"levelo_inurba_marseille","lat":43.30919,"lon":5.40137,"is_reserved":false,"is_disabled":false,"rental_uris":{"android":"levelo://app?vid=467f4dad-860b-40f5-b4ca-9e05ccc20611","ios":"levelo://app?vid=467f4dad-860b-40f5-b4ca-9e05ccc20611"},"vehicle_type_id":"4","last_reported":1728184655,"current_range_meters":38800,"station_id":"ce4bgvp2rcd13ifvqct0","pricing_plan_id":"cebpf4jnsgd1na2vs0mg"},{"bike_id":"54a74be3-c242-46ce-9878-c249787a7807","system_id":"levelo_inurba_marseille","lat":43.31283,"lon":5.40169,"is_reserved":false,"is_disabled":false,"rental_uris":{"android":"levelo://app?vid=54a74be3-c242-46ce-9878-c249787a7807","ios":"levelo://app?vid=54a74be3-c242-46ce-9878-c249787a7807"},"vehicle_type_id":"4","last_reported":1728184655,"current_range_meters":27200,"station_id":"ce4bh092rcd13ifvqd30","pricing_plan_id":"cebpf4jnsgd1na2vs0mg"},{"bike_id":"489d3596-b98a-4cf0-a057-455f16d5e96d","system_id":"levelo_inurba_marseille","lat":43.3133,"lon":5.39699,"is_reserved":false,"is_disabled":false,"rental_uris":{"android":"levelo://app?vid=489d3596-b98a-4cf0-a057-455f16d5e96d","ios":"levelo://app?vid=489d3596-b98a-4cf0-a057-455f16d5e96d"},"vehicle_type_id":"4","last_reported":1728184655,"current_range_meters":39200,"station_id":"ce4bgvp2rcd13ifvqcu0","pricing_plan_id":"cebpf4jnsgd1na2vs0mg"},{"bike_id":"8a5d33e0-b975-42b3-abe3-d9312cfdb7f5","system_id":"levelo_inurba_marseille","lat":43.30789,"lon":5.37654,"is_reserved":false,"is_disabled":false,"rental_uris":{"android":"levelo://app?vid=8a5d33e0-b975-42b3-abe3-d9312cfdb7f5","ios":"levelo://app?vid=8a5d33e0-b975-42b3-abe3-d9312cfdb7f5"},"vehicle_type_id":"4","last_reported":1728184655,"current_range_meters":36000,"station_id":"ce4bgv92rcd13ifvqcq0","pricing_plan_id":"cebpf4jnsgd1na2vs0mg"},{"bike_id":"cda12a4d-8902-4f89-ba00-ce7f414c7bc4","system_id":"levelo_inurba_marseille","lat":43.3043,"lon":5.3975,"is_reserved":false,"is_disabled":false,"rental_uris":{"android":"levelo://app?vid=cda12a4d-8902-4f89-ba00-ce7f414c7bc4","ios":"levelo://app?vid=cda12a4d-8902-4f89-ba00-ce7f414c7bc4"},"vehicle_type_id":"4","last_reported":1728184655,"current_range_meters":6000,"station_id":"ce4bh092rcd13ifvqd20","pricing_plan_id":"cebpf4jnsgd1na2vs0mg"},{"bike_id":"646517eb-897e-4996-9fc0-4d132f59f1ae","system_id":"levelo_inurba_marseille","lat":43.28705,"lon":5.39971,"is_reserved":false,"is_disabled":false,"rental_uris":{"android":"levelo://app?vid=646517eb-897e-4996-9fc0-4d132f59f1ae","ios":"levelo://app?vid=646517eb-897e-4996-9fc0-4d132f59f1ae"},"vehicle_type_id":"4","last_reported":1728184655,"current_range_meters":30800,"station_id":"ce4bho92rcd13ifvqh3g","pricing_plan_id":"cebpf4jnsgd1na2vs0mg"},{"bike_id":"7cdd683b-1d53-47c9-89fe-f645deb63715","system_id":"levelo_inurba_marseille","lat":43.30802,"lon":5.43527,"is_reserved":false,"is_disabled":false,"rental_uris":{"android":"levelo://app?vid=7cdd683b-1d53-47c9-89fe-f645deb63715","ios":"levelo://app?vid=7cdd683b-1d53-47c9-89fe-f645deb63715"},"vehicle_type_id":"4","last_reported":1728184655,"current_range_meters":4000,"station_id":"ce4bhph2rcd13ifvqheg","pricing_plan_id":"cebpf4jnsgd1na2vs0mg"},{"bike_id":"6c71eda2-c555-4b0f-95b8-131e1b4bdcc6","system_id":"levelo_inurba_marseille","lat":43.291,"lon":5.38133,"is_reserved":false,"is_disabled":false,"rental_uris":{"android":"levelo://app?vid=6c71eda2-c555-4b0f-95b8-131e1b4bdcc6","ios":"levelo://app?vid=6c71eda2-c555-4b0f-95b8-131e1b4bdcc6"},"vehicle_type_id":"4","last_reported":1728184655,"current_range_meters":38800,"station_id":"ce4bh512rcd13ifvqe2g","pricing_plan_id":"cebpf4jnsgd1na2vs0mg"},{"bike_id":"704d9481-6ec3-47be-8efb-df494f367ab6","system_id":"levelo_inurba_marseille","lat":43.29554,"lon":5.42281,"is_reserved":false,"is_disabled":false,"rental_uris":{"android":"levelo://app?vid=704d9481-6ec3-47be-8efb-df494f367ab6","ios":"levelo://app?vid=704d9481-6ec3-47be-8efb-df494f367ab6"},"vehicle_type_id":"4","last_reported":1728184655,"current_range_meters":39200,"station_id":"ce4bhph2rcd13ifvqhdg","pricing_plan_id":"cebpf4jnsgd1na2vs0mg"},{"bike_id":"2912abb1-e6fe-40f9-a80b-b98fc8142039","system_id":"levelo_inurba_marseille","lat":43.3199,"lon":5.38152,"is_reserved":false,"is_disabled":false,"rental_uris":{"android":"levelo://app?vid=2912abb1-e6fe-40f9-a80b-b98fc8142039","ios":"levelo://app?vid=2912abb1-e6fe-40f9-a80b-b98fc8142039"},"vehicle_type_id":"4","last_reported":1728184655,"current_range_meters":38800,"station_id":"ce4bhr12rcd13ifvqhpg","pricing_plan_id":"cebpf4jnsgd1na2vs0mg"},{"bike_id":"9e64fe2b-fd8d-4b2d-b4a9-e0835858dd64","system_id":"levelo_inurba_marseille","lat":43.295552,"lon":5.422787,"is_reserved":false,"is_disabled":false,"rental_uris":{"android":"levelo://app?vid=9e64fe2b-fd8d-4b2d-b4a9-e0835858dd64","ios":"levelo://app?vid=9e64fe2b-fd8d-4b2d-b4a9-e0835858dd64"},"vehicle_type_id":"4","last_reported":1728184655,"current_range_meters":6800,"station_id":"ce4bhph2rcd13ifvqhdg","pricing_plan_id":"cebpf4jnsgd1na2vs0mg"},{"bike_id":"5ed1c359-627e-4835-9959-230f7bf3336f","system_id":"levelo_inurba_marseille","lat":43.28609,"lon":5.37054,"is_reserved":false,"is_disabled":false,"rental_uris":{"android":"levelo://app?vid=5ed1c359-627e-4835-9959-230f7bf3336f","ios":"levelo://app?vid=5ed1c359-627e-4835-9959-230f7bf3336f"},"vehicle_type_id":"4","last_reported":1728184655,"current_range_meters":30400,"station_id":"ce4bht12rcd13ifvqi60","pricing_plan_id":"cebpf4jnsgd1na2vs0mg"},{"bike_id":"e8eb2859-8be7-4852-a7df-ba2f9b4c73ff","system_id":"levelo_inurba_marseille","lat":43.30597,"lon":5.39344,"is_reserved":false,"is_disabled":false,"rental_uris":{"android":"levelo://app?vid=e8eb2859-8be7-4852-a7df-ba2f9b4c73ff","ios":"levelo://app?vid=e8eb2859-8be7-4852-a7df-ba2f9b4c73ff"},"vehicle_type_id":"4","last_reported":1728184655,"current_range_meters":39200,"station_id":"ce4bh0p2rcd13ifvqd80","pricing_plan_id":"cebpf4jnsgd1na2vs0mg"},{"bike_id":"6df513f4-8c75-4b0a-82ff-d337a9bc6d97","system_id":"levelo_inurba_marseille","lat":43.25872,"lon":5.39899,"is_reserved":false,"is_disabled":false,"rental_uris":{"android":"levelo://app?vid=6df513f4-8c75-4b0a-82ff-d337a9bc6d97","ios":"levelo://app?vid=6df513f4-8c75-4b0a-82ff-d337a9bc6d97"},"vehicle_type_id":"4","last_reported":1728184655,"current_range_meters":38800,"station_id":"ce4bhl92rcd13ifvqghg","pricing_plan_id":"cebpf4jnsgd1na2vs0mg"},{"bike_id":"e7341701-5d04-4cdb-84d0-b90046595e3c","system_id":"levelo_inurba_marseille","lat":43.29266,"lon":5.40126,"is_reserved":false,"is_disabled":false,"rental_uris":{"android":"levelo://app?vid=e7341701-5d04-4cdb-84d0-b90046595e3c","ios":"levelo://app?vid=e7341701-5d04-4cdb-84d0-b90046595e3c"},"vehicle_type_id":"4","last_reported":1728184655,"current_range_meters":35200,"station_id":"ce4bh312rcd13ifvqdk0","pricing_plan_id":"cebpf4jnsgd1na2vs0mg"},{"bike_id":"bb5f5452-4b9b-417d-b148-b396a874f3d9","system_id":"levelo_inurba_marseille","lat":43.33767,"lon":5.37414,"is_reserved":false,"is_disabled":false,"rental_uris":{"android":"levelo://app?vid=bb5f5452-4b9b-417d-b148-b396a874f3d9","ios":"levelo://app?vid=bb5f5452-4b9b-417d-b148-b396a874f3d9"},"vehicle_type_id":"4","last_reported":1728184655,"current_range_meters":28000,"station_id":"","pricing_plan_id":"cebpf4jnsgd1na2vs0mg"},{"bike_id":"f8dc0ff5-6c8a-4ba6-abb8-5e3ab8e94100","system_id":"levelo_inurba_marseille","lat":43.271747,"lon":5.409928,"is_reserved":false,"is_disabled":false,"rental_uris":{"android":"levelo://app?vid=f8dc0ff5-6c8a-4ba6-abb8-5e3ab8e94100","ios":"levelo://app?vid=f8dc0ff5-6c8a-4ba6-abb8-5e3ab8e94100"},"vehicle_type_id":"4","last_reported":1728184655,"current_range_meters":37600,"station_id":"ce4bhl12rcd13ifvqgf0","pricing_plan_id":"cebpf4jnsgd1na2vs0mg"},{"bike_id":"a38ce0aa-4c25-49e4-a3e6-21e62b481b01","system_id":"levelo_inurba_marseille","lat":43.287099,"lon":5.399806,"is_reserved":false,"is_disabled":false,"rental_uris":{"android":"levelo://app?vid=a38ce0aa-4c25-49e4-a3e6-21e62b481b01","ios":"levelo://app?vid=a38ce0aa-4c25-49e4-a3e6-21e62b481b01"},"vehicle_type_id":"4","last_reported":1728184655,"current_range_meters":39200,"station_id":"ce4bho92rcd13ifvqh3g","pricing_plan_id":"cebpf4jnsgd1na2vs0mg"},{"bike_id":"ab83fadf-d068-4c8e-b6a0-a2c4cd43bc9b","system_id":"levelo_inurba_marseille","lat":43.31997,"lon":5.38149,"is_reserved":false,"is_disabled":false,"rental_uris":{"android":"levelo://app?vid=ab83fadf-d068-4c8e-b6a0-a2c4cd43bc9b","ios":"levelo://app?vid=ab83fadf-d068-4c8e-b6a0-a2c4cd43bc9b"},"vehicle_type_id":"4","last_reported":1728184655,"current_range_meters":30800,"station_id":"ce4bhr12rcd13ifvqhpg","pricing_plan_id":"cebpf4jnsgd1na2vs0mg"},{"bike_id":"73a5307d-3e7d-4037-8357-25200e33a5e5","system_id":"levelo_inurba_marseille","lat":43.28415,"lon":5.37509,"is_reserved":false,"is_disabled":false,"rental_uris":{"android":"levelo://app?vid=73a5307d-3e7d-4037-8357-25200e33a5e5","ios":"levelo://app?vid=73a5307d-3e7d-4037-8357-25200e33a5e5"},"vehicle_type_id":"4","last_reported":1728184655,"current_range_meters":32000,"station_id":"ce4bh412rcd13ifvqds0","pricing_plan_id":"cebpf4jnsgd1na2vs0mg"},{"bike_id":"d5bd4fc9-b596-4a66-8faa-61c6a5dce860","system_id":"levelo_inurba_marseille","lat":43.29893,"lon":5.43663,"is_reserved":false,"is_disabled":false,"rental_uris":{"android":"levelo://app?vid=d5bd4fc9-b596-4a66-8faa-61c6a5dce860","ios":"levelo://app?vid=d5bd4fc9-b596-4a66-8faa-61c6a5dce860"},"vehicle_type_id":"4","last_reported":1728184655,"current_range_meters":39200,"station_id":"ce4bhpp2rcd13ifvqhfg","pricing_plan_id":"cebpf4jnsgd1na2vs0mg"},{"bike_id":"d03ade4d-0971-473e-b3ae-d762f130dbfe","system_id":"levelo_inurba_marseille","lat":43.29872,"lon":5.39726,"is_reserved":false,"is_disabled":false,"rental_uris":{"android":"levelo://app?vid=d03ade4d-0971-473e-b3ae-d762f130dbfe","ios":"levelo://app?vid=d03ade4d-0971-473e-b3ae-d762f130dbfe"},"vehicle_type_id":"4","last_reported":1728184655,"current_range_meters":38800,"station_id":"ce4bh0h2rcd13ifvqd50","pricing_plan_id":"cebpf4jnsgd1na2vs0mg"},{"bike_id":"11ac3aaa-4104-46d2-af84-26d4fe6ba565","system_id":"levelo_inurba_marseille","lat":43.27815,"lon":5.40712,"is_reserved":false,"is_disabled":false,"rental_uris":{"android":"levelo://app?vid=11ac3aaa-4104-46d2-af84-26d4fe6ba565","ios":"levelo://app?vid=11ac3aaa-4104-46d2-af84-26d4fe6ba565"},"vehicle_type_id":"4","last_reported":1728184655,"current_range_meters":36800,"station_id":"ce4bhnh2rcd13ifvqgtg","pricing_plan_id":"cebpf4jnsgd1na2vs0mg"},{"bike_id":"38c89ef1-1d14-415c-859a-9589d2e0e998","system_id":"levelo_inurba_marseille","lat":43.26493,"lon":5.39547,"is_reserved":false,"is_disabled":false,"rental_uris":{"android":"levelo://app?vid=38c89ef1-1d14-415c-859a-9589d2e0e998","ios":"levelo://app?vid=38c89ef1-1d14-415c-859a-9589d2e0e998"},"vehicle_type_id":"4","last_reported":1728184655,"current_range_meters":39200,"station_id":"ce4bhi12rcd13ifvqfq0","pricing_plan_id":"cebpf4jnsgd1na2vs0mg"},{"bike_id":"f3d4e1ba-c888-4e07-9a1c-39eb5179eca7","system_id":"levelo_inurba_marseille","lat":43.31177,"lon":5.38711,"is_reserved":false,"is_disabled":false,"rental_uris":{"android":"levelo://app?vid=f3d4e1ba-c888-4e07-9a1c-39eb5179eca7","ios":"levelo://app?vid=f3d4e1ba-c888-4e07-9a1c-39eb5179eca7"},"vehicle_type_id":"4","last_reported":1728184655,"current_range_meters":30800,"station_id":"ce4bgv12rcd13ifvqcp0","pricing_plan_id":"cebpf4jnsgd1na2vs0mg"},{"bike_id":"0f35cf48-fa00-4494-a8d4-4e002476bb6c","system_id":"levelo_inurba_marseille","lat":43.295534,"lon":5.422754,"is_reserved":false,"is_disabled":false,"rental_uris":{"android":"levelo://app?vid=0f35cf48-fa00-4494-a8d4-4e002476bb6c","ios":"levelo://app?vid=0f35cf48-fa00-4494-a8d4-4e002476bb6c"},"vehicle_type_id":"4","last_reported":1728184655,"current_range_meters":38000,"station_id":"ce4bhph2rcd13ifvqhdg","pricing_plan_id":"cebpf4jnsgd1na2vs0mg"},{"bike_id":"8e94c158-3450-4d74-9a10-086db250f48e","system_id":"levelo_inurba_marseille","lat":43.27173,"lon":5.3903,"is_reserved":false,"is_disabled":false,"rental_uris":{"android":"levelo://app?vid=8e94c158-3450-4d74-9a10-086db250f48e","ios":"levelo://app?vid=8e94c158-3450-4d74-9a10-086db250f48e"},"vehicle_type_id":"4","last_reported":1728184655,"current_range_meters":34800,"station_id":"","pricing_plan_id":"cebpf4jnsgd1na2vs0mg"},{"bike_id":"8ef0d884-6abe-4b43-a0e5-51a1aa3f343a","system_id":"levelo_inurba_marseille","lat":43.31721,"lon":5.4239,"is_reserved":false,"is_disabled":false,"rental_uris":{"android":"levelo://app?vid=8ef0d884-6abe-4b43-a0e5-51a1aa3f343a","ios":"levelo://app?vid=8ef0d884-6abe-4b43-a0e5-51a1aa3f343a"},"vehicle_type_id":"4","last_reported":1728184655,"current_range_meters":8000,"station_id":"ce4bhp92rcd13ifvqhbg","pricing_plan_id":"cebpf4jnsgd1na2vs0mg"},{"bike_id":"7b5b2fce-53f1-4698-9e50-7d6973cfda2f","system_id":"levelo_inurba_marseille","lat":43.28704,"lon":5.3997,"is_reserved":false,"is_disabled":false,"rental_uris":{"android":"levelo://app?vid=7b5b2fce-53f1-4698-9e50-7d6973cfda2f","ios":"levelo://app?vid=7b5b2fce-53f1-4698-9e50-7d6973cfda2f"},"vehicle_type_id":"4","last_reported":1728184655,"current_range_meters":39200,"station_id":"ce4bho92rcd13ifvqh3g","pricing_plan_id":"cebpf4jnsgd1na2vs0mg"},{"bike_id":"475403d5-0f73-468d-8711-91dc2dc49e75","system_id":"levelo_inurba_marseille","lat":43.28869,"lon":5.35835,"is_reserved":false,"is_disabled":false,"rental_uris":{"android":"levelo://app?vid=475403d5-0f73-468d-8711-91dc2dc49e75","ios":"levelo://app?vid=475403d5-0f73-468d-8711-91dc2dc49e75"},"vehicle_type_id":"4","last_reported":1728184655,"current_range_meters":28400,"station_id":"ce4bhb12rcd13ifvqem0","pricing_plan_id":"cebpf4jnsgd1na2vs0mg"},{"bike_id":"2f1f7e56-c6cd-448e-b406-4d3dfc3a4de4","system_id":"levelo_inurba_marseille","lat":43.25724,"lon":5.41098,"is_reserved":false,"is_disabled":false,"rental_uris":{"android":"levelo://app?vid=2f1f7e56-c6cd-448e-b406-4d3dfc3a4de4","ios":"levelo://app?vid=2f1f7e56-c6cd-448e-b406-4d3dfc3a4de4"},"vehicle_type_id":"4","last_reported":1728184655,"current_range_meters":32400,"station_id":"ce4bhkp2rcd13ifvqgd0","pricing_plan_id":"cebpf4jnsgd1na2vs0mg"},{"bike_id":"1ee81508-41a1-4e3e-8ff6-e4273d8073de","system_id":"levelo_inurba_marseille","lat":43.32005,"lon":5.38155,"is_reserved":false,"is_disabled":false,"rental_uris":{"android":"levelo://app?vid=1ee81508-41a1-4e3e-8ff6-e4273d8073de","ios":"levelo://app?vid=1ee81508-41a1-4e3e-8ff6-e4273d8073de"},"vehicle_type_id":"4","last_reported":1728184655,"current_range_meters":4800,"station_id":"ce4bhr12rcd13ifvqhpg","pricing_plan_id":"cebpf4jnsgd1na2vs0mg"},{"bike_id":"58822ca1-68f8-4f6b-9765-150c72bf3810","system_id":"levelo_inurba_marseille","lat":43.286684,"lon":5.363536,"is_reserved":false,"is_disabled":false,"rental_uris":{"android":"levelo://app?vid=58822ca1-68f8-4f6b-9765-150c72bf3810","ios":"levelo://app?vid=58822ca1-68f8-4f6b-9765-150c72bf3810"},"vehicle_type_id":"4","last_reported":1728184655,"current_range_meters":39200,"station_id":"ce4bhah2rcd13ifvqej0","pricing_plan_id":"cebpf4jnsgd1na2vs0mg"},{"bike_id":"ad4290a2-e0da-4543-a67e-91c74f2432ac","system_id":"levelo_inurba_marseille","lat":43.27674,"lon":5.38874,"is_reserved":false,"is_disabled":false,"rental_uris":{"android":"levelo://app?vid=ad4290a2-e0da-4543-a67e-91c74f2432ac","ios":"levelo://app?vid=ad4290a2-e0da-4543-a67e-91c74f2432ac"},"vehicle_type_id":"4","last_reported":1728184655,"current_range_meters":39200,"station_id":"ce4bhi12rcd13ifvqfo0","pricing_plan_id":"cebpf4jnsgd1na2vs0mg"},{"bike_id":"6431128f-d629-415c-9507-a60d9c1f8359","system_id":"levelo_inurba_marseille","lat":43.29049,"lon":5.39948,"is_reserved":false,"is_disabled":false,"rental_uris":{"android":"levelo://app?vid=6431128f-d629-415c-9507-a60d9c1f8359","ios":"levelo://app?vid=6431128f-d629-415c-9507-a60d9c1f8359"},"vehicle_type_id":"4","last_reported":1728184655,"current_range_meters":28800,"station_id":"ce4bh392rcd13ifvqdm0","pricing_plan_id":"cebpf4jnsgd1na2vs0mg"},{"bike_id":"a8f8aea3-c3d7-4710-8712-db175e7978e0","system_id":"levelo_inurba_marseille","lat":43.309306,"lon":5.401466,"is_reserved":false,"is_disabled":false,"rental_uris":{"android":"levelo://app?vid=a8f8aea3-c3d7-4710-8712-db175e7978e0","ios":"levelo://app?vid=a8f8aea3-c3d7-4710-8712-db175e7978e0"},"vehicle_type_id":"4","last_reported":1728184655,"current_range_meters":30800,"station_id":"ce4bgvp2rcd13ifvqct0","pricing_plan_id":"cebpf4jnsgd1na2vs0mg"},{"bike_id":"bab516d1-d7f1-4d23-b2fa-cb43d0750992","system_id":"levelo_inurba_marseille","lat":43.23193,"lon":5.39983,"is_reserved":false,"is_disabled":false,"rental_uris":{"android":"levelo://app?vid=bab516d1-d7f1-4d23-b2fa-cb43d0750992","ios":"levelo://app?vid=bab516d1-d7f1-4d23-b2fa-cb43d0750992"},"vehicle_type_id":"4","last_reported":1728184655,"current_range_meters":8400,"station_id":"ce4bhn12rcd13ifvqgqg","pricing_plan_id":"cebpf4jnsgd1na2vs0mg"},{"bike_id":"1d7e584d-d9bd-4a40-880d-10ef72bd85dc","system_id":"levelo_inurba_marseille","lat":43.280813,"lon":5.39649,"is_reserved":false,"is_disabled":false,"rental_uris":{"android":"levelo://app?vid=1d7e584d-d9bd-4a40-880d-10ef72bd85dc","ios":"levelo://app?vid=1d7e584d-d9bd-4a40-880d-10ef72bd85dc"},"vehicle_type_id":"4","last_reported":1728184655,"current_range_meters":38400,"station_id":"ce4bho12rcd13ifvqh2g","pricing_plan_id":"cebpf4jnsgd1na2vs0mg"},{"bike_id":"a94f106c-921c-40e5-90b8-0a0b7d3f49ab","system_id":"levelo_inurba_marseille","lat":43.33362,"lon":5.3585,"is_reserved":false,"is_disabled":false,"rental_uris":{"android":"levelo://app?vid=a94f106c-921c-40e5-90b8-0a0b7d3f49ab","ios":"levelo://app?vid=a94f106c-921c-40e5-90b8-0a0b7d3f49ab"},"vehicle_type_id":"4","last_reported":1728184655,"current_range_meters":20400,"station_id":"","pricing_plan_id":"cebpf4jnsgd1na2vs0mg"},{"bike_id":"3f75b285-bf87-4037-863f-775d9a9d6495","system_id":"levelo_inurba_marseille","lat":43.33026,"lon":5.39036,"is_reserved":false,"is_disabled":false,"rental_uris":{"android":"levelo://app?vid=3f75b285-bf87-4037-863f-775d9a9d6495","ios":"levelo://app?vid=3f75b285-bf87-4037-863f-775d9a9d6495"},"vehicle_type_id":"4","last_reported":1728184655,"current_range_meters":38800,"station_id":"ce4bhr92rcd13ifvqhrg","pricing_plan_id":"cebpf4jnsgd1na2vs0mg"},{"bike_id":"7c9ef478-7387-4cc6-95cf-6452ba0be681","system_id":"levelo_inurba_marseille","lat":43.29555,"lon":5.42279,"is_reserved":false,"is_disabled":false,"rental_uris":{"android":"levelo://app?vid=7c9ef478-7387-4cc6-95cf-6452ba0be681","ios":"levelo://app?vid=7c9ef478-7387-4cc6-95cf-6452ba0be681"},"vehicle_type_id":"4","last_reported":1728184655,"current_range_meters":36000,"station_id":"ce4bhph2rcd13ifvqhdg","pricing_plan_id":"cebpf4jnsgd1na2vs0mg"},{"bike_id":"f1543ab5-4e23-417f-809a-d8a6268dedc7","system_id":"levelo_inurba_marseille","lat":43.24553,"lon":5.39513,"is_reserved":false,"is_disabled":false,"rental_uris":{"android":"levelo://app?vid=f1543ab5-4e23-417f-809a-d8a6268dedc7","ios":"levelo://app?vid=f1543ab5-4e23-417f-809a-d8a6268dedc7"},"vehicle_type_id":"4","last_reported":1728184655,"current_range_meters":39200,"station_id":"ce4bhlp2rcd13ifvqgjg","pricing_plan_id":"cebpf4jnsgd1na2vs0mg"},{"bike_id":"a7a0ce32-a2e1-414d-9cb4-b7863590ca64","system_id":"levelo_inurba_marseille","lat":43.27562,"lon":5.38415,"is_reserved":false,"is_disabled":false,"rental_uris":{"android":"levelo://app?vid=a7a0ce32-a2e1-414d-9cb4-b7863590ca64","ios":"levelo://app?vid=a7a0ce32-a2e1-414d-9cb4-b7863590ca64"},"vehicle_type_id":"4","last_reported":1728184655,"current_range_meters":37600,"station_id":"ce4bhh92rcd13ifvqfi0","pricing_plan_id":"cebpf4jnsgd1na2vs0mg"},{"bike_id":"4037c19f-b08a-4f2f-9716-23a4592989a7","system_id":"levelo_inurba_marseille","lat":43.32358,"lon":5.38877,"is_reserved":false,"is_disabled":false,"rental_uris":{"android":"levelo://app?vid=4037c19f-b08a-4f2f-9716-23a4592989a7","ios":"levelo://app?vid=4037c19f-b08a-4f2f-9716-23a4592989a7"},"vehicle_type_id":"4","last_reported":1728184655,"current_range_meters":38000,"station_id":"ce4bhqp2rcd13ifvqhog","pricing_plan_id":"cebpf4jnsgd1na2vs0mg"},{"bike_id":"dcb4c6c4-8237-41ce-a572-63834d47b3fb","system_id":"levelo_inurba_marseille","lat":43.26499,"lon":5.39531,"is_reserved":false,"is_disabled":false,"rental_uris":{"android":"levelo://app?vid=dcb4c6c4-8237-41ce-a572-63834d47b3fb","ios":"levelo://app?vid=dcb4c6c4-8237-41ce-a572-63834d47b3fb"},"vehicle_type_id":"4","last_reported":1728184655,"current_range_meters":16400,"station_id":"ce4bhi12rcd13ifvqfq0","pricing_plan_id":"cebpf4jnsgd1na2vs0mg"},{"bike_id":"6eaca8f5-3830-4424-893c-263c0864ef10","system_id":"levelo_inurba_marseille","lat":43.280335,"lon":5.369446,"is_reserved":false,"is_disabled":false,"rental_uris":{"android":"levelo://app?vid=6eaca8f5-3830-4424-893c-263c0864ef10","ios":"levelo://app?vid=6eaca8f5-3830-4424-893c-263c0864ef10"},"vehicle_type_id":"4","last_reported":1728184655,"current_range_meters":38800,"station_id":"ce4bha12rcd13ifvqef0","pricing_plan_id":"cebpf4jnsgd1na2vs0mg"},{"bike_id":"7d832797-a368-47ce-80a8-50d6a3763de8","system_id":"levelo_inurba_marseille","lat":43.2842,"lon":5.38457,"is_reserved":false,"is_disabled":false,"rental_uris":{"android":"levelo://app?vid=7d832797-a368-47ce-80a8-50d6a3763de8","ios":"levelo://app?vid=7d832797-a368-47ce-80a8-50d6a3763de8"},"vehicle_type_id":"4","last_reported":1728184655,"current_range_meters":30000,"station_id":"","pricing_plan_id":"cebpf4jnsgd1na2vs0mg"},{"bike_id":"868fa2c3-859c-4b5a-b69c-933c8c522d35","system_id":"levelo_inurba_marseille","lat":43.3137,"lon":5.38499,"is_reserved":false,"is_disabled":false,"rental_uris":{"android":"levelo://app?vid=868fa2c3-859c-4b5a-b69c-933c8c522d35","ios":"levelo://app?vid=868fa2c3-859c-4b5a-b69c-933c8c522d35"},"vehicle_type_id":"4","last_reported":1728184655,"current_range_meters":37600,"station_id":"ce4bgt92rcd13ifvqcf0","pricing_plan_id":"cebpf4jnsgd1na2vs0mg"},{"bike_id":"74983cf6-a738-4717-bd2d-9d908de43d2b","system_id":"levelo_inurba_marseille","lat":43.28475,"lon":5.35876,"is_reserved":false,"is_disabled":false,"rental_uris":{"android":"levelo://app?vid=74983cf6-a738-4717-bd2d-9d908de43d2b","ios":"levelo://app?vid=74983cf6-a738-4717-bd2d-9d908de43d2b"},"vehicle_type_id":"4","last_reported":1728184655,"current_range_meters":36400,"station_id":"ce4bhah2rcd13ifvqei0","pricing_plan_id":"cebpf4jnsgd1na2vs0mg"},{"bike_id":"126e8b9c-d4ba-4fdf-b891-8a69ddbd21f6","system_id":"levelo_inurba_marseille","lat":43.3211,"lon":5.36777,"is_reserved":false,"is_disabled":false,"rental_uris":{"android":"levelo://app?vid=126e8b9c-d4ba-4fdf-b891-8a69ddbd21f6","ios":"levelo://app?vid=126e8b9c-d4ba-4fdf-b891-8a69ddbd21f6"},"vehicle_type_id":"4","last_reported":1728184655,"current_range_meters":27600,"station_id":"ce4bhrh2rcd13ifvqhug","pricing_plan_id":"cebpf4jnsgd1na2vs0mg"},{"bike_id":"cd479abc-12ff-413e-a9bf-69e6ced65d03","system_id":"levelo_inurba_marseille","lat":43.24647,"lon":5.38898,"is_reserved":false,"is_disabled":false,"rental_uris":{"android":"levelo://app?vid=cd479abc-12ff-413e-a9bf-69e6ced65d03","ios":"levelo://app?vid=cd479abc-12ff-413e-a9bf-69e6ced65d03"},"vehicle_type_id":"4","last_reported":1728184655,"current_range_meters":39200,"station_id":"ce4bhg12rcd13ifvqf60","pricing_plan_id":"cebpf4jnsgd1na2vs0mg"},{"bike_id":"68b77a88-2067-422a-ab7b-e29094a40dcc","system_id":"levelo_inurba_marseille","lat":43.25124,"lon":5.40315,"is_reserved":false,"is_disabled":false,"rental_uris":{"android":"levelo://app?vid=68b77a88-2067-422a-ab7b-e29094a40dcc","ios":"levelo://app?vid=68b77a88-2067-422a-ab7b-e29094a40dcc"},"vehicle_type_id":"4","last_reported":1728184655,"current_range_meters":38000,"station_id":"ce4bhlh2rcd13ifvqgig","pricing_plan_id":"cebpf4jnsgd1na2vs0mg"},{"bike_id":"d3f60117-edac-46af-a600-02c6c194981b","system_id":"levelo_inurba_marseille","lat":43.306536,"lon":5.400748,"is_reserved":false,"is_disabled":false,"rental_uris":{"android":"levelo://app?vid=d3f60117-edac-46af-a600-02c6c194981b","ios":"levelo://app?vid=d3f60117-edac-46af-a600-02c6c194981b"},"vehicle_type_id":"4","last_reported":1728184655,"current_range_meters":12800,"station_id":"ce4bh112rcd13ifvqda0","pricing_plan_id":"cebpf4jnsgd1na2vs0mg"},{"bike_id":"198b7b91-efea-4512-8d8c-b04e98bbb399","system_id":"levelo_inurba_marseille","lat":43.23186,"lon":5.39981,"is_reserved":false,"is_disabled":false,"rental_uris":{"android":"levelo://app?vid=198b7b91-efea-4512-8d8c-b04e98bbb399","ios":"levelo://app?vid=198b7b91-efea-4512-8d8c-b04e98bbb399"},"vehicle_type_id":"4","last_reported":1728184655,"current_range_meters":38400,"station_id":"ce4bhn12rcd13ifvqgqg","pricing_plan_id":"cebpf4jnsgd1na2vs0mg"},{"bike_id":"9b3aac6f-2698-4e54-9a40-68b4bda7929c","system_id":"levelo_inurba_marseille","lat":43.27909,"lon":5.38007,"is_reserved":false,"is_disabled":false,"rental_uris":{"android":"levelo://app?vid=9b3aac6f-2698-4e54-9a40-68b4bda7929c","ios":"levelo://app?vid=9b3aac6f-2698-4e54-9a40-68b4bda7929c"},"vehicle_type_id":"4","last_reported":1728184655,"current_range_meters":38000,"station_id":"ce4bhf92rcd13ifvqf50","pricing_plan_id":"cebpf4jnsgd1na2vs0mg"},{"bike_id":"3246e9fa-6aa1-4bd7-858d-ddbf0d2e62e5","system_id":"levelo_inurba_marseille","lat":43.30143,"lon":5.39864,"is_reserved":false,"is_disabled":false,"rental_uris":{"android":"levelo://app?vid=3246e9fa-6aa1-4bd7-858d-ddbf0d2e62e5","ios":"levelo://app?vid=3246e9fa-6aa1-4bd7-858d-ddbf0d2e62e5"},"vehicle_type_id":"4","last_reported":1728184655,"current_range_meters":20400,"station_id":"ce4bh0h2rcd13ifvqd40","pricing_plan_id":"cebpf4jnsgd1na2vs0mg"},{"bike_id":"55e97f7f-5765-4465-b5f8-31d57afc4c78","system_id":"levelo_inurba_marseille","lat":43.29558,"lon":5.4229,"is_reserved":false,"is_disabled":false,"rental_uris":{"android":"levelo://app?vid=55e97f7f-5765-4465-b5f8-31d57afc4c78","ios":"levelo://app?vid=55e97f7f-5765-4465-b5f8-31d57afc4c78"},"vehicle_type_id":"4","last_reported":1728184655,"current_range_meters":30400,"station_id":"ce4bhph2rcd13ifvqhdg","pricing_plan_id":"cebpf4jnsgd1na2vs0mg"},{"bike_id":"78cfcc3c-2061-4c54-8e9a-c4d9b3a845c4","system_id":"levelo_inurba_marseille","lat":43.29546,"lon":5.42278,"is_reserved":false,"is_disabled":false,"rental_uris":{"android":"levelo://app?vid=78cfcc3c-2061-4c54-8e9a-c4d9b3a845c4","ios":"levelo://app?vid=78cfcc3c-2061-4c54-8e9a-c4d9b3a845c4"},"vehicle_type_id":"4","last_reported":1728184655,"current_range_meters":9200,"station_id":"ce4bhph2rcd13ifvqhdg","pricing_plan_id":"cebpf4jnsgd1na2vs0mg"},{"bike_id":"7b9ba1ff-08b4-4bd7-8512-4be43a62039f","system_id":"levelo_inurba_marseille","lat":43.28704,"lon":5.39966,"is_reserved":false,"is_disabled":false,"rental_uris":{"android":"levelo://app?vid=7b9ba1ff-08b4-4bd7-8512-4be43a62039f","ios":"levelo://app?vid=7b9ba1ff-08b4-4bd7-8512-4be43a62039f"},"vehicle_type_id":"4","last_reported":1728184655,"current_range_meters":27600,"station_id":"ce4bho92rcd13ifvqh3g","pricing_plan_id":"cebpf4jnsgd1na2vs0mg"},{"bike_id":"55e217d6-57c5-416b-95fb-6164e675d8e4","system_id":"levelo_inurba_marseille","lat":43.29557,"lon":5.42283,"is_reserved":false,"is_disabled":false,"rental_uris":{"android":"levelo://app?vid=55e217d6-57c5-416b-95fb-6164e675d8e4","ios":"levelo://app?vid=55e217d6-57c5-416b-95fb-6164e675d8e4"},"vehicle_type_id":"4","last_reported":1728184655,"current_range_meters":39200,"station_id":"ce4bhph2rcd13ifvqhdg","pricing_plan_id":"cebpf4jnsgd1na2vs0mg"},{"bike_id":"1ce7e339-76b2-4237-ad27-ada904063fc2","system_id":"levelo_inurba_marseille","lat":43.28349,"lon":5.38108,"is_reserved":false,"is_disabled":false,"rental_uris":{"android":"levelo://app?vid=1ce7e339-76b2-4237-ad27-ada904063fc2","ios":"levelo://app?vid=1ce7e339-76b2-4237-ad27-ada904063fc2"},"vehicle_type_id":"4","last_reported":1728184655,"current_range_meters":38800,"station_id":"ce4bh412rcd13ifvqdr0","pricing_plan_id":"cebpf4jnsgd1na2vs0mg"},{"bike_id":"4fea846c-9813-440d-886c-458270909c65","system_id":"levelo_inurba_marseille","lat":43.28473,"lon":5.35878,"is_reserved":false,"is_disabled":false,"rental_uris":{"android":"levelo://app?vid=4fea846c-9813-440d-886c-458270909c65","ios":"levelo://app?vid=4fea846c-9813-440d-886c-458270909c65"},"vehicle_type_id":"4","last_reported":1728184655,"current_range_meters":39200,"station_id":"ce4bhah2rcd13ifvqei0","pricing_plan_id":"cebpf4jnsgd1na2vs0mg"},{"bike_id":"9f19e14f-fab5-49bf-878b-9a40978f6235","system_id":"levelo_inurba_marseille","lat":43.28438,"lon":5.39183,"is_reserved":false,"is_disabled":false,"rental_uris":{"android":"levelo://app?vid=9f19e14f-fab5-49bf-878b-9a40978f6235","ios":"levelo://app?vid=9f19e14f-fab5-49bf-878b-9a40978f6235"},"vehicle_type_id":"4","last_reported":1728184655,"current_range_meters":39200,"station_id":"ce4bhoh2rcd13ifvqh5g","pricing_plan_id":"cebpf4jnsgd1na2vs0mg"},{"bike_id":"b6fd76d3-34a5-4c26-a80e-03dca3f57387","system_id":"levelo_inurba_marseille","lat":43.336,"lon":5.41019,"is_reserved":false,"is_disabled":false,"rental_uris":{"android":"levelo://app?vid=b6fd76d3-34a5-4c26-a80e-03dca3f57387","ios":"levelo://app?vid=b6fd76d3-34a5-4c26-a80e-03dca3f57387"},"vehicle_type_id":"4","last_reported":1728184655,"current_range_meters":8800,"station_id":"ce4bhqh2rcd13ifvqhmg","pricing_plan_id":"cebpf4jnsgd1na2vs0mg"},{"bike_id":"07132a2a-b6b1-401c-ad83-18824057f9b0","system_id":"levelo_inurba_marseille","lat":43.30658,"lon":5.40068,"is_reserved":false,"is_disabled":false,"rental_uris":{"android":"levelo://app?vid=07132a2a-b6b1-401c-ad83-18824057f9b0","ios":"levelo://app?vid=07132a2a-b6b1-401c-ad83-18824057f9b0"},"vehicle_type_id":"4","last_reported":1728184655,"current_range_meters":34800,"station_id":"ce4bh112rcd13ifvqda0","pricing_plan_id":"cebpf4jnsgd1na2vs0mg"},{"bike_id":"4cfc80d4-b97c-4c3c-97d6-996e68d8712f","system_id":"levelo_inurba_marseille","lat":43.303282,"lon":5.404405,"is_reserved":false,"is_disabled":false,"rental_uris":{"android":"levelo://app?vid=4cfc80d4-b97c-4c3c-97d6-996e68d8712f","ios":"levelo://app?vid=4cfc80d4-b97c-4c3c-97d6-996e68d8712f"},"vehicle_type_id":"4","last_reported":1728184655,"current_range_meters":32800,"station_id":"ce4bh012rcd13ifvqd10","pricing_plan_id":"cebpf4jnsgd1na2vs0mg"},{"bike_id":"152f3a24-1071-41b9-a2ed-934df83e2faa","system_id":"levelo_inurba_marseille","lat":43.258641,"lon":5.399056,"is_reserved":false,"is_disabled":false,"rental_uris":{"android":"levelo://app?vid=152f3a24-1071-41b9-a2ed-934df83e2faa","ios":"levelo://app?vid=152f3a24-1071-41b9-a2ed-934df83e2faa"},"vehicle_type_id":"4","last_reported":1728184655,"current_range_meters":23200,"station_id":"ce4bhl92rcd13ifvqghg","pricing_plan_id":"cebpf4jnsgd1na2vs0mg"},{"bike_id":"e52556a0-eec0-42f8-9dff-bfa9d9b67ba6","system_id":"levelo_inurba_marseille","lat":43.32479,"lon":5.36566,"is_reserved":false,"is_disabled":false,"rental_uris":{"android":"levelo://app?vid=e52556a0-eec0-42f8-9dff-bfa9d9b67ba6","ios":"levelo://app?vid=e52556a0-eec0-42f8-9dff-bfa9d9b67ba6"},"vehicle_type_id":"4","last_reported":1728184655,"current_range_meters":26800,"station_id":"ce4bhs12rcd13ifvqhvg","pricing_plan_id":"cebpf4jnsgd1na2vs0mg"},{"bike_id":"0a843e23-1706-4500-a4bf-01a4c0c5081c","system_id":"levelo_inurba_marseille","lat":43.27841,"lon":5.38518,"is_reserved":false,"is_disabled":false,"rental_uris":{"android":"levelo://app?vid=0a843e23-1706-4500-a4bf-01a4c0c5081c","ios":"levelo://app?vid=0a843e23-1706-4500-a4bf-01a4c0c5081c"},"vehicle_type_id":"4","last_reported":1728184655,"current_range_meters":34000,"station_id":"","pricing_plan_id":"cebpf4jnsgd1na2vs0mg"},{"bike_id":"1389bc01-1539-492d-b24d-d1ad5bffa484","system_id":"levelo_inurba_marseille","lat":43.302592,"lon":5.400756,"is_reserved":false,"is_disabled":false,"rental_uris":{"android":"levelo://app?vid=1389bc01-1539-492d-b24d-d1ad5bffa484","ios":"levelo://app?vid=1389bc01-1539-492d-b24d-d1ad5bffa484"},"vehicle_type_id":"4","last_reported":1728184655,"current_range_meters":37600,"station_id":"ce4bgvh2rcd13ifvqcs0","pricing_plan_id":"cebpf4jnsgd1na2vs0mg"},{"bike_id":"0206aab1-99d2-4109-8df3-4f2fc5521402","system_id":"levelo_inurba_marseille","lat":43.23196,"lon":5.35552,"is_reserved":false,"is_disabled":false,"rental_uris":{"android":"levelo://app?vid=0206aab1-99d2-4109-8df3-4f2fc5521402","ios":"levelo://app?vid=0206aab1-99d2-4109-8df3-4f2fc5521402"},"vehicle_type_id":"4","last_reported":1728184655,"current_range_meters":38000,"station_id":"ce4bhu92rcd13ifvqi70","pricing_plan_id":"cebpf4jnsgd1na2vs0mg"},{"bike_id":"77e44f96-8992-4ec5-ba2c-5e51b9e5b288","system_id":"levelo_inurba_marseille","lat":43.2706,"lon":5.38786,"is_reserved":false,"is_disabled":false,"rental_uris":{"android":"levelo://app?vid=77e44f96-8992-4ec5-ba2c-5e51b9e5b288","ios":"levelo://app?vid=77e44f96-8992-4ec5-ba2c-5e51b9e5b288"},"vehicle_type_id":"4","last_reported":1728184655,"current_range_meters":37600,"station_id":"","pricing_plan_id":"cebpf4jnsgd1na2vs0mg"},{"bike_id":"86bc09fe-737e-4f60-8f3d-88351c12d24c","system_id":"levelo_inurba_marseille","lat":43.301483,"lon":5.380732,"is_reserved":false,"is_disabled":false,"rental_uris":{"android":"levelo://app?vid=86bc09fe-737e-4f60-8f3d-88351c12d24c","ios":"levelo://app?vid=86bc09fe-737e-4f60-8f3d-88351c12d24c"},"vehicle_type_id":"4","last_reported":1728184655,"current_range_meters":32400,"station_id":"ce4bgjp2rcd13ifvqbh0","pricing_plan_id":"cebpf4jnsgd1na2vs0mg"},{"bike_id":"97b2baff-d224-48b3-a58a-dbd53fb50d0d","system_id":"levelo_inurba_marseille","lat":43.28442,"lon":5.39185,"is_reserved":false,"is_disabled":false,"rental_uris":{"android":"levelo://app?vid=97b2baff-d224-48b3-a58a-dbd53fb50d0d","ios":"levelo://app?vid=97b2baff-d224-48b3-a58a-dbd53fb50d0d"},"vehicle_type_id":"4","last_reported":1728184655,"current_range_meters":38800,"station_id":"ce4bhoh2rcd13ifvqh5g","pricing_plan_id":"cebpf4jnsgd1na2vs0mg"},{"bike_id":"ea6cad51-86c8-4493-9cce-3d75faa651ad","system_id":"levelo_inurba_marseille","lat":43.26807,"lon":5.40266,"is_reserved":false,"is_disabled":false,"rental_uris":{"android":"levelo://app?vid=ea6cad51-86c8-4493-9cce-3d75faa651ad","ios":"levelo://app?vid=ea6cad51-86c8-4493-9cce-3d75faa651ad"},"vehicle_type_id":"4","last_reported":1728184655,"current_range_meters":15200,"station_id":"ce501612rcd8frsf0b60","pricing_plan_id":"cebpf4jnsgd1na2vs0mg"},{"bike_id":"b51ee6d2-4574-4587-a7f0-3852397ae634","system_id":"levelo_inurba_marseille","lat":43.22926,"lon":5.35379,"is_reserved":false,"is_disabled":false,"rental_uris":{"android":"levelo://app?vid=b51ee6d2-4574-4587-a7f0-3852397ae634","ios":"levelo://app?vid=b51ee6d2-4574-4587-a7f0-3852397ae634"},"vehicle_type_id":"4","last_reported":1728184655,"current_range_meters":37600,"station_id":"cpo3532slgdg3j2ikp40","pricing_plan_id":"cebpf4jnsgd1na2vs0mg"},{"bike_id":"4f5038fe-9ccd-4d04-a6cd-afe04d9be89f","system_id":"levelo_inurba_marseille","lat":43.27379,"lon":5.36251,"is_reserved":false,"is_disabled":false,"rental_uris":{"android":"levelo://app?vid=4f5038fe-9ccd-4d04-a6cd-afe04d9be89f","ios":"levelo://app?vid=4f5038fe-9ccd-4d04-a6cd-afe04d9be89f"},"vehicle_type_id":"4","last_reported":1728184655,"current_range_meters":34800,"station_id":"ce4bhbh2rcd13ifvqeo0","pricing_plan_id":"cebpf4jnsgd1na2vs0mg"},{"bike_id":"0a8c9a0d-0b0f-4138-98a5-c8e50caa5c7e","system_id":"levelo_inurba_marseille","lat":43.24174,"lon":5.39724,"is_reserved":false,"is_disabled":false,"rental_uris":{"android":"levelo://app?vid=0a8c9a0d-0b0f-4138-98a5-c8e50caa5c7e","ios":"levelo://app?vid=0a8c9a0d-0b0f-4138-98a5-c8e50caa5c7e"},"vehicle_type_id":"4","last_reported":1728184655,"current_range_meters":6800,"station_id":"ce4bhn12rcd13ifvqgpg","pricing_plan_id":"cebpf4jnsgd1na2vs0mg"},{"bike_id":"411b7766-5fd9-42f4-94e2-6d59554d4823","system_id":"levelo_inurba_marseille","lat":43.30651,"lon":5.4008,"is_reserved":false,"is_disabled":false,"rental_uris":{"android":"levelo://app?vid=411b7766-5fd9-42f4-94e2-6d59554d4823","ios":"levelo://app?vid=411b7766-5fd9-42f4-94e2-6d59554d4823"},"vehicle_type_id":"4","last_reported":1728184655,"current_range_meters":21600,"station_id":"ce4bh112rcd13ifvqda0","pricing_plan_id":"cebpf4jnsgd1na2vs0mg"},{"bike_id":"2b027b08-111f-4d9f-b9ba-738cd515165f","system_id":"levelo_inurba_marseille","lat":43.26929,"lon":5.38913,"is_reserved":false,"is_disabled":false,"rental_uris":{"android":"levelo://app?vid=2b027b08-111f-4d9f-b9ba-738cd515165f","ios":"levelo://app?vid=2b027b08-111f-4d9f-b9ba-738cd515165f"},"vehicle_type_id":"4","last_reported":1728184655,"current_range_meters":38800,"station_id":"ce4bhhh2rcd13ifvqfl0","pricing_plan_id":"cebpf4jnsgd1na2vs0mg"},{"bike_id":"d91af7a0-e968-4500-8fde-6538c6ce32cd","system_id":"levelo_inurba_marseille","lat":43.27901,"lon":5.380051,"is_reserved":false,"is_disabled":false,"rental_uris":{"android":"levelo://app?vid=d91af7a0-e968-4500-8fde-6538c6ce32cd","ios":"levelo://app?vid=d91af7a0-e968-4500-8fde-6538c6ce32cd"},"vehicle_type_id":"4","last_reported":1728184655,"current_range_meters":39200,"station_id":"ce4bhf92rcd13ifvqf50","pricing_plan_id":"cebpf4jnsgd1na2vs0mg"},{"bike_id":"4e0c83a2-b0c3-4894-8559-e509681998d3","system_id":"levelo_inurba_marseille","lat":43.31119,"lon":5.38322,"is_reserved":false,"is_disabled":false,"rental_uris":{"android":"levelo://app?vid=4e0c83a2-b0c3-4894-8559-e509681998d3","ios":"levelo://app?vid=4e0c83a2-b0c3-4894-8559-e509681998d3"},"vehicle_type_id":"4","last_reported":1728184655,"current_range_meters":11600,"station_id":"","pricing_plan_id":"cebpf4jnsgd1na2vs0mg"},{"bike_id":"338e9782-33b8-4381-8662-88953eb6061c","system_id":"levelo_inurba_marseille","lat":43.28361,"lon":5.38645,"is_reserved":false,"is_disabled":false,"rental_uris":{"android":"levelo://app?vid=338e9782-33b8-4381-8662-88953eb6061c","ios":"levelo://app?vid=338e9782-33b8-4381-8662-88953eb6061c"},"vehicle_type_id":"4","last_reported":1728184655,"current_range_meters":38800,"station_id":"ce4bh492rcd13ifvqdvg","pricing_plan_id":"cebpf4jnsgd1na2vs0mg"},{"bike_id":"6427da65-1c01-46ad-bce6-7b1503f7b986","system_id":"levelo_inurba_marseille","lat":43.31822,"lon":5.40632,"is_reserved":false,"is_disabled":false,"rental_uris":{"android":"levelo://app?vid=6427da65-1c01-46ad-bce6-7b1503f7b986","ios":"levelo://app?vid=6427da65-1c01-46ad-bce6-7b1503f7b986"},"vehicle_type_id":"4","last_reported":1728184655,"current_range_meters":13600,"station_id":"","pricing_plan_id":"cebpf4jnsgd1na2vs0mg"},{"bike_id":"d3d0826a-8542-464c-893d-a0abebc55504","system_id":"levelo_inurba_marseille","lat":43.31283,"lon":5.40167,"is_reserved":false,"is_disabled":false,"rental_uris":{"android":"levelo://app?vid=d3d0826a-8542-464c-893d-a0abebc55504","ios":"levelo://app?vid=d3d0826a-8542-464c-893d-a0abebc55504"},"vehicle_type_id":"4","last_reported":1728184655,"current_range_meters":38800,"station_id":"ce4bh092rcd13ifvqd30","pricing_plan_id":"cebpf4jnsgd1na2vs0mg"},{"bike_id":"c8a81076-9586-4795-a406-3705874a4aa0","system_id":"levelo_inurba_marseille","lat":43.22926,"lon":5.35376,"is_reserved":false,"is_disabled":false,"rental_uris":{"android":"levelo://app?vid=c8a81076-9586-4795-a406-3705874a4aa0","ios":"levelo://app?vid=c8a81076-9586-4795-a406-3705874a4aa0"},"vehicle_type_id":"4","last_reported":1728184655,"current_range_meters":32000,"station_id":"cpo3532slgdg3j2ikp40","pricing_plan_id":"cebpf4jnsgd1na2vs0mg"},{"bike_id":"05bfd5bd-cbf9-4ceb-a570-0f8bbbbaa4c4","system_id":"levelo_inurba_marseille","lat":43.27555,"lon":5.38407,"is_reserved":false,"is_disabled":false,"rental_uris":{"android":"levelo://app?vid=05bfd5bd-cbf9-4ceb-a570-0f8bbbbaa4c4","ios":"levelo://app?vid=05bfd5bd-cbf9-4ceb-a570-0f8bbbbaa4c4"},"vehicle_type_id":"4","last_reported":1728184655,"current_range_meters":34800,"station_id":"ce4bhh92rcd13ifvqfi0","pricing_plan_id":"cebpf4jnsgd1na2vs0mg"},{"bike_id":"8d4950f1-b301-449d-bcd0-f0ac70cb73de","system_id":"levelo_inurba_marseille","lat":43.285,"lon":5.42191,"is_reserved":false,"is_disabled":false,"rental_uris":{"android":"levelo://app?vid=8d4950f1-b301-449d-bcd0-f0ac70cb73de","ios":"levelo://app?vid=8d4950f1-b301-449d-bcd0-f0ac70cb73de"},"vehicle_type_id":"4","last_reported":1728184655,"current_range_meters":6400,"station_id":"","pricing_plan_id":"cebpf4jnsgd1na2vs0mg"},{"bike_id":"acb42592-bf69-4207-abd5-bccef3c85fae","system_id":"levelo_inurba_marseille","lat":43.31897,"lon":5.40732,"is_reserved":false,"is_disabled":false,"rental_uris":{"android":"levelo://app?vid=acb42592-bf69-4207-abd5-bccef3c85fae","ios":"levelo://app?vid=acb42592-bf69-4207-abd5-bccef3c85fae"},"vehicle_type_id":"4","last_reported":1728184655,"current_range_meters":38800,"station_id":"ce4bhq12rcd13ifvqhig","pricing_plan_id":"cebpf4jnsgd1na2vs0mg"},{"bike_id":"a673aca5-f96f-46ea-a9b2-74e544b621d8","system_id":"levelo_inurba_marseille","lat":43.28951,"lon":5.36387,"is_reserved":false,"is_disabled":false,"rental_uris":{"android":"levelo://app?vid=a673aca5-f96f-46ea-a9b2-74e544b621d8","ios":"levelo://app?vid=a673aca5-f96f-46ea-a9b2-74e544b621d8"},"vehicle_type_id":"4","last_reported":1728184655,"current_range_meters":38800,"station_id":"ce4bhc92rcd13ifvqetg","pricing_plan_id":"cebpf4jnsgd1na2vs0mg"},{"bike_id":"c378dc83-ebd1-41d3-9b5e-a9309637a11d","system_id":"levelo_inurba_marseille","lat":43.30936,"lon":5.4014,"is_reserved":false,"is_disabled":false,"rental_uris":{"android":"levelo://app?vid=c378dc83-ebd1-41d3-9b5e-a9309637a11d","ios":"levelo://app?vid=c378dc83-ebd1-41d3-9b5e-a9309637a11d"},"vehicle_type_id":"4","last_reported":1728184655,"current_range_meters":9600,"station_id":"ce4bgvp2rcd13ifvqct0","pricing_plan_id":"cebpf4jnsgd1na2vs0mg"},