{"last_updated":1753528165,"ttl":60,"version":"2.2","data":{"bikes":[{"bike_id":"85244870-de2e-4268-95b7-c2ed15b3c6be","system_id":"levelo_inurba_marseille","lat":43.29848,"lon":5.36836,"is_reserved":false,"is_disabled":true,"rental_uris":{"android":"levelo://app?vid=85244870-de2e-4268-95b7-c2ed15b3c6be","ios":"levelo://app?vid=85244870-de2e-4268-95b7-c2ed15b3c6be"},"vehicle_type_id":"4","last_reported":1753528166,"current_range_meters":2800,"station_id":"ce4bgr92rcd13ifvqc7g","pricing_plan_id":"cebpf4jnsgd1na2vs0mg"},{"bike_id":"66f985b1-e5a9-4f2e-b38f-59701715c429","system_id":"levelo_inurba_marseille","lat":43.27561,"lon":5.38428,"is_reserved":false,"is_disabled":false,"rental_uris":{"android":"levelo://app?vid=66f985b1-e5a9-4f2e-b38f-59701715c429","ios":"levelo://app?vid=66f985b1-e5a9-4f2e-b38f-59701715c429"},"vehicle_type_id":"4","last_reported":1753528166,"current_range_meters":3200,"station_id":"ce4bhh92rcd13ifvqfi0","pricing_plan_id":"cebpf4jnsgd1na2vs0mg"},{"bike_id":"0f80fd5d-6e0f-478b-ac50-47cc49181482","system_id":"levelo_inurba_marseille","lat":43.305099,"lon":5.366286,"is_reserved":false,"is_disabled":true,"rental_uris":{"android":"levelo://app?vid=0f80fd5d-6e0f-478b-ac50-47cc49181482","ios":"levelo://app?vid=0f80fd5d-6e0f-478b-ac50-47cc49181482"},"vehicle_type_id":"4","last_reported":1753528166,"current_range_meters":3600,"station_id":"ce4bhi12rcd13ifvqfo0","pricing_plan_id":"cebpf4jnsgd1na2vs0mg"},{"bike_id":"4dbc8470-6add-4f56-a2bf-3ed0af1c90a6","system_id":"levelo_inurba_marseille","lat":43.30151,"lon":5.38075,"is_reserved":false,"is_disabled":false,"rental_uris":{"android":"levelo://app?vid=4dbc8470-6add-4f56-a2bf-3ed0af1c90a6","ios":"levelo://app?vid=4dbc8470-6add-4f56-a2bf-3ed0af1c90a6"},"vehicle_type_id":"4","last_reported":1753528166,"current_range_meters":4400,"station_id":"ce4bgjp2rcd13ifvqbh0","pricing_plan_id":"cebpf4jnsgd1na2vs0mg"},{"bike_id":"e19cd9bd-8f1f-4909-a624-5af678243303","system_id":"levelo_inurba_marseille","lat":43.290614,"lon":5.398765,"is_reserved":false,"is_disabled":false,"rental_uris":{"android":"levelo://app?vid=e19cd9bd-8f1f-4909-a624-5af678243303","ios":"levelo://app?vid=e19cd9bd-8f1f-4909-a624-5af678243303"},"vehicle_type_id":"4","last_reported":1753528166,"current_range_meters":4000,"station_id":"","pricing_plan_id":"cebpf4jnsgd1na2vs0mg"},{"bike_id":"941d375f-74fb-4f28-8c3b-9f65596b24b8","system_id":"levelo_inurba_marseille","lat":43.26553,"lon":5.3728,"is_reserved":false,"is_disabled":false,"rental_uris":{"android":"levelo://app?vid=941d375f-74fb-4f28-8c3b-9f65596b24b8","ios":"levelo://app?vid=941d375f-74fb-4f28-8c3b-9f65596b24b8"},"vehicle_type_id":"4","last_reported":1753528166,"current_range_meters":4000,"station_id":"ce4bhg12rcd13ifvqf70","pricing_plan_id":"cebpf4jnsgd1na2vs0mg"},{"bike_id":"8ebaf2af-6e27-4aed-b359-17e55f72c364","system_id":"levelo_inurba_marseille","lat":43.31269,"lon":5.40165,"is_reserved":false,"is_disabled":false,"rental_uris":{"android":"levelo://app?vid=8ebaf2af-6e27-4aed-b359-17e55f72c364","ios":"levelo://app?vid=8ebaf2af-6e27-4aed-b359-17e55f72c364"},"vehicle_type_id":"4","last_reported":1753528166,"current_range_meters":4400,"station_id":"ce4bh092rcd13ifvqd30","pricing_plan_id":"cebpf4jnsgd1na2vs0mg"},{"bike_id":"b93c0803-f824-4cb7-a4ed-57da1403b68e","system_id":"levelo_inurba_marseille","lat":43.325583,"lon":5.379059,"is_reserved":false,"is_disabled":true,"rental_uris":{"android":"levelo://app?vid=b93c0803-f824-4cb7-a4ed-57da1403b68e","ios":"levelo://app?vid=b93c0803-f824-4cb7-a4ed-57da1403b68e"},"vehicle_type_id":"4","last_reported":1753528166,"current_range_meters":4400,"station_id":"","pricing_plan_id":"cebpf4jnsgd1na2vs0mg"},{"bike_id":"4fc63183-bce0-49bd-98f4-c2842de62457","system_id":"levelo_inurba_marseille","lat":43.28347,"lon":5.35286,"is_reserved":false,"is_disabled":false,"rental_uris":{"android":"levelo://app?vid=4fc63183-bce0-49bd-98f4-c2842de62457","ios":"levelo://app?vid=4fc63183-bce0-49bd-98f4-c2842de62457"},"vehicle_type_id":"4","last_reported":1753528166,"current_range_meters":4400,"station_id":"","pricing_plan_id":"cebpf4jnsgd1na2vs0mg"},{"bike_id":"f28d2bb9-4217-4196-a573-ba6f4c172497","system_id":"levelo_inurba_marseille","lat":43.281586,"lon":5.361147,"is_reserved":false,"is_disabled":false,"rental_uris":{"android":"levelo://app?vid=f28d2bb9-4217-4196-a573-ba6f4c172497","ios":"levelo://app?vid=f28d2bb9-4217-4196-a573-ba6f4c172497"},"vehicle_type_id":"4","last_reported":1753528166,"current_range_meters":5600,"station_id":"","pricing_plan_id":"cebpf4jnsgd1na2vs0mg"},{"bike_id":"d7be1fba-b50a-4776-8427-b0213e5d19ee","system_id":"levelo_inurba_marseille","lat":43.30397,"lon":5.41312,"is_reserved":false,"is_disabled":false,"rental_uris":{"android":"levelo://app?vid=d7be1fba-b50a-4776-8427-b0213e5d19ee","ios":"levelo://app?vid=d7be1fba-b50a-4776-8427-b0213e5d19ee"},"vehicle_type_id":"4","last_reported":1753528166,"current_range_meters":6400,"station_id":"ce4bhop2rcd13ifvqh8g","pricing_plan_id":"cebpf4jnsgd1na2vs0mg"},{"bike_id":"79b9b5e0-5e5a-4850-b766-a7a0d941f135","system_id":"levelo_inurba_marseille","lat":43.28726,"lon":5.3608,"is_reserved":false,"is_disabled":false,"rental_uris":{"android":"levelo://app?vid=79b9b5e0-5e5a-4850-b766-a7a0d941f135","ios":"levelo://app?vid=79b9b5e0-5e5a-4850-b766-a7a0d941f135"},"vehicle_type_id":"4","last_reported":1753528166,"current_range_meters":6800,"station_id":"cki0cbj6b192h4jlfktg","pricing_plan_id":"cebpf4jnsgd1na2vs0mg"},{"bike_id":"c35c3652-e3ef-49f5-a688-d3925e6683d7","system_id":"levelo_inurba_marseille","lat":43.29265,"lon":5.38448,"is_reserved":false,"is_disabled":false,"rental_uris":{"android":"levelo://app?vid=c35c3652-e3ef-49f5-a688-d3925e6683d7","ios":"levelo://app?vid=c35c3652-e3ef-49f5-a688-d3925e6683d7"},"vehicle_type_id":"4","last_reported":1753528166,"current_range_meters":6800,"station_id":"ce4bh692rcd13ifvqea0","pricing_plan_id":"cebpf4jnsgd1na2vs0mg"},{"bike_id":"28e9b7dd-6a06-4374-b73b-ef31a718e710","system_id":"levelo_inurba_marseille","lat":43.30462,"lon":5.37907,"is_reserved":false,"is_disabled":false,"rental_uris":{"android":"levelo://app?vid=28e9b7dd-6a06-4374-b73b-ef31a718e710","ios":"levelo://app?vid=28e9b7dd-6a06-4374-b73b-ef31a718e710"},"vehicle_type_id":"4","last_reported":1753528166,"current_range_meters":6800,"station_id":"ce4bgup2rcd13ifvqcn0","pricing_plan_id":"cebpf4jnsgd1na2vs0mg"},{"bike_id":"205d6b3a-00f9-42e4-a0f7-502240e5c338","system_id":"levelo_inurba_marseille","lat":43.29379,"lon":5.37842,"is_reserved":false,"is_disabled":false,"rental_uris":{"android":"levelo://app?vid=205d6b3a-00f9-42e4-a0f7-502240e5c338","ios":"levelo://app?vid=205d6b3a-00f9-42e4-a0f7-502240e5c338"},"vehicle_type_id":"4","last_reported":1753528166,"current_range_meters":7200,"station_id":"ce4bgjh2rcd13ifvqbf0","pricing_plan_id":"cebpf4jnsgd1na2vs0mg"},{"bike_id":"6af7a72a-189c-4dbc-9282-a956426542ba","system_id":"levelo_inurba_marseille","lat":43.225006,"lon":5.34779,"is_reserved":false,"is_disabled":false,"rental_uris":{"android":"levelo://app?vid=6af7a72a-189c-4dbc-9282-a956426542ba","ios":"levelo://app?vid=6af7a72a-189c-4dbc-9282-a956426542ba"},"vehicle_type_id":"4","last_reported":1753528166,"current_range_meters":7200,"station_id":"","pricing_plan_id":"cebpf4jnsgd1na2vs0mg"},{"bike_id":"ff30a5ee-0e9d-4bfa-a593-c7beaf9df463","system_id":"levelo_inurba_marseille","lat":43.33532,"lon":5.36204,"is_reserved":false,"is_disabled":false,"rental_uris":{"android":"levelo://app?vid=ff30a5ee-0e9d-4bfa-a593-c7beaf9df463","ios":"levelo://app?vid=ff30a5ee-0e9d-4bfa-a593-c7beaf9df463"},"vehicle_type_id":"4","last_reported":1753528166,"current_range_meters":7200,"station_id":"","pricing_plan_id":"cebpf4jnsgd1na2vs0mg"},{"bike_id":"89dcea3a-f7f7-44b2-9d2c-a3300861829d","system_id":"levelo_inurba_marseille","lat":43.27872,"lon":5.39714,"is_reserved":false,"is_disabled":false,"rental_uris":{"android":"levelo://app?vid=89dcea3a-f7f7-44b2-9d2c-a3300861829d","ios":"levelo://app?vid=89dcea3a-f7f7-44b2-9d2c-a3300861829d"},"vehicle_type_id":"4","last_reported":1753528166,"current_range_meters":7200,"station_id":"","pricing_plan_id":"cebpf4jnsgd1na2vs0mg"},{"bike_id":"aa3102a9-18dc-43ca-b5c6-7703da43819f","system_id":"levelo_inurba_marseille","lat":43.21747,"lon":5.34593,"is_reserved":false,"is_disabled":false,"rental_uris":{"android":"levelo://app?vid=aa3102a9-18dc-43ca-b5c6-7703da43819f","ios":"levelo://app?vid=aa3102a9-18dc-43ca-b5c6-7703da43819f"},"vehicle_type_id":"4","last_reported":1753528166,"current_range_meters":7200,"station_id":"st_cvj6r9ubvosntc0bgbag","pricing_plan_id":"cebpf4jnsgd1na2vs0mg"},{"bike_id":"1c31f24b-2b9e-48c3-b103-bffd32b92420","system_id":"levelo_inurba_marseille","lat":43.33501,"lon":5.40874,"is_reserved":false,"is_disabled":false,"rental_uris":{"android":"levelo://app?vid=1c31f24b-2b9e-48c3-b103-bffd32b92420","ios":"levelo://app?vid=1c31f24b-2b9e-48c3-b103-bffd32b92420"},"vehicle_type_id":"4","last_reported":1753528166,"current_range_meters":8000,"station_id":"","pricing_plan_id":"cebpf4jnsgd1na2vs0mg"},{"bike_id":"2c3ed9c9-4394-446c-a01d-7f33891a1a29","system_id":"levelo_inurba_marseille","lat":43.31325,"lon":5.39698,"is_reserved":false,"is_disabled":false,"rental_uris":{"android":"levelo://app?vid=2c3ed9c9-4394-446c-a01d-7f33891a1a29","ios":"levelo://app?vid=2c3ed9c9-4394-446c-a01d-7f33891a1a29"},"vehicle_type_id":"4","last_reported":1753528166,"current_range_meters":7200,"station_id":"ce4bgvp2rcd13ifvqcu0","pricing_plan_id":"cebpf4jnsgd1na2vs0mg"},{"bike_id":"5e996369-86ae-4816-8750-239b0e998170","system_id":"levelo_inurba_marseille","lat":43.21739,"lon":5.346,"is_reserved":false,"is_disabled":false,"rental_uris":{"android":"levelo://app?vid=5e996369-86ae-4816-8750-239b0e998170","ios":"levelo://app?vid=5e996369-86ae-4816-8750-239b0e998170"},"vehicle_type_id":"4","last_reported":1753528166,"current_range_meters":8400,"station_id":"st_cvj6r9ubvosntc0bgbag","pricing_plan_id":"cebpf4jnsgd1na2vs0mg"},{"bike_id":"63ae8fac-f48e-4367-b382-b9db2ce2301e","system_id":"levelo_inurba_marseille","lat":43.30192,"lon":5.36629,"is_reserved":false,"is_disabled":false,"rental_uris":{"android":"levelo://app?vid=63ae8fac-f48e-4367-b382-b9db2ce2301e","ios":"levelo://app?vid=63ae8fac-f48e-4367-b382-b9db2ce2301e"},"vehicle_type_id":"4","last_reported":1753528166,"current_range_meters":8400,"station_id":"ce4bgrh2rcd13ifvqc8g","pricing_plan_id":"cebpf4jnsgd1na2vs0mg"},{"bike_id":"35ee41ab-1155-4c5d-a3ff-d1e05b86be8c","system_id":"levelo_inurba_marseille","lat":43.31095,"lon":5.40023,"is_reserved":false,"is_disabled":true,"rental_uris":{"android":"levelo://app?vid=35ee41ab-1155-4c5d-a3ff-d1e05b86be8c","ios":"levelo://app?vid=35ee41ab-1155-4c5d-a3ff-d1e05b86be8c"},"vehicle_type_id":"4","last_reported":1753528166,"current_range_meters":8400,"station_id":"","pricing_plan_id":"cebpf4jnsgd1na2vs0mg"},{"bike_id":"739a7c54-f1e6-46fb-b2d1-b51eb59ecbef","system_id":"levelo_inurba_marseille","lat":43.24807,"lon":5.37458,"is_reserved":false,"is_disabled":false,"rental_uris":{"android":"levelo://app?vid=739a7c54-f1e6-46fb-b2d1-b51eb59ecbef","ios":"levelo://app?vid=739a7c54-f1e6-46fb-b2d1-b51eb59ecbef"},"vehicle_type_id":"4","last_reported":1753528166,"current_range_meters":8400,"station_id":"ce4bhgh2rcd13ifvqfb0","pricing_plan_id":"cebpf4jnsgd1na2vs0mg"},{"bike_id":"e7fb973b-3433-45bd-bced-104698bbca90","system_id":"levelo_inurba_marseille","lat":43.29074,"lon":5.35909,"is_reserved":false,"is_disabled":false,"rental_uris":{"android":"levelo://app?vid=e7fb973b-3433-45bd-bced-104698bbca90","ios":"levelo://app?vid=e7fb973b-3433-45bd-bced-104698bbca90"},"vehicle_type_id":"4","last_reported":1753528166,"current_range_meters":8800,"station_id":"ce4bha92rcd13ifvqeg0","pricing_plan_id":"cebpf4jnsgd1na2vs0mg"},{"bike_id":"cd43d6d3-d108-4056-a0e8-18b37696c991","system_id":"levelo_inurba_marseille","lat":43.29193,"lon":5.35813,"is_reserved":false,"is_disabled":false,"rental_uris":{"android":"levelo://app?vid=cd43d6d3-d108-4056-a0e8-18b37696c991","ios":"levelo://app?vid=cd43d6d3-d108-4056-a0e8-18b37696c991"},"vehicle_type_id":"4","last_reported":1753528166,"current_range_meters":8800,"station_id":"ce4bhb12rcd13ifvqel0","pricing_plan_id":"cebpf4jnsgd1na2vs0mg"},{"bike_id":"078febbd-6d49-4abf-8b46-d33f87f8da46","system_id":"levelo_inurba_marseille","lat":43.25452,"lon":5.38007,"is_reserved":false,"is_disabled":false,"rental_uris":{"android":"levelo://app?vid=078febbd-6d49-4abf-8b46-d33f87f8da46","ios":"levelo://app?vid=078febbd-6d49-4abf-8b46-d33f87f8da46"},"vehicle_type_id":"4","last_reported":1753528166,"current_range_meters":9200,"station_id":"","pricing_plan_id":"cebpf4jnsgd1na2vs0mg"},{"bike_id":"04d6cdd5-5582-46ca-8f5a-f546962f07c6","system_id":"levelo_inurba_marseille","lat":43.28878,"lon":5.37854,"is_reserved":false,"is_disabled":false,"rental_uris":{"android":"levelo://app?vid=04d6cdd5-5582-46ca-8f5a-f546962f07c6","ios":"levelo://app?vid=04d6cdd5-5582-46ca-8f5a-f546962f07c6"},"vehicle_type_id":"4","last_reported":1753528166,"current_range_meters":9200,"station_id":"","pricing_plan_id":"cebpf4jnsgd1na2vs0mg"},{"bike_id":"fd052e30-48cd-44d2-ab5c-09af91b4d1e4","system_id":"levelo_inurba_marseille","lat":43.26209,"lon":5.37443,"is_reserved":false,"is_disabled":false,"rental_uris":{"android":"levelo://app?vid=fd052e30-48cd-44d2-ab5c-09af91b4d1e4","ios":"levelo://app?vid=fd052e30-48cd-44d2-ab5c-09af91b4d1e4"},"vehicle_type_id":"4","last_reported":1753528166,"current_range_meters":9200,"station_id":"ce4bhgp2rcd13ifvqfc0","pricing_plan_id":"cebpf4jnsgd1na2vs0mg"},{"bike_id":"26f5c54e-f4ec-4477-9ee9-a6ed79e584c7","system_id":"levelo_inurba_marseille","lat":43.30147,"lon":5.3742,"is_reserved":false,"is_disabled":false,"rental_uris":{"android":"levelo://app?vid=26f5c54e-f4ec-4477-9ee9-a6ed79e584c7","ios":"levelo://app?vid=26f5c54e-f4ec-4477-9ee9-a6ed79e584c7"},"vehicle_type_id":"4","last_reported":1753528166,"current_range_meters":9200,"station_id":"ce4bgs92rcd13ifvqcc0","pricing_plan_id":"cebpf4jnsgd1na2vs0mg"},{"bike_id":"41495d0f-fdd1-420b-9e9b-d44981be1434","system_id":"levelo_inurba_marseille","lat":43.29567,"lon":5.37522,"is_reserved":false,"is_disabled":false,"rental_uris":{"android":"levelo://app?vid=41495d0f-fdd1-420b-9e9b-d44981be1434","ios":"levelo://app?vid=41495d0f-fdd1-420b-9e9b-d44981be1434"},"vehicle_type_id":"4","last_reported":1753528166,"current_range_meters":9200,"station_id":"ce4bgh92rcd13ifvqb50","pricing_plan_id":"cebpf4jnsgd1na2vs0mg"},{"bike_id":"cd5561c9-1cf8-4017-b7e0-c99a926bc380","system_id":"levelo_inurba_marseille","lat":43.32289,"lon":5.38273,"is_reserved":false,"is_disabled":false,"rental_uris":{"android":"levelo://app?vid=cd5561c9-1cf8-4017-b7e0-c99a926bc380","ios":"levelo://app?vid=cd5561c9-1cf8-4017-b7e0-c99a926bc380"},"vehicle_type_id":"4","last_reported":1753528166,"current_range_meters":9600,"station_id":"ce4bhr12rcd13ifvqhqg","pricing_plan_id":"cebpf4jnsgd1na2vs0mg"},{"bike_id":"ccca3042-9358-40fc-ac03-e327e01c225f","system_id":"levelo_inurba_marseille","lat":43.233043,"lon":5.361223,"is_reserved":false,"is_disabled":false,"rental_uris":{"android":"levelo://app?vid=ccca3042-9358-40fc-ac03-e327e01c225f","ios":"levelo://app?vid=ccca3042-9358-40fc-ac03-e327e01c225f"},"vehicle_type_id":"4","last_reported":1753528166,"current_range_meters":9600,"station_id":"","pricing_plan_id":"cebpf4jnsgd1na2vs0mg"},{"bike_id":"7937f471-dcc0-4727-896c-b6f4f4a0c96e","system_id":"levelo_inurba_marseille","lat":43.2757,"lon":5.38414,"is_reserved":false,"is_disabled":false,"rental_uris":{"android":"levelo://app?vid=7937f471-dcc0-4727-896c-b6f4f4a0c96e","ios":"levelo://app?vid=7937f471-dcc0-4727-896c-b6f4f4a0c96e"},"vehicle_type_id":"4","last_reported":1753528166,"current_range_meters":9600,"station_id":"ce4bhh92rcd13ifvqfi0","pricing_plan_id":"cebpf4jnsgd1na2vs0mg"},{"bike_id":"9aff1d3a-d326-464f-be0b-ddd86d072baa","system_id":"levelo_inurba_marseille","lat":43.30425,"lon":5.39757,"is_reserved":false,"is_disabled":false,"rental_uris":{"android":"levelo://app?vid=9aff1d3a-d326-464f-be0b-ddd86d072baa","ios":"levelo://app?vid=9aff1d3a-d326-464f-be0b-ddd86d072baa"},"vehicle_type_id":"4","last_reported":1753528166,"current_range_meters":10000,"station_id":"ce4bh092rcd13ifvqd20","pricing_plan_id":"cebpf4jnsgd1na2vs0mg"},{"bike_id":"7b4475dc-2497-4bd1-a065-66e7540a3b7a","system_id":"levelo_inurba_marseille","lat":43.21747,"lon":5.34611,"is_reserved":false,"is_disabled":true,"rental_uris":{"android":"levelo://app?vid=7b4475dc-2497-4bd1-a065-66e7540a3b7a","ios":"levelo://app?vid=7b4475dc-2497-4bd1-a065-66e7540a3b7a"},"vehicle_type_id":"4","last_reported":1753528166,"current_range_meters":10000,"station_id":"st_cvj6r9ubvosntc0bgbag","pricing_plan_id":"cebpf4jnsgd1na2vs0mg"},{"bike_id":"773b48d4-858e-46f9-8819-6029f415d049","system_id":"levelo_inurba_marseille","lat":43.31224,"lon":5.36921,"is_reserved":false,"is_disabled":true,"rental_uris":{"android":"levelo://app?vid=773b48d4-858e-46f9-8819-6029f415d049","ios":"levelo://app?vid=773b48d4-858e-46f9-8819-6029f415d049"},"vehicle_type_id":"4","last_reported":1753528166,"current_range_meters":10000,"station_id":"ce4bgl92rcd13ifvqbq0","pricing_plan_id":"cebpf4jnsgd1na2vs0mg"},{"bike_id":"a3fe9995-2e3e-423b-9540-429a92fa997e","system_id":"levelo_inurba_marseille","lat":43.30191,"lon":5.3716,"is_reserved":false,"is_disabled":false,"rental_uris":{"android":"levelo://app?vid=a3fe9995-2e3e-423b-9540-429a92fa997e","ios":"levelo://app?vid=a3fe9995-2e3e-423b-9540-429a92fa997e"},"vehicle_type_id":"4","last_reported":1753528166,"current_range_meters":10000,"station_id":"","pricing_plan_id":"cebpf4jnsgd1na2vs0mg"},{"bike_id":"54a79cc7-f8ce-43b4-8615-041e9d587998","system_id":"levelo_inurba_marseille","lat":43.2175,"lon":5.34602,"is_reserved":false,"is_disabled":false,"rental_uris":{"android":"levelo://app?vid=54a79cc7-f8ce-43b4-8615-041e9d587998","ios":"levelo://app?vid=54a79cc7-f8ce-43b4-8615-041e9d587998"},"vehicle_type_id":"4","last_reported":1753528166,"current_range_meters":10800,"station_id":"","pricing_plan_id":"cebpf4jnsgd1na2vs0mg"},{"bike_id":"2aaf9e53-3f16-42db-8c23-6f1eb4773524","system_id":"levelo_inurba_marseille","lat":43.28425,"lon":5.35001,"is_reserved":false,"is_disabled":false,"rental_uris":{"android":"levelo://app?vid=2aaf9e53-3f16-42db-8c23-6f1eb4773524","ios":"levelo://app?vid=2aaf9e53-3f16-42db-8c23-6f1eb4773524"},"vehicle_type_id":"4","last_reported":1753528166,"current_range_meters":10800,"station_id":"ce4bhbh2rcd13ifvqepg","pricing_plan_id":"cebpf4jnsgd1na2vs0mg"},{"bike_id":"d79b409f-ca1b-43df-9348-1c6665f1fc25","system_id":"levelo_inurba_marseille","lat":43.22503,"lon":5.3477,"is_reserved":false,"is_disabled":false,"rental_uris":{"android":"levelo://app?vid=d79b409f-ca1b-43df-9348-1c6665f1fc25","ios":"levelo://app?vid=d79b409f-ca1b-43df-9348-1c6665f1fc25"},"vehicle_type_id":"4","last_reported":1753528166,"current_range_meters":10800,"station_id":"st_cvj5dfep6f1abm77gieg","pricing_plan_id":"cebpf4jnsgd1na2vs0mg"},{"bike_id":"43cf4049-15dd-4e8c-88a8-61cd8dc10bf5","system_id":"levelo_inurba_marseille","lat":43.33232,"lon":5.37889,"is_reserved":false,"is_disabled":false,"rental_uris":{"android":"levelo://app?vid=43cf4049-15dd-4e8c-88a8-61cd8dc10bf5","ios":"levelo://app?vid=43cf4049-15dd-4e8c-88a8-61cd8dc10bf5"},"vehicle_type_id":"4","last_reported":1753528166,"current_range_meters":10800,"station_id":"","pricing_plan_id":"cebpf4jnsgd1na2vs0mg"},{"bike_id":"4878cf6d-5d8c-46c7-9c7f-8504713d84db","system_id":"levelo_inurba_marseille","lat":43.31072,"lon":5.38339,"is_reserved":false,"is_disabled":false,"rental_uris":{"android":"levelo://app?vid=4878cf6d-5d8c-46c7-9c7f-8504713d84db","ios":"levelo://app?vid=4878cf6d-5d8c-46c7-9c7f-8504713d84db"},"vehicle_type_id":"4","last_reported":1753528166,"current_range_meters":10800,"station_id":"ce4bgv92rcd13ifvqcr0","pricing_plan_id":"cebpf4jnsgd1na2vs0mg"},{"bike_id":"8f642af2-6e9c-4c38-908e-b2e8faa5de43","system_id":"levelo_inurba_marseille","lat":43.29964,"lon":5.38484,"is_reserved":false,"is_disabled":false,"rental_uris":{"android":"levelo://app?vid=8f642af2-6e9c-4c38-908e-b2e8faa5de43","ios":"levelo://app?vid=8f642af2-6e9c-4c38-908e-b2e8faa5de43"},"vehicle_type_id":"4","last_reported":1753528166,"current_range_meters":10800,"station_id":"ce4bgj92rcd13ifvqbd0","pricing_plan_id":"cebpf4jnsgd1na2vs0mg"},{"bike_id":"78836806-63b4-40d8-944e-f52a1bdbf8c0","system_id":"levelo_inurba_marseille","lat":43.22491,"lon":5.34762,"is_reserved":false,"is_disabled":false,"rental_uris":{"android":"levelo://app?vid=78836806-63b4-40d8-944e-f52a1bdbf8c0","ios":"levelo://app?vid=78836806-63b4-40d8-944e-f52a1bdbf8c0"},"vehicle_type_id":"4","last_reported":1753528166,"current_range_meters":10800,"station_id":"st_cvj5dfep6f1abm77gieg","pricing_plan_id":"cebpf4jnsgd1na2vs0mg"},{"bike_id":"310b2400-dd2e-4320-8ec4-6b74e028c0c7","system_id":"levelo_inurba_marseille","lat":43.225043,"lon":5.347773,"is_reserved":false,"is_disabled":false,"rental_uris":{"android":"levelo://app?vid=310b2400-dd2e-4320-8ec4-6b74e028c0c7","ios":"levelo://app?vid=310b2400-dd2e-4320-8ec4-6b74e028c0c7"},"vehicle_type_id":"4","last_reported":1753528166,"current_range_meters":10800,"station_id":"","pricing_plan_id":"cebpf4jnsgd1na2vs0mg"},{"bike_id":"47e46af2-83c5-4e53-9a51-0d5e867fdc71","system_id":"levelo_inurba_marseille","lat":43.28623,"lon":5.35105,"is_reserved":false,"is_disabled":false,"rental_uris":{"android":"levelo://app?vid=47e46af2-83c5-4e53-9a51-0d5e867fdc71","ios":"levelo://app?vid=47e46af2-83c5-4e53-9a51-0d5e867fdc71"},"vehicle_type_id":"4","last_reported":1753528166,"current_range_meters":11200,"station_id":"ce4bhch2rcd13ifvqeug","pricing_plan_id":"cebpf4jnsgd1na2vs0mg"},{"bike_id":"21a22bc7-65fe-4b97-a005-517b211a0b98","system_id":"levelo_inurba_marseille","lat":43.230516,"lon":5.354917,"is_reserved":false,"is_disabled":false,"rental_uris":{"android":"levelo://app?vid=21a22bc7-65fe-4b97-a005-517b211a0b98","ios":"levelo://app?vid=21a22bc7-65fe-4b97-a005-517b211a0b98"},"vehicle_type_id":"4","last_reported":1753528166,"current_range_meters":11200,"station_id":"cpo3342slgdg3j2ifvpg","pricing_plan_id":"cebpf4jnsgd1na2vs0mg"},{"bike_id":"127b6b72-bfb2-485f-b579-b67c1ffbea0b","system_id":"levelo_inurba_marseille","lat":43.290311,"lon":5.399895,"is_reserved":false,"is_disabled":false,"rental_uris":{"android":"levelo://app?vid=127b6b72-bfb2-485f-b579-b67c1ffbea0b","ios":"levelo://app?vid=127b6b72-bfb2-485f-b579-b67c1ffbea0b"},"vehicle_type_id":"4","last_reported":1753528166,"current_range_meters":11200,"station_id":"ce4bh392rcd13ifvqdm0","pricing_plan_id":"cebpf4jnsgd1na2vs0mg"},{"bike_id":"53aa2904-ef97-4d2a-b480-8d1440dad882","system_id":"levelo_inurba_marseille","lat":43.26676,"lon":5.38267,"is_reserved":false,"is_disabled":false,"rental_uris":{"android":"levelo://app?vid=53aa2904-ef97-4d2a-b480-8d1440dad882","ios":"levelo://app?vid=53aa2904-ef97-4d2a-b480-8d1440dad882"},"vehicle_type_id":"4","last_reported":1753528166,"current_range_meters":11200,"station_id":"ce4bhg92rcd13ifvqf90","pricing_plan_id":"cebpf4jnsgd1na2vs0mg"},{"bike_id":"75a52d90-a84e-49e8-9197-7fd3f8d0259a","system_id":"levelo_inurba_marseille","lat":43.26188,"lon":5.37491,"is_reserved":false,"is_disabled":true,"rental_uris":{"android":"levelo://app?vid=75a52d90-a84e-49e8-9197-7fd3f8d0259a","ios":"levelo://app?vid=75a52d90-a84e-49e8-9197-7fd3f8d0259a"},"vehicle_type_id":"4","last_reported":1753528166,"current_range_meters":11200,"station_id":"ce4bhgp2rcd13ifvqfc0","pricing_plan_id":"cebpf4jnsgd1na2vs0mg"},{"bike_id":"22dca147-1260-44d8-822d-d9d1d50cce31","system_id":"levelo_inurba_marseille","lat":43.274696,"lon":5.395889,"is_reserved":false,"is_disabled":false,"rental_uris":{"android":"levelo://app?vid=22dca147-1260-44d8-822d-d9d1d50cce31","ios":"levelo://app?vid=22dca147-1260-44d8-822d-d9d1d50cce31"},"vehicle_type_id":"4","last_reported":1753528166,"current_range_meters":11600,"station_id":"","pricing_plan_id":"cebpf4jnsgd1na2vs0mg"},{"bike_id":"7f3f69ba-79ce-4c79-91ca-b8b9716f757e","system_id":"levelo_inurba_marseille","lat":43.231945,"lon":5.355528,"is_reserved":false,"is_disabled":false,"rental_uris":{"android":"levelo://app?vid=7f3f69ba-79ce-4c79-91ca-b8b9716f757e","ios":"levelo://app?vid=7f3f69ba-79ce-4c79-91ca-b8b9716f757e"},"vehicle_type_id":"4","last_reported":1753528166,"current_range_meters":12000,"station_id":"ce4bhu92rcd13ifvqi70","pricing_plan_id":"cebpf4jnsgd1na2vs0mg"},{"bike_id":"6ef1544f-9e1a-4893-8503-3fcc93525bae","system_id":"levelo_inurba_marseille","lat":43.27837,"lon":5.3922,"is_reserved":false,"is_disabled":false,"rental_uris":{"android":"levelo://app?vid=6ef1544f-9e1a-4893-8503-3fcc93525bae","ios":"levelo://app?vid=6ef1544f-9e1a-4893-8503-3fcc93525bae"},"vehicle_type_id":"4","last_reported":1753528166,"current_range_meters":12000,"station_id":"ce4bhjp2rcd13ifvqga0","pricing_plan_id":"cebpf4jnsgd1na2vs0mg"},{"bike_id":"970ce0d9-2c80-445a-b6ab-c8eb3acdf2c4","system_id":"levelo_inurba_marseille","lat":43.26206,"lon":5.4043,"is_reserved":false,"is_disabled":false,"rental_uris":{"android":"levelo://app?vid=970ce0d9-2c80-445a-b6ab-c8eb3acdf2c4","ios":"levelo://app?vid=970ce0d9-2c80-445a-b6ab-c8eb3acdf2c4"},"vehicle_type_id":"4","last_reported":1753528166,"current_range_meters":12000,"station_id":"ce4bhmh2rcd13ifvqgmg","pricing_plan_id":"cebpf4jnsgd1na2vs0mg"},{"bike_id":"ec74f06a-40dc-4c39-a0cb-57d6f568a4e5","system_id":"levelo_inurba_marseille","lat":43.22934,"lon":5.35378,"is_reserved":false,"is_disabled":false,"rental_uris":{"android":"levelo://app?vid=ec74f06a-40dc-4c39-a0cb-57d6f568a4e5","ios":"levelo://app?vid=ec74f06a-40dc-4c39-a0cb-57d6f568a4e5"},"vehicle_type_id":"4","last_reported":1753528166,"current_range_meters":12000,"station_id":"cpo3532slgdg3j2ikp40","pricing_plan_id":"cebpf4jnsgd1na2vs0mg"},{"bike_id":"de99b14c-9afd-4bdd-bc56-50354c110c3d","system_id":"levelo_inurba_marseille","lat":43.25467,"lon":5.37687,"is_reserved":false,"is_disabled":false,"rental_uris":{"android":"levelo://app?vid=de99b14c-9afd-4bdd-bc56-50354c110c3d","ios":"levelo://app?vid=de99b14c-9afd-4bdd-bc56-50354c110c3d"},"vehicle_type_id":"4","last_reported":1753528166,"current_range_meters":12400,"station_id":"","pricing_plan_id":"cebpf4jnsgd1na2vs0mg"},{"bike_id":"2551aeb9-d478-4559-97a6-036ce08c7df0","system_id":"levelo_inurba_marseille","lat":43.2841,"lon":5.34998,"is_reserved":false,"is_disabled":false,"rental_uris":{"android":"levelo://app?vid=2551aeb9-d478-4559-97a6-036ce08c7df0","ios":"levelo://app?vid=2551aeb9-d478-4559-97a6-036ce08c7df0"},"vehicle_type_id":"4","last_reported":1753528166,"current_range_meters":12400,"station_id":"ce4bhbh2rcd13ifvqepg","pricing_plan_id":"cebpf4jnsgd1na2vs0mg"},{"bike_id":"7528e0ee-3254-4380-8007-ffef61e356ca","system_id":"levelo_inurba_marseille","lat":43.26548,"lon":5.37284,"is_reserved":false,"is_disabled":false,"rental_uris":{"android":"levelo://app?vid=7528e0ee-3254-4380-8007-ffef61e356ca","ios":"levelo://app?vid=7528e0ee-3254-4380-8007-ffef61e356ca"},"vehicle_type_id":"4","last_reported":1753528166,"current_range_meters":12400,"station_id":"ce4bhg12rcd13ifvqf70","pricing_plan_id":"cebpf4jnsgd1na2vs0mg"},{"bike_id":"e8554f4b-8bac-42ef-964f-d8d5b88f3e39","system_id":"levelo_inurba_marseille","lat":43.29024,"lon":5.38143,"is_reserved":false,"is_disabled":false,"rental_uris":{"android":"levelo://app?vid=e8554f4b-8bac-42ef-964f-d8d5b88f3e39","ios":"levelo://app?vid=e8554f4b-8bac-42ef-964f-d8d5b88f3e39"},"vehicle_type_id":"4","last_reported":1753528166,"current_range_meters":12400,"station_id":"ce4bh4p2rcd13ifvqe1g","pricing_plan_id":"cebpf4jnsgd1na2vs0mg"},{"bike_id":"82d8d51a-4a67-48aa-8168-d599f26fc102","system_id":"levelo_inurba_marseille","lat":43.28611,"lon":5.35103,"is_reserved":false,"is_disabled":false,"rental_uris":{"android":"levelo://app?vid=82d8d51a-4a67-48aa-8168-d599f26fc102","ios":"levelo://app?vid=82d8d51a-4a67-48aa-8168-d599f26fc102"},"vehicle_type_id":"4","last_reported":1753528166,"current_range_meters":12400,"station_id":"ce4bhch2rcd13ifvqeug","pricing_plan_id":"cebpf4jnsgd1na2vs0mg"},{"bike_id":"3ff66051-0b7c-4d86-bcca-5ad53e14dc31","system_id":"levelo_inurba_marseille","lat":43.24386,"lon":5.37063,"is_reserved":false,"is_disabled":false,"rental_uris":{"android":"levelo://app?vid=3ff66051-0b7c-4d86-bcca-5ad53e14dc31","ios":"levelo://app?vid=3ff66051-0b7c-4d86-bcca-5ad53e14dc31"},"vehicle_type_id":"4","last_reported":1753528166,"current_range_meters":12000,"station_id":"ce4bhhh2rcd13ifvqfk0","pricing_plan_id":"cebpf4jnsgd1na2vs0mg"},{"bike_id":"6a5be0da-2bbd-443f-9885-a9d470c4f603","system_id":"levelo_inurba_marseille","lat":43.24164,"lon":5.36395,"is_reserved":false,"is_disabled":false,"rental_uris":{"android":"levelo://app?vid=6a5be0da-2bbd-443f-9885-a9d470c4f603","ios":"levelo://app?vid=6a5be0da-2bbd-443f-9885-a9d470c4f603"},"vehicle_type_id":"4","last_reported":1753528166,"current_range_meters":12400,"station_id":"cpo36qri1sfpv3e86is0","pricing_plan_id":"cebpf4jnsgd1na2vs0mg"},{"bike_id":"8be1e5af-1a32-4950-9fab-a0cc8e764a08","system_id":"levelo_inurba_marseille","lat":43.30427,"lon":5.38892,"is_reserved":false,"is_disabled":false,"rental_uris":{"android":"levelo://app?vid=8be1e5af-1a32-4950-9fab-a0cc8e764a08","ios":"levelo://app?vid=8be1e5af-1a32-4950-9fab-a0cc8e764a08"},"vehicle_type_id":"4","last_reported":1753528166,"current_range_meters":12000,"station_id":"ce4bgk12rcd13ifvqbi0","pricing_plan_id":"cebpf4jnsgd1na2vs0mg"},{"bike_id":"04ce80ca-6b2d-4c09-9d0c-6d8f91911ee6","system_id":"levelo_inurba_marseille","lat":43.21747,"lon":5.34613,"is_reserved":false,"is_disabled":false,"rental_uris":{"android":"levelo://app?vid=04ce80ca-6b2d-4c09-9d0c-6d8f91911ee6","ios":"levelo://app?vid=04ce80ca-6b2d-4c09-9d0c-6d8f91911ee6"},"vehicle_type_id":"4","last_reported":1753528166,"current_range_meters":12400,"station_id":"","pricing_plan_id":"cebpf4jnsgd1na2vs0mg"},{"bike_id":"6ab0b13c-2ff1-417a-acfd-489d6800d4c9","system_id":"levelo_inurba_marseille","lat":43.27378,"lon":5.36239,"is_reserved":false,"is_disabled":true,"rental_uris":{"android":"levelo://app?vid=6ab0b13c-2ff1-417a-acfd-489d6800d4c9","ios":"levelo://app?vid=6ab0b13c-2ff1-417a-acfd-489d6800d4c9"},"vehicle_type_id":"4","last_reported":1753528166,"current_range_meters":12400,"station_id":"ce4bhbh2rcd13ifvqeo0","pricing_plan_id":"cebpf4jnsgd1na2vs0mg"},{"bike_id":"f2c0d178-a474-46a0-b002-379a7a30c411","system_id":"levelo_inurba_marseille","lat":43.29383,"lon":5.37618,"is_reserved":false,"is_disabled":false,"rental_uris":{"android":"levelo://app?vid=f2c0d178-a474-46a0-b002-379a7a30c411","ios":"levelo://app?vid=f2c0d178-a474-46a0-b002-379a7a30c411"},"vehicle_type_id":"4","last_reported":1753528166,"current_range_meters":12800,"station_id":"","pricing_plan_id":"cebpf4jnsgd1na2vs0mg"},{"bike_id":"847b44c9-efab-4746-8937-dcebf1206fff","system_id":"levelo_inurba_marseille","lat":43.2621,"lon":5.37447,"is_reserved":false,"is_disabled":false,"rental_uris":{"android":"levelo://app?vid=847b44c9-efab-4746-8937-dcebf1206fff","ios":"levelo://app?vid=847b44c9-efab-4746-8937-dcebf1206fff"},"vehicle_type_id":"4","last_reported":1753528166,"current_range_meters":12800,"station_id":"ce4bhgp2rcd13ifvqfc0","pricing_plan_id":"cebpf4jnsgd1na2vs0mg"},{"bike_id":"8dd9bc99-f837-47fb-b66e-bb49ed7263c5","system_id":"levelo_inurba_marseille","lat":43.28705,"lon":5.37396,"is_reserved":false,"is_disabled":false,"rental_uris":{"android":"levelo://app?vid=8dd9bc99-f837-47fb-b66e-bb49ed7263c5","ios":"levelo://app?vid=8dd9bc99-f837-47fb-b66e-bb49ed7263c5"},"vehicle_type_id":"4","last_reported":1753528166,"current_range_meters":12800,"station_id":"ce4bh3p2rcd13ifvqdq0","pricing_plan_id":"cebpf4jnsgd1na2vs0mg"},{"bike_id":"9544e4af-ddbb-40e5-8c0e-4a2eb5fe872c","system_id":"levelo_inurba_marseille","lat":43.28154,"lon":5.42649,"is_reserved":false,"is_disabled":false,"rental_uris":{"android":"levelo://app?vid=9544e4af-ddbb-40e5-8c0e-4a2eb5fe872c","ios":"levelo://app?vid=9544e4af-ddbb-40e5-8c0e-4a2eb5fe872c"},"vehicle_type_id":"4","last_reported":1753528166,"current_range_meters":12800,"station_id":"ce4bhnh2rcd13ifvqgug","pricing_plan_id":"cebpf4jnsgd1na2vs0mg"},{"bike_id":"57755280-973c-4ff3-9c25-8f15e2c5b510","system_id":"levelo_inurba_marseille","lat":43.31872,"lon":5.37373,"is_reserved":false,"is_disabled":false,"rental_uris":{"android":"levelo://app?vid=57755280-973c-4ff3-9c25-8f15e2c5b510","ios":"levelo://app?vid=57755280-973c-4ff3-9c25-8f15e2c5b510"},"vehicle_type_id":"4","last_reported":1753528166,"current_range_meters":12800,"station_id":"","pricing_plan_id":"cebpf4jnsgd1na2vs0mg"},{"bike_id":"09b7f600-cb1e-4ea0-adc2-9c3dcb778794","system_id":"levelo_inurba_marseille","lat":43.225025,"lon":5.347913,"is_reserved":false,"is_disabled":false,"rental_uris":{"android":"levelo://app?vid=09b7f600-cb1e-4ea0-adc2-9c3dcb778794","ios":"levelo://app?vid=09b7f600-cb1e-4ea0-adc2-9c3dcb778794"},"vehicle_type_id":"4","last_reported":1753528166,"current_range_meters":13600,"station_id":"st_cvj5dfep6f1abm77gieg","pricing_plan_id":"cebpf4jnsgd1na2vs0mg"},{"bike_id":"7f7a4770-cb44-4cbe-afee-f7531a238fa9","system_id":"levelo_inurba_marseille","lat":43.225024,"lon":5.347911,"is_reserved":false,"is_disabled":false,"rental_uris":{"android":"levelo://app?vid=7f7a4770-cb44-4cbe-afee-f7531a238fa9","ios":"levelo://app?vid=7f7a4770-cb44-4cbe-afee-f7531a238fa9"},"vehicle_type_id":"4","last_reported":1753528166,"current_range_meters":13600,"station_id":"st_cvj5dfep6f1abm77gieg","pricing_plan_id":"cebpf4jnsgd1na2vs0mg"},{"bike_id":"b5aab1b5-818a-4dfd-b7ae-70df5639e329","system_id":"levelo_inurba_marseille","lat":43.2706,"lon":5.42289,"is_reserved":false,"is_disabled":false,"rental_uris":{"android":"levelo://app?vid=b5aab1b5-818a-4dfd-b7ae-70df5639e329","ios":"levelo://app?vid=b5aab1b5-818a-4dfd-b7ae-70df5639e329"},"vehicle_type_id":"4","last_reported":1753528166,"current_range_meters":13600,"station_id":"ce4bhk92rcd13ifvqgb0","pricing_plan_id":"cebpf4jnsgd1na2vs0mg"},{"bike_id":"9bff4c30-7d52-4173-88ba-afd3702b54f6","system_id":"levelo_inurba_marseille","lat":43.279826,"lon":5.416533,"is_reserved":false,"is_disabled":false,"rental_uris":{"android":"levelo://app?vid=9bff4c30-7d52-4173-88ba-afd3702b54f6","ios":"levelo://app?vid=9bff4c30-7d52-4173-88ba-afd3702b54f6"},"vehicle_type_id":"4","last_reported":1753528166,"current_range_meters":13600,"station_id":"ce4bho12rcd13ifvqh1g","pricing_plan_id":"cebpf4jnsgd1na2vs0mg"},{"bike_id":"1855cbe1-5a05-480e-9057-6e9b3976dbbe","system_id":"levelo_inurba_marseille","lat":43.337323,"lon":5.391877,"is_reserved":false,"is_disabled":false,"rental_uris":{"android":"levelo://app?vid=1855cbe1-5a05-480e-9057-6e9b3976dbbe","ios":"levelo://app?vid=1855cbe1-5a05-480e-9057-6e9b3976dbbe"},"vehicle_type_id":"4","last_reported":1753528166,"current_range_meters":13600,"station_id":"ce4bhr92rcd13ifvqhsg","pricing_plan_id":"cebpf4jnsgd1na2vs0mg"},{"bike_id":"5c9158e4-50fe-4a14-97ca-f6aa853a538c","system_id":"levelo_inurba_marseille","lat":43.25565,"lon":5.38213,"is_reserved":false,"is_disabled":false,"rental_uris":{"android":"levelo://app?vid=5c9158e4-50fe-4a14-97ca-f6aa853a538c","ios":"levelo://app?vid=5c9158e4-50fe-4a14-97ca-f6aa853a538c"},"vehicle_type_id":"4","last_reported":1753528166,"current_range_meters":13600,"station_id":"ce4bhih2rcd13ifvqfs0","pricing_plan_id":"cebpf4jnsgd1na2vs0mg"},{"bike_id":"615d7075-c96c-4f4b-8b21-82d5df424647","system_id":"levelo_inurba_marseille","lat":43.30544,"lon":5.38425,"is_reserved":false,"is_disabled":false,"rental_uris":{"android":"levelo://app?vid=615d7075-c96c-4f4b-8b21-82d5df424647","ios":"levelo://app?vid=615d7075-c96c-4f4b-8b21-82d5df424647"},"vehicle_type_id":"4","last_reported":1753528166,"current_range_meters":13600,"station_id":"ce4bgg92rcd13ifvqb30","pricing_plan_id":"cebpf4jnsgd1na2vs0mg"},{"bike_id":"b61e5dff-e6c9-4ff6-b2ca-55eaa8f6665e","system_id":"levelo_inurba_marseille","lat":43.28271,"lon":5.35073,"is_reserved":false,"is_disabled":true,"rental_uris":{"android":"levelo://app?vid=b61e5dff-e6c9-4ff6-b2ca-55eaa8f6665e","ios":"levelo://app?vid=b61e5dff-e6c9-4ff6-b2ca-55eaa8f6665e"},"vehicle_type_id":"4","last_reported":1753528166,"current_range_meters":13600,"station_id":"ce4bhbp2rcd13ifvqerg","pricing_plan_id":"cebpf4jnsgd1na2vs0mg"},{"bike_id":"c212b09a-3460-4b20-a169-c68dbcd5ea6a","system_id":"levelo_inurba_marseille","lat":43.31067,"lon":5.38351,"is_reserved":false,"is_disabled":false,"rental_uris":{"android":"levelo://app?vid=c212b09a-3460-4b20-a169-c68dbcd5ea6a","ios":"levelo://app?vid=c212b09a-3460-4b20-a169-c68dbcd5ea6a"},"vehicle_type_id":"4","last_reported":1753528166,"current_range_meters":13600,"station_id":"ce4bgv92rcd13ifvqcr0","pricing_plan_id":"cebpf4jnsgd1na2vs0mg"},{"bike_id":"09447d92-0522-480e-b6b5-24959949ccf9","system_id":"levelo_inurba_marseille","lat":43.32417,"lon":5.36802,"is_reserved":false,"is_disabled":false,"rental_uris":{"android":"levelo://app?vid=09447d92-0522-480e-b6b5-24959949ccf9","ios":"levelo://app?vid=09447d92-0522-480e-b6b5-24959949ccf9"},"vehicle_type_id":"4","last_reported":1753528166,"current_range_meters":14000,"station_id":"","pricing_plan_id":"cebpf4jnsgd1na2vs0mg"},{"bike_id":"766301c8-b8c9-4bae-857c-71597b317848","system_id":"levelo_inurba_marseille","lat":43.260181,"lon":5.375502,"is_reserved":false,"is_disabled":false,"rental_uris":{"android":"levelo://app?vid=766301c8-b8c9-4bae-857c-71597b317848","ios":"levelo://app?vid=766301c8-b8c9-4bae-857c-71597b317848"},"vehicle_type_id":"4","last_reported":1753528166,"current_range_meters":14000,"station_id":"ce4bhgh2rcd13ifvqfa0","pricing_plan_id":"cebpf4jnsgd1na2vs0mg"},{"bike_id":"ce9bc326-53f7-413d-a2f9-a2b1ec0eb612","system_id":"levelo_inurba_marseille","lat":43.30782,"lon":5.37658,"is_reserved":false,"is_disabled":false,"rental_uris":{"android":"levelo://app?vid=ce9bc326-53f7-413d-a2f9-a2b1ec0eb612","ios":"levelo://app?vid=ce9bc326-53f7-413d-a2f9-a2b1ec0eb612"},"vehicle_type_id":"4","last_reported":1753528166,"current_range_meters":14000,"station_id":"ce4bgv92rcd13ifvqcq0","pricing_plan_id":"cebpf4jnsgd1na2vs0mg"},{"bike_id":"f9132ae1-6ae2-4272-b24a-43c4aace7eb6","system_id":"levelo_inurba_marseille","lat":43.312803,"lon":5.401643,"is_reserved":false,"is_disabled":false,"rental_uris":{"android":"levelo://app?vid=f9132ae1-6ae2-4272-b24a-43c4aace7eb6","ios":"levelo://app?vid=f9132ae1-6ae2-4272-b24a-43c4aace7eb6"},"vehicle_type_id":"4","last_reported":1753528166,"current_range_meters":14000,"station_id":"ce4bh092rcd13ifvqd30","pricing_plan_id":"cebpf4jnsgd1na2vs0mg"},{"bike_id":"b2ee02b1-8b46-4caf-bbf9-5ceda6857b2c","system_id":"levelo_inurba_marseille","lat":43.29612,"lon":5.3771,"is_reserved":false,"is_disabled":false,"rental_uris":{"android":"levelo://app?vid=b2ee02b1-8b46-4caf-bbf9-5ceda6857b2c","ios":"levelo://app?vid=b2ee02b1-8b46-4caf-bbf9-5ceda6857b2c"},"vehicle_type_id":"4","last_reported":1753528166,"current_range_meters":14400,"station_id":"ce4bgi92rcd13ifvqb90","pricing_plan_id":"cebpf4jnsgd1na2vs0mg"},{"bike_id":"0e388422-900e-405b-81c7-fee9951f9abe","system_id":"levelo_inurba_marseille","lat":43.30686,"lon":5.39276,"is_reserved":false,"is_disabled":false,"rental_uris":{"android":"levelo://app?vid=0e388422-900e-405b-81c7-fee9951f9abe","ios":"levelo://app?vid=0e388422-900e-405b-81c7-fee9951f9abe"},"vehicle_type_id":"4","last_reported":1753528166,"current_range_meters":14800,"station_id":"","pricing_plan_id":"cebpf4jnsgd1na2vs0mg"},{"bike_id":"c3c2652b-f2d7-4ed4-89ec-9559feb01451","system_id":"levelo_inurba_marseille","lat":43.29226,"lon":5.360481,"is_reserved":false,"is_disabled":true,"rental_uris":{"android":"levelo://app?vid=c3c2652b-f2d7-4ed4-89ec-9559feb01451","ios":"levelo://app?vid=c3c2652b-f2d7-4ed4-89ec-9559feb01451"},"vehicle_type_id":"4","last_reported":1753528166,"current_range_meters":14800,"station_id":"ce4bhbh2rcd13ifvqeqg","pricing_plan_id":"cebpf4jnsgd1na2vs0mg"},{"bike_id":"731bacc5-7faa-42a0-b345-06234053fe52","system_id":"levelo_inurba_marseille","lat":43.25716,"lon":5.41112,"is_reserved":false,"is_disabled":false,"rental_uris":{"android":"levelo://app?vid=731bacc5-7faa-42a0-b345-06234053fe52","ios":"levelo://app?vid=731bacc5-7faa-42a0-b345-06234053fe52"},"vehicle_type_id":"4","last_reported":1753528166,"current_range_meters":14800,"station_id":"ce4bhkp2rcd13ifvqgd0","pricing_plan_id":"cebpf4jnsgd1na2vs0mg"},{"bike_id":"d022efb1-cf5c-49b2-9793-d4b7cc78ac99","system_id":"levelo_inurba_marseille","lat":43.23964,"lon":5.36643,"is_reserved":false,"is_disabled":false,"rental_uris":{"android":"levelo://app?vid=d022efb1-cf5c-49b2-9793-d4b7cc78ac99","ios":"levelo://app?vid=d022efb1-cf5c-49b2-9793-d4b7cc78ac99"},"vehicle_type_id":"4","last_reported":1753528166,"current_range_meters":15200,"station_id":"ce4bhi12rcd13ifvqfp0","pricing_plan_id":"cebpf4jnsgd1na2vs0mg"},{"bike_id":"f530d416-5cde-43fe-9632-a99416a9ab81","system_id":"levelo_inurba_marseille","lat":43.297076,"lon":5.377038,"is_reserved":false,"is_disabled":false,"rental_uris":{"android":"levelo://app?vid=f530d416-5cde-43fe-9632-a99416a9ab81","ios":"levelo://app?vid=f530d416-5cde-43fe-9632-a99416a9ab81"},"vehicle_type_id":"4","last_reported":1753528166,"current_range_meters":15200,"station_id":"ce4bgkh2rcd13ifvqbl0","pricing_plan_id":"cebpf4jnsgd1na2vs0mg"},{"bike_id":"b1cca824-c0de-4e63-bbec-ae23cb0b2ae6","system_id":"levelo_inurba_marseille","lat":43.30427,"lon":5.39734,"is_reserved":false,"is_disabled":false,"rental_uris":{"android":"levelo://app?vid=b1cca824-c0de-4e63-bbec-ae23cb0b2ae6","ios":"levelo://app?vid=b1cca824-c0de-4e63-bbec-ae23cb0b2ae6"},"vehicle_type_id":"4","last_reported":1753528166,"current_range_meters":15200,"station_id":"ce4bh092rcd13ifvqd20","pricing_plan_id":"cebpf4jnsgd1na2vs0mg"},{"bike_id":"a88a5020-43fb-4a97-b425-591c82e816d9","system_id":"levelo_inurba_marseille","lat":43.23144,"lon":5.43722,"is_reserved":false,"is_disabled":false,"rental_uris":{"android":"levelo://app?vid=a88a5020-43fb-4a97-b425-591c82e816d9","ios":"levelo://app?vid=a88a5020-43fb-4a97-b425-591c82e816d9"},"vehicle_type_id":"4","last_reported":1753528166,"current_range_meters":15200,"station_id":"ce4bhmp2rcd13ifvqgog","pricing_plan_id":"cebpf4jnsgd1na2vs0mg"},{"bike_id":"b5c7f071-a026-45b8-8531-421b35957a32","system_id":"levelo_inurba_marseille","lat":43.296579,"lon":5.393573,"is_reserved":false,"is_disabled":false,"rental_uris":{"android":"levelo://app?vid=b5c7f071-a026-45b8-8531-421b35957a32","ios":"levelo://app?vid=b5c7f071-a026-45b8-8531-421b35957a32"},"vehicle_type_id":"4","last_reported":1753528166,"current_range_meters":15200,"station_id":"","pricing_plan_id":"cebpf4jnsgd1na2vs0mg"},{"bike_id":"7be583ed-4d77-4071-bf12-0ce10c0faa8e","system_id":"levelo_inurba_marseille","lat":43.3059,"lon":5.36702,"is_reserved":false,"is_disabled":false,"rental_uris":{"android":"levelo://app?vid=7be583ed-4d77-4071-bf12-0ce10c0faa8e","ios":"levelo://app?vid=7be583ed-4d77-4071-bf12-0ce10c0faa8e"},"vehicle_type_id":"4","last_reported":1753528166,"current_range_meters":15200,"station_id":"ce4bgrp2rcd13ifvqc9g","pricing_plan_id":"cebpf4jnsgd1na2vs0mg"},{"bike_id":"38693843-e02b-4d44-b5e9-da0967c7fa63","system_id":"levelo_inurba_marseille","lat":43.28403,"lon":5.34991,"is_reserved":false,"is_disabled":false,"rental_uris":{"android":"levelo://app?vid=38693843-e02b-4d44-b5e9-da0967c7fa63","ios":"levelo://app?vid=38693843-e02b-4d44-b5e9-da0967c7fa63"},"vehicle_type_id":"4","last_reported":1753528166,"current_range_meters":16000,"station_id":"ce4bhbh2rcd13ifvqepg","pricing_plan_id":"cebpf4jnsgd1na2vs0mg"},{"bike_id":"febfb0dd-62aa-4333-8aa6-5a2dfd2c5e17","system_id":"levelo_inurba_marseille","lat":43.33156,"lon":5.35975,"is_reserved":false,"is_disabled":false,"rental_uris":{"android":"levelo://app?vid=febfb0dd-62aa-4333-8aa6-5a2dfd2c5e17","ios":"levelo://app?vid=febfb0dd-62aa-4333-8aa6-5a2dfd2c5e17"},"vehicle_type_id":"4","last_reported":1753528166,"current_range_meters":16000,"station_id":"","pricing_plan_id":"cebpf4jnsgd1na2vs0mg"},{"bike_id":"2d2b0ffb-d707-4729-bac8-06b5fec62ecb","system_id":"levelo_inurba_marseille","lat":43.29072,"lon":5.37166,"is_reserved":false,"is_disabled":false,"rental_uris":{"android":"levelo://app?vid=2d2b0ffb-d707-4729-bac8-06b5fec62ecb","ios":"levelo://app?vid=2d2b0ffb-d707-4729-bac8-06b5fec62ecb"},"vehicle_type_id":"4","last_reported":1753528166,"current_range_meters":16000,"station_id":"ce4bh5p2rcd13ifvqe4g","pricing_plan_id":"cebpf4jnsgd1na2vs0mg"},{"bike_id":"7254aad9-4b7a-44b4-89bb-4f6b7cb10520","system_id":"levelo_inurba_marseille","lat":43.26061,"lon":5.39379,"is_reserved":false,"is_disabled":false,"rental_uris":{"android":"levelo://app?vid=7254aad9-4b7a-44b4-89bb-4f6b7cb10520","ios":"levelo://app?vid=7254aad9-4b7a-44b4-89bb-4f6b7cb10520"},"vehicle_type_id":"4","last_reported":1753528166,"current_range_meters":16000,"station_id":"ce4bhh92rcd13ifvqfj0","pricing_plan_id":"cebpf4jnsgd1na2vs0mg"},{"bike_id":"6b34aaa6-58a0-46fb-bc50-6499601beb64","system_id":"levelo_inurba_marseille","lat":43.225019,"lon":5.347818,"is_reserved":false,"is_disabled":false,"rental_uris":{"android":"levelo://app?vid=6b34aaa6-58a0-46fb-bc50-6499601beb64","ios":"levelo://app?vid=6b34aaa6-58a0-46fb-bc50-6499601beb64"},"vehicle_type_id":"4","last_reported":1753528166,"current_range_meters":16000,"station_id":"st_cvj5dfep6f1abm77gieg","pricing_plan_id":"cebpf4jnsgd1na2vs0mg"},{"bike_id":"8487f269-40b2-4c5a-8dd3-4a92c89bfeff","system_id":"levelo_inurba_marseille","lat":43.299246,"lon":5.37455,"is_reserved":false,"is_disabled":true,"rental_uris":{"android":"levelo://app?vid=8487f269-40b2-4c5a-8dd3-4a92c89bfeff","ios":"levelo://app?vid=8487f269-40b2-4c5a-8dd3-4a92c89bfeff"},"vehicle_type_id":"4","last_reported":1753528166,"current_range_meters":16000,"station_id":"ce4bgjh2rcd13ifvqbg0","pricing_plan_id":"cebpf4jnsgd1na2vs0mg"},{"bike_id":"36e6bf97-6485-443c-94bf-9c9cb3f33000","system_id":"levelo_inurba_marseille","lat":43.2827,"lon":5.35079,"is_reserved":false,"is_disabled":true,"rental_uris":{"android":"levelo://app?vid=36e6bf97-6485-443c-94bf-9c9cb3f33000","ios":"levelo://app?vid=36e6bf97-6485-443c-94bf-9c9cb3f33000"},"vehicle_type_id":"4","last_reported":1753528166,"current_range_meters":16000,"station_id":"ce4bhbp2rcd13ifvqerg","pricing_plan_id":"cebpf4jnsgd1na2vs0mg"},{"bike_id":"229a6c07-fb18-4939-9e0e-efa0c0b49727","system_id":"levelo_inurba_marseille","lat":43.30129,"lon":5.38067,"is_reserved":false,"is_disabled":false,"rental_uris":{"android":"levelo://app?vid=229a6c07-fb18-4939-9e0e-efa0c0b49727","ios":"levelo://app?vid=229a6c07-fb18-4939-9e0e-efa0c0b49727"},"vehicle_type_id":"4","last_reported":1753528166,"current_range_meters":16000,"station_id":"ce4bgjp2rcd13ifvqbh0","pricing_plan_id":"cebpf4jnsgd1na2vs0mg"},{"bike_id":"725317c6-351b-43e5-b68d-45c3db010ac3","system_id":"levelo_inurba_marseille","lat":43.28145,"lon":5.42633,"is_reserved":false,"is_disabled":false,"rental_uris":{"android":"levelo://app?vid=725317c6-351b-43e5-b68d-45c3db010ac3","ios":"levelo://app?vid=725317c6-351b-43e5-b68d-45c3db010ac3"},"vehicle_type_id":"4","last_reported":1753528166,"current_range_meters":16400,"station_id":"ce4bhnh2rcd13ifvqgug","pricing_plan_id":"cebpf4jnsgd1na2vs0mg"},{"bike_id":"2703e0a4-7218-4353-b33c-9609c06a5516","system_id":"levelo_inurba_marseille","lat":43.2752,"lon":5.42493,"is_reserved":false,"is_disabled":false,"rental_uris":{"android":"levelo://app?vid=2703e0a4-7218-4353-b33c-9609c06a5516","ios":"levelo://app?vid=2703e0a4-7218-4353-b33c-9609c06a5516"},"vehicle_type_id":"4","last_reported":1753528166,"current_range_meters":16400,"station_id":"ce4bhn92rcd13ifvqgrg","pricing_plan_id":"cebpf4jnsgd1na2vs0mg"},{"bike_id":"8cb3cdfe-341c-4219-9fb7-adf0c31075d3","system_id":"levelo_inurba_marseille","lat":43.22505,"lon":5.34793,"is_reserved":false,"is_disabled":false,"rental_uris":{"android":"levelo://app?vid=8cb3cdfe-341c-4219-9fb7-adf0c31075d3","ios":"levelo://app?vid=8cb3cdfe-341c-4219-9fb7-adf0c31075d3"},"vehicle_type_id":"4","last_reported":1753528166,"current_range_meters":16400,"station_id":"st_cvj5dfep6f1abm77gieg","pricing_plan_id":"cebpf4jnsgd1na2vs0mg"},{"bike_id":"238390e8-3a2f-43aa-ae07-18b7138ab742","system_id":"levelo_inurba_marseille","lat":43.23965,"lon":5.36664,"is_reserved":false,"is_disabled":false,"rental_uris":{"android":"levelo://app?vid=238390e8-3a2f-43aa-ae07-18b7138ab742","ios":"levelo://app?vid=238390e8-3a2f-43aa-ae07-18b7138ab742"},"vehicle_type_id":"4","last_reported":1753528166,"current_range_meters":16400,"station_id":"ce4bhi12rcd13ifvqfp0","pricing_plan_id":"cebpf4jnsgd1na2vs0mg"},{"bike_id":"a05343f6-5345-451e-92c9-8d14b4ec04eb","system_id":"levelo_inurba_marseille","lat":43.314919,"lon":5.373082,"is_reserved":false,"is_disabled":false,"rental_uris":{"android":"levelo://app?vid=a05343f6-5345-451e-92c9-8d14b4ec04eb","ios":"levelo://app?vid=a05343f6-5345-451e-92c9-8d14b4ec04eb"},"vehicle_type_id":"4","last_reported":1753528166,"current_range_meters":16400,"station_id":"","pricing_plan_id":"cebpf4jnsgd1na2vs0mg"},{"bike_id":"50cbbc69-3d9e-4fdd-b246-b20da0004571","system_id":"levelo_inurba_marseille","lat":43.30312,"lon":5.369051,"is_reserved":false,"is_disabled":false,"rental_uris":{"android":"levelo://app?vid=50cbbc69-3d9e-4fdd-b246-b20da0004571","ios":"levelo://app?vid=50cbbc69-3d9e-4fdd-b246-b20da0004571"},"vehicle_type_id":"4","last_reported":1753528166,"current_range_meters":16400,"station_id":"","pricing_plan_id":"cebpf4jnsgd1na2vs0mg"},{"bike_id":"4f069cb2-e85f-44ab-8659-b3444c19b657","system_id":"levelo_inurba_marseille","lat":43.23174,"lon":5.35554,"is_reserved":false,"is_disabled":false,"rental_uris":{"android":"levelo://app?vid=4f069cb2-e85f-44ab-8659-b3444c19b657","ios":"levelo://app?vid=4f069cb2-e85f-44ab-8659-b3444c19b657"},"vehicle_type_id":"4","last_reported":1753528166,"current_range_meters":16400,"station_id":"ce4bhu92rcd13ifvqi70","pricing_plan_id":"cebpf4jnsgd1na2vs0mg"},{"bike_id":"ba6b7841-01b7-4eb0-bd6f-eb72831eb9a2","system_id":"levelo_inurba_marseille","lat":43.2249,"lon":5.34795,"is_reserved":false,"is_disabled":false,"rental_uris":{"android":"levelo://app?vid=ba6b7841-01b7-4eb0-bd6f-eb72831eb9a2","ios":"levelo://app?vid=ba6b7841-01b7-4eb0-bd6f-eb72831eb9a2"},"vehicle_type_id":"4","last_reported":1753528166,"current_range_meters":16400,"station_id":"st_cvj5dfep6f1abm77gieg","pricing_plan_id":"cebpf4jnsgd1na2vs0mg"},{"bike_id":"61cd7fe3-237f-4708-afc7-dd8a81b4454c","system_id":"levelo_inurba_marseille","lat":43.2292,"lon":5.35395,"is_reserved":false,"is_disabled":false,"rental_uris":{"android":"levelo://app?vid=61cd7fe3-237f-4708-afc7-dd8a81b4454c","ios":"levelo://app?vid=61cd7fe3-237f-4708-afc7-dd8a81b4454c"},"vehicle_type_id":"4","last_reported":1753528166,"current_range_meters":16400,"station_id":"cpo3532slgdg3j2ikp40","pricing_plan_id":"cebpf4jnsgd1na2vs0mg"},{"bike_id":"38ab9f3b-fe76-4f47-bf05-e3ca256156a4","system_id":"levelo_inurba_marseille","lat":43.284128,"lon":5.349797,"is_reserved":false,"is_disabled":false,"rental_uris":{"android":"levelo://app?vid=38ab9f3b-fe76-4f47-bf05-e3ca256156a4","ios":"levelo://app?vid=38ab9f3b-fe76-4f47-bf05-e3ca256156a4"},"vehicle_type_id":"4","last_reported":1753528166,"current_range_meters":16400,"station_id":"","pricing_plan_id":"cebpf4jnsgd1na2vs0mg"},{"bike_id":"1e5c96a6-9d0f-4d5f-85ef-5a5f8ac0317a","system_id":"levelo_inurba_marseille","lat":43.33456,"lon":5.391354,"is_reserved":false,"is_disabled":false,"rental_uris":{"android":"levelo://app?vid=1e5c96a6-9d0f-4d5f-85ef-5a5f8ac0317a","ios":"levelo://app?vid=1e5c96a6-9d0f-4d5f-85ef-5a5f8ac0317a"},"vehicle_type_id":"4","last_reported":1753528166,"current_range_meters":16400,"station_id":"","pricing_plan_id":"cebpf4jnsgd1na2vs0mg"},{"bike_id":"adc99020-a046-4247-b3bb-abb9aabfb167","system_id":"levelo_inurba_marseille","lat":43.244148,"lon":5.371071,"is_reserved":false,"is_disabled":false,"rental_uris":{"android":"levelo://app?vid=adc99020-a046-4247-b3bb-abb9aabfb167","ios":"levelo://app?vid=adc99020-a046-4247-b3bb-abb9aabfb167"},"vehicle_type_id":"4","last_reported":1753528166,"current_range_meters":16400,"station_id":"ce4bhhh2rcd13ifvqfk0","pricing_plan_id":"cebpf4jnsgd1na2vs0mg"},{"bike_id":"542ce8e5-d515-4119-9ed7-d66bd45ea740","system_id":"levelo_inurba_marseille","lat":43.30549,"lon":5.36542,"is_reserved":false,"is_disabled":false,"rental_uris":{"android":"levelo://app?vid=542ce8e5-d515-4119-9ed7-d66bd45ea740","ios":"levelo://app?vid=542ce8e5-d515-4119-9ed7-d66bd45ea740"},"vehicle_type_id":"4","last_reported":1753528166,"current_range_meters":16400,"station_id":"ce4bgs12rcd13ifvqcag","pricing_plan_id":"cebpf4jnsgd1na2vs0mg"},{"bike_id":"a1d5115b-997f-44a5-8b4b-21cb29757407","system_id":"levelo_inurba_marseille","lat":43.312183,"lon":5.373178,"is_reserved":false,"is_disabled":false,"rental_uris":{"android":"levelo://app?vid=a1d5115b-997f-44a5-8b4b-21cb29757407","ios":"levelo://app?vid=a1d5115b-997f-44a5-8b4b-21cb29757407"},"vehicle_type_id":"4","last_reported":1753528166,"current_range_meters":16400,"station_id":"","pricing_plan_id":"cebpf4jnsgd1na2vs0mg"},{"bike_id":"577376f1-b4e2-4988-8555-a4f8824898be","system_id":"levelo_inurba_marseille","lat":43.246502,"lon":5.388873,"is_reserved":false,"is_disabled":false,"rental_uris":{"android":"levelo://app?vid=577376f1-b4e2-4988-8555-a4f8824898be","ios":"levelo://app?vid=577376f1-b4e2-4988-8555-a4f8824898be"},"vehicle_type_id":"4","last_reported":1753528166,"current_range_meters":16000,"station_id":"ce4bhg12rcd13ifvqf60","pricing_plan_id":"cebpf4jnsgd1na2vs0mg"},{"bike_id":"7e65c5ea-0429-45f5-a396-bd32e67f0744","system_id":"levelo_inurba_marseille","lat":43.33458,"lon":5.40053,"is_reserved":false,"is_disabled":false,"rental_uris":{"android":"levelo://app?vid=7e65c5ea-0429-45f5-a396-bd32e67f0744","ios":"levelo://app?vid=7e65c5ea-0429-45f5-a396-bd32e67f0744"},"vehicle_type_id":"4","last_reported":1753528166,"current_range_meters":16400,"station_id":"","pricing_plan_id":"cebpf4jnsgd1na2vs0mg"},{"bike_id":"2a5dacf0-d0e9-4dd1-be13-9ec217fdfc72","system_id":"levelo_inurba_marseille","lat":43.24167,"lon":5.36399,"is_reserved":false,"is_disabled":false,"rental_uris":{"android":"levelo://app?vid=2a5dacf0-d0e9-4dd1-be13-9ec217fdfc72","ios":"levelo://app?vid=2a5dacf0-d0e9-4dd1-be13-9ec217fdfc72"},"vehicle_type_id":"4","last_reported":1753528166,"current_range_meters":16800,"station_id":"cpo36qri1sfpv3e86is0","pricing_plan_id":"cebpf4jnsgd1na2vs0mg"},{"bike_id":"d7fcbb50-1172-409d-92f3-b5b061ba5e6f","system_id":"levelo_inurba_marseille","lat":43.22926,"lon":5.353584,"is_reserved":false,"is_disabled":false,"rental_uris":{"android":"levelo://app?vid=d7fcbb50-1172-409d-92f3-b5b061ba5e6f","ios":"levelo://app?vid=d7fcbb50-1172-409d-92f3-b5b061ba5e6f"},"vehicle_type_id":"4","last_reported":1753528166,"current_range_meters":16800,"station_id":"cpo3532slgdg3j2ikp40","pricing_plan_id":"cebpf4jnsgd1na2vs0mg"},{"bike_id":"43dbc09e-d0e4-4ddb-bafe-4f55874d23a9","system_id":"levelo_inurba_marseille","lat":43.30231,"lon":5.38221,"is_reserved":false,"is_disabled":false,"rental_uris":{"android":"levelo://app?vid=43dbc09e-d0e4-4ddb-bafe-4f55874d23a9","ios":"levelo://app?vid=43dbc09e-d0e4-4ddb-bafe-4f55874d23a9"},"vehicle_type_id":"4","last_reported":1753528166,"current_range_meters":16800,"station_id":"","pricing_plan_id":"cebpf4jnsgd1na2vs0mg"},{"bike_id":"c5794c7a-bb35-409f-9175-7d8933c8fd68","system_id":"levelo_inurba_marseille","lat":43.31109,"lon":5.39602,"is_reserved":false,"is_disabled":false,"rental_uris":{"android":"levelo://app?vid=c5794c7a-bb35-409f-9175-7d8933c8fd68","ios":"levelo://app?vid=c5794c7a-bb35-409f-9175-7d8933c8fd68"},"vehicle_type_id":"4","last_reported":1753528166,"current_range_meters":16800,"station_id":"","pricing_plan_id":"cebpf4jnsgd1na2vs0mg"},{"bike_id":"c18cb45c-6701-47dc-995c-bb8a0a9b23ce","system_id":"levelo_inurba_marseille","lat":43.22932,"lon":5.3539,"is_reserved":false,"is_disabled":false,"rental_uris":{"android":"levelo://app?vid=c18cb45c-6701-47dc-995c-bb8a0a9b23ce","ios":"levelo://app?vid=c18cb45c-6701-47dc-995c-bb8a0a9b23ce"},"vehicle_type_id":"4","last_reported":1753528166,"current_range_meters":17200,"station_id":"cpo3532slgdg3j2ikp40","pricing_plan_id":"cebpf4jnsgd1na2vs0mg"},{"bike_id":"5fc666d4-7509-40b3-b359-a141ffaa9f74","system_id":"levelo_inurba_marseille","lat":43.2749,"lon":5.42461,"is_reserved":false,"is_disabled":false,"rental_uris":{"android":"levelo://app?vid=5fc666d4-7509-40b3-b359-a141ffaa9f74","ios":"levelo://app?vid=5fc666d4-7509-40b3-b359-a141ffaa9f74"},"vehicle_type_id":"4","last_reported":1753528166,"current_range_meters":17200,"station_id":"ce4bhn92rcd13ifvqgrg","pricing_plan_id":"cebpf4jnsgd1na2vs0mg"},{"bike_id":"25f3e258-0c7a-499b-b187-4c4dddf45bcd","system_id":"levelo_inurba_marseille","lat":43.29286,"lon":5.36843,"is_reserved":false,"is_disabled":true,"rental_uris":{"android":"levelo://app?vid=25f3e258-0c7a-499b-b187-4c4dddf45bcd","ios":"levelo://app?vid=25f3e258-0c7a-499b-b187-4c4dddf45bcd"},"vehicle_type_id":"4","last_reported":1753528166,"current_range_meters":17200,"station_id":"ce4bhbp2rcd13ifvqesg","pricing_plan_id":"cebpf4jnsgd1na2vs0mg"},{"bike_id":"51b3c69c-7954-4872-aad5-9431d0a1df1a","system_id":"levelo_inurba_marseille","lat":43.29376,"lon":5.37843,"is_reserved":false,"is_disabled":false,"rental_uris":{"android":"levelo://app?vid=51b3c69c-7954-4872-aad5-9431d0a1df1a","ios":"levelo://app?vid=51b3c69c-7954-4872-aad5-9431d0a1df1a"},"vehicle_type_id":"4","last_reported":1753528166,"current_range_meters":17200,"station_id":"ce4bgjh2rcd13ifvqbf0","pricing_plan_id":"cebpf4jnsgd1na2vs0mg"},{"bike_id":"5807cbdd-25cb-4d16-b9bc-ae0cd7616274","system_id":"levelo_inurba_marseille","lat":43.2454,"lon":5.39555,"is_reserved":false,"is_disabled":false,"rental_uris":{"android":"levelo://app?vid=5807cbdd-25cb-4d16-b9bc-ae0cd7616274","ios":"levelo://app?vid=5807cbdd-25cb-4d16-b9bc-ae0cd7616274"},"vehicle_type_id":"4","last_reported":1753528166,"current_range_meters":17600,"station_id":"ce4bhlp2rcd13ifvqgjg","pricing_plan_id":"cebpf4jnsgd1na2vs0mg"},{"bike_id":"ce9eab99-22dc-4fd9-a464-be63e9848a82","system_id":"levelo_inurba_marseille","lat":43.30164,"lon":5.38142,"is_reserved":false,"is_disabled":false,"rental_uris":{"android":"levelo://app?vid=ce9eab99-22dc-4fd9-a464-be63e9848a82","ios":"levelo://app?vid=ce9eab99-22dc-4fd9-a464-be63e9848a82"},"vehicle_type_id":"4","last_reported":1753528166,"current_range_meters":17600,"station_id":"ce4bgjp2rcd13ifvqbh0","pricing_plan_id":"cebpf4jnsgd1na2vs0mg"},{"bike_id":"bcbf9569-761c-49e4-a3d8-f477bb7edc21","system_id":"levelo_inurba_marseille","lat":43.23195,"lon":5.35546,"is_reserved":false,"is_disabled":false,"rental_uris":{"android":"levelo://app?vid=bcbf9569-761c-49e4-a3d8-f477bb7edc21","ios":"levelo://app?vid=bcbf9569-761c-49e4-a3d8-f477bb7edc21"},"vehicle_type_id":"4","last_reported":1753528166,"current_range_meters":17600,"station_id":"ce4bhu92rcd13ifvqi70","pricing_plan_id":"cebpf4jnsgd1na2vs0mg"},{"bike_id":"8362c329-d292-4c5c-95e6-bd7045291b1e","system_id":"levelo_inurba_marseille","lat":43.29686,"lon":5.3728,"is_reserved":false,"is_disabled":false,"rental_uris":{"android":"levelo://app?vid=8362c329-d292-4c5c-95e6-bd7045291b1e","ios":"levelo://app?vid=8362c329-d292-4c5c-95e6-bd7045291b1e"},"vehicle_type_id":"4","last_reported":1753528166,"current_range_meters":17600,"station_id":"ce4bgk12rcd13ifvqbj0","pricing_plan_id":"cebpf4jnsgd1na2vs0mg"},{"bike_id":"6bdb253a-5802-4e29-9251-f552985c23cf","system_id":"levelo_inurba_marseille","lat":43.28268,"lon":5.35061,"is_reserved":false,"is_disabled":false,"rental_uris":{"android":"levelo://app?vid=6bdb253a-5802-4e29-9251-f552985c23cf","ios":"levelo://app?vid=6bdb253a-5802-4e29-9251-f552985c23cf"},"vehicle_type_id":"4","last_reported":1753528166,"current_range_meters":17600,"station_id":"ce4bhbp2rcd13ifvqerg","pricing_plan_id":"cebpf4jnsgd1na2vs0mg"},{"bike_id":"2807d12a-8c8a-4209-a9c0-8d1cf55dce5e","system_id":"levelo_inurba_marseille","lat":43.25577,"lon":5.38226,"is_reserved":false,"is_disabled":true,"rental_uris":{"android":"levelo://app?vid=2807d12a-8c8a-4209-a9c0-8d1cf55dce5e","ios":"levelo://app?vid=2807d12a-8c8a-4209-a9c0-8d1cf55dce5e"},"vehicle_type_id":"4","last_reported":1753528166,"current_range_meters":17600,"station_id":"ce4bhih2rcd13ifvqfs0","pricing_plan_id":"cebpf4jnsgd1na2vs0mg"},{"bike_id":"c0cd141e-968c-4be4-a9f1-b8aece5dd0ff","system_id":"levelo_inurba_marseille","lat":43.21753,"lon":5.34605,"is_reserved":false,"is_disabled":false,"rental_uris":{"android":"levelo://app?vid=c0cd141e-968c-4be4-a9f1-b8aece5dd0ff","ios":"levelo://app?vid=c0cd141e-968c-4be4-a9f1-b8aece5dd0ff"},"vehicle_type_id":"4","last_reported":1753528166,"current_range_meters":17600,"station_id":"st_cvj6r9ubvosntc0bgbag","pricing_plan_id":"cebpf4jnsgd1na2vs0mg"},{"bike_id":"0ed16090-ed9e-4e97-809f-54f7805ac6a5","system_id":"levelo_inurba_marseille","lat":43.27603,"lon":5.36113,"is_reserved":false,"is_disabled":false,"rental_uris":{"android":"levelo://app?vid=0ed16090-ed9e-4e97-809f-54f7805ac6a5","ios":"levelo://app?vid=0ed16090-ed9e-4e97-809f-54f7805ac6a5"},"vehicle_type_id":"4","last_reported":1753528166,"current_range_meters":17600,"station_id":"ce4bgj92rcd13ifvqbe0","pricing_plan_id":"cebpf4jnsgd1na2vs0mg"},{"bike_id":"60129073-f006-4694-859e-78c8adf6fb90","system_id":"levelo_inurba_marseille","lat":43.29198,"lon":5.36105,"is_reserved":false,"is_disabled":false,"rental_uris":{"android":"levelo://app?vid=60129073-f006-4694-859e-78c8adf6fb90","ios":"levelo://app?vid=60129073-f006-4694-859e-78c8adf6fb90"},"vehicle_type_id":"4","last_reported":1753528166,"current_range_meters":18000,"station_id":"ce4bhbh2rcd13ifvqeqg","pricing_plan_id":"cebpf4jnsgd1na2vs0mg"},{"bike_id":"54405b04-0f04-4c64-af8f-9ccbb34ae9ba","system_id":"levelo_inurba_marseille","lat":43.28011,"lon":5.369,"is_reserved":false,"is_disabled":false,"rental_uris":{"android":"levelo://app?vid=54405b04-0f04-4c64-af8f-9ccbb34ae9ba","ios":"levelo://app?vid=54405b04-0f04-4c64-af8f-9ccbb34ae9ba"},"vehicle_type_id":"4","last_reported":1753528166,"current_range_meters":18000,"station_id":"ce4bha12rcd13ifvqef0","pricing_plan_id":"cebpf4jnsgd1na2vs0mg"},{"bike_id":"704036f7-fe1d-4102-a9ec-5e85154310a2","system_id":"levelo_inurba_marseille","lat":43.28477,"lon":5.38425,"is_reserved":false,"is_disabled":false,"rental_uris":{"android":"levelo://app?vid=704036f7-fe1d-4102-a9ec-5e85154310a2","ios":"levelo://app?vid=704036f7-fe1d-4102-a9ec-5e85154310a2"},"vehicle_type_id":"4","last_reported":1753528166,"current_range_meters":18000,"station_id":"ce4bh512rcd13ifvqe3g","pricing_plan_id":"cebpf4jnsgd1na2vs0mg"},{"bike_id":"2dfe5d41-4214-4b38-bc50-4014400f8f4e","system_id":"levelo_inurba_marseille","lat":43.25886,"lon":5.39911,"is_reserved":false,"is_disabled":false,"rental_uris":{"android":"levelo://app?vid=2dfe5d41-4214-4b38-bc50-4014400f8f4e","ios":"levelo://app?vid=2dfe5d41-4214-4b38-bc50-4014400f8f4e"},"vehicle_type_id":"4","last_reported":1753528166,"current_range_meters":18000,"station_id":"ce4bhl92rcd13ifvqghg","pricing_plan_id":"cebpf4jnsgd1na2vs0mg"},{"bike_id":"4fc563e5-5af3-4e66-b309-4f545577a0a4","system_id":"levelo_inurba_marseille","lat":43.217445,"lon":5.346039,"is_reserved":false,"is_disabled":false,"rental_uris":{"android":"levelo://app?vid=4fc563e5-5af3-4e66-b309-4f545577a0a4","ios":"levelo://app?vid=4fc563e5-5af3-4e66-b309-4f545577a0a4"},"vehicle_type_id":"4","last_reported":1753528166,"current_range_meters":18000,"station_id":"","pricing_plan_id":"cebpf4jnsgd1na2vs0mg"},{"bike_id":"64255a8a-537e-4ff7-b4a7-add11e315c11","system_id":"levelo_inurba_marseille","lat":43.24808,"lon":5.37458,"is_reserved":false,"is_disabled":false,"rental_uris":{"android":"levelo://app?vid=64255a8a-537e-4ff7-b4a7-add11e315c11","ios":"levelo://app?vid=64255a8a-537e-4ff7-b4a7-add11e315c11"},"vehicle_type_id":"4","last_reported":1753528166,"current_range_meters":18000,"station_id":"ce4bhgh2rcd13ifvqfb0","pricing_plan_id":"cebpf4jnsgd1na2vs0mg"},{"bike_id":"69eb2053-6469-4f9b-869a-7285bd1bf1c0","system_id":"levelo_inurba_marseille","lat":43.22503,"lon":5.34794,"is_reserved":false,"is_disabled":false,"rental_uris":{"android":"levelo://app?vid=69eb2053-6469-4f9b-869a-7285bd1bf1c0","ios":"levelo://app?vid=69eb2053-6469-4f9b-869a-7285bd1bf1c0"},"vehicle_type_id":"4","last_reported":1753528166,"current_range_meters":18000,"station_id":"st_cvj5dfep6f1abm77gieg","pricing_plan_id":"cebpf4jnsgd1na2vs0mg"},{"bike_id":"2ae45256-5ae2-498d-870c-4f13de54db6f","system_id":"levelo_inurba_marseille","lat":43.22941,"lon":5.354,"is_reserved":false,"is_disabled":false,"rental_uris":{"android":"levelo://app?vid=2ae45256-5ae2-498d-870c-4f13de54db6f","ios":"levelo://app?vid=2ae45256-5ae2-498d-870c-4f13de54db6f"},"vehicle_type_id":"4","last_reported":1753528166,"current_range_meters":18000,"station_id":"cpo3532slgdg3j2ikp40","pricing_plan_id":"cebpf4jnsgd1na2vs0mg"},{"bike_id":"03d4250b-69f9-4399-a884-7539b2b7ba8d","system_id":"levelo_inurba_marseille","lat":43.28612,"lon":5.351,"is_reserved":false,"is_disabled":false,"rental_uris":{"android":"levelo://app?vid=03d4250b-69f9-4399-a884-7539b2b7ba8d","ios":"levelo://app?vid=03d4250b-69f9-4399-a884-7539b2b7ba8d"},"vehicle_type_id":"4","last_reported":1753528166,"current_range_meters":18000,"station_id":"ce4bhch2rcd13ifvqeug","pricing_plan_id":"cebpf4jnsgd1na2vs0mg"},{"bike_id":"f5d35bb9-022f-4b33-ab96-4c8a7845427f","system_id":"levelo_inurba_marseille","lat":43.30357,"lon":5.41893,"is_reserved":false,"is_disabled":false,"rental_uris":{"android":"levelo://app?vid=f5d35bb9-022f-4b33-ab96-4c8a7845427f","ios":"levelo://app?vid=f5d35bb9-022f-4b33-ab96-4c8a7845427f"},"vehicle_type_id":"4","last_reported":1753528166,"current_range_meters":18800,"station_id":"ce4bhop2rcd13ifvqh7g","pricing_plan_id":"cebpf4jnsgd1na2vs0mg"},{"bike_id":"8de1d899-3b0d-4a4d-abcd-173721aef2ac","system_id":"levelo_inurba_marseille","lat":43.23961,"lon":5.3663,"is_reserved":false,"is_disabled":false,"rental_uris":{"android":"levelo://app?vid=8de1d899-3b0d-4a4d-abcd-173721aef2ac","ios":"levelo://app?vid=8de1d899-3b0d-4a4d-abcd-173721aef2ac"},"vehicle_type_id":"4","last_reported":1753528166,"current_range_meters":18800,"station_id":"ce4bhi12rcd13ifvqfp0","pricing_plan_id":"cebpf4jnsgd1na2vs0mg"},{"bike_id":"f4fd8122-3542-41c9-a204-ae963e556aa2","system_id":"levelo_inurba_marseille","lat":43.23082,"lon":5.35542,"is_reserved":false,"is_disabled":false,"rental_uris":{"android":"levelo://app?vid=f4fd8122-3542-41c9-a204-ae963e556aa2","ios":"levelo://app?vid=f4fd8122-3542-41c9-a204-ae963e556aa2"},"vehicle_type_id":"4","last_reported":1753528166,"current_range_meters":19200,"station_id":"cpo3342slgdg3j2ifvpg","pricing_plan_id":"cebpf4jnsgd1na2vs0mg"},{"bike_id":"57305202-cea7-4169-ba54-d2dbe0f24a03","system_id":"levelo_inurba_marseille","lat":43.2931,"lon":5.37169,"is_reserved":false,"is_disabled":false,"rental_uris":{"android":"levelo://app?vid=57305202-cea7-4169-ba54-d2dbe0f24a03","ios":"levelo://app?vid=57305202-cea7-4169-ba54-d2dbe0f24a03"},"vehicle_type_id":"4","last_reported":1753528166,"current_range_meters":19200,"station_id":"ce4bgh92rcd13ifvqb40","pricing_plan_id":"cebpf4jnsgd1na2vs0mg"},{"bike_id":"7c79de11-8692-400a-91b9-4fdcefcc70a2","system_id":"levelo_inurba_marseille","lat":43.29568,"lon":5.3754,"is_reserved":false,"is_disabled":false,"rental_uris":{"android":"levelo://app?vid=7c79de11-8692-400a-91b9-4fdcefcc70a2","ios":"levelo://app?vid=7c79de11-8692-400a-91b9-4fdcefcc70a2"},"vehicle_type_id":"4","last_reported":1753528166,"current_range_meters":18800,"station_id":"ce4bgh92rcd13ifvqb50","pricing_plan_id":"cebpf4jnsgd1na2vs0mg"},{"bike_id":"0b5b3935-589c-48db-b264-e597e7b9b2e2","system_id":"levelo_inurba_marseille","lat":43.24167,"lon":5.36399,"is_reserved":false,"is_disabled":false,"rental_uris":{"android":"levelo://app?vid=0b5b3935-589c-48db-b264-e597e7b9b2e2","ios":"levelo://app?vid=0b5b3935-589c-48db-b264-e597e7b9b2e2"},"vehicle_type_id":"4","last_reported":1753528166,"current_range_meters":19200,"station_id":"cpo36qri1sfpv3e86is0","pricing_plan_id":"cebpf4jnsgd1na2vs0mg"},{"bike_id":"03bfd96c-8871-4e6f-a653-d78eeaafa638","system_id":"levelo_inurba_marseille","lat":43.26688,"lon":5.38287,"is_reserved":false,"is_disabled":false,"rental_uris":{"android":"levelo://app?vid=03bfd96c-8871-4e6f-a653-d78eeaafa638","ios":"levelo://app?vid=03bfd96c-8871-4e6f-a653-d78eeaafa638"},"vehicle_type_id":"4","last_reported":1753528166,"current_range_meters":19200,"station_id":"ce4bhg92rcd13ifvqf90","pricing_plan_id":"cebpf4jnsgd1na2vs0mg"},{"bike_id":"ddc71cff-a54b-4821-b577-35926c1b4a46","system_id":"levelo_inurba_marseille","lat":43.29205,"lon":5.36081,"is_reserved":false,"is_disabled":false,"rental_uris":{"android":"levelo://app?vid=ddc71cff-a54b-4821-b577-35926c1b4a46","ios":"levelo://app?vid=ddc71cff-a54b-4821-b577-35926c1b4a46"},"vehicle_type_id":"4","last_reported":1753528166,"current_range_meters":19200,"station_id":"ce4bhbh2rcd13ifvqeqg","pricing_plan_id":"cebpf4jnsgd1na2vs0mg"},{"bike_id":"99abde5f-84c1-407f-97a2-aa818612f640","system_id":"levelo_inurba_marseille","lat":43.26203,"lon":5.37936,"is_reserved":false,"is_disabled":false,"rental_uris":{"android":"levelo://app?vid=99abde5f-84c1-407f-97a2-aa818612f640","ios":"levelo://app?vid=99abde5f-84c1-407f-97a2-aa818612f640"},"vehicle_type_id":"4","last_reported":1753528166,"current_range_meters":19200,"station_id":"ce4bhjp2rcd13ifvqg90","pricing_plan_id":"cebpf4jnsgd1na2vs0mg"},{"bike_id":"adbc006e-c51d-4434-863c-610344ea30cd","system_id":"levelo_inurba_marseille","lat":43.21742,"lon":5.34615,"is_reserved":false,"is_disabled":true,"rental_uris":{"android":"levelo://app?vid=adbc006e-c51d-4434-863c-610344ea30cd","ios":"levelo://app?vid=adbc006e-c51d-4434-863c-610344ea30cd"},"vehicle_type_id":"4","last_reported":1753528166,"current_range_meters":19200,"station_id":"st_cvj6r9ubvosntc0bgbag","pricing_plan_id":"cebpf4jnsgd1na2vs0mg"},{"bike_id":"5599a6c9-e5a5-47ec-88aa-a4ff79ced883","system_id":"levelo_inurba_marseille","lat":43.28461,"lon":5.35892,"is_reserved":false,"is_disabled":false,"rental_uris":{"android":"levelo://app?vid=5599a6c9-e5a5-47ec-88aa-a4ff79ced883","ios":"levelo://app?vid=5599a6c9-e5a5-47ec-88aa-a4ff79ced883"},"vehicle_type_id":"4","last_reported":1753528166,"current_range_meters":19200,"station_id":"ce4bhah2rcd13ifvqei0","pricing_plan_id":"cebpf4jnsgd1na2vs0mg"},{"bike_id":"a6db2f5e-d640-48b6-808c-92a56154a6a2","system_id":"levelo_inurba_marseille","lat":43.29594,"lon":5.37735,"is_reserved":false,"is_disabled":false,"rental_uris":{"android":"levelo://app?vid=a6db2f5e-d640-48b6-808c-92a56154a6a2","ios":"levelo://app?vid=a6db2f5e-d640-48b6-808c-92a56154a6a2"},"vehicle_type_id":"4","last_reported":1753528166,"current_range_meters":19200,"station_id":"ce4bgi92rcd13ifvqb90","pricing_plan_id":"cebpf4jnsgd1na2vs0mg"},{"bike_id":"4f1b2aef-6e02-4a3c-ad1c-f375f00f9c7b","system_id":"levelo_inurba_marseille","lat":43.217512,"lon":5.345994,"is_reserved":false,"is_disabled":false,"rental_uris":{"android":"levelo://app?vid=4f1b2aef-6e02-4a3c-ad1c-f375f00f9c7b","ios":"levelo://app?vid=4f1b2aef-6e02-4a3c-ad1c-f375f00f9c7b"},"vehicle_type_id":"4","last_reported":1753528166,"current_range_meters":19600,"station_id":"","pricing_plan_id":"cebpf4jnsgd1na2vs0mg"},{"bike_id":"95feb509-e325-434e-8ea8-361166682a79","system_id":"levelo_inurba_marseille","lat":43.2721,"lon":5.39183,"is_reserved":false,"is_disabled":false,"rental_uris":{"android":"levelo://app?vid=95feb509-e325-434e-8ea8-361166682a79","ios":"levelo://app?vid=95feb509-e325-434e-8ea8-361166682a79"},"vehicle_type_id":"4","last_reported":1753528166,"current_range_meters":19600,"station_id":"ce4bhhp2rcd13ifvqfm0","pricing_plan_id":"cebpf4jnsgd1na2vs0mg"},{"bike_id":"484ce80f-12be-41fa-9586-784b84db2ffe","system_id":"levelo_inurba_marseille","lat":43.24804,"lon":5.37454,"is_reserved":false,"is_disabled":false,"rental_uris":{"android":"levelo://app?vid=484ce80f-12be-41fa-9586-784b84db2ffe","ios":"levelo://app?vid=484ce80f-12be-41fa-9586-784b84db2ffe"},"vehicle_type_id":"4","last_reported":1753528166,"current_range_meters":19600,"station_id":"ce4bhgh2rcd13ifvqfb0","pricing_plan_id":"cebpf4jnsgd1na2vs0mg"},{"bike_id":"434ec306-b3aa-4756-8374-296f898318a7","system_id":"levelo_inurba_marseille","lat":43.299683,"lon":5.386239,"is_reserved":false,"is_disabled":false,"rental_uris":{"android":"levelo://app?vid=434ec306-b3aa-4756-8374-296f898318a7","ios":"levelo://app?vid=434ec306-b3aa-4756-8374-296f898318a7"},"vehicle_type_id":"4","last_reported":1753528166,"current_range_meters":19600,"station_id":"","pricing_plan_id":"cebpf4jnsgd1na2vs0mg"},{"bike_id":"d8ede7a6-2370-4585-9b4e-834634539090","system_id":"levelo_inurba_marseille","lat":43.22472,"lon":5.34775,"is_reserved":false,"is_disabled":false,"rental_uris":{"android":"levelo://app?vid=d8ede7a6-2370-4585-9b4e-834634539090","ios":"levelo://app?vid=d8ede7a6-2370-4585-9b4e-834634539090"},"vehicle_type_id":"4","last_reported":1753528166,"current_range_meters":19600,"station_id":"st_cvj5dfep6f1abm77gieg","pricing_plan_id":"cebpf4jnsgd1na2vs0mg"},{"bike_id":"b64dad25-8e0d-4258-bfd2-304c64c6d313","system_id":"levelo_inurba_marseille","lat":43.31716,"lon":5.37779,"is_reserved":false,"is_disabled":false,"rental_uris":{"android":"levelo://app?vid=b64dad25-8e0d-4258-bfd2-304c64c6d313","ios":"levelo://app?vid=b64dad25-8e0d-4258-bfd2-304c64c6d313"},"vehicle_type_id":"4","last_reported":1753528166,"current_range_meters":19600,"station_id":"ce4bgth2rcd13ifvqch0","pricing_plan_id":"cebpf4jnsgd1na2vs0mg"},{"bike_id":"48189b36-5ea2-46ba-8b1f-5da8d35e96a1","system_id":"levelo_inurba_marseille","lat":43.29724,"lon":5.37666,"is_reserved":false,"is_disabled":false,"rental_uris":{"android":"levelo://app?vid=48189b36-5ea2-46ba-8b1f-5da8d35e96a1","ios":"levelo://app?vid=48189b36-5ea2-46ba-8b1f-5da8d35e96a1"},"vehicle_type_id":"4","last_reported":1753528166,"current_range_meters":19200,"station_id":"ce4bgkh2rcd13ifvqbl0","pricing_plan_id":"cebpf4jnsgd1na2vs0mg"},{"bike_id":"55661540-733b-4bd0-ad5d-bb688398f06e","system_id":"levelo_inurba_marseille","lat":43.22511,"lon":5.34783,"is_reserved":false,"is_disabled":false,"rental_uris":{"android":"levelo://app?vid=55661540-733b-4bd0-ad5d-bb688398f06e","ios":"levelo://app?vid=55661540-733b-4bd0-ad5d-bb688398f06e"},"vehicle_type_id":"4","last_reported":1753528166,"current_range_meters":19600,"station_id":"st_cvj5dfep6f1abm77gieg","pricing_plan_id":"cebpf4jnsgd1na2vs0mg"},{"bike_id":"b4f15512-f383-4fcc-b989-3e4863e8cb71","system_id":"levelo_inurba_marseille","lat":43.21749,"lon":5.34584,"is_reserved":false,"is_disabled":false,"rental_uris":{"android":"levelo://app?vid=b4f15512-f383-4fcc-b989-3e4863e8cb71","ios":"levelo://app?vid=b4f15512-f383-4fcc-b989-3e4863e8cb71"},"vehicle_type_id":"4","last_reported":1753528166,"current_range_meters":19600,"station_id":"st_cvj6r9ubvosntc0bgbag","pricing_plan_id":"cebpf4jnsgd1na2vs0mg"},{"bike_id":"f0a5bf42-f644-4ab5-9855-d6ce6714832d","system_id":"levelo_inurba_marseille","lat":43.30555,"lon":5.36541,"is_reserved":false,"is_disabled":false,"rental_uris":{"android":"levelo://app?vid=f0a5bf42-f644-4ab5-9855-d6ce6714832d","ios":"levelo://app?vid=f0a5bf42-f644-4ab5-9855-d6ce6714832d"},"vehicle_type_id":"4","last_reported":1753528166,"current_range_meters":20000,"station_id":"ce4bgs12rcd13ifvqcag","pricing_plan_id":"cebpf4jnsgd1na2vs0mg"},{"bike_id":"9d2cdf0b-e55f-4b49-bccb-9f57f5f2f11b","system_id":"levelo_inurba_marseille","lat":43.262781,"lon":5.39308,"is_reserved":false,"is_disabled":false,"rental_uris":{"android":"levelo://app?vid=9d2cdf0b-e55f-4b49-bccb-9f57f5f2f11b","ios":"levelo://app?vid=9d2cdf0b-e55f-4b49-bccb-9f57f5f2f11b"},"vehicle_type_id":"4","last_reported":1753528166,"current_range_meters":20000,"station_id":"ce4bhe12rcd13ifvqf30","pricing_plan_id":"cebpf4jnsgd1na2vs0mg"},{"bike_id":"54b9ec1a-23f2-448d-be35-e0ce9aa58f00","system_id":"levelo_inurba_marseille","lat":43.29727,"lon":5.37682,"is_reserved":false,"is_disabled":false,"rental_uris":{"android":"levelo://app?vid=54b9ec1a-23f2-448d-be35-e0ce9aa58f00","ios":"levelo://app?vid=54b9ec1a-23f2-448d-be35-e0ce9aa58f00"},"vehicle_type_id":"4","last_reported":1753528166,"current_range_meters":20000,"station_id":"ce4bgkh2rcd13ifvqbl0","pricing_plan_id":"cebpf4jnsgd1na2vs0mg"},{"bike_id":"37ec236f-77e5-4cf6-80a5-87bf9f01b183","system_id":"levelo_inurba_marseille","lat":43.23544,"lon":5.36026,"is_reserved":false,"is_disabled":false,"rental_uris":{"android":"levelo://app?vid=37ec236f-77e5-4cf6-80a5-87bf9f01b183","ios":"levelo://app?vid=37ec236f-77e5-4cf6-80a5-87bf9f01b183"},"vehicle_type_id":"4","last_reported":1753528166,"current_range_meters":20000,"station_id":"","pricing_plan_id":"cebpf4jnsgd1na2vs0mg"},{"bike_id":"882f9780-9bb3-48e2-b4d9-1dfcff87d991","system_id":"levelo_inurba_marseille","lat":43.2979,"lon":5.3709,"is_reserved":false,"is_disabled":false,"rental_uris":{"android":"levelo://app?vid=882f9780-9bb3-48e2-b4d9-1dfcff87d991","ios":"levelo://app?vid=882f9780-9bb3-48e2-b4d9-1dfcff87d991"},"vehicle_type_id":"4","last_reported":1753528166,"current_range_meters":20000,"station_id":"ce4bgop2rcd13ifvqc1g","pricing_plan_id":"cebpf4jnsgd1na2vs0mg"},{"bike_id":"e5e4e1f6-5bf3-4f7f-ac6a-ca45a6e8be5b","system_id":"levelo_inurba_marseille","lat":43.30527,"lon":5.365567,"is_reserved":false,"is_disabled":false,"rental_uris":{"android":"levelo://app?vid=e5e4e1f6-5bf3-4f7f-ac6a-ca45a6e8be5b","ios":"levelo://app?vid=e5e4e1f6-5bf3-4f7f-ac6a-ca45a6e8be5b"},"vehicle_type_id":"4","last_reported":1753528166,"current_range_meters":20000,"station_id":"ce4bgs12rcd13ifvqcag","pricing_plan_id":"cebpf4jnsgd1na2vs0mg"},{"bike_id":"3db21b8c-2cc4-48c5-81c5-5023172ff104","system_id":"levelo_inurba_marseille","lat":43.24804,"lon":5.37458,"is_reserved":false,"is_disabled":false,"rental_uris":{"android":"levelo://app?vid=3db21b8c-2cc4-48c5-81c5-5023172ff104","ios":"levelo://app?vid=3db21b8c-2cc4-48c5-81c5-5023172ff104"},"vehicle_type_id":"4","last_reported":1753528166,"current_range_meters":20400,"station_id":"ce4bhgh2rcd13ifvqfb0","pricing_plan_id":"cebpf4jnsgd1na2vs0mg"},{"bike_id":"e92665cd-d265-4924-a011-37dd03e0392c","system_id":"levelo_inurba_marseille","lat":43.28618,"lon":5.35103,"is_reserved":false,"is_disabled":false,"rental_uris":{"android":"levelo://app?vid=e92665cd-d265-4924-a011-37dd03e0392c","ios":"levelo://app?vid=e92665cd-d265-4924-a011-37dd03e0392c"},"vehicle_type_id":"4","last_reported":1753528166,"current_range_meters":20400,"station_id":"ce4bhch2rcd13ifvqeug","pricing_plan_id":"cebpf4jnsgd1na2vs0mg"},{"bike_id":"d8cd6055-23c8-4622-a5bf-68f9b9ebfe53","system_id":"levelo_inurba_marseille","lat":43.27059,"lon":5.42278,"is_reserved":false,"is_disabled":true,"rental_uris":{"android":"levelo://app?vid=d8cd6055-23c8-4622-a5bf-68f9b9ebfe53","ios":"levelo://app?vid=d8cd6055-23c8-4622-a5bf-68f9b9ebfe53"},"vehicle_type_id":"4","last_reported":1753528166,"current_range_meters":20400,"station_id":"ce4bhk92rcd13ifvqgb0","pricing_plan_id":"cebpf4jnsgd1na2vs0mg"},{"bike_id":"ca43f2b2-991c-4d1c-a834-1b504911e28b","system_id":"levelo_inurba_marseille","lat":43.30139,"lon":5.37414,"is_reserved":false,"is_disabled":false,"rental_uris":{"android":"levelo://app?vid=ca43f2b2-991c-4d1c-a834-1b504911e28b","ios":"levelo://app?vid=ca43f2b2-991c-4d1c-a834-1b504911e28b"},"vehicle_type_id":"4","last_reported":1753528166,"current_range_meters":20400,"station_id":"ce4bgs92rcd13ifvqcc0","pricing_plan_id":"cebpf4jnsgd1na2vs0mg"},{"bike_id":"6c17f6f6-a8d8-4559-a952-a479db4a8339","system_id":"levelo_inurba_marseille","lat":43.23184,"lon":5.35561,"is_reserved":false,"is_disabled":false,"rental_uris":{"android":"levelo://app?vid=6c17f6f6-a8d8-4559-a952-a479db4a8339","ios":"levelo://app?vid=6c17f6f6-a8d8-4559-a952-a479db4a8339"},"vehicle_type_id":"4","last_reported":1753528166,"current_range_meters":20400,"station_id":"ce4bhu92rcd13ifvqi70","pricing_plan_id":"cebpf4jnsgd1na2vs0mg"},{"bike_id":"c8edd070-cfc4-48a6-b0e3-4017421cdf94","system_id":"levelo_inurba_marseille","lat":43.299168,"lon":5.374741,"is_reserved":false,"is_disabled":false,"rental_uris":{"android":"levelo://app?vid=c8edd070-cfc4-48a6-b0e3-4017421cdf94","ios":"levelo://app?vid=c8edd070-cfc4-48a6-b0e3-4017421cdf94"},"vehicle_type_id":"4","last_reported":1753528166,"current_range_meters":20400,"station_id":"","pricing_plan_id":"cebpf4jnsgd1na2vs0mg"},{"bike_id":"309a48eb-b2c3-4058-b271-526a78829cf8","system_id":"levelo_inurba_marseille","lat":43.26211,"lon":5.37476,"is_reserved":false,"is_disabled":false,"rental_uris":{"android":"levelo://app?vid=309a48eb-b2c3-4058-b271-526a78829cf8","ios":"levelo://app?vid=309a48eb-b2c3-4058-b271-526a78829cf8"},"vehicle_type_id":"4","last_reported":1753528166,"current_range_meters":20400,"station_id":"ce4bhgp2rcd13ifvqfc0","pricing_plan_id":"cebpf4jnsgd1na2vs0mg"},{"bike_id":"3152576e-d602-4c3f-980e-717f41aed773","system_id":"levelo_inurba_marseille","lat":43.33737,"lon":5.37465,"is_reserved":false,"is_disabled":false,"rental_uris":{"android":"levelo://app?vid=3152576e-d602-4c3f-980e-717f41aed773","ios":"levelo://app?vid=3152576e-d602-4c3f-980e-717f41aed773"},"vehicle_type_id":"4","last_reported":1753528166,"current_range_meters":20400,"station_id":"","pricing_plan_id":"cebpf4jnsgd1na2vs0mg"},{"bike_id":"c6811183-6a96-4428-8f16-7185df712f6c","system_id":"levelo_inurba_marseille","lat":43.24168,"lon":5.36413,"is_reserved":false,"is_disabled":false,"rental_uris":{"android":"levelo://app?vid=c6811183-6a96-4428-8f16-7185df712f6c","ios":"levelo://app?vid=c6811183-6a96-4428-8f16-7185df712f6c"},"vehicle_type_id":"4","last_reported":1753528166,"current_range_meters":22000,"station_id":"cpo36qri1sfpv3e86is0","pricing_plan_id":"cebpf4jnsgd1na2vs0mg"},{"bike_id":"6e574d36-0619-4efe-9270-979dd078db3e","system_id":"levelo_inurba_marseille","lat":43.264908,"lon":5.395387,"is_reserved":false,"is_disabled":false,"rental_uris":{"android":"levelo://app?vid=6e574d36-0619-4efe-9270-979dd078db3e","ios":"levelo://app?vid=6e574d36-0619-4efe-9270-979dd078db3e"},"vehicle_type_id":"4","last_reported":1753528166,"current_range_meters":20800,"station_id":"ce4bhi12rcd13ifvqfq0","pricing_plan_id":"cebpf4jnsgd1na2vs0mg"},{"bike_id":"76857b2f-458b-437e-9f9a-0e1e7a6905f7","system_id":"levelo_inurba_marseille","lat":43.29914,"lon":5.38142,"is_reserved":false,"is_disabled":false,"rental_uris":{"android":"levelo://app?vid=76857b2f-458b-437e-9f9a-0e1e7a6905f7","ios":"levelo://app?vid=76857b2f-458b-437e-9f9a-0e1e7a6905f7"},"vehicle_type_id":"4","last_reported":1753528166,"current_range_meters":21600,"station_id":"ce4bgj12rcd13ifvqbc0","pricing_plan_id":"cebpf4jnsgd1na2vs0mg"},{"bike_id":"fd711c8b-dc3b-4fb9-9a38-42216d828906","system_id":"levelo_inurba_marseille","lat":43.239653,"lon":5.366272,"is_reserved":false,"is_disabled":false,"rental_uris":{"android":"levelo://app?vid=fd711c8b-dc3b-4fb9-9a38-42216d828906","ios":"levelo://app?vid=fd711c8b-dc3b-4fb9-9a38-42216d828906"},"vehicle_type_id":"4","last_reported":1753528166,"current_range_meters":20800,"station_id":"ce4bhi12rcd13ifvqfp0","pricing_plan_id":"cebpf4jnsgd1na2vs0mg"},{"bike_id":"56ec8761-dee0-49c1-aba7-a69ac65d386f","system_id":"levelo_inurba_marseille","lat":43.229382,"lon":5.353687,"is_reserved":false,"is_disabled":false,"rental_uris":{"android":"levelo://app?vid=56ec8761-dee0-49c1-aba7-a69ac65d386f","ios":"levelo://app?vid=56ec8761-dee0-49c1-aba7-a69ac65d386f"},"vehicle_type_id":"4","last_reported":1753528166,"current_range_meters":20800,"station_id":"cpo3532slgdg3j2ikp40","pricing_plan_id":"cebpf4jnsgd1na2vs0mg"},{"bike_id":"791fa7b1-f914-40ff-b15b-7d5eeae9b557","system_id":"levelo_inurba_marseille","lat":43.30152,"lon":5.38076,"is_reserved":false,"is_disabled":false,"rental_uris":{"android":"levelo://app?vid=791fa7b1-f914-40ff-b15b-7d5eeae9b557","ios":"levelo://app?vid=791fa7b1-f914-40ff-b15b-7d5eeae9b557"},"vehicle_type_id":"4","last_reported":1753528166,"current_range_meters":20800,"station_id":"ce4bgjp2rcd13ifvqbh0","pricing_plan_id":"cebpf4jnsgd1na2vs0mg"},{"bike_id":"923e3b84-181c-4cf2-931c-6a84f8550308","system_id":"levelo_inurba_marseille","lat":43.26484,"lon":5.39556,"is_reserved":false,"is_disabled":false,"rental_uris":{"android":"levelo://app?vid=923e3b84-181c-4cf2-931c-6a84f8550308","ios":"levelo://app?vid=923e3b84-181c-4cf2-931c-6a84f8550308"},"vehicle_type_id":"4","last_reported":1753528166,"current_range_meters":20800,"station_id":"ce4bhi12rcd13ifvqfq0","pricing_plan_id":"cebpf4jnsgd1na2vs0mg"},{"bike_id":"f12284f3-a043-4c33-9175-f0aa485a8529","system_id":"levelo_inurba_marseille","lat":43.29268,"lon":5.37624,"is_reserved":false,"is_disabled":false,"rental_uris":{"android":"levelo://app?vid=f12284f3-a043-4c33-9175-f0aa485a8529","ios":"levelo://app?vid=f12284f3-a043-4c33-9175-f0aa485a8529"},"vehicle_type_id":"4","last_reported":1753528166,"current_range_meters":20800,"station_id":"ce4bgi12rcd13ifvqb80","pricing_plan_id":"cebpf4jnsgd1na2vs0mg"},{"bike_id":"fe2b3a64-5134-4658-9432-70a64701ef5c","system_id":"levelo_inurba_marseille","lat":43.29584,"lon":5.37505,"is_reserved":false,"is_disabled":false,"rental_uris":{"android":"levelo://app?vid=fe2b3a64-5134-4658-9432-70a64701ef5c","ios":"levelo://app?vid=fe2b3a64-5134-4658-9432-70a64701ef5c"},"vehicle_type_id":"4","last_reported":1753528166,"current_range_meters":21600,"station_id":"ce4bgh92rcd13ifvqb50","pricing_plan_id":"cebpf4jnsgd1na2vs0mg"},{"bike_id":"13e68b57-7a4d-4a9f-8bd3-3320f559c7fd","system_id":"levelo_inurba_marseille","lat":43.32362,"lon":5.3889,"is_reserved":false,"is_disabled":false,"rental_uris":{"android":"levelo://app?vid=13e68b57-7a4d-4a9f-8bd3-3320f559c7fd","ios":"levelo://app?vid=13e68b57-7a4d-4a9f-8bd3-3320f559c7fd"},"vehicle_type_id":"4","last_reported":1753528166,"current_range_meters":21600,"station_id":"ce4bhqp2rcd13ifvqhog","pricing_plan_id":"cebpf4jnsgd1na2vs0mg"},{"bike_id":"af451b01-5fd7-456b-ba9a-1c9df7a0b366","system_id":"levelo_inurba_marseille","lat":43.303499,"lon":5.386081,"is_reserved":false,"is_disabled":false,"rental_uris":{"android":"levelo://app?vid=af451b01-5fd7-456b-ba9a-1c9df7a0b366","ios":"levelo://app?vid=af451b01-5fd7-456b-ba9a-1c9df7a0b366"},"vehicle_type_id":"4","last_reported":1753528166,"current_range_meters":21600,"station_id":"ce4bgg92rcd13ifvqb30","pricing_plan_id":"cebpf4jnsgd1na2vs0mg"},{"bike_id":"a6b8e8a8-5ea4-4ead-b0bd-99b24e9d82cc","system_id":"levelo_inurba_marseille","lat":43.33126,"lon":5.39026,"is_reserved":false,"is_disabled":false,"rental_uris":{"android":"levelo://app?vid=a6b8e8a8-5ea4-4ead-b0bd-99b24e9d82cc","ios":"levelo://app?vid=a6b8e8a8-5ea4-4ead-b0bd-99b24e9d82cc"},"vehicle_type_id":"4","last_reported":1753528166,"current_range_meters":21600,"station_id":"","pricing_plan_id":"cebpf4jnsgd1na2vs0mg"},{"bike_id":"61ab1c57-a7c7-4bb3-9fc0-0ec062d0772a","system_id":"levelo_inurba_marseille","lat":43.24811,"lon":5.37439,"is_reserved":false,"is_disabled":false,"rental_uris":{"android":"levelo://app?vid=61ab1c57-a7c7-4bb3-9fc0-0ec062d0772a","ios":"levelo://app?vid=61ab1c57-a7c7-4bb3-9fc0-0ec062d0772a"},"vehicle_type_id":"4","last_reported":1753528166,"current_range_meters":22000,"station_id":"ce4bhgh2rcd13ifvqfb0","pricing_plan_id":"cebpf4jnsgd1na2vs0mg"},{"bike_id":"96cb9b33-e675-4586-9193-9f0a3309af58","system_id":"levelo_inurba_marseille","lat":43.248125,"lon":5.374565,"is_reserved":false,"is_disabled":true,"rental_uris":{"android":"levelo://app?vid=96cb9b33-e675-4586-9193-9f0a3309af58","ios":"levelo://app?vid=96cb9b33-e675-4586-9193-9f0a3309af58"},"vehicle_type_id":"4","last_reported":1753528166,"current_range_meters":21600,"station_id":"ce4bhgh2rcd13ifvqfb0","pricing_plan_id":"cebpf4jnsgd1na2vs0mg"},{"bike_id":"689c585e-71b4-4802-8d7d-d178365093b4","system_id":"levelo_inurba_marseille","lat":43.264953,"lon":5.395526,"is_reserved":false,"is_disabled":false,"rental_uris":{"android":"levelo://app?vid=689c585e-71b4-4802-8d7d-d178365093b4","ios":"levelo://app?vid=689c585e-71b4-4802-8d7d-d178365093b4"},"vehicle_type_id":"4","last_reported":1753528166,"current_range_meters":21600,"station_id":"ce4bhi12rcd13ifvqfq0","pricing_plan_id":"cebpf4jnsgd1na2vs0mg"},{"bike_id":"c5a29bd5-ae14-46c4-854c-b379fae8f8b0","system_id":"levelo_inurba_marseille","lat":43.29979,"lon":5.371784,"is_reserved":false,"is_disabled":false,"rental_uris":{"android":"levelo://app?vid=c5a29bd5-ae14-46c4-854c-b379fae8f8b0","ios":"levelo://app?vid=c5a29bd5-ae14-46c4-854c-b379fae8f8b0"},"vehicle_type_id":"4","last_reported":1753528166,"current_range_meters":21600,"station_id":"ce4bgr92rcd13ifvqc7g","pricing_plan_id":"cebpf4jnsgd1na2vs0mg"},{"bike_id":"7633b072-4dcd-445a-9dda-06f1848f5f0f","system_id":"levelo_inurba_marseille","lat":43.321047,"lon":5.368827,"is_reserved":false,"is_disabled":false,"rental_uris":{"android":"levelo://app?vid=7633b072-4dcd-445a-9dda-06f1848f5f0f","ios":"levelo://app?vid=7633b072-4dcd-445a-9dda-06f1848f5f0f"},"vehicle_type_id":"4","last_reported":1753528166,"current_range_meters":21600,"station_id":"ce4bhrh2rcd13ifvqhug","pricing_plan_id":"cebpf4jnsgd1na2vs0mg"},{"bike_id":"9aed405c-2224-4418-b03d-3f12ebd3e3b6","system_id":"levelo_inurba_marseille","lat":43.23965,"lon":5.36637,"is_reserved":false,"is_disabled":false,"rental_uris":{"android":"levelo://app?vid=9aed405c-2224-4418-b03d-3f12ebd3e3b6","ios":"levelo://app?vid=9aed405c-2224-4418-b03d-3f12ebd3e3b6"},"vehicle_type_id":"4","last_reported":1753528166,"current_range_meters":22000,"station_id":"ce4bhi12rcd13ifvqfp0","pricing_plan_id":"cebpf4jnsgd1na2vs0mg"},{"bike_id":"2edf8151-cb92-46cc-9321-24e397aeed28","system_id":"levelo_inurba_marseille","lat":43.23044,"lon":5.35513,"is_reserved":false,"is_disabled":false,"rental_uris":{"android":"levelo://app?vid=2edf8151-cb92-46cc-9321-24e397aeed28","ios":"levelo://app?vid=2edf8151-cb92-46cc-9321-24e397aeed28"},"vehicle_type_id":"4","last_reported":1753528166,"current_range_meters":22000,"station_id":"cpo3342slgdg3j2ifvpg","pricing_plan_id":"cebpf4jnsgd1na2vs0mg"},{"bike_id":"ec2a87eb-2de4-4d6d-ac86-7c275a6a8c47","system_id":"levelo_inurba_marseille","lat":43.22805,"lon":5.35206,"is_reserved":false,"is_disabled":false,"rental_uris":{"android":"levelo://app?vid=ec2a87eb-2de4-4d6d-ac86-7c275a6a8c47","ios":"levelo://app?vid=ec2a87eb-2de4-4d6d-ac86-7c275a6a8c47"},"vehicle_type_id":"4","last_reported":1753528166,"current_range_meters":22000,"station_id":"","pricing_plan_id":"cebpf4jnsgd1na2vs0mg"},{"bike_id":"a3c8405d-2f1a-483b-ab1d-923b7e71c392","system_id":"levelo_inurba_marseille","lat":43.28698,"lon":5.37376,"is_reserved":false,"is_disabled":false,"rental_uris":{"android":"levelo://app?vid=a3c8405d-2f1a-483b-ab1d-923b7e71c392","ios":"levelo://app?vid=a3c8405d-2f1a-483b-ab1d-923b7e71c392"},"vehicle_type_id":"4","last_reported":1753528166,"current_range_meters":22000,"station_id":"ce4bh3p2rcd13ifvqdq0","pricing_plan_id":"cebpf4jnsgd1na2vs0mg"},{"bike_id":"dc4159f9-f7c5-4624-bedb-7fe21d89d4c5","system_id":"levelo_inurba_marseille","lat":43.28266,"lon":5.35057,"is_reserved":false,"is_disabled":false,"rental_uris":{"android":"levelo://app?vid=dc4159f9-f7c5-4624-bedb-7fe21d89d4c5","ios":"levelo://app?vid=dc4159f9-f7c5-4624-bedb-7fe21d89d4c5"},"vehicle_type_id":"4","last_reported":1753528166,"current_range_meters":22000,"station_id":"ce4bhbp2rcd13ifvqerg","pricing_plan_id":"cebpf4jnsgd1na2vs0mg"},{"bike_id":"60502b46-cd92-41f0-81ca-d625de86b8df","system_id":"levelo_inurba_marseille","lat":43.31477,"lon":5.37301,"is_reserved":false,"is_disabled":false,"rental_uris":{"android":"levelo://app?vid=60502b46-cd92-41f0-81ca-d625de86b8df","ios":"levelo://app?vid=60502b46-cd92-41f0-81ca-d625de86b8df"},"vehicle_type_id":"4","last_reported":1753528166,"current_range_meters":22000,"station_id":"ce4bgt12rcd13ifvqcd0","pricing_plan_id":"cebpf4jnsgd1na2vs0mg"},{"bike_id":"1c4bb481-fe67-437e-950a-279952f0a162","system_id":"levelo_inurba_marseille","lat":43.28413,"lon":5.34987,"is_reserved":false,"is_disabled":false,"rental_uris":{"android":"levelo://app?vid=1c4bb481-fe67-437e-950a-279952f0a162","ios":"levelo://app?vid=1c4bb481-fe67-437e-950a-279952f0a162"},"vehicle_type_id":"4","last_reported":1753528166,"current_range_meters":22000,"station_id":"ce4bhbh2rcd13ifvqepg","pricing_plan_id":"cebpf4jnsgd1na2vs0mg"},{"bike_id":"a9f522a5-7083-432f-8e88-fb4bc8f76db7","system_id":"levelo_inurba_marseille","lat":43.28272,"lon":5.35049,"is_reserved":false,"is_disabled":false,"rental_uris":{"android":"levelo://app?vid=a9f522a5-7083-432f-8e88-fb4bc8f76db7","ios":"levelo://app?vid=a9f522a5-7083-432f-8e88-fb4bc8f76db7"},"vehicle_type_id":"4","last_reported":1753528166,"current_range_meters":22000,"station_id":"ce4bhbp2rcd13ifvqerg","pricing_plan_id":"cebpf4jnsgd1na2vs0mg"},{"bike_id":"c61e117e-7f96-4177-8b94-7120027f3248","system_id":"levelo_inurba_marseille","lat":43.28978,"lon":5.37839,"is_reserved":false,"is_disabled":false,"rental_uris":{"android":"levelo://app?vid=c61e117e-7f96-4177-8b94-7120027f3248","ios":"levelo://app?vid=c61e117e-7f96-4177-8b94-7120027f3248"},"vehicle_type_id":"4","last_reported":1753528166,"current_range_meters":21600,"station_id":"ce4bh9p2rcd13ifvqed0","pricing_plan_id":"cebpf4jnsgd1na2vs0mg"},{"bike_id":"85e154b1-a515-444c-a50c-7a447de4ad20","system_id":"levelo_inurba_marseille","lat":43.29714,"lon":5.37686,"is_reserved":false,"is_disabled":false,"rental_uris":{"android":"levelo://app?vid=85e154b1-a515-444c-a50c-7a447de4ad20","ios":"levelo://app?vid=85e154b1-a515-444c-a50c-7a447de4ad20"},"vehicle_type_id":"4","last_reported":1753528166,"current_range_meters":22400,"station_id":"ce4bgkh2rcd13ifvqbl0","pricing_plan_id":"cebpf4jnsgd1na2vs0mg"},{"bike_id":"32dd2ddc-a3dc-4749-b831-b34092911e67","system_id":"levelo_inurba_marseille","lat":43.331039,"lon":5.390012,"is_reserved":false,"is_disabled":false,"rental_uris":{"android":"levelo://app?vid=32dd2ddc-a3dc-4749-b831-b34092911e67","ios":"levelo://app?vid=32dd2ddc-a3dc-4749-b831-b34092911e67"},"vehicle_type_id":"4","last_reported":1753528166,"current_range_meters":22400,"station_id":"","pricing_plan_id":"cebpf4jnsgd1na2vs0mg"},{"bike_id":"556b9fc9-ea02-4f94-97b3-fc7808f95e9f","system_id":"levelo_inurba_marseille","lat":43.3169,"lon":5.43709,"is_reserved":false,"is_disabled":false,"rental_uris":{"android":"levelo://app?vid=556b9fc9-ea02-4f94-97b3-fc7808f95e9f","ios":"levelo://app?vid=556b9fc9-ea02-4f94-97b3-fc7808f95e9f"},"vehicle_type_id":"4","last_reported":1753528166,"current_range_meters":22400,"station_id":"ce4bhp92rcd13ifvqhcg","pricing_plan_id":"cebpf4jnsgd1na2vs0mg"},{"bike_id":"2f1b85a3-8b3a-48b0-b9b5-a4b54687f389","system_id":"levelo_inurba_marseille","lat":43.287198,"lon":5.379335,"is_reserved":false,"is_disabled":false,"rental_uris":{"android":"levelo://app?vid=2f1b85a3-8b3a-48b0-b9b5-a4b54687f389","ios":"levelo://app?vid=2f1b85a3-8b3a-48b0-b9b5-a4b54687f389"},"vehicle_type_id":"4","last_reported":1753528166,"current_range_meters":22400,"station_id":"ce4bh9p2rcd13ifvqec0","pricing_plan_id":"cebpf4jnsgd1na2vs0mg"},{"bike_id":"2f728ed2-04a8-453e-8672-8f165cb7b741","system_id":"levelo_inurba_marseille","lat":43.2847,"lon":5.38416,"is_reserved":false,"is_disabled":false,"rental_uris":{"android":"levelo://app?vid=2f728ed2-04a8-453e-8672-8f165cb7b741","ios":"levelo://app?vid=2f728ed2-04a8-453e-8672-8f165cb7b741"},"vehicle_type_id":"4","last_reported":1753528166,"current_range_meters":22000,"station_id":"ce4bh512rcd13ifvqe3g","pricing_plan_id":"cebpf4jnsgd1na2vs0mg"},{"bike_id":"9a30fad3-c624-42b3-b8cf-b3722b5922f6","system_id":"levelo_inurba_marseille","lat":43.27994,"lon":5.40027,"is_reserved":false,"is_disabled":false,"rental_uris":{"android":"levelo://app?vid=9a30fad3-c624-42b3-b8cf-b3722b5922f6","ios":"levelo://app?vid=9a30fad3-c624-42b3-b8cf-b3722b5922f6"},"vehicle_type_id":"4","last_reported":1753528166,"current_range_meters":22400,"station_id":"ce4bho92rcd13ifvqh4g","pricing_plan_id":"cebpf4jnsgd1na2vs0mg"},{"bike_id":"c8b0abd1-7f1c-4392-99c5-bdeb36f3e17e","system_id":"levelo_inurba_marseille","lat":43.21752,"lon":5.34621,"is_reserved":false,"is_disabled":true,"rental_uris":{"android":"levelo://app?vid=c8b0abd1-7f1c-4392-99c5-bdeb36f3e17e","ios":"levelo://app?vid=c8b0abd1-7f1c-4392-99c5-bdeb36f3e17e"},"vehicle_type_id":"4","last_reported":1753528166,"current_range_meters":22400,"station_id":"","pricing_plan_id":"cebpf4jnsgd1na2vs0mg"},{"bike_id":"e609a91c-aa05-4c83-9cc4-836c1a10c17f","system_id":"levelo_inurba_marseille","lat":43.29577,"lon":5.3752,"is_reserved":false,"is_disabled":false,"rental_uris":{"android":"levelo://app?vid=e609a91c-aa05-4c83-9cc4-836c1a10c17f","ios":"levelo://app?vid=e609a91c-aa05-4c83-9cc4-836c1a10c17f"},"vehicle_type_id":"4","last_reported":1753528166,"current_range_meters":22400,"station_id":"ce4bgh92rcd13ifvqb50","pricing_plan_id":"cebpf4jnsgd1na2vs0mg"},{"bike_id":"7fd76c9e-4d33-4b7e-95bd-222e0d10502e","system_id":"levelo_inurba_marseille","lat":43.30436,"lon":5.39782,"is_reserved":false,"is_disabled":false,"rental_uris":{"android":"levelo://app?vid=7fd76c9e-4d33-4b7e-95bd-222e0d10502e","ios":"levelo://app?vid=7fd76c9e-4d33-4b7e-95bd-222e0d10502e"},"vehicle_type_id":"4","last_reported":1753528166,"current_range_meters":22400,"station_id":"ce4bh092rcd13ifvqd20","pricing_plan_id":"cebpf4jnsgd1na2vs0mg"},{"bike_id":"209c73e6-1f69-4d13-9fed-77cb46eecd05","system_id":"levelo_inurba_marseille","lat":43.34681,"lon":5.38065,"is_reserved":false,"is_disabled":false,"rental_uris":{"android":"levelo://app?vid=209c73e6-1f69-4d13-9fed-77cb46eecd05","ios":"levelo://app?vid=209c73e6-1f69-4d13-9fed-77cb46eecd05"},"vehicle_type_id":"4","last_reported":1753528166,"current_range_meters":22400,"station_id":"","pricing_plan_id":"cebpf4jnsgd1na2vs0mg"},{"bike_id":"943ca740-4253-429f-a23d-c7ea18dc71da","system_id":"levelo_inurba_marseille","lat":43.29297,"lon":5.37467,"is_reserved":false,"is_disabled":false,"rental_uris":{"android":"levelo://app?vid=943ca740-4253-429f-a23d-c7ea18dc71da","ios":"levelo://app?vid=943ca740-4253-429f-a23d-c7ea18dc71da"},"vehicle_type_id":"4","last_reported":1753528166,"current_range_meters":22400,"station_id":"ce4bgi12rcd13ifvqb70","pricing_plan_id":"cebpf4jnsgd1na2vs0mg"},{"bike_id":"43c466f3-ca22-4901-aabc-54ec6b2950d7","system_id":"levelo_inurba_marseille","lat":43.23188,"lon":5.35553,"is_reserved":false,"is_disabled":false,"rental_uris":{"android":"levelo://app?vid=43c466f3-ca22-4901-aabc-54ec6b2950d7","ios":"levelo://app?vid=43c466f3-ca22-4901-aabc-54ec6b2950d7"},"vehicle_type_id":"4","last_reported":1753528166,"current_range_meters":22800,"station_id":"ce4bhu92rcd13ifvqi70","pricing_plan_id":"cebpf4jnsgd1na2vs0mg"},{"bike_id":"ab25b186-dd00-4788-b621-338425fe4173","system_id":"levelo_inurba_marseille","lat":43.276224,"lon":5.361064,"is_reserved":false,"is_disabled":false,"rental_uris":{"android":"levelo://app?vid=ab25b186-dd00-4788-b621-338425fe4173","ios":"levelo://app?vid=ab25b186-dd00-4788-b621-338425fe4173"},"vehicle_type_id":"4","last_reported":1753528166,"current_range_meters":22800,"station_id":"ce4bgj92rcd13ifvqbe0","pricing_plan_id":"cebpf4jnsgd1na2vs0mg"},{"bike_id":"8e4b025a-71fd-4ffe-8e33-4a75f390092b","system_id":"levelo_inurba_marseille","lat":43.29974,"lon":5.37174,"is_reserved":false,"is_disabled":false,"rental_uris":{"android":"levelo://app?vid=8e4b025a-71fd-4ffe-8e33-4a75f390092b","ios":"levelo://app?vid=8e4b025a-71fd-4ffe-8e33-4a75f390092b"},"vehicle_type_id":"4","last_reported":1753528166,"current_range_meters":22800,"station_id":"ce4bgr92rcd13ifvqc7g","pricing_plan_id":"cebpf4jnsgd1na2vs0mg"},{"bike_id":"64ac231d-d22e-4c17-8f5c-da5de3e17590","system_id":"levelo_inurba_marseille","lat":43.2958,"lon":5.3752,"is_reserved":false,"is_disabled":false,"rental_uris":{"android":"levelo://app?vid=64ac231d-d22e-4c17-8f5c-da5de3e17590","ios":"levelo://app?vid=64ac231d-d22e-4c17-8f5c-da5de3e17590"},"vehicle_type_id":"4","last_reported":1753528166,"current_range_meters":22800,"station_id":"ce4bgh92rcd13ifvqb50","pricing_plan_id":"cebpf4jnsgd1na2vs0mg"},