{"last_updated":1713712026,"ttl":30,"version":"2.2","data":{"bikes":[{"bike_id":"206b1fd1-e3b1-408e-8542-74e0244ea62d","system_id":"levelo_inurba_marseille","lat":43.312419,"lon":5.367583,"is_reserved":false,"is_disabled":false,"rental_uris":{"android":"levelo://app?vid=206b1fd1-e3b1-408e-8542-74e0244ea62d","ios":"levelo://app?vid=206b1fd1-e3b1-408e-8542-74e0244ea62d"},"vehicle_type_id":"4","last_reported":1713712026,"current_range_meters":17600,"station_id":"","pricing_plan_id":"cebpf4jnsgd1na2vs0mg"},{"bike_id":"082fce01-0b8f-457a-ad7a-56b469149020","system_id":"levelo_inurba_marseille","lat":43.309039,"lon":5.371797,"is_reserved":false,"is_disabled":false,"rental_uris":{"android":"levelo://app?vid=082fce01-0b8f-457a-ad7a-56b469149020","ios":"levelo://app?vid=082fce01-0b8f-457a-ad7a-56b469149020"},"vehicle_type_id":"4","last_reported":1713712026,"current_range_meters":0,"station_id":"ce4bguh2rcd13ifvqckg","pricing_plan_id":"cebpf4jnsgd1na2vs0mg"},{"bike_id":"0a40c872-a16e-4ede-893c-0a20322cc132","system_id":"levelo_inurba_marseille","lat":43.309283,"lon":5.37099,"is_reserved":false,"is_disabled":false,"rental_uris":{"android":"levelo://app?vid=0a40c872-a16e-4ede-893c-0a20322cc132","ios":"levelo://app?vid=0a40c872-a16e-4ede-893c-0a20322cc132"},"vehicle_type_id":"4","last_reported":1713712026,"current_range_meters":0,"station_id":"","pricing_plan_id":"cebpf4jnsgd1na2vs0mg"},{"bike_id":"324eb2f7-2e25-4e03-b683-23c974765542","system_id":"levelo_inurba_marseille","lat":43.314811,"lon":5.373103,"is_reserved":false,"is_disabled":false,"rental_uris":{"android":"levelo://app?vid=324eb2f7-2e25-4e03-b683-23c974765542","ios":"levelo://app?vid=324eb2f7-2e25-4e03-b683-23c974765542"},"vehicle_type_id":"4","last_reported":1713712026,"current_range_meters":4400,"station_id":"ce4bgt12rcd13ifvqcd0","pricing_plan_id":"cebpf4jnsgd1na2vs0mg"},{"bike_id":"149cac83-314e-4bfd-b837-7d9e3dcccad6","system_id":"levelo_inurba_marseille","lat":43.30544,"lon":5.36714,"is_reserved":false,"is_disabled":false,"rental_uris":{"android":"levelo://app?vid=149cac83-314e-4bfd-b837-7d9e3dcccad6","ios":"levelo://app?vid=149cac83-314e-4bfd-b837-7d9e3dcccad6"},"vehicle_type_id":"4","last_reported":1713712026,"current_range_meters":13200,"station_id":"ce4bhop2rcd13ifvqh8g","pricing_plan_id":"cebpf4jnsgd1na2vs0mg"},{"bike_id":"333a96c8-5bf0-4599-a1e0-31ad7260fe37","system_id":"levelo_inurba_marseille","lat":43.305712,"lon":5.365641,"is_reserved":false,"is_disabled":false,"rental_uris":{"android":"levelo://app?vid=333a96c8-5bf0-4599-a1e0-31ad7260fe37","ios":"levelo://app?vid=333a96c8-5bf0-4599-a1e0-31ad7260fe37"},"vehicle_type_id":"4","last_reported":1713712026,"current_range_meters":0,"station_id":"ce4bgs12rcd13ifvqcag","pricing_plan_id":"cebpf4jnsgd1na2vs0mg"},{"bike_id":"a7377ef6-3ff1-4092-a39b-dca3530a5c0f","system_id":"levelo_inurba_marseille","lat":43.3054,"lon":5.36551,"is_reserved":false,"is_disabled":false,"rental_uris":{"android":"levelo://app?vid=a7377ef6-3ff1-4092-a39b-dca3530a5c0f","ios":"levelo://app?vid=a7377ef6-3ff1-4092-a39b-dca3530a5c0f"},"vehicle_type_id":"4","last_reported":1713712026,"current_range_meters":8000,"station_id":"","pricing_plan_id":"cebpf4jnsgd1na2vs0mg"},{"bike_id":"df3a3fae-7b03-43ea-8970-d394468b83ee","system_id":"levelo_inurba_marseille","lat":43.305706,"lon":5.365654,"is_reserved":false,"is_disabled":false,"rental_uris":{"android":"levelo://app?vid=df3a3fae-7b03-43ea-8970-d394468b83ee","ios":"levelo://app?vid=df3a3fae-7b03-43ea-8970-d394468b83ee"},"vehicle_type_id":"4","last_reported":1713712026,"current_range_meters":7600,"station_id":"ce4bgs12rcd13ifvqcag","pricing_plan_id":"cebpf4jnsgd1na2vs0mg"},{"bike_id":"4d0b3afd-41cd-4789-8787-f65312c0296a","system_id":"levelo_inurba_marseille","lat":43.305989,"lon":5.37225,"is_reserved":false,"is_disabled":false,"rental_uris":{"android":"levelo://app?vid=4d0b3afd-41cd-4789-8787-f65312c0296a","ios":"levelo://app?vid=4d0b3afd-41cd-4789-8787-f65312c0296a"},"vehicle_type_id":"4","last_reported":1713712026,"current_range_meters":1600,"station_id":"ce4bgqh2rcd13ifvqc4g","pricing_plan_id":"cebpf4jnsgd1na2vs0mg"},{"bike_id":"f1f3f9a2-9bc5-45e1-b50d-625d38ace090","system_id":"levelo_inurba_marseille","lat":43.305989,"lon":5.37225,"is_reserved":false,"is_disabled":false,"rental_uris":{"android":"levelo://app?vid=f1f3f9a2-9bc5-45e1-b50d-625d38ace090","ios":"levelo://app?vid=f1f3f9a2-9bc5-45e1-b50d-625d38ace090"},"vehicle_type_id":"4","last_reported":1713712026,"current_range_meters":2000,"station_id":"ce4bgqh2rcd13ifvqc4g","pricing_plan_id":"cebpf4jnsgd1na2vs0mg"},{"bike_id":"96d1dad2-b9c5-44bf-9742-0ff9744d2fd3","system_id":"levelo_inurba_marseille","lat":43.289743,"lon":5.378304,"is_reserved":false,"is_disabled":false,"rental_uris":{"android":"levelo://app?vid=96d1dad2-b9c5-44bf-9742-0ff9744d2fd3","ios":"levelo://app?vid=96d1dad2-b9c5-44bf-9742-0ff9744d2fd3"},"vehicle_type_id":"4","last_reported":1713712026,"current_range_meters":22000,"station_id":"ce4bh9p2rcd13ifvqed0","pricing_plan_id":"cebpf4jnsgd1na2vs0mg"},{"bike_id":"75e96707-f745-4666-b41a-cbe3a9126c39","system_id":"levelo_inurba_marseille","lat":43.311131,"lon":5.377651,"is_reserved":false,"is_disabled":false,"rental_uris":{"android":"levelo://app?vid=75e96707-f745-4666-b41a-cbe3a9126c39","ios":"levelo://app?vid=75e96707-f745-4666-b41a-cbe3a9126c39"},"vehicle_type_id":"4","last_reported":1713712026,"current_range_meters":0,"station_id":"ce4bgt92rcd13ifvqcg0","pricing_plan_id":"cebpf4jnsgd1na2vs0mg"},{"bike_id":"2498bc72-703f-4157-8dd0-e367e7e0715b","system_id":"levelo_inurba_marseille","lat":43.3045,"lon":5.36857,"is_reserved":false,"is_disabled":false,"rental_uris":{"android":"levelo://app?vid=2498bc72-703f-4157-8dd0-e367e7e0715b","ios":"levelo://app?vid=2498bc72-703f-4157-8dd0-e367e7e0715b"},"vehicle_type_id":"4","last_reported":1713712026,"current_range_meters":0,"station_id":"","pricing_plan_id":"cebpf4jnsgd1na2vs0mg"},{"bike_id":"77847f54-a091-452e-83d3-c71c72bea392","system_id":"levelo_inurba_marseille","lat":43.317075,"lon":5.377367,"is_reserved":false,"is_disabled":false,"rental_uris":{"android":"levelo://app?vid=77847f54-a091-452e-83d3-c71c72bea392","ios":"levelo://app?vid=77847f54-a091-452e-83d3-c71c72bea392"},"vehicle_type_id":"4","last_reported":1713712026,"current_range_meters":22400,"station_id":"ce4bgth2rcd13ifvqch0","pricing_plan_id":"cebpf4jnsgd1na2vs0mg"},{"bike_id":"aa9e68cc-2d07-4da6-83d2-6f3cde323dbb","system_id":"levelo_inurba_marseille","lat":43.30304,"lon":5.368987,"is_reserved":false,"is_disabled":false,"rental_uris":{"android":"levelo://app?vid=aa9e68cc-2d07-4da6-83d2-6f3cde323dbb","ios":"levelo://app?vid=aa9e68cc-2d07-4da6-83d2-6f3cde323dbb"},"vehicle_type_id":"4","last_reported":1713712026,"current_range_meters":0,"station_id":"ce4bgqh2rcd13ifvqc5g","pricing_plan_id":"cebpf4jnsgd1na2vs0mg"},{"bike_id":"15357399-28fa-4677-b3ff-89252e9aa590","system_id":"levelo_inurba_marseille","lat":43.30805,"lon":5.381533,"is_reserved":false,"is_disabled":false,"rental_uris":{"android":"levelo://app?vid=15357399-28fa-4677-b3ff-89252e9aa590","ios":"levelo://app?vid=15357399-28fa-4677-b3ff-89252e9aa590"},"vehicle_type_id":"4","last_reported":1713712026,"current_range_meters":0,"station_id":"ce4bgt12rcd13ifvqce0","pricing_plan_id":"cebpf4jnsgd1na2vs0mg"},{"bike_id":"bb43a0b7-22db-4cb2-8f3b-ed76e66097af","system_id":"levelo_inurba_marseille","lat":43.3046,"lon":5.37904,"is_reserved":false,"is_disabled":false,"rental_uris":{"android":"levelo://app?vid=bb43a0b7-22db-4cb2-8f3b-ed76e66097af","ios":"levelo://app?vid=bb43a0b7-22db-4cb2-8f3b-ed76e66097af"},"vehicle_type_id":"4","last_reported":1713712026,"current_range_meters":12000,"station_id":"ce4bgup2rcd13ifvqcn0","pricing_plan_id":"cebpf4jnsgd1na2vs0mg"},{"bike_id":"df167c0d-50d7-4701-b8a8-ab66122b2fa2","system_id":"levelo_inurba_marseille","lat":43.324766,"lon":5.365523,"is_reserved":false,"is_disabled":false,"rental_uris":{"android":"levelo://app?vid=df167c0d-50d7-4701-b8a8-ab66122b2fa2","ios":"levelo://app?vid=df167c0d-50d7-4701-b8a8-ab66122b2fa2"},"vehicle_type_id":"4","last_reported":1713712026,"current_range_meters":30000,"station_id":"ce4bhs12rcd13ifvqhvg","pricing_plan_id":"cebpf4jnsgd1na2vs0mg"},{"bike_id":"37762814-e009-4aaa-b8dd-d33fe4f189f9","system_id":"levelo_inurba_marseille","lat":43.324793,"lon":5.365611,"is_reserved":false,"is_disabled":false,"rental_uris":{"android":"levelo://app?vid=37762814-e009-4aaa-b8dd-d33fe4f189f9","ios":"levelo://app?vid=37762814-e009-4aaa-b8dd-d33fe4f189f9"},"vehicle_type_id":"4","last_reported":1713712026,"current_range_meters":24800,"station_id":"ce4bhs12rcd13ifvqhvg","pricing_plan_id":"cebpf4jnsgd1na2vs0mg"},{"bike_id":"80dacc88-f9a5-4b5f-80f4-57bd33108ecb","system_id":"levelo_inurba_marseille","lat":43.324771,"lon":5.36557,"is_reserved":false,"is_disabled":false,"rental_uris":{"android":"levelo://app?vid=80dacc88-f9a5-4b5f-80f4-57bd33108ecb","ios":"levelo://app?vid=80dacc88-f9a5-4b5f-80f4-57bd33108ecb"},"vehicle_type_id":"4","last_reported":1713712026,"current_range_meters":24000,"station_id":"ce4bhs12rcd13ifvqhvg","pricing_plan_id":"cebpf4jnsgd1na2vs0mg"},{"bike_id":"6da657ab-00d6-4606-bb0a-fdc1f8bc0b21","system_id":"levelo_inurba_marseille","lat":43.32481,"lon":5.36557,"is_reserved":false,"is_disabled":false,"rental_uris":{"android":"levelo://app?vid=6da657ab-00d6-4606-bb0a-fdc1f8bc0b21","ios":"levelo://app?vid=6da657ab-00d6-4606-bb0a-fdc1f8bc0b21"},"vehicle_type_id":"4","last_reported":1713712026,"current_range_meters":26400,"station_id":"ce4bhs12rcd13ifvqhvg","pricing_plan_id":"cebpf4jnsgd1na2vs0mg"},{"bike_id":"5b76192b-fc46-4948-80c5-6c37ae23cfca","system_id":"levelo_inurba_marseille","lat":43.324817,"lon":5.36564,"is_reserved":false,"is_disabled":false,"rental_uris":{"android":"levelo://app?vid=5b76192b-fc46-4948-80c5-6c37ae23cfca","ios":"levelo://app?vid=5b76192b-fc46-4948-80c5-6c37ae23cfca"},"vehicle_type_id":"4","last_reported":1713712026,"current_range_meters":28000,"station_id":"ce4bhs12rcd13ifvqhvg","pricing_plan_id":"cebpf4jnsgd1na2vs0mg"},{"bike_id":"2e28a25f-4989-49ec-9ebb-f023c8c7a903","system_id":"levelo_inurba_marseille","lat":43.324771,"lon":5.36557,"is_reserved":false,"is_disabled":false,"rental_uris":{"android":"levelo://app?vid=2e28a25f-4989-49ec-9ebb-f023c8c7a903","ios":"levelo://app?vid=2e28a25f-4989-49ec-9ebb-f023c8c7a903"},"vehicle_type_id":"4","last_reported":1713712026,"current_range_meters":29200,"station_id":"ce4bhs12rcd13ifvqhvg","pricing_plan_id":"cebpf4jnsgd1na2vs0mg"},{"bike_id":"c17751bf-4b1e-4ed5-8ec6-1aa8f0f5ee16","system_id":"levelo_inurba_marseille","lat":43.324829,"lon":5.365572,"is_reserved":false,"is_disabled":false,"rental_uris":{"android":"levelo://app?vid=c17751bf-4b1e-4ed5-8ec6-1aa8f0f5ee16","ios":"levelo://app?vid=c17751bf-4b1e-4ed5-8ec6-1aa8f0f5ee16"},"vehicle_type_id":"4","last_reported":1713712026,"current_range_meters":26400,"station_id":"ce4bhs12rcd13ifvqhvg","pricing_plan_id":"cebpf4jnsgd1na2vs0mg"},{"bike_id":"42a738e5-6187-458e-bf13-8b6c8fc648fc","system_id":"levelo_inurba_marseille","lat":43.324833,"lon":5.365627,"is_reserved":false,"is_disabled":false,"rental_uris":{"android":"levelo://app?vid=42a738e5-6187-458e-bf13-8b6c8fc648fc","ios":"levelo://app?vid=42a738e5-6187-458e-bf13-8b6c8fc648fc"},"vehicle_type_id":"4","last_reported":1713712026,"current_range_meters":12400,"station_id":"ce4bhs12rcd13ifvqhvg","pricing_plan_id":"cebpf4jnsgd1na2vs0mg"},{"bike_id":"ca36c302-41eb-4b1a-a3c6-b8b93af0639c","system_id":"levelo_inurba_marseille","lat":43.32484,"lon":5.365663,"is_reserved":false,"is_disabled":false,"rental_uris":{"android":"levelo://app?vid=ca36c302-41eb-4b1a-a3c6-b8b93af0639c","ios":"levelo://app?vid=ca36c302-41eb-4b1a-a3c6-b8b93af0639c"},"vehicle_type_id":"4","last_reported":1713712026,"current_range_meters":5200,"station_id":"ce4bhs12rcd13ifvqhvg","pricing_plan_id":"cebpf4jnsgd1na2vs0mg"},{"bike_id":"0f377889-8653-4f5d-9fec-8ef6b1d1b381","system_id":"levelo_inurba_marseille","lat":43.324771,"lon":5.36557,"is_reserved":false,"is_disabled":false,"rental_uris":{"android":"levelo://app?vid=0f377889-8653-4f5d-9fec-8ef6b1d1b381","ios":"levelo://app?vid=0f377889-8653-4f5d-9fec-8ef6b1d1b381"},"vehicle_type_id":"4","last_reported":1713712026,"current_range_meters":17600,"station_id":"ce4bhs12rcd13ifvqhvg","pricing_plan_id":"cebpf4jnsgd1na2vs0mg"},{"bike_id":"e2c6bf6e-303c-4d45-843c-3b3922f678ed","system_id":"levelo_inurba_marseille","lat":43.324771,"lon":5.36557,"is_reserved":false,"is_disabled":false,"rental_uris":{"android":"levelo://app?vid=e2c6bf6e-303c-4d45-843c-3b3922f678ed","ios":"levelo://app?vid=e2c6bf6e-303c-4d45-843c-3b3922f678ed"},"vehicle_type_id":"4","last_reported":1713712026,"current_range_meters":21600,"station_id":"ce4bhs12rcd13ifvqhvg","pricing_plan_id":"cebpf4jnsgd1na2vs0mg"},{"bike_id":"2f3747f3-3e25-4f26-9df6-940acba002ed","system_id":"levelo_inurba_marseille","lat":43.324771,"lon":5.36557,"is_reserved":false,"is_disabled":false,"rental_uris":{"android":"levelo://app?vid=2f3747f3-3e25-4f26-9df6-940acba002ed","ios":"levelo://app?vid=2f3747f3-3e25-4f26-9df6-940acba002ed"},"vehicle_type_id":"4","last_reported":1713712026,"current_range_meters":12000,"station_id":"ce4bhs12rcd13ifvqhvg","pricing_plan_id":"cebpf4jnsgd1na2vs0mg"},{"bike_id":"245619fd-e64f-46d4-8264-cf706cc8c1aa","system_id":"levelo_inurba_marseille","lat":43.302784,"lon":5.377158,"is_reserved":false,"is_disabled":false,"rental_uris":{"android":"levelo://app?vid=245619fd-e64f-46d4-8264-cf706cc8c1aa","ios":"levelo://app?vid=245619fd-e64f-46d4-8264-cf706cc8c1aa"},"vehicle_type_id":"4","last_reported":1713712026,"current_range_meters":9600,"station_id":"ce4bguh2rcd13ifvqcj0","pricing_plan_id":"cebpf4jnsgd1na2vs0mg"},{"bike_id":"71cf26d6-2800-48dd-ae6e-8eda1eae26de","system_id":"levelo_inurba_marseille","lat":43.305395,"lon":5.380968,"is_reserved":false,"is_disabled":false,"rental_uris":{"android":"levelo://app?vid=71cf26d6-2800-48dd-ae6e-8eda1eae26de","ios":"levelo://app?vid=71cf26d6-2800-48dd-ae6e-8eda1eae26de"},"vehicle_type_id":"4","last_reported":1713712026,"current_range_meters":13200,"station_id":"","pricing_plan_id":"cebpf4jnsgd1na2vs0mg"},{"bike_id":"d212c281-3522-420a-b06f-b80966290c73","system_id":"levelo_inurba_marseille","lat":43.319898,"lon":5.381504,"is_reserved":false,"is_disabled":false,"rental_uris":{"android":"levelo://app?vid=d212c281-3522-420a-b06f-b80966290c73","ios":"levelo://app?vid=d212c281-3522-420a-b06f-b80966290c73"},"vehicle_type_id":"4","last_reported":1713712026,"current_range_meters":6800,"station_id":"ce4bhr12rcd13ifvqhpg","pricing_plan_id":"cebpf4jnsgd1na2vs0mg"},{"bike_id":"334e3407-4f9b-4b57-a5ef-39033f25d948","system_id":"levelo_inurba_marseille","lat":43.319956,"lon":5.381507,"is_reserved":false,"is_disabled":false,"rental_uris":{"android":"levelo://app?vid=334e3407-4f9b-4b57-a5ef-39033f25d948","ios":"levelo://app?vid=334e3407-4f9b-4b57-a5ef-39033f25d948"},"vehicle_type_id":"4","last_reported":1713712026,"current_range_meters":29200,"station_id":"ce4bhr12rcd13ifvqhpg","pricing_plan_id":"cebpf4jnsgd1na2vs0mg"},{"bike_id":"d556af53-f0f5-46dc-9ca6-ae45af10a5b0","system_id":"levelo_inurba_marseille","lat":43.319935,"lon":5.381699,"is_reserved":false,"is_disabled":false,"rental_uris":{"android":"levelo://app?vid=d556af53-f0f5-46dc-9ca6-ae45af10a5b0","ios":"levelo://app?vid=d556af53-f0f5-46dc-9ca6-ae45af10a5b0"},"vehicle_type_id":"4","last_reported":1713712026,"current_range_meters":29600,"station_id":"ce4bhr12rcd13ifvqhpg","pricing_plan_id":"cebpf4jnsgd1na2vs0mg"},{"bike_id":"14d44599-ab51-4852-ad81-4865cbede440","system_id":"levelo_inurba_marseille","lat":43.319935,"lon":5.381699,"is_reserved":false,"is_disabled":false,"rental_uris":{"android":"levelo://app?vid=14d44599-ab51-4852-ad81-4865cbede440","ios":"levelo://app?vid=14d44599-ab51-4852-ad81-4865cbede440"},"vehicle_type_id":"4","last_reported":1713712026,"current_range_meters":16000,"station_id":"ce4bhr12rcd13ifvqhpg","pricing_plan_id":"cebpf4jnsgd1na2vs0mg"},{"bike_id":"fc35b83a-f355-4ebd-97ef-f35d9b876a9d","system_id":"levelo_inurba_marseille","lat":43.319935,"lon":5.381699,"is_reserved":false,"is_disabled":false,"rental_uris":{"android":"levelo://app?vid=fc35b83a-f355-4ebd-97ef-f35d9b876a9d","ios":"levelo://app?vid=fc35b83a-f355-4ebd-97ef-f35d9b876a9d"},"vehicle_type_id":"4","last_reported":1713712026,"current_range_meters":21600,"station_id":"ce4bhr12rcd13ifvqhpg","pricing_plan_id":"cebpf4jnsgd1na2vs0mg"},{"bike_id":"b265aba0-4cfb-44bd-8ef5-9b88c5912563","system_id":"levelo_inurba_marseille","lat":43.319935,"lon":5.381699,"is_reserved":false,"is_disabled":false,"rental_uris":{"android":"levelo://app?vid=b265aba0-4cfb-44bd-8ef5-9b88c5912563","ios":"levelo://app?vid=b265aba0-4cfb-44bd-8ef5-9b88c5912563"},"vehicle_type_id":"4","last_reported":1713712026,"current_range_meters":29600,"station_id":"ce4bhr12rcd13ifvqhpg","pricing_plan_id":"cebpf4jnsgd1na2vs0mg"},{"bike_id":"f4b79354-8b98-4101-bf0a-c05d49197684","system_id":"levelo_inurba_marseille","lat":43.319935,"lon":5.381699,"is_reserved":false,"is_disabled":false,"rental_uris":{"android":"levelo://app?vid=f4b79354-8b98-4101-bf0a-c05d49197684","ios":"levelo://app?vid=f4b79354-8b98-4101-bf0a-c05d49197684"},"vehicle_type_id":"4","last_reported":1713712026,"current_range_meters":12000,"station_id":"ce4bhr12rcd13ifvqhpg","pricing_plan_id":"cebpf4jnsgd1na2vs0mg"},{"bike_id":"7b4ad446-2855-4f99-aa9c-bfb370297360","system_id":"levelo_inurba_marseille","lat":43.319935,"lon":5.381699,"is_reserved":false,"is_disabled":false,"rental_uris":{"android":"levelo://app?vid=7b4ad446-2855-4f99-aa9c-bfb370297360","ios":"levelo://app?vid=7b4ad446-2855-4f99-aa9c-bfb370297360"},"vehicle_type_id":"4","last_reported":1713712026,"current_range_meters":25600,"station_id":"ce4bhr12rcd13ifvqhpg","pricing_plan_id":"cebpf4jnsgd1na2vs0mg"},{"bike_id":"1c6b6e9e-cadc-4e14-b4bd-74fb649810c5","system_id":"levelo_inurba_marseille","lat":43.313571,"lon":5.384829,"is_reserved":false,"is_disabled":false,"rental_uris":{"android":"levelo://app?vid=1c6b6e9e-cadc-4e14-b4bd-74fb649810c5","ios":"levelo://app?vid=1c6b6e9e-cadc-4e14-b4bd-74fb649810c5"},"vehicle_type_id":"4","last_reported":1713712026,"current_range_meters":0,"station_id":"ce4bgt92rcd13ifvqcf0","pricing_plan_id":"cebpf4jnsgd1na2vs0mg"},{"bike_id":"296b9a1d-a629-4601-9dcc-d42d3150c65b","system_id":"levelo_inurba_marseille","lat":43.313571,"lon":5.384829,"is_reserved":false,"is_disabled":false,"rental_uris":{"android":"levelo://app?vid=296b9a1d-a629-4601-9dcc-d42d3150c65b","ios":"levelo://app?vid=296b9a1d-a629-4601-9dcc-d42d3150c65b"},"vehicle_type_id":"4","last_reported":1713712026,"current_range_meters":4800,"station_id":"ce4bgt92rcd13ifvqcf0","pricing_plan_id":"cebpf4jnsgd1na2vs0mg"},{"bike_id":"0e4b433e-408d-4a45-818b-68fe58c3ed62","system_id":"levelo_inurba_marseille","lat":43.29981,"lon":5.37175,"is_reserved":false,"is_disabled":false,"rental_uris":{"android":"levelo://app?vid=0e4b433e-408d-4a45-818b-68fe58c3ed62","ios":"levelo://app?vid=0e4b433e-408d-4a45-818b-68fe58c3ed62"},"vehicle_type_id":"4","last_reported":1713712026,"current_range_meters":0,"station_id":"ce4bgr92rcd13ifvqc7g","pricing_plan_id":"cebpf4jnsgd1na2vs0mg"},{"bike_id":"e5dcd70b-085c-46f8-a991-1b3dbd04c9aa","system_id":"levelo_inurba_marseille","lat":43.299222,"lon":5.365554,"is_reserved":false,"is_disabled":false,"rental_uris":{"android":"levelo://app?vid=e5dcd70b-085c-46f8-a991-1b3dbd04c9aa","ios":"levelo://app?vid=e5dcd70b-085c-46f8-a991-1b3dbd04c9aa"},"vehicle_type_id":"4","last_reported":1713712026,"current_range_meters":16800,"station_id":"ce4bgm92rcd13ifvqbr0","pricing_plan_id":"cebpf4jnsgd1na2vs0mg"},{"bike_id":"33e36f87-b4ea-4554-a4d3-0abbc27d9daa","system_id":"levelo_inurba_marseille","lat":43.299761,"lon":5.371796,"is_reserved":false,"is_disabled":false,"rental_uris":{"android":"levelo://app?vid=33e36f87-b4ea-4554-a4d3-0abbc27d9daa","ios":"levelo://app?vid=33e36f87-b4ea-4554-a4d3-0abbc27d9daa"},"vehicle_type_id":"4","last_reported":1713712026,"current_range_meters":0,"station_id":"ce4bgop2rcd13ifvqc1g","pricing_plan_id":"cebpf4jnsgd1na2vs0mg"},{"bike_id":"9aebf210-01b8-4efd-b139-354873370851","system_id":"levelo_inurba_marseille","lat":43.29975,"lon":5.37182,"is_reserved":false,"is_disabled":false,"rental_uris":{"android":"levelo://app?vid=9aebf210-01b8-4efd-b139-354873370851","ios":"levelo://app?vid=9aebf210-01b8-4efd-b139-354873370851"},"vehicle_type_id":"4","last_reported":1713712026,"current_range_meters":0,"station_id":"ce4bgr92rcd13ifvqc7g","pricing_plan_id":"cebpf4jnsgd1na2vs0mg"},{"bike_id":"a5ce4c75-4698-4d3f-81c8-1eea01812ac0","system_id":"levelo_inurba_marseille","lat":43.305364,"lon":5.384119,"is_reserved":false,"is_disabled":false,"rental_uris":{"android":"levelo://app?vid=a5ce4c75-4698-4d3f-81c8-1eea01812ac0","ios":"levelo://app?vid=a5ce4c75-4698-4d3f-81c8-1eea01812ac0"},"vehicle_type_id":"4","last_reported":1713712026,"current_range_meters":21200,"station_id":"ce4bgg92rcd13ifvqb30","pricing_plan_id":"cebpf4jnsgd1na2vs0mg"},{"bike_id":"b2e23df0-db96-436a-b5cd-a097842bf619","system_id":"levelo_inurba_marseille","lat":43.299243,"lon":5.37481,"is_reserved":false,"is_disabled":false,"rental_uris":{"android":"levelo://app?vid=b2e23df0-db96-436a-b5cd-a097842bf619","ios":"levelo://app?vid=b2e23df0-db96-436a-b5cd-a097842bf619"},"vehicle_type_id":"4","last_reported":1713712026,"current_range_meters":0,"station_id":"ce4bgjh2rcd13ifvqbg0","pricing_plan_id":"cebpf4jnsgd1na2vs0mg"},{"bike_id":"6a9bcf40-c5f9-44a4-a58e-664576d7b299","system_id":"levelo_inurba_marseille","lat":43.322907,"lon":5.382473,"is_reserved":false,"is_disabled":false,"rental_uris":{"android":"levelo://app?vid=6a9bcf40-c5f9-44a4-a58e-664576d7b299","ios":"levelo://app?vid=6a9bcf40-c5f9-44a4-a58e-664576d7b299"},"vehicle_type_id":"4","last_reported":1713712026,"current_range_meters":12000,"station_id":"ce4bhr12rcd13ifvqhqg","pricing_plan_id":"cebpf4jnsgd1na2vs0mg"},{"bike_id":"aa38acc2-91cb-407c-ac8c-05b08cc96e3e","system_id":"levelo_inurba_marseille","lat":43.322872,"lon":5.382756,"is_reserved":false,"is_disabled":false,"rental_uris":{"android":"levelo://app?vid=aa38acc2-91cb-407c-ac8c-05b08cc96e3e","ios":"levelo://app?vid=aa38acc2-91cb-407c-ac8c-05b08cc96e3e"},"vehicle_type_id":"4","last_reported":1713712026,"current_range_meters":27200,"station_id":"ce4bhr12rcd13ifvqhqg","pricing_plan_id":"cebpf4jnsgd1na2vs0mg"},{"bike_id":"59c296c1-c1af-4a71-9e20-fa9c7f8757f9","system_id":"levelo_inurba_marseille","lat":43.322872,"lon":5.382756,"is_reserved":false,"is_disabled":false,"rental_uris":{"android":"levelo://app?vid=59c296c1-c1af-4a71-9e20-fa9c7f8757f9","ios":"levelo://app?vid=59c296c1-c1af-4a71-9e20-fa9c7f8757f9"},"vehicle_type_id":"4","last_reported":1713712026,"current_range_meters":27600,"station_id":"ce4bhr12rcd13ifvqhqg","pricing_plan_id":"cebpf4jnsgd1na2vs0mg"},{"bike_id":"1db02aab-65af-4d38-8223-af6cbfeb63a2","system_id":"levelo_inurba_marseille","lat":43.322973,"lon":5.382557,"is_reserved":false,"is_disabled":false,"rental_uris":{"android":"levelo://app?vid=1db02aab-65af-4d38-8223-af6cbfeb63a2","ios":"levelo://app?vid=1db02aab-65af-4d38-8223-af6cbfeb63a2"},"vehicle_type_id":"4","last_reported":1713712026,"current_range_meters":4000,"station_id":"ce4bhr12rcd13ifvqhqg","pricing_plan_id":"cebpf4jnsgd1na2vs0mg"},{"bike_id":"c1c913df-b844-406e-83f7-dff5f43f7dc5","system_id":"levelo_inurba_marseille","lat":43.322872,"lon":5.382756,"is_reserved":false,"is_disabled":false,"rental_uris":{"android":"levelo://app?vid=c1c913df-b844-406e-83f7-dff5f43f7dc5","ios":"levelo://app?vid=c1c913df-b844-406e-83f7-dff5f43f7dc5"},"vehicle_type_id":"4","last_reported":1713712026,"current_range_meters":31200,"station_id":"ce4bhr12rcd13ifvqhqg","pricing_plan_id":"cebpf4jnsgd1na2vs0mg"},{"bike_id":"e5df68f6-b1ff-4d0a-b7e9-c02ca9b8210e","system_id":"levelo_inurba_marseille","lat":43.322872,"lon":5.382756,"is_reserved":false,"is_disabled":false,"rental_uris":{"android":"levelo://app?vid=e5df68f6-b1ff-4d0a-b7e9-c02ca9b8210e","ios":"levelo://app?vid=e5df68f6-b1ff-4d0a-b7e9-c02ca9b8210e"},"vehicle_type_id":"4","last_reported":1713712026,"current_range_meters":31200,"station_id":"ce4bhr12rcd13ifvqhqg","pricing_plan_id":"cebpf4jnsgd1na2vs0mg"},{"bike_id":"3a777aae-0d2a-4638-8c09-6f1de81534e0","system_id":"levelo_inurba_marseille","lat":43.322872,"lon":5.382756,"is_reserved":false,"is_disabled":false,"rental_uris":{"android":"levelo://app?vid=3a777aae-0d2a-4638-8c09-6f1de81534e0","ios":"levelo://app?vid=3a777aae-0d2a-4638-8c09-6f1de81534e0"},"vehicle_type_id":"4","last_reported":1713712026,"current_range_meters":27600,"station_id":"ce4bhr12rcd13ifvqhqg","pricing_plan_id":"cebpf4jnsgd1na2vs0mg"},{"bike_id":"cb0c383e-9159-4998-8790-a014cabe01ff","system_id":"levelo_inurba_marseille","lat":43.297163,"lon":5.365866,"is_reserved":false,"is_disabled":false,"rental_uris":{"android":"levelo://app?vid=cb0c383e-9159-4998-8790-a014cabe01ff","ios":"levelo://app?vid=cb0c383e-9159-4998-8790-a014cabe01ff"},"vehicle_type_id":"4","last_reported":1713712026,"current_range_meters":13200,"station_id":"ce4bgn12rcd13ifvqbt0","pricing_plan_id":"cebpf4jnsgd1na2vs0mg"},{"bike_id":"0a40e841-4bc5-4986-9fc2-4cc1bdc18704","system_id":"levelo_inurba_marseille","lat":43.297163,"lon":5.365866,"is_reserved":false,"is_disabled":false,"rental_uris":{"android":"levelo://app?vid=0a40e841-4bc5-4986-9fc2-4cc1bdc18704","ios":"levelo://app?vid=0a40e841-4bc5-4986-9fc2-4cc1bdc18704"},"vehicle_type_id":"4","last_reported":1713712026,"current_range_meters":0,"station_id":"ce4bgn12rcd13ifvqbt0","pricing_plan_id":"cebpf4jnsgd1na2vs0mg"},{"bike_id":"82a10d1d-aa3c-45a5-858b-a5dfabe9d241","system_id":"levelo_inurba_marseille","lat":43.309589,"lon":5.390258,"is_reserved":false,"is_disabled":false,"rental_uris":{"android":"levelo://app?vid=82a10d1d-aa3c-45a5-858b-a5dfabe9d241","ios":"levelo://app?vid=82a10d1d-aa3c-45a5-858b-a5dfabe9d241"},"vehicle_type_id":"4","last_reported":1713712026,"current_range_meters":15600,"station_id":"ce4bgup2rcd13ifvqco0","pricing_plan_id":"cebpf4jnsgd1na2vs0mg"},{"bike_id":"70b36d67-7ebd-422e-acbd-d9dddc039fd7","system_id":"levelo_inurba_marseille","lat":43.299028,"lon":5.381509,"is_reserved":false,"is_disabled":false,"rental_uris":{"android":"levelo://app?vid=70b36d67-7ebd-422e-acbd-d9dddc039fd7","ios":"levelo://app?vid=70b36d67-7ebd-422e-acbd-d9dddc039fd7"},"vehicle_type_id":"4","last_reported":1713712026,"current_range_meters":29600,"station_id":"ce4bgj12rcd13ifvqbc0","pricing_plan_id":"cebpf4jnsgd1na2vs0mg"},{"bike_id":"cbe1a4d6-a9d3-4e05-9620-77c9182bf044","system_id":"levelo_inurba_marseille","lat":43.299028,"lon":5.381509,"is_reserved":false,"is_disabled":false,"rental_uris":{"android":"levelo://app?vid=cbe1a4d6-a9d3-4e05-9620-77c9182bf044","ios":"levelo://app?vid=cbe1a4d6-a9d3-4e05-9620-77c9182bf044"},"vehicle_type_id":"4","last_reported":1713712026,"current_range_meters":14800,"station_id":"ce4bgj12rcd13ifvqbc0","pricing_plan_id":"cebpf4jnsgd1na2vs0mg"},{"bike_id":"73576c27-6ca5-4ea2-afcf-d0e0d1da3060","system_id":"levelo_inurba_marseille","lat":43.299028,"lon":5.381509,"is_reserved":false,"is_disabled":false,"rental_uris":{"android":"levelo://app?vid=73576c27-6ca5-4ea2-afcf-d0e0d1da3060","ios":"levelo://app?vid=73576c27-6ca5-4ea2-afcf-d0e0d1da3060"},"vehicle_type_id":"4","last_reported":1713712026,"current_range_meters":11600,"station_id":"ce4bgj12rcd13ifvqbc0","pricing_plan_id":"cebpf4jnsgd1na2vs0mg"},{"bike_id":"abbf0a0e-80f3-4932-84ef-29852154369c","system_id":"levelo_inurba_marseille","lat":43.299137,"lon":5.3814,"is_reserved":false,"is_disabled":false,"rental_uris":{"android":"levelo://app?vid=abbf0a0e-80f3-4932-84ef-29852154369c","ios":"levelo://app?vid=abbf0a0e-80f3-4932-84ef-29852154369c"},"vehicle_type_id":"4","last_reported":1713712026,"current_range_meters":0,"station_id":"ce4bgj12rcd13ifvqbc0","pricing_plan_id":"cebpf4jnsgd1na2vs0mg"},{"bike_id":"3e3ca3b6-3945-4b48-ab2b-ff22bd1789b8","system_id":"levelo_inurba_marseille","lat":43.298966,"lon":5.38122,"is_reserved":false,"is_disabled":false,"rental_uris":{"android":"levelo://app?vid=3e3ca3b6-3945-4b48-ab2b-ff22bd1789b8","ios":"levelo://app?vid=3e3ca3b6-3945-4b48-ab2b-ff22bd1789b8"},"vehicle_type_id":"4","last_reported":1713712026,"current_range_meters":0,"station_id":"ce4bgj12rcd13ifvqbc0","pricing_plan_id":"cebpf4jnsgd1na2vs0mg"},{"bike_id":"ec903f44-d194-44ca-a5e6-1823971583cd","system_id":"levelo_inurba_marseille","lat":43.29913,"lon":5.38153,"is_reserved":false,"is_disabled":false,"rental_uris":{"android":"levelo://app?vid=ec903f44-d194-44ca-a5e6-1823971583cd","ios":"levelo://app?vid=ec903f44-d194-44ca-a5e6-1823971583cd"},"vehicle_type_id":"4","last_reported":1713712026,"current_range_meters":0,"station_id":"ce4bgj12rcd13ifvqbc0","pricing_plan_id":"cebpf4jnsgd1na2vs0mg"},{"bike_id":"02fae047-1e05-4f30-a5b3-a3abc75835b6","system_id":"levelo_inurba_marseille","lat":43.296263,"lon":5.40601,"is_reserved":false,"is_disabled":false,"rental_uris":{"android":"levelo://app?vid=02fae047-1e05-4f30-a5b3-a3abc75835b6","ios":"levelo://app?vid=02fae047-1e05-4f30-a5b3-a3abc75835b6"},"vehicle_type_id":"4","last_reported":1713712026,"current_range_meters":3200,"station_id":"ce4bh0h2rcd13ifvqd60","pricing_plan_id":"cebpf4jnsgd1na2vs0mg"},{"bike_id":"8f9f87d1-af63-473d-b991-7d6ca4a4f923","system_id":"levelo_inurba_marseille","lat":43.298037,"lon":5.381066,"is_reserved":false,"is_disabled":false,"rental_uris":{"android":"levelo://app?vid=8f9f87d1-af63-473d-b991-7d6ca4a4f923","ios":"levelo://app?vid=8f9f87d1-af63-473d-b991-7d6ca4a4f923"},"vehicle_type_id":"4","last_reported":1713712026,"current_range_meters":400,"station_id":"ce4bgip2rcd13ifvqbb0","pricing_plan_id":"cebpf4jnsgd1na2vs0mg"},{"bike_id":"1e882272-797a-4fae-8037-76b03f4eb128","system_id":"levelo_inurba_marseille","lat":43.295748,"lon":5.37522,"is_reserved":false,"is_disabled":false,"rental_uris":{"android":"levelo://app?vid=1e882272-797a-4fae-8037-76b03f4eb128","ios":"levelo://app?vid=1e882272-797a-4fae-8037-76b03f4eb128"},"vehicle_type_id":"4","last_reported":1713712026,"current_range_meters":0,"station_id":"ce4bgh92rcd13ifvqb50","pricing_plan_id":"cebpf4jnsgd1na2vs0mg"},{"bike_id":"fe887452-cad3-46c7-88d4-d0d4055b9a90","system_id":"levelo_inurba_marseille","lat":43.295748,"lon":5.37522,"is_reserved":false,"is_disabled":false,"rental_uris":{"android":"levelo://app?vid=fe887452-cad3-46c7-88d4-d0d4055b9a90","ios":"levelo://app?vid=fe887452-cad3-46c7-88d4-d0d4055b9a90"},"vehicle_type_id":"4","last_reported":1713712026,"current_range_meters":8400,"station_id":"ce4bgh92rcd13ifvqb50","pricing_plan_id":"cebpf4jnsgd1na2vs0mg"},{"bike_id":"34ea21be-6540-4b8e-acbf-8cc3a7a4c7d1","system_id":"levelo_inurba_marseille","lat":43.290336,"lon":5.386425,"is_reserved":false,"is_disabled":false,"rental_uris":{"android":"levelo://app?vid=34ea21be-6540-4b8e-acbf-8cc3a7a4c7d1","ios":"levelo://app?vid=34ea21be-6540-4b8e-acbf-8cc3a7a4c7d1"},"vehicle_type_id":"4","last_reported":1713712026,"current_range_meters":24800,"station_id":"ce4bh4p2rcd13ifvqe0g","pricing_plan_id":"cebpf4jnsgd1na2vs0mg"},{"bike_id":"11369e32-c162-4395-8612-86424e8959d6","system_id":"levelo_inurba_marseille","lat":43.298037,"lon":5.381066,"is_reserved":false,"is_disabled":false,"rental_uris":{"android":"levelo://app?vid=11369e32-c162-4395-8612-86424e8959d6","ios":"levelo://app?vid=11369e32-c162-4395-8612-86424e8959d6"},"vehicle_type_id":"4","last_reported":1713712026,"current_range_meters":0,"station_id":"ce4bgip2rcd13ifvqbb0","pricing_plan_id":"cebpf4jnsgd1na2vs0mg"},{"bike_id":"a9dc795b-5b0a-4e53-b540-76fe689c8304","system_id":"levelo_inurba_marseille","lat":43.296263,"lon":5.377094,"is_reserved":false,"is_disabled":false,"rental_uris":{"android":"levelo://app?vid=a9dc795b-5b0a-4e53-b540-76fe689c8304","ios":"levelo://app?vid=a9dc795b-5b0a-4e53-b540-76fe689c8304"},"vehicle_type_id":"4","last_reported":1713712026,"current_range_meters":0,"station_id":"ce4bgi92rcd13ifvqb90","pricing_plan_id":"cebpf4jnsgd1na2vs0mg"},{"bike_id":"321c6441-33cc-4a5e-a064-5c2c2c33d562","system_id":"levelo_inurba_marseille","lat":43.295275,"lon":5.37505,"is_reserved":false,"is_disabled":false,"rental_uris":{"android":"levelo://app?vid=321c6441-33cc-4a5e-a064-5c2c2c33d562","ios":"levelo://app?vid=321c6441-33cc-4a5e-a064-5c2c2c33d562"},"vehicle_type_id":"4","last_reported":1713712026,"current_range_meters":14800,"station_id":"ce4bgkp2rcd13ifvqbmg","pricing_plan_id":"cebpf4jnsgd1na2vs0mg"},{"bike_id":"eebb69c6-c19a-4566-9291-5cf3f169bbbd","system_id":"levelo_inurba_marseille","lat":43.295279,"lon":5.375048,"is_reserved":false,"is_disabled":false,"rental_uris":{"android":"levelo://app?vid=eebb69c6-c19a-4566-9291-5cf3f169bbbd","ios":"levelo://app?vid=eebb69c6-c19a-4566-9291-5cf3f169bbbd"},"vehicle_type_id":"4","last_reported":1713712026,"current_range_meters":16400,"station_id":"ce4bgkp2rcd13ifvqbmg","pricing_plan_id":"cebpf4jnsgd1na2vs0mg"},{"bike_id":"5fb0da21-41da-4427-9e12-d28c3723178d","system_id":"levelo_inurba_marseille","lat":43.299028,"lon":5.381509,"is_reserved":false,"is_disabled":false,"rental_uris":{"android":"levelo://app?vid=5fb0da21-41da-4427-9e12-d28c3723178d","ios":"levelo://app?vid=5fb0da21-41da-4427-9e12-d28c3723178d"},"vehicle_type_id":"4","last_reported":1713712026,"current_range_meters":800,"station_id":"ce4bgj12rcd13ifvqbc0","pricing_plan_id":"cebpf4jnsgd1na2vs0mg"},{"bike_id":"101d8204-9230-46b7-8d5c-1853b901238c","system_id":"levelo_inurba_marseille","lat":43.33058,"lon":5.35891,"is_reserved":false,"is_disabled":false,"rental_uris":{"android":"levelo://app?vid=101d8204-9230-46b7-8d5c-1853b901238c","ios":"levelo://app?vid=101d8204-9230-46b7-8d5c-1853b901238c"},"vehicle_type_id":"4","last_reported":1713712026,"current_range_meters":7200,"station_id":"","pricing_plan_id":"cebpf4jnsgd1na2vs0mg"},{"bike_id":"5cc9b3f7-746b-4dc8-a9be-06c6e75a37db","system_id":"levelo_inurba_marseille","lat":43.323683,"lon":5.388825,"is_reserved":false,"is_disabled":false,"rental_uris":{"android":"levelo://app?vid=5cc9b3f7-746b-4dc8-a9be-06c6e75a37db","ios":"levelo://app?vid=5cc9b3f7-746b-4dc8-a9be-06c6e75a37db"},"vehicle_type_id":"4","last_reported":1713712026,"current_range_meters":22000,"station_id":"ce4bhqp2rcd13ifvqhog","pricing_plan_id":"cebpf4jnsgd1na2vs0mg"},{"bike_id":"4d3309a7-9ad7-4e1a-aa2b-f506ef43c3ca","system_id":"levelo_inurba_marseille","lat":43.32366,"lon":5.38887,"is_reserved":false,"is_disabled":false,"rental_uris":{"android":"levelo://app?vid=4d3309a7-9ad7-4e1a-aa2b-f506ef43c3ca","ios":"levelo://app?vid=4d3309a7-9ad7-4e1a-aa2b-f506ef43c3ca"},"vehicle_type_id":"4","last_reported":1713712026,"current_range_meters":23600,"station_id":"ce4bhqp2rcd13ifvqhog","pricing_plan_id":"cebpf4jnsgd1na2vs0mg"},{"bike_id":"dd11d5cd-5042-41e6-b7dc-e9db6b91bbca","system_id":"levelo_inurba_marseille","lat":43.31431,"lon":5.39374,"is_reserved":false,"is_disabled":false,"rental_uris":{"android":"levelo://app?vid=dd11d5cd-5042-41e6-b7dc-e9db6b91bbca","ios":"levelo://app?vid=dd11d5cd-5042-41e6-b7dc-e9db6b91bbca"},"vehicle_type_id":"4","last_reported":1713712026,"current_range_meters":1600,"station_id":"","pricing_plan_id":"cebpf4jnsgd1na2vs0mg"},{"bike_id":"883da567-fddc-455f-bf30-55bc96c4ad10","system_id":"levelo_inurba_marseille","lat":43.292749,"lon":5.368398,"is_reserved":false,"is_disabled":false,"rental_uris":{"android":"levelo://app?vid=883da567-fddc-455f-bf30-55bc96c4ad10","ios":"levelo://app?vid=883da567-fddc-455f-bf30-55bc96c4ad10"},"vehicle_type_id":"4","last_reported":1713712026,"current_range_meters":0,"station_id":"ce4bhbp2rcd13ifvqesg","pricing_plan_id":"cebpf4jnsgd1na2vs0mg"},{"bike_id":"f3a58af0-0b8a-4989-848a-ab609be8b870","system_id":"levelo_inurba_marseille","lat":43.305901,"lon":5.393262,"is_reserved":false,"is_disabled":false,"rental_uris":{"android":"levelo://app?vid=f3a58af0-0b8a-4989-848a-ab609be8b870","ios":"levelo://app?vid=f3a58af0-0b8a-4989-848a-ab609be8b870"},"vehicle_type_id":"4","last_reported":1713712026,"current_range_meters":2400,"station_id":"","pricing_plan_id":"cebpf4jnsgd1na2vs0mg"},{"bike_id":"351e1ca1-ead7-4af8-9ec8-01815e30a5a6","system_id":"levelo_inurba_marseille","lat":43.305994,"lon":5.393687,"is_reserved":false,"is_disabled":false,"rental_uris":{"android":"levelo://app?vid=351e1ca1-ead7-4af8-9ec8-01815e30a5a6","ios":"levelo://app?vid=351e1ca1-ead7-4af8-9ec8-01815e30a5a6"},"vehicle_type_id":"4","last_reported":1713712026,"current_range_meters":2400,"station_id":"ce4bh0p2rcd13ifvqd80","pricing_plan_id":"cebpf4jnsgd1na2vs0mg"},{"bike_id":"3bc31a27-399a-461a-994d-e890c7cb0068","system_id":"levelo_inurba_marseille","lat":43.304278,"lon":5.388868,"is_reserved":false,"is_disabled":false,"rental_uris":{"android":"levelo://app?vid=3bc31a27-399a-461a-994d-e890c7cb0068","ios":"levelo://app?vid=3bc31a27-399a-461a-994d-e890c7cb0068"},"vehicle_type_id":"4","last_reported":1713712026,"current_range_meters":1200,"station_id":"ce4bgk12rcd13ifvqbi0","pricing_plan_id":"cebpf4jnsgd1na2vs0mg"},{"bike_id":"ec0b7f9d-0140-41d8-acb5-ce230303d882","system_id":"levelo_inurba_marseille","lat":43.30287,"lon":5.39207,"is_reserved":false,"is_disabled":false,"rental_uris":{"android":"levelo://app?vid=ec0b7f9d-0140-41d8-acb5-ce230303d882","ios":"levelo://app?vid=ec0b7f9d-0140-41d8-acb5-ce230303d882"},"vehicle_type_id":"4","last_reported":1713712026,"current_range_meters":0,"station_id":"ce4bgkh2rcd13ifvqbk0","pricing_plan_id":"cebpf4jnsgd1na2vs0mg"},{"bike_id":"cafcf115-07ed-48e5-9574-47968b9e3ac7","system_id":"levelo_inurba_marseille","lat":43.292311,"lon":5.360731,"is_reserved":false,"is_disabled":false,"rental_uris":{"android":"levelo://app?vid=cafcf115-07ed-48e5-9574-47968b9e3ac7","ios":"levelo://app?vid=cafcf115-07ed-48e5-9574-47968b9e3ac7"},"vehicle_type_id":"4","last_reported":1713712026,"current_range_meters":400,"station_id":"ce4bhbh2rcd13ifvqeqg","pricing_plan_id":"cebpf4jnsgd1na2vs0mg"},{"bike_id":"2198816f-ab99-4f1f-b03f-27a705d61984","system_id":"levelo_inurba_marseille","lat":43.2923,"lon":5.36064,"is_reserved":false,"is_disabled":false,"rental_uris":{"android":"levelo://app?vid=2198816f-ab99-4f1f-b03f-27a705d61984","ios":"levelo://app?vid=2198816f-ab99-4f1f-b03f-27a705d61984"},"vehicle_type_id":"4","last_reported":1713712026,"current_range_meters":0,"station_id":"ce4bhbh2rcd13ifvqeqg","pricing_plan_id":"cebpf4jnsgd1na2vs0mg"},{"bike_id":"b033f162-fb53-4460-910f-84507b44a8b3","system_id":"levelo_inurba_marseille","lat":43.292301,"lon":5.360583,"is_reserved":false,"is_disabled":false,"rental_uris":{"android":"levelo://app?vid=b033f162-fb53-4460-910f-84507b44a8b3","ios":"levelo://app?vid=b033f162-fb53-4460-910f-84507b44a8b3"},"vehicle_type_id":"4","last_reported":1713712026,"current_range_meters":0,"station_id":"ce4bhbh2rcd13ifvqeqg","pricing_plan_id":"cebpf4jnsgd1na2vs0mg"},{"bike_id":"accabf81-e7f3-41ce-b55c-68483d15fff1","system_id":"levelo_inurba_marseille","lat":43.298663,"lon":5.388828,"is_reserved":false,"is_disabled":false,"rental_uris":{"android":"levelo://app?vid=accabf81-e7f3-41ce-b55c-68483d15fff1","ios":"levelo://app?vid=accabf81-e7f3-41ce-b55c-68483d15fff1"},"vehicle_type_id":"4","last_reported":1713712026,"current_range_meters":0,"station_id":"ce4bh392rcd13ifvqdl0","pricing_plan_id":"cebpf4jnsgd1na2vs0mg"},{"bike_id":"847f7d2b-0160-41a2-b61e-9a897adf0f5d","system_id":"levelo_inurba_marseille","lat":43.29882,"lon":5.38908,"is_reserved":false,"is_disabled":false,"rental_uris":{"android":"levelo://app?vid=847f7d2b-0160-41a2-b61e-9a897adf0f5d","ios":"levelo://app?vid=847f7d2b-0160-41a2-b61e-9a897adf0f5d"},"vehicle_type_id":"4","last_reported":1713712026,"current_range_meters":0,"station_id":"ce4bh392rcd13ifvqdl0","pricing_plan_id":"cebpf4jnsgd1na2vs0mg"},{"bike_id":"ca47fc88-a279-4dba-b450-bc9485f8c732","system_id":"levelo_inurba_marseille","lat":43.291675,"lon":5.371583,"is_reserved":false,"is_disabled":false,"rental_uris":{"android":"levelo://app?vid=ca47fc88-a279-4dba-b450-bc9485f8c732","ios":"levelo://app?vid=ca47fc88-a279-4dba-b450-bc9485f8c732"},"vehicle_type_id":"4","last_reported":1713712026,"current_range_meters":3200,"station_id":"ce4bha92rcd13ifvqeh0","pricing_plan_id":"cebpf4jnsgd1na2vs0mg"},{"bike_id":"57b03ca0-0440-4046-8857-b617a49221ce","system_id":"levelo_inurba_marseille","lat":43.292005,"lon":5.357875,"is_reserved":false,"is_disabled":false,"rental_uris":{"android":"levelo://app?vid=57b03ca0-0440-4046-8857-b617a49221ce","ios":"levelo://app?vid=57b03ca0-0440-4046-8857-b617a49221ce"},"vehicle_type_id":"4","last_reported":1713712026,"current_range_meters":2400,"station_id":"ce4bhb12rcd13ifvqel0","pricing_plan_id":"cebpf4jnsgd1na2vs0mg"},{"bike_id":"fe6173ae-d2c1-4a4a-a8b6-e2496c0f23a6","system_id":"levelo_inurba_marseille","lat":43.291994,"lon":5.357886,"is_reserved":false,"is_disabled":false,"rental_uris":{"android":"levelo://app?vid=fe6173ae-d2c1-4a4a-a8b6-e2496c0f23a6","ios":"levelo://app?vid=fe6173ae-d2c1-4a4a-a8b6-e2496c0f23a6"},"vehicle_type_id":"4","last_reported":1713712026,"current_range_meters":0,"station_id":"ce4bhb12rcd13ifvqel0","pricing_plan_id":"cebpf4jnsgd1na2vs0mg"},{"bike_id":"b5a18531-33e9-43e4-b192-22b430370093","system_id":"levelo_inurba_marseille","lat":43.309038,"lon":5.396546,"is_reserved":false,"is_disabled":false,"rental_uris":{"android":"levelo://app?vid=b5a18531-33e9-43e4-b192-22b430370093","ios":"levelo://app?vid=b5a18531-33e9-43e4-b192-22b430370093"},"vehicle_type_id":"4","last_reported":1713712026,"current_range_meters":9200,"station_id":"ce4bh012rcd13ifvqcv0","pricing_plan_id":"cebpf4jnsgd1na2vs0mg"},{"bike_id":"b1b51c1d-b580-4794-9a67-d22066a284b4","system_id":"levelo_inurba_marseille","lat":43.29529,"lon":5.385581,"is_reserved":false,"is_disabled":false,"rental_uris":{"android":"levelo://app?vid=b1b51c1d-b580-4794-9a67-d22066a284b4","ios":"levelo://app?vid=b1b51c1d-b580-4794-9a67-d22066a284b4"},"vehicle_type_id":"4","last_reported":1713712026,"current_range_meters":0,"station_id":"ce4bgih2rcd13ifvqba0","pricing_plan_id":"cebpf4jnsgd1na2vs0mg"},{"bike_id":"3a1799ab-a3c9-4470-ad38-68e24cff4697","system_id":"levelo_inurba_marseille","lat":43.29529,"lon":5.385581,"is_reserved":false,"is_disabled":false,"rental_uris":{"android":"levelo://app?vid=3a1799ab-a3c9-4470-ad38-68e24cff4697","ios":"levelo://app?vid=3a1799ab-a3c9-4470-ad38-68e24cff4697"},"vehicle_type_id":"4","last_reported":1713712026,"current_range_meters":1200,"station_id":"ce4bgih2rcd13ifvqba0","pricing_plan_id":"cebpf4jnsgd1na2vs0mg"},{"bike_id":"9d2af414-303a-4e16-a3f5-0be67b554124","system_id":"levelo_inurba_marseille","lat":43.2943,"lon":5.3862,"is_reserved":false,"is_disabled":false,"rental_uris":{"android":"levelo://app?vid=9d2af414-303a-4e16-a3f5-0be67b554124","ios":"levelo://app?vid=9d2af414-303a-4e16-a3f5-0be67b554124"},"vehicle_type_id":"4","last_reported":1713712026,"current_range_meters":1600,"station_id":"","pricing_plan_id":"cebpf4jnsgd1na2vs0mg"},{"bike_id":"8b3be591-d390-4e67-843e-ea90b24888e8","system_id":"levelo_inurba_marseille","lat":43.294153,"lon":5.386305,"is_reserved":false,"is_disabled":false,"rental_uris":{"android":"levelo://app?vid=8b3be591-d390-4e67-843e-ea90b24888e8","ios":"levelo://app?vid=8b3be591-d390-4e67-843e-ea90b24888e8"},"vehicle_type_id":"4","last_reported":1713712026,"current_range_meters":800,"station_id":"ce4bh2h2rcd13ifvqdh0","pricing_plan_id":"cebpf4jnsgd1na2vs0mg"},{"bike_id":"3b7577e7-44ff-47d0-a6cc-8932ceb0a08f","system_id":"levelo_inurba_marseille","lat":43.289184,"lon":5.366408,"is_reserved":false,"is_disabled":false,"rental_uris":{"android":"levelo://app?vid=3b7577e7-44ff-47d0-a6cc-8932ceb0a08f","ios":"levelo://app?vid=3b7577e7-44ff-47d0-a6cc-8932ceb0a08f"},"vehicle_type_id":"4","last_reported":1713712026,"current_range_meters":800,"station_id":"ce4bhap2rcd13ifvqek0","pricing_plan_id":"cebpf4jnsgd1na2vs0mg"},{"bike_id":"b7473445-1319-4a6d-87e6-874d9bd975d1","system_id":"levelo_inurba_marseille","lat":43.292644,"lon":5.384257,"is_reserved":false,"is_disabled":false,"rental_uris":{"android":"levelo://app?vid=b7473445-1319-4a6d-87e6-874d9bd975d1","ios":"levelo://app?vid=b7473445-1319-4a6d-87e6-874d9bd975d1"},"vehicle_type_id":"4","last_reported":1713712026,"current_range_meters":0,"station_id":"ce4bh692rcd13ifvqea0","pricing_plan_id":"cebpf4jnsgd1na2vs0mg"},{"bike_id":"cd745eb3-9871-4a97-8763-3e3d575dedef","system_id":"levelo_inurba_marseille","lat":43.292644,"lon":5.384257,"is_reserved":false,"is_disabled":false,"rental_uris":{"android":"levelo://app?vid=cd745eb3-9871-4a97-8763-3e3d575dedef","ios":"levelo://app?vid=cd745eb3-9871-4a97-8763-3e3d575dedef"},"vehicle_type_id":"4","last_reported":1713712026,"current_range_meters":0,"station_id":"ce4bh692rcd13ifvqea0","pricing_plan_id":"cebpf4jnsgd1na2vs0mg"},{"bike_id":"4b7bc4a4-6e0d-40a5-9d1b-8b701656c375","system_id":"levelo_inurba_marseille","lat":43.304296,"lon":5.397513,"is_reserved":false,"is_disabled":false,"rental_uris":{"android":"levelo://app?vid=4b7bc4a4-6e0d-40a5-9d1b-8b701656c375","ios":"levelo://app?vid=4b7bc4a4-6e0d-40a5-9d1b-8b701656c375"},"vehicle_type_id":"4","last_reported":1713712026,"current_range_meters":2400,"station_id":"ce4bh092rcd13ifvqd20","pricing_plan_id":"cebpf4jnsgd1na2vs0mg"},{"bike_id":"23d63f6a-1dfd-45cb-88ed-e25ab463669e","system_id":"levelo_inurba_marseille","lat":43.292644,"lon":5.384257,"is_reserved":false,"is_disabled":false,"rental_uris":{"android":"levelo://app?vid=23d63f6a-1dfd-45cb-88ed-e25ab463669e","ios":"levelo://app?vid=23d63f6a-1dfd-45cb-88ed-e25ab463669e"},"vehicle_type_id":"4","last_reported":1713712026,"current_range_meters":0,"station_id":"ce4bh692rcd13ifvqea0","pricing_plan_id":"cebpf4jnsgd1na2vs0mg"},{"bike_id":"8e2bc9bd-894a-424a-b528-cc54e76d94c5","system_id":"levelo_inurba_marseille","lat":43.292644,"lon":5.384257,"is_reserved":false,"is_disabled":false,"rental_uris":{"android":"levelo://app?vid=8e2bc9bd-894a-424a-b528-cc54e76d94c5","ios":"levelo://app?vid=8e2bc9bd-894a-424a-b528-cc54e76d94c5"},"vehicle_type_id":"4","last_reported":1713712026,"current_range_meters":7600,"station_id":"ce4bh692rcd13ifvqea0","pricing_plan_id":"cebpf4jnsgd1na2vs0mg"},{"bike_id":"e17eb1a2-3ef4-4e20-9dcf-ed4363d04508","system_id":"levelo_inurba_marseille","lat":43.292644,"lon":5.384257,"is_reserved":false,"is_disabled":false,"rental_uris":{"android":"levelo://app?vid=e17eb1a2-3ef4-4e20-9dcf-ed4363d04508","ios":"levelo://app?vid=e17eb1a2-3ef4-4e20-9dcf-ed4363d04508"},"vehicle_type_id":"4","last_reported":1713712026,"current_range_meters":400,"station_id":"ce4bh692rcd13ifvqea0","pricing_plan_id":"cebpf4jnsgd1na2vs0mg"},{"bike_id":"ba3e5a46-63ff-4a5f-ac2c-e5216441c0b8","system_id":"levelo_inurba_marseille","lat":43.292644,"lon":5.384257,"is_reserved":false,"is_disabled":false,"rental_uris":{"android":"levelo://app?vid=ba3e5a46-63ff-4a5f-ac2c-e5216441c0b8","ios":"levelo://app?vid=ba3e5a46-63ff-4a5f-ac2c-e5216441c0b8"},"vehicle_type_id":"4","last_reported":1713712026,"current_range_meters":400,"station_id":"ce4bh692rcd13ifvqea0","pricing_plan_id":"cebpf4jnsgd1na2vs0mg"},{"bike_id":"6002313e-3dc9-4e9c-91c8-79cf363c06a4","system_id":"levelo_inurba_marseille","lat":43.2901,"lon":5.35613,"is_reserved":false,"is_disabled":false,"rental_uris":{"android":"levelo://app?vid=6002313e-3dc9-4e9c-91c8-79cf363c06a4","ios":"levelo://app?vid=6002313e-3dc9-4e9c-91c8-79cf363c06a4"},"vehicle_type_id":"4","last_reported":1713712026,"current_range_meters":23200,"station_id":"","pricing_plan_id":"cebpf4jnsgd1na2vs0mg"},{"bike_id":"5b3ae6a9-9b36-4533-9f3f-c61bf959d1bd","system_id":"levelo_inurba_marseille","lat":43.283498,"lon":5.380948,"is_reserved":false,"is_disabled":false,"rental_uris":{"android":"levelo://app?vid=5b3ae6a9-9b36-4533-9f3f-c61bf959d1bd","ios":"levelo://app?vid=5b3ae6a9-9b36-4533-9f3f-c61bf959d1bd"},"vehicle_type_id":"4","last_reported":1713712026,"current_range_meters":3200,"station_id":"ce4bh412rcd13ifvqdr0","pricing_plan_id":"cebpf4jnsgd1na2vs0mg"},{"bike_id":"881ea465-4cfa-4eba-8b6b-69f05cb3175a","system_id":"levelo_inurba_marseille","lat":43.290104,"lon":5.356111,"is_reserved":false,"is_disabled":false,"rental_uris":{"android":"levelo://app?vid=881ea465-4cfa-4eba-8b6b-69f05cb3175a","ios":"levelo://app?vid=881ea465-4cfa-4eba-8b6b-69f05cb3175a"},"vehicle_type_id":"4","last_reported":1713712026,"current_range_meters":0,"station_id":"ce4bhb92rcd13ifvqen0","pricing_plan_id":"cebpf4jnsgd1na2vs0mg"},{"bike_id":"cc106637-673d-418c-bc67-bf6536a2c905","system_id":"levelo_inurba_marseille","lat":43.29,"lon":5.3561,"is_reserved":false,"is_disabled":false,"rental_uris":{"android":"levelo://app?vid=cc106637-673d-418c-bc67-bf6536a2c905","ios":"levelo://app?vid=cc106637-673d-418c-bc67-bf6536a2c905"},"vehicle_type_id":"4","last_reported":1713712026,"current_range_meters":0,"station_id":"ce4bhb92rcd13ifvqen0","pricing_plan_id":"cebpf4jnsgd1na2vs0mg"},{"bike_id":"b92e561e-05ce-4661-871e-dfc1c3c95f86","system_id":"levelo_inurba_marseille","lat":43.290995,"lon":5.381361,"is_reserved":false,"is_disabled":false,"rental_uris":{"android":"levelo://app?vid=b92e561e-05ce-4661-871e-dfc1c3c95f86","ios":"levelo://app?vid=b92e561e-05ce-4661-871e-dfc1c3c95f86"},"vehicle_type_id":"4","last_reported":1713712026,"current_range_meters":20000,"station_id":"ce4bh512rcd13ifvqe2g","pricing_plan_id":"cebpf4jnsgd1na2vs0mg"},{"bike_id":"21826565-3d68-463e-a2dd-d803e2ae0367","system_id":"levelo_inurba_marseille","lat":43.295169,"lon":5.390426,"is_reserved":false,"is_disabled":false,"rental_uris":{"android":"levelo://app?vid=21826565-3d68-463e-a2dd-d803e2ae0367","ios":"levelo://app?vid=21826565-3d68-463e-a2dd-d803e2ae0367"},"vehicle_type_id":"4","last_reported":1713712026,"current_range_meters":12000,"station_id":"ce4bh3p2rcd13ifvqdp0","pricing_plan_id":"cebpf4jnsgd1na2vs0mg"},{"bike_id":"fb9736a1-27ca-491a-8fc0-f71d4d2f998b","system_id":"levelo_inurba_marseille","lat":43.295169,"lon":5.390426,"is_reserved":false,"is_disabled":false,"rental_uris":{"android":"levelo://app?vid=fb9736a1-27ca-491a-8fc0-f71d4d2f998b","ios":"levelo://app?vid=fb9736a1-27ca-491a-8fc0-f71d4d2f998b"},"vehicle_type_id":"4","last_reported":1713712026,"current_range_meters":9200,"station_id":"ce4bh3p2rcd13ifvqdp0","pricing_plan_id":"cebpf4jnsgd1na2vs0mg"},{"bike_id":"7a26ad87-cc1b-4b7f-b86d-5f65fb88dad3","system_id":"levelo_inurba_marseille","lat":43.330442,"lon":5.389148,"is_reserved":false,"is_disabled":false,"rental_uris":{"android":"levelo://app?vid=7a26ad87-cc1b-4b7f-b86d-5f65fb88dad3","ios":"levelo://app?vid=7a26ad87-cc1b-4b7f-b86d-5f65fb88dad3"},"vehicle_type_id":"4","last_reported":1713712026,"current_range_meters":29200,"station_id":"ce4bhr92rcd13ifvqhrg","pricing_plan_id":"cebpf4jnsgd1na2vs0mg"},{"bike_id":"54ff743f-4feb-4662-8ecd-c21268846692","system_id":"levelo_inurba_marseille","lat":43.330442,"lon":5.389148,"is_reserved":false,"is_disabled":false,"rental_uris":{"android":"levelo://app?vid=54ff743f-4feb-4662-8ecd-c21268846692","ios":"levelo://app?vid=54ff743f-4feb-4662-8ecd-c21268846692"},"vehicle_type_id":"4","last_reported":1713712026,"current_range_meters":31600,"station_id":"ce4bhr92rcd13ifvqhrg","pricing_plan_id":"cebpf4jnsgd1na2vs0mg"},{"bike_id":"6b09b3e6-6790-4df9-ab86-2d7451662812","system_id":"levelo_inurba_marseille","lat":43.33025,"lon":5.39045,"is_reserved":false,"is_disabled":false,"rental_uris":{"android":"levelo://app?vid=6b09b3e6-6790-4df9-ab86-2d7451662812","ios":"levelo://app?vid=6b09b3e6-6790-4df9-ab86-2d7451662812"},"vehicle_type_id":"4","last_reported":1713712026,"current_range_meters":17200,"station_id":"ce4bhr92rcd13ifvqhrg","pricing_plan_id":"cebpf4jnsgd1na2vs0mg"},{"bike_id":"2f98239b-1746-4d2c-93ec-e92b88bdb8bb","system_id":"levelo_inurba_marseille","lat":43.330442,"lon":5.389148,"is_reserved":false,"is_disabled":false,"rental_uris":{"android":"levelo://app?vid=2f98239b-1746-4d2c-93ec-e92b88bdb8bb","ios":"levelo://app?vid=2f98239b-1746-4d2c-93ec-e92b88bdb8bb"},"vehicle_type_id":"4","last_reported":1713712026,"current_range_meters":20400,"station_id":"ce4bhr92rcd13ifvqhrg","pricing_plan_id":"cebpf4jnsgd1na2vs0mg"},{"bike_id":"29c66e8e-ad35-428e-994a-166171ef10c0","system_id":"levelo_inurba_marseille","lat":43.330442,"lon":5.389148,"is_reserved":false,"is_disabled":false,"rental_uris":{"android":"levelo://app?vid=29c66e8e-ad35-428e-994a-166171ef10c0","ios":"levelo://app?vid=29c66e8e-ad35-428e-994a-166171ef10c0"},"vehicle_type_id":"4","last_reported":1713712026,"current_range_meters":32000,"station_id":"ce4bhr92rcd13ifvqhrg","pricing_plan_id":"cebpf4jnsgd1na2vs0mg"},{"bike_id":"3a8b7401-f062-44c8-8945-ca4bc62da38b","system_id":"levelo_inurba_marseille","lat":43.33094,"lon":5.39025,"is_reserved":false,"is_disabled":false,"rental_uris":{"android":"levelo://app?vid=3a8b7401-f062-44c8-8945-ca4bc62da38b","ios":"levelo://app?vid=3a8b7401-f062-44c8-8945-ca4bc62da38b"},"vehicle_type_id":"4","last_reported":1713712026,"current_range_meters":29600,"station_id":"","pricing_plan_id":"cebpf4jnsgd1na2vs0mg"},{"bike_id":"f5aef9b8-8194-47f3-8171-13a73e0d810d","system_id":"levelo_inurba_marseille","lat":43.28856,"lon":5.358371,"is_reserved":false,"is_disabled":false,"rental_uris":{"android":"levelo://app?vid=f5aef9b8-8194-47f3-8171-13a73e0d810d","ios":"levelo://app?vid=f5aef9b8-8194-47f3-8171-13a73e0d810d"},"vehicle_type_id":"4","last_reported":1713712026,"current_range_meters":5600,"station_id":"ce4bhb12rcd13ifvqem0","pricing_plan_id":"cebpf4jnsgd1na2vs0mg"},{"bike_id":"6ecc9ba7-ecb0-4b79-a999-4623f5aa9fe0","system_id":"levelo_inurba_marseille","lat":43.33751,"lon":5.37457,"is_reserved":false,"is_disabled":false,"rental_uris":{"android":"levelo://app?vid=6ecc9ba7-ecb0-4b79-a999-4623f5aa9fe0","ios":"levelo://app?vid=6ecc9ba7-ecb0-4b79-a999-4623f5aa9fe0"},"vehicle_type_id":"4","last_reported":1713712026,"current_range_meters":1600,"station_id":"","pricing_plan_id":"cebpf4jnsgd1na2vs0mg"},{"bike_id":"0fed2848-e162-4bd0-8e8f-d18a2ad76d03","system_id":"levelo_inurba_marseille","lat":43.337489,"lon":5.374734,"is_reserved":false,"is_disabled":false,"rental_uris":{"android":"levelo://app?vid=0fed2848-e162-4bd0-8e8f-d18a2ad76d03","ios":"levelo://app?vid=0fed2848-e162-4bd0-8e8f-d18a2ad76d03"},"vehicle_type_id":"4","last_reported":1713712026,"current_range_meters":6000,"station_id":"","pricing_plan_id":"cebpf4jnsgd1na2vs0mg"},{"bike_id":"b9cf8c8b-9269-4e90-a248-ffdfba8ed31a","system_id":"levelo_inurba_marseille","lat":43.30642,"lon":5.401031,"is_reserved":false,"is_disabled":false,"rental_uris":{"android":"levelo://app?vid=b9cf8c8b-9269-4e90-a248-ffdfba8ed31a","ios":"levelo://app?vid=b9cf8c8b-9269-4e90-a248-ffdfba8ed31a"},"vehicle_type_id":"4","last_reported":1713712026,"current_range_meters":400,"station_id":"ce4bh112rcd13ifvqda0","pricing_plan_id":"cebpf4jnsgd1na2vs0mg"},{"bike_id":"4e03fccd-dbbf-4dbc-9ccc-03e8f48f99e2","system_id":"levelo_inurba_marseille","lat":43.33755,"lon":5.37469,"is_reserved":false,"is_disabled":false,"rental_uris":{"android":"levelo://app?vid=4e03fccd-dbbf-4dbc-9ccc-03e8f48f99e2","ios":"levelo://app?vid=4e03fccd-dbbf-4dbc-9ccc-03e8f48f99e2"},"vehicle_type_id":"4","last_reported":1713712026,"current_range_meters":21200,"station_id":"","pricing_plan_id":"cebpf4jnsgd1na2vs0mg"},{"bike_id":"d97f01da-875c-4d15-88a1-96bdbc00b52c","system_id":"levelo_inurba_marseille","lat":43.30647,"lon":5.40102,"is_reserved":false,"is_disabled":false,"rental_uris":{"android":"levelo://app?vid=d97f01da-875c-4d15-88a1-96bdbc00b52c","ios":"levelo://app?vid=d97f01da-875c-4d15-88a1-96bdbc00b52c"},"vehicle_type_id":"4","last_reported":1713712026,"current_range_meters":0,"station_id":"ce4bh112rcd13ifvqda0","pricing_plan_id":"cebpf4jnsgd1na2vs0mg"},{"bike_id":"207257b1-4481-4558-9c9f-c8c0a446632d","system_id":"levelo_inurba_marseille","lat":43.30135,"lon":5.39864,"is_reserved":false,"is_disabled":false,"rental_uris":{"android":"levelo://app?vid=207257b1-4481-4558-9c9f-c8c0a446632d","ios":"levelo://app?vid=207257b1-4481-4558-9c9f-c8c0a446632d"},"vehicle_type_id":"4","last_reported":1713712026,"current_range_meters":1600,"station_id":"ce4bh0h2rcd13ifvqd40","pricing_plan_id":"cebpf4jnsgd1na2vs0mg"},{"bike_id":"7a8e329e-4559-47a2-9232-a8f01a277282","system_id":"levelo_inurba_marseille","lat":43.28727,"lon":5.36078,"is_reserved":false,"is_disabled":false,"rental_uris":{"android":"levelo://app?vid=7a8e329e-4559-47a2-9232-a8f01a277282","ios":"levelo://app?vid=7a8e329e-4559-47a2-9232-a8f01a277282"},"vehicle_type_id":"4","last_reported":1713712026,"current_range_meters":15600,"station_id":"cki0cbj6b192h4jlfktg","pricing_plan_id":"cebpf4jnsgd1na2vs0mg"},{"bike_id":"e1466649-d701-4180-8938-a029ab645088","system_id":"levelo_inurba_marseille","lat":43.286591,"lon":5.363346,"is_reserved":false,"is_disabled":false,"rental_uris":{"android":"levelo://app?vid=e1466649-d701-4180-8938-a029ab645088","ios":"levelo://app?vid=e1466649-d701-4180-8938-a029ab645088"},"vehicle_type_id":"4","last_reported":1713712026,"current_range_meters":800,"station_id":"ce4bhah2rcd13ifvqej0","pricing_plan_id":"cebpf4jnsgd1na2vs0mg"},{"bike_id":"d9736aa9-83cb-43a3-afb3-e39d8e1c6ccc","system_id":"levelo_inurba_marseille","lat":43.286593,"lon":5.363346,"is_reserved":false,"is_disabled":false,"rental_uris":{"android":"levelo://app?vid=d9736aa9-83cb-43a3-afb3-e39d8e1c6ccc","ios":"levelo://app?vid=d9736aa9-83cb-43a3-afb3-e39d8e1c6ccc"},"vehicle_type_id":"4","last_reported":1713712026,"current_range_meters":0,"station_id":"ce4bhah2rcd13ifvqej0","pricing_plan_id":"cebpf4jnsgd1na2vs0mg"},{"bike_id":"453262c4-1e9e-47d3-a52f-b93844f6262a","system_id":"levelo_inurba_marseille","lat":43.286961,"lon":5.373785,"is_reserved":false,"is_disabled":false,"rental_uris":{"android":"levelo://app?vid=453262c4-1e9e-47d3-a52f-b93844f6262a","ios":"levelo://app?vid=453262c4-1e9e-47d3-a52f-b93844f6262a"},"vehicle_type_id":"4","last_reported":1713712026,"current_range_meters":4800,"station_id":"ce4bh3p2rcd13ifvqdq0","pricing_plan_id":"cebpf4jnsgd1na2vs0mg"},{"bike_id":"a6d4f1c9-f932-42aa-8c61-09b65631794d","system_id":"levelo_inurba_marseille","lat":43.286593,"lon":5.363346,"is_reserved":false,"is_disabled":false,"rental_uris":{"android":"levelo://app?vid=a6d4f1c9-f932-42aa-8c61-09b65631794d","ios":"levelo://app?vid=a6d4f1c9-f932-42aa-8c61-09b65631794d"},"vehicle_type_id":"4","last_reported":1713712026,"current_range_meters":4000,"station_id":"ce4bhah2rcd13ifvqej0","pricing_plan_id":"cebpf4jnsgd1na2vs0mg"},{"bike_id":"0d420c30-5f5b-41ed-996b-54d3fa956803","system_id":"levelo_inurba_marseille","lat":43.286591,"lon":5.363346,"is_reserved":false,"is_disabled":false,"rental_uris":{"android":"levelo://app?vid=0d420c30-5f5b-41ed-996b-54d3fa956803","ios":"levelo://app?vid=0d420c30-5f5b-41ed-996b-54d3fa956803"},"vehicle_type_id":"4","last_reported":1713712026,"current_range_meters":0,"station_id":"ce4bhah2rcd13ifvqej0","pricing_plan_id":"cebpf4jnsgd1na2vs0mg"},{"bike_id":"69bb873f-f404-430a-9b53-ed9611f0facc","system_id":"levelo_inurba_marseille","lat":43.289307,"lon":5.38406,"is_reserved":false,"is_disabled":false,"rental_uris":{"android":"levelo://app?vid=69bb873f-f404-430a-9b53-ed9611f0facc","ios":"levelo://app?vid=69bb873f-f404-430a-9b53-ed9611f0facc"},"vehicle_type_id":"4","last_reported":1713712026,"current_range_meters":7600,"station_id":"ce4bh612rcd13ifvqe6g","pricing_plan_id":"cebpf4jnsgd1na2vs0mg"},{"bike_id":"abe41a48-5a11-4999-ba27-d35ddfb00b1e","system_id":"levelo_inurba_marseille","lat":43.290336,"lon":5.386425,"is_reserved":false,"is_disabled":false,"rental_uris":{"android":"levelo://app?vid=abe41a48-5a11-4999-ba27-d35ddfb00b1e","ios":"levelo://app?vid=abe41a48-5a11-4999-ba27-d35ddfb00b1e"},"vehicle_type_id":"4","last_reported":1713712026,"current_range_meters":14400,"station_id":"ce4bh4p2rcd13ifvqe0g","pricing_plan_id":"cebpf4jnsgd1na2vs0mg"},{"bike_id":"e13b4f5b-85f8-494b-9223-dea5439a1bdc","system_id":"levelo_inurba_marseille","lat":43.289307,"lon":5.38406,"is_reserved":false,"is_disabled":false,"rental_uris":{"android":"levelo://app?vid=e13b4f5b-85f8-494b-9223-dea5439a1bdc","ios":"levelo://app?vid=e13b4f5b-85f8-494b-9223-dea5439a1bdc"},"vehicle_type_id":"4","last_reported":1713712026,"current_range_meters":0,"station_id":"ce4bh612rcd13ifvqe6g","pricing_plan_id":"cebpf4jnsgd1na2vs0mg"},{"bike_id":"cb8e5b4b-97b3-4a98-abba-54e0a4f5bbff","system_id":"levelo_inurba_marseille","lat":43.286039,"lon":5.370679,"is_reserved":false,"is_disabled":false,"rental_uris":{"android":"levelo://app?vid=cb8e5b4b-97b3-4a98-abba-54e0a4f5bbff","ios":"levelo://app?vid=cb8e5b4b-97b3-4a98-abba-54e0a4f5bbff"},"vehicle_type_id":"4","last_reported":1713712026,"current_range_meters":10400,"station_id":"ce4bht12rcd13ifvqi60","pricing_plan_id":"cebpf4jnsgd1na2vs0mg"},{"bike_id":"1735b175-f2d3-4928-b0a4-726bb2095bd5","system_id":"levelo_inurba_marseille","lat":43.33396,"lon":5.38956,"is_reserved":false,"is_disabled":false,"rental_uris":{"android":"levelo://app?vid=1735b175-f2d3-4928-b0a4-726bb2095bd5","ios":"levelo://app?vid=1735b175-f2d3-4928-b0a4-726bb2095bd5"},"vehicle_type_id":"4","last_reported":1713712026,"current_range_meters":3600,"station_id":"","pricing_plan_id":"cebpf4jnsgd1na2vs0mg"},{"bike_id":"bf4b41b3-526f-44ad-a3b6-e2b474c131de","system_id":"levelo_inurba_marseille","lat":43.287184,"lon":5.37937,"is_reserved":false,"is_disabled":false,"rental_uris":{"android":"levelo://app?vid=bf4b41b3-526f-44ad-a3b6-e2b474c131de","ios":"levelo://app?vid=bf4b41b3-526f-44ad-a3b6-e2b474c131de"},"vehicle_type_id":"4","last_reported":1713712026,"current_range_meters":17200,"station_id":"ce4bh9p2rcd13ifvqec0","pricing_plan_id":"cebpf4jnsgd1na2vs0mg"},{"bike_id":"ff2062f6-ee43-47f3-bd26-96f2612f3ff7","system_id":"levelo_inurba_marseille","lat":43.28756,"lon":5.35224,"is_reserved":false,"is_disabled":false,"rental_uris":{"android":"levelo://app?vid=ff2062f6-ee43-47f3-bd26-96f2612f3ff7","ios":"levelo://app?vid=ff2062f6-ee43-47f3-bd26-96f2612f3ff7"},"vehicle_type_id":"4","last_reported":1713712026,"current_range_meters":28400,"station_id":"","pricing_plan_id":"cebpf4jnsgd1na2vs0mg"},{"bike_id":"4465b712-0165-4632-bac5-5c143587e67a","system_id":"levelo_inurba_marseille","lat":43.316821,"lon":5.404737,"is_reserved":false,"is_disabled":false,"rental_uris":{"android":"levelo://app?vid=4465b712-0165-4632-bac5-5c143587e67a","ios":"levelo://app?vid=4465b712-0165-4632-bac5-5c143587e67a"},"vehicle_type_id":"4","last_reported":1713712026,"current_range_meters":21600,"station_id":"ce4bh012rcd13ifvqd00","pricing_plan_id":"cebpf4jnsgd1na2vs0mg"},{"bike_id":"7b5baca7-e628-4208-8fef-c9221f4ef94e","system_id":"levelo_inurba_marseille","lat":43.316994,"lon":5.404572,"is_reserved":false,"is_disabled":false,"rental_uris":{"android":"levelo://app?vid=7b5baca7-e628-4208-8fef-c9221f4ef94e","ios":"levelo://app?vid=7b5baca7-e628-4208-8fef-c9221f4ef94e"},"vehicle_type_id":"4","last_reported":1713712026,"current_range_meters":0,"station_id":"ce4bh012rcd13ifvqd00","pricing_plan_id":"cebpf4jnsgd1na2vs0mg"},{"bike_id":"de1aa09c-626c-4dd0-b586-c4d635c4df69","system_id":"levelo_inurba_marseille","lat":43.29041,"lon":5.399634,"is_reserved":false,"is_disabled":false,"rental_uris":{"android":"levelo://app?vid=de1aa09c-626c-4dd0-b586-c4d635c4df69","ios":"levelo://app?vid=de1aa09c-626c-4dd0-b586-c4d635c4df69"},"vehicle_type_id":"4","last_reported":1713712026,"current_range_meters":26400,"station_id":"ce4bh392rcd13ifvqdm0","pricing_plan_id":"cebpf4jnsgd1na2vs0mg"},{"bike_id":"2cab383b-7165-40fa-8a25-a9dbb5c446a4","system_id":"levelo_inurba_marseille","lat":43.331929,"lon":5.3962,"is_reserved":false,"is_disabled":false,"rental_uris":{"android":"levelo://app?vid=2cab383b-7165-40fa-8a25-a9dbb5c446a4","ios":"levelo://app?vid=2cab383b-7165-40fa-8a25-a9dbb5c446a4"},"vehicle_type_id":"4","last_reported":1713712026,"current_range_meters":400,"station_id":"","pricing_plan_id":"cebpf4jnsgd1na2vs0mg"},{"bike_id":"e1cc5069-263f-4418-a592-431c7fea04e7","system_id":"levelo_inurba_marseille","lat":43.284538,"lon":5.358657,"is_reserved":false,"is_disabled":false,"rental_uris":{"android":"levelo://app?vid=e1cc5069-263f-4418-a592-431c7fea04e7","ios":"levelo://app?vid=e1cc5069-263f-4418-a592-431c7fea04e7"},"vehicle_type_id":"4","last_reported":1713712026,"current_range_meters":0,"station_id":"ce4bhah2rcd13ifvqei0","pricing_plan_id":"cebpf4jnsgd1na2vs0mg"},{"bike_id":"8331ad72-2383-4592-a63d-7133b40b0002","system_id":"levelo_inurba_marseille","lat":43.29447,"lon":5.397543,"is_reserved":false,"is_disabled":false,"rental_uris":{"android":"levelo://app?vid=8331ad72-2383-4592-a63d-7133b40b0002","ios":"levelo://app?vid=8331ad72-2383-4592-a63d-7133b40b0002"},"vehicle_type_id":"4","last_reported":1713712026,"current_range_meters":0,"station_id":"ce4bh3h2rcd13ifvqdo0","pricing_plan_id":"cebpf4jnsgd1na2vs0mg"},{"bike_id":"11581f16-996d-4ec4-8e7c-56ccedca21de","system_id":"levelo_inurba_marseille","lat":43.28625,"lon":5.351,"is_reserved":false,"is_disabled":false,"rental_uris":{"android":"levelo://app?vid=11581f16-996d-4ec4-8e7c-56ccedca21de","ios":"levelo://app?vid=11581f16-996d-4ec4-8e7c-56ccedca21de"},"vehicle_type_id":"4","last_reported":1713712026,"current_range_meters":7600,"station_id":"ce4bhch2rcd13ifvqeug","pricing_plan_id":"cebpf4jnsgd1na2vs0mg"},{"bike_id":"4c48cde2-e063-4069-aa1f-c23f21e07516","system_id":"levelo_inurba_marseille","lat":43.28619,"lon":5.3511,"is_reserved":false,"is_disabled":false,"rental_uris":{"android":"levelo://app?vid=4c48cde2-e063-4069-aa1f-c23f21e07516","ios":"levelo://app?vid=4c48cde2-e063-4069-aa1f-c23f21e07516"},"vehicle_type_id":"4","last_reported":1713712026,"current_range_meters":0,"station_id":"ce4bhch2rcd13ifvqeug","pricing_plan_id":"cebpf4jnsgd1na2vs0mg"},{"bike_id":"4e5d3fd6-a2b6-48d4-a517-2ac83d06abf6","system_id":"levelo_inurba_marseille","lat":43.28619,"lon":5.35109,"is_reserved":false,"is_disabled":false,"rental_uris":{"android":"levelo://app?vid=4e5d3fd6-a2b6-48d4-a517-2ac83d06abf6","ios":"levelo://app?vid=4e5d3fd6-a2b6-48d4-a517-2ac83d06abf6"},"vehicle_type_id":"4","last_reported":1713712026,"current_range_meters":5200,"station_id":"ce4bhch2rcd13ifvqeug","pricing_plan_id":"cebpf4jnsgd1na2vs0mg"},{"bike_id":"1a5605fb-7315-49a8-adea-fffe54f8ab45","system_id":"levelo_inurba_marseille","lat":43.28619,"lon":5.35108,"is_reserved":false,"is_disabled":false,"rental_uris":{"android":"levelo://app?vid=1a5605fb-7315-49a8-adea-fffe54f8ab45","ios":"levelo://app?vid=1a5605fb-7315-49a8-adea-fffe54f8ab45"},"vehicle_type_id":"4","last_reported":1713712026,"current_range_meters":9600,"station_id":"ce4bhch2rcd13ifvqeug","pricing_plan_id":"cebpf4jnsgd1na2vs0mg"},{"bike_id":"c64a97f5-ae36-443f-b475-1b6c6bb44e12","system_id":"levelo_inurba_marseille","lat":43.28619,"lon":5.35107,"is_reserved":false,"is_disabled":false,"rental_uris":{"android":"levelo://app?vid=c64a97f5-ae36-443f-b475-1b6c6bb44e12","ios":"levelo://app?vid=c64a97f5-ae36-443f-b475-1b6c6bb44e12"},"vehicle_type_id":"4","last_reported":1713712026,"current_range_meters":30400,"station_id":"ce4bhch2rcd13ifvqeug","pricing_plan_id":"cebpf4jnsgd1na2vs0mg"},{"bike_id":"e04a5bfe-01b9-461c-95b1-dae03f8210a0","system_id":"levelo_inurba_marseille","lat":43.28619,"lon":5.35103,"is_reserved":false,"is_disabled":false,"rental_uris":{"android":"levelo://app?vid=e04a5bfe-01b9-461c-95b1-dae03f8210a0","ios":"levelo://app?vid=e04a5bfe-01b9-461c-95b1-dae03f8210a0"},"vehicle_type_id":"4","last_reported":1713712026,"current_range_meters":19600,"station_id":"ce4bhch2rcd13ifvqeug","pricing_plan_id":"cebpf4jnsgd1na2vs0mg"},{"bike_id":"bfa1e5b2-55a7-41f4-a195-d4cca65eb9f2","system_id":"levelo_inurba_marseille","lat":43.285848,"lon":5.350787,"is_reserved":false,"is_disabled":false,"rental_uris":{"android":"levelo://app?vid=bfa1e5b2-55a7-41f4-a195-d4cca65eb9f2","ios":"levelo://app?vid=bfa1e5b2-55a7-41f4-a195-d4cca65eb9f2"},"vehicle_type_id":"4","last_reported":1713712026,"current_range_meters":24400,"station_id":"ce4bhch2rcd13ifvqeug","pricing_plan_id":"cebpf4jnsgd1na2vs0mg"},{"bike_id":"86ef51bc-790f-4c58-bf7e-45a610437100","system_id":"levelo_inurba_marseille","lat":43.285856,"lon":5.350771,"is_reserved":false,"is_disabled":false,"rental_uris":{"android":"levelo://app?vid=86ef51bc-790f-4c58-bf7e-45a610437100","ios":"levelo://app?vid=86ef51bc-790f-4c58-bf7e-45a610437100"},"vehicle_type_id":"4","last_reported":1713712026,"current_range_meters":25600,"station_id":"ce4bhch2rcd13ifvqeug","pricing_plan_id":"cebpf4jnsgd1na2vs0mg"},{"bike_id":"fe5f23c7-6457-4eee-8572-a559bb0f80d5","system_id":"levelo_inurba_marseille","lat":43.28616,"lon":5.35103,"is_reserved":false,"is_disabled":false,"rental_uris":{"android":"levelo://app?vid=fe5f23c7-6457-4eee-8572-a559bb0f80d5","ios":"levelo://app?vid=fe5f23c7-6457-4eee-8572-a559bb0f80d5"},"vehicle_type_id":"4","last_reported":1713712026,"current_range_meters":400,"station_id":"ce4bhch2rcd13ifvqeug","pricing_plan_id":"cebpf4jnsgd1na2vs0mg"},{"bike_id":"36b69e5d-fe4d-42a7-b10d-bd31148577e2","system_id":"levelo_inurba_marseille","lat":43.279975,"lon":5.40009,"is_reserved":false,"is_disabled":false,"rental_uris":{"android":"levelo://app?vid=36b69e5d-fe4d-42a7-b10d-bd31148577e2","ios":"levelo://app?vid=36b69e5d-fe4d-42a7-b10d-bd31148577e2"},"vehicle_type_id":"4","last_reported":1713712026,"current_range_meters":400,"station_id":"ce4bho92rcd13ifvqh4g","pricing_plan_id":"cebpf4jnsgd1na2vs0mg"},{"bike_id":"23cef27f-a796-4c9a-adff-0528344cca05","system_id":"levelo_inurba_marseille","lat":43.28612,"lon":5.35114,"is_reserved":false,"is_disabled":false,"rental_uris":{"android":"levelo://app?vid=23cef27f-a796-4c9a-adff-0528344cca05","ios":"levelo://app?vid=23cef27f-a796-4c9a-adff-0528344cca05"},"vehicle_type_id":"4","last_reported":1713712026,"current_range_meters":31200,"station_id":"ce4bhch2rcd13ifvqeug","pricing_plan_id":"cebpf4jnsgd1na2vs0mg"},{"bike_id":"cf95ea42-7159-4aa8-b844-9be027e03079","system_id":"levelo_inurba_marseille","lat":43.285856,"lon":5.350771,"is_reserved":false,"is_disabled":false,"rental_uris":{"android":"levelo://app?vid=cf95ea42-7159-4aa8-b844-9be027e03079","ios":"levelo://app?vid=cf95ea42-7159-4aa8-b844-9be027e03079"},"vehicle_type_id":"4","last_reported":1713712026,"current_range_meters":4000,"station_id":"ce4bhch2rcd13ifvqeug","pricing_plan_id":"cebpf4jnsgd1na2vs0mg"},{"bike_id":"82c1e376-f065-4d6c-80ea-1d8515b632fd","system_id":"levelo_inurba_marseille","lat":43.28611,"lon":5.35107,"is_reserved":false,"is_disabled":false,"rental_uris":{"android":"levelo://app?vid=82c1e376-f065-4d6c-80ea-1d8515b632fd","ios":"levelo://app?vid=82c1e376-f065-4d6c-80ea-1d8515b632fd"},"vehicle_type_id":"4","last_reported":1713712026,"current_range_meters":12800,"station_id":"ce4bhch2rcd13ifvqeug","pricing_plan_id":"cebpf4jnsgd1na2vs0mg"},{"bike_id":"63ccd5df-0c61-4e05-bb0d-3904e0b362b7","system_id":"levelo_inurba_marseille","lat":43.285856,"lon":5.350771,"is_reserved":false,"is_disabled":false,"rental_uris":{"android":"levelo://app?vid=63ccd5df-0c61-4e05-bb0d-3904e0b362b7","ios":"levelo://app?vid=63ccd5df-0c61-4e05-bb0d-3904e0b362b7"},"vehicle_type_id":"4","last_reported":1713712026,"current_range_meters":31200,"station_id":"ce4bhch2rcd13ifvqeug","pricing_plan_id":"cebpf4jnsgd1na2vs0mg"},{"bike_id":"f4f1a2d1-e3f1-4278-baa7-96ba3c9ee5ce","system_id":"levelo_inurba_marseille","lat":43.286094,"lon":5.35107,"is_reserved":false,"is_disabled":false,"rental_uris":{"android":"levelo://app?vid=f4f1a2d1-e3f1-4278-baa7-96ba3c9ee5ce","ios":"levelo://app?vid=f4f1a2d1-e3f1-4278-baa7-96ba3c9ee5ce"},"vehicle_type_id":"4","last_reported":1713712026,"current_range_meters":7600,"station_id":"ce4bhch2rcd13ifvqeug","pricing_plan_id":"cebpf4jnsgd1na2vs0mg"},{"bike_id":"60b2cd7f-abee-4033-af29-bfa2d5cc8348","system_id":"levelo_inurba_marseille","lat":43.290103,"lon":5.356114,"is_reserved":false,"is_disabled":false,"rental_uris":{"android":"levelo://app?vid=60b2cd7f-abee-4033-af29-bfa2d5cc8348","ios":"levelo://app?vid=60b2cd7f-abee-4033-af29-bfa2d5cc8348"},"vehicle_type_id":"4","last_reported":1713712026,"current_range_meters":11600,"station_id":"ce4bhb92rcd13ifvqen0","pricing_plan_id":"cebpf4jnsgd1na2vs0mg"},{"bike_id":"76706fec-8b8a-4721-b4e3-0f88f8f05aee","system_id":"levelo_inurba_marseille","lat":43.316497,"lon":5.406764,"is_reserved":false,"is_disabled":false,"rental_uris":{"android":"levelo://app?vid=76706fec-8b8a-4721-b4e3-0f88f8f05aee","ios":"levelo://app?vid=76706fec-8b8a-4721-b4e3-0f88f8f05aee"},"vehicle_type_id":"4","last_reported":1713712026,"current_range_meters":20800,"station_id":"","pricing_plan_id":"cebpf4jnsgd1na2vs0mg"},{"bike_id":"e0328c33-c57a-453e-bd0b-2b57abd7cf66","system_id":"levelo_inurba_marseille","lat":43.285856,"lon":5.350771,"is_reserved":false,"is_disabled":false,"rental_uris":{"android":"levelo://app?vid=e0328c33-c57a-453e-bd0b-2b57abd7cf66","ios":"levelo://app?vid=e0328c33-c57a-453e-bd0b-2b57abd7cf66"},"vehicle_type_id":"4","last_reported":1713712026,"current_range_meters":21200,"station_id":"ce4bhch2rcd13ifvqeug","pricing_plan_id":"cebpf4jnsgd1na2vs0mg"},{"bike_id":"1444ea02-a9d8-4462-91d4-f62ade0013f0","system_id":"levelo_inurba_marseille","lat":43.2878,"lon":5.38913,"is_reserved":false,"is_disabled":false,"rental_uris":{"android":"levelo://app?vid=1444ea02-a9d8-4462-91d4-f62ade0013f0","ios":"levelo://app?vid=1444ea02-a9d8-4462-91d4-f62ade0013f0"},"vehicle_type_id":"4","last_reported":1713712026,"current_range_meters":20400,"station_id":"","pricing_plan_id":"cebpf4jnsgd1na2vs0mg"},{"bike_id":"118a54a4-597d-4a3c-bc9e-7476c4c30c8e","system_id":"levelo_inurba_marseille","lat":43.319179,"lon":5.407725,"is_reserved":false,"is_disabled":false,"rental_uris":{"android":"levelo://app?vid=118a54a4-597d-4a3c-bc9e-7476c4c30c8e","ios":"levelo://app?vid=118a54a4-597d-4a3c-bc9e-7476c4c30c8e"},"vehicle_type_id":"4","last_reported":1713712026,"current_range_meters":26800,"station_id":"ce4bhq12rcd13ifvqhig","pricing_plan_id":"cebpf4jnsgd1na2vs0mg"},{"bike_id":"abf5e877-ca5e-4e2c-8392-cd4080fda55a","system_id":"levelo_inurba_marseille","lat":43.284787,"lon":5.384116,"is_reserved":false,"is_disabled":false,"rental_uris":{"android":"levelo://app?vid=abf5e877-ca5e-4e2c-8392-cd4080fda55a","ios":"levelo://app?vid=abf5e877-ca5e-4e2c-8392-cd4080fda55a"},"vehicle_type_id":"4","last_reported":1713712026,"current_range_meters":12000,"station_id":"ce4bh512rcd13ifvqe3g","pricing_plan_id":"cebpf4jnsgd1na2vs0mg"},{"bike_id":"f2b0cf0f-ce4c-4d32-a56a-f16805b0dd24","system_id":"levelo_inurba_marseille","lat":43.283498,"lon":5.380948,"is_reserved":false,"is_disabled":false,"rental_uris":{"android":"levelo://app?vid=f2b0cf0f-ce4c-4d32-a56a-f16805b0dd24","ios":"levelo://app?vid=f2b0cf0f-ce4c-4d32-a56a-f16805b0dd24"},"vehicle_type_id":"4","last_reported":1713712026,"current_range_meters":12000,"station_id":"ce4bh412rcd13ifvqdr0","pricing_plan_id":"cebpf4jnsgd1na2vs0mg"},{"bike_id":"e7e93705-1743-4282-9f66-91f0912fde4b","system_id":"levelo_inurba_marseille","lat":43.283498,"lon":5.380948,"is_reserved":false,"is_disabled":false,"rental_uris":{"android":"levelo://app?vid=e7e93705-1743-4282-9f66-91f0912fde4b","ios":"levelo://app?vid=e7e93705-1743-4282-9f66-91f0912fde4b"},"vehicle_type_id":"4","last_reported":1713712026,"current_range_meters":20400,"station_id":"ce4bh412rcd13ifvqdr0","pricing_plan_id":"cebpf4jnsgd1na2vs0mg"},{"bike_id":"353d92ea-18f8-41b4-9d40-742e2b2c54d3","system_id":"levelo_inurba_marseille","lat":43.32523,"lon":5.40576,"is_reserved":false,"is_disabled":false,"rental_uris":{"android":"levelo://app?vid=353d92ea-18f8-41b4-9d40-742e2b2c54d3","ios":"levelo://app?vid=353d92ea-18f8-41b4-9d40-742e2b2c54d3"},"vehicle_type_id":"4","last_reported":1713712026,"current_range_meters":6800,"station_id":"","pricing_plan_id":"cebpf4jnsgd1na2vs0mg"},{"bike_id":"c606089d-f7ee-436b-b376-05043a6ebf7f","system_id":"levelo_inurba_marseille","lat":43.32526,"lon":5.405792,"is_reserved":false,"is_disabled":false,"rental_uris":{"android":"levelo://app?vid=c606089d-f7ee-436b-b376-05043a6ebf7f","ios":"levelo://app?vid=c606089d-f7ee-436b-b376-05043a6ebf7f"},"vehicle_type_id":"4","last_reported":1713712026,"current_range_meters":3200,"station_id":"","pricing_plan_id":"cebpf4jnsgd1na2vs0mg"},{"bike_id":"6a26301c-d8e5-4370-a4c1-f5346287043b","system_id":"levelo_inurba_marseille","lat":43.28436,"lon":5.34986,"is_reserved":false,"is_disabled":false,"rental_uris":{"android":"levelo://app?vid=6a26301c-d8e5-4370-a4c1-f5346287043b","ios":"levelo://app?vid=6a26301c-d8e5-4370-a4c1-f5346287043b"},"vehicle_type_id":"4","last_reported":1713712026,"current_range_meters":11600,"station_id":"ce4bhbh2rcd13ifvqepg","pricing_plan_id":"cebpf4jnsgd1na2vs0mg"},{"bike_id":"c479fe04-dae4-4884-9644-ab8038ea7f4e","system_id":"levelo_inurba_marseille","lat":43.284214,"lon":5.349706,"is_reserved":false,"is_disabled":false,"rental_uris":{"android":"levelo://app?vid=c479fe04-dae4-4884-9644-ab8038ea7f4e","ios":"levelo://app?vid=c479fe04-dae4-4884-9644-ab8038ea7f4e"},"vehicle_type_id":"4","last_reported":1713712026,"current_range_meters":8400,"station_id":"ce4bhbh2rcd13ifvqepg","pricing_plan_id":"cebpf4jnsgd1na2vs0mg"},{"bike_id":"5c6278b7-f6fb-4e72-845d-e934a6a6a342","system_id":"levelo_inurba_marseille","lat":43.284214,"lon":5.349706,"is_reserved":false,"is_disabled":false,"rental_uris":{"android":"levelo://app?vid=5c6278b7-f6fb-4e72-845d-e934a6a6a342","ios":"levelo://app?vid=5c6278b7-f6fb-4e72-845d-e934a6a6a342"},"vehicle_type_id":"4","last_reported":1713712026,"current_range_meters":27200,"station_id":"ce4bhbh2rcd13ifvqepg","pricing_plan_id":"cebpf4jnsgd1na2vs0mg"},{"bike_id":"ee89d195-9416-4a0c-86a9-f091dbf0a6c7","system_id":"levelo_inurba_marseille","lat":43.28428,"lon":5.34994,"is_reserved":false,"is_disabled":false,"rental_uris":{"android":"levelo://app?vid=ee89d195-9416-4a0c-86a9-f091dbf0a6c7","ios":"levelo://app?vid=ee89d195-9416-4a0c-86a9-f091dbf0a6c7"},"vehicle_type_id":"4","last_reported":1713712026,"current_range_meters":13600,"station_id":"ce4bhbh2rcd13ifvqepg","pricing_plan_id":"cebpf4jnsgd1na2vs0mg"},{"bike_id":"5dca6343-0b9d-4d2d-b7fa-5ead58cf42cb","system_id":"levelo_inurba_marseille","lat":43.284286,"lon":5.34992,"is_reserved":false,"is_disabled":false,"rental_uris":{"android":"levelo://app?vid=5dca6343-0b9d-4d2d-b7fa-5ead58cf42cb","ios":"levelo://app?vid=5dca6343-0b9d-4d2d-b7fa-5ead58cf42cb"},"vehicle_type_id":"4","last_reported":1713712026,"current_range_meters":5200,"station_id":"ce4bhbh2rcd13ifvqepg","pricing_plan_id":"cebpf4jnsgd1na2vs0mg"},{"bike_id":"c1b5268f-e998-4f5c-baff-0f0c09829f8e","system_id":"levelo_inurba_marseille","lat":43.28425,"lon":5.34995,"is_reserved":false,"is_disabled":false,"rental_uris":{"android":"levelo://app?vid=c1b5268f-e998-4f5c-baff-0f0c09829f8e","ios":"levelo://app?vid=c1b5268f-e998-4f5c-baff-0f0c09829f8e"},"vehicle_type_id":"4","last_reported":1713712026,"current_range_meters":9600,"station_id":"ce4bhbh2rcd13ifvqepg","pricing_plan_id":"cebpf4jnsgd1na2vs0mg"},{"bike_id":"cbf153d3-daff-455c-9f97-f21966562f29","system_id":"levelo_inurba_marseille","lat":43.28427,"lon":5.349877,"is_reserved":false,"is_disabled":false,"rental_uris":{"android":"levelo://app?vid=cbf153d3-daff-455c-9f97-f21966562f29","ios":"levelo://app?vid=cbf153d3-daff-455c-9f97-f21966562f29"},"vehicle_type_id":"4","last_reported":1713712026,"current_range_meters":19200,"station_id":"ce4bhbh2rcd13ifvqepg","pricing_plan_id":"cebpf4jnsgd1na2vs0mg"},{"bike_id":"8104d8e0-0ee5-4a50-8d94-5b7f2c9d9f4a","system_id":"levelo_inurba_marseille","lat":43.28424,"lon":5.349941,"is_reserved":false,"is_disabled":false,"rental_uris":{"android":"levelo://app?vid=8104d8e0-0ee5-4a50-8d94-5b7f2c9d9f4a","ios":"levelo://app?vid=8104d8e0-0ee5-4a50-8d94-5b7f2c9d9f4a"},"vehicle_type_id":"4","last_reported":1713712026,"current_range_meters":19600,"station_id":"ce4bhbh2rcd13ifvqepg","pricing_plan_id":"cebpf4jnsgd1na2vs0mg"},{"bike_id":"32647cb8-594a-41c2-a8d2-21d26342625b","system_id":"levelo_inurba_marseille","lat":43.284258,"lon":5.34985,"is_reserved":false,"is_disabled":false,"rental_uris":{"android":"levelo://app?vid=32647cb8-594a-41c2-a8d2-21d26342625b","ios":"levelo://app?vid=32647cb8-594a-41c2-a8d2-21d26342625b"},"vehicle_type_id":"4","last_reported":1713712026,"current_range_meters":23200,"station_id":"ce4bhbh2rcd13ifvqepg","pricing_plan_id":"cebpf4jnsgd1na2vs0mg"},{"bike_id":"fd00098d-1ac7-46ac-b4b6-9f8b0f4a064b","system_id":"levelo_inurba_marseille","lat":43.284217,"lon":5.349697,"is_reserved":false,"is_disabled":false,"rental_uris":{"android":"levelo://app?vid=fd00098d-1ac7-46ac-b4b6-9f8b0f4a064b","ios":"levelo://app?vid=fd00098d-1ac7-46ac-b4b6-9f8b0f4a064b"},"vehicle_type_id":"4","last_reported":1713712026,"current_range_meters":16400,"station_id":"ce4bhbh2rcd13ifvqepg","pricing_plan_id":"cebpf4jnsgd1na2vs0mg"},{"bike_id":"139d6be4-31fe-41bc-bdac-47ed5be6b6a7","system_id":"levelo_inurba_marseille","lat":43.284214,"lon":5.349706,"is_reserved":false,"is_disabled":false,"rental_uris":{"android":"levelo://app?vid=139d6be4-31fe-41bc-bdac-47ed5be6b6a7","ios":"levelo://app?vid=139d6be4-31fe-41bc-bdac-47ed5be6b6a7"},"vehicle_type_id":"4","last_reported":1713712026,"current_range_meters":3200,"station_id":"ce4bhbh2rcd13ifvqepg","pricing_plan_id":"cebpf4jnsgd1na2vs0mg"},{"bike_id":"f031f153-d845-4824-b46f-fd8dd4533181","system_id":"levelo_inurba_marseille","lat":43.284217,"lon":5.349697,"is_reserved":false,"is_disabled":false,"rental_uris":{"android":"levelo://app?vid=f031f153-d845-4824-b46f-fd8dd4533181","ios":"levelo://app?vid=f031f153-d845-4824-b46f-fd8dd4533181"},"vehicle_type_id":"4","last_reported":1713712026,"current_range_meters":28000,"station_id":"ce4bhbh2rcd13ifvqepg","pricing_plan_id":"cebpf4jnsgd1na2vs0mg"},{"bike_id":"39ea1ed7-63ff-4bb1-9167-5c52fd09e395","system_id":"levelo_inurba_marseille","lat":43.284262,"lon":5.349798,"is_reserved":false,"is_disabled":false,"rental_uris":{"android":"levelo://app?vid=39ea1ed7-63ff-4bb1-9167-5c52fd09e395","ios":"levelo://app?vid=39ea1ed7-63ff-4bb1-9167-5c52fd09e395"},"vehicle_type_id":"4","last_reported":1713712026,"current_range_meters":20800,"station_id":"ce4bhbh2rcd13ifvqepg","pricing_plan_id":"cebpf4jnsgd1na2vs0mg"},{"bike_id":"3d331aa3-9677-4cc1-9db9-d43d415d789f","system_id":"levelo_inurba_marseille","lat":43.284214,"lon":5.349706,"is_reserved":false,"is_disabled":false,"rental_uris":{"android":"levelo://app?vid=3d331aa3-9677-4cc1-9db9-d43d415d789f","ios":"levelo://app?vid=3d331aa3-9677-4cc1-9db9-d43d415d789f"},"vehicle_type_id":"4","last_reported":1713712026,"current_range_meters":7600,"station_id":"ce4bhbh2rcd13ifvqepg","pricing_plan_id":"cebpf4jnsgd1na2vs0mg"},{"bike_id":"f324760f-a9b7-420b-8d7f-b1aa0d05a1ec","system_id":"levelo_inurba_marseille","lat":43.284233,"lon":5.349888,"is_reserved":false,"is_disabled":false,"rental_uris":{"android":"levelo://app?vid=f324760f-a9b7-420b-8d7f-b1aa0d05a1ec","ios":"levelo://app?vid=f324760f-a9b7-420b-8d7f-b1aa0d05a1ec"},"vehicle_type_id":"4","last_reported":1713712026,"current_range_meters":21600,"station_id":"ce4bhbh2rcd13ifvqepg","pricing_plan_id":"cebpf4jnsgd1na2vs0mg"},{"bike_id":"4e430c2a-dd6d-4792-a91f-e43e317c2707","system_id":"levelo_inurba_marseille","lat":43.28423,"lon":5.34988,"is_reserved":false,"is_disabled":false,"rental_uris":{"android":"levelo://app?vid=4e430c2a-dd6d-4792-a91f-e43e317c2707","ios":"levelo://app?vid=4e430c2a-dd6d-4792-a91f-e43e317c2707"},"vehicle_type_id":"4","last_reported":1713712026,"current_range_meters":20000,"station_id":"ce4bhbh2rcd13ifvqepg","pricing_plan_id":"cebpf4jnsgd1na2vs0mg"},{"bike_id":"cb845176-643f-41ec-bb7e-6e6eb9cc9861","system_id":"levelo_inurba_marseille","lat":43.284222,"lon":5.34988,"is_reserved":false,"is_disabled":false,"rental_uris":{"android":"levelo://app?vid=cb845176-643f-41ec-bb7e-6e6eb9cc9861","ios":"levelo://app?vid=cb845176-643f-41ec-bb7e-6e6eb9cc9861"},"vehicle_type_id":"4","last_reported":1713712026,"current_range_meters":8000,"station_id":"ce4bhbh2rcd13ifvqepg","pricing_plan_id":"cebpf4jnsgd1na2vs0mg"},{"bike_id":"e6fab30b-4f72-4b60-a634-08fefc2efb9e","system_id":"levelo_inurba_marseille","lat":43.284214,"lon":5.349896,"is_reserved":false,"is_disabled":false,"rental_uris":{"android":"levelo://app?vid=e6fab30b-4f72-4b60-a634-08fefc2efb9e","ios":"levelo://app?vid=e6fab30b-4f72-4b60-a634-08fefc2efb9e"},"vehicle_type_id":"4","last_reported":1713712026,"current_range_meters":6800,"station_id":"ce4bhbh2rcd13ifvqepg","pricing_plan_id":"cebpf4jnsgd1na2vs0mg"},{"bike_id":"91b897fc-b967-48a3-9b43-0946795938a8","system_id":"levelo_inurba_marseille","lat":43.284193,"lon":5.34993,"is_reserved":false,"is_disabled":false,"rental_uris":{"android":"levelo://app?vid=91b897fc-b967-48a3-9b43-0946795938a8","ios":"levelo://app?vid=91b897fc-b967-48a3-9b43-0946795938a8"},"vehicle_type_id":"4","last_reported":1713712026,"current_range_meters":16400,"station_id":"ce4bhbh2rcd13ifvqepg","pricing_plan_id":"cebpf4jnsgd1na2vs0mg"},{"bike_id":"1233e84b-5f80-4f2f-8e44-0e93ee32ce4c","system_id":"levelo_inurba_marseille","lat":43.284206,"lon":5.349866,"is_reserved":false,"is_disabled":false,"rental_uris":{"android":"levelo://app?vid=1233e84b-5f80-4f2f-8e44-0e93ee32ce4c","ios":"levelo://app?vid=1233e84b-5f80-4f2f-8e44-0e93ee32ce4c"},"vehicle_type_id":"4","last_reported":1713712026,"current_range_meters":3600,"station_id":"ce4bhbh2rcd13ifvqepg","pricing_plan_id":"cebpf4jnsgd1na2vs0mg"},{"bike_id":"4fa64241-4734-4b9a-b55a-8a0db3862c81","system_id":"levelo_inurba_marseille","lat":43.2842,"lon":5.34985,"is_reserved":false,"is_disabled":false,"rental_uris":{"android":"levelo://app?vid=4fa64241-4734-4b9a-b55a-8a0db3862c81","ios":"levelo://app?vid=4fa64241-4734-4b9a-b55a-8a0db3862c81"},"vehicle_type_id":"4","last_reported":1713712026,"current_range_meters":12400,"station_id":"ce4bhbh2rcd13ifvqepg","pricing_plan_id":"cebpf4jnsgd1na2vs0mg"},{"bike_id":"d3a883c6-71d0-4755-ad75-8bbdb291ffc0","system_id":"levelo_inurba_marseille","lat":43.284172,"lon":5.349914,"is_reserved":false,"is_disabled":false,"rental_uris":{"android":"levelo://app?vid=d3a883c6-71d0-4755-ad75-8bbdb291ffc0","ios":"levelo://app?vid=d3a883c6-71d0-4755-ad75-8bbdb291ffc0"},"vehicle_type_id":"4","last_reported":1713712026,"current_range_meters":4800,"station_id":"ce4bhbh2rcd13ifvqepg","pricing_plan_id":"cebpf4jnsgd1na2vs0mg"},{"bike_id":"3b9615f0-1448-4fdf-b887-d5d1c1c462cf","system_id":"levelo_inurba_marseille","lat":43.28419,"lon":5.349842,"is_reserved":false,"is_disabled":false,"rental_uris":{"android":"levelo://app?vid=3b9615f0-1448-4fdf-b887-d5d1c1c462cf","ios":"levelo://app?vid=3b9615f0-1448-4fdf-b887-d5d1c1c462cf"},"vehicle_type_id":"4","last_reported":1713712026,"current_range_meters":6800,"station_id":"ce4bhbh2rcd13ifvqepg","pricing_plan_id":"cebpf4jnsgd1na2vs0mg"},{"bike_id":"0a5b8cb9-92af-4097-81aa-a16688dba32f","system_id":"levelo_inurba_marseille","lat":43.284144,"lon":5.34993,"is_reserved":false,"is_disabled":false,"rental_uris":{"android":"levelo://app?vid=0a5b8cb9-92af-4097-81aa-a16688dba32f","ios":"levelo://app?vid=0a5b8cb9-92af-4097-81aa-a16688dba32f"},"vehicle_type_id":"4","last_reported":1713712026,"current_range_meters":31200,"station_id":"ce4bhbh2rcd13ifvqepg","pricing_plan_id":"cebpf4jnsgd1na2vs0mg"},{"bike_id":"893f67c3-4e0c-4c1e-b3ac-9ff8bec0305a","system_id":"levelo_inurba_marseille","lat":43.284163,"lon":5.349865,"is_reserved":false,"is_disabled":false,"rental_uris":{"android":"levelo://app?vid=893f67c3-4e0c-4c1e-b3ac-9ff8bec0305a","ios":"levelo://app?vid=893f67c3-4e0c-4c1e-b3ac-9ff8bec0305a"},"vehicle_type_id":"4","last_reported":1713712026,"current_range_meters":24000,"station_id":"ce4bhbh2rcd13ifvqepg","pricing_plan_id":"cebpf4jnsgd1na2vs0mg"},{"bike_id":"504bea48-6e96-4ea7-84e2-bad6c345c25f","system_id":"levelo_inurba_marseille","lat":43.28419,"lon":5.34976,"is_reserved":false,"is_disabled":false,"rental_uris":{"android":"levelo://app?vid=504bea48-6e96-4ea7-84e2-bad6c345c25f","ios":"levelo://app?vid=504bea48-6e96-4ea7-84e2-bad6c345c25f"},"vehicle_type_id":"4","last_reported":1713712026,"current_range_meters":0,"station_id":"ce4bhbh2rcd13ifvqepg","pricing_plan_id":"cebpf4jnsgd1na2vs0mg"},{"bike_id":"920bbde1-55f6-4df8-b037-9f477bf1ea98","system_id":"levelo_inurba_marseille","lat":43.284163,"lon":5.349826,"is_reserved":false,"is_disabled":false,"rental_uris":{"android":"levelo://app?vid=920bbde1-55f6-4df8-b037-9f477bf1ea98","ios":"levelo://app?vid=920bbde1-55f6-4df8-b037-9f477bf1ea98"},"vehicle_type_id":"4","last_reported":1713712026,"current_range_meters":17200,"station_id":"ce4bhbh2rcd13ifvqepg","pricing_plan_id":"cebpf4jnsgd1na2vs0mg"},{"bike_id":"b64c5955-1ac6-4570-826b-601c4ae7ee8a","system_id":"levelo_inurba_marseille","lat":43.284138,"lon":5.349899,"is_reserved":false,"is_disabled":false,"rental_uris":{"android":"levelo://app?vid=b64c5955-1ac6-4570-826b-601c4ae7ee8a","ios":"levelo://app?vid=b64c5955-1ac6-4570-826b-601c4ae7ee8a"},"vehicle_type_id":"4","last_reported":1713712026,"current_range_meters":23200,"station_id":"ce4bhbh2rcd13ifvqepg","pricing_plan_id":"cebpf4jnsgd1na2vs0mg"},{"bike_id":"589bd032-d5e6-4c22-8d2b-e4006cd5c36e","system_id":"levelo_inurba_marseille","lat":43.28417,"lon":5.34979,"is_reserved":false,"is_disabled":false,"rental_uris":{"android":"levelo://app?vid=589bd032-d5e6-4c22-8d2b-e4006cd5c36e","ios":"levelo://app?vid=589bd032-d5e6-4c22-8d2b-e4006cd5c36e"},"vehicle_type_id":"4","last_reported":1713712026,"current_range_meters":0,"station_id":"ce4bhbh2rcd13ifvqepg","pricing_plan_id":"cebpf4jnsgd1na2vs0mg"},{"bike_id":"4c88de93-e07c-49b9-b1ad-f1d361f73851","system_id":"levelo_inurba_marseille","lat":43.28416,"lon":5.34977,"is_reserved":false,"is_disabled":false,"rental_uris":{"android":"levelo://app?vid=4c88de93-e07c-49b9-b1ad-f1d361f73851","ios":"levelo://app?vid=4c88de93-e07c-49b9-b1ad-f1d361f73851"},"vehicle_type_id":"4","last_reported":1713712026,"current_range_meters":400,"station_id":"ce4bhbh2rcd13ifvqepg","pricing_plan_id":"cebpf4jnsgd1na2vs0mg"},{"bike_id":"eda4b416-5723-451b-898a-84aafeffdcf7","system_id":"levelo_inurba_marseille","lat":43.284104,"lon":5.349869,"is_reserved":false,"is_disabled":false,"rental_uris":{"android":"levelo://app?vid=eda4b416-5723-451b-898a-84aafeffdcf7","ios":"levelo://app?vid=eda4b416-5723-451b-898a-84aafeffdcf7"},"vehicle_type_id":"4","last_reported":1713712026,"current_range_meters":31200,"station_id":"ce4bhbh2rcd13ifvqepg","pricing_plan_id":"cebpf4jnsgd1na2vs0mg"},{"bike_id":"9b5dd159-944d-46a7-a6f6-0e46a4f52132","system_id":"levelo_inurba_marseille","lat":43.28409,"lon":5.34982,"is_reserved":false,"is_disabled":false,"rental_uris":{"android":"levelo://app?vid=9b5dd159-944d-46a7-a6f6-0e46a4f52132","ios":"levelo://app?vid=9b5dd159-944d-46a7-a6f6-0e46a4f52132"},"vehicle_type_id":"4","last_reported":1713712026,"current_range_meters":1600,"station_id":"ce4bhbh2rcd13ifvqepg","pricing_plan_id":"cebpf4jnsgd1na2vs0mg"},{"bike_id":"6345955d-ef0c-4739-887e-2c8ed30ae975","system_id":"levelo_inurba_marseille","lat":43.2841,"lon":5.34977,"is_reserved":false,"is_disabled":false,"rental_uris":{"android":"levelo://app?vid=6345955d-ef0c-4739-887e-2c8ed30ae975","ios":"levelo://app?vid=6345955d-ef0c-4739-887e-2c8ed30ae975"},"vehicle_type_id":"4","last_reported":1713712026,"current_range_meters":2000,"station_id":"ce4bhbh2rcd13ifvqepg","pricing_plan_id":"cebpf4jnsgd1na2vs0mg"},{"bike_id":"8f564571-38e0-411c-937b-6497bc27a12c","system_id":"levelo_inurba_marseille","lat":43.28406,"lon":5.34988,"is_reserved":false,"is_disabled":false,"rental_uris":{"android":"levelo://app?vid=8f564571-38e0-411c-937b-6497bc27a12c","ios":"levelo://app?vid=8f564571-38e0-411c-937b-6497bc27a12c"},"vehicle_type_id":"4","last_reported":1713712026,"current_range_meters":12000,"station_id":"ce4bhbh2rcd13ifvqepg","pricing_plan_id":"cebpf4jnsgd1na2vs0mg"},{"bike_id":"22487f3f-befc-4e78-a4f8-e8ee55d70403","system_id":"levelo_inurba_marseille","lat":43.283879,"lon":5.350048,"is_reserved":false,"is_disabled":false,"rental_uris":{"android":"levelo://app?vid=22487f3f-befc-4e78-a4f8-e8ee55d70403","ios":"levelo://app?vid=22487f3f-befc-4e78-a4f8-e8ee55d70403"},"vehicle_type_id":"4","last_reported":1713712026,"current_range_meters":4000,"station_id":"ce4bhbh2rcd13ifvqepg","pricing_plan_id":"cebpf4jnsgd1na2vs0mg"},{"bike_id":"450a5ea6-19b9-48e1-846a-39df6ac6cfe4","system_id":"levelo_inurba_marseille","lat":43.292724,"lon":5.401131,"is_reserved":false,"is_disabled":false,"rental_uris":{"android":"levelo://app?vid=450a5ea6-19b9-48e1-846a-39df6ac6cfe4","ios":"levelo://app?vid=450a5ea6-19b9-48e1-846a-39df6ac6cfe4"},"vehicle_type_id":"4","last_reported":1713712026,"current_range_meters":12400,"station_id":"ce4bh312rcd13ifvqdk0","pricing_plan_id":"cebpf4jnsgd1na2vs0mg"},{"bike_id":"a2db796d-3afa-4c4f-b71e-d5f610736a2c","system_id":"levelo_inurba_marseille","lat":43.282754,"lon":5.350519,"is_reserved":false,"is_disabled":false,"rental_uris":{"android":"levelo://app?vid=a2db796d-3afa-4c4f-b71e-d5f610736a2c","ios":"levelo://app?vid=a2db796d-3afa-4c4f-b71e-d5f610736a2c"},"vehicle_type_id":"4","last_reported":1713712026,"current_range_meters":28400,"station_id":"ce4bhbp2rcd13ifvqerg","pricing_plan_id":"cebpf4jnsgd1na2vs0mg"},{"bike_id":"ae3bbd82-4e98-4740-976b-7e6e504badfc","system_id":"levelo_inurba_marseille","lat":43.2828,"lon":5.35063,"is_reserved":false,"is_disabled":false,"rental_uris":{"android":"levelo://app?vid=ae3bbd82-4e98-4740-976b-7e6e504badfc","ios":"levelo://app?vid=ae3bbd82-4e98-4740-976b-7e6e504badfc"},"vehicle_type_id":"4","last_reported":1713712026,"current_range_meters":0,"station_id":"ce4bhbp2rcd13ifvqerg","pricing_plan_id":"cebpf4jnsgd1na2vs0mg"},{"bike_id":"66d74e08-00a4-4b90-95ef-7bd7e7508643","system_id":"levelo_inurba_marseille","lat":43.2828,"lon":5.35063,"is_reserved":false,"is_disabled":false,"rental_uris":{"android":"levelo://app?vid=66d74e08-00a4-4b90-95ef-7bd7e7508643","ios":"levelo://app?vid=66d74e08-00a4-4b90-95ef-7bd7e7508643"},"vehicle_type_id":"4","last_reported":1713712026,"current_range_meters":0,"station_id":"ce4bhbp2rcd13ifvqerg","pricing_plan_id":"cebpf4jnsgd1na2vs0mg"},{"bike_id":"e89e9293-43d6-4954-8147-cb6e51dde92b","system_id":"levelo_inurba_marseille","lat":43.282754,"lon":5.350519,"is_reserved":false,"is_disabled":false,"rental_uris":{"android":"levelo://app?vid=e89e9293-43d6-4954-8147-cb6e51dde92b","ios":"levelo://app?vid=e89e9293-43d6-4954-8147-cb6e51dde92b"},"vehicle_type_id":"4","last_reported":1713712026,"current_range_meters":12800,"station_id":"ce4bhbp2rcd13ifvqerg","pricing_plan_id":"cebpf4jnsgd1na2vs0mg"},{"bike_id":"5629d3eb-0b7f-414d-880e-386f505f2f27","system_id":"levelo_inurba_marseille","lat":43.278399,"lon":5.392139,"is_reserved":false,"is_disabled":false,"rental_uris":{"android":"levelo://app?vid=5629d3eb-0b7f-414d-880e-386f505f2f27","ios":"levelo://app?vid=5629d3eb-0b7f-414d-880e-386f505f2f27"},"vehicle_type_id":"4","last_reported":1713712026,"current_range_meters":0,"station_id":"ce4bhjp2rcd13ifvqga0","pricing_plan_id":"cebpf4jnsgd1na2vs0mg"},{"bike_id":"25cee72c-0a42-42ff-bd71-7225a2ff3cd0","system_id":"levelo_inurba_marseille","lat":43.28274,"lon":5.35075,"is_reserved":false,"is_disabled":false,"rental_uris":{"android":"levelo://app?vid=25cee72c-0a42-42ff-bd71-7225a2ff3cd0","ios":"levelo://app?vid=25cee72c-0a42-42ff-bd71-7225a2ff3cd0"},"vehicle_type_id":"4","last_reported":1713712026,"current_range_meters":0,"station_id":"ce4bhbp2rcd13ifvqerg","pricing_plan_id":"cebpf4jnsgd1na2vs0mg"},{"bike_id":"a16fbc2d-fb6d-4142-abd8-dcb28e1eafb3","system_id":"levelo_inurba_marseille","lat":43.28274,"lon":5.35072,"is_reserved":false,"is_disabled":false,"rental_uris":{"android":"levelo://app?vid=a16fbc2d-fb6d-4142-abd8-dcb28e1eafb3","ios":"levelo://app?vid=a16fbc2d-fb6d-4142-abd8-dcb28e1eafb3"},"vehicle_type_id":"4","last_reported":1713712026,"current_range_meters":0,"station_id":"ce4bhbp2rcd13ifvqerg","pricing_plan_id":"cebpf4jnsgd1na2vs0mg"},{"bike_id":"117c79cb-494f-4aa7-bf67-1136da4a1b6d","system_id":"levelo_inurba_marseille","lat":43.282754,"lon":5.350519,"is_reserved":false,"is_disabled":false,"rental_uris":{"android":"levelo://app?vid=117c79cb-494f-4aa7-bf67-1136da4a1b6d","ios":"levelo://app?vid=117c79cb-494f-4aa7-bf67-1136da4a1b6d"},"vehicle_type_id":"4","last_reported":1713712026,"current_range_meters":27200,"station_id":"ce4bhbp2rcd13ifvqerg","pricing_plan_id":"cebpf4jnsgd1na2vs0mg"},{"bike_id":"db316aff-1a35-4494-bf09-94dbd8ab1e5b","system_id":"levelo_inurba_marseille","lat":43.282754,"lon":5.350519,"is_reserved":false,"is_disabled":false,"rental_uris":{"android":"levelo://app?vid=db316aff-1a35-4494-bf09-94dbd8ab1e5b","ios":"levelo://app?vid=db316aff-1a35-4494-bf09-94dbd8ab1e5b"},"vehicle_type_id":"4","last_reported":1713712026,"current_range_meters":8000,"station_id":"ce4bhbp2rcd13ifvqerg","pricing_plan_id":"cebpf4jnsgd1na2vs0mg"},{"bike_id":"0a2dc4d8-4691-477c-82b9-062b4db612f2","system_id":"levelo_inurba_marseille","lat":43.28269,"lon":5.35081,"is_reserved":false,"is_disabled":false,"rental_uris":{"android":"levelo://app?vid=0a2dc4d8-4691-477c-82b9-062b4db612f2","ios":"levelo://app?vid=0a2dc4d8-4691-477c-82b9-062b4db612f2"},"vehicle_type_id":"4","last_reported":1713712026,"current_range_meters":0,"station_id":"ce4bhbp2rcd13ifvqerg","pricing_plan_id":"cebpf4jnsgd1na2vs0mg"},{"bike_id":"bdf35e5a-4e6a-4801-8ad5-bc1210af2330","system_id":"levelo_inurba_marseille","lat":43.282754,"lon":5.350519,"is_reserved":false,"is_disabled":false,"rental_uris":{"android":"levelo://app?vid=bdf35e5a-4e6a-4801-8ad5-bc1210af2330","ios":"levelo://app?vid=bdf35e5a-4e6a-4801-8ad5-bc1210af2330"},"vehicle_type_id":"4","last_reported":1713712026,"current_range_meters":29600,"station_id":"ce4bhbp2rcd13ifvqerg","pricing_plan_id":"cebpf4jnsgd1na2vs0mg"},{"bike_id":"e3f9e218-3856-4066-80ab-6fd33adde1b8","system_id":"levelo_inurba_marseille","lat":43.282744,"lon":5.350533,"is_reserved":false,"is_disabled":false,"rental_uris":{"android":"levelo://app?vid=e3f9e218-3856-4066-80ab-6fd33adde1b8","ios":"levelo://app?vid=e3f9e218-3856-4066-80ab-6fd33adde1b8"},"vehicle_type_id":"4","last_reported":1713712026,"current_range_meters":22400,"station_id":"ce4bhbp2rcd13ifvqerg","pricing_plan_id":"cebpf4jnsgd1na2vs0mg"},{"bike_id":"7e96ab0e-f5cc-46f5-8665-4eb529590b02","system_id":"levelo_inurba_marseille","lat":43.282744,"lon":5.350533,"is_reserved":false,"is_disabled":false,"rental_uris":{"android":"levelo://app?vid=7e96ab0e-f5cc-46f5-8665-4eb529590b02","ios":"levelo://app?vid=7e96ab0e-f5cc-46f5-8665-4eb529590b02"},"vehicle_type_id":"4","last_reported":1713712026,"current_range_meters":29600,"station_id":"ce4bhbp2rcd13ifvqerg","pricing_plan_id":"cebpf4jnsgd1na2vs0mg"},{"bike_id":"a1c533f0-7424-4a47-9a1e-1f4a760e6ede","system_id":"levelo_inurba_marseille","lat":43.282744,"lon":5.350533,"is_reserved":false,"is_disabled":false,"rental_uris":{"android":"levelo://app?vid=a1c533f0-7424-4a47-9a1e-1f4a760e6ede","ios":"levelo://app?vid=a1c533f0-7424-4a47-9a1e-1f4a760e6ede"},"vehicle_type_id":"4","last_reported":1713712026,"current_range_meters":18800,"station_id":"ce4bhbp2rcd13ifvqerg","pricing_plan_id":"cebpf4jnsgd1na2vs0mg"},{"bike_id":"b89f1d67-fc8f-4f3c-b9aa-90655642af2d","system_id":"levelo_inurba_marseille","lat":43.282744,"lon":5.350533,"is_reserved":false,"is_disabled":false,"rental_uris":{"android":"levelo://app?vid=b89f1d67-fc8f-4f3c-b9aa-90655642af2d","ios":"levelo://app?vid=b89f1d67-fc8f-4f3c-b9aa-90655642af2d"},"vehicle_type_id":"4","last_reported":1713712026,"current_range_meters":25600,"station_id":"ce4bhbp2rcd13ifvqerg","pricing_plan_id":"cebpf4jnsgd1na2vs0mg"},{"bike_id":"a8cb55ed-18b5-4487-bfa9-789ea02442db","system_id":"levelo_inurba_marseille","lat":43.282754,"lon":5.350519,"is_reserved":false,"is_disabled":false,"rental_uris":{"android":"levelo://app?vid=a8cb55ed-18b5-4487-bfa9-789ea02442db","ios":"levelo://app?vid=a8cb55ed-18b5-4487-bfa9-789ea02442db"},"vehicle_type_id":"4","last_reported":1713712026,"current_range_meters":10800,"station_id":"ce4bhbp2rcd13ifvqerg","pricing_plan_id":"cebpf4jnsgd1na2vs0mg"},