{"last_updated":1744107043,"ttl":60,"version":"2.2","data":{"bikes":[{"bike_id":"e706ac65-c185-49a4-9d60-5289c9053bdc","system_id":"levelo_inurba_marseille","lat":43.31757,"lon":5.39015,"is_reserved":false,"is_disabled":false,"rental_uris":{"android":"levelo://app?vid=e706ac65-c185-49a4-9d60-5289c9053bdc","ios":"levelo://app?vid=e706ac65-c185-49a4-9d60-5289c9053bdc"},"vehicle_type_id":"4","last_reported":1744107043,"current_range_meters":2800,"station_id":"ce4bhqp2rcd13ifvqhng","pricing_plan_id":"cebpf4jnsgd1na2vs0mg"},{"bike_id":"4f623ce8-cb01-42d5-9787-aeb4e97c70ec","system_id":"levelo_inurba_marseille","lat":43.2678,"lon":5.39411,"is_reserved":false,"is_disabled":false,"rental_uris":{"android":"levelo://app?vid=4f623ce8-cb01-42d5-9787-aeb4e97c70ec","ios":"levelo://app?vid=4f623ce8-cb01-42d5-9787-aeb4e97c70ec"},"vehicle_type_id":"4","last_reported":1744107043,"current_range_meters":2000,"station_id":"ce4bhh12rcd13ifvqfg0","pricing_plan_id":"cebpf4jnsgd1na2vs0mg"},{"bike_id":"479f41fc-55c0-44c0-8315-ebe7a345e44e","system_id":"levelo_inurba_marseille","lat":43.30433,"lon":5.3889,"is_reserved":false,"is_disabled":false,"rental_uris":{"android":"levelo://app?vid=479f41fc-55c0-44c0-8315-ebe7a345e44e","ios":"levelo://app?vid=479f41fc-55c0-44c0-8315-ebe7a345e44e"},"vehicle_type_id":"4","last_reported":1744107043,"current_range_meters":2800,"station_id":"ce4bgk12rcd13ifvqbi0","pricing_plan_id":"cebpf4jnsgd1na2vs0mg"},{"bike_id":"136b6e45-ee21-453e-aa22-e07947db9071","system_id":"levelo_inurba_marseille","lat":43.23169,"lon":5.43675,"is_reserved":false,"is_disabled":true,"rental_uris":{"android":"levelo://app?vid=136b6e45-ee21-453e-aa22-e07947db9071","ios":"levelo://app?vid=136b6e45-ee21-453e-aa22-e07947db9071"},"vehicle_type_id":"4","last_reported":1744107043,"current_range_meters":2800,"station_id":"ce4bhmp2rcd13ifvqgog","pricing_plan_id":"cebpf4jnsgd1na2vs0mg"},{"bike_id":"762b41dd-0235-40d2-b9fe-689c63f4c95a","system_id":"levelo_inurba_marseille","lat":43.25899,"lon":5.40861,"is_reserved":false,"is_disabled":false,"rental_uris":{"android":"levelo://app?vid=762b41dd-0235-40d2-b9fe-689c63f4c95a","ios":"levelo://app?vid=762b41dd-0235-40d2-b9fe-689c63f4c95a"},"vehicle_type_id":"4","last_reported":1744107043,"current_range_meters":3200,"station_id":"ce4bhm92rcd13ifvqglg","pricing_plan_id":"cebpf4jnsgd1na2vs0mg"},{"bike_id":"ab3b4497-9b6a-481d-99d6-57abff4d9a23","system_id":"levelo_inurba_marseille","lat":43.23155,"lon":5.43702,"is_reserved":false,"is_disabled":false,"rental_uris":{"android":"levelo://app?vid=ab3b4497-9b6a-481d-99d6-57abff4d9a23","ios":"levelo://app?vid=ab3b4497-9b6a-481d-99d6-57abff4d9a23"},"vehicle_type_id":"4","last_reported":1744107043,"current_range_meters":3200,"station_id":"ce4bhmp2rcd13ifvqgog","pricing_plan_id":"cebpf4jnsgd1na2vs0mg"},{"bike_id":"40a84583-f853-4bd0-a06f-9a1b74713a08","system_id":"levelo_inurba_marseille","lat":43.27994,"lon":5.40004,"is_reserved":false,"is_disabled":false,"rental_uris":{"android":"levelo://app?vid=40a84583-f853-4bd0-a06f-9a1b74713a08","ios":"levelo://app?vid=40a84583-f853-4bd0-a06f-9a1b74713a08"},"vehicle_type_id":"4","last_reported":1744107043,"current_range_meters":3200,"station_id":"ce4bho92rcd13ifvqh4g","pricing_plan_id":"cebpf4jnsgd1na2vs0mg"},{"bike_id":"351b921a-1463-4cf6-859d-ca5bd51a6e76","system_id":"levelo_inurba_marseille","lat":43.31779,"lon":5.36821,"is_reserved":false,"is_disabled":false,"rental_uris":{"android":"levelo://app?vid=351b921a-1463-4cf6-859d-ca5bd51a6e76","ios":"levelo://app?vid=351b921a-1463-4cf6-859d-ca5bd51a6e76"},"vehicle_type_id":"4","last_reported":1744107043,"current_range_meters":4000,"station_id":"","pricing_plan_id":"cebpf4jnsgd1na2vs0mg"},{"bike_id":"ccf7a349-b3ed-4291-84a4-76cda4498a3f","system_id":"levelo_inurba_marseille","lat":43.279915,"lon":5.400032,"is_reserved":false,"is_disabled":false,"rental_uris":{"android":"levelo://app?vid=ccf7a349-b3ed-4291-84a4-76cda4498a3f","ios":"levelo://app?vid=ccf7a349-b3ed-4291-84a4-76cda4498a3f"},"vehicle_type_id":"4","last_reported":1744107043,"current_range_meters":4000,"station_id":"ce4bho92rcd13ifvqh4g","pricing_plan_id":"cebpf4jnsgd1na2vs0mg"},{"bike_id":"8a760149-45c9-4fae-832b-3316863a9ca4","system_id":"levelo_inurba_marseille","lat":43.28401,"lon":5.37516,"is_reserved":false,"is_disabled":false,"rental_uris":{"android":"levelo://app?vid=8a760149-45c9-4fae-832b-3316863a9ca4","ios":"levelo://app?vid=8a760149-45c9-4fae-832b-3316863a9ca4"},"vehicle_type_id":"4","last_reported":1744107043,"current_range_meters":4000,"station_id":"ce4bh412rcd13ifvqds0","pricing_plan_id":"cebpf4jnsgd1na2vs0mg"},{"bike_id":"c7740e1f-ec03-4eca-8030-2f418e9c277a","system_id":"levelo_inurba_marseille","lat":43.29567,"lon":5.37533,"is_reserved":false,"is_disabled":false,"rental_uris":{"android":"levelo://app?vid=c7740e1f-ec03-4eca-8030-2f418e9c277a","ios":"levelo://app?vid=c7740e1f-ec03-4eca-8030-2f418e9c277a"},"vehicle_type_id":"4","last_reported":1744107043,"current_range_meters":4400,"station_id":"ce4bgh92rcd13ifvqb50","pricing_plan_id":"cebpf4jnsgd1na2vs0mg"},{"bike_id":"eddb54ae-86e8-43fc-8d86-b9ff484de38b","system_id":"levelo_inurba_marseille","lat":43.29216,"lon":5.36037,"is_reserved":false,"is_disabled":false,"rental_uris":{"android":"levelo://app?vid=eddb54ae-86e8-43fc-8d86-b9ff484de38b","ios":"levelo://app?vid=eddb54ae-86e8-43fc-8d86-b9ff484de38b"},"vehicle_type_id":"4","last_reported":1744107043,"current_range_meters":4400,"station_id":"ce4bhbh2rcd13ifvqeqg","pricing_plan_id":"cebpf4jnsgd1na2vs0mg"},{"bike_id":"a959694d-18ce-4d80-917f-23c91ed81065","system_id":"levelo_inurba_marseille","lat":43.29902,"lon":5.43664,"is_reserved":false,"is_disabled":true,"rental_uris":{"android":"levelo://app?vid=a959694d-18ce-4d80-917f-23c91ed81065","ios":"levelo://app?vid=a959694d-18ce-4d80-917f-23c91ed81065"},"vehicle_type_id":"4","last_reported":1744107043,"current_range_meters":4800,"station_id":"ce4bhpp2rcd13ifvqhfg","pricing_plan_id":"cebpf4jnsgd1na2vs0mg"},{"bike_id":"19224d95-e048-4cbb-8884-43e0e6b3db9b","system_id":"levelo_inurba_marseille","lat":43.29885,"lon":5.39747,"is_reserved":false,"is_disabled":true,"rental_uris":{"android":"levelo://app?vid=19224d95-e048-4cbb-8884-43e0e6b3db9b","ios":"levelo://app?vid=19224d95-e048-4cbb-8884-43e0e6b3db9b"},"vehicle_type_id":"4","last_reported":1744107043,"current_range_meters":4800,"station_id":"ce4bh0h2rcd13ifvqd50","pricing_plan_id":"cebpf4jnsgd1na2vs0mg"},{"bike_id":"17f98d51-26e6-4dc0-91fa-003d77e58d29","system_id":"levelo_inurba_marseille","lat":43.2794,"lon":5.38748,"is_reserved":false,"is_disabled":true,"rental_uris":{"android":"levelo://app?vid=17f98d51-26e6-4dc0-91fa-003d77e58d29","ios":"levelo://app?vid=17f98d51-26e6-4dc0-91fa-003d77e58d29"},"vehicle_type_id":"4","last_reported":1744107043,"current_range_meters":4800,"station_id":"ce4bhg12rcd13ifvqf80","pricing_plan_id":"cebpf4jnsgd1na2vs0mg"},{"bike_id":"6ebe9ec3-b74c-497b-aa8c-e68d0877c617","system_id":"levelo_inurba_marseille","lat":43.25126,"lon":5.40321,"is_reserved":false,"is_disabled":false,"rental_uris":{"android":"levelo://app?vid=6ebe9ec3-b74c-497b-aa8c-e68d0877c617","ios":"levelo://app?vid=6ebe9ec3-b74c-497b-aa8c-e68d0877c617"},"vehicle_type_id":"4","last_reported":1744107043,"current_range_meters":5600,"station_id":"ce4bhlh2rcd13ifvqgig","pricing_plan_id":"cebpf4jnsgd1na2vs0mg"},{"bike_id":"8a38320c-a733-4cf5-8c8e-152497fe8f8f","system_id":"levelo_inurba_marseille","lat":43.28157,"lon":5.42617,"is_reserved":false,"is_disabled":false,"rental_uris":{"android":"levelo://app?vid=8a38320c-a733-4cf5-8c8e-152497fe8f8f","ios":"levelo://app?vid=8a38320c-a733-4cf5-8c8e-152497fe8f8f"},"vehicle_type_id":"4","last_reported":1744107043,"current_range_meters":5600,"station_id":"ce4bhnh2rcd13ifvqgug","pricing_plan_id":"cebpf4jnsgd1na2vs0mg"},{"bike_id":"c849e148-0522-45af-8616-d98c6a323f53","system_id":"levelo_inurba_marseille","lat":43.28264,"lon":5.35063,"is_reserved":false,"is_disabled":false,"rental_uris":{"android":"levelo://app?vid=c849e148-0522-45af-8616-d98c6a323f53","ios":"levelo://app?vid=c849e148-0522-45af-8616-d98c6a323f53"},"vehicle_type_id":"4","last_reported":1744107043,"current_range_meters":5600,"station_id":"ce4bhbp2rcd13ifvqerg","pricing_plan_id":"cebpf4jnsgd1na2vs0mg"},{"bike_id":"7a77663b-16af-4b92-adbe-b45cdfff1249","system_id":"levelo_inurba_marseille","lat":43.29972,"lon":5.38486,"is_reserved":false,"is_disabled":false,"rental_uris":{"android":"levelo://app?vid=7a77663b-16af-4b92-adbe-b45cdfff1249","ios":"levelo://app?vid=7a77663b-16af-4b92-adbe-b45cdfff1249"},"vehicle_type_id":"4","last_reported":1744107043,"current_range_meters":5600,"station_id":"ce4bgj92rcd13ifvqbd0","pricing_plan_id":"cebpf4jnsgd1na2vs0mg"},{"bike_id":"e4a07207-fed0-4e37-8539-48386b90c7e5","system_id":"levelo_inurba_marseille","lat":43.32542,"lon":5.41429,"is_reserved":false,"is_disabled":false,"rental_uris":{"android":"levelo://app?vid=e4a07207-fed0-4e37-8539-48386b90c7e5","ios":"levelo://app?vid=e4a07207-fed0-4e37-8539-48386b90c7e5"},"vehicle_type_id":"4","last_reported":1744107043,"current_range_meters":5600,"station_id":"ce4bhq12rcd13ifvqhhg","pricing_plan_id":"cebpf4jnsgd1na2vs0mg"},{"bike_id":"f3b83e8a-c65f-4f5d-8899-2b84c089f530","system_id":"levelo_inurba_marseille","lat":43.32108,"lon":5.36777,"is_reserved":false,"is_disabled":false,"rental_uris":{"android":"levelo://app?vid=f3b83e8a-c65f-4f5d-8899-2b84c089f530","ios":"levelo://app?vid=f3b83e8a-c65f-4f5d-8899-2b84c089f530"},"vehicle_type_id":"4","last_reported":1744107043,"current_range_meters":6000,"station_id":"ce4bhrh2rcd13ifvqhug","pricing_plan_id":"cebpf4jnsgd1na2vs0mg"},{"bike_id":"b6dcd2c3-2ea2-43b7-b138-3218e296da9c","system_id":"levelo_inurba_marseille","lat":43.301422,"lon":5.380732,"is_reserved":false,"is_disabled":false,"rental_uris":{"android":"levelo://app?vid=b6dcd2c3-2ea2-43b7-b138-3218e296da9c","ios":"levelo://app?vid=b6dcd2c3-2ea2-43b7-b138-3218e296da9c"},"vehicle_type_id":"4","last_reported":1744107043,"current_range_meters":6000,"station_id":"ce4bgjp2rcd13ifvqbh0","pricing_plan_id":"cebpf4jnsgd1na2vs0mg"},{"bike_id":"20c13bd8-03d5-4fab-964f-c8d185c65686","system_id":"levelo_inurba_marseille","lat":43.309369,"lon":5.401365,"is_reserved":false,"is_disabled":false,"rental_uris":{"android":"levelo://app?vid=20c13bd8-03d5-4fab-964f-c8d185c65686","ios":"levelo://app?vid=20c13bd8-03d5-4fab-964f-c8d185c65686"},"vehicle_type_id":"4","last_reported":1744107043,"current_range_meters":5600,"station_id":"ce4bgvp2rcd13ifvqct0","pricing_plan_id":"cebpf4jnsgd1na2vs0mg"},{"bike_id":"73276e73-379c-4215-bfe8-0a4cdf26f8fb","system_id":"levelo_inurba_marseille","lat":43.27375,"lon":5.36243,"is_reserved":false,"is_disabled":false,"rental_uris":{"android":"levelo://app?vid=73276e73-379c-4215-bfe8-0a4cdf26f8fb","ios":"levelo://app?vid=73276e73-379c-4215-bfe8-0a4cdf26f8fb"},"vehicle_type_id":"4","last_reported":1744107043,"current_range_meters":6400,"station_id":"ce4bhbh2rcd13ifvqeo0","pricing_plan_id":"cebpf4jnsgd1na2vs0mg"},{"bike_id":"abf828e0-bebc-4654-bc93-1d92f449deee","system_id":"levelo_inurba_marseille","lat":43.32359,"lon":5.36674,"is_reserved":false,"is_disabled":false,"rental_uris":{"android":"levelo://app?vid=abf828e0-bebc-4654-bc93-1d92f449deee","ios":"levelo://app?vid=abf828e0-bebc-4654-bc93-1d92f449deee"},"vehicle_type_id":"4","last_reported":1744107043,"current_range_meters":6400,"station_id":"ce4bhsh2rcd13ifvqi2g","pricing_plan_id":"cebpf4jnsgd1na2vs0mg"},{"bike_id":"06d8c071-c15f-4628-bdf9-94c609b910a0","system_id":"levelo_inurba_marseille","lat":43.33604,"lon":5.40993,"is_reserved":false,"is_disabled":false,"rental_uris":{"android":"levelo://app?vid=06d8c071-c15f-4628-bdf9-94c609b910a0","ios":"levelo://app?vid=06d8c071-c15f-4628-bdf9-94c609b910a0"},"vehicle_type_id":"4","last_reported":1744107043,"current_range_meters":6400,"station_id":"ce4bhqh2rcd13ifvqhmg","pricing_plan_id":"cebpf4jnsgd1na2vs0mg"},{"bike_id":"1405f02f-caee-48fd-aba4-8d87a96853df","system_id":"levelo_inurba_marseille","lat":43.27622,"lon":5.36103,"is_reserved":false,"is_disabled":false,"rental_uris":{"android":"levelo://app?vid=1405f02f-caee-48fd-aba4-8d87a96853df","ios":"levelo://app?vid=1405f02f-caee-48fd-aba4-8d87a96853df"},"vehicle_type_id":"4","last_reported":1744107043,"current_range_meters":6400,"station_id":"ce4bgj92rcd13ifvqbe0","pricing_plan_id":"cebpf4jnsgd1na2vs0mg"},{"bike_id":"9fd9afcf-8606-4db3-b765-345a62705d71","system_id":"levelo_inurba_marseille","lat":43.27371,"lon":5.36258,"is_reserved":false,"is_disabled":false,"rental_uris":{"android":"levelo://app?vid=9fd9afcf-8606-4db3-b765-345a62705d71","ios":"levelo://app?vid=9fd9afcf-8606-4db3-b765-345a62705d71"},"vehicle_type_id":"4","last_reported":1744107043,"current_range_meters":6800,"station_id":"ce4bhbh2rcd13ifvqeo0","pricing_plan_id":"cebpf4jnsgd1na2vs0mg"},{"bike_id":"c5fdb4b7-4bf3-481c-8d2c-d153bfb88b21","system_id":"levelo_inurba_marseille","lat":43.314807,"lon":5.373051,"is_reserved":false,"is_disabled":false,"rental_uris":{"android":"levelo://app?vid=c5fdb4b7-4bf3-481c-8d2c-d153bfb88b21","ios":"levelo://app?vid=c5fdb4b7-4bf3-481c-8d2c-d153bfb88b21"},"vehicle_type_id":"4","last_reported":1744107043,"current_range_meters":6800,"station_id":"ce4bgt12rcd13ifvqcd0","pricing_plan_id":"cebpf4jnsgd1na2vs0mg"},{"bike_id":"225e3f03-6ffc-4ae6-8694-5b2118fc962a","system_id":"levelo_inurba_marseille","lat":43.31205,"lon":5.40126,"is_reserved":false,"is_disabled":false,"rental_uris":{"android":"levelo://app?vid=225e3f03-6ffc-4ae6-8694-5b2118fc962a","ios":"levelo://app?vid=225e3f03-6ffc-4ae6-8694-5b2118fc962a"},"vehicle_type_id":"4","last_reported":1744107043,"current_range_meters":6800,"station_id":"ce4bh092rcd13ifvqd30","pricing_plan_id":"cebpf4jnsgd1na2vs0mg"},{"bike_id":"5ba02e57-e745-47ce-9b93-c851debe9e12","system_id":"levelo_inurba_marseille","lat":43.27187,"lon":5.40985,"is_reserved":false,"is_disabled":false,"rental_uris":{"android":"levelo://app?vid=5ba02e57-e745-47ce-9b93-c851debe9e12","ios":"levelo://app?vid=5ba02e57-e745-47ce-9b93-c851debe9e12"},"vehicle_type_id":"4","last_reported":1744107043,"current_range_meters":6800,"station_id":"ce4bhl12rcd13ifvqgf0","pricing_plan_id":"cebpf4jnsgd1na2vs0mg"},{"bike_id":"7ae1c95c-1e2c-400a-8efd-618212ebe707","system_id":"levelo_inurba_marseille","lat":43.31639,"lon":5.38218,"is_reserved":false,"is_disabled":false,"rental_uris":{"android":"levelo://app?vid=7ae1c95c-1e2c-400a-8efd-618212ebe707","ios":"levelo://app?vid=7ae1c95c-1e2c-400a-8efd-618212ebe707"},"vehicle_type_id":"4","last_reported":1744107043,"current_range_meters":6800,"station_id":"","pricing_plan_id":"cebpf4jnsgd1na2vs0mg"},{"bike_id":"78e4640a-8cde-4e05-8de9-b575fb4826db","system_id":"levelo_inurba_marseille","lat":43.296938,"lon":5.365855,"is_reserved":false,"is_disabled":false,"rental_uris":{"android":"levelo://app?vid=78e4640a-8cde-4e05-8de9-b575fb4826db","ios":"levelo://app?vid=78e4640a-8cde-4e05-8de9-b575fb4826db"},"vehicle_type_id":"4","last_reported":1744107043,"current_range_meters":7200,"station_id":"ce4bhb12rcd13ifvqel0","pricing_plan_id":"cebpf4jnsgd1na2vs0mg"},{"bike_id":"aed7b25e-492d-4088-8993-fe5d80dd7d73","system_id":"levelo_inurba_marseille","lat":43.31121,"lon":5.37772,"is_reserved":false,"is_disabled":false,"rental_uris":{"android":"levelo://app?vid=aed7b25e-492d-4088-8993-fe5d80dd7d73","ios":"levelo://app?vid=aed7b25e-492d-4088-8993-fe5d80dd7d73"},"vehicle_type_id":"4","last_reported":1744107043,"current_range_meters":7200,"station_id":"ce4bgt92rcd13ifvqcg0","pricing_plan_id":"cebpf4jnsgd1na2vs0mg"},{"bike_id":"87bda883-ac94-49fc-94c2-3a86e52b4f97","system_id":"levelo_inurba_marseille","lat":43.30721,"lon":5.38343,"is_reserved":false,"is_disabled":false,"rental_uris":{"android":"levelo://app?vid=87bda883-ac94-49fc-94c2-3a86e52b4f97","ios":"levelo://app?vid=87bda883-ac94-49fc-94c2-3a86e52b4f97"},"vehicle_type_id":"4","last_reported":1744107043,"current_range_meters":7200,"station_id":"","pricing_plan_id":"cebpf4jnsgd1na2vs0mg"},{"bike_id":"9f58fe17-7445-4171-ab8a-b7da8864df25","system_id":"levelo_inurba_marseille","lat":43.299,"lon":5.4366,"is_reserved":false,"is_disabled":false,"rental_uris":{"android":"levelo://app?vid=9f58fe17-7445-4171-ab8a-b7da8864df25","ios":"levelo://app?vid=9f58fe17-7445-4171-ab8a-b7da8864df25"},"vehicle_type_id":"4","last_reported":1744107043,"current_range_meters":7200,"station_id":"ce4bhpp2rcd13ifvqhfg","pricing_plan_id":"cebpf4jnsgd1na2vs0mg"},{"bike_id":"cc057f14-b1e1-4dee-b107-8741c01c5964","system_id":"levelo_inurba_marseille","lat":43.32105,"lon":5.36773,"is_reserved":false,"is_disabled":true,"rental_uris":{"android":"levelo://app?vid=cc057f14-b1e1-4dee-b107-8741c01c5964","ios":"levelo://app?vid=cc057f14-b1e1-4dee-b107-8741c01c5964"},"vehicle_type_id":"4","last_reported":1744107043,"current_range_meters":7200,"station_id":"ce4bhrh2rcd13ifvqhug","pricing_plan_id":"cebpf4jnsgd1na2vs0mg"},{"bike_id":"e1e3e4d7-821d-4134-a13a-280ec3f9cbaa","system_id":"levelo_inurba_marseille","lat":43.32364,"lon":5.36747,"is_reserved":false,"is_disabled":false,"rental_uris":{"android":"levelo://app?vid=e1e3e4d7-821d-4134-a13a-280ec3f9cbaa","ios":"levelo://app?vid=e1e3e4d7-821d-4134-a13a-280ec3f9cbaa"},"vehicle_type_id":"4","last_reported":1744107043,"current_range_meters":7200,"station_id":"ce4bhsh2rcd13ifvqi2g","pricing_plan_id":"cebpf4jnsgd1na2vs0mg"},{"bike_id":"65e5268e-41b7-455d-9f14-b69366cec1ac","system_id":"levelo_inurba_marseille","lat":43.27503,"lon":5.42451,"is_reserved":false,"is_disabled":false,"rental_uris":{"android":"levelo://app?vid=65e5268e-41b7-455d-9f14-b69366cec1ac","ios":"levelo://app?vid=65e5268e-41b7-455d-9f14-b69366cec1ac"},"vehicle_type_id":"4","last_reported":1744107043,"current_range_meters":8000,"station_id":"ce4bhn92rcd13ifvqgrg","pricing_plan_id":"cebpf4jnsgd1na2vs0mg"},{"bike_id":"85c88742-d94f-4116-8ecb-055ad88d5459","system_id":"levelo_inurba_marseille","lat":43.27511,"lon":5.42514,"is_reserved":false,"is_disabled":false,"rental_uris":{"android":"levelo://app?vid=85c88742-d94f-4116-8ecb-055ad88d5459","ios":"levelo://app?vid=85c88742-d94f-4116-8ecb-055ad88d5459"},"vehicle_type_id":"4","last_reported":1744107043,"current_range_meters":8000,"station_id":"ce4bhn92rcd13ifvqgrg","pricing_plan_id":"cebpf4jnsgd1na2vs0mg"},{"bike_id":"47f23708-5535-4149-ac75-998e76432576","system_id":"levelo_inurba_marseille","lat":43.30546,"lon":5.36544,"is_reserved":false,"is_disabled":false,"rental_uris":{"android":"levelo://app?vid=47f23708-5535-4149-ac75-998e76432576","ios":"levelo://app?vid=47f23708-5535-4149-ac75-998e76432576"},"vehicle_type_id":"4","last_reported":1744107043,"current_range_meters":8000,"station_id":"ce4bgs12rcd13ifvqcag","pricing_plan_id":"cebpf4jnsgd1na2vs0mg"},{"bike_id":"db77aa95-72db-470c-9c43-5322da612de8","system_id":"levelo_inurba_marseille","lat":43.31826,"lon":5.40191,"is_reserved":false,"is_disabled":false,"rental_uris":{"android":"levelo://app?vid=db77aa95-72db-470c-9c43-5322da612de8","ios":"levelo://app?vid=db77aa95-72db-470c-9c43-5322da612de8"},"vehicle_type_id":"4","last_reported":1744107043,"current_range_meters":8000,"station_id":"","pricing_plan_id":"cebpf4jnsgd1na2vs0mg"},{"bike_id":"026192e8-84c1-48df-bf77-5fbe7be18233","system_id":"levelo_inurba_marseille","lat":43.301361,"lon":5.387714,"is_reserved":false,"is_disabled":false,"rental_uris":{"android":"levelo://app?vid=026192e8-84c1-48df-bf77-5fbe7be18233","ios":"levelo://app?vid=026192e8-84c1-48df-bf77-5fbe7be18233"},"vehicle_type_id":"4","last_reported":1744107043,"current_range_meters":8000,"station_id":"ce4bgj92rcd13ifvqbe0","pricing_plan_id":"cebpf4jnsgd1na2vs0mg"},{"bike_id":"bec659b1-2ddb-41bf-9e2d-39084f6c1a4a","system_id":"levelo_inurba_marseille","lat":43.31715,"lon":5.424,"is_reserved":false,"is_disabled":false,"rental_uris":{"android":"levelo://app?vid=bec659b1-2ddb-41bf-9e2d-39084f6c1a4a","ios":"levelo://app?vid=bec659b1-2ddb-41bf-9e2d-39084f6c1a4a"},"vehicle_type_id":"4","last_reported":1744107043,"current_range_meters":8000,"station_id":"ce4bhp92rcd13ifvqhbg","pricing_plan_id":"cebpf4jnsgd1na2vs0mg"},{"bike_id":"cd577a70-1285-4212-be14-c738c01c14c9","system_id":"levelo_inurba_marseille","lat":43.33729,"lon":5.39187,"is_reserved":false,"is_disabled":false,"rental_uris":{"android":"levelo://app?vid=cd577a70-1285-4212-be14-c738c01c14c9","ios":"levelo://app?vid=cd577a70-1285-4212-be14-c738c01c14c9"},"vehicle_type_id":"4","last_reported":1744107043,"current_range_meters":8000,"station_id":"ce4bhr92rcd13ifvqhsg","pricing_plan_id":"cebpf4jnsgd1na2vs0mg"},{"bike_id":"7fc48b7d-ffa3-411f-a92a-466023b67adc","system_id":"levelo_inurba_marseille","lat":43.30189,"lon":5.36606,"is_reserved":false,"is_disabled":false,"rental_uris":{"android":"levelo://app?vid=7fc48b7d-ffa3-411f-a92a-466023b67adc","ios":"levelo://app?vid=7fc48b7d-ffa3-411f-a92a-466023b67adc"},"vehicle_type_id":"4","last_reported":1744107043,"current_range_meters":8000,"station_id":"ce4bgrh2rcd13ifvqc8g","pricing_plan_id":"cebpf4jnsgd1na2vs0mg"},{"bike_id":"9972aee6-4470-443a-8e14-c2078bb91c0d","system_id":"levelo_inurba_marseille","lat":43.31225,"lon":5.3707,"is_reserved":false,"is_disabled":false,"rental_uris":{"android":"levelo://app?vid=9972aee6-4470-443a-8e14-c2078bb91c0d","ios":"levelo://app?vid=9972aee6-4470-443a-8e14-c2078bb91c0d"},"vehicle_type_id":"4","last_reported":1744107043,"current_range_meters":8000,"station_id":"","pricing_plan_id":"cebpf4jnsgd1na2vs0mg"},{"bike_id":"717e4a2b-312c-4c87-b19d-4ea15e0c33cc","system_id":"levelo_inurba_marseille","lat":43.313657,"lon":5.36707,"is_reserved":false,"is_disabled":true,"rental_uris":{"android":"levelo://app?vid=717e4a2b-312c-4c87-b19d-4ea15e0c33cc","ios":"levelo://app?vid=717e4a2b-312c-4c87-b19d-4ea15e0c33cc"},"vehicle_type_id":"4","last_reported":1744107043,"current_range_meters":8000,"station_id":"ce4bgr92rcd13ifvqc6g","pricing_plan_id":"cebpf4jnsgd1na2vs0mg"},{"bike_id":"59b207a3-882f-4d4d-baf7-94bdc7432f34","system_id":"levelo_inurba_marseille","lat":43.25116,"lon":5.40314,"is_reserved":false,"is_disabled":false,"rental_uris":{"android":"levelo://app?vid=59b207a3-882f-4d4d-baf7-94bdc7432f34","ios":"levelo://app?vid=59b207a3-882f-4d4d-baf7-94bdc7432f34"},"vehicle_type_id":"4","last_reported":1744107043,"current_range_meters":8000,"station_id":"ce4bhlh2rcd13ifvqgig","pricing_plan_id":"cebpf4jnsgd1na2vs0mg"},{"bike_id":"d0a103db-62f8-4ca8-a2ae-c4ba672ec094","system_id":"levelo_inurba_marseille","lat":43.29618,"lon":5.37738,"is_reserved":false,"is_disabled":false,"rental_uris":{"android":"levelo://app?vid=d0a103db-62f8-4ca8-a2ae-c4ba672ec094","ios":"levelo://app?vid=d0a103db-62f8-4ca8-a2ae-c4ba672ec094"},"vehicle_type_id":"4","last_reported":1744107043,"current_range_meters":8000,"station_id":"ce4bgi92rcd13ifvqb90","pricing_plan_id":"cebpf4jnsgd1na2vs0mg"},{"bike_id":"4fe21798-e4d1-4985-bc15-6a7a89cb6541","system_id":"levelo_inurba_marseille","lat":43.21188,"lon":5.35073,"is_reserved":false,"is_disabled":false,"rental_uris":{"android":"levelo://app?vid=4fe21798-e4d1-4985-bc15-6a7a89cb6541","ios":"levelo://app?vid=4fe21798-e4d1-4985-bc15-6a7a89cb6541"},"vehicle_type_id":"4","last_reported":1744107043,"current_range_meters":8000,"station_id":"st_cvj6sg6p6f1abm77japg","pricing_plan_id":"cebpf4jnsgd1na2vs0mg"},{"bike_id":"e338240f-435f-4193-8417-a9c441797f7a","system_id":"levelo_inurba_marseille","lat":43.27494,"lon":5.42447,"is_reserved":false,"is_disabled":false,"rental_uris":{"android":"levelo://app?vid=e338240f-435f-4193-8417-a9c441797f7a","ios":"levelo://app?vid=e338240f-435f-4193-8417-a9c441797f7a"},"vehicle_type_id":"4","last_reported":1744107043,"current_range_meters":8400,"station_id":"ce4bhn92rcd13ifvqgrg","pricing_plan_id":"cebpf4jnsgd1na2vs0mg"},{"bike_id":"750bc9c2-8244-4f27-a571-77c62d7d6b92","system_id":"levelo_inurba_marseille","lat":43.31276,"lon":5.37767,"is_reserved":false,"is_disabled":false,"rental_uris":{"android":"levelo://app?vid=750bc9c2-8244-4f27-a571-77c62d7d6b92","ios":"levelo://app?vid=750bc9c2-8244-4f27-a571-77c62d7d6b92"},"vehicle_type_id":"4","last_reported":1744107043,"current_range_meters":8400,"station_id":"","pricing_plan_id":"cebpf4jnsgd1na2vs0mg"},{"bike_id":"7b3646e0-cbf2-40de-92a8-c829ec618775","system_id":"levelo_inurba_marseille","lat":43.31992,"lon":5.38151,"is_reserved":false,"is_disabled":true,"rental_uris":{"android":"levelo://app?vid=7b3646e0-cbf2-40de-92a8-c829ec618775","ios":"levelo://app?vid=7b3646e0-cbf2-40de-92a8-c829ec618775"},"vehicle_type_id":"4","last_reported":1744107043,"current_range_meters":8400,"station_id":"ce4bhr12rcd13ifvqhpg","pricing_plan_id":"cebpf4jnsgd1na2vs0mg"},{"bike_id":"3cbad1fb-d71d-4e4f-90fa-c1465f9f9b65","system_id":"levelo_inurba_marseille","lat":43.21195,"lon":5.35071,"is_reserved":false,"is_disabled":true,"rental_uris":{"android":"levelo://app?vid=3cbad1fb-d71d-4e4f-90fa-c1465f9f9b65","ios":"levelo://app?vid=3cbad1fb-d71d-4e4f-90fa-c1465f9f9b65"},"vehicle_type_id":"4","last_reported":1744107043,"current_range_meters":8400,"station_id":"st_cvj6sg6p6f1abm77japg","pricing_plan_id":"cebpf4jnsgd1na2vs0mg"},{"bike_id":"d73b5afb-86df-49ce-8b4e-1508cc4a6012","system_id":"levelo_inurba_marseille","lat":43.30893,"lon":5.37178,"is_reserved":false,"is_disabled":false,"rental_uris":{"android":"levelo://app?vid=d73b5afb-86df-49ce-8b4e-1508cc4a6012","ios":"levelo://app?vid=d73b5afb-86df-49ce-8b4e-1508cc4a6012"},"vehicle_type_id":"4","last_reported":1744107043,"current_range_meters":8400,"station_id":"ce4bguh2rcd13ifvqckg","pricing_plan_id":"cebpf4jnsgd1na2vs0mg"},{"bike_id":"444a5f07-09c5-40f5-8d58-60f1f25c67b9","system_id":"levelo_inurba_marseille","lat":43.319909,"lon":5.381486,"is_reserved":false,"is_disabled":false,"rental_uris":{"android":"levelo://app?vid=444a5f07-09c5-40f5-8d58-60f1f25c67b9","ios":"levelo://app?vid=444a5f07-09c5-40f5-8d58-60f1f25c67b9"},"vehicle_type_id":"4","last_reported":1744107043,"current_range_meters":8400,"station_id":"ce4bhr12rcd13ifvqhpg","pricing_plan_id":"cebpf4jnsgd1na2vs0mg"},{"bike_id":"485f24a3-8ba6-4caa-8780-8392668d8f6b","system_id":"levelo_inurba_marseille","lat":43.31715,"lon":5.37833,"is_reserved":false,"is_disabled":true,"rental_uris":{"android":"levelo://app?vid=485f24a3-8ba6-4caa-8780-8392668d8f6b","ios":"levelo://app?vid=485f24a3-8ba6-4caa-8780-8392668d8f6b"},"vehicle_type_id":"4","last_reported":1744107043,"current_range_meters":8800,"station_id":"","pricing_plan_id":"cebpf4jnsgd1na2vs0mg"},{"bike_id":"f39be6f5-2f69-4c37-b021-559d20b299a4","system_id":"levelo_inurba_marseille","lat":43.30007,"lon":5.37632,"is_reserved":false,"is_disabled":false,"rental_uris":{"android":"levelo://app?vid=f39be6f5-2f69-4c37-b021-559d20b299a4","ios":"levelo://app?vid=f39be6f5-2f69-4c37-b021-559d20b299a4"},"vehicle_type_id":"4","last_reported":1744107043,"current_range_meters":8800,"station_id":"","pricing_plan_id":"cebpf4jnsgd1na2vs0mg"},{"bike_id":"f54ed993-fedb-455c-8329-424ac8299963","system_id":"levelo_inurba_marseille","lat":43.32347,"lon":5.36763,"is_reserved":false,"is_disabled":false,"rental_uris":{"android":"levelo://app?vid=f54ed993-fedb-455c-8329-424ac8299963","ios":"levelo://app?vid=f54ed993-fedb-455c-8329-424ac8299963"},"vehicle_type_id":"4","last_reported":1744107043,"current_range_meters":8800,"station_id":"ce4bhsh2rcd13ifvqi2g","pricing_plan_id":"cebpf4jnsgd1na2vs0mg"},{"bike_id":"c77e7920-453c-4e49-a7ce-04f879a40a76","system_id":"levelo_inurba_marseille","lat":43.28473,"lon":5.35883,"is_reserved":false,"is_disabled":false,"rental_uris":{"android":"levelo://app?vid=c77e7920-453c-4e49-a7ce-04f879a40a76","ios":"levelo://app?vid=c77e7920-453c-4e49-a7ce-04f879a40a76"},"vehicle_type_id":"4","last_reported":1744107043,"current_range_meters":8800,"station_id":"ce4bhah2rcd13ifvqei0","pricing_plan_id":"cebpf4jnsgd1na2vs0mg"},{"bike_id":"2e9000dc-6400-4918-a994-dd60039ca96d","system_id":"levelo_inurba_marseille","lat":43.31999,"lon":5.3815,"is_reserved":false,"is_disabled":true,"rental_uris":{"android":"levelo://app?vid=2e9000dc-6400-4918-a994-dd60039ca96d","ios":"levelo://app?vid=2e9000dc-6400-4918-a994-dd60039ca96d"},"vehicle_type_id":"4","last_reported":1744107043,"current_range_meters":8800,"station_id":"ce4bhr12rcd13ifvqhpg","pricing_plan_id":"cebpf4jnsgd1na2vs0mg"},{"bike_id":"4ab8bcb3-8baa-4569-8931-fe048664aa3d","system_id":"levelo_inurba_marseille","lat":43.231953,"lon":5.355467,"is_reserved":false,"is_disabled":false,"rental_uris":{"android":"levelo://app?vid=4ab8bcb3-8baa-4569-8931-fe048664aa3d","ios":"levelo://app?vid=4ab8bcb3-8baa-4569-8931-fe048664aa3d"},"vehicle_type_id":"4","last_reported":1744107043,"current_range_meters":9200,"station_id":"ce4bhu92rcd13ifvqi70","pricing_plan_id":"cebpf4jnsgd1na2vs0mg"},{"bike_id":"5aa4a163-ddac-4a55-af8a-e812cfd53143","system_id":"levelo_inurba_marseille","lat":43.27211,"lon":5.39174,"is_reserved":false,"is_disabled":false,"rental_uris":{"android":"levelo://app?vid=5aa4a163-ddac-4a55-af8a-e812cfd53143","ios":"levelo://app?vid=5aa4a163-ddac-4a55-af8a-e812cfd53143"},"vehicle_type_id":"4","last_reported":1744107043,"current_range_meters":9200,"station_id":"ce4bhhp2rcd13ifvqfm0","pricing_plan_id":"cebpf4jnsgd1na2vs0mg"},{"bike_id":"d1789c99-5c7c-4e88-9d29-ce771e783c08","system_id":"levelo_inurba_marseille","lat":43.310063,"lon":5.377238,"is_reserved":false,"is_disabled":false,"rental_uris":{"android":"levelo://app?vid=d1789c99-5c7c-4e88-9d29-ce771e783c08","ios":"levelo://app?vid=d1789c99-5c7c-4e88-9d29-ce771e783c08"},"vehicle_type_id":"4","last_reported":1744107043,"current_range_meters":9200,"station_id":"","pricing_plan_id":"cebpf4jnsgd1na2vs0mg"},{"bike_id":"3576b946-70b3-456f-a60a-d98e227f015c","system_id":"levelo_inurba_marseille","lat":43.30094,"lon":5.38222,"is_reserved":false,"is_disabled":false,"rental_uris":{"android":"levelo://app?vid=3576b946-70b3-456f-a60a-d98e227f015c","ios":"levelo://app?vid=3576b946-70b3-456f-a60a-d98e227f015c"},"vehicle_type_id":"4","last_reported":1744107043,"current_range_meters":9200,"station_id":"ce4bgup2rcd13ifvqcn0","pricing_plan_id":"cebpf4jnsgd1na2vs0mg"},{"bike_id":"a2aa9a2c-4930-4a18-b47b-4e215d4c4159","system_id":"levelo_inurba_marseille","lat":43.30886,"lon":5.37194,"is_reserved":false,"is_disabled":false,"rental_uris":{"android":"levelo://app?vid=a2aa9a2c-4930-4a18-b47b-4e215d4c4159","ios":"levelo://app?vid=a2aa9a2c-4930-4a18-b47b-4e215d4c4159"},"vehicle_type_id":"4","last_reported":1744107043,"current_range_meters":8800,"station_id":"ce4bguh2rcd13ifvqckg","pricing_plan_id":"cebpf4jnsgd1na2vs0mg"},{"bike_id":"99a6a75e-eaea-44bc-8a64-878e7edc2729","system_id":"levelo_inurba_marseille","lat":43.30136,"lon":5.37411,"is_reserved":false,"is_disabled":false,"rental_uris":{"android":"levelo://app?vid=99a6a75e-eaea-44bc-8a64-878e7edc2729","ios":"levelo://app?vid=99a6a75e-eaea-44bc-8a64-878e7edc2729"},"vehicle_type_id":"4","last_reported":1744107043,"current_range_meters":9600,"station_id":"ce4bgs92rcd13ifvqcc0","pricing_plan_id":"cebpf4jnsgd1na2vs0mg"},{"bike_id":"91af7c49-4122-4f83-a08d-fc084211eb7b","system_id":"levelo_inurba_marseille","lat":43.31351,"lon":5.36709,"is_reserved":false,"is_disabled":false,"rental_uris":{"android":"levelo://app?vid=91af7c49-4122-4f83-a08d-fc084211eb7b","ios":"levelo://app?vid=91af7c49-4122-4f83-a08d-fc084211eb7b"},"vehicle_type_id":"4","last_reported":1744107043,"current_range_meters":9600,"station_id":"ce4bgr92rcd13ifvqc6g","pricing_plan_id":"cebpf4jnsgd1na2vs0mg"},{"bike_id":"91280ebd-28ba-47b5-bd60-b9f91a82422d","system_id":"levelo_inurba_marseille","lat":43.32359,"lon":5.36753,"is_reserved":false,"is_disabled":false,"rental_uris":{"android":"levelo://app?vid=91280ebd-28ba-47b5-bd60-b9f91a82422d","ios":"levelo://app?vid=91280ebd-28ba-47b5-bd60-b9f91a82422d"},"vehicle_type_id":"4","last_reported":1744107043,"current_range_meters":9600,"station_id":"ce4bhsh2rcd13ifvqi2g","pricing_plan_id":"cebpf4jnsgd1na2vs0mg"},{"bike_id":"494ef75b-f00c-4d3f-bd66-d99c84c8caa8","system_id":"levelo_inurba_marseille","lat":43.2862,"lon":5.35101,"is_reserved":false,"is_disabled":false,"rental_uris":{"android":"levelo://app?vid=494ef75b-f00c-4d3f-bd66-d99c84c8caa8","ios":"levelo://app?vid=494ef75b-f00c-4d3f-bd66-d99c84c8caa8"},"vehicle_type_id":"4","last_reported":1744107043,"current_range_meters":9600,"station_id":"ce4bhch2rcd13ifvqeug","pricing_plan_id":"cebpf4jnsgd1na2vs0mg"},{"bike_id":"dff0c398-5457-4c82-99b9-071db8607d47","system_id":"levelo_inurba_marseille","lat":43.25691,"lon":5.41932,"is_reserved":false,"is_disabled":false,"rental_uris":{"android":"levelo://app?vid=dff0c398-5457-4c82-99b9-071db8607d47","ios":"levelo://app?vid=dff0c398-5457-4c82-99b9-071db8607d47"},"vehicle_type_id":"4","last_reported":1744107043,"current_range_meters":10000,"station_id":"","pricing_plan_id":"cebpf4jnsgd1na2vs0mg"},{"bike_id":"f17ce36f-e80a-4732-89e2-7a7dfab19d87","system_id":"levelo_inurba_marseille","lat":43.29909,"lon":5.43649,"is_reserved":false,"is_disabled":false,"rental_uris":{"android":"levelo://app?vid=f17ce36f-e80a-4732-89e2-7a7dfab19d87","ios":"levelo://app?vid=f17ce36f-e80a-4732-89e2-7a7dfab19d87"},"vehicle_type_id":"4","last_reported":1744107043,"current_range_meters":10000,"station_id":"ce4bhpp2rcd13ifvqhfg","pricing_plan_id":"cebpf4jnsgd1na2vs0mg"},{"bike_id":"82f28cf6-556c-431d-a12b-bd3ce5fc2f28","system_id":"levelo_inurba_marseille","lat":43.27518,"lon":5.37738,"is_reserved":false,"is_disabled":false,"rental_uris":{"android":"levelo://app?vid=82f28cf6-556c-431d-a12b-bd3ce5fc2f28","ios":"levelo://app?vid=82f28cf6-556c-431d-a12b-bd3ce5fc2f28"},"vehicle_type_id":"4","last_reported":1744107043,"current_range_meters":10000,"station_id":"","pricing_plan_id":"cebpf4jnsgd1na2vs0mg"},{"bike_id":"89771962-fe60-4144-a8a6-39dd0f7b9fb3","system_id":"levelo_inurba_marseille","lat":43.21205,"lon":5.35068,"is_reserved":false,"is_disabled":false,"rental_uris":{"android":"levelo://app?vid=89771962-fe60-4144-a8a6-39dd0f7b9fb3","ios":"levelo://app?vid=89771962-fe60-4144-a8a6-39dd0f7b9fb3"},"vehicle_type_id":"4","last_reported":1744107043,"current_range_meters":10000,"station_id":"st_cvj6sg6p6f1abm77japg","pricing_plan_id":"cebpf4jnsgd1na2vs0mg"},{"bike_id":"47390e30-a828-4870-8d59-cde37b414a1c","system_id":"levelo_inurba_marseille","lat":43.24181,"lon":5.39739,"is_reserved":false,"is_disabled":false,"rental_uris":{"android":"levelo://app?vid=47390e30-a828-4870-8d59-cde37b414a1c","ios":"levelo://app?vid=47390e30-a828-4870-8d59-cde37b414a1c"},"vehicle_type_id":"4","last_reported":1744107043,"current_range_meters":10000,"station_id":"ce4bhn12rcd13ifvqgpg","pricing_plan_id":"cebpf4jnsgd1na2vs0mg"},{"bike_id":"5a475000-36b6-4405-b60a-ed2b0d4ccefa","system_id":"levelo_inurba_marseille","lat":43.29033,"lon":5.39973,"is_reserved":false,"is_disabled":false,"rental_uris":{"android":"levelo://app?vid=5a475000-36b6-4405-b60a-ed2b0d4ccefa","ios":"levelo://app?vid=5a475000-36b6-4405-b60a-ed2b0d4ccefa"},"vehicle_type_id":"4","last_reported":1744107043,"current_range_meters":10000,"station_id":"ce4bh392rcd13ifvqdm0","pricing_plan_id":"cebpf4jnsgd1na2vs0mg"},{"bike_id":"03bc994a-af9a-4590-9961-4f29360e5de4","system_id":"levelo_inurba_marseille","lat":43.28422,"lon":5.34987,"is_reserved":false,"is_disabled":false,"rental_uris":{"android":"levelo://app?vid=03bc994a-af9a-4590-9961-4f29360e5de4","ios":"levelo://app?vid=03bc994a-af9a-4590-9961-4f29360e5de4"},"vehicle_type_id":"4","last_reported":1744107043,"current_range_meters":10000,"station_id":"ce4bhbh2rcd13ifvqepg","pricing_plan_id":"cebpf4jnsgd1na2vs0mg"},{"bike_id":"c2e11a75-6434-4427-87ef-b922323320c9","system_id":"levelo_inurba_marseille","lat":43.28268,"lon":5.35055,"is_reserved":false,"is_disabled":false,"rental_uris":{"android":"levelo://app?vid=c2e11a75-6434-4427-87ef-b922323320c9","ios":"levelo://app?vid=c2e11a75-6434-4427-87ef-b922323320c9"},"vehicle_type_id":"4","last_reported":1744107043,"current_range_meters":10000,"station_id":"ce4bhbp2rcd13ifvqerg","pricing_plan_id":"cebpf4jnsgd1na2vs0mg"},{"bike_id":"04cb063e-9511-42ae-b755-6071ad2962cd","system_id":"levelo_inurba_marseille","lat":43.30876,"lon":5.39637,"is_reserved":false,"is_disabled":false,"rental_uris":{"android":"levelo://app?vid=04cb063e-9511-42ae-b755-6071ad2962cd","ios":"levelo://app?vid=04cb063e-9511-42ae-b755-6071ad2962cd"},"vehicle_type_id":"4","last_reported":1744107043,"current_range_meters":10000,"station_id":"ce4bh012rcd13ifvqcv0","pricing_plan_id":"cebpf4jnsgd1na2vs0mg"},{"bike_id":"c1b957aa-7a14-4e7d-a8c3-970ed890784b","system_id":"levelo_inurba_marseille","lat":43.29275,"lon":5.36846,"is_reserved":false,"is_disabled":false,"rental_uris":{"android":"levelo://app?vid=c1b957aa-7a14-4e7d-a8c3-970ed890784b","ios":"levelo://app?vid=c1b957aa-7a14-4e7d-a8c3-970ed890784b"},"vehicle_type_id":"4","last_reported":1744107043,"current_range_meters":10800,"station_id":"ce4bhbp2rcd13ifvqesg","pricing_plan_id":"cebpf4jnsgd1na2vs0mg"},{"bike_id":"849832a1-7eae-4bc3-93d9-b790fc1979bf","system_id":"levelo_inurba_marseille","lat":43.29228,"lon":5.36075,"is_reserved":false,"is_disabled":false,"rental_uris":{"android":"levelo://app?vid=849832a1-7eae-4bc3-93d9-b790fc1979bf","ios":"levelo://app?vid=849832a1-7eae-4bc3-93d9-b790fc1979bf"},"vehicle_type_id":"4","last_reported":1744107043,"current_range_meters":10800,"station_id":"ce4bhbh2rcd13ifvqeqg","pricing_plan_id":"cebpf4jnsgd1na2vs0mg"},{"bike_id":"3c5fa210-d151-4b6a-a791-503480bbfa40","system_id":"levelo_inurba_marseille","lat":43.30421,"lon":5.39753,"is_reserved":false,"is_disabled":false,"rental_uris":{"android":"levelo://app?vid=3c5fa210-d151-4b6a-a791-503480bbfa40","ios":"levelo://app?vid=3c5fa210-d151-4b6a-a791-503480bbfa40"},"vehicle_type_id":"4","last_reported":1744107043,"current_range_meters":10000,"station_id":"ce4bh092rcd13ifvqd20","pricing_plan_id":"cebpf4jnsgd1na2vs0mg"},{"bike_id":"cc709598-b277-459e-9b83-ca30d9dc669e","system_id":"levelo_inurba_marseille","lat":43.21738,"lon":5.34591,"is_reserved":false,"is_disabled":false,"rental_uris":{"android":"levelo://app?vid=cc709598-b277-459e-9b83-ca30d9dc669e","ios":"levelo://app?vid=cc709598-b277-459e-9b83-ca30d9dc669e"},"vehicle_type_id":"4","last_reported":1744107043,"current_range_meters":10800,"station_id":"st_cvj6r9ubvosntc0bgbag","pricing_plan_id":"cebpf4jnsgd1na2vs0mg"},{"bike_id":"8936a820-0fc9-4cfb-a7e0-bc7bd2bca27c","system_id":"levelo_inurba_marseille","lat":43.32482,"lon":5.36549,"is_reserved":false,"is_disabled":false,"rental_uris":{"android":"levelo://app?vid=8936a820-0fc9-4cfb-a7e0-bc7bd2bca27c","ios":"levelo://app?vid=8936a820-0fc9-4cfb-a7e0-bc7bd2bca27c"},"vehicle_type_id":"4","last_reported":1744107043,"current_range_meters":11200,"station_id":"ce4bhs12rcd13ifvqhvg","pricing_plan_id":"cebpf4jnsgd1na2vs0mg"},{"bike_id":"4e46624a-39ee-4246-9fdb-b0a50f478f54","system_id":"levelo_inurba_marseille","lat":43.28399,"lon":5.37514,"is_reserved":false,"is_disabled":false,"rental_uris":{"android":"levelo://app?vid=4e46624a-39ee-4246-9fdb-b0a50f478f54","ios":"levelo://app?vid=4e46624a-39ee-4246-9fdb-b0a50f478f54"},"vehicle_type_id":"4","last_reported":1744107043,"current_range_meters":11200,"station_id":"ce4bh412rcd13ifvqds0","pricing_plan_id":"cebpf4jnsgd1na2vs0mg"},{"bike_id":"26b4bbfa-14df-49e1-be23-9f3973790c90","system_id":"levelo_inurba_marseille","lat":43.301483,"lon":5.381005,"is_reserved":false,"is_disabled":false,"rental_uris":{"android":"levelo://app?vid=26b4bbfa-14df-49e1-be23-9f3973790c90","ios":"levelo://app?vid=26b4bbfa-14df-49e1-be23-9f3973790c90"},"vehicle_type_id":"4","last_reported":1744107043,"current_range_meters":11200,"station_id":"ce4bgjp2rcd13ifvqbh0","pricing_plan_id":"cebpf4jnsgd1na2vs0mg"},{"bike_id":"57c4e6e8-026a-4350-b996-12df6b497807","system_id":"levelo_inurba_marseille","lat":43.29616,"lon":5.37711,"is_reserved":false,"is_disabled":true,"rental_uris":{"android":"levelo://app?vid=57c4e6e8-026a-4350-b996-12df6b497807","ios":"levelo://app?vid=57c4e6e8-026a-4350-b996-12df6b497807"},"vehicle_type_id":"4","last_reported":1744107043,"current_range_meters":11200,"station_id":"ce4bgi92rcd13ifvqb90","pricing_plan_id":"cebpf4jnsgd1na2vs0mg"},{"bike_id":"5b76e7b8-bbb9-404a-8218-efeecbc6b7f2","system_id":"levelo_inurba_marseille","lat":43.24171,"lon":5.39741,"is_reserved":false,"is_disabled":false,"rental_uris":{"android":"levelo://app?vid=5b76e7b8-bbb9-404a-8218-efeecbc6b7f2","ios":"levelo://app?vid=5b76e7b8-bbb9-404a-8218-efeecbc6b7f2"},"vehicle_type_id":"4","last_reported":1744107043,"current_range_meters":11200,"station_id":"ce4bhn12rcd13ifvqgpg","pricing_plan_id":"cebpf4jnsgd1na2vs0mg"},{"bike_id":"86c1db0b-896c-4a92-a98c-9b2db961a8db","system_id":"levelo_inurba_marseille","lat":43.27376,"lon":5.36252,"is_reserved":false,"is_disabled":false,"rental_uris":{"android":"levelo://app?vid=86c1db0b-896c-4a92-a98c-9b2db961a8db","ios":"levelo://app?vid=86c1db0b-896c-4a92-a98c-9b2db961a8db"},"vehicle_type_id":"4","last_reported":1744107043,"current_range_meters":11200,"station_id":"ce4bhbh2rcd13ifvqeo0","pricing_plan_id":"cebpf4jnsgd1na2vs0mg"},{"bike_id":"0afed779-407d-455d-a0b7-f04caa260d0f","system_id":"levelo_inurba_marseille","lat":43.31718,"lon":5.43702,"is_reserved":false,"is_disabled":true,"rental_uris":{"android":"levelo://app?vid=0afed779-407d-455d-a0b7-f04caa260d0f","ios":"levelo://app?vid=0afed779-407d-455d-a0b7-f04caa260d0f"},"vehicle_type_id":"4","last_reported":1744107043,"current_range_meters":11600,"station_id":"ce4bhp92rcd13ifvqhcg","pricing_plan_id":"cebpf4jnsgd1na2vs0mg"},{"bike_id":"0748ce16-1dbb-4683-afb9-eabebbdfd5a5","system_id":"levelo_inurba_marseille","lat":43.2922,"lon":5.40014,"is_reserved":false,"is_disabled":false,"rental_uris":{"android":"levelo://app?vid=0748ce16-1dbb-4683-afb9-eabebbdfd5a5","ios":"levelo://app?vid=0748ce16-1dbb-4683-afb9-eabebbdfd5a5"},"vehicle_type_id":"4","last_reported":1744107043,"current_range_meters":11600,"station_id":"","pricing_plan_id":"cebpf4jnsgd1na2vs0mg"},{"bike_id":"8a08216c-264c-40c9-baa0-51102ea40b4f","system_id":"levelo_inurba_marseille","lat":43.26688,"lon":5.3827,"is_reserved":false,"is_disabled":false,"rental_uris":{"android":"levelo://app?vid=8a08216c-264c-40c9-baa0-51102ea40b4f","ios":"levelo://app?vid=8a08216c-264c-40c9-baa0-51102ea40b4f"},"vehicle_type_id":"4","last_reported":1744107043,"current_range_meters":11600,"station_id":"ce4bhg92rcd13ifvqf90","pricing_plan_id":"cebpf4jnsgd1na2vs0mg"},{"bike_id":"a613de97-0090-4415-bf45-b9a7dfc2a534","system_id":"levelo_inurba_marseille","lat":43.24166,"lon":5.36395,"is_reserved":false,"is_disabled":false,"rental_uris":{"android":"levelo://app?vid=a613de97-0090-4415-bf45-b9a7dfc2a534","ios":"levelo://app?vid=a613de97-0090-4415-bf45-b9a7dfc2a534"},"vehicle_type_id":"4","last_reported":1744107043,"current_range_meters":11600,"station_id":"cpo36qri1sfpv3e86is0","pricing_plan_id":"cebpf4jnsgd1na2vs0mg"},{"bike_id":"68d1cc33-0218-451e-8e10-d32225c21263","system_id":"levelo_inurba_marseille","lat":43.23145,"lon":5.43696,"is_reserved":false,"is_disabled":true,"rental_uris":{"android":"levelo://app?vid=68d1cc33-0218-451e-8e10-d32225c21263","ios":"levelo://app?vid=68d1cc33-0218-451e-8e10-d32225c21263"},"vehicle_type_id":"4","last_reported":1744107043,"current_range_meters":11600,"station_id":"ce4bhmp2rcd13ifvqgog","pricing_plan_id":"cebpf4jnsgd1na2vs0mg"},{"bike_id":"cf1ff944-6ec6-45c5-ad6f-1a6c9a1154b0","system_id":"levelo_inurba_marseille","lat":43.30915,"lon":5.36834,"is_reserved":false,"is_disabled":false,"rental_uris":{"android":"levelo://app?vid=cf1ff944-6ec6-45c5-ad6f-1a6c9a1154b0","ios":"levelo://app?vid=cf1ff944-6ec6-45c5-ad6f-1a6c9a1154b0"},"vehicle_type_id":"4","last_reported":1744107043,"current_range_meters":11600,"station_id":"ce4bgn92rcd13ifvqbvg","pricing_plan_id":"cebpf4jnsgd1na2vs0mg"},{"bike_id":"8ed52b8a-e83b-495a-8538-c6c57a81357c","system_id":"levelo_inurba_marseille","lat":43.29916,"lon":5.37478,"is_reserved":false,"is_disabled":false,"rental_uris":{"android":"levelo://app?vid=8ed52b8a-e83b-495a-8538-c6c57a81357c","ios":"levelo://app?vid=8ed52b8a-e83b-495a-8538-c6c57a81357c"},"vehicle_type_id":"4","last_reported":1744107043,"current_range_meters":11600,"station_id":"ce4bgjh2rcd13ifvqbg0","pricing_plan_id":"cebpf4jnsgd1na2vs0mg"},{"bike_id":"0aa02c49-cbb3-4907-a588-f754056f3ba8","system_id":"levelo_inurba_marseille","lat":43.30803,"lon":5.38155,"is_reserved":false,"is_disabled":true,"rental_uris":{"android":"levelo://app?vid=0aa02c49-cbb3-4907-a588-f754056f3ba8","ios":"levelo://app?vid=0aa02c49-cbb3-4907-a588-f754056f3ba8"},"vehicle_type_id":"4","last_reported":1744107043,"current_range_meters":12000,"station_id":"ce4bgt12rcd13ifvqce0","pricing_plan_id":"cebpf4jnsgd1na2vs0mg"},{"bike_id":"20fc5042-1d35-4e78-b5b4-05f75cbe7b93","system_id":"levelo_inurba_marseille","lat":43.30935,"lon":5.3683,"is_reserved":false,"is_disabled":false,"rental_uris":{"android":"levelo://app?vid=20fc5042-1d35-4e78-b5b4-05f75cbe7b93","ios":"levelo://app?vid=20fc5042-1d35-4e78-b5b4-05f75cbe7b93"},"vehicle_type_id":"4","last_reported":1744107043,"current_range_meters":12000,"station_id":"ce4bgn92rcd13ifvqbvg","pricing_plan_id":"cebpf4jnsgd1na2vs0mg"},{"bike_id":"4bacdaaa-7fb4-452a-b873-94dd24624c9a","system_id":"levelo_inurba_marseille","lat":43.31369,"lon":5.36717,"is_reserved":false,"is_disabled":false,"rental_uris":{"android":"levelo://app?vid=4bacdaaa-7fb4-452a-b873-94dd24624c9a","ios":"levelo://app?vid=4bacdaaa-7fb4-452a-b873-94dd24624c9a"},"vehicle_type_id":"4","last_reported":1744107043,"current_range_meters":12000,"station_id":"ce4bgr92rcd13ifvqc6g","pricing_plan_id":"cebpf4jnsgd1na2vs0mg"},{"bike_id":"a2b55975-55e4-4a3f-8af7-2c27ff45ed68","system_id":"levelo_inurba_marseille","lat":43.28154,"lon":5.42635,"is_reserved":false,"is_disabled":true,"rental_uris":{"android":"levelo://app?vid=a2b55975-55e4-4a3f-8af7-2c27ff45ed68","ios":"levelo://app?vid=a2b55975-55e4-4a3f-8af7-2c27ff45ed68"},"vehicle_type_id":"4","last_reported":1744107043,"current_range_meters":12400,"station_id":"ce4bhnh2rcd13ifvqgug","pricing_plan_id":"cebpf4jnsgd1na2vs0mg"},{"bike_id":"93e3fd92-d65f-4f36-ba40-a3e5476ebc87","system_id":"levelo_inurba_marseille","lat":43.30659,"lon":5.36599,"is_reserved":false,"is_disabled":false,"rental_uris":{"android":"levelo://app?vid=93e3fd92-d65f-4f36-ba40-a3e5476ebc87","ios":"levelo://app?vid=93e3fd92-d65f-4f36-ba40-a3e5476ebc87"},"vehicle_type_id":"4","last_reported":1744107043,"current_range_meters":12400,"station_id":"","pricing_plan_id":"cebpf4jnsgd1na2vs0mg"},{"bike_id":"035ff1e0-d0ca-4ac9-a32b-c40f2cd290fa","system_id":"levelo_inurba_marseille","lat":43.28469,"lon":5.38421,"is_reserved":false,"is_disabled":false,"rental_uris":{"android":"levelo://app?vid=035ff1e0-d0ca-4ac9-a32b-c40f2cd290fa","ios":"levelo://app?vid=035ff1e0-d0ca-4ac9-a32b-c40f2cd290fa"},"vehicle_type_id":"4","last_reported":1744107043,"current_range_meters":12400,"station_id":"ce4bh512rcd13ifvqe3g","pricing_plan_id":"cebpf4jnsgd1na2vs0mg"},{"bike_id":"1ca7d0c4-b7aa-4350-ad9f-4e24c2ba029a","system_id":"levelo_inurba_marseille","lat":43.303757,"lon":5.424899,"is_reserved":false,"is_disabled":true,"rental_uris":{"android":"levelo://app?vid=1ca7d0c4-b7aa-4350-ad9f-4e24c2ba029a","ios":"levelo://app?vid=1ca7d0c4-b7aa-4350-ad9f-4e24c2ba029a"},"vehicle_type_id":"4","last_reported":1744107043,"current_range_meters":12800,"station_id":"ce4bhoh2rcd13ifvqh6g","pricing_plan_id":"cebpf4jnsgd1na2vs0mg"},{"bike_id":"7acc71dc-9f96-41fa-ba1e-ee87122dbe86","system_id":"levelo_inurba_marseille","lat":43.3248,"lon":5.36562,"is_reserved":false,"is_disabled":false,"rental_uris":{"android":"levelo://app?vid=7acc71dc-9f96-41fa-ba1e-ee87122dbe86","ios":"levelo://app?vid=7acc71dc-9f96-41fa-ba1e-ee87122dbe86"},"vehicle_type_id":"4","last_reported":1744107043,"current_range_meters":12800,"station_id":"ce4bhs12rcd13ifvqhvg","pricing_plan_id":"cebpf4jnsgd1na2vs0mg"},{"bike_id":"c25cebe9-0724-4d96-8a8d-d22a0b8c00a4","system_id":"levelo_inurba_marseille","lat":43.24595,"lon":5.41573,"is_reserved":false,"is_disabled":false,"rental_uris":{"android":"levelo://app?vid=c25cebe9-0724-4d96-8a8d-d22a0b8c00a4","ios":"levelo://app?vid=c25cebe9-0724-4d96-8a8d-d22a0b8c00a4"},"vehicle_type_id":"4","last_reported":1744107043,"current_range_meters":12800,"station_id":"","pricing_plan_id":"cebpf4jnsgd1na2vs0mg"},{"bike_id":"c100526d-4d35-4657-a255-97c7221f1c44","system_id":"levelo_inurba_marseille","lat":43.29023,"lon":5.37548,"is_reserved":false,"is_disabled":true,"rental_uris":{"android":"levelo://app?vid=c100526d-4d35-4657-a255-97c7221f1c44","ios":"levelo://app?vid=c100526d-4d35-4657-a255-97c7221f1c44"},"vehicle_type_id":"4","last_reported":1744107043,"current_range_meters":12800,"station_id":"ce4bh692rcd13ifvqe90","pricing_plan_id":"cebpf4jnsgd1na2vs0mg"},{"bike_id":"d84416c1-9b22-4f2b-91b3-ca458a2884e3","system_id":"levelo_inurba_marseille","lat":43.24178,"lon":5.39729,"is_reserved":false,"is_disabled":false,"rental_uris":{"android":"levelo://app?vid=d84416c1-9b22-4f2b-91b3-ca458a2884e3","ios":"levelo://app?vid=d84416c1-9b22-4f2b-91b3-ca458a2884e3"},"vehicle_type_id":"4","last_reported":1744107043,"current_range_meters":12800,"station_id":"ce4bhn12rcd13ifvqgpg","pricing_plan_id":"cebpf4jnsgd1na2vs0mg"},{"bike_id":"cf1e3e29-0d99-4c8b-9d85-9649606fe6fe","system_id":"levelo_inurba_marseille","lat":43.3091,"lon":5.36846,"is_reserved":false,"is_disabled":false,"rental_uris":{"android":"levelo://app?vid=cf1e3e29-0d99-4c8b-9d85-9649606fe6fe","ios":"levelo://app?vid=cf1e3e29-0d99-4c8b-9d85-9649606fe6fe"},"vehicle_type_id":"4","last_reported":1744107043,"current_range_meters":12800,"station_id":"ce4bgn92rcd13ifvqbvg","pricing_plan_id":"cebpf4jnsgd1na2vs0mg"},{"bike_id":"5b6be73e-e697-452c-8046-980c42a9b685","system_id":"levelo_inurba_marseille","lat":43.32493,"lon":5.36541,"is_reserved":false,"is_disabled":false,"rental_uris":{"android":"levelo://app?vid=5b6be73e-e697-452c-8046-980c42a9b685","ios":"levelo://app?vid=5b6be73e-e697-452c-8046-980c42a9b685"},"vehicle_type_id":"4","last_reported":1744107043,"current_range_meters":12800,"station_id":"ce4bhs12rcd13ifvqhvg","pricing_plan_id":"cebpf4jnsgd1na2vs0mg"},{"bike_id":"f143ff2e-721e-493c-bcdc-a7d2cc09ad81","system_id":"levelo_inurba_marseille","lat":43.31026,"lon":5.37734,"is_reserved":false,"is_disabled":true,"rental_uris":{"android":"levelo://app?vid=f143ff2e-721e-493c-bcdc-a7d2cc09ad81","ios":"levelo://app?vid=f143ff2e-721e-493c-bcdc-a7d2cc09ad81"},"vehicle_type_id":"4","last_reported":1744107043,"current_range_meters":12800,"station_id":"","pricing_plan_id":"cebpf4jnsgd1na2vs0mg"},{"bike_id":"90783537-fc6a-4e00-a8c3-1dc70d12d604","system_id":"levelo_inurba_marseille","lat":43.261944,"lon":5.37451,"is_reserved":false,"is_disabled":false,"rental_uris":{"android":"levelo://app?vid=90783537-fc6a-4e00-a8c3-1dc70d12d604","ios":"levelo://app?vid=90783537-fc6a-4e00-a8c3-1dc70d12d604"},"vehicle_type_id":"4","last_reported":1744107043,"current_range_meters":12800,"station_id":"ce4bhgp2rcd13ifvqfc0","pricing_plan_id":"cebpf4jnsgd1na2vs0mg"},{"bike_id":"3b4e1299-1e40-4aec-ad7e-7eb21543e414","system_id":"levelo_inurba_marseille","lat":43.31199,"lon":5.36863,"is_reserved":false,"is_disabled":false,"rental_uris":{"android":"levelo://app?vid=3b4e1299-1e40-4aec-ad7e-7eb21543e414","ios":"levelo://app?vid=3b4e1299-1e40-4aec-ad7e-7eb21543e414"},"vehicle_type_id":"4","last_reported":1744107043,"current_range_meters":13600,"station_id":"ce4bgl92rcd13ifvqbq0","pricing_plan_id":"cebpf4jnsgd1na2vs0mg"},{"bike_id":"8991bbc7-c04c-4cc4-92b4-5ae99d405baf","system_id":"levelo_inurba_marseille","lat":43.2962,"lon":5.37709,"is_reserved":false,"is_disabled":false,"rental_uris":{"android":"levelo://app?vid=8991bbc7-c04c-4cc4-92b4-5ae99d405baf","ios":"levelo://app?vid=8991bbc7-c04c-4cc4-92b4-5ae99d405baf"},"vehicle_type_id":"4","last_reported":1744107043,"current_range_meters":13600,"station_id":"ce4bgi92rcd13ifvqb90","pricing_plan_id":"cebpf4jnsgd1na2vs0mg"},{"bike_id":"37956fe4-5744-431d-afa2-d35a2b0e9346","system_id":"levelo_inurba_marseille","lat":43.31365,"lon":5.36716,"is_reserved":false,"is_disabled":false,"rental_uris":{"android":"levelo://app?vid=37956fe4-5744-431d-afa2-d35a2b0e9346","ios":"levelo://app?vid=37956fe4-5744-431d-afa2-d35a2b0e9346"},"vehicle_type_id":"4","last_reported":1744107043,"current_range_meters":13600,"station_id":"ce4bgr92rcd13ifvqc6g","pricing_plan_id":"cebpf4jnsgd1na2vs0mg"},{"bike_id":"b8a6caa2-00c3-414e-9d64-b7fe58487054","system_id":"levelo_inurba_marseille","lat":43.30475,"lon":5.37907,"is_reserved":false,"is_disabled":false,"rental_uris":{"android":"levelo://app?vid=b8a6caa2-00c3-414e-9d64-b7fe58487054","ios":"levelo://app?vid=b8a6caa2-00c3-414e-9d64-b7fe58487054"},"vehicle_type_id":"4","last_reported":1744107043,"current_range_meters":13600,"station_id":"ce4bgup2rcd13ifvqcn0","pricing_plan_id":"cebpf4jnsgd1na2vs0mg"},{"bike_id":"9e524312-4eb1-42a9-8d5b-763346e53427","system_id":"levelo_inurba_marseille","lat":43.30537,"lon":5.36681,"is_reserved":false,"is_disabled":false,"rental_uris":{"android":"levelo://app?vid=9e524312-4eb1-42a9-8d5b-763346e53427","ios":"levelo://app?vid=9e524312-4eb1-42a9-8d5b-763346e53427"},"vehicle_type_id":"4","last_reported":1744107043,"current_range_meters":14000,"station_id":"ce4bgrp2rcd13ifvqc9g","pricing_plan_id":"cebpf4jnsgd1na2vs0mg"},{"bike_id":"38139b45-23c4-4700-909c-6a0f9eec90aa","system_id":"levelo_inurba_marseille","lat":43.21745,"lon":5.34596,"is_reserved":false,"is_disabled":false,"rental_uris":{"android":"levelo://app?vid=38139b45-23c4-4700-909c-6a0f9eec90aa","ios":"levelo://app?vid=38139b45-23c4-4700-909c-6a0f9eec90aa"},"vehicle_type_id":"4","last_reported":1744107043,"current_range_meters":14000,"station_id":"st_cvj6r9ubvosntc0bgbag","pricing_plan_id":"cebpf4jnsgd1na2vs0mg"},{"bike_id":"fb48a705-30de-407f-97ed-93b0cb05d459","system_id":"levelo_inurba_marseille","lat":43.31994,"lon":5.38166,"is_reserved":false,"is_disabled":false,"rental_uris":{"android":"levelo://app?vid=fb48a705-30de-407f-97ed-93b0cb05d459","ios":"levelo://app?vid=fb48a705-30de-407f-97ed-93b0cb05d459"},"vehicle_type_id":"4","last_reported":1744107043,"current_range_meters":14000,"station_id":"ce4bhr12rcd13ifvqhpg","pricing_plan_id":"cebpf4jnsgd1na2vs0mg"},{"bike_id":"b397701f-0d3d-44bf-ab3e-3ccc7e74fb2e","system_id":"levelo_inurba_marseille","lat":43.26428,"lon":5.42276,"is_reserved":false,"is_disabled":false,"rental_uris":{"android":"levelo://app?vid=b397701f-0d3d-44bf-ab3e-3ccc7e74fb2e","ios":"levelo://app?vid=b397701f-0d3d-44bf-ab3e-3ccc7e74fb2e"},"vehicle_type_id":"4","last_reported":1744107043,"current_range_meters":14000,"station_id":"","pricing_plan_id":"cebpf4jnsgd1na2vs0mg"},{"bike_id":"16812b35-8e35-42a3-974c-e768da60e32f","system_id":"levelo_inurba_marseille","lat":43.24973,"lon":5.38918,"is_reserved":false,"is_disabled":false,"rental_uris":{"android":"levelo://app?vid=16812b35-8e35-42a3-974c-e768da60e32f","ios":"levelo://app?vid=16812b35-8e35-42a3-974c-e768da60e32f"},"vehicle_type_id":"4","last_reported":1744107043,"current_range_meters":14400,"station_id":"ce4bhgp2rcd13ifvqfd0","pricing_plan_id":"cebpf4jnsgd1na2vs0mg"},{"bike_id":"f91422f8-3a61-49d9-abb4-c919064e76ce","system_id":"levelo_inurba_marseille","lat":43.31445,"lon":5.37361,"is_reserved":false,"is_disabled":false,"rental_uris":{"android":"levelo://app?vid=f91422f8-3a61-49d9-abb4-c919064e76ce","ios":"levelo://app?vid=f91422f8-3a61-49d9-abb4-c919064e76ce"},"vehicle_type_id":"4","last_reported":1744107043,"current_range_meters":14400,"station_id":"","pricing_plan_id":"cebpf4jnsgd1na2vs0mg"},{"bike_id":"67f5402e-84ba-4cca-bae1-1308d8bfce95","system_id":"levelo_inurba_marseille","lat":43.32367,"lon":5.36791,"is_reserved":false,"is_disabled":true,"rental_uris":{"android":"levelo://app?vid=67f5402e-84ba-4cca-bae1-1308d8bfce95","ios":"levelo://app?vid=67f5402e-84ba-4cca-bae1-1308d8bfce95"},"vehicle_type_id":"4","last_reported":1744107043,"current_range_meters":14400,"station_id":"ce4bhsh2rcd13ifvqi2g","pricing_plan_id":"cebpf4jnsgd1na2vs0mg"},{"bike_id":"980b4909-06e8-4961-a7b7-ea7871482c8f","system_id":"levelo_inurba_marseille","lat":43.31349,"lon":5.36697,"is_reserved":false,"is_disabled":false,"rental_uris":{"android":"levelo://app?vid=980b4909-06e8-4961-a7b7-ea7871482c8f","ios":"levelo://app?vid=980b4909-06e8-4961-a7b7-ea7871482c8f"},"vehicle_type_id":"4","last_reported":1744107043,"current_range_meters":14400,"station_id":"ce4bgr92rcd13ifvqc6g","pricing_plan_id":"cebpf4jnsgd1na2vs0mg"},{"bike_id":"d5544104-100b-4546-a28a-1cdfbd31e9a6","system_id":"levelo_inurba_marseille","lat":43.30459,"lon":5.37899,"is_reserved":false,"is_disabled":false,"rental_uris":{"android":"levelo://app?vid=d5544104-100b-4546-a28a-1cdfbd31e9a6","ios":"levelo://app?vid=d5544104-100b-4546-a28a-1cdfbd31e9a6"},"vehicle_type_id":"4","last_reported":1744107043,"current_range_meters":14400,"station_id":"ce4bgup2rcd13ifvqcn0","pricing_plan_id":"cebpf4jnsgd1na2vs0mg"},{"bike_id":"ce5ed1c9-72dc-47d4-b09c-55d7645e4525","system_id":"levelo_inurba_marseille","lat":43.2513,"lon":5.40404,"is_reserved":false,"is_disabled":false,"rental_uris":{"android":"levelo://app?vid=ce5ed1c9-72dc-47d4-b09c-55d7645e4525","ios":"levelo://app?vid=ce5ed1c9-72dc-47d4-b09c-55d7645e4525"},"vehicle_type_id":"4","last_reported":1744107043,"current_range_meters":14800,"station_id":"","pricing_plan_id":"cebpf4jnsgd1na2vs0mg"},{"bike_id":"65fcbb35-f94c-4eda-8aae-880ee014924c","system_id":"levelo_inurba_marseille","lat":43.24577,"lon":5.41731,"is_reserved":false,"is_disabled":false,"rental_uris":{"android":"levelo://app?vid=65fcbb35-f94c-4eda-8aae-880ee014924c","ios":"levelo://app?vid=65fcbb35-f94c-4eda-8aae-880ee014924c"},"vehicle_type_id":"4","last_reported":1744107043,"current_range_meters":15200,"station_id":"","pricing_plan_id":"cebpf4jnsgd1na2vs0mg"},{"bike_id":"8375ced3-3bfd-4e9e-aaf8-8982778bce8e","system_id":"levelo_inurba_marseille","lat":43.29406,"lon":5.386159,"is_reserved":false,"is_disabled":false,"rental_uris":{"android":"levelo://app?vid=8375ced3-3bfd-4e9e-aaf8-8982778bce8e","ios":"levelo://app?vid=8375ced3-3bfd-4e9e-aaf8-8982778bce8e"},"vehicle_type_id":"4","last_reported":1744107043,"current_range_meters":15200,"station_id":"ce4bhoh2rcd13ifvqh5g","pricing_plan_id":"cebpf4jnsgd1na2vs0mg"},{"bike_id":"2aff3da0-1529-4960-a86c-d64b02e2b8cd","system_id":"levelo_inurba_marseille","lat":43.23076,"lon":5.35474,"is_reserved":false,"is_disabled":false,"rental_uris":{"android":"levelo://app?vid=2aff3da0-1529-4960-a86c-d64b02e2b8cd","ios":"levelo://app?vid=2aff3da0-1529-4960-a86c-d64b02e2b8cd"},"vehicle_type_id":"4","last_reported":1744107043,"current_range_meters":15200,"station_id":"cpo3342slgdg3j2ifvpg","pricing_plan_id":"cebpf4jnsgd1na2vs0mg"},{"bike_id":"cf3106b4-8248-40d7-8663-663389754f29","system_id":"levelo_inurba_marseille","lat":43.28359,"lon":5.38627,"is_reserved":false,"is_disabled":false,"rental_uris":{"android":"levelo://app?vid=cf3106b4-8248-40d7-8663-663389754f29","ios":"levelo://app?vid=cf3106b4-8248-40d7-8663-663389754f29"},"vehicle_type_id":"4","last_reported":1744107043,"current_range_meters":15200,"station_id":"ce4bh492rcd13ifvqdvg","pricing_plan_id":"cebpf4jnsgd1na2vs0mg"},{"bike_id":"af24e20d-cd14-47b0-8e42-24aa1cee57db","system_id":"levelo_inurba_marseille","lat":43.274958,"lon":5.424646,"is_reserved":false,"is_disabled":false,"rental_uris":{"android":"levelo://app?vid=af24e20d-cd14-47b0-8e42-24aa1cee57db","ios":"levelo://app?vid=af24e20d-cd14-47b0-8e42-24aa1cee57db"},"vehicle_type_id":"4","last_reported":1744107043,"current_range_meters":15200,"station_id":"ce4bhn92rcd13ifvqgrg","pricing_plan_id":"cebpf4jnsgd1na2vs0mg"},{"bike_id":"852819f8-8577-46de-b1fa-432b264e47e4","system_id":"levelo_inurba_marseille","lat":43.24182,"lon":5.39733,"is_reserved":false,"is_disabled":false,"rental_uris":{"android":"levelo://app?vid=852819f8-8577-46de-b1fa-432b264e47e4","ios":"levelo://app?vid=852819f8-8577-46de-b1fa-432b264e47e4"},"vehicle_type_id":"4","last_reported":1744107043,"current_range_meters":16000,"station_id":"ce4bhn12rcd13ifvqgpg","pricing_plan_id":"cebpf4jnsgd1na2vs0mg"},{"bike_id":"75f40f38-7a40-426d-a0d7-73e36d23e0bf","system_id":"levelo_inurba_marseille","lat":43.30899,"lon":5.368457,"is_reserved":false,"is_disabled":false,"rental_uris":{"android":"levelo://app?vid=75f40f38-7a40-426d-a0d7-73e36d23e0bf","ios":"levelo://app?vid=75f40f38-7a40-426d-a0d7-73e36d23e0bf"},"vehicle_type_id":"4","last_reported":1744107043,"current_range_meters":15200,"station_id":"ce4bguh2rcd13ifvqcj0","pricing_plan_id":"cebpf4jnsgd1na2vs0mg"},{"bike_id":"a2905b9f-4c92-4ffe-b595-17e3c8468bc5","system_id":"levelo_inurba_marseille","lat":43.30552,"lon":5.36525,"is_reserved":false,"is_disabled":false,"rental_uris":{"android":"levelo://app?vid=a2905b9f-4c92-4ffe-b595-17e3c8468bc5","ios":"levelo://app?vid=a2905b9f-4c92-4ffe-b595-17e3c8468bc5"},"vehicle_type_id":"4","last_reported":1744107043,"current_range_meters":16000,"station_id":"ce4bgs12rcd13ifvqcag","pricing_plan_id":"cebpf4jnsgd1na2vs0mg"},{"bike_id":"387ac5ed-e918-4baf-9265-bad6bd096d63","system_id":"levelo_inurba_marseille","lat":43.27671,"lon":5.38868,"is_reserved":false,"is_disabled":false,"rental_uris":{"android":"levelo://app?vid=387ac5ed-e918-4baf-9265-bad6bd096d63","ios":"levelo://app?vid=387ac5ed-e918-4baf-9265-bad6bd096d63"},"vehicle_type_id":"4","last_reported":1744107043,"current_range_meters":16000,"station_id":"ce4bhi12rcd13ifvqfo0","pricing_plan_id":"cebpf4jnsgd1na2vs0mg"},{"bike_id":"7c6df20f-fde8-407a-bd77-bd51c1a0b1c4","system_id":"levelo_inurba_marseille","lat":43.304952,"lon":5.390706,"is_reserved":false,"is_disabled":false,"rental_uris":{"android":"levelo://app?vid=7c6df20f-fde8-407a-bd77-bd51c1a0b1c4","ios":"levelo://app?vid=7c6df20f-fde8-407a-bd77-bd51c1a0b1c4"},"vehicle_type_id":"4","last_reported":1744107043,"current_range_meters":16000,"station_id":"ce4bgl92rcd13ifvqbq0","pricing_plan_id":"cebpf4jnsgd1na2vs0mg"},{"bike_id":"5b5ffd5f-ff47-4b19-8c4c-94dc4ce8cd40","system_id":"levelo_inurba_marseille","lat":43.31194,"lon":5.36904,"is_reserved":false,"is_disabled":false,"rental_uris":{"android":"levelo://app?vid=5b5ffd5f-ff47-4b19-8c4c-94dc4ce8cd40","ios":"levelo://app?vid=5b5ffd5f-ff47-4b19-8c4c-94dc4ce8cd40"},"vehicle_type_id":"4","last_reported":1744107043,"current_range_meters":16000,"station_id":"ce4bgl92rcd13ifvqbq0","pricing_plan_id":"cebpf4jnsgd1na2vs0mg"},{"bike_id":"894661cc-155d-4b07-b27d-0326d226c2fb","system_id":"levelo_inurba_marseille","lat":43.30884,"lon":5.37201,"is_reserved":false,"is_disabled":false,"rental_uris":{"android":"levelo://app?vid=894661cc-155d-4b07-b27d-0326d226c2fb","ios":"levelo://app?vid=894661cc-155d-4b07-b27d-0326d226c2fb"},"vehicle_type_id":"4","last_reported":1744107043,"current_range_meters":16000,"station_id":"ce4bguh2rcd13ifvqckg","pricing_plan_id":"cebpf4jnsgd1na2vs0mg"},{"bike_id":"ff35585b-dc30-4393-959d-732e53b9fbc9","system_id":"levelo_inurba_marseille","lat":43.23155,"lon":5.43702,"is_reserved":false,"is_disabled":false,"rental_uris":{"android":"levelo://app?vid=ff35585b-dc30-4393-959d-732e53b9fbc9","ios":"levelo://app?vid=ff35585b-dc30-4393-959d-732e53b9fbc9"},"vehicle_type_id":"4","last_reported":1744107043,"current_range_meters":15200,"station_id":"ce4bhmp2rcd13ifvqgog","pricing_plan_id":"cebpf4jnsgd1na2vs0mg"},{"bike_id":"963c8010-06b3-47b1-b07c-1d268ac3a111","system_id":"levelo_inurba_marseille","lat":43.30528,"lon":5.36718,"is_reserved":false,"is_disabled":false,"rental_uris":{"android":"levelo://app?vid=963c8010-06b3-47b1-b07c-1d268ac3a111","ios":"levelo://app?vid=963c8010-06b3-47b1-b07c-1d268ac3a111"},"vehicle_type_id":"4","last_reported":1744107043,"current_range_meters":16400,"station_id":"ce4bgrp2rcd13ifvqc9g","pricing_plan_id":"cebpf4jnsgd1na2vs0mg"},{"bike_id":"30a4d1f0-006c-4926-95a3-88d581650e9f","system_id":"levelo_inurba_marseille","lat":43.31188,"lon":5.37698,"is_reserved":false,"is_disabled":false,"rental_uris":{"android":"levelo://app?vid=30a4d1f0-006c-4926-95a3-88d581650e9f","ios":"levelo://app?vid=30a4d1f0-006c-4926-95a3-88d581650e9f"},"vehicle_type_id":"4","last_reported":1744107043,"current_range_meters":16400,"station_id":"ce4bgt92rcd13ifvqcg0","pricing_plan_id":"cebpf4jnsgd1na2vs0mg"},{"bike_id":"b3eaef5b-dac9-4f1e-aa7e-dd808d1ba556","system_id":"levelo_inurba_marseille","lat":43.31331,"lon":5.36741,"is_reserved":false,"is_disabled":false,"rental_uris":{"android":"levelo://app?vid=b3eaef5b-dac9-4f1e-aa7e-dd808d1ba556","ios":"levelo://app?vid=b3eaef5b-dac9-4f1e-aa7e-dd808d1ba556"},"vehicle_type_id":"4","last_reported":1744107043,"current_range_meters":16400,"station_id":"ce4bgr92rcd13ifvqc6g","pricing_plan_id":"cebpf4jnsgd1na2vs0mg"},{"bike_id":"83d79f69-a5f7-4d63-ab0d-4827ab3a60ed","system_id":"levelo_inurba_marseille","lat":43.2991,"lon":5.37461,"is_reserved":false,"is_disabled":false,"rental_uris":{"android":"levelo://app?vid=83d79f69-a5f7-4d63-ab0d-4827ab3a60ed","ios":"levelo://app?vid=83d79f69-a5f7-4d63-ab0d-4827ab3a60ed"},"vehicle_type_id":"4","last_reported":1744107043,"current_range_meters":16800,"station_id":"ce4bgjh2rcd13ifvqbg0","pricing_plan_id":"cebpf4jnsgd1na2vs0mg"},{"bike_id":"e550d74a-e830-4a4b-91fb-45079a405831","system_id":"levelo_inurba_marseille","lat":43.33017,"lon":5.39031,"is_reserved":false,"is_disabled":false,"rental_uris":{"android":"levelo://app?vid=e550d74a-e830-4a4b-91fb-45079a405831","ios":"levelo://app?vid=e550d74a-e830-4a4b-91fb-45079a405831"},"vehicle_type_id":"4","last_reported":1744107043,"current_range_meters":16800,"station_id":"ce4bhr92rcd13ifvqhrg","pricing_plan_id":"cebpf4jnsgd1na2vs0mg"},{"bike_id":"ffd23061-d90c-47a4-89fb-f1646bcdff1c","system_id":"levelo_inurba_marseille","lat":43.270866,"lon":5.422849,"is_reserved":false,"is_disabled":true,"rental_uris":{"android":"levelo://app?vid=ffd23061-d90c-47a4-89fb-f1646bcdff1c","ios":"levelo://app?vid=ffd23061-d90c-47a4-89fb-f1646bcdff1c"},"vehicle_type_id":"4","last_reported":1744107043,"current_range_meters":16800,"station_id":"ce4bhk92rcd13ifvqgb0","pricing_plan_id":"cebpf4jnsgd1na2vs0mg"},{"bike_id":"92c822fe-ff9f-4023-a7a2-fe479a6e58f0","system_id":"levelo_inurba_marseille","lat":43.30545,"lon":5.36537,"is_reserved":false,"is_disabled":false,"rental_uris":{"android":"levelo://app?vid=92c822fe-ff9f-4023-a7a2-fe479a6e58f0","ios":"levelo://app?vid=92c822fe-ff9f-4023-a7a2-fe479a6e58f0"},"vehicle_type_id":"4","last_reported":1744107043,"current_range_meters":16800,"station_id":"ce4bgs12rcd13ifvqcag","pricing_plan_id":"cebpf4jnsgd1na2vs0mg"},{"bike_id":"e24c6fd3-f9cb-40c7-9e57-dd2c20540e9b","system_id":"levelo_inurba_marseille","lat":43.33068,"lon":5.40815,"is_reserved":false,"is_disabled":true,"rental_uris":{"android":"levelo://app?vid=e24c6fd3-f9cb-40c7-9e57-dd2c20540e9b","ios":"levelo://app?vid=e24c6fd3-f9cb-40c7-9e57-dd2c20540e9b"},"vehicle_type_id":"4","last_reported":1744107043,"current_range_meters":16800,"station_id":"","pricing_plan_id":"cebpf4jnsgd1na2vs0mg"},{"bike_id":"da68898f-513e-4562-9685-4c6284864d89","system_id":"levelo_inurba_marseille","lat":43.27964,"lon":5.4103,"is_reserved":false,"is_disabled":true,"rental_uris":{"android":"levelo://app?vid=da68898f-513e-4562-9685-4c6284864d89","ios":"levelo://app?vid=da68898f-513e-4562-9685-4c6284864d89"},"vehicle_type_id":"4","last_reported":1744107043,"current_range_meters":16800,"station_id":"ce4bhnp2rcd13ifvqh0g","pricing_plan_id":"cebpf4jnsgd1na2vs0mg"},{"bike_id":"8056480e-aa5d-4ea8-9a59-5470e8a51742","system_id":"levelo_inurba_marseille","lat":43.29572,"lon":5.37519,"is_reserved":false,"is_disabled":false,"rental_uris":{"android":"levelo://app?vid=8056480e-aa5d-4ea8-9a59-5470e8a51742","ios":"levelo://app?vid=8056480e-aa5d-4ea8-9a59-5470e8a51742"},"vehicle_type_id":"4","last_reported":1744107043,"current_range_meters":16800,"station_id":"ce4bgh92rcd13ifvqb50","pricing_plan_id":"cebpf4jnsgd1na2vs0mg"},{"bike_id":"e41e3d45-5795-4963-8a5e-14be782be993","system_id":"levelo_inurba_marseille","lat":43.30549,"lon":5.36536,"is_reserved":false,"is_disabled":false,"rental_uris":{"android":"levelo://app?vid=e41e3d45-5795-4963-8a5e-14be782be993","ios":"levelo://app?vid=e41e3d45-5795-4963-8a5e-14be782be993"},"vehicle_type_id":"4","last_reported":1744107043,"current_range_meters":16800,"station_id":"ce4bgs12rcd13ifvqcag","pricing_plan_id":"cebpf4jnsgd1na2vs0mg"},{"bike_id":"649e886d-c726-418e-b55e-9839620b9eac","system_id":"levelo_inurba_marseille","lat":43.29002,"lon":5.35606,"is_reserved":false,"is_disabled":false,"rental_uris":{"android":"levelo://app?vid=649e886d-c726-418e-b55e-9839620b9eac","ios":"levelo://app?vid=649e886d-c726-418e-b55e-9839620b9eac"},"vehicle_type_id":"4","last_reported":1744107043,"current_range_meters":17200,"station_id":"ce4bhb92rcd13ifvqen0","pricing_plan_id":"cebpf4jnsgd1na2vs0mg"},{"bike_id":"c22d8741-dec3-4006-a19c-a13d5f7ca6ba","system_id":"levelo_inurba_marseille","lat":43.23153,"lon":5.43706,"is_reserved":false,"is_disabled":false,"rental_uris":{"android":"levelo://app?vid=c22d8741-dec3-4006-a19c-a13d5f7ca6ba","ios":"levelo://app?vid=c22d8741-dec3-4006-a19c-a13d5f7ca6ba"},"vehicle_type_id":"4","last_reported":1744107043,"current_range_meters":17200,"station_id":"ce4bhmp2rcd13ifvqgog","pricing_plan_id":"cebpf4jnsgd1na2vs0mg"},{"bike_id":"85184727-c66a-4e80-a87a-1dc90da0022f","system_id":"levelo_inurba_marseille","lat":43.291711,"lon":5.371553,"is_reserved":false,"is_disabled":false,"rental_uris":{"android":"levelo://app?vid=85184727-c66a-4e80-a87a-1dc90da0022f","ios":"levelo://app?vid=85184727-c66a-4e80-a87a-1dc90da0022f"},"vehicle_type_id":"4","last_reported":1744107043,"current_range_meters":17600,"station_id":"ce4bha92rcd13ifvqeh0","pricing_plan_id":"cebpf4jnsgd1na2vs0mg"},{"bike_id":"3656c20c-eb1e-4ae4-9294-cf1933f151b7","system_id":"levelo_inurba_marseille","lat":43.24172,"lon":5.39728,"is_reserved":false,"is_disabled":false,"rental_uris":{"android":"levelo://app?vid=3656c20c-eb1e-4ae4-9294-cf1933f151b7","ios":"levelo://app?vid=3656c20c-eb1e-4ae4-9294-cf1933f151b7"},"vehicle_type_id":"4","last_reported":1744107043,"current_range_meters":17600,"station_id":"ce4bhn12rcd13ifvqgpg","pricing_plan_id":"cebpf4jnsgd1na2vs0mg"},{"bike_id":"56a14935-4583-4040-9de8-f58e0fb80b99","system_id":"levelo_inurba_marseille","lat":43.25823,"lon":5.39437,"is_reserved":false,"is_disabled":false,"rental_uris":{"android":"levelo://app?vid=56a14935-4583-4040-9de8-f58e0fb80b99","ios":"levelo://app?vid=56a14935-4583-4040-9de8-f58e0fb80b99"},"vehicle_type_id":"4","last_reported":1744107043,"current_range_meters":17600,"station_id":"ce4bhip2rcd13ifvqft0","pricing_plan_id":"cebpf4jnsgd1na2vs0mg"},{"bike_id":"e42a4678-9c61-4f43-b70f-2f5f5869348c","system_id":"levelo_inurba_marseille","lat":43.28263,"lon":5.35054,"is_reserved":false,"is_disabled":false,"rental_uris":{"android":"levelo://app?vid=e42a4678-9c61-4f43-b70f-2f5f5869348c","ios":"levelo://app?vid=e42a4678-9c61-4f43-b70f-2f5f5869348c"},"vehicle_type_id":"4","last_reported":1744107043,"current_range_meters":17600,"station_id":"ce4bhbp2rcd13ifvqerg","pricing_plan_id":"cebpf4jnsgd1na2vs0mg"},{"bike_id":"5273534c-3473-4abd-9c4b-e677a5c1499a","system_id":"levelo_inurba_marseille","lat":43.29052,"lon":5.36959,"is_reserved":false,"is_disabled":false,"rental_uris":{"android":"levelo://app?vid=5273534c-3473-4abd-9c4b-e677a5c1499a","ios":"levelo://app?vid=5273534c-3473-4abd-9c4b-e677a5c1499a"},"vehicle_type_id":"4","last_reported":1744107043,"current_range_meters":17600,"station_id":"","pricing_plan_id":"cebpf4jnsgd1na2vs0mg"},{"bike_id":"1e099cf5-9456-4ac3-8d36-9153ce8a87f2","system_id":"levelo_inurba_marseille","lat":43.29553,"lon":5.39939,"is_reserved":false,"is_disabled":true,"rental_uris":{"android":"levelo://app?vid=1e099cf5-9456-4ac3-8d36-9153ce8a87f2","ios":"levelo://app?vid=1e099cf5-9456-4ac3-8d36-9153ce8a87f2"},"vehicle_type_id":"4","last_reported":1744107043,"current_range_meters":18000,"station_id":"ce4bh312rcd13ifvqdj0","pricing_plan_id":"cebpf4jnsgd1na2vs0mg"},{"bike_id":"27768073-dde6-48e9-bf13-e40e2934834a","system_id":"levelo_inurba_marseille","lat":43.24183,"lon":5.39739,"is_reserved":false,"is_disabled":false,"rental_uris":{"android":"levelo://app?vid=27768073-dde6-48e9-bf13-e40e2934834a","ios":"levelo://app?vid=27768073-dde6-48e9-bf13-e40e2934834a"},"vehicle_type_id":"4","last_reported":1744107043,"current_range_meters":18000,"station_id":"ce4bhn12rcd13ifvqgpg","pricing_plan_id":"cebpf4jnsgd1na2vs0mg"},{"bike_id":"b58e7349-137c-4ce2-87d5-10ce5f1f77fd","system_id":"levelo_inurba_marseille","lat":43.29568,"lon":5.37517,"is_reserved":false,"is_disabled":false,"rental_uris":{"android":"levelo://app?vid=b58e7349-137c-4ce2-87d5-10ce5f1f77fd","ios":"levelo://app?vid=b58e7349-137c-4ce2-87d5-10ce5f1f77fd"},"vehicle_type_id":"4","last_reported":1744107043,"current_range_meters":18000,"station_id":"ce4bgh92rcd13ifvqb50","pricing_plan_id":"cebpf4jnsgd1na2vs0mg"},{"bike_id":"dbfa32e4-24da-4d08-a578-195394b3cd2f","system_id":"levelo_inurba_marseille","lat":43.32357,"lon":5.36737,"is_reserved":false,"is_disabled":false,"rental_uris":{"android":"levelo://app?vid=dbfa32e4-24da-4d08-a578-195394b3cd2f","ios":"levelo://app?vid=dbfa32e4-24da-4d08-a578-195394b3cd2f"},"vehicle_type_id":"4","last_reported":1744107043,"current_range_meters":18000,"station_id":"ce4bhsh2rcd13ifvqi2g","pricing_plan_id":"cebpf4jnsgd1na2vs0mg"},{"bike_id":"5d39328e-389c-4c51-b883-8ece26a34cd5","system_id":"levelo_inurba_marseille","lat":43.294298,"lon":5.401164,"is_reserved":false,"is_disabled":false,"rental_uris":{"android":"levelo://app?vid=5d39328e-389c-4c51-b883-8ece26a34cd5","ios":"levelo://app?vid=5d39328e-389c-4c51-b883-8ece26a34cd5"},"vehicle_type_id":"4","last_reported":1744107043,"current_range_meters":18000,"station_id":"ce4bh2p2rcd13ifvqdi0","pricing_plan_id":"cebpf4jnsgd1na2vs0mg"},{"bike_id":"70aa88b7-7f68-471b-bd02-4a9c305c6949","system_id":"levelo_inurba_marseille","lat":43.23061,"lon":5.35489,"is_reserved":false,"is_disabled":false,"rental_uris":{"android":"levelo://app?vid=70aa88b7-7f68-471b-bd02-4a9c305c6949","ios":"levelo://app?vid=70aa88b7-7f68-471b-bd02-4a9c305c6949"},"vehicle_type_id":"4","last_reported":1744107043,"current_range_meters":18800,"station_id":"cpo3342slgdg3j2ifvpg","pricing_plan_id":"cebpf4jnsgd1na2vs0mg"},{"bike_id":"f619c15e-1941-443d-8ef4-21a7cd257551","system_id":"levelo_inurba_marseille","lat":43.30542,"lon":5.36708,"is_reserved":false,"is_disabled":false,"rental_uris":{"android":"levelo://app?vid=f619c15e-1941-443d-8ef4-21a7cd257551","ios":"levelo://app?vid=f619c15e-1941-443d-8ef4-21a7cd257551"},"vehicle_type_id":"4","last_reported":1744107043,"current_range_meters":18800,"station_id":"ce4bgrp2rcd13ifvqc9g","pricing_plan_id":"cebpf4jnsgd1na2vs0mg"},{"bike_id":"d68a3ca8-a9ca-4ffe-b3fc-84cb2dc33d43","system_id":"levelo_inurba_marseille","lat":43.24671,"lon":5.38144,"is_reserved":false,"is_disabled":false,"rental_uris":{"android":"levelo://app?vid=d68a3ca8-a9ca-4ffe-b3fc-84cb2dc33d43","ios":"levelo://app?vid=d68a3ca8-a9ca-4ffe-b3fc-84cb2dc33d43"},"vehicle_type_id":"4","last_reported":1744107043,"current_range_meters":18800,"station_id":"ce4bhih2rcd13ifvqfr0","pricing_plan_id":"cebpf4jnsgd1na2vs0mg"},{"bike_id":"15b8a2ea-5bc2-4fdc-830d-724e27031c81","system_id":"levelo_inurba_marseille","lat":43.29021,"lon":5.38126,"is_reserved":false,"is_disabled":false,"rental_uris":{"android":"levelo://app?vid=15b8a2ea-5bc2-4fdc-830d-724e27031c81","ios":"levelo://app?vid=15b8a2ea-5bc2-4fdc-830d-724e27031c81"},"vehicle_type_id":"4","last_reported":1744107043,"current_range_meters":18800,"station_id":"ce4bh4p2rcd13ifvqe1g","pricing_plan_id":"cebpf4jnsgd1na2vs0mg"},{"bike_id":"52dfef30-eef0-4dd6-a138-a48c8dcc2c3a","system_id":"levelo_inurba_marseille","lat":43.30397,"lon":5.42769,"is_reserved":false,"is_disabled":true,"rental_uris":{"android":"levelo://app?vid=52dfef30-eef0-4dd6-a138-a48c8dcc2c3a","ios":"levelo://app?vid=52dfef30-eef0-4dd6-a138-a48c8dcc2c3a"},"vehicle_type_id":"4","last_reported":1744107043,"current_range_meters":18800,"station_id":"","pricing_plan_id":"cebpf4jnsgd1na2vs0mg"},{"bike_id":"4d8254ec-772f-4e9f-9d15-8ee6a60bafec","system_id":"levelo_inurba_marseille","lat":43.29504,"lon":5.37514,"is_reserved":false,"is_disabled":false,"rental_uris":{"android":"levelo://app?vid=4d8254ec-772f-4e9f-9d15-8ee6a60bafec","ios":"levelo://app?vid=4d8254ec-772f-4e9f-9d15-8ee6a60bafec"},"vehicle_type_id":"4","last_reported":1744107043,"current_range_meters":18800,"station_id":"ce4bgkp2rcd13ifvqbmg","pricing_plan_id":"cebpf4jnsgd1na2vs0mg"},{"bike_id":"b37944fb-f9c1-4c8e-ac3a-9da227afb433","system_id":"levelo_inurba_marseille","lat":43.30807,"lon":5.38151,"is_reserved":false,"is_disabled":true,"rental_uris":{"android":"levelo://app?vid=b37944fb-f9c1-4c8e-ac3a-9da227afb433","ios":"levelo://app?vid=b37944fb-f9c1-4c8e-ac3a-9da227afb433"},"vehicle_type_id":"4","last_reported":1744107043,"current_range_meters":18800,"station_id":"ce4bgt12rcd13ifvqce0","pricing_plan_id":"cebpf4jnsgd1na2vs0mg"},{"bike_id":"3ed672e3-6b51-4c28-bf91-b5fead9c1fce","system_id":"levelo_inurba_marseille","lat":43.2731,"lon":5.39083,"is_reserved":false,"is_disabled":false,"rental_uris":{"android":"levelo://app?vid=3ed672e3-6b51-4c28-bf91-b5fead9c1fce","ios":"levelo://app?vid=3ed672e3-6b51-4c28-bf91-b5fead9c1fce"},"vehicle_type_id":"4","last_reported":1744107043,"current_range_meters":18800,"station_id":"ce4bhgp2rcd13ifvqfe0","pricing_plan_id":"cebpf4jnsgd1na2vs0mg"},{"bike_id":"1c24abbf-d842-4df3-9e43-2ef3129819ef","system_id":"levelo_inurba_marseille","lat":43.26916,"lon":5.38905,"is_reserved":false,"is_disabled":false,"rental_uris":{"android":"levelo://app?vid=1c24abbf-d842-4df3-9e43-2ef3129819ef","ios":"levelo://app?vid=1c24abbf-d842-4df3-9e43-2ef3129819ef"},"vehicle_type_id":"4","last_reported":1744107043,"current_range_meters":18800,"station_id":"ce4bhhh2rcd13ifvqfl0","pricing_plan_id":"cebpf4jnsgd1na2vs0mg"},{"bike_id":"fc612322-de86-4313-9191-710d228f1db1","system_id":"levelo_inurba_marseille","lat":43.30585,"lon":5.36667,"is_reserved":false,"is_disabled":false,"rental_uris":{"android":"levelo://app?vid=fc612322-de86-4313-9191-710d228f1db1","ios":"levelo://app?vid=fc612322-de86-4313-9191-710d228f1db1"},"vehicle_type_id":"4","last_reported":1744107043,"current_range_meters":18800,"station_id":"","pricing_plan_id":"cebpf4jnsgd1na2vs0mg"},{"bike_id":"9b037c0e-68e8-413d-9e6f-c325a966579e","system_id":"levelo_inurba_marseille","lat":43.30574,"lon":5.3655,"is_reserved":false,"is_disabled":false,"rental_uris":{"android":"levelo://app?vid=9b037c0e-68e8-413d-9e6f-c325a966579e","ios":"levelo://app?vid=9b037c0e-68e8-413d-9e6f-c325a966579e"},"vehicle_type_id":"4","last_reported":1744107043,"current_range_meters":19200,"station_id":"ce4bgs12rcd13ifvqcag","pricing_plan_id":"cebpf4jnsgd1na2vs0mg"},{"bike_id":"47c11644-d966-4b2c-b51d-0455d3e50e57","system_id":"levelo_inurba_marseille","lat":43.280238,"lon":5.378458,"is_reserved":false,"is_disabled":false,"rental_uris":{"android":"levelo://app?vid=47c11644-d966-4b2c-b51d-0455d3e50e57","ios":"levelo://app?vid=47c11644-d966-4b2c-b51d-0455d3e50e57"},"vehicle_type_id":"4","last_reported":1744107043,"current_range_meters":19200,"station_id":"ce4bha12rcd13ifvqee0","pricing_plan_id":"cebpf4jnsgd1na2vs0mg"},{"bike_id":"2dfb9ed0-3c4e-415c-9959-f1f2804416e0","system_id":"levelo_inurba_marseille","lat":43.27994,"lon":5.41663,"is_reserved":false,"is_disabled":false,"rental_uris":{"android":"levelo://app?vid=2dfb9ed0-3c4e-415c-9959-f1f2804416e0","ios":"levelo://app?vid=2dfb9ed0-3c4e-415c-9959-f1f2804416e0"},"vehicle_type_id":"4","last_reported":1744107043,"current_range_meters":19600,"station_id":"ce4bho12rcd13ifvqh1g","pricing_plan_id":"cebpf4jnsgd1na2vs0mg"},{"bike_id":"d7b2134e-575c-40f1-9b3b-0ad40ab4b220","system_id":"levelo_inurba_marseille","lat":43.2984,"lon":5.43672,"is_reserved":false,"is_disabled":false,"rental_uris":{"android":"levelo://app?vid=d7b2134e-575c-40f1-9b3b-0ad40ab4b220","ios":"levelo://app?vid=d7b2134e-575c-40f1-9b3b-0ad40ab4b220"},"vehicle_type_id":"4","last_reported":1744107043,"current_range_meters":19600,"station_id":"ce4bhpp2rcd13ifvqhfg","pricing_plan_id":"cebpf4jnsgd1na2vs0mg"},{"bike_id":"240e8516-f2bf-4f21-a357-b0f5b68edc10","system_id":"levelo_inurba_marseille","lat":43.25116,"lon":5.40316,"is_reserved":false,"is_disabled":false,"rental_uris":{"android":"levelo://app?vid=240e8516-f2bf-4f21-a357-b0f5b68edc10","ios":"levelo://app?vid=240e8516-f2bf-4f21-a357-b0f5b68edc10"},"vehicle_type_id":"4","last_reported":1744107043,"current_range_meters":19600,"station_id":"ce4bhlh2rcd13ifvqgig","pricing_plan_id":"cebpf4jnsgd1na2vs0mg"},{"bike_id":"d1ab4a48-3ebf-4448-991f-741c70a9cfa1","system_id":"levelo_inurba_marseille","lat":43.28419,"lon":5.34976,"is_reserved":false,"is_disabled":false,"rental_uris":{"android":"levelo://app?vid=d1ab4a48-3ebf-4448-991f-741c70a9cfa1","ios":"levelo://app?vid=d1ab4a48-3ebf-4448-991f-741c70a9cfa1"},"vehicle_type_id":"4","last_reported":1744107043,"current_range_meters":19600,"station_id":"ce4bhbh2rcd13ifvqepg","pricing_plan_id":"cebpf4jnsgd1na2vs0mg"},{"bike_id":"d29d56e8-842f-4f6c-a38f-539b4ab08bde","system_id":"levelo_inurba_marseille","lat":43.23128,"lon":5.43709,"is_reserved":false,"is_disabled":false,"rental_uris":{"android":"levelo://app?vid=d29d56e8-842f-4f6c-a38f-539b4ab08bde","ios":"levelo://app?vid=d29d56e8-842f-4f6c-a38f-539b4ab08bde"},"vehicle_type_id":"4","last_reported":1744107043,"current_range_meters":20000,"station_id":"ce4bhmp2rcd13ifvqgog","pricing_plan_id":"cebpf4jnsgd1na2vs0mg"},{"bike_id":"920baef7-dc39-4b26-9db9-1ef63384bf46","system_id":"levelo_inurba_marseille","lat":43.30886,"lon":5.39648,"is_reserved":false,"is_disabled":false,"rental_uris":{"android":"levelo://app?vid=920baef7-dc39-4b26-9db9-1ef63384bf46","ios":"levelo://app?vid=920baef7-dc39-4b26-9db9-1ef63384bf46"},"vehicle_type_id":"4","last_reported":1744107043,"current_range_meters":20000,"station_id":"ce4bh012rcd13ifvqcv0","pricing_plan_id":"cebpf4jnsgd1na2vs0mg"},{"bike_id":"3f44ae35-9f61-4eef-a61f-69bf52883a3b","system_id":"levelo_inurba_marseille","lat":43.30248,"lon":5.40065,"is_reserved":false,"is_disabled":false,"rental_uris":{"android":"levelo://app?vid=3f44ae35-9f61-4eef-a61f-69bf52883a3b","ios":"levelo://app?vid=3f44ae35-9f61-4eef-a61f-69bf52883a3b"},"vehicle_type_id":"4","last_reported":1744107043,"current_range_meters":20000,"station_id":"ce4bgvh2rcd13ifvqcs0","pricing_plan_id":"cebpf4jnsgd1na2vs0mg"},{"bike_id":"c1c63035-c83b-4419-8cbf-133778d95125","system_id":"levelo_inurba_marseille","lat":43.29787,"lon":5.39353,"is_reserved":false,"is_disabled":true,"rental_uris":{"android":"levelo://app?vid=c1c63035-c83b-4419-8cbf-133778d95125","ios":"levelo://app?vid=c1c63035-c83b-4419-8cbf-133778d95125"},"vehicle_type_id":"4","last_reported":1744107043,"current_range_meters":20000,"station_id":"chh1huq6cuj3fo74tm60","pricing_plan_id":"cebpf4jnsgd1na2vs0mg"},{"bike_id":"6278194a-3064-41bd-8565-b8ff44b1552d","system_id":"levelo_inurba_marseille","lat":43.29536,"lon":5.38547,"is_reserved":false,"is_disabled":true,"rental_uris":{"android":"levelo://app?vid=6278194a-3064-41bd-8565-b8ff44b1552d","ios":"levelo://app?vid=6278194a-3064-41bd-8565-b8ff44b1552d"},"vehicle_type_id":"4","last_reported":1744107043,"current_range_meters":20000,"station_id":"ce4bgih2rcd13ifvqba0","pricing_plan_id":"cebpf4jnsgd1na2vs0mg"},{"bike_id":"a56f6794-8ce6-466a-a1ee-64eb0b328531","system_id":"levelo_inurba_marseille","lat":43.29267,"lon":5.3684,"is_reserved":false,"is_disabled":false,"rental_uris":{"android":"levelo://app?vid=a56f6794-8ce6-466a-a1ee-64eb0b328531","ios":"levelo://app?vid=a56f6794-8ce6-466a-a1ee-64eb0b328531"},"vehicle_type_id":"4","last_reported":1744107043,"current_range_meters":20000,"station_id":"ce4bhbp2rcd13ifvqesg","pricing_plan_id":"cebpf4jnsgd1na2vs0mg"},{"bike_id":"fd07d6de-a218-43d3-8caa-eaba2cec3dca","system_id":"levelo_inurba_marseille","lat":43.27944,"lon":5.41033,"is_reserved":false,"is_disabled":false,"rental_uris":{"android":"levelo://app?vid=fd07d6de-a218-43d3-8caa-eaba2cec3dca","ios":"levelo://app?vid=fd07d6de-a218-43d3-8caa-eaba2cec3dca"},"vehicle_type_id":"4","last_reported":1744107043,"current_range_meters":20000,"station_id":"ce4bhnp2rcd13ifvqh0g","pricing_plan_id":"cebpf4jnsgd1na2vs0mg"},{"bike_id":"14050095-63ec-43c3-87b2-c2e51e6feb09","system_id":"levelo_inurba_marseille","lat":43.29978,"lon":5.38485,"is_reserved":false,"is_disabled":false,"rental_uris":{"android":"levelo://app?vid=14050095-63ec-43c3-87b2-c2e51e6feb09","ios":"levelo://app?vid=14050095-63ec-43c3-87b2-c2e51e6feb09"},"vehicle_type_id":"4","last_reported":1744107043,"current_range_meters":20000,"station_id":"ce4bgj92rcd13ifvqbd0","pricing_plan_id":"cebpf4jnsgd1na2vs0mg"},{"bike_id":"14cfed47-f970-4dea-80f9-103b7dfc99d0","system_id":"levelo_inurba_marseille","lat":43.292761,"lon":5.368394,"is_reserved":false,"is_disabled":false,"rental_uris":{"android":"levelo://app?vid=14cfed47-f970-4dea-80f9-103b7dfc99d0","ios":"levelo://app?vid=14cfed47-f970-4dea-80f9-103b7dfc99d0"},"vehicle_type_id":"4","last_reported":1744107043,"current_range_meters":20400,"station_id":"cpo3342slgdg3j2ifvpg","pricing_plan_id":"cebpf4jnsgd1na2vs0mg"},{"bike_id":"6e5ac126-c372-4a39-b836-bcab5ad1f2e7","system_id":"levelo_inurba_marseille","lat":43.24173,"lon":5.36421,"is_reserved":false,"is_disabled":false,"rental_uris":{"android":"levelo://app?vid=6e5ac126-c372-4a39-b836-bcab5ad1f2e7","ios":"levelo://app?vid=6e5ac126-c372-4a39-b836-bcab5ad1f2e7"},"vehicle_type_id":"4","last_reported":1744107043,"current_range_meters":20400,"station_id":"cpo36qri1sfpv3e86is0","pricing_plan_id":"cebpf4jnsgd1na2vs0mg"},{"bike_id":"84872217-afe9-40a3-8a19-d274f8a95e93","system_id":"levelo_inurba_marseille","lat":43.28943,"lon":5.36635,"is_reserved":false,"is_disabled":false,"rental_uris":{"android":"levelo://app?vid=84872217-afe9-40a3-8a19-d274f8a95e93","ios":"levelo://app?vid=84872217-afe9-40a3-8a19-d274f8a95e93"},"vehicle_type_id":"4","last_reported":1744107043,"current_range_meters":20400,"station_id":"ce4bhap2rcd13ifvqek0","pricing_plan_id":"cebpf4jnsgd1na2vs0mg"},{"bike_id":"833ef218-6145-4587-b948-74f2bb237d35","system_id":"levelo_inurba_marseille","lat":43.27374,"lon":5.36257,"is_reserved":false,"is_disabled":false,"rental_uris":{"android":"levelo://app?vid=833ef218-6145-4587-b948-74f2bb237d35","ios":"levelo://app?vid=833ef218-6145-4587-b948-74f2bb237d35"},"vehicle_type_id":"4","last_reported":1744107043,"current_range_meters":20400,"station_id":"ce4bhbh2rcd13ifvqeo0","pricing_plan_id":"cebpf4jnsgd1na2vs0mg"},{"bike_id":"1269c132-81b1-4179-9a1a-42cef4636680","system_id":"levelo_inurba_marseille","lat":43.29,"lon":5.35609,"is_reserved":false,"is_disabled":false,"rental_uris":{"android":"levelo://app?vid=1269c132-81b1-4179-9a1a-42cef4636680","ios":"levelo://app?vid=1269c132-81b1-4179-9a1a-42cef4636680"},"vehicle_type_id":"4","last_reported":1744107043,"current_range_meters":20400,"station_id":"ce4bhb92rcd13ifvqen0","pricing_plan_id":"cebpf4jnsgd1na2vs0mg"},{"bike_id":"be73290e-02a3-4f6d-9d74-8a2e284364b3","system_id":"levelo_inurba_marseille","lat":43.29895,"lon":5.43673,"is_reserved":false,"is_disabled":false,"rental_uris":{"android":"levelo://app?vid=be73290e-02a3-4f6d-9d74-8a2e284364b3","ios":"levelo://app?vid=be73290e-02a3-4f6d-9d74-8a2e284364b3"},"vehicle_type_id":"4","last_reported":1744107043,"current_range_meters":20400,"station_id":"ce4bhpp2rcd13ifvqhfg","pricing_plan_id":"cebpf4jnsgd1na2vs0mg"},{"bike_id":"c6411b2b-49e4-4b7a-958a-276d28ca39f7","system_id":"levelo_inurba_marseille","lat":43.29296,"lon":5.37459,"is_reserved":false,"is_disabled":false,"rental_uris":{"android":"levelo://app?vid=c6411b2b-49e4-4b7a-958a-276d28ca39f7","ios":"levelo://app?vid=c6411b2b-49e4-4b7a-958a-276d28ca39f7"},"vehicle_type_id":"4","last_reported":1744107043,"current_range_meters":20400,"station_id":"ce4bgi12rcd13ifvqb70","pricing_plan_id":"cebpf4jnsgd1na2vs0mg"},{"bike_id":"83d71aae-c276-4581-b045-e01e481a11b6","system_id":"levelo_inurba_marseille","lat":43.2175,"lon":5.34596,"is_reserved":false,"is_disabled":false,"rental_uris":{"android":"levelo://app?vid=83d71aae-c276-4581-b045-e01e481a11b6","ios":"levelo://app?vid=83d71aae-c276-4581-b045-e01e481a11b6"},"vehicle_type_id":"4","last_reported":1744107043,"current_range_meters":20400,"station_id":"st_cvj6r9ubvosntc0bgbag","pricing_plan_id":"cebpf4jnsgd1na2vs0mg"},{"bike_id":"4ce9fa19-72c1-4fcc-ae26-5ddce9881f21","system_id":"levelo_inurba_marseille","lat":43.27321,"lon":5.3908,"is_reserved":false,"is_disabled":false,"rental_uris":{"android":"levelo://app?vid=4ce9fa19-72c1-4fcc-ae26-5ddce9881f21","ios":"levelo://app?vid=4ce9fa19-72c1-4fcc-ae26-5ddce9881f21"},"vehicle_type_id":"4","last_reported":1744107043,"current_range_meters":20400,"station_id":"ce4bhgp2rcd13ifvqfe0","pricing_plan_id":"cebpf4jnsgd1na2vs0mg"},{"bike_id":"ea17cff3-d70d-42f8-aa47-a008aa49abda","system_id":"levelo_inurba_marseille","lat":43.281539,"lon":5.426549,"is_reserved":false,"is_disabled":false,"rental_uris":{"android":"levelo://app?vid=ea17cff3-d70d-42f8-aa47-a008aa49abda","ios":"levelo://app?vid=ea17cff3-d70d-42f8-aa47-a008aa49abda"},"vehicle_type_id":"4","last_reported":1744107043,"current_range_meters":20800,"station_id":"ce4bhnh2rcd13ifvqgug","pricing_plan_id":"cebpf4jnsgd1na2vs0mg"},{"bike_id":"9d1f0d5f-d967-4005-b6db-c2d95a49e34c","system_id":"levelo_inurba_marseille","lat":43.32287,"lon":5.38275,"is_reserved":false,"is_disabled":false,"rental_uris":{"android":"levelo://app?vid=9d1f0d5f-d967-4005-b6db-c2d95a49e34c","ios":"levelo://app?vid=9d1f0d5f-d967-4005-b6db-c2d95a49e34c"},"vehicle_type_id":"4","last_reported":1744107043,"current_range_meters":20800,"station_id":"ce4bhr12rcd13ifvqhqg","pricing_plan_id":"cebpf4jnsgd1na2vs0mg"},{"bike_id":"66bfd974-cc4e-4158-bfbd-23afbeac00dd","system_id":"levelo_inurba_marseille","lat":43.29926,"lon":5.37468,"is_reserved":false,"is_disabled":false,"rental_uris":{"android":"levelo://app?vid=66bfd974-cc4e-4158-bfbd-23afbeac00dd","ios":"levelo://app?vid=66bfd974-cc4e-4158-bfbd-23afbeac00dd"},"vehicle_type_id":"4","last_reported":1744107043,"current_range_meters":20800,"station_id":"ce4bgjh2rcd13ifvqbg0","pricing_plan_id":"cebpf4jnsgd1na2vs0mg"},{"bike_id":"ebd08e7e-a585-41aa-9cdc-8f045ec0578f","system_id":"levelo_inurba_marseille","lat":43.33003,"lon":5.39051,"is_reserved":false,"is_disabled":false,"rental_uris":{"android":"levelo://app?vid=ebd08e7e-a585-41aa-9cdc-8f045ec0578f","ios":"levelo://app?vid=ebd08e7e-a585-41aa-9cdc-8f045ec0578f"},"vehicle_type_id":"4","last_reported":1744107043,"current_range_meters":21600,"station_id":"ce4bhr92rcd13ifvqhrg","pricing_plan_id":"cebpf4jnsgd1na2vs0mg"},{"bike_id":"3d446362-9266-4d81-ba72-dd42431d97de","system_id":"levelo_inurba_marseille","lat":43.28695,"lon":5.3739,"is_reserved":false,"is_disabled":false,"rental_uris":{"android":"levelo://app?vid=3d446362-9266-4d81-ba72-dd42431d97de","ios":"levelo://app?vid=3d446362-9266-4d81-ba72-dd42431d97de"},"vehicle_type_id":"4","last_reported":1744107043,"current_range_meters":21600,"station_id":"ce4bh3p2rcd13ifvqdq0","pricing_plan_id":"cebpf4jnsgd1na2vs0mg"},{"bike_id":"26f2e00c-6dee-4fa8-a424-98984173768d","system_id":"levelo_inurba_marseille","lat":43.30554,"lon":5.36523,"is_reserved":false,"is_disabled":false,"rental_uris":{"android":"levelo://app?vid=26f2e00c-6dee-4fa8-a424-98984173768d","ios":"levelo://app?vid=26f2e00c-6dee-4fa8-a424-98984173768d"},"vehicle_type_id":"4","last_reported":1744107043,"current_range_meters":21600,"station_id":"ce4bgs12rcd13ifvqcag","pricing_plan_id":"cebpf4jnsgd1na2vs0mg"},{"bike_id":"6dfada21-b39c-4599-b258-8c48ee671eeb","system_id":"levelo_inurba_marseille","lat":43.24154,"lon":5.39714,"is_reserved":false,"is_disabled":false,"rental_uris":{"android":"levelo://app?vid=6dfada21-b39c-4599-b258-8c48ee671eeb","ios":"levelo://app?vid=6dfada21-b39c-4599-b258-8c48ee671eeb"},"vehicle_type_id":"4","last_reported":1744107043,"current_range_meters":22000,"station_id":"ce4bhn12rcd13ifvqgpg","pricing_plan_id":"cebpf4jnsgd1na2vs0mg"},{"bike_id":"b3245707-0d0a-430d-951c-7630ae3dad51","system_id":"levelo_inurba_marseille","lat":43.28845,"lon":5.3931,"is_reserved":false,"is_disabled":false,"rental_uris":{"android":"levelo://app?vid=b3245707-0d0a-430d-951c-7630ae3dad51","ios":"levelo://app?vid=b3245707-0d0a-430d-951c-7630ae3dad51"},"vehicle_type_id":"4","last_reported":1744107043,"current_range_meters":22000,"station_id":"ce4bh2p2rcd13ifvqdi0","pricing_plan_id":"cebpf4jnsgd1na2vs0mg"},{"bike_id":"78f62285-b176-4da8-b702-1da066a0bdfb","system_id":"levelo_inurba_marseille","lat":43.28858,"lon":5.35846,"is_reserved":false,"is_disabled":false,"rental_uris":{"android":"levelo://app?vid=78f62285-b176-4da8-b702-1da066a0bdfb","ios":"levelo://app?vid=78f62285-b176-4da8-b702-1da066a0bdfb"},"vehicle_type_id":"4","last_reported":1744107043,"current_range_meters":22000,"station_id":"ce4bhb12rcd13ifvqem0","pricing_plan_id":"cebpf4jnsgd1na2vs0mg"},{"bike_id":"09bddc24-4c9d-460f-8967-e90ee5c88b43","system_id":"levelo_inurba_marseille","lat":43.31324,"lon":5.39703,"is_reserved":false,"is_disabled":true,"rental_uris":{"android":"levelo://app?vid=09bddc24-4c9d-460f-8967-e90ee5c88b43","ios":"levelo://app?vid=09bddc24-4c9d-460f-8967-e90ee5c88b43"},"vehicle_type_id":"4","last_reported":1744107043,"current_range_meters":22000,"station_id":"ce4bgvp2rcd13ifvqcu0","pricing_plan_id":"cebpf4jnsgd1na2vs0mg"},{"bike_id":"c046d181-75f5-4c06-96dc-2302ce134dea","system_id":"levelo_inurba_marseille","lat":43.28417,"lon":5.34975,"is_reserved":false,"is_disabled":false,"rental_uris":{"android":"levelo://app?vid=c046d181-75f5-4c06-96dc-2302ce134dea","ios":"levelo://app?vid=c046d181-75f5-4c06-96dc-2302ce134dea"},"vehicle_type_id":"4","last_reported":1744107043,"current_range_meters":22000,"station_id":"ce4bhbh2rcd13ifvqepg","pricing_plan_id":"cebpf4jnsgd1na2vs0mg"},{"bike_id":"2969d66a-2b17-4e37-b72d-ecfd50b61789","system_id":"levelo_inurba_marseille","lat":43.31334,"lon":5.36711,"is_reserved":false,"is_disabled":false,"rental_uris":{"android":"levelo://app?vid=2969d66a-2b17-4e37-b72d-ecfd50b61789","ios":"levelo://app?vid=2969d66a-2b17-4e37-b72d-ecfd50b61789"},"vehicle_type_id":"4","last_reported":1744107043,"current_range_meters":22400,"station_id":"ce4bgr92rcd13ifvqc6g","pricing_plan_id":"cebpf4jnsgd1na2vs0mg"},{"bike_id":"6b770536-e0ee-4074-a4d5-7fac1065bae9","system_id":"levelo_inurba_marseille","lat":43.337263,"lon":5.391889,"is_reserved":false,"is_disabled":false,"rental_uris":{"android":"levelo://app?vid=6b770536-e0ee-4074-a4d5-7fac1065bae9","ios":"levelo://app?vid=6b770536-e0ee-4074-a4d5-7fac1065bae9"},"vehicle_type_id":"4","last_reported":1744107043,"current_range_meters":22400,"station_id":"ce4bhr92rcd13ifvqhsg","pricing_plan_id":"cebpf4jnsgd1na2vs0mg"},{"bike_id":"ad17673d-fd87-4094-9872-39e6c7a7b0d2","system_id":"levelo_inurba_marseille","lat":43.30202,"lon":5.36608,"is_reserved":false,"is_disabled":true,"rental_uris":{"android":"levelo://app?vid=ad17673d-fd87-4094-9872-39e6c7a7b0d2","ios":"levelo://app?vid=ad17673d-fd87-4094-9872-39e6c7a7b0d2"},"vehicle_type_id":"4","last_reported":1744107043,"current_range_meters":22400,"station_id":"ce4bgrh2rcd13ifvqc8g","pricing_plan_id":"cebpf4jnsgd1na2vs0mg"},{"bike_id":"6521918a-7041-419e-b8ed-0e9e7390f6fb","system_id":"levelo_inurba_marseille","lat":43.30532,"lon":5.3669,"is_reserved":false,"is_disabled":false,"rental_uris":{"android":"levelo://app?vid=6521918a-7041-419e-b8ed-0e9e7390f6fb","ios":"levelo://app?vid=6521918a-7041-419e-b8ed-0e9e7390f6fb"},"vehicle_type_id":"4","last_reported":1744107043,"current_range_meters":22400,"station_id":"ce4bgrp2rcd13ifvqc9g","pricing_plan_id":"cebpf4jnsgd1na2vs0mg"},{"bike_id":"954c9754-bdcd-43e6-a34d-a1ea0fbc931c","system_id":"levelo_inurba_marseille","lat":43.30541,"lon":5.36538,"is_reserved":false,"is_disabled":false,"rental_uris":{"android":"levelo://app?vid=954c9754-bdcd-43e6-a34d-a1ea0fbc931c","ios":"levelo://app?vid=954c9754-bdcd-43e6-a34d-a1ea0fbc931c"},"vehicle_type_id":"4","last_reported":1744107043,"current_range_meters":22400,"station_id":"ce4bgs12rcd13ifvqcag","pricing_plan_id":"cebpf4jnsgd1na2vs0mg"},{"bike_id":"9d952b82-f7d0-4fea-bb1e-17ccda2a92ca","system_id":"levelo_inurba_marseille","lat":43.29591,"lon":5.38099,"is_reserved":false,"is_disabled":false,"rental_uris":{"android":"levelo://app?vid=9d952b82-f7d0-4fea-bb1e-17ccda2a92ca","ios":"levelo://app?vid=9d952b82-f7d0-4fea-bb1e-17ccda2a92ca"},"vehicle_type_id":"4","last_reported":1744107043,"current_range_meters":22400,"station_id":"ce4bgl12rcd13ifvqbo0","pricing_plan_id":"cebpf4jnsgd1na2vs0mg"},{"bike_id":"2b7b03ad-9c55-426f-9b2f-11fb93c2e27b","system_id":"levelo_inurba_marseille","lat":43.320974,"lon":5.367775,"is_reserved":false,"is_disabled":false,"rental_uris":{"android":"levelo://app?vid=2b7b03ad-9c55-426f-9b2f-11fb93c2e27b","ios":"levelo://app?vid=2b7b03ad-9c55-426f-9b2f-11fb93c2e27b"},"vehicle_type_id":"4","last_reported":1744107043,"current_range_meters":22400,"station_id":"ce4bhrh2rcd13ifvqhug","pricing_plan_id":"cebpf4jnsgd1na2vs0mg"},{"bike_id":"b3024b56-5d51-4128-94df-df85a20009dd","system_id":"levelo_inurba_marseille","lat":43.290371,"lon":5.399625,"is_reserved":false,"is_disabled":false,"rental_uris":{"android":"levelo://app?vid=b3024b56-5d51-4128-94df-df85a20009dd","ios":"levelo://app?vid=b3024b56-5d51-4128-94df-df85a20009dd"},"vehicle_type_id":"4","last_reported":1744107043,"current_range_meters":22800,"station_id":"ce4bh492rcd13ifvqdug","pricing_plan_id":"cebpf4jnsgd1na2vs0mg"},{"bike_id":"3fe165a2-155a-405e-b507-f27ab5424300","system_id":"levelo_inurba_marseille","lat":43.23194,"lon":5.35549,"is_reserved":false,"is_disabled":false,"rental_uris":{"android":"levelo://app?vid=3fe165a2-155a-405e-b507-f27ab5424300","ios":"levelo://app?vid=3fe165a2-155a-405e-b507-f27ab5424300"},"vehicle_type_id":"4","last_reported":1744107043,"current_range_meters":22800,"station_id":"ce4bhu92rcd13ifvqi70","pricing_plan_id":"cebpf4jnsgd1na2vs0mg"},{"bike_id":"51ee5826-0cc0-4af2-99a8-a96ea53aa592","system_id":"levelo_inurba_marseille","lat":43.29265,"lon":5.37447,"is_reserved":false,"is_disabled":false,"rental_uris":{"android":"levelo://app?vid=51ee5826-0cc0-4af2-99a8-a96ea53aa592","ios":"levelo://app?vid=51ee5826-0cc0-4af2-99a8-a96ea53aa592"},"vehicle_type_id":"4","last_reported":1744107043,"current_range_meters":22800,"station_id":"ce4bgi12rcd13ifvqb70","pricing_plan_id":"cebpf4jnsgd1na2vs0mg"},{"bike_id":"ef287825-3ae6-44d9-9531-7507e9938c78","system_id":"levelo_inurba_marseille","lat":43.29004,"lon":5.35607,"is_reserved":false,"is_disabled":false,"rental_uris":{"android":"levelo://app?vid=ef287825-3ae6-44d9-9531-7507e9938c78","ios":"levelo://app?vid=ef287825-3ae6-44d9-9531-7507e9938c78"},"vehicle_type_id":"4","last_reported":1744107043,"current_range_meters":22800,"station_id":"ce4bhb92rcd13ifvqen0","pricing_plan_id":"cebpf4jnsgd1na2vs0mg"},{"bike_id":"6f89bcbe-9185-42eb-8d3d-c37bbfac12d2","system_id":"levelo_inurba_marseille","lat":43.33627,"lon":5.37924,"is_reserved":false,"is_disabled":false,"rental_uris":{"android":"levelo://app?vid=6f89bcbe-9185-42eb-8d3d-c37bbfac12d2","ios":"levelo://app?vid=6f89bcbe-9185-42eb-8d3d-c37bbfac12d2"},"vehicle_type_id":"4","last_reported":1744107043,"current_range_meters":22800,"station_id":"","pricing_plan_id":"cebpf4jnsgd1na2vs0mg"},{"bike_id":"c9dd406b-0f36-4874-86ea-a33761d56b7f","system_id":"levelo_inurba_marseille","lat":43.28275,"lon":5.35068,"is_reserved":false,"is_disabled":false,"rental_uris":{"android":"levelo://app?vid=c9dd406b-0f36-4874-86ea-a33761d56b7f","ios":"levelo://app?vid=c9dd406b-0f36-4874-86ea-a33761d56b7f"},"vehicle_type_id":"4","last_reported":1744107043,"current_range_meters":22800,"station_id":"ce4bhbp2rcd13ifvqerg","pricing_plan_id":"cebpf4jnsgd1na2vs0mg"},{"bike_id":"42c1fdc6-38af-4ea1-a910-702e15d5a9b4","system_id":"levelo_inurba_marseille","lat":43.30923,"lon":5.40151,"is_reserved":false,"is_disabled":true,"rental_uris":{"android":"levelo://app?vid=42c1fdc6-38af-4ea1-a910-702e15d5a9b4","ios":"levelo://app?vid=42c1fdc6-38af-4ea1-a910-702e15d5a9b4"},