{"last_updated":1746778434,"ttl":60,"version":"2.2","data":{"bikes":[{"bike_id":"3e39e04c-7f9f-4780-a874-d7805a3515d5","system_id":"levelo_inurba_marseille","lat":43.23181,"lon":5.39985,"is_reserved":false,"is_disabled":false,"rental_uris":{"android":"levelo://app?vid=3e39e04c-7f9f-4780-a874-d7805a3515d5","ios":"levelo://app?vid=3e39e04c-7f9f-4780-a874-d7805a3515d5"},"vehicle_type_id":"4","last_reported":1746778434,"current_range_meters":2000,"station_id":"ce4bhn12rcd13ifvqgqg","pricing_plan_id":"cebpf4jnsgd1na2vs0mg"},{"bike_id":"2a530234-f85d-4cca-8e29-387c9f6acb72","system_id":"levelo_inurba_marseille","lat":43.25905,"lon":5.40883,"is_reserved":false,"is_disabled":false,"rental_uris":{"android":"levelo://app?vid=2a530234-f85d-4cca-8e29-387c9f6acb72","ios":"levelo://app?vid=2a530234-f85d-4cca-8e29-387c9f6acb72"},"vehicle_type_id":"4","last_reported":1746778434,"current_range_meters":3200,"station_id":"ce4bhm92rcd13ifvqglg","pricing_plan_id":"cebpf4jnsgd1na2vs0mg"},{"bike_id":"14e638c3-6ba0-4ad0-8ab0-153f53fa1fbe","system_id":"levelo_inurba_marseille","lat":43.22933,"lon":5.35368,"is_reserved":false,"is_disabled":false,"rental_uris":{"android":"levelo://app?vid=14e638c3-6ba0-4ad0-8ab0-153f53fa1fbe","ios":"levelo://app?vid=14e638c3-6ba0-4ad0-8ab0-153f53fa1fbe"},"vehicle_type_id":"4","last_reported":1746778434,"current_range_meters":3200,"station_id":"cpo3532slgdg3j2ikp40","pricing_plan_id":"cebpf4jnsgd1na2vs0mg"},{"bike_id":"472e3c1a-d6e1-4dbb-b1ce-cd54ea716381","system_id":"levelo_inurba_marseille","lat":43.24596,"lon":5.40187,"is_reserved":false,"is_disabled":false,"rental_uris":{"android":"levelo://app?vid=472e3c1a-d6e1-4dbb-b1ce-cd54ea716381","ios":"levelo://app?vid=472e3c1a-d6e1-4dbb-b1ce-cd54ea716381"},"vehicle_type_id":"4","last_reported":1746778434,"current_range_meters":3200,"station_id":"","pricing_plan_id":"cebpf4jnsgd1na2vs0mg"},{"bike_id":"35eb5b16-1e5b-4132-9f51-f8472f0ce658","system_id":"levelo_inurba_marseille","lat":43.274927,"lon":5.424633,"is_reserved":false,"is_disabled":false,"rental_uris":{"android":"levelo://app?vid=35eb5b16-1e5b-4132-9f51-f8472f0ce658","ios":"levelo://app?vid=35eb5b16-1e5b-4132-9f51-f8472f0ce658"},"vehicle_type_id":"4","last_reported":1746778434,"current_range_meters":3200,"station_id":"ce4bhn92rcd13ifvqgrg","pricing_plan_id":"cebpf4jnsgd1na2vs0mg"},{"bike_id":"2021463b-9cd9-469a-887d-bb421b0f5687","system_id":"levelo_inurba_marseille","lat":43.28707,"lon":5.39996,"is_reserved":false,"is_disabled":false,"rental_uris":{"android":"levelo://app?vid=2021463b-9cd9-469a-887d-bb421b0f5687","ios":"levelo://app?vid=2021463b-9cd9-469a-887d-bb421b0f5687"},"vehicle_type_id":"4","last_reported":1746778434,"current_range_meters":3200,"station_id":"ce4bho92rcd13ifvqh3g","pricing_plan_id":"cebpf4jnsgd1na2vs0mg"},{"bike_id":"a028d979-2c70-4a8a-ba05-0d12e62aa6db","system_id":"levelo_inurba_marseille","lat":43.28346,"lon":5.38104,"is_reserved":false,"is_disabled":false,"rental_uris":{"android":"levelo://app?vid=a028d979-2c70-4a8a-ba05-0d12e62aa6db","ios":"levelo://app?vid=a028d979-2c70-4a8a-ba05-0d12e62aa6db"},"vehicle_type_id":"4","last_reported":1746778434,"current_range_meters":4000,"station_id":"ce4bh412rcd13ifvqdr0","pricing_plan_id":"cebpf4jnsgd1na2vs0mg"},{"bike_id":"dbe5a663-fae3-4018-948c-08f2fc94a680","system_id":"levelo_inurba_marseille","lat":43.28348,"lon":5.38101,"is_reserved":false,"is_disabled":false,"rental_uris":{"android":"levelo://app?vid=dbe5a663-fae3-4018-948c-08f2fc94a680","ios":"levelo://app?vid=dbe5a663-fae3-4018-948c-08f2fc94a680"},"vehicle_type_id":"4","last_reported":1746778434,"current_range_meters":4000,"station_id":"ce4bh412rcd13ifvqdr0","pricing_plan_id":"cebpf4jnsgd1na2vs0mg"},{"bike_id":"44fe0ebc-ac6f-4ca0-8427-6d28db5bee6c","system_id":"levelo_inurba_marseille","lat":43.265656,"lon":5.390062,"is_reserved":false,"is_disabled":false,"rental_uris":{"android":"levelo://app?vid=44fe0ebc-ac6f-4ca0-8427-6d28db5bee6c","ios":"levelo://app?vid=44fe0ebc-ac6f-4ca0-8427-6d28db5bee6c"},"vehicle_type_id":"4","last_reported":1746778434,"current_range_meters":4400,"station_id":"ce4bhe12rcd13ifvqf30","pricing_plan_id":"cebpf4jnsgd1na2vs0mg"},{"bike_id":"c91b378d-26a5-4ed8-99d4-6b3ec43dd75e","system_id":"levelo_inurba_marseille","lat":43.24077,"lon":5.37754,"is_reserved":false,"is_disabled":false,"rental_uris":{"android":"levelo://app?vid=c91b378d-26a5-4ed8-99d4-6b3ec43dd75e","ios":"levelo://app?vid=c91b378d-26a5-4ed8-99d4-6b3ec43dd75e"},"vehicle_type_id":"4","last_reported":1746778434,"current_range_meters":5600,"station_id":"ce4bhnp2rcd13ifvqgvg","pricing_plan_id":"cebpf4jnsgd1na2vs0mg"},{"bike_id":"144ca755-3a43-42d9-8ab3-d7a4cd1510f1","system_id":"levelo_inurba_marseille","lat":43.30534,"lon":5.3672,"is_reserved":false,"is_disabled":false,"rental_uris":{"android":"levelo://app?vid=144ca755-3a43-42d9-8ab3-d7a4cd1510f1","ios":"levelo://app?vid=144ca755-3a43-42d9-8ab3-d7a4cd1510f1"},"vehicle_type_id":"4","last_reported":1746778434,"current_range_meters":5600,"station_id":"ce4bgrp2rcd13ifvqc9g","pricing_plan_id":"cebpf4jnsgd1na2vs0mg"},{"bike_id":"fe73b351-03d8-4cb3-a1fb-7d786c4f8e01","system_id":"levelo_inurba_marseille","lat":43.30902,"lon":5.3685,"is_reserved":false,"is_disabled":false,"rental_uris":{"android":"levelo://app?vid=fe73b351-03d8-4cb3-a1fb-7d786c4f8e01","ios":"levelo://app?vid=fe73b351-03d8-4cb3-a1fb-7d786c4f8e01"},"vehicle_type_id":"4","last_reported":1746778434,"current_range_meters":6400,"station_id":"ce4bgn92rcd13ifvqbvg","pricing_plan_id":"cebpf4jnsgd1na2vs0mg"},{"bike_id":"b15fe93b-1059-4d75-abd3-040e349ce402","system_id":"levelo_inurba_marseille","lat":43.30106,"lon":5.37015,"is_reserved":false,"is_disabled":false,"rental_uris":{"android":"levelo://app?vid=b15fe93b-1059-4d75-abd3-040e349ce402","ios":"levelo://app?vid=b15fe93b-1059-4d75-abd3-040e349ce402"},"vehicle_type_id":"4","last_reported":1746778434,"current_range_meters":6400,"station_id":"","pricing_plan_id":"cebpf4jnsgd1na2vs0mg"},{"bike_id":"cd3b8d42-3053-45b0-aa09-f76e7f38e24a","system_id":"levelo_inurba_marseille","lat":43.25934,"lon":5.4091,"is_reserved":false,"is_disabled":false,"rental_uris":{"android":"levelo://app?vid=cd3b8d42-3053-45b0-aa09-f76e7f38e24a","ios":"levelo://app?vid=cd3b8d42-3053-45b0-aa09-f76e7f38e24a"},"vehicle_type_id":"4","last_reported":1746778434,"current_range_meters":6800,"station_id":"ce4bhm92rcd13ifvqglg","pricing_plan_id":"cebpf4jnsgd1na2vs0mg"},{"bike_id":"b6a4bdb2-31a2-432b-9697-0659b61f4f64","system_id":"levelo_inurba_marseille","lat":43.24065,"lon":5.37755,"is_reserved":false,"is_disabled":false,"rental_uris":{"android":"levelo://app?vid=b6a4bdb2-31a2-432b-9697-0659b61f4f64","ios":"levelo://app?vid=b6a4bdb2-31a2-432b-9697-0659b61f4f64"},"vehicle_type_id":"4","last_reported":1746778434,"current_range_meters":6800,"station_id":"ce4bhnp2rcd13ifvqgvg","pricing_plan_id":"cebpf4jnsgd1na2vs0mg"},{"bike_id":"1f281ed5-8e05-43ba-b583-cf4e73bd4cb4","system_id":"levelo_inurba_marseille","lat":43.321186,"lon":5.367817,"is_reserved":false,"is_disabled":false,"rental_uris":{"android":"levelo://app?vid=1f281ed5-8e05-43ba-b583-cf4e73bd4cb4","ios":"levelo://app?vid=1f281ed5-8e05-43ba-b583-cf4e73bd4cb4"},"vehicle_type_id":"4","last_reported":1746778434,"current_range_meters":6800,"station_id":"ce4bhrh2rcd13ifvqhug","pricing_plan_id":"cebpf4jnsgd1na2vs0mg"},{"bike_id":"916d67d8-ccd1-41b8-923b-e1ce6259ee20","system_id":"levelo_inurba_marseille","lat":43.30759,"lon":5.37444,"is_reserved":false,"is_disabled":false,"rental_uris":{"android":"levelo://app?vid=916d67d8-ccd1-41b8-923b-e1ce6259ee20","ios":"levelo://app?vid=916d67d8-ccd1-41b8-923b-e1ce6259ee20"},"vehicle_type_id":"4","last_reported":1746778434,"current_range_meters":6800,"station_id":"","pricing_plan_id":"cebpf4jnsgd1na2vs0mg"},{"bike_id":"c43ed3ca-340d-43d7-8ad5-7e6b2386ac59","system_id":"levelo_inurba_marseille","lat":43.29903,"lon":5.43664,"is_reserved":false,"is_disabled":false,"rental_uris":{"android":"levelo://app?vid=c43ed3ca-340d-43d7-8ad5-7e6b2386ac59","ios":"levelo://app?vid=c43ed3ca-340d-43d7-8ad5-7e6b2386ac59"},"vehicle_type_id":"4","last_reported":1746778434,"current_range_meters":6800,"station_id":"ce4bhpp2rcd13ifvqhfg","pricing_plan_id":"cebpf4jnsgd1na2vs0mg"},{"bike_id":"03f953a8-8401-4354-9ac5-733ae4c7f687","system_id":"levelo_inurba_marseille","lat":43.26552,"lon":5.37284,"is_reserved":false,"is_disabled":false,"rental_uris":{"android":"levelo://app?vid=03f953a8-8401-4354-9ac5-733ae4c7f687","ios":"levelo://app?vid=03f953a8-8401-4354-9ac5-733ae4c7f687"},"vehicle_type_id":"4","last_reported":1746778434,"current_range_meters":6800,"station_id":"ce4bhg12rcd13ifvqf70","pricing_plan_id":"cebpf4jnsgd1na2vs0mg"},{"bike_id":"00138ee9-dd3d-4b66-85a7-f8ff69dd7e90","system_id":"levelo_inurba_marseille","lat":43.28481,"lon":5.38603,"is_reserved":false,"is_disabled":true,"rental_uris":{"android":"levelo://app?vid=00138ee9-dd3d-4b66-85a7-f8ff69dd7e90","ios":"levelo://app?vid=00138ee9-dd3d-4b66-85a7-f8ff69dd7e90"},"vehicle_type_id":"4","last_reported":1746778434,"current_range_meters":6800,"station_id":"ce4bh8p2rcd13ifvqeb0","pricing_plan_id":"cebpf4jnsgd1na2vs0mg"},{"bike_id":"3380be41-5609-4f83-92ea-376897d27f4f","system_id":"levelo_inurba_marseille","lat":43.231826,"lon":5.399965,"is_reserved":false,"is_disabled":false,"rental_uris":{"android":"levelo://app?vid=3380be41-5609-4f83-92ea-376897d27f4f","ios":"levelo://app?vid=3380be41-5609-4f83-92ea-376897d27f4f"},"vehicle_type_id":"4","last_reported":1746778434,"current_range_meters":6800,"station_id":"ce4bhn12rcd13ifvqgqg","pricing_plan_id":"cebpf4jnsgd1na2vs0mg"},{"bike_id":"43f0482d-d7fe-44be-85c6-8360f82ceef2","system_id":"levelo_inurba_marseille","lat":43.28717,"lon":5.360956,"is_reserved":false,"is_disabled":false,"rental_uris":{"android":"levelo://app?vid=43f0482d-d7fe-44be-85c6-8360f82ceef2","ios":"levelo://app?vid=43f0482d-d7fe-44be-85c6-8360f82ceef2"},"vehicle_type_id":"4","last_reported":1746778434,"current_range_meters":11200,"station_id":"cki0cbj6b192h4jlfktg","pricing_plan_id":"cebpf4jnsgd1na2vs0mg"},{"bike_id":"9d208eb0-0b88-4416-808e-f6ff7a84220b","system_id":"levelo_inurba_marseille","lat":43.29413,"lon":5.3863,"is_reserved":false,"is_disabled":false,"rental_uris":{"android":"levelo://app?vid=9d208eb0-0b88-4416-808e-f6ff7a84220b","ios":"levelo://app?vid=9d208eb0-0b88-4416-808e-f6ff7a84220b"},"vehicle_type_id":"4","last_reported":1746778434,"current_range_meters":7200,"station_id":"ce4bh2h2rcd13ifvqdh0","pricing_plan_id":"cebpf4jnsgd1na2vs0mg"},{"bike_id":"11f2f90e-07ea-45fc-bea7-59b140809475","system_id":"levelo_inurba_marseille","lat":43.285,"lon":5.38573,"is_reserved":false,"is_disabled":false,"rental_uris":{"android":"levelo://app?vid=11f2f90e-07ea-45fc-bea7-59b140809475","ios":"levelo://app?vid=11f2f90e-07ea-45fc-bea7-59b140809475"},"vehicle_type_id":"4","last_reported":1746778434,"current_range_meters":7200,"station_id":"ce4bh8p2rcd13ifvqeb0","pricing_plan_id":"cebpf4jnsgd1na2vs0mg"},{"bike_id":"59b15bd5-ad81-47d1-8912-c2efa57e7e1f","system_id":"levelo_inurba_marseille","lat":43.292987,"lon":5.372043,"is_reserved":false,"is_disabled":true,"rental_uris":{"android":"levelo://app?vid=59b15bd5-ad81-47d1-8912-c2efa57e7e1f","ios":"levelo://app?vid=59b15bd5-ad81-47d1-8912-c2efa57e7e1f"},"vehicle_type_id":"4","last_reported":1746778434,"current_range_meters":8000,"station_id":"ce4bgh92rcd13ifvqb40","pricing_plan_id":"cebpf4jnsgd1na2vs0mg"},{"bike_id":"24a02016-a932-4bb5-b40e-e65338592af4","system_id":"levelo_inurba_marseille","lat":43.24998,"lon":5.38955,"is_reserved":false,"is_disabled":false,"rental_uris":{"android":"levelo://app?vid=24a02016-a932-4bb5-b40e-e65338592af4","ios":"levelo://app?vid=24a02016-a932-4bb5-b40e-e65338592af4"},"vehicle_type_id":"4","last_reported":1746778434,"current_range_meters":8000,"station_id":"ce4bhgp2rcd13ifvqfd0","pricing_plan_id":"cebpf4jnsgd1na2vs0mg"},{"bike_id":"7047aaf7-5d58-4343-b8d8-a498bfaa03c7","system_id":"levelo_inurba_marseille","lat":43.27101,"lon":5.4225,"is_reserved":false,"is_disabled":false,"rental_uris":{"android":"levelo://app?vid=7047aaf7-5d58-4343-b8d8-a498bfaa03c7","ios":"levelo://app?vid=7047aaf7-5d58-4343-b8d8-a498bfaa03c7"},"vehicle_type_id":"4","last_reported":1746778434,"current_range_meters":8000,"station_id":"ce4bhk92rcd13ifvqgb0","pricing_plan_id":"cebpf4jnsgd1na2vs0mg"},{"bike_id":"35f36335-51c7-48bf-a321-437e1aea77da","system_id":"levelo_inurba_marseille","lat":43.32363,"lon":5.36781,"is_reserved":false,"is_disabled":false,"rental_uris":{"android":"levelo://app?vid=35f36335-51c7-48bf-a321-437e1aea77da","ios":"levelo://app?vid=35f36335-51c7-48bf-a321-437e1aea77da"},"vehicle_type_id":"4","last_reported":1746778434,"current_range_meters":8000,"station_id":"ce4bhsh2rcd13ifvqi2g","pricing_plan_id":"cebpf4jnsgd1na2vs0mg"},{"bike_id":"fd991be1-d3a7-48e9-af71-ab1504a07e0f","system_id":"levelo_inurba_marseille","lat":43.23199,"lon":5.40006,"is_reserved":false,"is_disabled":false,"rental_uris":{"android":"levelo://app?vid=fd991be1-d3a7-48e9-af71-ab1504a07e0f","ios":"levelo://app?vid=fd991be1-d3a7-48e9-af71-ab1504a07e0f"},"vehicle_type_id":"4","last_reported":1746778434,"current_range_meters":8000,"station_id":"ce4bhn12rcd13ifvqgqg","pricing_plan_id":"cebpf4jnsgd1na2vs0mg"},{"bike_id":"79ff6315-b314-4711-842a-c9b72d408e6e","system_id":"levelo_inurba_marseille","lat":43.31359,"lon":5.36707,"is_reserved":false,"is_disabled":false,"rental_uris":{"android":"levelo://app?vid=79ff6315-b314-4711-842a-c9b72d408e6e","ios":"levelo://app?vid=79ff6315-b314-4711-842a-c9b72d408e6e"},"vehicle_type_id":"4","last_reported":1746778434,"current_range_meters":8400,"station_id":"ce4bgr92rcd13ifvqc6g","pricing_plan_id":"cebpf4jnsgd1na2vs0mg"},{"bike_id":"25758c9c-8449-4359-8d6d-845d1c9c5b3d","system_id":"levelo_inurba_marseille","lat":43.29921,"lon":5.37472,"is_reserved":false,"is_disabled":false,"rental_uris":{"android":"levelo://app?vid=25758c9c-8449-4359-8d6d-845d1c9c5b3d","ios":"levelo://app?vid=25758c9c-8449-4359-8d6d-845d1c9c5b3d"},"vehicle_type_id":"4","last_reported":1746778434,"current_range_meters":8400,"station_id":"ce4bgjh2rcd13ifvqbg0","pricing_plan_id":"cebpf4jnsgd1na2vs0mg"},{"bike_id":"4e5065eb-3734-48c1-bd87-2f14e55a7038","system_id":"levelo_inurba_marseille","lat":43.27965,"lon":5.38735,"is_reserved":false,"is_disabled":false,"rental_uris":{"android":"levelo://app?vid=4e5065eb-3734-48c1-bd87-2f14e55a7038","ios":"levelo://app?vid=4e5065eb-3734-48c1-bd87-2f14e55a7038"},"vehicle_type_id":"4","last_reported":1746778434,"current_range_meters":8800,"station_id":"ce4bhg12rcd13ifvqf80","pricing_plan_id":"cebpf4jnsgd1na2vs0mg"},{"bike_id":"3311c1f1-091b-4394-846c-138bab96fa5d","system_id":"levelo_inurba_marseille","lat":43.279034,"lon":5.380012,"is_reserved":false,"is_disabled":false,"rental_uris":{"android":"levelo://app?vid=3311c1f1-091b-4394-846c-138bab96fa5d","ios":"levelo://app?vid=3311c1f1-091b-4394-846c-138bab96fa5d"},"vehicle_type_id":"4","last_reported":1746778434,"current_range_meters":8800,"station_id":"ce4bhf92rcd13ifvqf50","pricing_plan_id":"cebpf4jnsgd1na2vs0mg"},{"bike_id":"1a830a68-3bc6-4a31-8a36-4aac066cba54","system_id":"levelo_inurba_marseille","lat":43.29198,"lon":5.358,"is_reserved":false,"is_disabled":false,"rental_uris":{"android":"levelo://app?vid=1a830a68-3bc6-4a31-8a36-4aac066cba54","ios":"levelo://app?vid=1a830a68-3bc6-4a31-8a36-4aac066cba54"},"vehicle_type_id":"4","last_reported":1746778434,"current_range_meters":10000,"station_id":"ce4bhb12rcd13ifvqel0","pricing_plan_id":"cebpf4jnsgd1na2vs0mg"},{"bike_id":"4983894a-4c1a-4e24-9a52-0dc978723fce","system_id":"levelo_inurba_marseille","lat":43.24388,"lon":5.37057,"is_reserved":false,"is_disabled":false,"rental_uris":{"android":"levelo://app?vid=4983894a-4c1a-4e24-9a52-0dc978723fce","ios":"levelo://app?vid=4983894a-4c1a-4e24-9a52-0dc978723fce"},"vehicle_type_id":"4","last_reported":1746778434,"current_range_meters":8800,"station_id":"ce4bhhh2rcd13ifvqfk0","pricing_plan_id":"cebpf4jnsgd1na2vs0mg"},{"bike_id":"809c8673-c032-46b9-aa07-62c38e26d44e","system_id":"levelo_inurba_marseille","lat":43.25053,"lon":5.38793,"is_reserved":false,"is_disabled":false,"rental_uris":{"android":"levelo://app?vid=809c8673-c032-46b9-aa07-62c38e26d44e","ios":"levelo://app?vid=809c8673-c032-46b9-aa07-62c38e26d44e"},"vehicle_type_id":"4","last_reported":1746778434,"current_range_meters":9200,"station_id":"","pricing_plan_id":"cebpf4jnsgd1na2vs0mg"},{"bike_id":"caf9033d-5f00-49c3-b1ee-1328b62008dc","system_id":"levelo_inurba_marseille","lat":43.33587,"lon":5.42822,"is_reserved":false,"is_disabled":false,"rental_uris":{"android":"levelo://app?vid=caf9033d-5f00-49c3-b1ee-1328b62008dc","ios":"levelo://app?vid=caf9033d-5f00-49c3-b1ee-1328b62008dc"},"vehicle_type_id":"4","last_reported":1746778434,"current_range_meters":9200,"station_id":"","pricing_plan_id":"cebpf4jnsgd1na2vs0mg"},{"bike_id":"505cfc75-0e6e-4ff3-a1d4-dd9fccf9d9ca","system_id":"levelo_inurba_marseille","lat":43.23151,"lon":5.43724,"is_reserved":false,"is_disabled":false,"rental_uris":{"android":"levelo://app?vid=505cfc75-0e6e-4ff3-a1d4-dd9fccf9d9ca","ios":"levelo://app?vid=505cfc75-0e6e-4ff3-a1d4-dd9fccf9d9ca"},"vehicle_type_id":"4","last_reported":1746778434,"current_range_meters":8800,"station_id":"ce4bhmp2rcd13ifvqgog","pricing_plan_id":"cebpf4jnsgd1na2vs0mg"},{"bike_id":"c679e68f-bdab-49d1-ae27-16ed31479f55","system_id":"levelo_inurba_marseille","lat":43.26787,"lon":5.39417,"is_reserved":false,"is_disabled":false,"rental_uris":{"android":"levelo://app?vid=c679e68f-bdab-49d1-ae27-16ed31479f55","ios":"levelo://app?vid=c679e68f-bdab-49d1-ae27-16ed31479f55"},"vehicle_type_id":"4","last_reported":1746778434,"current_range_meters":9200,"station_id":"ce4bhh12rcd13ifvqfg0","pricing_plan_id":"cebpf4jnsgd1na2vs0mg"},{"bike_id":"1ace52ba-e14c-40ee-8bf5-c0676338ba7d","system_id":"levelo_inurba_marseille","lat":43.2707,"lon":5.4228,"is_reserved":false,"is_disabled":false,"rental_uris":{"android":"levelo://app?vid=1ace52ba-e14c-40ee-8bf5-c0676338ba7d","ios":"levelo://app?vid=1ace52ba-e14c-40ee-8bf5-c0676338ba7d"},"vehicle_type_id":"4","last_reported":1746778434,"current_range_meters":9200,"station_id":"ce4bhk92rcd13ifvqgb0","pricing_plan_id":"cebpf4jnsgd1na2vs0mg"},{"bike_id":"b8b1ffc5-4d33-4f16-a743-d51a24499202","system_id":"levelo_inurba_marseille","lat":43.25904,"lon":5.40866,"is_reserved":false,"is_disabled":false,"rental_uris":{"android":"levelo://app?vid=b8b1ffc5-4d33-4f16-a743-d51a24499202","ios":"levelo://app?vid=b8b1ffc5-4d33-4f16-a743-d51a24499202"},"vehicle_type_id":"4","last_reported":1746778434,"current_range_meters":9600,"station_id":"ce4bhm92rcd13ifvqglg","pricing_plan_id":"cebpf4jnsgd1na2vs0mg"},{"bike_id":"165087f0-ecec-4039-a450-d02638c79528","system_id":"levelo_inurba_marseille","lat":43.3135,"lon":5.36682,"is_reserved":false,"is_disabled":false,"rental_uris":{"android":"levelo://app?vid=165087f0-ecec-4039-a450-d02638c79528","ios":"levelo://app?vid=165087f0-ecec-4039-a450-d02638c79528"},"vehicle_type_id":"4","last_reported":1746778434,"current_range_meters":9600,"station_id":"ce4bgr92rcd13ifvqc6g","pricing_plan_id":"cebpf4jnsgd1na2vs0mg"},{"bike_id":"f1d610ed-4ddc-4d81-9e65-835d851604d2","system_id":"levelo_inurba_marseille","lat":43.30208,"lon":5.3947,"is_reserved":false,"is_disabled":false,"rental_uris":{"android":"levelo://app?vid=f1d610ed-4ddc-4d81-9e65-835d851604d2","ios":"levelo://app?vid=f1d610ed-4ddc-4d81-9e65-835d851604d2"},"vehicle_type_id":"4","last_reported":1746778434,"current_range_meters":9600,"station_id":"ce4bh0p2rcd13ifvqd70","pricing_plan_id":"cebpf4jnsgd1na2vs0mg"},{"bike_id":"47bb6f34-9c89-4a6c-b2ec-6a2d3e007f08","system_id":"levelo_inurba_marseille","lat":43.25778,"lon":5.41065,"is_reserved":false,"is_disabled":false,"rental_uris":{"android":"levelo://app?vid=47bb6f34-9c89-4a6c-b2ec-6a2d3e007f08","ios":"levelo://app?vid=47bb6f34-9c89-4a6c-b2ec-6a2d3e007f08"},"vehicle_type_id":"4","last_reported":1746778434,"current_range_meters":9600,"station_id":"","pricing_plan_id":"cebpf4jnsgd1na2vs0mg"},{"bike_id":"d50c8c57-2d1b-4c70-9ce6-e602d4219a2a","system_id":"levelo_inurba_marseille","lat":43.30903,"lon":5.36844,"is_reserved":false,"is_disabled":false,"rental_uris":{"android":"levelo://app?vid=d50c8c57-2d1b-4c70-9ce6-e602d4219a2a","ios":"levelo://app?vid=d50c8c57-2d1b-4c70-9ce6-e602d4219a2a"},"vehicle_type_id":"4","last_reported":1746778434,"current_range_meters":9600,"station_id":"ce4bgn92rcd13ifvqbvg","pricing_plan_id":"cebpf4jnsgd1na2vs0mg"},{"bike_id":"294e5e93-618a-4492-9bac-02c9b5b12a80","system_id":"levelo_inurba_marseille","lat":43.321102,"lon":5.367658,"is_reserved":false,"is_disabled":true,"rental_uris":{"android":"levelo://app?vid=294e5e93-618a-4492-9bac-02c9b5b12a80","ios":"levelo://app?vid=294e5e93-618a-4492-9bac-02c9b5b12a80"},"vehicle_type_id":"4","last_reported":1746778434,"current_range_meters":9600,"station_id":"ce4bhrh2rcd13ifvqhug","pricing_plan_id":"cebpf4jnsgd1na2vs0mg"},{"bike_id":"812e31b7-42f9-4d63-b220-e99af5c192ed","system_id":"levelo_inurba_marseille","lat":43.31189,"lon":5.41603,"is_reserved":false,"is_disabled":false,"rental_uris":{"android":"levelo://app?vid=812e31b7-42f9-4d63-b220-e99af5c192ed","ios":"levelo://app?vid=812e31b7-42f9-4d63-b220-e99af5c192ed"},"vehicle_type_id":"4","last_reported":1746778434,"current_range_meters":9600,"station_id":"","pricing_plan_id":"cebpf4jnsgd1na2vs0mg"},{"bike_id":"ae884275-ecec-47f0-b821-c1d5a0ed7a53","system_id":"levelo_inurba_marseille","lat":43.28268,"lon":5.35062,"is_reserved":false,"is_disabled":false,"rental_uris":{"android":"levelo://app?vid=ae884275-ecec-47f0-b821-c1d5a0ed7a53","ios":"levelo://app?vid=ae884275-ecec-47f0-b821-c1d5a0ed7a53"},"vehicle_type_id":"4","last_reported":1746778434,"current_range_meters":9200,"station_id":"ce4bhbp2rcd13ifvqerg","pricing_plan_id":"cebpf4jnsgd1na2vs0mg"},{"bike_id":"b7f2dd7a-6589-455b-a091-52860ea27732","system_id":"levelo_inurba_marseille","lat":43.29512,"lon":5.37504,"is_reserved":false,"is_disabled":false,"rental_uris":{"android":"levelo://app?vid=b7f2dd7a-6589-455b-a091-52860ea27732","ios":"levelo://app?vid=b7f2dd7a-6589-455b-a091-52860ea27732"},"vehicle_type_id":"4","last_reported":1746778434,"current_range_meters":10000,"station_id":"ce4bgkp2rcd13ifvqbmg","pricing_plan_id":"cebpf4jnsgd1na2vs0mg"},{"bike_id":"32e2dd6e-65bd-425a-bcc7-345ca019a242","system_id":"levelo_inurba_marseille","lat":43.27208,"lon":5.39183,"is_reserved":false,"is_disabled":false,"rental_uris":{"android":"levelo://app?vid=32e2dd6e-65bd-425a-bcc7-345ca019a242","ios":"levelo://app?vid=32e2dd6e-65bd-425a-bcc7-345ca019a242"},"vehicle_type_id":"4","last_reported":1746778434,"current_range_meters":9600,"station_id":"ce4bhhp2rcd13ifvqfm0","pricing_plan_id":"cebpf4jnsgd1na2vs0mg"},{"bike_id":"61b816db-de3c-45f7-a2ca-2d92db970a10","system_id":"levelo_inurba_marseille","lat":43.28346,"lon":5.3811,"is_reserved":false,"is_disabled":false,"rental_uris":{"android":"levelo://app?vid=61b816db-de3c-45f7-a2ca-2d92db970a10","ios":"levelo://app?vid=61b816db-de3c-45f7-a2ca-2d92db970a10"},"vehicle_type_id":"4","last_reported":1746778434,"current_range_meters":10000,"station_id":"ce4bh412rcd13ifvqdr0","pricing_plan_id":"cebpf4jnsgd1na2vs0mg"},{"bike_id":"a2309e80-b2ba-42c9-9c60-147f0babf9f9","system_id":"levelo_inurba_marseille","lat":43.30854,"lon":5.37027,"is_reserved":false,"is_disabled":false,"rental_uris":{"android":"levelo://app?vid=a2309e80-b2ba-42c9-9c60-147f0babf9f9","ios":"levelo://app?vid=a2309e80-b2ba-42c9-9c60-147f0babf9f9"},"vehicle_type_id":"4","last_reported":1746778434,"current_range_meters":10800,"station_id":"","pricing_plan_id":"cebpf4jnsgd1na2vs0mg"},{"bike_id":"8b698a34-fbf5-484e-9ecb-26e22393bc90","system_id":"levelo_inurba_marseille","lat":43.330277,"lon":5.390363,"is_reserved":false,"is_disabled":false,"rental_uris":{"android":"levelo://app?vid=8b698a34-fbf5-484e-9ecb-26e22393bc90","ios":"levelo://app?vid=8b698a34-fbf5-484e-9ecb-26e22393bc90"},"vehicle_type_id":"4","last_reported":1746778434,"current_range_meters":10000,"station_id":"ce4bhr92rcd13ifvqhrg","pricing_plan_id":"cebpf4jnsgd1na2vs0mg"},{"bike_id":"caccb556-2ad0-45b8-84b8-819024dd44e6","system_id":"levelo_inurba_marseille","lat":43.29769,"lon":5.3681,"is_reserved":false,"is_disabled":false,"rental_uris":{"android":"levelo://app?vid=caccb556-2ad0-45b8-84b8-819024dd44e6","ios":"levelo://app?vid=caccb556-2ad0-45b8-84b8-819024dd44e6"},"vehicle_type_id":"4","last_reported":1746778434,"current_range_meters":10800,"station_id":"","pricing_plan_id":"cebpf4jnsgd1na2vs0mg"},{"bike_id":"102dcd7c-3f1d-4f36-82bb-4cb134e318bc","system_id":"levelo_inurba_marseille","lat":43.265613,"lon":5.390003,"is_reserved":false,"is_disabled":false,"rental_uris":{"android":"levelo://app?vid=102dcd7c-3f1d-4f36-82bb-4cb134e318bc","ios":"levelo://app?vid=102dcd7c-3f1d-4f36-82bb-4cb134e318bc"},"vehicle_type_id":"4","last_reported":1746778434,"current_range_meters":10800,"station_id":"ce4bhe12rcd13ifvqf30","pricing_plan_id":"cebpf4jnsgd1na2vs0mg"},{"bike_id":"e52bfd82-0d4c-4ec9-a63b-aa566ebda16e","system_id":"levelo_inurba_marseille","lat":43.31805,"lon":5.36825,"is_reserved":false,"is_disabled":false,"rental_uris":{"android":"levelo://app?vid=e52bfd82-0d4c-4ec9-a63b-aa566ebda16e","ios":"levelo://app?vid=e52bfd82-0d4c-4ec9-a63b-aa566ebda16e"},"vehicle_type_id":"4","last_reported":1746778434,"current_range_meters":11200,"station_id":"","pricing_plan_id":"cebpf4jnsgd1na2vs0mg"},{"bike_id":"c42d0137-01db-4e02-8a6e-f9af61ad1319","system_id":"levelo_inurba_marseille","lat":43.314594,"lon":5.373011,"is_reserved":false,"is_disabled":false,"rental_uris":{"android":"levelo://app?vid=c42d0137-01db-4e02-8a6e-f9af61ad1319","ios":"levelo://app?vid=c42d0137-01db-4e02-8a6e-f9af61ad1319"},"vehicle_type_id":"4","last_reported":1746778434,"current_range_meters":11600,"station_id":"ce4bgt12rcd13ifvqcd0","pricing_plan_id":"cebpf4jnsgd1na2vs0mg"},{"bike_id":"33e117f2-538f-49bf-8892-acc47b91dd92","system_id":"levelo_inurba_marseille","lat":43.32291,"lon":5.3826,"is_reserved":false,"is_disabled":false,"rental_uris":{"android":"levelo://app?vid=33e117f2-538f-49bf-8892-acc47b91dd92","ios":"levelo://app?vid=33e117f2-538f-49bf-8892-acc47b91dd92"},"vehicle_type_id":"4","last_reported":1746778434,"current_range_meters":11200,"station_id":"ce4bhr12rcd13ifvqhqg","pricing_plan_id":"cebpf4jnsgd1na2vs0mg"},{"bike_id":"044478cb-8194-4092-b984-4fc9c042ef68","system_id":"levelo_inurba_marseille","lat":43.287,"lon":5.46575,"is_reserved":false,"is_disabled":false,"rental_uris":{"android":"levelo://app?vid=044478cb-8194-4092-b984-4fc9c042ef68","ios":"levelo://app?vid=044478cb-8194-4092-b984-4fc9c042ef68"},"vehicle_type_id":"4","last_reported":1746778434,"current_range_meters":11600,"station_id":"","pricing_plan_id":"cebpf4jnsgd1na2vs0mg"},{"bike_id":"9962b8cb-c94d-4a94-804b-a946a3138815","system_id":"levelo_inurba_marseille","lat":43.31304,"lon":5.37292,"is_reserved":false,"is_disabled":false,"rental_uris":{"android":"levelo://app?vid=9962b8cb-c94d-4a94-804b-a946a3138815","ios":"levelo://app?vid=9962b8cb-c94d-4a94-804b-a946a3138815"},"vehicle_type_id":"4","last_reported":1746778434,"current_range_meters":11600,"station_id":"","pricing_plan_id":"cebpf4jnsgd1na2vs0mg"},{"bike_id":"049dee66-f320-4a39-90d5-cac240a0fc35","system_id":"levelo_inurba_marseille","lat":43.27077,"lon":5.42253,"is_reserved":false,"is_disabled":false,"rental_uris":{"android":"levelo://app?vid=049dee66-f320-4a39-90d5-cac240a0fc35","ios":"levelo://app?vid=049dee66-f320-4a39-90d5-cac240a0fc35"},"vehicle_type_id":"4","last_reported":1746778434,"current_range_meters":11600,"station_id":"ce4bhk92rcd13ifvqgb0","pricing_plan_id":"cebpf4jnsgd1na2vs0mg"},{"bike_id":"057fc800-9f9b-44e6-8681-ad898305eaf8","system_id":"levelo_inurba_marseille","lat":43.319925,"lon":5.381641,"is_reserved":false,"is_disabled":false,"rental_uris":{"android":"levelo://app?vid=057fc800-9f9b-44e6-8681-ad898305eaf8","ios":"levelo://app?vid=057fc800-9f9b-44e6-8681-ad898305eaf8"},"vehicle_type_id":"4","last_reported":1746778434,"current_range_meters":11600,"station_id":"ce4bhr12rcd13ifvqhpg","pricing_plan_id":"cebpf4jnsgd1na2vs0mg"},{"bike_id":"b0c54ead-2c9a-4d45-904a-5e1b9abf7338","system_id":"levelo_inurba_marseille","lat":43.27873,"lon":5.44087,"is_reserved":false,"is_disabled":false,"rental_uris":{"android":"levelo://app?vid=b0c54ead-2c9a-4d45-904a-5e1b9abf7338","ios":"levelo://app?vid=b0c54ead-2c9a-4d45-904a-5e1b9abf7338"},"vehicle_type_id":"4","last_reported":1746778434,"current_range_meters":11600,"station_id":"","pricing_plan_id":"cebpf4jnsgd1na2vs0mg"},{"bike_id":"5392f0c8-7dee-4326-979b-7647732ae0c8","system_id":"levelo_inurba_marseille","lat":43.25122,"lon":5.40318,"is_reserved":false,"is_disabled":false,"rental_uris":{"android":"levelo://app?vid=5392f0c8-7dee-4326-979b-7647732ae0c8","ios":"levelo://app?vid=5392f0c8-7dee-4326-979b-7647732ae0c8"},"vehicle_type_id":"4","last_reported":1746778434,"current_range_meters":11200,"station_id":"ce4bhlh2rcd13ifvqgig","pricing_plan_id":"cebpf4jnsgd1na2vs0mg"},{"bike_id":"cfb5f8ab-2814-4f4d-9d75-d10095b1f175","system_id":"levelo_inurba_marseille","lat":43.25926,"lon":5.409,"is_reserved":false,"is_disabled":false,"rental_uris":{"android":"levelo://app?vid=cfb5f8ab-2814-4f4d-9d75-d10095b1f175","ios":"levelo://app?vid=cfb5f8ab-2814-4f4d-9d75-d10095b1f175"},"vehicle_type_id":"4","last_reported":1746778434,"current_range_meters":12000,"station_id":"ce4bhm92rcd13ifvqglg","pricing_plan_id":"cebpf4jnsgd1na2vs0mg"},{"bike_id":"0bcbf222-8a94-4f64-af3a-9987abd07bae","system_id":"levelo_inurba_marseille","lat":43.26558,"lon":5.37284,"is_reserved":false,"is_disabled":false,"rental_uris":{"android":"levelo://app?vid=0bcbf222-8a94-4f64-af3a-9987abd07bae","ios":"levelo://app?vid=0bcbf222-8a94-4f64-af3a-9987abd07bae"},"vehicle_type_id":"4","last_reported":1746778434,"current_range_meters":12400,"station_id":"ce4bhg12rcd13ifvqf70","pricing_plan_id":"cebpf4jnsgd1na2vs0mg"},{"bike_id":"1a9fc9a9-b634-4678-af05-42c4ceaa73fa","system_id":"levelo_inurba_marseille","lat":43.30315,"lon":5.40446,"is_reserved":false,"is_disabled":true,"rental_uris":{"android":"levelo://app?vid=1a9fc9a9-b634-4678-af05-42c4ceaa73fa","ios":"levelo://app?vid=1a9fc9a9-b634-4678-af05-42c4ceaa73fa"},"vehicle_type_id":"4","last_reported":1746778434,"current_range_meters":12400,"station_id":"ce4bh012rcd13ifvqd10","pricing_plan_id":"cebpf4jnsgd1na2vs0mg"},{"bike_id":"8f9f14f5-32c0-4abb-83fb-b1e302581157","system_id":"levelo_inurba_marseille","lat":43.25929,"lon":5.40908,"is_reserved":false,"is_disabled":false,"rental_uris":{"android":"levelo://app?vid=8f9f14f5-32c0-4abb-83fb-b1e302581157","ios":"levelo://app?vid=8f9f14f5-32c0-4abb-83fb-b1e302581157"},"vehicle_type_id":"4","last_reported":1746778434,"current_range_meters":12800,"station_id":"ce4bhm92rcd13ifvqglg","pricing_plan_id":"cebpf4jnsgd1na2vs0mg"},{"bike_id":"f673a50d-776a-4d4f-8bc2-0f75017ffb52","system_id":"levelo_inurba_marseille","lat":43.284499,"lon":5.358347,"is_reserved":false,"is_disabled":false,"rental_uris":{"android":"levelo://app?vid=f673a50d-776a-4d4f-8bc2-0f75017ffb52","ios":"levelo://app?vid=f673a50d-776a-4d4f-8bc2-0f75017ffb52"},"vehicle_type_id":"4","last_reported":1746778434,"current_range_meters":12800,"station_id":"","pricing_plan_id":"cebpf4jnsgd1na2vs0mg"},{"bike_id":"9f5c2541-d2d5-4e18-9467-072453be38a2","system_id":"levelo_inurba_marseille","lat":43.231401,"lon":5.437234,"is_reserved":false,"is_disabled":false,"rental_uris":{"android":"levelo://app?vid=9f5c2541-d2d5-4e18-9467-072453be38a2","ios":"levelo://app?vid=9f5c2541-d2d5-4e18-9467-072453be38a2"},"vehicle_type_id":"4","last_reported":1746778434,"current_range_meters":12800,"station_id":"ce4bhmp2rcd13ifvqgog","pricing_plan_id":"cebpf4jnsgd1na2vs0mg"},{"bike_id":"59d36033-6cdf-4f1d-a353-aec62c333795","system_id":"levelo_inurba_marseille","lat":43.29622,"lon":5.37715,"is_reserved":false,"is_disabled":false,"rental_uris":{"android":"levelo://app?vid=59d36033-6cdf-4f1d-a353-aec62c333795","ios":"levelo://app?vid=59d36033-6cdf-4f1d-a353-aec62c333795"},"vehicle_type_id":"4","last_reported":1746778434,"current_range_meters":12800,"station_id":"ce4bgi92rcd13ifvqb90","pricing_plan_id":"cebpf4jnsgd1na2vs0mg"},{"bike_id":"967ffe2f-49e1-4c8b-bb3d-6490d050a67c","system_id":"levelo_inurba_marseille","lat":43.24387,"lon":5.37059,"is_reserved":false,"is_disabled":false,"rental_uris":{"android":"levelo://app?vid=967ffe2f-49e1-4c8b-bb3d-6490d050a67c","ios":"levelo://app?vid=967ffe2f-49e1-4c8b-bb3d-6490d050a67c"},"vehicle_type_id":"4","last_reported":1746778434,"current_range_meters":12800,"station_id":"ce4bhhh2rcd13ifvqfk0","pricing_plan_id":"cebpf4jnsgd1na2vs0mg"},{"bike_id":"8003133d-4f16-480b-a00f-f8b759ba4ae8","system_id":"levelo_inurba_marseille","lat":43.27572,"lon":5.38415,"is_reserved":false,"is_disabled":false,"rental_uris":{"android":"levelo://app?vid=8003133d-4f16-480b-a00f-f8b759ba4ae8","ios":"levelo://app?vid=8003133d-4f16-480b-a00f-f8b759ba4ae8"},"vehicle_type_id":"4","last_reported":1746778434,"current_range_meters":13600,"station_id":"ce4bhh92rcd13ifvqfi0","pricing_plan_id":"cebpf4jnsgd1na2vs0mg"},{"bike_id":"bae04861-c8ce-4c92-b634-2671cc6adfdd","system_id":"levelo_inurba_marseille","lat":43.29525,"lon":5.38542,"is_reserved":false,"is_disabled":false,"rental_uris":{"android":"levelo://app?vid=bae04861-c8ce-4c92-b634-2671cc6adfdd","ios":"levelo://app?vid=bae04861-c8ce-4c92-b634-2671cc6adfdd"},"vehicle_type_id":"4","last_reported":1746778434,"current_range_meters":13600,"station_id":"ce4bgih2rcd13ifvqba0","pricing_plan_id":"cebpf4jnsgd1na2vs0mg"},{"bike_id":"04808bcb-c53d-4821-884c-5c4939b43d05","system_id":"levelo_inurba_marseille","lat":43.26027,"lon":5.37546,"is_reserved":false,"is_disabled":false,"rental_uris":{"android":"levelo://app?vid=04808bcb-c53d-4821-884c-5c4939b43d05","ios":"levelo://app?vid=04808bcb-c53d-4821-884c-5c4939b43d05"},"vehicle_type_id":"4","last_reported":1746778434,"current_range_meters":13600,"station_id":"ce4bhgh2rcd13ifvqfa0","pricing_plan_id":"cebpf4jnsgd1na2vs0mg"},{"bike_id":"2e719a53-5bb7-4e06-8c27-2cf0eae6c9f7","system_id":"levelo_inurba_marseille","lat":43.29276,"lon":5.40222,"is_reserved":false,"is_disabled":false,"rental_uris":{"android":"levelo://app?vid=2e719a53-5bb7-4e06-8c27-2cf0eae6c9f7","ios":"levelo://app?vid=2e719a53-5bb7-4e06-8c27-2cf0eae6c9f7"},"vehicle_type_id":"4","last_reported":1746778434,"current_range_meters":13600,"station_id":"ce4bh312rcd13ifvqdk0","pricing_plan_id":"cebpf4jnsgd1na2vs0mg"},{"bike_id":"5b1117b6-2b38-4a7f-bdce-77a7a8c24844","system_id":"levelo_inurba_marseille","lat":43.3091,"lon":5.36847,"is_reserved":false,"is_disabled":false,"rental_uris":{"android":"levelo://app?vid=5b1117b6-2b38-4a7f-bdce-77a7a8c24844","ios":"levelo://app?vid=5b1117b6-2b38-4a7f-bdce-77a7a8c24844"},"vehicle_type_id":"4","last_reported":1746778434,"current_range_meters":13600,"station_id":"ce4bgn92rcd13ifvqbvg","pricing_plan_id":"cebpf4jnsgd1na2vs0mg"},{"bike_id":"526ac06a-cd77-4007-acca-7871d3084f3b","system_id":"levelo_inurba_marseille","lat":43.30557,"lon":5.36537,"is_reserved":false,"is_disabled":false,"rental_uris":{"android":"levelo://app?vid=526ac06a-cd77-4007-acca-7871d3084f3b","ios":"levelo://app?vid=526ac06a-cd77-4007-acca-7871d3084f3b"},"vehicle_type_id":"4","last_reported":1746778434,"current_range_meters":13600,"station_id":"ce4bgs12rcd13ifvqcag","pricing_plan_id":"cebpf4jnsgd1na2vs0mg"},{"bike_id":"a20a1240-7ac9-4476-9baa-68d9ee79a31b","system_id":"levelo_inurba_marseille","lat":43.32537,"lon":5.41467,"is_reserved":false,"is_disabled":false,"rental_uris":{"android":"levelo://app?vid=a20a1240-7ac9-4476-9baa-68d9ee79a31b","ios":"levelo://app?vid=a20a1240-7ac9-4476-9baa-68d9ee79a31b"},"vehicle_type_id":"4","last_reported":1746778434,"current_range_meters":14000,"station_id":"ce4bhq12rcd13ifvqhhg","pricing_plan_id":"cebpf4jnsgd1na2vs0mg"},{"bike_id":"af9f94e5-315e-4cb9-add5-039180487c31","system_id":"levelo_inurba_marseille","lat":43.25005,"lon":5.38922,"is_reserved":false,"is_disabled":false,"rental_uris":{"android":"levelo://app?vid=af9f94e5-315e-4cb9-add5-039180487c31","ios":"levelo://app?vid=af9f94e5-315e-4cb9-add5-039180487c31"},"vehicle_type_id":"4","last_reported":1746778434,"current_range_meters":14000,"station_id":"ce4bhgp2rcd13ifvqfd0","pricing_plan_id":"cebpf4jnsgd1na2vs0mg"},{"bike_id":"94b1c6a7-a958-417d-853f-1e7583bcb7f5","system_id":"levelo_inurba_marseille","lat":43.32379,"lon":5.36775,"is_reserved":false,"is_disabled":false,"rental_uris":{"android":"levelo://app?vid=94b1c6a7-a958-417d-853f-1e7583bcb7f5","ios":"levelo://app?vid=94b1c6a7-a958-417d-853f-1e7583bcb7f5"},"vehicle_type_id":"4","last_reported":1746778434,"current_range_meters":14000,"station_id":"ce4bhsh2rcd13ifvqi2g","pricing_plan_id":"cebpf4jnsgd1na2vs0mg"},{"bike_id":"77177599-3355-4653-a49c-4fb952f4c4c1","system_id":"levelo_inurba_marseille","lat":43.273285,"lon":5.361809,"is_reserved":false,"is_disabled":true,"rental_uris":{"android":"levelo://app?vid=77177599-3355-4653-a49c-4fb952f4c4c1","ios":"levelo://app?vid=77177599-3355-4653-a49c-4fb952f4c4c1"},"vehicle_type_id":"4","last_reported":1746778434,"current_range_meters":14400,"station_id":"","pricing_plan_id":"cebpf4jnsgd1na2vs0mg"},{"bike_id":"1f226b66-b0a5-43c2-b2c5-0563e6e9e107","system_id":"levelo_inurba_marseille","lat":43.27497,"lon":5.42463,"is_reserved":false,"is_disabled":false,"rental_uris":{"android":"levelo://app?vid=1f226b66-b0a5-43c2-b2c5-0563e6e9e107","ios":"levelo://app?vid=1f226b66-b0a5-43c2-b2c5-0563e6e9e107"},"vehicle_type_id":"4","last_reported":1746778434,"current_range_meters":14400,"station_id":"ce4bhn92rcd13ifvqgrg","pricing_plan_id":"cebpf4jnsgd1na2vs0mg"},{"bike_id":"4cf8304b-7511-474f-bbd9-de2102096951","system_id":"levelo_inurba_marseille","lat":43.2467,"lon":5.38151,"is_reserved":false,"is_disabled":false,"rental_uris":{"android":"levelo://app?vid=4cf8304b-7511-474f-bbd9-de2102096951","ios":"levelo://app?vid=4cf8304b-7511-474f-bbd9-de2102096951"},"vehicle_type_id":"4","last_reported":1746778434,"current_range_meters":14400,"station_id":"ce4bhih2rcd13ifvqfr0","pricing_plan_id":"cebpf4jnsgd1na2vs0mg"},{"bike_id":"7ef3e4f4-5d8a-45b2-8a3a-c031488f47d3","system_id":"levelo_inurba_marseille","lat":43.305563,"lon":5.367275,"is_reserved":false,"is_disabled":false,"rental_uris":{"android":"levelo://app?vid=7ef3e4f4-5d8a-45b2-8a3a-c031488f47d3","ios":"levelo://app?vid=7ef3e4f4-5d8a-45b2-8a3a-c031488f47d3"},"vehicle_type_id":"4","last_reported":1746778434,"current_range_meters":14000,"station_id":"ce4bgrp2rcd13ifvqc9g","pricing_plan_id":"cebpf4jnsgd1na2vs0mg"},{"bike_id":"e6282093-23fb-41a9-859d-c0d9ad966535","system_id":"levelo_inurba_marseille","lat":43.31545,"lon":5.3823,"is_reserved":false,"is_disabled":false,"rental_uris":{"android":"levelo://app?vid=e6282093-23fb-41a9-859d-c0d9ad966535","ios":"levelo://app?vid=e6282093-23fb-41a9-859d-c0d9ad966535"},"vehicle_type_id":"4","last_reported":1746778434,"current_range_meters":14800,"station_id":"","pricing_plan_id":"cebpf4jnsgd1na2vs0mg"},{"bike_id":"4fc2916e-fd8a-4057-add3-fd7205558b49","system_id":"levelo_inurba_marseille","lat":43.31461,"lon":5.39072,"is_reserved":false,"is_disabled":false,"rental_uris":{"android":"levelo://app?vid=4fc2916e-fd8a-4057-add3-fd7205558b49","ios":"levelo://app?vid=4fc2916e-fd8a-4057-add3-fd7205558b49"},"vehicle_type_id":"4","last_reported":1746778434,"current_range_meters":14800,"station_id":"","pricing_plan_id":"cebpf4jnsgd1na2vs0mg"},{"bike_id":"d70dc99d-c644-45b7-a0c7-159dac33bd4b","system_id":"levelo_inurba_marseille","lat":43.25001,"lon":5.38932,"is_reserved":false,"is_disabled":false,"rental_uris":{"android":"levelo://app?vid=d70dc99d-c644-45b7-a0c7-159dac33bd4b","ios":"levelo://app?vid=d70dc99d-c644-45b7-a0c7-159dac33bd4b"},"vehicle_type_id":"4","last_reported":1746778434,"current_range_meters":15200,"station_id":"ce4bhgp2rcd13ifvqfd0","pricing_plan_id":"cebpf4jnsgd1na2vs0mg"},{"bike_id":"59c9eee2-2711-40e5-ad57-f78d6a66b9e3","system_id":"levelo_inurba_marseille","lat":43.25914,"lon":5.40882,"is_reserved":false,"is_disabled":true,"rental_uris":{"android":"levelo://app?vid=59c9eee2-2711-40e5-ad57-f78d6a66b9e3","ios":"levelo://app?vid=59c9eee2-2711-40e5-ad57-f78d6a66b9e3"},"vehicle_type_id":"4","last_reported":1746778434,"current_range_meters":15200,"station_id":"ce4bhm92rcd13ifvqglg","pricing_plan_id":"cebpf4jnsgd1na2vs0mg"},{"bike_id":"d4e825d6-11df-4dfe-b9f6-1d81c835a98c","system_id":"levelo_inurba_marseille","lat":43.28747,"lon":5.3797,"is_reserved":false,"is_disabled":false,"rental_uris":{"android":"levelo://app?vid=d4e825d6-11df-4dfe-b9f6-1d81c835a98c","ios":"levelo://app?vid=d4e825d6-11df-4dfe-b9f6-1d81c835a98c"},"vehicle_type_id":"4","last_reported":1746778434,"current_range_meters":15200,"station_id":"ce4bh9p2rcd13ifvqec0","pricing_plan_id":"cebpf4jnsgd1na2vs0mg"},{"bike_id":"d5970055-d2ef-4bcf-8126-ad6d17b174af","system_id":"levelo_inurba_marseille","lat":43.29784,"lon":5.37098,"is_reserved":false,"is_disabled":false,"rental_uris":{"android":"levelo://app?vid=d5970055-d2ef-4bcf-8126-ad6d17b174af","ios":"levelo://app?vid=d5970055-d2ef-4bcf-8126-ad6d17b174af"},"vehicle_type_id":"4","last_reported":1746778434,"current_range_meters":14800,"station_id":"ce4bgop2rcd13ifvqc1g","pricing_plan_id":"cebpf4jnsgd1na2vs0mg"},{"bike_id":"1e122cb6-c6ae-4b5c-b493-07ff2a289a32","system_id":"levelo_inurba_marseille","lat":43.3134,"lon":5.3671,"is_reserved":false,"is_disabled":false,"rental_uris":{"android":"levelo://app?vid=1e122cb6-c6ae-4b5c-b493-07ff2a289a32","ios":"levelo://app?vid=1e122cb6-c6ae-4b5c-b493-07ff2a289a32"},"vehicle_type_id":"4","last_reported":1746778434,"current_range_meters":16000,"station_id":"ce4bgr92rcd13ifvqc6g","pricing_plan_id":"cebpf4jnsgd1na2vs0mg"},{"bike_id":"44355d28-d86b-44dd-a795-f92231357464","system_id":"levelo_inurba_marseille","lat":43.25941,"lon":5.408917,"is_reserved":false,"is_disabled":false,"rental_uris":{"android":"levelo://app?vid=44355d28-d86b-44dd-a795-f92231357464","ios":"levelo://app?vid=44355d28-d86b-44dd-a795-f92231357464"},"vehicle_type_id":"4","last_reported":1746778434,"current_range_meters":16000,"station_id":"ce4bhm92rcd13ifvqglg","pricing_plan_id":"cebpf4jnsgd1na2vs0mg"},{"bike_id":"eddc5826-cde2-4992-9127-8adddc5f6e68","system_id":"levelo_inurba_marseille","lat":43.30472,"lon":5.37923,"is_reserved":false,"is_disabled":false,"rental_uris":{"android":"levelo://app?vid=eddc5826-cde2-4992-9127-8adddc5f6e68","ios":"levelo://app?vid=eddc5826-cde2-4992-9127-8adddc5f6e68"},"vehicle_type_id":"4","last_reported":1746778434,"current_range_meters":16000,"station_id":"ce4bgup2rcd13ifvqcn0","pricing_plan_id":"cebpf4jnsgd1na2vs0mg"},{"bike_id":"fb870abf-1e21-4861-8114-9a001329b87c","system_id":"levelo_inurba_marseille","lat":43.2919,"lon":5.35804,"is_reserved":false,"is_disabled":false,"rental_uris":{"android":"levelo://app?vid=fb870abf-1e21-4861-8114-9a001329b87c","ios":"levelo://app?vid=fb870abf-1e21-4861-8114-9a001329b87c"},"vehicle_type_id":"4","last_reported":1746778434,"current_range_meters":16000,"station_id":"ce4bhb12rcd13ifvqel0","pricing_plan_id":"cebpf4jnsgd1na2vs0mg"},{"bike_id":"0ddbc89d-17e4-426d-8539-f3af2b22f6e9","system_id":"levelo_inurba_marseille","lat":43.27488,"lon":5.42473,"is_reserved":false,"is_disabled":false,"rental_uris":{"android":"levelo://app?vid=0ddbc89d-17e4-426d-8539-f3af2b22f6e9","ios":"levelo://app?vid=0ddbc89d-17e4-426d-8539-f3af2b22f6e9"},"vehicle_type_id":"4","last_reported":1746778434,"current_range_meters":16400,"station_id":"ce4bhn92rcd13ifvqgrg","pricing_plan_id":"cebpf4jnsgd1na2vs0mg"},{"bike_id":"0cb542d0-661d-4a86-904d-249f6866850a","system_id":"levelo_inurba_marseille","lat":43.257141,"lon":5.411168,"is_reserved":false,"is_disabled":false,"rental_uris":{"android":"levelo://app?vid=0cb542d0-661d-4a86-904d-249f6866850a","ios":"levelo://app?vid=0cb542d0-661d-4a86-904d-249f6866850a"},"vehicle_type_id":"4","last_reported":1746778434,"current_range_meters":16400,"station_id":"ce4bhkp2rcd13ifvqgd0","pricing_plan_id":"cebpf4jnsgd1na2vs0mg"},{"bike_id":"f969b97c-1c1a-4079-a8d8-16efa103018e","system_id":"levelo_inurba_marseille","lat":43.25928,"lon":5.40896,"is_reserved":false,"is_disabled":false,"rental_uris":{"android":"levelo://app?vid=f969b97c-1c1a-4079-a8d8-16efa103018e","ios":"levelo://app?vid=f969b97c-1c1a-4079-a8d8-16efa103018e"},"vehicle_type_id":"4","last_reported":1746778434,"current_range_meters":16400,"station_id":"ce4bhm92rcd13ifvqglg","pricing_plan_id":"cebpf4jnsgd1na2vs0mg"},{"bike_id":"0229c7d0-9718-4730-9db8-dc62ebffab4d","system_id":"levelo_inurba_marseille","lat":43.34146,"lon":5.40906,"is_reserved":false,"is_disabled":false,"rental_uris":{"android":"levelo://app?vid=0229c7d0-9718-4730-9db8-dc62ebffab4d","ios":"levelo://app?vid=0229c7d0-9718-4730-9db8-dc62ebffab4d"},"vehicle_type_id":"4","last_reported":1746778434,"current_range_meters":16400,"station_id":"ce4bhqh2rcd13ifvqhlg","pricing_plan_id":"cebpf4jnsgd1na2vs0mg"},{"bike_id":"d6ce0483-fd59-4913-a976-cbba24f93aeb","system_id":"levelo_inurba_marseille","lat":43.30319,"lon":5.36882,"is_reserved":false,"is_disabled":false,"rental_uris":{"android":"levelo://app?vid=d6ce0483-fd59-4913-a976-cbba24f93aeb","ios":"levelo://app?vid=d6ce0483-fd59-4913-a976-cbba24f93aeb"},"vehicle_type_id":"4","last_reported":1746778434,"current_range_meters":16400,"station_id":"ce4bgqh2rcd13ifvqc5g","pricing_plan_id":"cebpf4jnsgd1na2vs0mg"},{"bike_id":"17b0c5dd-3640-4569-b805-64afdc99ee11","system_id":"levelo_inurba_marseille","lat":43.24179,"lon":5.39731,"is_reserved":false,"is_disabled":false,"rental_uris":{"android":"levelo://app?vid=17b0c5dd-3640-4569-b805-64afdc99ee11","ios":"levelo://app?vid=17b0c5dd-3640-4569-b805-64afdc99ee11"},"vehicle_type_id":"4","last_reported":1746778434,"current_range_meters":16400,"station_id":"ce4bhn12rcd13ifvqgpg","pricing_plan_id":"cebpf4jnsgd1na2vs0mg"},{"bike_id":"f67736aa-fe78-43b4-88f3-cb130731b90b","system_id":"levelo_inurba_marseille","lat":43.33605,"lon":5.41041,"is_reserved":false,"is_disabled":false,"rental_uris":{"android":"levelo://app?vid=f67736aa-fe78-43b4-88f3-cb130731b90b","ios":"levelo://app?vid=f67736aa-fe78-43b4-88f3-cb130731b90b"},"vehicle_type_id":"4","last_reported":1746778434,"current_range_meters":16400,"station_id":"ce4bhqh2rcd13ifvqhmg","pricing_plan_id":"cebpf4jnsgd1na2vs0mg"},{"bike_id":"973a3c2c-3332-446b-8303-2d441c5d81c4","system_id":"levelo_inurba_marseille","lat":43.29624,"lon":5.37717,"is_reserved":false,"is_disabled":false,"rental_uris":{"android":"levelo://app?vid=973a3c2c-3332-446b-8303-2d441c5d81c4","ios":"levelo://app?vid=973a3c2c-3332-446b-8303-2d441c5d81c4"},"vehicle_type_id":"4","last_reported":1746778434,"current_range_meters":16400,"station_id":"ce4bgi92rcd13ifvqb90","pricing_plan_id":"cebpf4jnsgd1na2vs0mg"},{"bike_id":"e2d03b13-e7c8-4ba5-85fd-5f0f76b4a7d5","system_id":"levelo_inurba_marseille","lat":43.27322,"lon":5.39089,"is_reserved":false,"is_disabled":false,"rental_uris":{"android":"levelo://app?vid=e2d03b13-e7c8-4ba5-85fd-5f0f76b4a7d5","ios":"levelo://app?vid=e2d03b13-e7c8-4ba5-85fd-5f0f76b4a7d5"},"vehicle_type_id":"4","last_reported":1746778434,"current_range_meters":16800,"station_id":"ce4bhgp2rcd13ifvqfe0","pricing_plan_id":"cebpf4jnsgd1na2vs0mg"},{"bike_id":"4d3aa97e-d4d6-4149-8e42-3111423f42c3","system_id":"levelo_inurba_marseille","lat":43.28943,"lon":5.36637,"is_reserved":false,"is_disabled":false,"rental_uris":{"android":"levelo://app?vid=4d3aa97e-d4d6-4149-8e42-3111423f42c3","ios":"levelo://app?vid=4d3aa97e-d4d6-4149-8e42-3111423f42c3"},"vehicle_type_id":"4","last_reported":1746778434,"current_range_meters":16800,"station_id":"ce4bhap2rcd13ifvqek0","pricing_plan_id":"cebpf4jnsgd1na2vs0mg"},{"bike_id":"d1f95632-6d5e-406f-a729-dddd76eef8cc","system_id":"levelo_inurba_marseille","lat":43.27514,"lon":5.4251,"is_reserved":false,"is_disabled":false,"rental_uris":{"android":"levelo://app?vid=d1f95632-6d5e-406f-a729-dddd76eef8cc","ios":"levelo://app?vid=d1f95632-6d5e-406f-a729-dddd76eef8cc"},"vehicle_type_id":"4","last_reported":1746778434,"current_range_meters":16800,"station_id":"ce4bhn92rcd13ifvqgrg","pricing_plan_id":"cebpf4jnsgd1na2vs0mg"},{"bike_id":"0d7db551-b064-4c6d-a08e-11e38caeab54","system_id":"levelo_inurba_marseille","lat":43.312228,"lon":5.368658,"is_reserved":false,"is_disabled":true,"rental_uris":{"android":"levelo://app?vid=0d7db551-b064-4c6d-a08e-11e38caeab54","ios":"levelo://app?vid=0d7db551-b064-4c6d-a08e-11e38caeab54"},"vehicle_type_id":"4","last_reported":1746778434,"current_range_meters":16800,"station_id":"ce4bgl92rcd13ifvqbq0","pricing_plan_id":"cebpf4jnsgd1na2vs0mg"},{"bike_id":"d5ae9987-3c36-4197-a244-adc74140878e","system_id":"levelo_inurba_marseille","lat":43.31344,"lon":5.36726,"is_reserved":false,"is_disabled":false,"rental_uris":{"android":"levelo://app?vid=d5ae9987-3c36-4197-a244-adc74140878e","ios":"levelo://app?vid=d5ae9987-3c36-4197-a244-adc74140878e"},"vehicle_type_id":"4","last_reported":1746778434,"current_range_meters":17200,"station_id":"ce4bgr92rcd13ifvqc6g","pricing_plan_id":"cebpf4jnsgd1na2vs0mg"},{"bike_id":"141d9b9b-2794-4d23-9699-f30e3d3102b2","system_id":"levelo_inurba_marseille","lat":43.29708,"lon":5.37699,"is_reserved":false,"is_disabled":false,"rental_uris":{"android":"levelo://app?vid=141d9b9b-2794-4d23-9699-f30e3d3102b2","ios":"levelo://app?vid=141d9b9b-2794-4d23-9699-f30e3d3102b2"},"vehicle_type_id":"4","last_reported":1746778434,"current_range_meters":17200,"station_id":"ce4bgkh2rcd13ifvqbl0","pricing_plan_id":"cebpf4jnsgd1na2vs0mg"},{"bike_id":"39005936-d671-4d0a-9547-d8fb0f8d498d","system_id":"levelo_inurba_marseille","lat":43.336023,"lon":5.410033,"is_reserved":false,"is_disabled":false,"rental_uris":{"android":"levelo://app?vid=39005936-d671-4d0a-9547-d8fb0f8d498d","ios":"levelo://app?vid=39005936-d671-4d0a-9547-d8fb0f8d498d"},"vehicle_type_id":"4","last_reported":1746778434,"current_range_meters":17200,"station_id":"ce4bhqh2rcd13ifvqhmg","pricing_plan_id":"cebpf4jnsgd1na2vs0mg"},{"bike_id":"abfab5a1-f29f-49fc-9757-11916345b2ec","system_id":"levelo_inurba_marseille","lat":43.3054,"lon":5.36698,"is_reserved":false,"is_disabled":false,"rental_uris":{"android":"levelo://app?vid=abfab5a1-f29f-49fc-9757-11916345b2ec","ios":"levelo://app?vid=abfab5a1-f29f-49fc-9757-11916345b2ec"},"vehicle_type_id":"4","last_reported":1746778434,"current_range_meters":17200,"station_id":"ce4bgrp2rcd13ifvqc9g","pricing_plan_id":"cebpf4jnsgd1na2vs0mg"},{"bike_id":"228878a1-ba10-4a9d-8bd6-a2d0e5e4d6b0","system_id":"levelo_inurba_marseille","lat":43.279083,"lon":5.380071,"is_reserved":false,"is_disabled":false,"rental_uris":{"android":"levelo://app?vid=228878a1-ba10-4a9d-8bd6-a2d0e5e4d6b0","ios":"levelo://app?vid=228878a1-ba10-4a9d-8bd6-a2d0e5e4d6b0"},"vehicle_type_id":"4","last_reported":1746778434,"current_range_meters":17200,"station_id":"","pricing_plan_id":"cebpf4jnsgd1na2vs0mg"},{"bike_id":"577b6fa1-01aa-4b90-beb1-386dce7ef354","system_id":"levelo_inurba_marseille","lat":43.25912,"lon":5.40894,"is_reserved":false,"is_disabled":false,"rental_uris":{"android":"levelo://app?vid=577b6fa1-01aa-4b90-beb1-386dce7ef354","ios":"levelo://app?vid=577b6fa1-01aa-4b90-beb1-386dce7ef354"},"vehicle_type_id":"4","last_reported":1746778434,"current_range_meters":17200,"station_id":"ce4bhm92rcd13ifvqglg","pricing_plan_id":"cebpf4jnsgd1na2vs0mg"},{"bike_id":"17c53b35-a2f1-475d-b28d-2c3ab96850e4","system_id":"levelo_inurba_marseille","lat":43.25925,"lon":5.40907,"is_reserved":false,"is_disabled":false,"rental_uris":{"android":"levelo://app?vid=17c53b35-a2f1-475d-b28d-2c3ab96850e4","ios":"levelo://app?vid=17c53b35-a2f1-475d-b28d-2c3ab96850e4"},"vehicle_type_id":"4","last_reported":1746778434,"current_range_meters":17200,"station_id":"ce4bhm92rcd13ifvqglg","pricing_plan_id":"cebpf4jnsgd1na2vs0mg"},{"bike_id":"11ab274a-de30-4816-a220-cf9d3a02b6df","system_id":"levelo_inurba_marseille","lat":43.24059,"lon":5.37775,"is_reserved":false,"is_disabled":false,"rental_uris":{"android":"levelo://app?vid=11ab274a-de30-4816-a220-cf9d3a02b6df","ios":"levelo://app?vid=11ab274a-de30-4816-a220-cf9d3a02b6df"},"vehicle_type_id":"4","last_reported":1746778434,"current_range_meters":17600,"station_id":"","pricing_plan_id":"cebpf4jnsgd1na2vs0mg"},{"bike_id":"c1041c9f-2085-470a-b13c-f88fd8323115","system_id":"levelo_inurba_marseille","lat":43.277496,"lon":5.387282,"is_reserved":false,"is_disabled":false,"rental_uris":{"android":"levelo://app?vid=c1041c9f-2085-470a-b13c-f88fd8323115","ios":"levelo://app?vid=c1041c9f-2085-470a-b13c-f88fd8323115"},"vehicle_type_id":"4","last_reported":1746778434,"current_range_meters":17600,"station_id":"","pricing_plan_id":"cebpf4jnsgd1na2vs0mg"},{"bike_id":"0bdcdff3-8294-49b9-80e9-145bbc1ad711","system_id":"levelo_inurba_marseille","lat":43.32243,"lon":5.3675,"is_reserved":false,"is_disabled":false,"rental_uris":{"android":"levelo://app?vid=0bdcdff3-8294-49b9-80e9-145bbc1ad711","ios":"levelo://app?vid=0bdcdff3-8294-49b9-80e9-145bbc1ad711"},"vehicle_type_id":"4","last_reported":1746778434,"current_range_meters":17600,"station_id":"","pricing_plan_id":"cebpf4jnsgd1na2vs0mg"},{"bike_id":"cab1b045-1b71-4995-a4e7-9b9f5612304c","system_id":"levelo_inurba_marseille","lat":43.295077,"lon":5.375091,"is_reserved":false,"is_disabled":false,"rental_uris":{"android":"levelo://app?vid=cab1b045-1b71-4995-a4e7-9b9f5612304c","ios":"levelo://app?vid=cab1b045-1b71-4995-a4e7-9b9f5612304c"},"vehicle_type_id":"4","last_reported":1746778434,"current_range_meters":17600,"station_id":"ce4bgkp2rcd13ifvqbmg","pricing_plan_id":"cebpf4jnsgd1na2vs0mg"},{"bike_id":"14f68caa-6d4f-4584-abdf-1143d9baf33f","system_id":"levelo_inurba_marseille","lat":43.27527,"lon":5.42509,"is_reserved":false,"is_disabled":false,"rental_uris":{"android":"levelo://app?vid=14f68caa-6d4f-4584-abdf-1143d9baf33f","ios":"levelo://app?vid=14f68caa-6d4f-4584-abdf-1143d9baf33f"},"vehicle_type_id":"4","last_reported":1746778434,"current_range_meters":18000,"station_id":"","pricing_plan_id":"cebpf4jnsgd1na2vs0mg"},{"bike_id":"9b374d75-cee5-4ae7-acc5-d2e3eb3b42f6","system_id":"levelo_inurba_marseille","lat":43.29577,"lon":5.36744,"is_reserved":false,"is_disabled":false,"rental_uris":{"android":"levelo://app?vid=9b374d75-cee5-4ae7-acc5-d2e3eb3b42f6","ios":"levelo://app?vid=9b374d75-cee5-4ae7-acc5-d2e3eb3b42f6"},"vehicle_type_id":"4","last_reported":1746778434,"current_range_meters":18000,"station_id":"ce4bgph2rcd13ifvqc2g","pricing_plan_id":"cebpf4jnsgd1na2vs0mg"},{"bike_id":"2930bb53-ed05-4d99-9b1d-fe00bb0c34f3","system_id":"levelo_inurba_marseille","lat":43.26972,"lon":5.39312,"is_reserved":false,"is_disabled":true,"rental_uris":{"android":"levelo://app?vid=2930bb53-ed05-4d99-9b1d-fe00bb0c34f3","ios":"levelo://app?vid=2930bb53-ed05-4d99-9b1d-fe00bb0c34f3"},"vehicle_type_id":"4","last_reported":1746778434,"current_range_meters":18000,"station_id":"","pricing_plan_id":"cebpf4jnsgd1na2vs0mg"},{"bike_id":"18fc0d34-3175-4e98-afa4-91a308790560","system_id":"levelo_inurba_marseille","lat":43.266811,"lon":5.402758,"is_reserved":false,"is_disabled":true,"rental_uris":{"android":"levelo://app?vid=18fc0d34-3175-4e98-afa4-91a308790560","ios":"levelo://app?vid=18fc0d34-3175-4e98-afa4-91a308790560"},"vehicle_type_id":"4","last_reported":1746778434,"current_range_meters":18000,"station_id":"","pricing_plan_id":"cebpf4jnsgd1na2vs0mg"},{"bike_id":"db1d5f79-a0ff-42df-aeb5-73a9037e3c59","system_id":"levelo_inurba_marseille","lat":43.30563,"lon":5.36543,"is_reserved":false,"is_disabled":false,"rental_uris":{"android":"levelo://app?vid=db1d5f79-a0ff-42df-aeb5-73a9037e3c59","ios":"levelo://app?vid=db1d5f79-a0ff-42df-aeb5-73a9037e3c59"},"vehicle_type_id":"4","last_reported":1746778434,"current_range_meters":18000,"station_id":"ce4bgs12rcd13ifvqcag","pricing_plan_id":"cebpf4jnsgd1na2vs0mg"},{"bike_id":"f462a049-18fd-4541-8391-1f91f453fda8","system_id":"levelo_inurba_marseille","lat":43.3054,"lon":5.36546,"is_reserved":false,"is_disabled":false,"rental_uris":{"android":"levelo://app?vid=f462a049-18fd-4541-8391-1f91f453fda8","ios":"levelo://app?vid=f462a049-18fd-4541-8391-1f91f453fda8"},"vehicle_type_id":"4","last_reported":1746778434,"current_range_meters":18000,"station_id":"ce4bgs12rcd13ifvqcag","pricing_plan_id":"cebpf4jnsgd1na2vs0mg"},{"bike_id":"af07f2ba-567d-41f6-80a1-9b5cec286faf","system_id":"levelo_inurba_marseille","lat":43.22929,"lon":5.35401,"is_reserved":false,"is_disabled":false,"rental_uris":{"android":"levelo://app?vid=af07f2ba-567d-41f6-80a1-9b5cec286faf","ios":"levelo://app?vid=af07f2ba-567d-41f6-80a1-9b5cec286faf"},"vehicle_type_id":"4","last_reported":1746778434,"current_range_meters":18000,"station_id":"cpo3532slgdg3j2ikp40","pricing_plan_id":"cebpf4jnsgd1na2vs0mg"},{"bike_id":"d6ed56b0-9658-474f-a475-c41157be3376","system_id":"levelo_inurba_marseille","lat":43.24389,"lon":5.37065,"is_reserved":false,"is_disabled":false,"rental_uris":{"android":"levelo://app?vid=d6ed56b0-9658-474f-a475-c41157be3376","ios":"levelo://app?vid=d6ed56b0-9658-474f-a475-c41157be3376"},"vehicle_type_id":"4","last_reported":1746778434,"current_range_meters":18800,"station_id":"ce4bhhh2rcd13ifvqfk0","pricing_plan_id":"cebpf4jnsgd1na2vs0mg"},{"bike_id":"5ee48014-6b7e-42ac-8555-9310c89dd9ae","system_id":"levelo_inurba_marseille","lat":43.265694,"lon":5.39009,"is_reserved":false,"is_disabled":false,"rental_uris":{"android":"levelo://app?vid=5ee48014-6b7e-42ac-8555-9310c89dd9ae","ios":"levelo://app?vid=5ee48014-6b7e-42ac-8555-9310c89dd9ae"},"vehicle_type_id":"4","last_reported":1746778434,"current_range_meters":18800,"station_id":"ce4bhe12rcd13ifvqf30","pricing_plan_id":"cebpf4jnsgd1na2vs0mg"},{"bike_id":"f7b9c69a-680b-452c-80fd-336a0ac82133","system_id":"levelo_inurba_marseille","lat":43.27494,"lon":5.42452,"is_reserved":false,"is_disabled":false,"rental_uris":{"android":"levelo://app?vid=f7b9c69a-680b-452c-80fd-336a0ac82133","ios":"levelo://app?vid=f7b9c69a-680b-452c-80fd-336a0ac82133"},"vehicle_type_id":"4","last_reported":1746778434,"current_range_meters":18800,"station_id":"ce4bhn92rcd13ifvqgrg","pricing_plan_id":"cebpf4jnsgd1na2vs0mg"},{"bike_id":"14627cc4-f356-4135-9618-f7b7e9a0230f","system_id":"levelo_inurba_marseille","lat":43.27503,"lon":5.4247,"is_reserved":false,"is_disabled":false,"rental_uris":{"android":"levelo://app?vid=14627cc4-f356-4135-9618-f7b7e9a0230f","ios":"levelo://app?vid=14627cc4-f356-4135-9618-f7b7e9a0230f"},"vehicle_type_id":"4","last_reported":1746778434,"current_range_meters":18800,"station_id":"ce4bhn92rcd13ifvqgrg","pricing_plan_id":"cebpf4jnsgd1na2vs0mg"},{"bike_id":"ffb97e98-b63f-4c42-9b50-5f510ebcee9b","system_id":"levelo_inurba_marseille","lat":43.27494,"lon":5.42458,"is_reserved":false,"is_disabled":false,"rental_uris":{"android":"levelo://app?vid=ffb97e98-b63f-4c42-9b50-5f510ebcee9b","ios":"levelo://app?vid=ffb97e98-b63f-4c42-9b50-5f510ebcee9b"},"vehicle_type_id":"4","last_reported":1746778434,"current_range_meters":19200,"station_id":"ce4bhn92rcd13ifvqgrg","pricing_plan_id":"cebpf4jnsgd1na2vs0mg"},{"bike_id":"6ceb6631-6680-482f-b030-d55a9f30f9d3","system_id":"levelo_inurba_marseille","lat":43.23966,"lon":5.36626,"is_reserved":false,"is_disabled":false,"rental_uris":{"android":"levelo://app?vid=6ceb6631-6680-482f-b030-d55a9f30f9d3","ios":"levelo://app?vid=6ceb6631-6680-482f-b030-d55a9f30f9d3"},"vehicle_type_id":"4","last_reported":1746778434,"current_range_meters":18800,"station_id":"ce4bhi12rcd13ifvqfp0","pricing_plan_id":"cebpf4jnsgd1na2vs0mg"},{"bike_id":"c65732d7-d6e4-4134-b90d-85c2276db215","system_id":"levelo_inurba_marseille","lat":43.25914,"lon":5.40884,"is_reserved":false,"is_disabled":false,"rental_uris":{"android":"levelo://app?vid=c65732d7-d6e4-4134-b90d-85c2276db215","ios":"levelo://app?vid=c65732d7-d6e4-4134-b90d-85c2276db215"},"vehicle_type_id":"4","last_reported":1746778434,"current_range_meters":19200,"station_id":"ce4bhm92rcd13ifvqglg","pricing_plan_id":"cebpf4jnsgd1na2vs0mg"},{"bike_id":"3e7c6aae-b2bc-4dc1-ae18-e8b01d55045f","system_id":"levelo_inurba_marseille","lat":43.24624,"lon":5.4364,"is_reserved":false,"is_disabled":false,"rental_uris":{"android":"levelo://app?vid=3e7c6aae-b2bc-4dc1-ae18-e8b01d55045f","ios":"levelo://app?vid=3e7c6aae-b2bc-4dc1-ae18-e8b01d55045f"},"vehicle_type_id":"4","last_reported":1746778434,"current_range_meters":19200,"station_id":"","pricing_plan_id":"cebpf4jnsgd1na2vs0mg"},{"bike_id":"881c097a-b180-44f5-9d6b-1f54f714978b","system_id":"levelo_inurba_marseille","lat":43.270706,"lon":5.422813,"is_reserved":false,"is_disabled":false,"rental_uris":{"android":"levelo://app?vid=881c097a-b180-44f5-9d6b-1f54f714978b","ios":"levelo://app?vid=881c097a-b180-44f5-9d6b-1f54f714978b"},"vehicle_type_id":"4","last_reported":1746778434,"current_range_meters":19200,"station_id":"ce4bhk92rcd13ifvqgb0","pricing_plan_id":"cebpf4jnsgd1na2vs0mg"},{"bike_id":"68ff0b32-b239-4e37-bac2-9fe4ad3fb1f1","system_id":"levelo_inurba_marseille","lat":43.29805,"lon":5.40407,"is_reserved":false,"is_disabled":false,"rental_uris":{"android":"levelo://app?vid=68ff0b32-b239-4e37-bac2-9fe4ad3fb1f1","ios":"levelo://app?vid=68ff0b32-b239-4e37-bac2-9fe4ad3fb1f1"},"vehicle_type_id":"4","last_reported":1746778434,"current_range_meters":18800,"station_id":"ce4bh112rcd13ifvqd90","pricing_plan_id":"cebpf4jnsgd1na2vs0mg"},{"bike_id":"e7ab3214-9b98-46a3-ab6d-a41455180b41","system_id":"levelo_inurba_marseille","lat":43.29598,"lon":5.38095,"is_reserved":false,"is_disabled":false,"rental_uris":{"android":"levelo://app?vid=e7ab3214-9b98-46a3-ab6d-a41455180b41","ios":"levelo://app?vid=e7ab3214-9b98-46a3-ab6d-a41455180b41"},"vehicle_type_id":"4","last_reported":1746778434,"current_range_meters":19200,"station_id":"ce4bgl12rcd13ifvqbo0","pricing_plan_id":"cebpf4jnsgd1na2vs0mg"},{"bike_id":"30079894-8fe5-473d-b105-d26f7dba9640","system_id":"levelo_inurba_marseille","lat":43.30422,"lon":5.39767,"is_reserved":false,"is_disabled":false,"rental_uris":{"android":"levelo://app?vid=30079894-8fe5-473d-b105-d26f7dba9640","ios":"levelo://app?vid=30079894-8fe5-473d-b105-d26f7dba9640"},"vehicle_type_id":"4","last_reported":1746778434,"current_range_meters":19200,"station_id":"ce4bh092rcd13ifvqd20","pricing_plan_id":"cebpf4jnsgd1na2vs0mg"},{"bike_id":"d6bf163f-2c1b-43af-95fa-ffa8699a8a27","system_id":"levelo_inurba_marseille","lat":43.291643,"lon":5.371567,"is_reserved":false,"is_disabled":false,"rental_uris":{"android":"levelo://app?vid=d6bf163f-2c1b-43af-95fa-ffa8699a8a27","ios":"levelo://app?vid=d6bf163f-2c1b-43af-95fa-ffa8699a8a27"},"vehicle_type_id":"4","last_reported":1746778434,"current_range_meters":19600,"station_id":"ce4bha92rcd13ifvqeh0","pricing_plan_id":"cebpf4jnsgd1na2vs0mg"},{"bike_id":"2b695556-5fdc-4725-a789-9b7b81b7a3a6","system_id":"levelo_inurba_marseille","lat":43.32349,"lon":5.36698,"is_reserved":false,"is_disabled":false,"rental_uris":{"android":"levelo://app?vid=2b695556-5fdc-4725-a789-9b7b81b7a3a6","ios":"levelo://app?vid=2b695556-5fdc-4725-a789-9b7b81b7a3a6"},"vehicle_type_id":"4","last_reported":1746778434,"current_range_meters":19600,"station_id":"ce4bhsh2rcd13ifvqi2g","pricing_plan_id":"cebpf4jnsgd1na2vs0mg"},{"bike_id":"0a1a2cf6-8ec4-4374-a505-7537295ab120","system_id":"levelo_inurba_marseille","lat":43.336,"lon":5.4103,"is_reserved":false,"is_disabled":false,"rental_uris":{"android":"levelo://app?vid=0a1a2cf6-8ec4-4374-a505-7537295ab120","ios":"levelo://app?vid=0a1a2cf6-8ec4-4374-a505-7537295ab120"},"vehicle_type_id":"4","last_reported":1746778434,"current_range_meters":19600,"station_id":"ce4bhqh2rcd13ifvqhmg","pricing_plan_id":"cebpf4jnsgd1na2vs0mg"},{"bike_id":"208ad0fc-96b6-4bf9-9a52-bbe05c1180a6","system_id":"levelo_inurba_marseille","lat":43.295746,"lon":5.367377,"is_reserved":false,"is_disabled":false,"rental_uris":{"android":"levelo://app?vid=208ad0fc-96b6-4bf9-9a52-bbe05c1180a6","ios":"levelo://app?vid=208ad0fc-96b6-4bf9-9a52-bbe05c1180a6"},"vehicle_type_id":"4","last_reported":1746778434,"current_range_meters":19600,"station_id":"ce4bgph2rcd13ifvqc2g","pricing_plan_id":"cebpf4jnsgd1na2vs0mg"},{"bike_id":"cbe0861f-f675-4f30-9b5e-20ccfbf6d715","system_id":"levelo_inurba_marseille","lat":43.29295,"lon":5.37465,"is_reserved":false,"is_disabled":false,"rental_uris":{"android":"levelo://app?vid=cbe0861f-f675-4f30-9b5e-20ccfbf6d715","ios":"levelo://app?vid=cbe0861f-f675-4f30-9b5e-20ccfbf6d715"},"vehicle_type_id":"4","last_reported":1746778434,"current_range_meters":19600,"station_id":"ce4bgi12rcd13ifvqb70","pricing_plan_id":"cebpf4jnsgd1na2vs0mg"},{"bike_id":"aa87049f-0c02-4c84-8b67-99ac7c7be172","system_id":"levelo_inurba_marseille","lat":43.31222,"lon":5.36866,"is_reserved":false,"is_disabled":false,"rental_uris":{"android":"levelo://app?vid=aa87049f-0c02-4c84-8b67-99ac7c7be172","ios":"levelo://app?vid=aa87049f-0c02-4c84-8b67-99ac7c7be172"},"vehicle_type_id":"4","last_reported":1746778434,"current_range_meters":19600,"station_id":"ce4bgl92rcd13ifvqbq0","pricing_plan_id":"cebpf4jnsgd1na2vs0mg"},{"bike_id":"fc2577e7-1497-425b-9d4f-ab8d7dc843c6","system_id":"levelo_inurba_marseille","lat":43.33771,"lon":5.37485,"is_reserved":false,"is_disabled":false,"rental_uris":{"android":"levelo://app?vid=fc2577e7-1497-425b-9d4f-ab8d7dc843c6","ios":"levelo://app?vid=fc2577e7-1497-425b-9d4f-ab8d7dc843c6"},"vehicle_type_id":"4","last_reported":1746778434,"current_range_meters":20000,"station_id":"","pricing_plan_id":"cebpf4jnsgd1na2vs0mg"},{"bike_id":"fa1b1f66-7519-42e8-92aa-be43cf3d9e34","system_id":"levelo_inurba_marseille","lat":43.22503,"lon":5.34783,"is_reserved":false,"is_disabled":false,"rental_uris":{"android":"levelo://app?vid=fa1b1f66-7519-42e8-92aa-be43cf3d9e34","ios":"levelo://app?vid=fa1b1f66-7519-42e8-92aa-be43cf3d9e34"},"vehicle_type_id":"4","last_reported":1746778434,"current_range_meters":20000,"station_id":"st_cvj5dfep6f1abm77gieg","pricing_plan_id":"cebpf4jnsgd1na2vs0mg"},{"bike_id":"e64e4e06-f269-433e-87ca-aea76ac00151","system_id":"levelo_inurba_marseille","lat":43.30945,"lon":5.3903,"is_reserved":false,"is_disabled":false,"rental_uris":{"android":"levelo://app?vid=e64e4e06-f269-433e-87ca-aea76ac00151","ios":"levelo://app?vid=e64e4e06-f269-433e-87ca-aea76ac00151"},"vehicle_type_id":"4","last_reported":1746778434,"current_range_meters":20000,"station_id":"ce4bgup2rcd13ifvqco0","pricing_plan_id":"cebpf4jnsgd1na2vs0mg"},{"bike_id":"16532f2a-dea3-4e07-8e8e-438ea46d5ce0","system_id":"levelo_inurba_marseille","lat":43.30091,"lon":5.39083,"is_reserved":false,"is_disabled":false,"rental_uris":{"android":"levelo://app?vid=16532f2a-dea3-4e07-8e8e-438ea46d5ce0","ios":"levelo://app?vid=16532f2a-dea3-4e07-8e8e-438ea46d5ce0"},"vehicle_type_id":"4","last_reported":1746778434,"current_range_meters":19600,"station_id":"ce4bh192rcd13ifvqdb0","pricing_plan_id":"cebpf4jnsgd1na2vs0mg"},{"bike_id":"545e5687-b7df-4883-81be-75a8925d5f91","system_id":"levelo_inurba_marseille","lat":43.337444,"lon":5.374475,"is_reserved":false,"is_disabled":false,"rental_uris":{"android":"levelo://app?vid=545e5687-b7df-4883-81be-75a8925d5f91","ios":"levelo://app?vid=545e5687-b7df-4883-81be-75a8925d5f91"},"vehicle_type_id":"4","last_reported":1746778434,"current_range_meters":20000,"station_id":"","pricing_plan_id":"cebpf4jnsgd1na2vs0mg"},{"bike_id":"14a797cf-ea4e-42b7-bf27-df5932f06c80","system_id":"levelo_inurba_marseille","lat":43.30879,"lon":5.37193,"is_reserved":false,"is_disabled":false,"rental_uris":{"android":"levelo://app?vid=14a797cf-ea4e-42b7-bf27-df5932f06c80","ios":"levelo://app?vid=14a797cf-ea4e-42b7-bf27-df5932f06c80"},"vehicle_type_id":"4","last_reported":1746778434,"current_range_meters":20400,"station_id":"ce4bguh2rcd13ifvqckg","pricing_plan_id":"cebpf4jnsgd1na2vs0mg"},{"bike_id":"d50b3231-62ee-409a-84ed-694a06009124","system_id":"levelo_inurba_marseille","lat":43.24067,"lon":5.3777,"is_reserved":false,"is_disabled":false,"rental_uris":{"android":"levelo://app?vid=d50b3231-62ee-409a-84ed-694a06009124","ios":"levelo://app?vid=d50b3231-62ee-409a-84ed-694a06009124"},"vehicle_type_id":"4","last_reported":1746778434,"current_range_meters":20400,"station_id":"ce4bhnp2rcd13ifvqgvg","pricing_plan_id":"cebpf4jnsgd1na2vs0mg"},{"bike_id":"71183283-3bcc-4180-b177-8a29d0881eb1","system_id":"levelo_inurba_marseille","lat":43.30542,"lon":5.36712,"is_reserved":false,"is_disabled":false,"rental_uris":{"android":"levelo://app?vid=71183283-3bcc-4180-b177-8a29d0881eb1","ios":"levelo://app?vid=71183283-3bcc-4180-b177-8a29d0881eb1"},"vehicle_type_id":"4","last_reported":1746778434,"current_range_meters":20400,"station_id":"ce4bgrp2rcd13ifvqc9g","pricing_plan_id":"cebpf4jnsgd1na2vs0mg"},{"bike_id":"00cb7a36-e0f1-420f-80b3-12737343ef73","system_id":"levelo_inurba_marseille","lat":43.30887,"lon":5.39655,"is_reserved":false,"is_disabled":false,"rental_uris":{"android":"levelo://app?vid=00cb7a36-e0f1-420f-80b3-12737343ef73","ios":"levelo://app?vid=00cb7a36-e0f1-420f-80b3-12737343ef73"},"vehicle_type_id":"4","last_reported":1746778434,"current_range_meters":20000,"station_id":"ce4bh012rcd13ifvqcv0","pricing_plan_id":"cebpf4jnsgd1na2vs0mg"},{"bike_id":"95dc5ac3-f9a8-4e4d-a9ba-a15ab0bdde00","system_id":"levelo_inurba_marseille","lat":43.24064,"lon":5.37761,"is_reserved":false,"is_disabled":false,"rental_uris":{"android":"levelo://app?vid=95dc5ac3-f9a8-4e4d-a9ba-a15ab0bdde00","ios":"levelo://app?vid=95dc5ac3-f9a8-4e4d-a9ba-a15ab0bdde00"},"vehicle_type_id":"4","last_reported":1746778434,"current_range_meters":20400,"station_id":"ce4bhnp2rcd13ifvqgvg","pricing_plan_id":"cebpf4jnsgd1na2vs0mg"},{"bike_id":"7dbf7670-d1d0-4a80-8ac5-74bfe0c01954","system_id":"levelo_inurba_marseille","lat":43.23768,"lon":5.36173,"is_reserved":false,"is_disabled":false,"rental_uris":{"android":"levelo://app?vid=7dbf7670-d1d0-4a80-8ac5-74bfe0c01954","ios":"levelo://app?vid=7dbf7670-d1d0-4a80-8ac5-74bfe0c01954"},"vehicle_type_id":"4","last_reported":1746778434,"current_range_meters":20400,"station_id":"","pricing_plan_id":"cebpf4jnsgd1na2vs0mg"},{"bike_id":"edd60f3c-8f20-43fd-b8a1-002c70da4042","system_id":"levelo_inurba_marseille","lat":43.245557,"lon":5.395347,"is_reserved":false,"is_disabled":false,"rental_uris":{"android":"levelo://app?vid=edd60f3c-8f20-43fd-b8a1-002c70da4042","ios":"levelo://app?vid=edd60f3c-8f20-43fd-b8a1-002c70da4042"},"vehicle_type_id":"4","last_reported":1746778434,"current_range_meters":20400,"station_id":"ce4bhlp2rcd13ifvqgjg","pricing_plan_id":"cebpf4jnsgd1na2vs0mg"},{"bike_id":"ef8bf495-473a-44ca-833b-0ad5cc8e9cb7","system_id":"levelo_inurba_marseille","lat":43.304569,"lon":5.379124,"is_reserved":false,"is_disabled":false,"rental_uris":{"android":"levelo://app?vid=ef8bf495-473a-44ca-833b-0ad5cc8e9cb7","ios":"levelo://app?vid=ef8bf495-473a-44ca-833b-0ad5cc8e9cb7"},"vehicle_type_id":"4","last_reported":1746778434,"current_range_meters":20400,"station_id":"ce4bgup2rcd13ifvqcn0","pricing_plan_id":"cebpf4jnsgd1na2vs0mg"},{"bike_id":"bca99759-926e-455d-8286-0a1f32c958f0","system_id":"levelo_inurba_marseille","lat":43.27969,"lon":5.38748,"is_reserved":false,"is_disabled":false,"rental_uris":{"android":"levelo://app?vid=bca99759-926e-455d-8286-0a1f32c958f0","ios":"levelo://app?vid=bca99759-926e-455d-8286-0a1f32c958f0"},"vehicle_type_id":"4","last_reported":1746778434,"current_range_meters":20400,"station_id":"ce4bhg12rcd13ifvqf80","pricing_plan_id":"cebpf4jnsgd1na2vs0mg"},{"bike_id":"a4df64f2-c264-4791-8c9a-b2aa26249d40","system_id":"levelo_inurba_marseille","lat":43.29581,"lon":5.36733,"is_reserved":false,"is_disabled":false,"rental_uris":{"android":"levelo://app?vid=a4df64f2-c264-4791-8c9a-b2aa26249d40","ios":"levelo://app?vid=a4df64f2-c264-4791-8c9a-b2aa26249d40"},"vehicle_type_id":"4","last_reported":1746778434,"current_range_meters":20800,"station_id":"ce4bgph2rcd13ifvqc2g","pricing_plan_id":"cebpf4jnsgd1na2vs0mg"},{"bike_id":"9cda5b3e-5383-467e-a011-a78c5688f1a9","system_id":"levelo_inurba_marseille","lat":43.28672,"lon":5.38676,"is_reserved":false,"is_disabled":false,"rental_uris":{"android":"levelo://app?vid=9cda5b3e-5383-467e-a011-a78c5688f1a9","ios":"levelo://app?vid=9cda5b3e-5383-467e-a011-a78c5688f1a9"},"vehicle_type_id":"4","last_reported":1746778434,"current_range_meters":20400,"station_id":"ce4bh492rcd13ifvqdug","pricing_plan_id":"cebpf4jnsgd1na2vs0mg"},{"bike_id":"6420f02b-8362-4343-8b95-549cf080cbb8","system_id":"levelo_inurba_marseille","lat":43.29516,"lon":5.3751,"is_reserved":false,"is_disabled":false,"rental_uris":{"android":"levelo://app?vid=6420f02b-8362-4343-8b95-549cf080cbb8","ios":"levelo://app?vid=6420f02b-8362-4343-8b95-549cf080cbb8"},"vehicle_type_id":"4","last_reported":1746778434,"current_range_meters":20800,"station_id":"ce4bgkp2rcd13ifvqbmg","pricing_plan_id":"cebpf4jnsgd1na2vs0mg"},{"bike_id":"4da1c51e-e3b4-4b38-b2dd-e7d5a2941b37","system_id":"levelo_inurba_marseille","lat":43.2827,"lon":5.3506,"is_reserved":false,"is_disabled":false,"rental_uris":{"android":"levelo://app?vid=4da1c51e-e3b4-4b38-b2dd-e7d5a2941b37","ios":"levelo://app?vid=4da1c51e-e3b4-4b38-b2dd-e7d5a2941b37"},"vehicle_type_id":"4","last_reported":1746778434,"current_range_meters":20800,"station_id":"ce4bhbp2rcd13ifvqerg","pricing_plan_id":"cebpf4jnsgd1na2vs0mg"},{"bike_id":"87cdbadc-86ad-49f0-b5de-851ca5b515a6","system_id":"levelo_inurba_marseille","lat":43.29852,"lon":5.36285,"is_reserved":false,"is_disabled":false,"rental_uris":{"android":"levelo://app?vid=87cdbadc-86ad-49f0-b5de-851ca5b515a6","ios":"levelo://app?vid=87cdbadc-86ad-49f0-b5de-851ca5b515a6"},"vehicle_type_id":"4","last_reported":1746778434,"current_range_meters":20800,"station_id":"ce4bgpp2rcd13ifvqc3g","pricing_plan_id":"cebpf4jnsgd1na2vs0mg"},{"bike_id":"66d39f5f-1aac-423b-9ea7-bf9c1b0e5079","system_id":"levelo_inurba_marseille","lat":43.275089,"lon":5.411089,"is_reserved":false,"is_disabled":false,"rental_uris":{"android":"levelo://app?vid=66d39f5f-1aac-423b-9ea7-bf9c1b0e5079","ios":"levelo://app?vid=66d39f5f-1aac-423b-9ea7-bf9c1b0e5079"},"vehicle_type_id":"4","last_reported":1746778434,"current_range_meters":20800,"station_id":"","pricing_plan_id":"cebpf4jnsgd1na2vs0mg"},{"bike_id":"307d1e2f-6ff8-4a04-9a4c-bbabd2cc6755","system_id":"levelo_inurba_marseille","lat":43.283475,"lon":5.381025,"is_reserved":false,"is_disabled":false,"rental_uris":{"android":"levelo://app?vid=307d1e2f-6ff8-4a04-9a4c-bbabd2cc6755","ios":"levelo://app?vid=307d1e2f-6ff8-4a04-9a4c-bbabd2cc6755"},"vehicle_type_id":"4","last_reported":1746778434,"current_range_meters":20800,"station_id":"ce4bh412rcd13ifvqdr0","pricing_plan_id":"cebpf4jnsgd1na2vs0mg"},{"bike_id":"6fccf421-b177-4f25-b784-856d84fa3704","system_id":"levelo_inurba_marseille","lat":43.28405,"lon":5.37519,"is_reserved":false,"is_disabled":false,"rental_uris":{"android":"levelo://app?vid=6fccf421-b177-4f25-b784-856d84fa3704","ios":"levelo://app?vid=6fccf421-b177-4f25-b784-856d84fa3704"},"vehicle_type_id":"4","last_reported":1746778434,"current_range_meters":21600,"station_id":"ce4bh412rcd13ifvqds0","pricing_plan_id":"cebpf4jnsgd1na2vs0mg"},{"bike_id":"9b84e65f-2424-4f8e-b51b-21355d123536","system_id":"levelo_inurba_marseille","lat":43.31467,"lon":5.37266,"is_reserved":false,"is_disabled":false,"rental_uris":{"android":"levelo://app?vid=9b84e65f-2424-4f8e-b51b-21355d123536","ios":"levelo://app?vid=9b84e65f-2424-4f8e-b51b-21355d123536"},"vehicle_type_id":"4","last_reported":1746778434,"current_range_meters":21600,"station_id":"ce4bgt12rcd13ifvqcd0","pricing_plan_id":"cebpf4jnsgd1na2vs0mg"},{"bike_id":"1104754c-d3a2-4e50-be16-ad71b05ac7a2","system_id":"levelo_inurba_marseille","lat":43.29526,"lon":5.38549,"is_reserved":false,"is_disabled":false,"rental_uris":{"android":"levelo://app?vid=1104754c-d3a2-4e50-be16-ad71b05ac7a2","ios":"levelo://app?vid=1104754c-d3a2-4e50-be16-ad71b05ac7a2"},"vehicle_type_id":"4","last_reported":1746778434,"current_range_meters":21600,"station_id":"ce4bgih2rcd13ifvqba0","pricing_plan_id":"cebpf4jnsgd1na2vs0mg"},{"bike_id":"8a277907-7015-4c21-bde8-64405278d4c1","system_id":"levelo_inurba_marseille","lat":43.30907,"lon":5.36854,"is_reserved":false,"is_disabled":true,"rental_uris":{"android":"levelo://app?vid=8a277907-7015-4c21-bde8-64405278d4c1","ios":"levelo://app?vid=8a277907-7015-4c21-bde8-64405278d4c1"},"vehicle_type_id":"4","last_reported":1746778434,"current_range_meters":21600,"station_id":"ce4bgn92rcd13ifvqbvg","pricing_plan_id":"cebpf4jnsgd1na2vs0mg"},{"bike_id":"2d7732a9-a3b9-4dc7-9533-58d589f7414a","system_id":"levelo_inurba_marseille","lat":43.301383,"lon":5.37423,"is_reserved":false,"is_disabled":false,"rental_uris":{"android":"levelo://app?vid=2d7732a9-a3b9-4dc7-9533-58d589f7414a","ios":"levelo://app?vid=2d7732a9-a3b9-4dc7-9533-58d589f7414a"},"vehicle_type_id":"4","last_reported":1746778434,"current_range_meters":21600,"station_id":"ce4bgs92rcd13ifvqcc0","pricing_plan_id":"cebpf4jnsgd1na2vs0mg"},{"bike_id":"bef5a1e9-3a53-4b79-8ee5-9b0c66f395e5","system_id":"levelo_inurba_marseille","lat":43.298463,"lon":5.362717,"is_reserved":false,"is_disabled":false,"rental_uris":{"android":"levelo://app?vid=bef5a1e9-3a53-4b79-8ee5-9b0c66f395e5","ios":"levelo://app?vid=bef5a1e9-3a53-4b79-8ee5-9b0c66f395e5"},"vehicle_type_id":"4","last_reported":1746778434,"current_range_meters":22000,"station_id":"ce4bgpp2rcd13ifvqc3g","pricing_plan_id":"cebpf4jnsgd1na2vs0mg"},{"bike_id":"e82bedf9-93fa-4d8c-abab-50aba4b34b5a","system_id":"levelo_inurba_marseille","lat":43.30544,"lon":5.36706,"is_reserved":false,"is_disabled":false,"rental_uris":{"android":"levelo://app?vid=e82bedf9-93fa-4d8c-abab-50aba4b34b5a","ios":"levelo://app?vid=e82bedf9-93fa-4d8c-abab-50aba4b34b5a"},"vehicle_type_id":"4","last_reported":1746778434,"current_range_meters":22000,"station_id":"ce4bgrp2rcd13ifvqc9g","pricing_plan_id":"cebpf4jnsgd1na2vs0mg"},{"bike_id":"a1121b36-b5cd-4dda-96ef-13a3dfaa55e1","system_id":"levelo_inurba_marseille","lat":43.301401,"lon":5.387791,"is_reserved":false,"is_disabled":false,"rental_uris":{"android":"levelo://app?vid=a1121b36-b5cd-4dda-96ef-13a3dfaa55e1","ios":"levelo://app?vid=a1121b36-b5cd-4dda-96ef-13a3dfaa55e1"},"vehicle_type_id":"4","last_reported":1746778434,"current_range_meters":22000,"station_id":"","pricing_plan_id":"cebpf4jnsgd1na2vs0mg"},{"bike_id":"e5fd4614-fee2-4d9e-a701-7e23aaf97554","system_id":"levelo_inurba_marseille","lat":43.27495,"lon":5.42458,"is_reserved":false,"is_disabled":false,"rental_uris":{"android":"levelo://app?vid=e5fd4614-fee2-4d9e-a701-7e23aaf97554","ios":"levelo://app?vid=e5fd4614-fee2-4d9e-a701-7e23aaf97554"},"vehicle_type_id":"4","last_reported":1746778434,"current_range_meters":18000,"station_id":"ce4bhn92rcd13ifvqgrg","pricing_plan_id":"cebpf4jnsgd1na2vs0mg"},{"bike_id":"011969bc-0f12-4269-953b-4c1d6a4ccb57","system_id":"levelo_inurba_marseille","lat":43.30552,"lon":5.36649,"is_reserved":false,"is_disabled":false,"rental_uris":{"android":"levelo://app?vid=011969bc-0f12-4269-953b-4c1d6a4ccb57","ios":"levelo://app?vid=011969bc-0f12-4269-953b-4c1d6a4ccb57"},"vehicle_type_id":"4","last_reported":1746778434,"current_range_meters":22000,"station_id":"ce4bgrp2rcd13ifvqc9g","pricing_plan_id":"cebpf4jnsgd1na2vs0mg"},{"bike_id":"897f8669-0a3c-48d9-b576-75f7ac4ee3aa","system_id":"levelo_inurba_marseille","lat":43.30912,"lon":5.3686,"is_reserved":false,"is_disabled":false,"rental_uris":{"android":"levelo://app?vid=897f8669-0a3c-48d9-b576-75f7ac4ee3aa","ios":"levelo://app?vid=897f8669-0a3c-48d9-b576-75f7ac4ee3aa"},"vehicle_type_id":"4","last_reported":1746778434,"current_range_meters":22000,"station_id":"ce4bgn92rcd13ifvqbvg","pricing_plan_id":"cebpf4jnsgd1na2vs0mg"},{"bike_id":"da9bb11b-1cb7-45ed-b7bc-8a349e88f4b8","system_id":"levelo_inurba_marseille","lat":43.30885,"lon":5.37202,"is_reserved":false,"is_disabled":true,"rental_uris":{"android":"levelo://app?vid=da9bb11b-1cb7-45ed-b7bc-8a349e88f4b8","ios":"levelo://app?vid=da9bb11b-1cb7-45ed-b7bc-8a349e88f4b8"},"vehicle_type_id":"4","last_reported":1746778434,"current_range_meters":22000,"station_id":"ce4bguh2rcd13ifvqckg","pricing_plan_id":"cebpf4jnsgd1na2vs0mg"},{"bike_id":"0cb3d950-2fba-4f1e-a1d9-1ad945d5565e","system_id":"levelo_inurba_marseille","lat":43.27564,"lon":5.38424,"is_reserved":false,"is_disabled":false,"rental_uris":{"android":"levelo://app?vid=0cb3d950-2fba-4f1e-a1d9-1ad945d5565e","ios":"levelo://app?vid=0cb3d950-2fba-4f1e-a1d9-1ad945d5565e"},"vehicle_type_id":"4","last_reported":1746778434,"current_range_meters":22000,"station_id":"ce4bhh92rcd13ifvqfi0","pricing_plan_id":"cebpf4jnsgd1na2vs0mg"},{"bike_id":"a7ad83d4-b109-4b29-aaf3-aaaf261d1a57","system_id":"levelo_inurba_marseille","lat":43.25926,"lon":5.40898,"is_reserved":false,"is_disabled":false,"rental_uris":{"android":"levelo://app?vid=a7ad83d4-b109-4b29-aaf3-aaaf261d1a57","ios":"levelo://app?vid=a7ad83d4-b109-4b29-aaf3-aaaf261d1a57"},"vehicle_type_id":"4","last_reported":1746778434,"current_range_meters":22400,"station_id":"ce4bhm92rcd13ifvqglg","pricing_plan_id":"cebpf4jnsgd1na2vs0mg"},{"bike_id":"cd0e164b-9056-42a7-bca1-ebba195c92ca","system_id":"levelo_inurba_marseille","lat":43.295636,"lon":5.399503,"is_reserved":false,"is_disabled":false,"rental_uris":{"android":"levelo://app?vid=cd0e164b-9056-42a7-bca1-ebba195c92ca","ios":"levelo://app?vid=cd0e164b-9056-42a7-bca1-ebba195c92ca"},"vehicle_type_id":"4","last_reported":1746778434,"current_range_meters":22800,"station_id":"ce4bh312rcd13ifvqdj0","pricing_plan_id":"cebpf4jnsgd1na2vs0mg"},{"bike_id":"4d481d36-96c2-4642-8f82-e32c80d4d19d","system_id":"levelo_inurba_marseille","lat":43.30537,"lon":5.38414,"is_reserved":false,"is_disabled":false,"rental_uris":{"android":"levelo://app?vid=4d481d36-96c2-4642-8f82-e32c80d4d19d","ios":"levelo://app?vid=4d481d36-96c2-4642-8f82-e32c80d4d19d"},"vehicle_type_id":"4","last_reported":1746778434,"current_range_meters":22800,"station_id":"ce4bgg92rcd13ifvqb30","pricing_plan_id":"cebpf4jnsgd1na2vs0mg"},{"bike_id":"6294889e-8d73-4042-8891-9c49e4c4a089","system_id":"levelo_inurba_marseille","lat":43.30473,"lon":5.37903,"is_reserved":false,"is_disabled":false,"rental_uris":{"android":"levelo://app?vid=6294889e-8d73-4042-8891-9c49e4c4a089","ios":"levelo://app?vid=6294889e-8d73-4042-8891-9c49e4c4a089"},"vehicle_type_id":"4","last_reported":1746778434,"current_range_meters":22800,"station_id":"ce4bgup2rcd13ifvqcn0","pricing_plan_id":"cebpf4jnsgd1na2vs0mg"},{"bike_id":"a1166e28-3d09-4fd8-a240-56727d68e82a","system_id":"levelo_inurba_marseille","lat":43.2417,"lon":5.39729,"is_reserved":false,"is_disabled":false,"rental_uris":{"android":"levelo://app?vid=a1166e28-3d09-4fd8-a240-56727d68e82a","ios":"levelo://app?vid=a1166e28-3d09-4fd8-a240-56727d68e82a"},"vehicle_type_id":"4","last_reported":1746778434,"current_range_meters":22800,"station_id":"ce4bhn12rcd13ifvqgpg","pricing_plan_id":"cebpf4jnsgd1na2vs0mg"},{"bike_id":"f0ae2c78-75fa-4e37-9959-89b7d82de539","system_id":"levelo_inurba_marseille","lat":43.26209,"lon":5.37926,"is_reserved":false,"is_disabled":false,"rental_uris":{"android":"levelo://app?vid=f0ae2c78-75fa-4e37-9959-89b7d82de539","ios":"levelo://app?vid=f0ae2c78-75fa-4e37-9959-89b7d82de539"},"vehicle_type_id":"4","last_reported":1746778434,"current_range_meters":22800,"station_id":"ce4bhjp2rcd13ifvqg90","pricing_plan_id":"cebpf4jnsgd1na2vs0mg"},{"bike_id":"18cda92a-27ed-4133-b925-31854ac3cc76","system_id":"levelo_inurba_marseille","lat":43.29006,"lon":5.35593,"is_reserved":false,"is_disabled":false,"rental_uris":{"android":"levelo://app?vid=18cda92a-27ed-4133-b925-31854ac3cc76","ios":"levelo://app?vid=18cda92a-27ed-4133-b925-31854ac3cc76"},"vehicle_type_id":"4","last_reported":1746778434,"current_range_meters":22800,"station_id":"ce4bhb92rcd13ifvqen0","pricing_plan_id":"cebpf4jnsgd1na2vs0mg"},{"bike_id":"2d6856ac-db8e-4729-a56c-d8940dfaff9b","system_id":"levelo_inurba_marseille","lat":43.25932,"lon":5.40888,"is_reserved":false,"is_disabled":false,"rental_uris":{"android":"levelo://app?vid=2d6856ac-db8e-4729-a56c-d8940dfaff9b","ios":"levelo://app?vid=2d6856ac-db8e-4729-a56c-d8940dfaff9b"},"vehicle_type_id":"4","last_reported":1746778434,"current_range_meters":22800,"station_id":"ce4bhm92rcd13ifvqglg","pricing_plan_id":"cebpf4jnsgd1na2vs0mg"},{"bike_id":"94548bbc-0565-40b2-9e19-d4d8f4a3e175","system_id":"levelo_inurba_marseille","lat":43.23201,"lon":5.35547,"is_reserved":false,"is_disabled":false,"rental_uris":{"android":"levelo://app?vid=94548bbc-0565-40b2-9e19-d4d8f4a3e175","ios":"levelo://app?vid=94548bbc-0565-40b2-9e19-d4d8f4a3e175"},"vehicle_type_id":"4","last_reported":1746778434,"current_range_meters":22800,"station_id":"ce4bhu92rcd13ifvqi70","pricing_plan_id":"cebpf4jnsgd1na2vs0mg"},{"bike_id":"52756607-7827-4f61-8695-3cabe7ff1d7c","system_id":"levelo_inurba_marseille","lat":43.24185,"lon":5.39726,"is_reserved":false,"is_disabled":false,"rental_uris":{"android":"levelo://app?vid=52756607-7827-4f61-8695-3cabe7ff1d7c","ios":"levelo://app?vid=52756607-7827-4f61-8695-3cabe7ff1d7c"},"vehicle_type_id":"4","last_reported":1746778434,"current_range_meters":23200,"station_id":"ce4bhn12rcd13ifvqgpg","pricing_plan_id":"cebpf4jnsgd1na2vs0mg"},{"bike_id":"6fd41433-8072-4307-9efc-7964e4d6a723","system_id":"levelo_inurba_marseille","lat":43.24065,"lon":5.37763,"is_reserved":false,"is_disabled":false,"rental_uris":{"android":"levelo://app?vid=6fd41433-8072-4307-9efc-7964e4d6a723","ios":"levelo://app?vid=6fd41433-8072-4307-9efc-7964e4d6a723"},"vehicle_type_id":"4","last_reported":1746778434,"current_range_meters":23200,"station_id":"ce4bhnp2rcd13ifvqgvg","pricing_plan_id":"cebpf4jnsgd1na2vs0mg"},{"bike_id":"3b8aa428-be44-4b7c-bc5b-5f40f1b3ad78","system_id":"levelo_inurba_marseille","lat":43.2595,"lon":5.40888,"is_reserved":false,"is_disabled":false,"rental_uris":{"android":"levelo://app?vid=3b8aa428-be44-4b7c-bc5b-5f40f1b3ad78","ios":"levelo://app?vid=3b8aa428-be44-4b7c-bc5b-5f40f1b3ad78"},"vehicle_type_id":"4","last_reported":1746778434,"current_range_meters":23200,"station_id":"ce4bhm92rcd13ifvqglg","pricing_plan_id":"cebpf4jnsgd1na2vs0mg"},{"bike_id":"c858c73e-da31-4827-8661-76fb4ce30ba1","system_id":"levelo_inurba_marseille","lat":43.25666,"lon":5.40991,"is_reserved":false,"is_disabled":true,"rental_uris":{"android":"levelo://app?vid=c858c73e-da31-4827-8661-76fb4ce30ba1","ios":"levelo://app?vid=c858c73e-da31-4827-8661-76fb4ce30ba1"},"vehicle_type_id":"4","last_reported":1746778434,"current_range_meters":23200,"station_id":"ce4bhkp2rcd13ifvqgd0","pricing_plan_id":"cebpf4jnsgd1na2vs0mg"},{"bike_id":"e452c63a-c77f-4b5c-9712-2be0fc8111c4","system_id":"levelo_inurba_marseille","lat":43.32541,"lon":5.41424,"is_reserved":false,"is_disabled":false,"rental_uris":{"android":"levelo://app?vid=e452c63a-c77f-4b5c-9712-2be0fc8111c4","ios":"levelo://app?vid=e452c63a-c77f-4b5c-9712-2be0fc8111c4"},"vehicle_type_id":"4","last_reported":1746778434,"current_range_meters":23200,"station_id":"ce4bhq12rcd13ifvqhhg","pricing_plan_id":"cebpf4jnsgd1na2vs0mg"},{"bike_id":"5532dc38-2ad9-4ffb-b6fe-ab915c29e534","system_id":"levelo_inurba_marseille","lat":43.28153,"lon":5.42648,"is_reserved":false,"is_disabled":false,"rental_uris":{"android":"levelo://app?vid=5532dc38-2ad9-4ffb-b6fe-ab915c29e534","ios":"levelo://app?vid=5532dc38-2ad9-4ffb-b6fe-ab915c29e534"},"vehicle_type_id":"4","last_reported":1746778434,"current_range_meters":24000,"station_id":"ce4bhnh2rcd13ifvqgug","pricing_plan_id":"cebpf4jnsgd1na2vs0mg"},{"bike_id":"66e5d8e1-c0d0-450e-86a4-94c78e8ae38e","system_id":"levelo_inurba_marseille","lat":43.30473,"lon":5.37903,"is_reserved":false,"is_disabled":false,"rental_uris":{"android":"levelo://app?vid=66e5d8e1-c0d0-450e-86a4-94c78e8ae38e","ios":"levelo://app?vid=66e5d8e1-c0d0-450e-86a4-94c78e8ae38e"},"vehicle_type_id":"4","last_reported":1746778434,"current_range_meters":23200,"station_id":"ce4bgup2rcd13ifvqcn0","pricing_plan_id":"cebpf4jnsgd1na2vs0mg"},{"bike_id":"ad85f1e3-389f-4069-aac4-a6c8c44d54cf","system_id":"levelo_inurba_marseille","lat":43.24073,"lon":5.37764,"is_reserved":false,"is_disabled":false,"rental_uris":{"android":"levelo://app?vid=ad85f1e3-389f-4069-aac4-a6c8c44d54cf","ios":"levelo://app?vid=ad85f1e3-389f-4069-aac4-a6c8c44d54cf"},"vehicle_type_id":"4","last_reported":1746778434,"current_range_meters":23200,"station_id":"ce4bhnp2rcd13ifvqgvg","pricing_plan_id":"cebpf4jnsgd1na2vs0mg"},{"bike_id":"4a12c727-da06-441a-affb-72d375ee09f8","system_id":"levelo_inurba_marseille","lat":43.31333,"lon":5.36728,"is_reserved":false,"is_disabled":false,"rental_uris":{"android":"levelo://app?vid=4a12c727-da06-441a-affb-72d375ee09f8","ios":"levelo://app?vid=4a12c727-da06-441a-affb-72d375ee09f8"},"vehicle_type_id":"4","last_reported":1746778434,"current_range_meters":24000,"station_id":"ce4bgr92rcd13ifvqc6g","pricing_plan_id":"cebpf4jnsgd1na2vs0mg"},{"bike_id":"31a822d7-a5ec-4f85-abd1-e2e71c8a4f93","system_id":"levelo_inurba_marseille","lat":43.290388,"lon":5.399652,"is_reserved":false,"is_disabled":false,"rental_uris":{"android":"levelo://app?vid=31a822d7-a5ec-4f85-abd1-e2e71c8a4f93","ios":"levelo://app?vid=31a822d7-a5ec-4f85-abd1-e2e71c8a4f93"},"vehicle_type_id":"4","last_reported":1746778434,"current_range_meters":24000,"station_id":"ce4bh392rcd13ifvqdm0","pricing_plan_id":"cebpf4jnsgd1na2vs0mg"},{"bike_id":"693700f4-1518-43ad-a514-297122fc3ff9","system_id":"levelo_inurba_marseille","lat":43.336,"lon":5.41023,"is_reserved":false,"is_disabled":false,"rental_uris":{"android":"levelo://app?vid=693700f4-1518-43ad-a514-297122fc3ff9","ios":"levelo://app?vid=693700f4-1518-43ad-a514-297122fc3ff9"},"vehicle_type_id":"4","last_reported":1746778434,"current_range_meters":24000,"station_id":"ce4bhqh2rcd13ifvqhmg","pricing_plan_id":"cebpf4jnsgd1na2vs0mg"},{"bike_id":"588115cb-e27a-4016-a23e-9efecb1738e1","system_id":"levelo_inurba_marseille","lat":43.26598,"lon":5.37338,"is_reserved":false,"is_disabled":false,"rental_uris":{"android":"levelo://app?vid=588115cb-e27a-4016-a23e-9efecb1738e1","ios":"levelo://app?vid=588115cb-e27a-4016-a23e-9efecb1738e1"},"vehicle_type_id":"4","last_reported":1746778434,"current_range_meters":24000,"station_id":"ce4bhg12rcd13ifvqf70","pricing_plan_id":"cebpf4jnsgd1na2vs0mg"},{"bike_id":"7365be41-1046-4ddc-b6a7-e28a1ad56b2a","system_id":"levelo_inurba_marseille","lat":43.32552,"lon":5.41439,"is_reserved":false,"is_disabled":false,"rental_uris":{"android":"levelo://app?vid=7365be41-1046-4ddc-b6a7-e28a1ad56b2a","ios":"levelo://app?vid=7365be41-1046-4ddc-b6a7-e28a1ad56b2a"},"vehicle_type_id":"4","last_reported":1746778434,"current_range_meters":24400,"station_id":"ce4bhq12rcd13ifvqhhg","pricing_plan_id":"cebpf4jnsgd1na2vs0mg"},{"bike_id":"725e20dd-e5cb-40e2-9c7d-5c2a9fddd9d3","system_id":"levelo_inurba_marseille","lat":43.24051,"lon":5.37738,"is_reserved":false,"is_disabled":false,"rental_uris":{"android":"levelo://app?vid=725e20dd-e5cb-40e2-9c7d-5c2a9fddd9d3","ios":"levelo://app?vid=725e20dd-e5cb-40e2-9c7d-5c2a9fddd9d3"},"vehicle_type_id":"4","last_reported":1746778434,"current_range_meters":24400,"station_id":"ce4bhnp2rcd13ifvqgvg","pricing_plan_id":"cebpf4jnsgd1na2vs0mg"},{"bike_id":"fbcbae03-7e3e-44fd-83b3-fd29b853cc74","system_id":"levelo_inurba_marseille","lat":43.30862,"lon":5.377533,"is_reserved":false,"is_disabled":false,"rental_uris":{"android":"levelo://app?vid=fbcbae03-7e3e-44fd-83b3-fd29b853cc74","ios":"levelo://app?vid=fbcbae03-7e3e-44fd-83b3-fd29b853cc74"},"vehicle_type_id":"4","last_reported":1746778434,"current_range_meters":24400,"station_id":"ce4bgrp2rcd13ifvqc9g","pricing_plan_id":"cebpf4jnsgd1na2vs0mg"},{"bike_id":"020b7142-3123-4bc9-884a-308b5142e38a","system_id":"levelo_inurba_marseille","lat":43.30042,"lon":5.38802,"is_reserved":false,"is_disabled":false,"rental_uris":{"android":"levelo://app?vid=020b7142-3123-4bc9-884a-308b5142e38a","ios":"levelo://app?vid=020b7142-3123-4bc9-884a-308b5142e38a"},"vehicle_type_id":"4","last_reported":1746778434,"current_range_meters":24400,"station_id":"","pricing_plan_id":"cebpf4jnsgd1na2vs0mg"},{"bike_id":"a6dea811-f996-4595-81ec-efa22a05d318","system_id":"levelo_inurba_marseille","lat":43.31212,"lon":5.36867,"is_reserved":false,"is_disabled":false,"rental_uris":{"android":"levelo://app?vid=a6dea811-f996-4595-81ec-efa22a05d318","ios":"levelo://app?vid=a6dea811-f996-4595-81ec-efa22a05d318"},"vehicle_type_id":"4","last_reported":1746778434,"current_range_meters":24400,"station_id":"ce4bgl92rcd13ifvqbq0","pricing_plan_id":"cebpf4jnsgd1na2vs0mg"},{"bike_id":"87fa0919-3ab2-46fb-aaba-a66daab56c83","system_id":"levelo_inurba_marseille","lat":43.290159,"lon":5.381299,"is_reserved":false,"is_disabled":false,"rental_uris":{"android":"levelo://app?vid=87fa0919-3ab2-46fb-aaba-a66daab56c83","ios":"levelo://app?vid=87fa0919-3ab2-46fb-aaba-a66daab56c83"},"vehicle_type_id":"4","last_reported":1746778434,"current_range_meters":24400,"station_id":"","pricing_plan_id":"cebpf4jnsgd1na2vs0mg"},{"bike_id":"1c731629-96f5-4188-8708-0364441a3ffd","system_id":"levelo_inurba_marseille","lat":43.27497,"lon":5.42445,"is_reserved":false,"is_disabled":false,"rental_uris":{"android":"levelo://app?vid=1c731629-96f5-4188-8708-0364441a3ffd","ios":"levelo://app?vid=1c731629-96f5-4188-8708-0364441a3ffd"},"vehicle_type_id":"4","last_reported":1746778434,"current_range_meters":24400,"station_id":"ce4bhn92rcd13ifvqgrg","pricing_plan_id":"cebpf4jnsgd1na2vs0mg"},{"bike_id":"bf43ecf2-8fa8-40db-9f78-00302703cc3d","system_id":"levelo_inurba_marseille","lat":43.30479,"lon":5.37908,"is_reserved":false,"is_disabled":false,"rental_uris":{"android":"levelo://app?vid=bf43ecf2-8fa8-40db-9f78-00302703cc3d","ios":"levelo://app?vid=bf43ecf2-8fa8-40db-9f78-00302703cc3d"},"vehicle_type_id":"4","last_reported":1746778434,"current_range_meters":24400,"station_id":"ce4bgup2rcd13ifvqcn0","pricing_plan_id":"cebpf4jnsgd1na2vs0mg"},{"bike_id":"46847ce3-24a2-4af0-80b2-7e78ef50263d","system_id":"levelo_inurba_marseille","lat":43.26559,"lon":5.37284,"is_reserved":false,"is_disabled":false,"rental_uris":{"android":"levelo://app?vid=46847ce3-24a2-4af0-80b2-7e78ef50263d","ios":"levelo://app?vid=46847ce3-24a2-4af0-80b2-7e78ef50263d"},"vehicle_type_id":"4","last_reported":1746778434,"current_range_meters":24400,"station_id":"ce4bhg12rcd13ifvqf70","pricing_plan_id":"cebpf4jnsgd1na2vs0mg"},{"bike_id":"57d8bb6b-f041-4d17-b320-44d7867a1c31","system_id":"levelo_inurba_marseille","lat":43.27496,"lon":5.424596,"is_reserved":false,"is_disabled":false,"rental_uris":{"android":"levelo://app?vid=57d8bb6b-f041-4d17-b320-44d7867a1c31","ios":"levelo://app?vid=57d8bb6b-f041-4d17-b320-44d7867a1c31"},"vehicle_type_id":"4","last_reported":1746778434,"current_range_meters":24800,"station_id":"ce4bhn92rcd13ifvqgrg","pricing_plan_id":"cebpf4jnsgd1na2vs0mg"},{"bike_id":"152aadb7-05ab-41de-8a93-0a2e89ca3081","system_id":"levelo_inurba_marseille","lat":43.25918,"lon":5.40898,"is_reserved":false,"is_disabled":false,"rental_uris":{"android":"levelo://app?vid=152aadb7-05ab-41de-8a93-0a2e89ca3081","ios":"levelo://app?vid=152aadb7-05ab-41de-8a93-0a2e89ca3081"},"vehicle_type_id":"4","last_reported":1746778434,"current_range_meters":24800,"station_id":"ce4bhm92rcd13ifvqglg","pricing_plan_id":"cebpf4jnsgd1na2vs0mg"},{"bike_id":"ff8f1086-1060-441c-8634-4e77d4fe07e2","system_id":"levelo_inurba_marseille","lat":43.29703,"lon":5.37696,"is_reserved":false,"is_disabled":false,"rental_uris":{"android":"levelo://app?vid=ff8f1086-1060-441c-8634-4e77d4fe07e2","ios":"levelo://app?vid=ff8f1086-1060-441c-8634-4e77d4fe07e2"},"vehicle_type_id":"4","last_reported":1746778434,"current_range_meters":24400,"station_id":"ce4bgkh2rcd13ifvqbl0","pricing_plan_id":"cebpf4jnsgd1na2vs0mg"},{"bike_id":"4921bcfb-2e4b-4797-a8ab-05c03ac382da","system_id":"levelo_inurba_marseille","lat":43.27499,"lon":5.42463,"is_reserved":false,"is_disabled":false,"rental_uris":{"android":"levelo://app?vid=4921bcfb-2e4b-4797-a8ab-05c03ac382da","ios":"levelo://app?vid=4921bcfb-2e4b-4797-a8ab-05c03ac382da"},"vehicle_type_id":"4","last_reported":1746778434,"current_range_meters":24800,"station_id":"ce4bhn92rcd13ifvqgrg","pricing_plan_id":"cebpf4jnsgd1na2vs0mg"},{"bike_id":"aeeb00e5-b744-44ef-ae26-21d0ad8fa94e","system_id":"levelo_inurba_marseille","lat":43.26214,"lon":5.37443,"is_reserved":false,"is_disabled":false,"rental_uris":{"android":"levelo://app?vid=aeeb00e5-b744-44ef-ae26-21d0ad8fa94e","ios":"levelo://app?vid=aeeb00e5-b744-44ef-ae26-21d0ad8fa94e"},"vehicle_type_id":"4","last_reported":1746778434,"current_range_meters":24800,"station_id":"ce4bhgp2rcd13ifvqfc0","pricing_plan_id":"cebpf4jnsgd1na2vs0mg"},{"bike_id":"5f7823ee-002e-44f9-a03c-a3dd88620d36","system_id":"levelo_inurba_marseille","lat":43.32542,"lon":5.41428,"is_reserved":false,"is_disabled":false,"rental_uris":{"android":"levelo://app?vid=5f7823ee-002e-44f9-a03c-a3dd88620d36","ios":"levelo://app?vid=5f7823ee-002e-44f9-a03c-a3dd88620d36"},"vehicle_type_id":"4","last_reported":1746778434,"current_range_meters":24800,"station_id":"ce4bhq12rcd13ifvqhhg","pricing_plan_id":"cebpf4jnsgd1na2vs0mg"},{"bike_id":"f52c819d-ca4b-4640-b458-b877db1bf990","system_id":"levelo_inurba_marseille","lat":43.29883,"lon":5.40983,"is_reserved":false,"is_disabled":false,"rental_uris":{"android":"levelo://app?vid=f52c819d-ca4b-4640-b458-b877db1bf990","ios":"levelo://app?vid=f52c819d-ca4b-4640-b458-b877db1bf990"},"vehicle_type_id":"4","last_reported":1746778434,"current_range_meters":25200,"station_id":"","pricing_plan_id":"cebpf4jnsgd1na2vs0mg"},{"bike_id":"d45e5c7a-20d6-4da9-8ade-6252f2c8e495","system_id":"levelo_inurba_marseille","lat":43.26572,"lon":5.37273,"is_reserved":false,"is_disabled":false,"rental_uris":{"android":"levelo://app?vid=d45e5c7a-20d6-4da9-8ade-6252f2c8e495","ios":"levelo://app?vid=d45e5c7a-20d6-4da9-8ade-6252f2c8e495"},"vehicle_type_id":"4","last_reported":1746778434,"current_range_meters":25200,"station_id":"ce4bhg12rcd13ifvqf70","pricing_plan_id":"cebpf4jnsgd1na2vs0mg"},{"bike_id":"50ada4fa-fab1-41f0-b8fd-c4dc3e84ffb1","system_id":"levelo_inurba_marseille","lat":43.23197,"lon":5.35561,"is_reserved":false,"is_disabled":false,"rental_uris":{"android":"levelo://app?vid=50ada4fa-fab1-41f0-b8fd-c4dc3e84ffb1","ios":"levelo://app?vid=50ada4fa-fab1-41f0-b8fd-c4dc3e84ffb1"},"vehicle_type_id":"4","last_reported":1746778434,"current_range_meters":25200,"station_id":"ce4bhu92rcd13ifvqi70","pricing_plan_id":"cebpf4jnsgd1na2vs0mg"},{"bike_id":"ed0a7882-a2a5-4658-92eb-8dca0358b8ab","system_id":"levelo_inurba_marseille","lat":43.23969,"lon":5.36637,"is_reserved":false,"is_disabled":false,"rental_uris":{"android":"levelo://app?vid=ed0a7882-a2a5-4658-92eb-8dca0358b8ab","ios":"levelo://app?vid=ed0a7882-a2a5-4658-92eb-8dca0358b8ab"},"vehicle_type_id":"4","last_reported":1746778434,"current_range_meters":24800,"station_id":"ce4bhi12rcd13ifvqfp0","pricing_plan_id":"cebpf4jnsgd1na2vs0mg"},{"bike_id":"f0943fa2-0a49-45fc-84c1-5bbf38e96efd","system_id":"levelo_inurba_marseille","lat":43.31227,"lon":5.36878,"is_reserved":false,"is_disabled":true,"rental_uris":{"android":"levelo://app?vid=f0943fa2-0a49-45fc-84c1-5bbf38e96efd","ios":"levelo://app?vid=f0943fa2-0a49-45fc-84c1-5bbf38e96efd"},"vehicle_type_id":"4","last_reported":1746778434,"current_range_meters":25200,"station_id":"ce4bgl92rcd13ifvqbq0","pricing_plan_id":"cebpf4jnsgd1na2vs0mg"},{"bike_id":"8e48d562-98e0-427d-91c2-1b85f9adc28b","system_id":"levelo_inurba_marseille","lat":43.24185,"lon":5.39735,"is_reserved":false,"is_disabled":false,"rental_uris":{"android":"levelo://app?vid=8e48d562-98e0-427d-91c2-1b85f9adc28b","ios":"levelo://app?vid=8e48d562-98e0-427d-91c2-1b85f9adc28b"},"vehicle_type_id":"4","last_reported":1746778434,"current_range_meters":25200,"station_id":"ce4bhn12rcd13ifvqgpg","pricing_plan_id":"cebpf4jnsgd1na2vs0mg"},{"bike_id":"0379fed7-ab75-4eb7-9df8-b9c13f618f39","system_id":"levelo_inurba_marseille","lat":43.29619,"lon":5.37163,"is_reserved":false,"is_disabled":false,"rental_uris":{"android":"levelo://app?vid=0379fed7-ab75-4eb7-9df8-b9c13f618f39","ios":"levelo://app?vid=0379fed7-ab75-4eb7-9df8-b9c13f618f39"},"vehicle_type_id":"4","last_reported":1746778434,"current_range_meters":24800,"station_id":"ce4bgnh2rcd13ifvqc0g","pricing_plan_id":"cebpf4jnsgd1na2vs0mg"},