{"last_updated":1733422304,"ttl":60,"version":"2.2","data":{"bikes":[{"bike_id":"0b41a6d6-c494-4679-bc43-0d3b21a53f75","system_id":"levelo_inurba_marseille","lat":43.2717,"lon":5.40988,"is_reserved":false,"is_disabled":true,"rental_uris":{"android":"levelo://app?vid=0b41a6d6-c494-4679-bc43-0d3b21a53f75","ios":"levelo://app?vid=0b41a6d6-c494-4679-bc43-0d3b21a53f75"},"vehicle_type_id":"4","last_reported":1733422304,"current_range_meters":0,"station_id":"ce4bhl12rcd13ifvqgf0","pricing_plan_id":"cebpf4jnsgd1na2vs0mg"},{"bike_id":"c3f4a8b0-51b7-485d-9ccb-f9f83279edc8","system_id":"levelo_inurba_marseille","lat":43.29219,"lon":5.35786,"is_reserved":false,"is_disabled":false,"rental_uris":{"android":"levelo://app?vid=c3f4a8b0-51b7-485d-9ccb-f9f83279edc8","ios":"levelo://app?vid=c3f4a8b0-51b7-485d-9ccb-f9f83279edc8"},"vehicle_type_id":"4","last_reported":1733422304,"current_range_meters":14000,"station_id":"ce4bhb12rcd13ifvqel0","pricing_plan_id":"cebpf4jnsgd1na2vs0mg"},{"bike_id":"056ec1aa-99e6-484a-b06a-615f236b43aa","system_id":"levelo_inurba_marseille","lat":43.3137,"lon":5.38488,"is_reserved":false,"is_disabled":false,"rental_uris":{"android":"levelo://app?vid=056ec1aa-99e6-484a-b06a-615f236b43aa","ios":"levelo://app?vid=056ec1aa-99e6-484a-b06a-615f236b43aa"},"vehicle_type_id":"4","last_reported":1733422304,"current_range_meters":13600,"station_id":"ce4bgt92rcd13ifvqcf0","pricing_plan_id":"cebpf4jnsgd1na2vs0mg"},{"bike_id":"df479c2c-35ac-44ad-b9d6-81c89ed769ce","system_id":"levelo_inurba_marseille","lat":43.29699,"lon":5.37054,"is_reserved":false,"is_disabled":true,"rental_uris":{"android":"levelo://app?vid=df479c2c-35ac-44ad-b9d6-81c89ed769ce","ios":"levelo://app?vid=df479c2c-35ac-44ad-b9d6-81c89ed769ce"},"vehicle_type_id":"4","last_reported":1733422304,"current_range_meters":0,"station_id":"","pricing_plan_id":"cebpf4jnsgd1na2vs0mg"},{"bike_id":"8e029eaf-e104-4c5d-858d-6cd39de73d09","system_id":"levelo_inurba_marseille","lat":43.24165,"lon":5.3639,"is_reserved":false,"is_disabled":false,"rental_uris":{"android":"levelo://app?vid=8e029eaf-e104-4c5d-858d-6cd39de73d09","ios":"levelo://app?vid=8e029eaf-e104-4c5d-858d-6cd39de73d09"},"vehicle_type_id":"4","last_reported":1733422304,"current_range_meters":6000,"station_id":"cpo36qri1sfpv3e86is0","pricing_plan_id":"cebpf4jnsgd1na2vs0mg"},{"bike_id":"bc6d1df1-c307-4d6f-9ccf-49fb0c32794a","system_id":"levelo_inurba_marseille","lat":43.25858,"lon":5.39904,"is_reserved":false,"is_disabled":false,"rental_uris":{"android":"levelo://app?vid=bc6d1df1-c307-4d6f-9ccf-49fb0c32794a","ios":"levelo://app?vid=bc6d1df1-c307-4d6f-9ccf-49fb0c32794a"},"vehicle_type_id":"4","last_reported":1733422304,"current_range_meters":38800,"station_id":"ce4bhl92rcd13ifvqghg","pricing_plan_id":"cebpf4jnsgd1na2vs0mg"},{"bike_id":"9e08f281-c0e3-4a9d-ba4a-3c95e0797110","system_id":"levelo_inurba_marseille","lat":43.28072,"lon":5.39615,"is_reserved":false,"is_disabled":false,"rental_uris":{"android":"levelo://app?vid=9e08f281-c0e3-4a9d-ba4a-3c95e0797110","ios":"levelo://app?vid=9e08f281-c0e3-4a9d-ba4a-3c95e0797110"},"vehicle_type_id":"4","last_reported":1733422304,"current_range_meters":39200,"station_id":"ce4bho12rcd13ifvqh2g","pricing_plan_id":"cebpf4jnsgd1na2vs0mg"},{"bike_id":"f759a919-e667-423a-91b8-61c56d97698b","system_id":"levelo_inurba_marseille","lat":43.28152,"lon":5.42642,"is_reserved":false,"is_disabled":true,"rental_uris":{"android":"levelo://app?vid=f759a919-e667-423a-91b8-61c56d97698b","ios":"levelo://app?vid=f759a919-e667-423a-91b8-61c56d97698b"},"vehicle_type_id":"4","last_reported":1733422304,"current_range_meters":1200,"station_id":"ce4bhnh2rcd13ifvqgug","pricing_plan_id":"cebpf4jnsgd1na2vs0mg"},{"bike_id":"5ab48e27-648a-4a22-8d09-2899dbaa4581","system_id":"levelo_inurba_marseille","lat":43.28846,"lon":5.39307,"is_reserved":false,"is_disabled":false,"rental_uris":{"android":"levelo://app?vid=5ab48e27-648a-4a22-8d09-2899dbaa4581","ios":"levelo://app?vid=5ab48e27-648a-4a22-8d09-2899dbaa4581"},"vehicle_type_id":"4","last_reported":1733422304,"current_range_meters":20800,"station_id":"ce4bh2p2rcd13ifvqdi0","pricing_plan_id":"cebpf4jnsgd1na2vs0mg"},{"bike_id":"be407bbe-d1ce-48de-8db2-09114af9efd7","system_id":"levelo_inurba_marseille","lat":43.32368,"lon":5.36757,"is_reserved":false,"is_disabled":false,"rental_uris":{"android":"levelo://app?vid=be407bbe-d1ce-48de-8db2-09114af9efd7","ios":"levelo://app?vid=be407bbe-d1ce-48de-8db2-09114af9efd7"},"vehicle_type_id":"4","last_reported":1733422304,"current_range_meters":28000,"station_id":"ce4bhsh2rcd13ifvqi2g","pricing_plan_id":"cebpf4jnsgd1na2vs0mg"},{"bike_id":"8c0b0fc8-734e-4ca6-b676-eb93f9346fac","system_id":"levelo_inurba_marseille","lat":43.27812,"lon":5.40702,"is_reserved":false,"is_disabled":false,"rental_uris":{"android":"levelo://app?vid=8c0b0fc8-734e-4ca6-b676-eb93f9346fac","ios":"levelo://app?vid=8c0b0fc8-734e-4ca6-b676-eb93f9346fac"},"vehicle_type_id":"4","last_reported":1733422304,"current_range_meters":10800,"station_id":"ce4bhnh2rcd13ifvqgtg","pricing_plan_id":"cebpf4jnsgd1na2vs0mg"},{"bike_id":"ca2a556f-9af6-4af4-8014-51a47bb9c9b7","system_id":"levelo_inurba_marseille","lat":43.33021,"lon":5.39039,"is_reserved":false,"is_disabled":true,"rental_uris":{"android":"levelo://app?vid=ca2a556f-9af6-4af4-8014-51a47bb9c9b7","ios":"levelo://app?vid=ca2a556f-9af6-4af4-8014-51a47bb9c9b7"},"vehicle_type_id":"4","last_reported":1733422304,"current_range_meters":0,"station_id":"ce4bhr92rcd13ifvqhrg","pricing_plan_id":"cebpf4jnsgd1na2vs0mg"},{"bike_id":"8bd642b2-0279-44c7-9ee2-fc3b57332c83","system_id":"levelo_inurba_marseille","lat":43.27455,"lon":5.40073,"is_reserved":false,"is_disabled":true,"rental_uris":{"android":"levelo://app?vid=8bd642b2-0279-44c7-9ee2-fc3b57332c83","ios":"levelo://app?vid=8bd642b2-0279-44c7-9ee2-fc3b57332c83"},"vehicle_type_id":"4","last_reported":1733422304,"current_range_meters":0,"station_id":"","pricing_plan_id":"cebpf4jnsgd1na2vs0mg"},{"bike_id":"d753f0a7-5dd6-4388-ba2b-0cd6f2a9bf91","system_id":"levelo_inurba_marseille","lat":43.2512,"lon":5.40315,"is_reserved":false,"is_disabled":false,"rental_uris":{"android":"levelo://app?vid=d753f0a7-5dd6-4388-ba2b-0cd6f2a9bf91","ios":"levelo://app?vid=d753f0a7-5dd6-4388-ba2b-0cd6f2a9bf91"},"vehicle_type_id":"4","last_reported":1733422304,"current_range_meters":9600,"station_id":"ce4bhlh2rcd13ifvqgig","pricing_plan_id":"cebpf4jnsgd1na2vs0mg"},{"bike_id":"8460f633-0d7e-4573-82ee-5366bcac1cfe","system_id":"levelo_inurba_marseille","lat":43.29416,"lon":5.38617,"is_reserved":false,"is_disabled":false,"rental_uris":{"android":"levelo://app?vid=8460f633-0d7e-4573-82ee-5366bcac1cfe","ios":"levelo://app?vid=8460f633-0d7e-4573-82ee-5366bcac1cfe"},"vehicle_type_id":"4","last_reported":1733422304,"current_range_meters":22000,"station_id":"ce4bh2h2rcd13ifvqdh0","pricing_plan_id":"cebpf4jnsgd1na2vs0mg"},{"bike_id":"c1567c9e-357e-4653-afe5-c0cf80536e2d","system_id":"levelo_inurba_marseille","lat":43.2903,"lon":5.38631,"is_reserved":false,"is_disabled":false,"rental_uris":{"android":"levelo://app?vid=c1567c9e-357e-4653-afe5-c0cf80536e2d","ios":"levelo://app?vid=c1567c9e-357e-4653-afe5-c0cf80536e2d"},"vehicle_type_id":"4","last_reported":1733422304,"current_range_meters":38000,"station_id":"ce4bh4p2rcd13ifvqe0g","pricing_plan_id":"cebpf4jnsgd1na2vs0mg"},{"bike_id":"f08ed983-2fb9-4097-bca6-eb6cce0aac5d","system_id":"levelo_inurba_marseille","lat":43.24806,"lon":5.37454,"is_reserved":false,"is_disabled":false,"rental_uris":{"android":"levelo://app?vid=f08ed983-2fb9-4097-bca6-eb6cce0aac5d","ios":"levelo://app?vid=f08ed983-2fb9-4097-bca6-eb6cce0aac5d"},"vehicle_type_id":"4","last_reported":1733422304,"current_range_meters":38800,"station_id":"ce4bhgh2rcd13ifvqfb0","pricing_plan_id":"cebpf4jnsgd1na2vs0mg"},{"bike_id":"02f7436d-399d-4c8b-8d6e-cfa2ecb5b7c5","system_id":"levelo_inurba_marseille","lat":43.29956,"lon":5.41314,"is_reserved":false,"is_disabled":false,"rental_uris":{"android":"levelo://app?vid=02f7436d-399d-4c8b-8d6e-cfa2ecb5b7c5","ios":"levelo://app?vid=02f7436d-399d-4c8b-8d6e-cfa2ecb5b7c5"},"vehicle_type_id":"4","last_reported":1733422304,"current_range_meters":7200,"station_id":"ce4bhp12rcd13ifvqh9g","pricing_plan_id":"cebpf4jnsgd1na2vs0mg"},{"bike_id":"946e45e3-84f9-43f2-a073-ff7796e0545d","system_id":"levelo_inurba_marseille","lat":43.27953,"lon":5.41034,"is_reserved":false,"is_disabled":false,"rental_uris":{"android":"levelo://app?vid=946e45e3-84f9-43f2-a073-ff7796e0545d","ios":"levelo://app?vid=946e45e3-84f9-43f2-a073-ff7796e0545d"},"vehicle_type_id":"4","last_reported":1733422304,"current_range_meters":30800,"station_id":"ce4bhnp2rcd13ifvqh0g","pricing_plan_id":"cebpf4jnsgd1na2vs0mg"},{"bike_id":"f67dfab3-abcc-4688-bfd7-4284bf8c7187","system_id":"levelo_inurba_marseille","lat":43.330201,"lon":5.390449,"is_reserved":false,"is_disabled":false,"rental_uris":{"android":"levelo://app?vid=f67dfab3-abcc-4688-bfd7-4284bf8c7187","ios":"levelo://app?vid=f67dfab3-abcc-4688-bfd7-4284bf8c7187"},"vehicle_type_id":"4","last_reported":1733422304,"current_range_meters":9200,"station_id":"ce4bhr92rcd13ifvqhrg","pricing_plan_id":"cebpf4jnsgd1na2vs0mg"},{"bike_id":"2d108636-ee51-419b-a587-b024937fb90d","system_id":"levelo_inurba_marseille","lat":43.2783,"lon":5.39195,"is_reserved":false,"is_disabled":true,"rental_uris":{"android":"levelo://app?vid=2d108636-ee51-419b-a587-b024937fb90d","ios":"levelo://app?vid=2d108636-ee51-419b-a587-b024937fb90d"},"vehicle_type_id":"4","last_reported":1733422304,"current_range_meters":0,"station_id":"ce4bhjp2rcd13ifvqga0","pricing_plan_id":"cebpf4jnsgd1na2vs0mg"},{"bike_id":"f5cd02dd-e630-4361-9687-b9bd181e95a1","system_id":"levelo_inurba_marseille","lat":43.26789,"lon":5.39406,"is_reserved":false,"is_disabled":true,"rental_uris":{"android":"levelo://app?vid=f5cd02dd-e630-4361-9687-b9bd181e95a1","ios":"levelo://app?vid=f5cd02dd-e630-4361-9687-b9bd181e95a1"},"vehicle_type_id":"4","last_reported":1733422304,"current_range_meters":0,"station_id":"ce4bhh12rcd13ifvqfg0","pricing_plan_id":"cebpf4jnsgd1na2vs0mg"},{"bike_id":"28b52837-d828-49e4-b4be-cfbac010c328","system_id":"levelo_inurba_marseille","lat":43.33725,"lon":5.39184,"is_reserved":false,"is_disabled":false,"rental_uris":{"android":"levelo://app?vid=28b52837-d828-49e4-b4be-cfbac010c328","ios":"levelo://app?vid=28b52837-d828-49e4-b4be-cfbac010c328"},"vehicle_type_id":"4","last_reported":1733422304,"current_range_meters":28800,"station_id":"ce4bhr92rcd13ifvqhsg","pricing_plan_id":"cebpf4jnsgd1na2vs0mg"},{"bike_id":"b3f478ac-3b05-4edf-bdbf-76399090f8e9","system_id":"levelo_inurba_marseille","lat":43.29994,"lon":5.37639,"is_reserved":false,"is_disabled":true,"rental_uris":{"android":"levelo://app?vid=b3f478ac-3b05-4edf-bdbf-76399090f8e9","ios":"levelo://app?vid=b3f478ac-3b05-4edf-bdbf-76399090f8e9"},"vehicle_type_id":"4","last_reported":1733422304,"current_range_meters":0,"station_id":"","pricing_plan_id":"cebpf4jnsgd1na2vs0mg"},{"bike_id":"ed06fa7e-1a50-454d-a900-6153e0b16c4a","system_id":"levelo_inurba_marseille","lat":43.30952,"lon":5.39019,"is_reserved":false,"is_disabled":false,"rental_uris":{"android":"levelo://app?vid=ed06fa7e-1a50-454d-a900-6153e0b16c4a","ios":"levelo://app?vid=ed06fa7e-1a50-454d-a900-6153e0b16c4a"},"vehicle_type_id":"4","last_reported":1733422304,"current_range_meters":4400,"station_id":"ce4bgup2rcd13ifvqco0","pricing_plan_id":"cebpf4jnsgd1na2vs0mg"},{"bike_id":"e4dd8afb-a6a4-4094-acb6-18ba1c5e5118","system_id":"levelo_inurba_marseille","lat":43.29567,"lon":5.39964,"is_reserved":false,"is_disabled":true,"rental_uris":{"android":"levelo://app?vid=e4dd8afb-a6a4-4094-acb6-18ba1c5e5118","ios":"levelo://app?vid=e4dd8afb-a6a4-4094-acb6-18ba1c5e5118"},"vehicle_type_id":"4","last_reported":1733422304,"current_range_meters":0,"station_id":"ce4bh312rcd13ifvqdj0","pricing_plan_id":"cebpf4jnsgd1na2vs0mg"},{"bike_id":"6a41e9d8-035a-4bf8-8d68-41af3a48766c","system_id":"levelo_inurba_marseille","lat":43.28423,"lon":5.34979,"is_reserved":false,"is_disabled":false,"rental_uris":{"android":"levelo://app?vid=6a41e9d8-035a-4bf8-8d68-41af3a48766c","ios":"levelo://app?vid=6a41e9d8-035a-4bf8-8d68-41af3a48766c"},"vehicle_type_id":"4","last_reported":1733422304,"current_range_meters":20400,"station_id":"ce4bhbh2rcd13ifvqepg","pricing_plan_id":"cebpf4jnsgd1na2vs0mg"},{"bike_id":"8059afc1-0629-463e-a3a7-b3dca13b3f7e","system_id":"levelo_inurba_marseille","lat":43.30416,"lon":5.41269,"is_reserved":false,"is_disabled":false,"rental_uris":{"android":"levelo://app?vid=8059afc1-0629-463e-a3a7-b3dca13b3f7e","ios":"levelo://app?vid=8059afc1-0629-463e-a3a7-b3dca13b3f7e"},"vehicle_type_id":"4","last_reported":1733422304,"current_range_meters":13600,"station_id":"ce4bhop2rcd13ifvqh8g","pricing_plan_id":"cebpf4jnsgd1na2vs0mg"},{"bike_id":"2109f1a8-c8ca-46a6-8215-f34a4061b76a","system_id":"levelo_inurba_marseille","lat":43.32291,"lon":5.38268,"is_reserved":false,"is_disabled":false,"rental_uris":{"android":"levelo://app?vid=2109f1a8-c8ca-46a6-8215-f34a4061b76a","ios":"levelo://app?vid=2109f1a8-c8ca-46a6-8215-f34a4061b76a"},"vehicle_type_id":"4","last_reported":1733422304,"current_range_meters":14800,"station_id":"ce4bhr12rcd13ifvqhqg","pricing_plan_id":"cebpf4jnsgd1na2vs0mg"},{"bike_id":"394aa883-7ab6-43a7-ae57-e99642a61507","system_id":"levelo_inurba_marseille","lat":43.29634,"lon":5.40593,"is_reserved":false,"is_disabled":false,"rental_uris":{"android":"levelo://app?vid=394aa883-7ab6-43a7-ae57-e99642a61507","ios":"levelo://app?vid=394aa883-7ab6-43a7-ae57-e99642a61507"},"vehicle_type_id":"4","last_reported":1733422304,"current_range_meters":36800,"station_id":"ce4bh0h2rcd13ifvqd60","pricing_plan_id":"cebpf4jnsgd1na2vs0mg"},{"bike_id":"c15a8f0f-8fb6-4988-b137-35b100e4d7ac","system_id":"levelo_inurba_marseille","lat":43.27833,"lon":5.39201,"is_reserved":false,"is_disabled":false,"rental_uris":{"android":"levelo://app?vid=c15a8f0f-8fb6-4988-b137-35b100e4d7ac","ios":"levelo://app?vid=c15a8f0f-8fb6-4988-b137-35b100e4d7ac"},"vehicle_type_id":"4","last_reported":1733422304,"current_range_meters":20000,"station_id":"ce4bhjp2rcd13ifvqga0","pricing_plan_id":"cebpf4jnsgd1na2vs0mg"},{"bike_id":"042a13ad-150b-48e9-9dd9-ba7a39880c39","system_id":"levelo_inurba_marseille","lat":43.27837,"lon":5.39201,"is_reserved":false,"is_disabled":false,"rental_uris":{"android":"levelo://app?vid=042a13ad-150b-48e9-9dd9-ba7a39880c39","ios":"levelo://app?vid=042a13ad-150b-48e9-9dd9-ba7a39880c39"},"vehicle_type_id":"4","last_reported":1733422304,"current_range_meters":32800,"station_id":"ce4bhjp2rcd13ifvqga0","pricing_plan_id":"cebpf4jnsgd1na2vs0mg"},{"bike_id":"92cc9f09-00d3-45cf-99f8-4b1213e9b197","system_id":"levelo_inurba_marseille","lat":43.2971,"lon":5.36612,"is_reserved":false,"is_disabled":false,"rental_uris":{"android":"levelo://app?vid=92cc9f09-00d3-45cf-99f8-4b1213e9b197","ios":"levelo://app?vid=92cc9f09-00d3-45cf-99f8-4b1213e9b197"},"vehicle_type_id":"4","last_reported":1733422304,"current_range_meters":27600,"station_id":"ce4bgn12rcd13ifvqbt0","pricing_plan_id":"cebpf4jnsgd1na2vs0mg"},{"bike_id":"c7937e55-70ee-4a20-b169-edc60cf12155","system_id":"levelo_inurba_marseille","lat":43.30803,"lon":5.43528,"is_reserved":false,"is_disabled":true,"rental_uris":{"android":"levelo://app?vid=c7937e55-70ee-4a20-b169-edc60cf12155","ios":"levelo://app?vid=c7937e55-70ee-4a20-b169-edc60cf12155"},"vehicle_type_id":"4","last_reported":1733422304,"current_range_meters":0,"station_id":"ce4bhph2rcd13ifvqheg","pricing_plan_id":"cebpf4jnsgd1na2vs0mg"},{"bike_id":"0d76dbf6-5e40-455b-a0e6-70fb0b70c5f9","system_id":"levelo_inurba_marseille","lat":43.3237,"lon":5.38873,"is_reserved":false,"is_disabled":true,"rental_uris":{"android":"levelo://app?vid=0d76dbf6-5e40-455b-a0e6-70fb0b70c5f9","ios":"levelo://app?vid=0d76dbf6-5e40-455b-a0e6-70fb0b70c5f9"},"vehicle_type_id":"4","last_reported":1733422304,"current_range_meters":0,"station_id":"ce4bhqp2rcd13ifvqhog","pricing_plan_id":"cebpf4jnsgd1na2vs0mg"},{"bike_id":"bb33fa0c-b703-4470-8119-8d67c160e4d2","system_id":"levelo_inurba_marseille","lat":43.25089,"lon":5.39519,"is_reserved":false,"is_disabled":false,"rental_uris":{"android":"levelo://app?vid=bb33fa0c-b703-4470-8119-8d67c160e4d2","ios":"levelo://app?vid=bb33fa0c-b703-4470-8119-8d67c160e4d2"},"vehicle_type_id":"4","last_reported":1733422304,"current_range_meters":6800,"station_id":"ce4bhm12rcd13ifvqgkg","pricing_plan_id":"cebpf4jnsgd1na2vs0mg"},{"bike_id":"2f3968e7-9336-4ee4-ba78-8e92c0a818cc","system_id":"levelo_inurba_marseille","lat":43.31322,"lon":5.36647,"is_reserved":false,"is_disabled":true,"rental_uris":{"android":"levelo://app?vid=2f3968e7-9336-4ee4-ba78-8e92c0a818cc","ios":"levelo://app?vid=2f3968e7-9336-4ee4-ba78-8e92c0a818cc"},"vehicle_type_id":"4","last_reported":1733422304,"current_range_meters":0,"station_id":"","pricing_plan_id":"cebpf4jnsgd1na2vs0mg"},{"bike_id":"47241d2d-0042-414f-aa94-6649cc70c148","system_id":"levelo_inurba_marseille","lat":43.29882,"lon":5.36414,"is_reserved":false,"is_disabled":false,"rental_uris":{"android":"levelo://app?vid=47241d2d-0042-414f-aa94-6649cc70c148","ios":"levelo://app?vid=47241d2d-0042-414f-aa94-6649cc70c148"},"vehicle_type_id":"4","last_reported":1733422304,"current_range_meters":22800,"station_id":"","pricing_plan_id":"cebpf4jnsgd1na2vs0mg"},{"bike_id":"9aded1fd-28b2-485b-aa1d-02cd137f431b","system_id":"levelo_inurba_marseille","lat":43.26503,"lon":5.39544,"is_reserved":false,"is_disabled":true,"rental_uris":{"android":"levelo://app?vid=9aded1fd-28b2-485b-aa1d-02cd137f431b","ios":"levelo://app?vid=9aded1fd-28b2-485b-aa1d-02cd137f431b"},"vehicle_type_id":"4","last_reported":1733422304,"current_range_meters":0,"station_id":"ce4bhi12rcd13ifvqfq0","pricing_plan_id":"cebpf4jnsgd1na2vs0mg"},{"bike_id":"f588c695-1ea8-471f-8d76-6f756a490006","system_id":"levelo_inurba_marseille","lat":43.23962,"lon":5.36627,"is_reserved":false,"is_disabled":false,"rental_uris":{"android":"levelo://app?vid=f588c695-1ea8-471f-8d76-6f756a490006","ios":"levelo://app?vid=f588c695-1ea8-471f-8d76-6f756a490006"},"vehicle_type_id":"4","last_reported":1733422304,"current_range_meters":6400,"station_id":"ce4bhi12rcd13ifvqfp0","pricing_plan_id":"cebpf4jnsgd1na2vs0mg"},{"bike_id":"8348733f-08ad-4e5a-89a8-23e70bf6e14a","system_id":"levelo_inurba_marseille","lat":43.26681,"lon":5.3827,"is_reserved":false,"is_disabled":false,"rental_uris":{"android":"levelo://app?vid=8348733f-08ad-4e5a-89a8-23e70bf6e14a","ios":"levelo://app?vid=8348733f-08ad-4e5a-89a8-23e70bf6e14a"},"vehicle_type_id":"4","last_reported":1733422304,"current_range_meters":19200,"station_id":"ce4bhg92rcd13ifvqf90","pricing_plan_id":"cebpf4jnsgd1na2vs0mg"},{"bike_id":"0a922ab3-bcdd-47fa-959f-d1d2b8cb4a55","system_id":"levelo_inurba_marseille","lat":43.24173,"lon":5.39721,"is_reserved":false,"is_disabled":false,"rental_uris":{"android":"levelo://app?vid=0a922ab3-bcdd-47fa-959f-d1d2b8cb4a55","ios":"levelo://app?vid=0a922ab3-bcdd-47fa-959f-d1d2b8cb4a55"},"vehicle_type_id":"4","last_reported":1733422304,"current_range_meters":13600,"station_id":"ce4bhn12rcd13ifvqgpg","pricing_plan_id":"cebpf4jnsgd1na2vs0mg"},{"bike_id":"18c465ad-16a0-4d72-a337-11a15929aab8","system_id":"levelo_inurba_marseille","lat":43.23956,"lon":5.36636,"is_reserved":false,"is_disabled":false,"rental_uris":{"android":"levelo://app?vid=18c465ad-16a0-4d72-a337-11a15929aab8","ios":"levelo://app?vid=18c465ad-16a0-4d72-a337-11a15929aab8"},"vehicle_type_id":"4","last_reported":1733422304,"current_range_meters":11600,"station_id":"ce4bhi12rcd13ifvqfp0","pricing_plan_id":"cebpf4jnsgd1na2vs0mg"},{"bike_id":"2f7b887c-1623-4de2-8868-e6f453f327e4","system_id":"levelo_inurba_marseille","lat":43.30357,"lon":5.41878,"is_reserved":false,"is_disabled":true,"rental_uris":{"android":"levelo://app?vid=2f7b887c-1623-4de2-8868-e6f453f327e4","ios":"levelo://app?vid=2f7b887c-1623-4de2-8868-e6f453f327e4"},"vehicle_type_id":"4","last_reported":1733422304,"current_range_meters":1200,"station_id":"ce4bhop2rcd13ifvqh7g","pricing_plan_id":"cebpf4jnsgd1na2vs0mg"},{"bike_id":"86c4b06d-f742-446f-b5ce-ecd59fb9b1ac","system_id":"levelo_inurba_marseille","lat":43.30096,"lon":5.39058,"is_reserved":false,"is_disabled":true,"rental_uris":{"android":"levelo://app?vid=86c4b06d-f742-446f-b5ce-ecd59fb9b1ac","ios":"levelo://app?vid=86c4b06d-f742-446f-b5ce-ecd59fb9b1ac"},"vehicle_type_id":"4","last_reported":1733422304,"current_range_meters":1200,"station_id":"ce4bh192rcd13ifvqdb0","pricing_plan_id":"cebpf4jnsgd1na2vs0mg"},{"bike_id":"da9cfd76-5796-4c48-8486-043fb1d4045d","system_id":"levelo_inurba_marseille","lat":43.27062,"lon":5.40271,"is_reserved":false,"is_disabled":false,"rental_uris":{"android":"levelo://app?vid=da9cfd76-5796-4c48-8486-043fb1d4045d","ios":"levelo://app?vid=da9cfd76-5796-4c48-8486-043fb1d4045d"},"vehicle_type_id":"4","last_reported":1733422304,"current_range_meters":38800,"station_id":"ce4bhk92rcd13ifvqgc0","pricing_plan_id":"cebpf4jnsgd1na2vs0mg"},{"bike_id":"b0025f03-f4b7-4e1f-b2ae-d738bfb01f75","system_id":"levelo_inurba_marseille","lat":43.31006,"lon":5.37907,"is_reserved":false,"is_disabled":true,"rental_uris":{"android":"levelo://app?vid=b0025f03-f4b7-4e1f-b2ae-d738bfb01f75","ios":"levelo://app?vid=b0025f03-f4b7-4e1f-b2ae-d738bfb01f75"},"vehicle_type_id":"4","last_reported":1733422304,"current_range_meters":36800,"station_id":"","pricing_plan_id":"cebpf4jnsgd1na2vs0mg"},{"bike_id":"9971e89c-a86d-48a4-96a6-3177d4eb273e","system_id":"levelo_inurba_marseille","lat":43.24057,"lon":5.37752,"is_reserved":false,"is_disabled":false,"rental_uris":{"android":"levelo://app?vid=9971e89c-a86d-48a4-96a6-3177d4eb273e","ios":"levelo://app?vid=9971e89c-a86d-48a4-96a6-3177d4eb273e"},"vehicle_type_id":"4","last_reported":1733422304,"current_range_meters":28800,"station_id":"ce4bhnp2rcd13ifvqgvg","pricing_plan_id":"cebpf4jnsgd1na2vs0mg"},{"bike_id":"b85bb37f-2197-498e-b358-747241fe43e5","system_id":"levelo_inurba_marseille","lat":43.28443,"lon":5.39173,"is_reserved":false,"is_disabled":false,"rental_uris":{"android":"levelo://app?vid=b85bb37f-2197-498e-b358-747241fe43e5","ios":"levelo://app?vid=b85bb37f-2197-498e-b358-747241fe43e5"},"vehicle_type_id":"4","last_reported":1733422304,"current_range_meters":38800,"station_id":"ce4bhoh2rcd13ifvqh5g","pricing_plan_id":"cebpf4jnsgd1na2vs0mg"},{"bike_id":"a80a808b-d83a-48b0-a87c-889d0a59a5e3","system_id":"levelo_inurba_marseille","lat":43.24386,"lon":5.37063,"is_reserved":false,"is_disabled":false,"rental_uris":{"android":"levelo://app?vid=a80a808b-d83a-48b0-a87c-889d0a59a5e3","ios":"levelo://app?vid=a80a808b-d83a-48b0-a87c-889d0a59a5e3"},"vehicle_type_id":"4","last_reported":1733422304,"current_range_meters":23200,"station_id":"ce4bhhh2rcd13ifvqfk0","pricing_plan_id":"cebpf4jnsgd1na2vs0mg"},{"bike_id":"d8d649c3-0610-443e-90bc-12270257974e","system_id":"levelo_inurba_marseille","lat":43.29877,"lon":5.38903,"is_reserved":false,"is_disabled":true,"rental_uris":{"android":"levelo://app?vid=d8d649c3-0610-443e-90bc-12270257974e","ios":"levelo://app?vid=d8d649c3-0610-443e-90bc-12270257974e"},"vehicle_type_id":"4","last_reported":1733422304,"current_range_meters":2000,"station_id":"ce4bh392rcd13ifvqdl0","pricing_plan_id":"cebpf4jnsgd1na2vs0mg"},{"bike_id":"f10c5e90-601b-4bd4-87e7-4cbb6a13a4fb","system_id":"levelo_inurba_marseille","lat":43.26123,"lon":5.39262,"is_reserved":false,"is_disabled":false,"rental_uris":{"android":"levelo://app?vid=f10c5e90-601b-4bd4-87e7-4cbb6a13a4fb","ios":"levelo://app?vid=f10c5e90-601b-4bd4-87e7-4cbb6a13a4fb"},"vehicle_type_id":"4","last_reported":1733422304,"current_range_meters":4800,"station_id":"","pricing_plan_id":"cebpf4jnsgd1na2vs0mg"},{"bike_id":"a3de5cf7-74f5-47e6-a00d-af0e63e27d62","system_id":"levelo_inurba_marseille","lat":43.28925,"lon":5.36638,"is_reserved":false,"is_disabled":false,"rental_uris":{"android":"levelo://app?vid=a3de5cf7-74f5-47e6-a00d-af0e63e27d62","ios":"levelo://app?vid=a3de5cf7-74f5-47e6-a00d-af0e63e27d62"},"vehicle_type_id":"4","last_reported":1733422304,"current_range_meters":36000,"station_id":"ce4bhap2rcd13ifvqek0","pricing_plan_id":"cebpf4jnsgd1na2vs0mg"},{"bike_id":"d1f8c815-16d1-4fc3-ad0e-ed7a579adc20","system_id":"levelo_inurba_marseille","lat":43.29476,"lon":5.38129,"is_reserved":false,"is_disabled":false,"rental_uris":{"android":"levelo://app?vid=d1f8c815-16d1-4fc3-ad0e-ed7a579adc20","ios":"levelo://app?vid=d1f8c815-16d1-4fc3-ad0e-ed7a579adc20"},"vehicle_type_id":"4","last_reported":1733422304,"current_range_meters":9200,"station_id":"","pricing_plan_id":"cebpf4jnsgd1na2vs0mg"},{"bike_id":"4a0c7b60-be0d-44f3-842d-04efa9122e26","system_id":"levelo_inurba_marseille","lat":43.302477,"lon":5.400625,"is_reserved":false,"is_disabled":false,"rental_uris":{"android":"levelo://app?vid=4a0c7b60-be0d-44f3-842d-04efa9122e26","ios":"levelo://app?vid=4a0c7b60-be0d-44f3-842d-04efa9122e26"},"vehicle_type_id":"4","last_reported":1733422304,"current_range_meters":16000,"station_id":"ce4bgvh2rcd13ifvqcs0","pricing_plan_id":"cebpf4jnsgd1na2vs0mg"},{"bike_id":"8b9c5d98-2679-4cd9-9592-4b1103679db6","system_id":"levelo_inurba_marseille","lat":43.30124,"lon":5.39866,"is_reserved":false,"is_disabled":false,"rental_uris":{"android":"levelo://app?vid=8b9c5d98-2679-4cd9-9592-4b1103679db6","ios":"levelo://app?vid=8b9c5d98-2679-4cd9-9592-4b1103679db6"},"vehicle_type_id":"4","last_reported":1733422304,"current_range_meters":7200,"station_id":"ce4bh0h2rcd13ifvqd40","pricing_plan_id":"cebpf4jnsgd1na2vs0mg"},{"bike_id":"e9f33ec6-71dd-4c01-81d1-548f83eda297","system_id":"levelo_inurba_marseille","lat":43.2466,"lon":5.38162,"is_reserved":false,"is_disabled":true,"rental_uris":{"android":"levelo://app?vid=e9f33ec6-71dd-4c01-81d1-548f83eda297","ios":"levelo://app?vid=e9f33ec6-71dd-4c01-81d1-548f83eda297"},"vehicle_type_id":"4","last_reported":1733422304,"current_range_meters":2000,"station_id":"ce4bhih2rcd13ifvqfr0","pricing_plan_id":"cebpf4jnsgd1na2vs0mg"},{"bike_id":"95ba6d96-cee7-4949-9bdf-475bd1d80967","system_id":"levelo_inurba_marseille","lat":43.31122,"lon":5.38828,"is_reserved":false,"is_disabled":false,"rental_uris":{"android":"levelo://app?vid=95ba6d96-cee7-4949-9bdf-475bd1d80967","ios":"levelo://app?vid=95ba6d96-cee7-4949-9bdf-475bd1d80967"},"vehicle_type_id":"4","last_reported":1733422304,"current_range_meters":38800,"station_id":"","pricing_plan_id":"cebpf4jnsgd1na2vs0mg"},{"bike_id":"25df6fa5-0e99-4ca3-b962-45e4d327f4cd","system_id":"levelo_inurba_marseille","lat":43.28616,"lon":5.35106,"is_reserved":false,"is_disabled":false,"rental_uris":{"android":"levelo://app?vid=25df6fa5-0e99-4ca3-b962-45e4d327f4cd","ios":"levelo://app?vid=25df6fa5-0e99-4ca3-b962-45e4d327f4cd"},"vehicle_type_id":"4","last_reported":1733422304,"current_range_meters":24400,"station_id":"ce4bhch2rcd13ifvqeug","pricing_plan_id":"cebpf4jnsgd1na2vs0mg"},{"bike_id":"6c39e82b-0eff-4099-8ad6-3f92a32db799","system_id":"levelo_inurba_marseille","lat":43.32252,"lon":5.39485,"is_reserved":false,"is_disabled":false,"rental_uris":{"android":"levelo://app?vid=6c39e82b-0eff-4099-8ad6-3f92a32db799","ios":"levelo://app?vid=6c39e82b-0eff-4099-8ad6-3f92a32db799"},"vehicle_type_id":"4","last_reported":1733422304,"current_range_meters":12800,"station_id":"","pricing_plan_id":"cebpf4jnsgd1na2vs0mg"},{"bike_id":"c0ecc308-ccc4-492f-bcda-d659d2cd5777","system_id":"levelo_inurba_marseille","lat":43.25108,"lon":5.40324,"is_reserved":false,"is_disabled":true,"rental_uris":{"android":"levelo://app?vid=c0ecc308-ccc4-492f-bcda-d659d2cd5777","ios":"levelo://app?vid=c0ecc308-ccc4-492f-bcda-d659d2cd5777"},"vehicle_type_id":"4","last_reported":1733422304,"current_range_meters":0,"station_id":"ce4bhlh2rcd13ifvqgig","pricing_plan_id":"cebpf4jnsgd1na2vs0mg"},{"bike_id":"f5bd5773-3df4-400a-9c89-e449e0b42a96","system_id":"levelo_inurba_marseille","lat":43.2481,"lon":5.3746,"is_reserved":false,"is_disabled":true,"rental_uris":{"android":"levelo://app?vid=f5bd5773-3df4-400a-9c89-e449e0b42a96","ios":"levelo://app?vid=f5bd5773-3df4-400a-9c89-e449e0b42a96"},"vehicle_type_id":"4","last_reported":1733422304,"current_range_meters":38800,"station_id":"ce4bhgh2rcd13ifvqfb0","pricing_plan_id":"cebpf4jnsgd1na2vs0mg"},{"bike_id":"cee1a977-f386-4ca7-b7f4-ecb23b8538de","system_id":"levelo_inurba_marseille","lat":43.28488,"lon":5.38424,"is_reserved":false,"is_disabled":true,"rental_uris":{"android":"levelo://app?vid=cee1a977-f386-4ca7-b7f4-ecb23b8538de","ios":"levelo://app?vid=cee1a977-f386-4ca7-b7f4-ecb23b8538de"},"vehicle_type_id":"4","last_reported":1733422304,"current_range_meters":37600,"station_id":"ce4bh512rcd13ifvqe3g","pricing_plan_id":"cebpf4jnsgd1na2vs0mg"},{"bike_id":"a4d3b324-e08a-49a2-ae58-8854d2d2da3b","system_id":"levelo_inurba_marseille","lat":43.31772,"lon":5.37442,"is_reserved":false,"is_disabled":false,"rental_uris":{"android":"levelo://app?vid=a4d3b324-e08a-49a2-ae58-8854d2d2da3b","ios":"levelo://app?vid=a4d3b324-e08a-49a2-ae58-8854d2d2da3b"},"vehicle_type_id":"4","last_reported":1733422304,"current_range_meters":36400,"station_id":"","pricing_plan_id":"cebpf4jnsgd1na2vs0mg"},{"bike_id":"cdfe6590-4984-4014-86c8-6dd70747c27a","system_id":"levelo_inurba_marseille","lat":43.29737,"lon":5.37434,"is_reserved":false,"is_disabled":true,"rental_uris":{"android":"levelo://app?vid=cdfe6590-4984-4014-86c8-6dd70747c27a","ios":"levelo://app?vid=cdfe6590-4984-4014-86c8-6dd70747c27a"},"vehicle_type_id":"4","last_reported":1733422304,"current_range_meters":0,"station_id":"","pricing_plan_id":"cebpf4jnsgd1na2vs0mg"},{"bike_id":"de519844-e0c0-4762-852f-e7923db2c209","system_id":"levelo_inurba_marseille","lat":43.28926,"lon":5.38395,"is_reserved":false,"is_disabled":false,"rental_uris":{"android":"levelo://app?vid=de519844-e0c0-4762-852f-e7923db2c209","ios":"levelo://app?vid=de519844-e0c0-4762-852f-e7923db2c209"},"vehicle_type_id":"4","last_reported":1733422304,"current_range_meters":26800,"station_id":"ce4bh612rcd13ifvqe6g","pricing_plan_id":"cebpf4jnsgd1na2vs0mg"},{"bike_id":"a0181206-4402-4eee-b282-307bc5035baf","system_id":"levelo_inurba_marseille","lat":43.27997,"lon":5.40008,"is_reserved":false,"is_disabled":false,"rental_uris":{"android":"levelo://app?vid=a0181206-4402-4eee-b282-307bc5035baf","ios":"levelo://app?vid=a0181206-4402-4eee-b282-307bc5035baf"},"vehicle_type_id":"4","last_reported":1733422304,"current_range_meters":800,"station_id":"ce4bho92rcd13ifvqh4g","pricing_plan_id":"cebpf4jnsgd1na2vs0mg"},{"bike_id":"23e79cd9-2557-4ec0-b1c7-ccb3c131243a","system_id":"levelo_inurba_marseille","lat":43.28042,"lon":5.36942,"is_reserved":false,"is_disabled":false,"rental_uris":{"android":"levelo://app?vid=23e79cd9-2557-4ec0-b1c7-ccb3c131243a","ios":"levelo://app?vid=23e79cd9-2557-4ec0-b1c7-ccb3c131243a"},"vehicle_type_id":"4","last_reported":1733422304,"current_range_meters":19200,"station_id":"ce4bha12rcd13ifvqef0","pricing_plan_id":"cebpf4jnsgd1na2vs0mg"},{"bike_id":"6fb00969-21f8-4503-a74e-e887bd6407a1","system_id":"levelo_inurba_marseille","lat":43.27491,"lon":5.42458,"is_reserved":false,"is_disabled":true,"rental_uris":{"android":"levelo://app?vid=6fb00969-21f8-4503-a74e-e887bd6407a1","ios":"levelo://app?vid=6fb00969-21f8-4503-a74e-e887bd6407a1"},"vehicle_type_id":"4","last_reported":1733422304,"current_range_meters":0,"station_id":"ce4bhn92rcd13ifvqgrg","pricing_plan_id":"cebpf4jnsgd1na2vs0mg"},{"bike_id":"987a5ab4-d60c-480c-94b6-7cab38975402","system_id":"levelo_inurba_marseille","lat":43.29748,"lon":5.37971,"is_reserved":false,"is_disabled":true,"rental_uris":{"android":"levelo://app?vid=987a5ab4-d60c-480c-94b6-7cab38975402","ios":"levelo://app?vid=987a5ab4-d60c-480c-94b6-7cab38975402"},"vehicle_type_id":"4","last_reported":1733422304,"current_range_meters":0,"station_id":"","pricing_plan_id":"cebpf4jnsgd1na2vs0mg"},{"bike_id":"2c4596ad-0ad9-4016-b92b-0093349de2b4","system_id":"levelo_inurba_marseille","lat":43.30755,"lon":5.38187,"is_reserved":false,"is_disabled":true,"rental_uris":{"android":"levelo://app?vid=2c4596ad-0ad9-4016-b92b-0093349de2b4","ios":"levelo://app?vid=2c4596ad-0ad9-4016-b92b-0093349de2b4"},"vehicle_type_id":"4","last_reported":1733422304,"current_range_meters":0,"station_id":"","pricing_plan_id":"cebpf4jnsgd1na2vs0mg"},{"bike_id":"e48f5008-9d86-4d3e-a482-6e6abeb29355","system_id":"levelo_inurba_marseille","lat":43.29524,"lon":5.39402,"is_reserved":false,"is_disabled":true,"rental_uris":{"android":"levelo://app?vid=e48f5008-9d86-4d3e-a482-6e6abeb29355","ios":"levelo://app?vid=e48f5008-9d86-4d3e-a482-6e6abeb29355"},"vehicle_type_id":"4","last_reported":1733422304,"current_range_meters":2800,"station_id":"ce4bh292rcd13ifvqdf0","pricing_plan_id":"cebpf4jnsgd1na2vs0mg"},{"bike_id":"b7ab8c01-033f-4395-8276-23c850ad3d02","system_id":"levelo_inurba_marseille","lat":43.30348,"lon":5.36626,"is_reserved":false,"is_disabled":true,"rental_uris":{"android":"levelo://app?vid=b7ab8c01-033f-4395-8276-23c850ad3d02","ios":"levelo://app?vid=b7ab8c01-033f-4395-8276-23c850ad3d02"},"vehicle_type_id":"4","last_reported":1733422304,"current_range_meters":0,"station_id":"","pricing_plan_id":"cebpf4jnsgd1na2vs0mg"},{"bike_id":"f4676a9b-685c-4e8f-a479-8e34f48f1df5","system_id":"levelo_inurba_marseille","lat":43.33715,"lon":5.39175,"is_reserved":false,"is_disabled":true,"rental_uris":{"android":"levelo://app?vid=f4676a9b-685c-4e8f-a479-8e34f48f1df5","ios":"levelo://app?vid=f4676a9b-685c-4e8f-a479-8e34f48f1df5"},"vehicle_type_id":"4","last_reported":1733422304,"current_range_meters":1600,"station_id":"ce4bhr92rcd13ifvqhsg","pricing_plan_id":"cebpf4jnsgd1na2vs0mg"},{"bike_id":"5068770d-709f-4fe9-a25e-3bdaaf3e71cc","system_id":"levelo_inurba_marseille","lat":43.25086,"lon":5.39521,"is_reserved":false,"is_disabled":false,"rental_uris":{"android":"levelo://app?vid=5068770d-709f-4fe9-a25e-3bdaaf3e71cc","ios":"levelo://app?vid=5068770d-709f-4fe9-a25e-3bdaaf3e71cc"},"vehicle_type_id":"4","last_reported":1733422304,"current_range_meters":3200,"station_id":"ce4bhm12rcd13ifvqgkg","pricing_plan_id":"cebpf4jnsgd1na2vs0mg"},{"bike_id":"460f2522-d2b5-4bd9-ae52-6c6720873619","system_id":"levelo_inurba_marseille","lat":43.29874,"lon":5.39726,"is_reserved":false,"is_disabled":false,"rental_uris":{"android":"levelo://app?vid=460f2522-d2b5-4bd9-ae52-6c6720873619","ios":"levelo://app?vid=460f2522-d2b5-4bd9-ae52-6c6720873619"},"vehicle_type_id":"4","last_reported":1733422304,"current_range_meters":37600,"station_id":"ce4bh0h2rcd13ifvqd50","pricing_plan_id":"cebpf4jnsgd1na2vs0mg"},{"bike_id":"01fc086f-11d0-4126-a5a7-f83f36005f81","system_id":"levelo_inurba_marseille","lat":43.31865,"lon":5.37325,"is_reserved":false,"is_disabled":false,"rental_uris":{"android":"levelo://app?vid=01fc086f-11d0-4126-a5a7-f83f36005f81","ios":"levelo://app?vid=01fc086f-11d0-4126-a5a7-f83f36005f81"},"vehicle_type_id":"4","last_reported":1733422304,"current_range_meters":36400,"station_id":"","pricing_plan_id":"cebpf4jnsgd1na2vs0mg"},{"bike_id":"64872aba-a956-424f-a2c4-31c05b3ba8dd","system_id":"levelo_inurba_marseille","lat":43.27208,"lon":5.39173,"is_reserved":false,"is_disabled":false,"rental_uris":{"android":"levelo://app?vid=64872aba-a956-424f-a2c4-31c05b3ba8dd","ios":"levelo://app?vid=64872aba-a956-424f-a2c4-31c05b3ba8dd"},"vehicle_type_id":"4","last_reported":1733422304,"current_range_meters":20400,"station_id":"ce4bhhp2rcd13ifvqfm0","pricing_plan_id":"cebpf4jnsgd1na2vs0mg"},{"bike_id":"d0fd18c1-3898-46e2-812b-d16b1dad312a","system_id":"levelo_inurba_marseille","lat":43.27881,"lon":5.38828,"is_reserved":false,"is_disabled":false,"rental_uris":{"android":"levelo://app?vid=d0fd18c1-3898-46e2-812b-d16b1dad312a","ios":"levelo://app?vid=d0fd18c1-3898-46e2-812b-d16b1dad312a"},"vehicle_type_id":"4","last_reported":1733422304,"current_range_meters":8800,"station_id":"","pricing_plan_id":"cebpf4jnsgd1na2vs0mg"},{"bike_id":"6cc6805f-c0ca-4585-bdf1-b5a0339762b0","system_id":"levelo_inurba_marseille","lat":43.29016,"lon":5.42798,"is_reserved":false,"is_disabled":true,"rental_uris":{"android":"levelo://app?vid=6cc6805f-c0ca-4585-bdf1-b5a0339762b0","ios":"levelo://app?vid=6cc6805f-c0ca-4585-bdf1-b5a0339762b0"},"vehicle_type_id":"4","last_reported":1733422304,"current_range_meters":0,"station_id":"","pricing_plan_id":"cebpf4jnsgd1na2vs0mg"},{"bike_id":"8d1c8b92-79bb-4181-b0d2-5e94db1a14d0","system_id":"levelo_inurba_marseille","lat":43.29972,"lon":5.3826,"is_reserved":false,"is_disabled":true,"rental_uris":{"android":"levelo://app?vid=8d1c8b92-79bb-4181-b0d2-5e94db1a14d0","ios":"levelo://app?vid=8d1c8b92-79bb-4181-b0d2-5e94db1a14d0"},"vehicle_type_id":"4","last_reported":1733422304,"current_range_meters":0,"station_id":"","pricing_plan_id":"cebpf4jnsgd1na2vs0mg"},{"bike_id":"66988d75-a9f0-423c-89be-11e06668ead3","system_id":"levelo_inurba_marseille","lat":43.26557,"lon":5.37287,"is_reserved":false,"is_disabled":true,"rental_uris":{"android":"levelo://app?vid=66988d75-a9f0-423c-89be-11e06668ead3","ios":"levelo://app?vid=66988d75-a9f0-423c-89be-11e06668ead3"},"vehicle_type_id":"4","last_reported":1733422304,"current_range_meters":0,"station_id":"ce4bhg12rcd13ifvqf70","pricing_plan_id":"cebpf4jnsgd1na2vs0mg"},{"bike_id":"5417bd35-5c1f-489d-aed4-fac161883e77","system_id":"levelo_inurba_marseille","lat":43.275529,"lon":5.416719,"is_reserved":false,"is_disabled":false,"rental_uris":{"android":"levelo://app?vid=5417bd35-5c1f-489d-aed4-fac161883e77","ios":"levelo://app?vid=5417bd35-5c1f-489d-aed4-fac161883e77"},"vehicle_type_id":"4","last_reported":1733422304,"current_range_meters":25600,"station_id":"","pricing_plan_id":"cebpf4jnsgd1na2vs0mg"},{"bike_id":"8ab000f4-66c5-4da1-9d83-bc0031fe7b24","system_id":"levelo_inurba_marseille","lat":43.28425,"lon":5.34974,"is_reserved":false,"is_disabled":false,"rental_uris":{"android":"levelo://app?vid=8ab000f4-66c5-4da1-9d83-bc0031fe7b24","ios":"levelo://app?vid=8ab000f4-66c5-4da1-9d83-bc0031fe7b24"},"vehicle_type_id":"4","last_reported":1733422304,"current_range_meters":23200,"station_id":"ce4bhbh2rcd13ifvqepg","pricing_plan_id":"cebpf4jnsgd1na2vs0mg"},{"bike_id":"f0ff5847-c9d6-43ba-a5d2-d418d2e550a4","system_id":"levelo_inurba_marseille","lat":43.30424,"lon":5.39756,"is_reserved":false,"is_disabled":false,"rental_uris":{"android":"levelo://app?vid=f0ff5847-c9d6-43ba-a5d2-d418d2e550a4","ios":"levelo://app?vid=f0ff5847-c9d6-43ba-a5d2-d418d2e550a4"},"vehicle_type_id":"4","last_reported":1733422304,"current_range_meters":32000,"station_id":"ce4bh092rcd13ifvqd20","pricing_plan_id":"cebpf4jnsgd1na2vs0mg"},{"bike_id":"bd97762a-c11b-4874-b403-203a52c032ea","system_id":"levelo_inurba_marseille","lat":43.25121,"lon":5.40316,"is_reserved":false,"is_disabled":false,"rental_uris":{"android":"levelo://app?vid=bd97762a-c11b-4874-b403-203a52c032ea","ios":"levelo://app?vid=bd97762a-c11b-4874-b403-203a52c032ea"},"vehicle_type_id":"4","last_reported":1733422304,"current_range_meters":9200,"station_id":"ce4bhlh2rcd13ifvqgig","pricing_plan_id":"cebpf4jnsgd1na2vs0mg"},{"bike_id":"7401184e-dcdc-4f69-89e9-1615045c1f8c","system_id":"levelo_inurba_marseille","lat":43.3003,"lon":5.3891,"is_reserved":false,"is_disabled":true,"rental_uris":{"android":"levelo://app?vid=7401184e-dcdc-4f69-89e9-1615045c1f8c","ios":"levelo://app?vid=7401184e-dcdc-4f69-89e9-1615045c1f8c"},"vehicle_type_id":"4","last_reported":1733422304,"current_range_meters":0,"station_id":"","pricing_plan_id":"cebpf4jnsgd1na2vs0mg"},{"bike_id":"d23226c8-5cf9-4254-88ef-963c4182145c","system_id":"levelo_inurba_marseille","lat":43.2846,"lon":5.35874,"is_reserved":false,"is_disabled":false,"rental_uris":{"android":"levelo://app?vid=d23226c8-5cf9-4254-88ef-963c4182145c","ios":"levelo://app?vid=d23226c8-5cf9-4254-88ef-963c4182145c"},"vehicle_type_id":"4","last_reported":1733422304,"current_range_meters":38800,"station_id":"ce4bhah2rcd13ifvqei0","pricing_plan_id":"cebpf4jnsgd1na2vs0mg"},{"bike_id":"61eba7be-3017-4d0b-9e6b-2f37e1534cb1","system_id":"levelo_inurba_marseille","lat":43.28368,"lon":5.38636,"is_reserved":false,"is_disabled":false,"rental_uris":{"android":"levelo://app?vid=61eba7be-3017-4d0b-9e6b-2f37e1534cb1","ios":"levelo://app?vid=61eba7be-3017-4d0b-9e6b-2f37e1534cb1"},"vehicle_type_id":"4","last_reported":1733422304,"current_range_meters":23200,"station_id":"ce4bh492rcd13ifvqdvg","pricing_plan_id":"cebpf4jnsgd1na2vs0mg"},{"bike_id":"dc08eabf-1b59-4004-8055-34faeb95ec28","system_id":"levelo_inurba_marseille","lat":43.25827,"lon":5.39427,"is_reserved":false,"is_disabled":true,"rental_uris":{"android":"levelo://app?vid=dc08eabf-1b59-4004-8055-34faeb95ec28","ios":"levelo://app?vid=dc08eabf-1b59-4004-8055-34faeb95ec28"},"vehicle_type_id":"4","last_reported":1733422304,"current_range_meters":0,"station_id":"ce4bhip2rcd13ifvqft0","pricing_plan_id":"cebpf4jnsgd1na2vs0mg"},{"bike_id":"e971bf9a-b1da-454f-8e40-b352d3e9a972","system_id":"levelo_inurba_marseille","lat":43.28928,"lon":5.36394,"is_reserved":false,"is_disabled":false,"rental_uris":{"android":"levelo://app?vid=e971bf9a-b1da-454f-8e40-b352d3e9a972","ios":"levelo://app?vid=e971bf9a-b1da-454f-8e40-b352d3e9a972"},"vehicle_type_id":"4","last_reported":1733422304,"current_range_meters":38800,"station_id":"ce4bhc92rcd13ifvqetg","pricing_plan_id":"cebpf4jnsgd1na2vs0mg"},{"bike_id":"7c65069b-dc3f-48d2-bc8a-00f5d50846e2","system_id":"levelo_inurba_marseille","lat":43.26216,"lon":5.3744,"is_reserved":false,"is_disabled":false,"rental_uris":{"android":"levelo://app?vid=7c65069b-dc3f-48d2-bc8a-00f5d50846e2","ios":"levelo://app?vid=7c65069b-dc3f-48d2-bc8a-00f5d50846e2"},"vehicle_type_id":"4","last_reported":1733422304,"current_range_meters":30400,"station_id":"ce4bhgp2rcd13ifvqfc0","pricing_plan_id":"cebpf4jnsgd1na2vs0mg"},{"bike_id":"7e138b6d-da12-4dd1-aa5c-731ba9e5976b","system_id":"levelo_inurba_marseille","lat":43.31681,"lon":5.37327,"is_reserved":false,"is_disabled":true,"rental_uris":{"android":"levelo://app?vid=7e138b6d-da12-4dd1-aa5c-731ba9e5976b","ios":"levelo://app?vid=7e138b6d-da12-4dd1-aa5c-731ba9e5976b"},"vehicle_type_id":"4","last_reported":1733422304,"current_range_meters":400,"station_id":"","pricing_plan_id":"cebpf4jnsgd1na2vs0mg"},{"bike_id":"67380a47-2570-4203-b7a7-09fa0beb0db2","system_id":"levelo_inurba_marseille","lat":43.29574,"lon":5.39965,"is_reserved":false,"is_disabled":false,"rental_uris":{"android":"levelo://app?vid=67380a47-2570-4203-b7a7-09fa0beb0db2","ios":"levelo://app?vid=67380a47-2570-4203-b7a7-09fa0beb0db2"},"vehicle_type_id":"4","last_reported":1733422304,"current_range_meters":6400,"station_id":"ce4bh312rcd13ifvqdj0","pricing_plan_id":"cebpf4jnsgd1na2vs0mg"},{"bike_id":"97caf237-85e4-434f-9ad0-53e6794457f3","system_id":"levelo_inurba_marseille","lat":43.23184,"lon":5.39998,"is_reserved":false,"is_disabled":true,"rental_uris":{"android":"levelo://app?vid=97caf237-85e4-434f-9ad0-53e6794457f3","ios":"levelo://app?vid=97caf237-85e4-434f-9ad0-53e6794457f3"},"vehicle_type_id":"4","last_reported":1733422304,"current_range_meters":0,"station_id":"ce4bhn12rcd13ifvqgqg","pricing_plan_id":"cebpf4jnsgd1na2vs0mg"},{"bike_id":"d59a407a-9ea4-4470-aab2-8435eec23b51","system_id":"levelo_inurba_marseille","lat":43.25826,"lon":5.39442,"is_reserved":false,"is_disabled":true,"rental_uris":{"android":"levelo://app?vid=d59a407a-9ea4-4470-aab2-8435eec23b51","ios":"levelo://app?vid=d59a407a-9ea4-4470-aab2-8435eec23b51"},"vehicle_type_id":"4","last_reported":1733422304,"current_range_meters":400,"station_id":"ce4bhip2rcd13ifvqft0","pricing_plan_id":"cebpf4jnsgd1na2vs0mg"},{"bike_id":"d588e9c4-6f19-4123-ba9c-078c38d855a8","system_id":"levelo_inurba_marseille","lat":43.29526,"lon":5.39034,"is_reserved":false,"is_disabled":false,"rental_uris":{"android":"levelo://app?vid=d588e9c4-6f19-4123-ba9c-078c38d855a8","ios":"levelo://app?vid=d588e9c4-6f19-4123-ba9c-078c38d855a8"},"vehicle_type_id":"4","last_reported":1733422304,"current_range_meters":38800,"station_id":"ce4bh3p2rcd13ifvqdp0","pricing_plan_id":"cebpf4jnsgd1na2vs0mg"},{"bike_id":"9c77a68d-2e99-44e9-b903-950fb6644d35","system_id":"levelo_inurba_marseille","lat":43.25265,"lon":5.39465,"is_reserved":false,"is_disabled":true,"rental_uris":{"android":"levelo://app?vid=9c77a68d-2e99-44e9-b903-950fb6644d35","ios":"levelo://app?vid=9c77a68d-2e99-44e9-b903-950fb6644d35"},"vehicle_type_id":"4","last_reported":1733422304,"current_range_meters":0,"station_id":"","pricing_plan_id":"cebpf4jnsgd1na2vs0mg"},{"bike_id":"658c5f41-35ef-4ef8-9cb0-d768e52e8f71","system_id":"levelo_inurba_marseille","lat":43.30353,"lon":5.41874,"is_reserved":false,"is_disabled":false,"rental_uris":{"android":"levelo://app?vid=658c5f41-35ef-4ef8-9cb0-d768e52e8f71","ios":"levelo://app?vid=658c5f41-35ef-4ef8-9cb0-d768e52e8f71"},"vehicle_type_id":"4","last_reported":1733422304,"current_range_meters":9600,"station_id":"ce4bhop2rcd13ifvqh7g","pricing_plan_id":"cebpf4jnsgd1na2vs0mg"},{"bike_id":"e04227b7-ced6-4250-ae54-f72d289db29a","system_id":"levelo_inurba_marseille","lat":43.26192,"lon":5.37445,"is_reserved":false,"is_disabled":false,"rental_uris":{"android":"levelo://app?vid=e04227b7-ced6-4250-ae54-f72d289db29a","ios":"levelo://app?vid=e04227b7-ced6-4250-ae54-f72d289db29a"},"vehicle_type_id":"4","last_reported":1733422304,"current_range_meters":16400,"station_id":"ce4bhgp2rcd13ifvqfc0","pricing_plan_id":"cebpf4jnsgd1na2vs0mg"},{"bike_id":"c48c4aa1-d2cd-4216-bf12-843d87bbb5f6","system_id":"levelo_inurba_marseille","lat":43.28405,"lon":5.37525,"is_reserved":false,"is_disabled":false,"rental_uris":{"android":"levelo://app?vid=c48c4aa1-d2cd-4216-bf12-843d87bbb5f6","ios":"levelo://app?vid=c48c4aa1-d2cd-4216-bf12-843d87bbb5f6"},"vehicle_type_id":"4","last_reported":1733422304,"current_range_meters":7200,"station_id":"ce4bh412rcd13ifvqds0","pricing_plan_id":"cebpf4jnsgd1na2vs0mg"},{"bike_id":"d0c1876a-a4f3-4d77-a856-9a68b657c668","system_id":"levelo_inurba_marseille","lat":43.24065,"lon":5.37759,"is_reserved":false,"is_disabled":false,"rental_uris":{"android":"levelo://app?vid=d0c1876a-a4f3-4d77-a856-9a68b657c668","ios":"levelo://app?vid=d0c1876a-a4f3-4d77-a856-9a68b657c668"},"vehicle_type_id":"4","last_reported":1733422304,"current_range_meters":31200,"station_id":"ce4bhnp2rcd13ifvqgvg","pricing_plan_id":"cebpf4jnsgd1na2vs0mg"},{"bike_id":"83985555-c848-4b28-808f-8a7e7cf8519e","system_id":"levelo_inurba_marseille","lat":43.28115,"lon":5.43955,"is_reserved":false,"is_disabled":true,"rental_uris":{"android":"levelo://app?vid=83985555-c848-4b28-808f-8a7e7cf8519e","ios":"levelo://app?vid=83985555-c848-4b28-808f-8a7e7cf8519e"},"vehicle_type_id":"4","last_reported":1733422304,"current_range_meters":0,"station_id":"","pricing_plan_id":"cebpf4jnsgd1na2vs0mg"},{"bike_id":"76f22b2b-4267-4978-afb4-a70105660a0f","system_id":"levelo_inurba_marseille","lat":43.31226,"lon":5.36848,"is_reserved":false,"is_disabled":true,"rental_uris":{"android":"levelo://app?vid=76f22b2b-4267-4978-afb4-a70105660a0f","ios":"levelo://app?vid=76f22b2b-4267-4978-afb4-a70105660a0f"},"vehicle_type_id":"4","last_reported":1733422304,"current_range_meters":0,"station_id":"ce4bgl92rcd13ifvqbq0","pricing_plan_id":"cebpf4jnsgd1na2vs0mg"},{"bike_id":"01afb4bc-870a-4bb9-b0a6-be7ee7b649f2","system_id":"levelo_inurba_marseille","lat":43.2718,"lon":5.40985,"is_reserved":false,"is_disabled":true,"rental_uris":{"android":"levelo://app?vid=01afb4bc-870a-4bb9-b0a6-be7ee7b649f2","ios":"levelo://app?vid=01afb4bc-870a-4bb9-b0a6-be7ee7b649f2"},"vehicle_type_id":"4","last_reported":1733422304,"current_range_meters":1200,"station_id":"ce4bhl12rcd13ifvqgf0","pricing_plan_id":"cebpf4jnsgd1na2vs0mg"},{"bike_id":"903ec8f1-f4c3-441f-a117-ff7454fcb959","system_id":"levelo_inurba_marseille","lat":43.29478,"lon":5.39404,"is_reserved":false,"is_disabled":true,"rental_uris":{"android":"levelo://app?vid=903ec8f1-f4c3-441f-a117-ff7454fcb959","ios":"levelo://app?vid=903ec8f1-f4c3-441f-a117-ff7454fcb959"},"vehicle_type_id":"4","last_reported":1733422304,"current_range_meters":0,"station_id":"ce4bh292rcd13ifvqdf0","pricing_plan_id":"cebpf4jnsgd1na2vs0mg"},{"bike_id":"77bf4ffa-4252-402b-a9eb-e9bade8ef967","system_id":"levelo_inurba_marseille","lat":43.299316,"lon":5.397187,"is_reserved":false,"is_disabled":false,"rental_uris":{"android":"levelo://app?vid=77bf4ffa-4252-402b-a9eb-e9bade8ef967","ios":"levelo://app?vid=77bf4ffa-4252-402b-a9eb-e9bade8ef967"},"vehicle_type_id":"4","last_reported":1733422304,"current_range_meters":26800,"station_id":"ce4bh0h2rcd13ifvqd50","pricing_plan_id":"cebpf4jnsgd1na2vs0mg"},{"bike_id":"069a31de-4318-4b5b-b283-d2d3eac0e9fa","system_id":"levelo_inurba_marseille","lat":43.31327,"lon":5.39679,"is_reserved":false,"is_disabled":false,"rental_uris":{"android":"levelo://app?vid=069a31de-4318-4b5b-b283-d2d3eac0e9fa","ios":"levelo://app?vid=069a31de-4318-4b5b-b283-d2d3eac0e9fa"},"vehicle_type_id":"4","last_reported":1733422304,"current_range_meters":8000,"station_id":"ce4bgvp2rcd13ifvqcu0","pricing_plan_id":"cebpf4jnsgd1na2vs0mg"},{"bike_id":"4a8e21e6-ec65-4655-92a4-dfff45da23c1","system_id":"levelo_inurba_marseille","lat":43.25505,"lon":5.37655,"is_reserved":false,"is_disabled":false,"rental_uris":{"android":"levelo://app?vid=4a8e21e6-ec65-4655-92a4-dfff45da23c1","ios":"levelo://app?vid=4a8e21e6-ec65-4655-92a4-dfff45da23c1"},"vehicle_type_id":"4","last_reported":1733422304,"current_range_meters":38800,"station_id":"ce4bhh12rcd13ifvqff0","pricing_plan_id":"cebpf4jnsgd1na2vs0mg"},{"bike_id":"d1018a63-e944-47fd-a759-0763e613d787","system_id":"levelo_inurba_marseille","lat":43.29963,"lon":5.38494,"is_reserved":false,"is_disabled":false,"rental_uris":{"android":"levelo://app?vid=d1018a63-e944-47fd-a759-0763e613d787","ios":"levelo://app?vid=d1018a63-e944-47fd-a759-0763e613d787"},"vehicle_type_id":"4","last_reported":1733422304,"current_range_meters":4400,"station_id":"ce4bgj92rcd13ifvqbd0","pricing_plan_id":"cebpf4jnsgd1na2vs0mg"},{"bike_id":"6ab515cf-0c36-470a-9dcf-74ce73ab72f2","system_id":"levelo_inurba_marseille","lat":43.28439,"lon":5.39191,"is_reserved":false,"is_disabled":false,"rental_uris":{"android":"levelo://app?vid=6ab515cf-0c36-470a-9dcf-74ce73ab72f2","ios":"levelo://app?vid=6ab515cf-0c36-470a-9dcf-74ce73ab72f2"},"vehicle_type_id":"4","last_reported":1733422304,"current_range_meters":38800,"station_id":"ce4bhoh2rcd13ifvqh5g","pricing_plan_id":"cebpf4jnsgd1na2vs0mg"},{"bike_id":"020719d4-c29b-4e35-be4b-81ca932ddaa9","system_id":"levelo_inurba_marseille","lat":43.30244,"lon":5.40063,"is_reserved":false,"is_disabled":true,"rental_uris":{"android":"levelo://app?vid=020719d4-c29b-4e35-be4b-81ca932ddaa9","ios":"levelo://app?vid=020719d4-c29b-4e35-be4b-81ca932ddaa9"},"vehicle_type_id":"4","last_reported":1733422304,"current_range_meters":30000,"station_id":"ce4bgvh2rcd13ifvqcs0","pricing_plan_id":"cebpf4jnsgd1na2vs0mg"},{"bike_id":"dfccaca2-b9dc-44fa-92a4-754508254452","system_id":"levelo_inurba_marseille","lat":43.26677,"lon":5.382664,"is_reserved":false,"is_disabled":false,"rental_uris":{"android":"levelo://app?vid=dfccaca2-b9dc-44fa-92a4-754508254452","ios":"levelo://app?vid=dfccaca2-b9dc-44fa-92a4-754508254452"},"vehicle_type_id":"4","last_reported":1733422304,"current_range_meters":37600,"station_id":"ce4bhg92rcd13ifvqf90","pricing_plan_id":"cebpf4jnsgd1na2vs0mg"},{"bike_id":"a8264fb2-dad4-4c52-9230-cf80b47302d6","system_id":"levelo_inurba_marseille","lat":43.31996,"lon":5.38147,"is_reserved":false,"is_disabled":true,"rental_uris":{"android":"levelo://app?vid=a8264fb2-dad4-4c52-9230-cf80b47302d6","ios":"levelo://app?vid=a8264fb2-dad4-4c52-9230-cf80b47302d6"},"vehicle_type_id":"4","last_reported":1733422304,"current_range_meters":16800,"station_id":"ce4bhr12rcd13ifvqhpg","pricing_plan_id":"cebpf4jnsgd1na2vs0mg"},{"bike_id":"5edf82fa-e9d0-4d1f-98f1-37c98092771a","system_id":"levelo_inurba_marseille","lat":43.23209,"lon":5.35551,"is_reserved":false,"is_disabled":false,"rental_uris":{"android":"levelo://app?vid=5edf82fa-e9d0-4d1f-98f1-37c98092771a","ios":"levelo://app?vid=5edf82fa-e9d0-4d1f-98f1-37c98092771a"},"vehicle_type_id":"4","last_reported":1733422304,"current_range_meters":38800,"station_id":"ce4bhu92rcd13ifvqi70","pricing_plan_id":"cebpf4jnsgd1na2vs0mg"},{"bike_id":"48f0f46a-d93c-4d8d-9d4e-bacc7cb94894","system_id":"levelo_inurba_marseille","lat":43.33017,"lon":5.3904,"is_reserved":false,"is_disabled":false,"rental_uris":{"android":"levelo://app?vid=48f0f46a-d93c-4d8d-9d4e-bacc7cb94894","ios":"levelo://app?vid=48f0f46a-d93c-4d8d-9d4e-bacc7cb94894"},"vehicle_type_id":"4","last_reported":1733422304,"current_range_meters":38800,"station_id":"ce4bhr92rcd13ifvqhrg","pricing_plan_id":"cebpf4jnsgd1na2vs0mg"},{"bike_id":"8f753f0a-2f10-4092-a331-86096a8eda7e","system_id":"levelo_inurba_marseille","lat":43.25123,"lon":5.40318,"is_reserved":false,"is_disabled":true,"rental_uris":{"android":"levelo://app?vid=8f753f0a-2f10-4092-a331-86096a8eda7e","ios":"levelo://app?vid=8f753f0a-2f10-4092-a331-86096a8eda7e"},"vehicle_type_id":"4","last_reported":1733422304,"current_range_meters":0,"station_id":"ce4bhlh2rcd13ifvqgig","pricing_plan_id":"cebpf4jnsgd1na2vs0mg"},{"bike_id":"41346609-e441-453a-b44b-4e7dd7d81ac6","system_id":"levelo_inurba_marseille","lat":43.26552,"lon":5.3728,"is_reserved":false,"is_disabled":false,"rental_uris":{"android":"levelo://app?vid=41346609-e441-453a-b44b-4e7dd7d81ac6","ios":"levelo://app?vid=41346609-e441-453a-b44b-4e7dd7d81ac6"},"vehicle_type_id":"4","last_reported":1733422304,"current_range_meters":22000,"station_id":"ce4bhg12rcd13ifvqf70","pricing_plan_id":"cebpf4jnsgd1na2vs0mg"},{"bike_id":"506c09f4-6c9b-4fb3-996c-4c7f86dd75a8","system_id":"levelo_inurba_marseille","lat":43.25495,"lon":5.37646,"is_reserved":false,"is_disabled":true,"rental_uris":{"android":"levelo://app?vid=506c09f4-6c9b-4fb3-996c-4c7f86dd75a8","ios":"levelo://app?vid=506c09f4-6c9b-4fb3-996c-4c7f86dd75a8"},"vehicle_type_id":"4","last_reported":1733422304,"current_range_meters":0,"station_id":"ce4bhh12rcd13ifvqff0","pricing_plan_id":"cebpf4jnsgd1na2vs0mg"},{"bike_id":"f6710090-c0ab-46ae-af55-684904d7653b","system_id":"levelo_inurba_marseille","lat":43.29265,"lon":5.38429,"is_reserved":false,"is_disabled":false,"rental_uris":{"android":"levelo://app?vid=f6710090-c0ab-46ae-af55-684904d7653b","ios":"levelo://app?vid=f6710090-c0ab-46ae-af55-684904d7653b"},"vehicle_type_id":"4","last_reported":1733422304,"current_range_meters":22400,"station_id":"ce4bh692rcd13ifvqea0","pricing_plan_id":"cebpf4jnsgd1na2vs0mg"},{"bike_id":"9202c63e-372c-4469-a5c1-8e35757d1940","system_id":"levelo_inurba_marseille","lat":43.30053,"lon":5.38832,"is_reserved":false,"is_disabled":true,"rental_uris":{"android":"levelo://app?vid=9202c63e-372c-4469-a5c1-8e35757d1940","ios":"levelo://app?vid=9202c63e-372c-4469-a5c1-8e35757d1940"},"vehicle_type_id":"4","last_reported":1733422304,"current_range_meters":0,"station_id":"","pricing_plan_id":"cebpf4jnsgd1na2vs0mg"},{"bike_id":"4d75ea9c-71c5-44e7-a3ed-dd13a7651159","system_id":"levelo_inurba_marseille","lat":43.30796,"lon":5.43527,"is_reserved":false,"is_disabled":false,"rental_uris":{"android":"levelo://app?vid=4d75ea9c-71c5-44e7-a3ed-dd13a7651159","ios":"levelo://app?vid=4d75ea9c-71c5-44e7-a3ed-dd13a7651159"},"vehicle_type_id":"4","last_reported":1733422304,"current_range_meters":26800,"station_id":"ce4bhph2rcd13ifvqheg","pricing_plan_id":"cebpf4jnsgd1na2vs0mg"},{"bike_id":"1d1e223d-f3f8-4945-8923-f4bdebc5ab9c","system_id":"levelo_inurba_marseille","lat":43.32074,"lon":5.41557,"is_reserved":false,"is_disabled":true,"rental_uris":{"android":"levelo://app?vid=1d1e223d-f3f8-4945-8923-f4bdebc5ab9c","ios":"levelo://app?vid=1d1e223d-f3f8-4945-8923-f4bdebc5ab9c"},"vehicle_type_id":"4","last_reported":1733422304,"current_range_meters":38800,"station_id":"ce4bhq92rcd13ifvqhkg","pricing_plan_id":"cebpf4jnsgd1na2vs0mg"},{"bike_id":"489a671c-578c-4db4-8057-054da74d5b50","system_id":"levelo_inurba_marseille","lat":43.32334,"lon":5.40624,"is_reserved":false,"is_disabled":false,"rental_uris":{"android":"levelo://app?vid=489a671c-578c-4db4-8057-054da74d5b50","ios":"levelo://app?vid=489a671c-578c-4db4-8057-054da74d5b50"},"vehicle_type_id":"4","last_reported":1733422304,"current_range_meters":38400,"station_id":"ce4bhq92rcd13ifvqhjg","pricing_plan_id":"cebpf4jnsgd1na2vs0mg"},{"bike_id":"1ffdb3d4-8a73-4008-b275-0bcccdd92527","system_id":"levelo_inurba_marseille","lat":43.27617,"lon":5.3611,"is_reserved":false,"is_disabled":false,"rental_uris":{"android":"levelo://app?vid=1ffdb3d4-8a73-4008-b275-0bcccdd92527","ios":"levelo://app?vid=1ffdb3d4-8a73-4008-b275-0bcccdd92527"},"vehicle_type_id":"4","last_reported":1733422304,"current_range_meters":36800,"station_id":"ce4bgj92rcd13ifvqbe0","pricing_plan_id":"cebpf4jnsgd1na2vs0mg"},{"bike_id":"0deb7b46-3bee-4382-87b1-3984fb62457f","system_id":"levelo_inurba_marseille","lat":43.28741,"lon":5.38918,"is_reserved":false,"is_disabled":true,"rental_uris":{"android":"levelo://app?vid=0deb7b46-3bee-4382-87b1-3984fb62457f","ios":"levelo://app?vid=0deb7b46-3bee-4382-87b1-3984fb62457f"},"vehicle_type_id":"4","last_reported":1733422304,"current_range_meters":36800,"station_id":"","pricing_plan_id":"cebpf4jnsgd1na2vs0mg"},{"bike_id":"cf3e6ea0-09ff-406c-b357-28a6a6117f94","system_id":"levelo_inurba_marseille","lat":43.22935,"lon":5.35381,"is_reserved":false,"is_disabled":false,"rental_uris":{"android":"levelo://app?vid=cf3e6ea0-09ff-406c-b357-28a6a6117f94","ios":"levelo://app?vid=cf3e6ea0-09ff-406c-b357-28a6a6117f94"},"vehicle_type_id":"4","last_reported":1733422304,"current_range_meters":38800,"station_id":"cpo3532slgdg3j2ikp40","pricing_plan_id":"cebpf4jnsgd1na2vs0mg"},{"bike_id":"a5b89332-1490-449c-b9ff-fb6a908ce1ac","system_id":"levelo_inurba_marseille","lat":43.29618,"lon":5.37165,"is_reserved":false,"is_disabled":false,"rental_uris":{"android":"levelo://app?vid=a5b89332-1490-449c-b9ff-fb6a908ce1ac","ios":"levelo://app?vid=a5b89332-1490-449c-b9ff-fb6a908ce1ac"},"vehicle_type_id":"4","last_reported":1733422304,"current_range_meters":16000,"station_id":"ce4bgnh2rcd13ifvqc0g","pricing_plan_id":"cebpf4jnsgd1na2vs0mg"},{"bike_id":"18f6c10f-03d5-4ccf-9646-d725ceb381ae","system_id":"levelo_inurba_marseille","lat":43.31329,"lon":5.39691,"is_reserved":false,"is_disabled":false,"rental_uris":{"android":"levelo://app?vid=18f6c10f-03d5-4ccf-9646-d725ceb381ae","ios":"levelo://app?vid=18f6c10f-03d5-4ccf-9646-d725ceb381ae"},"vehicle_type_id":"4","last_reported":1733422304,"current_range_meters":16000,"station_id":"ce4bgvp2rcd13ifvqcu0","pricing_plan_id":"cebpf4jnsgd1na2vs0mg"},{"bike_id":"719e509a-25e4-4b1b-9830-f708d85d7593","system_id":"levelo_inurba_marseille","lat":43.29404,"lon":5.37451,"is_reserved":false,"is_disabled":true,"rental_uris":{"android":"levelo://app?vid=719e509a-25e4-4b1b-9830-f708d85d7593","ios":"levelo://app?vid=719e509a-25e4-4b1b-9830-f708d85d7593"},"vehicle_type_id":"4","last_reported":1733422304,"current_range_meters":0,"station_id":"","pricing_plan_id":"cebpf4jnsgd1na2vs0mg"},{"bike_id":"162aa6ef-3fd9-4c6d-b68d-25afcd8b5816","system_id":"levelo_inurba_marseille","lat":43.29438,"lon":5.39747,"is_reserved":false,"is_disabled":false,"rental_uris":{"android":"levelo://app?vid=162aa6ef-3fd9-4c6d-b68d-25afcd8b5816","ios":"levelo://app?vid=162aa6ef-3fd9-4c6d-b68d-25afcd8b5816"},"vehicle_type_id":"4","last_reported":1733422304,"current_range_meters":31200,"station_id":"ce4bh3h2rcd13ifvqdo0","pricing_plan_id":"cebpf4jnsgd1na2vs0mg"},{"bike_id":"78aaaf08-4963-46a8-bef4-72dac4063955","system_id":"levelo_inurba_marseille","lat":43.29864,"lon":5.39726,"is_reserved":false,"is_disabled":false,"rental_uris":{"android":"levelo://app?vid=78aaaf08-4963-46a8-bef4-72dac4063955","ios":"levelo://app?vid=78aaaf08-4963-46a8-bef4-72dac4063955"},"vehicle_type_id":"4","last_reported":1733422304,"current_range_meters":10000,"station_id":"ce4bh0h2rcd13ifvqd50","pricing_plan_id":"cebpf4jnsgd1na2vs0mg"},{"bike_id":"5dcf808c-6709-434c-991e-442ddb976190","system_id":"levelo_inurba_marseille","lat":43.2621,"lon":5.37441,"is_reserved":false,"is_disabled":false,"rental_uris":{"android":"levelo://app?vid=5dcf808c-6709-434c-991e-442ddb976190","ios":"levelo://app?vid=5dcf808c-6709-434c-991e-442ddb976190"},"vehicle_type_id":"4","last_reported":1733422304,"current_range_meters":26000,"station_id":"ce4bhgp2rcd13ifvqfc0","pricing_plan_id":"cebpf4jnsgd1na2vs0mg"},{"bike_id":"66af0bfc-75bc-4d87-8a60-f6e74a6be5ce","system_id":"levelo_inurba_marseille","lat":43.29372,"lon":5.3783,"is_reserved":false,"is_disabled":true,"rental_uris":{"android":"levelo://app?vid=66af0bfc-75bc-4d87-8a60-f6e74a6be5ce","ios":"levelo://app?vid=66af0bfc-75bc-4d87-8a60-f6e74a6be5ce"},"vehicle_type_id":"4","last_reported":1733422304,"current_range_meters":1200,"station_id":"ce4bgjh2rcd13ifvqbf0","pricing_plan_id":"cebpf4jnsgd1na2vs0mg"},{"bike_id":"3eac95d3-b5a4-4bbd-8508-0debbfb4ff6c","system_id":"levelo_inurba_marseille","lat":43.28616,"lon":5.35102,"is_reserved":false,"is_disabled":false,"rental_uris":{"android":"levelo://app?vid=3eac95d3-b5a4-4bbd-8508-0debbfb4ff6c","ios":"levelo://app?vid=3eac95d3-b5a4-4bbd-8508-0debbfb4ff6c"},"vehicle_type_id":"4","last_reported":1733422304,"current_range_meters":38800,"station_id":"ce4bhch2rcd13ifvqeug","pricing_plan_id":"cebpf4jnsgd1na2vs0mg"},{"bike_id":"3f15be9e-8c03-487c-83dc-5eb189cc4f0c","system_id":"levelo_inurba_marseille","lat":43.30886,"lon":5.37185,"is_reserved":false,"is_disabled":false,"rental_uris":{"android":"levelo://app?vid=3f15be9e-8c03-487c-83dc-5eb189cc4f0c","ios":"levelo://app?vid=3f15be9e-8c03-487c-83dc-5eb189cc4f0c"},"vehicle_type_id":"4","last_reported":1733422304,"current_range_meters":27600,"station_id":"ce4bguh2rcd13ifvqckg","pricing_plan_id":"cebpf4jnsgd1na2vs0mg"},{"bike_id":"781a62f8-2d86-4ed3-a02f-caeaac13b6d1","system_id":"levelo_inurba_marseille","lat":43.2318,"lon":5.39989,"is_reserved":false,"is_disabled":false,"rental_uris":{"android":"levelo://app?vid=781a62f8-2d86-4ed3-a02f-caeaac13b6d1","ios":"levelo://app?vid=781a62f8-2d86-4ed3-a02f-caeaac13b6d1"},"vehicle_type_id":"4","last_reported":1733422304,"current_range_meters":35600,"station_id":"ce4bhn12rcd13ifvqgqg","pricing_plan_id":"cebpf4jnsgd1na2vs0mg"},{"bike_id":"b01ba929-1580-401b-973d-e4a15d746d4a","system_id":"levelo_inurba_marseille","lat":43.22929,"lon":5.35379,"is_reserved":false,"is_disabled":false,"rental_uris":{"android":"levelo://app?vid=b01ba929-1580-401b-973d-e4a15d746d4a","ios":"levelo://app?vid=b01ba929-1580-401b-973d-e4a15d746d4a"},"vehicle_type_id":"4","last_reported":1733422304,"current_range_meters":14000,"station_id":"cpo3532slgdg3j2ikp40","pricing_plan_id":"cebpf4jnsgd1na2vs0mg"},{"bike_id":"7519ef7a-d08a-49a3-a099-389c2c29dff3","system_id":"levelo_inurba_marseille","lat":43.31336,"lon":5.37037,"is_reserved":false,"is_disabled":true,"rental_uris":{"android":"levelo://app?vid=7519ef7a-d08a-49a3-a099-389c2c29dff3","ios":"levelo://app?vid=7519ef7a-d08a-49a3-a099-389c2c29dff3"},"vehicle_type_id":"4","last_reported":1733422304,"current_range_meters":800,"station_id":"","pricing_plan_id":"cebpf4jnsgd1na2vs0mg"},{"bike_id":"8c1e28b4-904f-48d7-ba6d-d3b5b5d05922","system_id":"levelo_inurba_marseille","lat":43.29267,"lon":5.4011,"is_reserved":false,"is_disabled":true,"rental_uris":{"android":"levelo://app?vid=8c1e28b4-904f-48d7-ba6d-d3b5b5d05922","ios":"levelo://app?vid=8c1e28b4-904f-48d7-ba6d-d3b5b5d05922"},"vehicle_type_id":"4","last_reported":1733422304,"current_range_meters":34000,"station_id":"ce4bh312rcd13ifvqdk0","pricing_plan_id":"cebpf4jnsgd1na2vs0mg"},{"bike_id":"1d9a4b4c-056a-4257-82be-cdf0089ad0fc","system_id":"levelo_inurba_marseille","lat":43.26943,"lon":5.40241,"is_reserved":false,"is_disabled":false,"rental_uris":{"android":"levelo://app?vid=1d9a4b4c-056a-4257-82be-cdf0089ad0fc","ios":"levelo://app?vid=1d9a4b4c-056a-4257-82be-cdf0089ad0fc"},"vehicle_type_id":"4","last_reported":1733422304,"current_range_meters":38800,"station_id":"cjm6bp8fraef2m0cb0m0","pricing_plan_id":"cebpf4jnsgd1na2vs0mg"},{"bike_id":"010f1ddc-a5dd-4595-9905-ebf82317a65f","system_id":"levelo_inurba_marseille","lat":43.33025,"lon":5.39037,"is_reserved":false,"is_disabled":false,"rental_uris":{"android":"levelo://app?vid=010f1ddc-a5dd-4595-9905-ebf82317a65f","ios":"levelo://app?vid=010f1ddc-a5dd-4595-9905-ebf82317a65f"},"vehicle_type_id":"4","last_reported":1733422304,"current_range_meters":38800,"station_id":"ce4bhr92rcd13ifvqhrg","pricing_plan_id":"cebpf4jnsgd1na2vs0mg"},{"bike_id":"71991769-7b79-468e-aa16-533cfe544033","system_id":"levelo_inurba_marseille","lat":43.29261,"lon":5.38443,"is_reserved":false,"is_disabled":false,"rental_uris":{"android":"levelo://app?vid=71991769-7b79-468e-aa16-533cfe544033","ios":"levelo://app?vid=71991769-7b79-468e-aa16-533cfe544033"},"vehicle_type_id":"4","last_reported":1733422304,"current_range_meters":39200,"station_id":"ce4bh692rcd13ifvqea0","pricing_plan_id":"cebpf4jnsgd1na2vs0mg"},{"bike_id":"b970920a-3af5-45ef-b57e-5cd1f3c7f6b9","system_id":"levelo_inurba_marseille","lat":43.24179,"lon":5.39726,"is_reserved":false,"is_disabled":false,"rental_uris":{"android":"levelo://app?vid=b970920a-3af5-45ef-b57e-5cd1f3c7f6b9","ios":"levelo://app?vid=b970920a-3af5-45ef-b57e-5cd1f3c7f6b9"},"vehicle_type_id":"4","last_reported":1733422304,"current_range_meters":23200,"station_id":"ce4bhn12rcd13ifvqgpg","pricing_plan_id":"cebpf4jnsgd1na2vs0mg"},{"bike_id":"7f1d1c0a-20db-48df-8724-5c7395026a06","system_id":"levelo_inurba_marseille","lat":43.29513,"lon":5.39409,"is_reserved":false,"is_disabled":false,"rental_uris":{"android":"levelo://app?vid=7f1d1c0a-20db-48df-8724-5c7395026a06","ios":"levelo://app?vid=7f1d1c0a-20db-48df-8724-5c7395026a06"},"vehicle_type_id":"4","last_reported":1733422304,"current_range_meters":2800,"station_id":"ce4bh292rcd13ifvqdf0","pricing_plan_id":"cebpf4jnsgd1na2vs0mg"},{"bike_id":"14757c55-869a-4b0b-afac-0faeea29372b","system_id":"levelo_inurba_marseille","lat":43.330292,"lon":5.390349,"is_reserved":false,"is_disabled":false,"rental_uris":{"android":"levelo://app?vid=14757c55-869a-4b0b-afac-0faeea29372b","ios":"levelo://app?vid=14757c55-869a-4b0b-afac-0faeea29372b"},"vehicle_type_id":"4","last_reported":1733422304,"current_range_meters":38800,"station_id":"ce4bhr92rcd13ifvqhrg","pricing_plan_id":"cebpf4jnsgd1na2vs0mg"},{"bike_id":"d68ce2c1-f9cc-46cc-8d04-2eb7462a4434","system_id":"levelo_inurba_marseille","lat":43.28566,"lon":5.39493,"is_reserved":false,"is_disabled":false,"rental_uris":{"android":"levelo://app?vid=d68ce2c1-f9cc-46cc-8d04-2eb7462a4434","ios":"levelo://app?vid=d68ce2c1-f9cc-46cc-8d04-2eb7462a4434"},"vehicle_type_id":"4","last_reported":1733422304,"current_range_meters":4400,"station_id":"ce4bh292rcd13ifvqdg0","pricing_plan_id":"cebpf4jnsgd1na2vs0mg"},{"bike_id":"1f41adbd-b25d-46c6-8a53-e4ecdbbf967f","system_id":"levelo_inurba_marseille","lat":43.24069,"lon":5.37763,"is_reserved":false,"is_disabled":false,"rental_uris":{"android":"levelo://app?vid=1f41adbd-b25d-46c6-8a53-e4ecdbbf967f","ios":"levelo://app?vid=1f41adbd-b25d-46c6-8a53-e4ecdbbf967f"},"vehicle_type_id":"4","last_reported":1733422304,"current_range_meters":19600,"station_id":"ce4bhnp2rcd13ifvqgvg","pricing_plan_id":"cebpf4jnsgd1na2vs0mg"},{"bike_id":"3e592e74-64b6-427b-a9f3-9c85b0d07de7","system_id":"levelo_inurba_marseille","lat":43.23195,"lon":5.39982,"is_reserved":false,"is_disabled":false,"rental_uris":{"android":"levelo://app?vid=3e592e74-64b6-427b-a9f3-9c85b0d07de7","ios":"levelo://app?vid=3e592e74-64b6-427b-a9f3-9c85b0d07de7"},"vehicle_type_id":"4","last_reported":1733422304,"current_range_meters":28400,"station_id":"ce4bhn12rcd13ifvqgqg","pricing_plan_id":"cebpf4jnsgd1na2vs0mg"},{"bike_id":"687a9d08-a523-4acb-b4e3-f1c6ab0e8047","system_id":"levelo_inurba_marseille","lat":43.25756,"lon":5.39979,"is_reserved":false,"is_disabled":false,"rental_uris":{"android":"levelo://app?vid=687a9d08-a523-4acb-b4e3-f1c6ab0e8047","ios":"levelo://app?vid=687a9d08-a523-4acb-b4e3-f1c6ab0e8047"},"vehicle_type_id":"4","last_reported":1733422304,"current_range_meters":6800,"station_id":"ce4bhn12rcd13ifvqgpg","pricing_plan_id":"cebpf4jnsgd1na2vs0mg"},{"bike_id":"8613658e-3c7a-4f08-9207-38a271e528a3","system_id":"levelo_inurba_marseille","lat":43.30885,"lon":5.39651,"is_reserved":false,"is_disabled":false,"rental_uris":{"android":"levelo://app?vid=8613658e-3c7a-4f08-9207-38a271e528a3","ios":"levelo://app?vid=8613658e-3c7a-4f08-9207-38a271e528a3"},"vehicle_type_id":"4","last_reported":1733422304,"current_range_meters":10800,"station_id":"ce4bh012rcd13ifvqcv0","pricing_plan_id":"cebpf4jnsgd1na2vs0mg"},{"bike_id":"710c9d13-8a64-4ca7-ba64-fd3194714b19","system_id":"levelo_inurba_marseille","lat":43.308,"lon":5.3734,"is_reserved":false,"is_disabled":false,"rental_uris":{"android":"levelo://app?vid=710c9d13-8a64-4ca7-ba64-fd3194714b19","ios":"levelo://app?vid=710c9d13-8a64-4ca7-ba64-fd3194714b19"},"vehicle_type_id":"4","last_reported":1733422304,"current_range_meters":20800,"station_id":"","pricing_plan_id":"cebpf4jnsgd1na2vs0mg"},{"bike_id":"a4b9e425-64b8-4ce2-a5ab-5fcc5d1230a4","system_id":"levelo_inurba_marseille","lat":43.32105,"lon":5.36767,"is_reserved":false,"is_disabled":false,"rental_uris":{"android":"levelo://app?vid=a4b9e425-64b8-4ce2-a5ab-5fcc5d1230a4","ios":"levelo://app?vid=a4b9e425-64b8-4ce2-a5ab-5fcc5d1230a4"},"vehicle_type_id":"4","last_reported":1733422304,"current_range_meters":35200,"station_id":"ce4bhrh2rcd13ifvqhug","pricing_plan_id":"cebpf4jnsgd1na2vs0mg"},{"bike_id":"e253f454-eb5b-4f45-a9fc-5ee89440915d","system_id":"levelo_inurba_marseille","lat":43.30884,"lon":5.3965,"is_reserved":false,"is_disabled":false,"rental_uris":{"android":"levelo://app?vid=e253f454-eb5b-4f45-a9fc-5ee89440915d","ios":"levelo://app?vid=e253f454-eb5b-4f45-a9fc-5ee89440915d"},"vehicle_type_id":"4","last_reported":1733422304,"current_range_meters":38800,"station_id":"ce4bh012rcd13ifvqcv0","pricing_plan_id":"cebpf4jnsgd1na2vs0mg"},{"bike_id":"fd98eaa9-4d55-4e7b-aa90-0d14707466d9","system_id":"levelo_inurba_marseille","lat":43.337444,"lon":5.374475,"is_reserved":false,"is_disabled":true,"rental_uris":{"android":"levelo://app?vid=fd98eaa9-4d55-4e7b-aa90-0d14707466d9","ios":"levelo://app?vid=fd98eaa9-4d55-4e7b-aa90-0d14707466d9"},"vehicle_type_id":"4","last_reported":1733422304,"current_range_meters":0,"station_id":"","pricing_plan_id":"cebpf4jnsgd1na2vs0mg"},{"bike_id":"7739e7e5-bcce-43a6-9d41-f90a9ba836ed","system_id":"levelo_inurba_marseille","lat":43.29596,"lon":5.38093,"is_reserved":false,"is_disabled":true,"rental_uris":{"android":"levelo://app?vid=7739e7e5-bcce-43a6-9d41-f90a9ba836ed","ios":"levelo://app?vid=7739e7e5-bcce-43a6-9d41-f90a9ba836ed"},"vehicle_type_id":"4","last_reported":1733422304,"current_range_meters":400,"station_id":"ce4bgl12rcd13ifvqbo0","pricing_plan_id":"cebpf4jnsgd1na2vs0mg"},{"bike_id":"e25dc6e3-1f83-4e32-ad60-7f8ea4cb5b47","system_id":"levelo_inurba_marseille","lat":43.29794,"lon":5.39351,"is_reserved":false,"is_disabled":true,"rental_uris":{"android":"levelo://app?vid=e25dc6e3-1f83-4e32-ad60-7f8ea4cb5b47","ios":"levelo://app?vid=e25dc6e3-1f83-4e32-ad60-7f8ea4cb5b47"},"vehicle_type_id":"4","last_reported":1733422304,"current_range_meters":0,"station_id":"chh1huq6cuj3fo74tm60","pricing_plan_id":"cebpf4jnsgd1na2vs0mg"},{"bike_id":"a246a299-ea1e-4867-a3e1-5adc676b893a","system_id":"levelo_inurba_marseille","lat":43.294159,"lon":5.386183,"is_reserved":false,"is_disabled":false,"rental_uris":{"android":"levelo://app?vid=a246a299-ea1e-4867-a3e1-5adc676b893a","ios":"levelo://app?vid=a246a299-ea1e-4867-a3e1-5adc676b893a"},"vehicle_type_id":"4","last_reported":1733422304,"current_range_meters":26000,"station_id":"ce4bh2h2rcd13ifvqdh0","pricing_plan_id":"cebpf4jnsgd1na2vs0mg"},{"bike_id":"9f166179-3cc0-42ca-860b-06242525cca2","system_id":"levelo_inurba_marseille","lat":43.31999,"lon":5.41561,"is_reserved":false,"is_disabled":false,"rental_uris":{"android":"levelo://app?vid=9f166179-3cc0-42ca-860b-06242525cca2","ios":"levelo://app?vid=9f166179-3cc0-42ca-860b-06242525cca2"},"vehicle_type_id":"4","last_reported":1733422304,"current_range_meters":33200,"station_id":"ce4bhq92rcd13ifvqhkg","pricing_plan_id":"cebpf4jnsgd1na2vs0mg"},{"bike_id":"cbf578cc-cc2f-4189-9de2-b212a0c21f11","system_id":"levelo_inurba_marseille","lat":43.29527,"lon":5.3903,"is_reserved":false,"is_disabled":false,"rental_uris":{"android":"levelo://app?vid=cbf578cc-cc2f-4189-9de2-b212a0c21f11","ios":"levelo://app?vid=cbf578cc-cc2f-4189-9de2-b212a0c21f11"},"vehicle_type_id":"4","last_reported":1733422304,"current_range_meters":24000,"station_id":"ce4bh3p2rcd13ifvqdp0","pricing_plan_id":"cebpf4jnsgd1na2vs0mg"},{"bike_id":"c2d8a1c2-d166-4a36-b32f-beec95c93bd5","system_id":"levelo_inurba_marseille","lat":43.33756,"lon":5.37459,"is_reserved":false,"is_disabled":false,"rental_uris":{"android":"levelo://app?vid=c2d8a1c2-d166-4a36-b32f-beec95c93bd5","ios":"levelo://app?vid=c2d8a1c2-d166-4a36-b32f-beec95c93bd5"},"vehicle_type_id":"4","last_reported":1733422304,"current_range_meters":8400,"station_id":"","pricing_plan_id":"cebpf4jnsgd1na2vs0mg"},{"bike_id":"c9dce079-8ccc-43f8-8d7b-142ecf67a18e","system_id":"levelo_inurba_marseille","lat":43.28454,"lon":5.35882,"is_reserved":false,"is_disabled":false,"rental_uris":{"android":"levelo://app?vid=c9dce079-8ccc-43f8-8d7b-142ecf67a18e","ios":"levelo://app?vid=c9dce079-8ccc-43f8-8d7b-142ecf67a18e"},"vehicle_type_id":"4","last_reported":1733422304,"current_range_meters":33600,"station_id":"ce4bhah2rcd13ifvqei0","pricing_plan_id":"cebpf4jnsgd1na2vs0mg"},{"bike_id":"38a45448-fdfa-48eb-b67e-0e362dc0418c","system_id":"levelo_inurba_marseille","lat":43.29016,"lon":5.38617,"is_reserved":false,"is_disabled":false,"rental_uris":{"android":"levelo://app?vid=38a45448-fdfa-48eb-b67e-0e362dc0418c","ios":"levelo://app?vid=38a45448-fdfa-48eb-b67e-0e362dc0418c"},"vehicle_type_id":"4","last_reported":1733422304,"current_range_meters":6000,"station_id":"ce4bh4p2rcd13ifvqe0g","pricing_plan_id":"cebpf4jnsgd1na2vs0mg"},{"bike_id":"ca2ec074-de60-4930-9130-00bcd269391b","system_id":"levelo_inurba_marseille","lat":43.2846,"lon":5.35885,"is_reserved":false,"is_disabled":false,"rental_uris":{"android":"levelo://app?vid=ca2ec074-de60-4930-9130-00bcd269391b","ios":"levelo://app?vid=ca2ec074-de60-4930-9130-00bcd269391b"},"vehicle_type_id":"4","last_reported":1733422304,"current_range_meters":22800,"station_id":"ce4bhah2rcd13ifvqei0","pricing_plan_id":"cebpf4jnsgd1na2vs0mg"},{"bike_id":"00e73964-699d-419d-8298-9f88c22f7763","system_id":"levelo_inurba_marseille","lat":43.29019,"lon":5.38127,"is_reserved":false,"is_disabled":false,"rental_uris":{"android":"levelo://app?vid=00e73964-699d-419d-8298-9f88c22f7763","ios":"levelo://app?vid=00e73964-699d-419d-8298-9f88c22f7763"},"vehicle_type_id":"4","last_reported":1733422304,"current_range_meters":30400,"station_id":"ce4bh4p2rcd13ifvqe1g","pricing_plan_id":"cebpf4jnsgd1na2vs0mg"},{"bike_id":"b55d6164-09fe-405d-936f-a71bdd9f7e13","system_id":"levelo_inurba_marseille","lat":43.29075,"lon":5.3716,"is_reserved":false,"is_disabled":false,"rental_uris":{"android":"levelo://app?vid=b55d6164-09fe-405d-936f-a71bdd9f7e13","ios":"levelo://app?vid=b55d6164-09fe-405d-936f-a71bdd9f7e13"},"vehicle_type_id":"4","last_reported":1733422304,"current_range_meters":32000,"station_id":"ce4bh5p2rcd13ifvqe4g","pricing_plan_id":"cebpf4jnsgd1na2vs0mg"},{"bike_id":"e8d25b9b-2f6f-4f7f-8bc4-2102c4e24b79","system_id":"levelo_inurba_marseille","lat":43.28447,"lon":5.39177,"is_reserved":false,"is_disabled":false,"rental_uris":{"android":"levelo://app?vid=e8d25b9b-2f6f-4f7f-8bc4-2102c4e24b79","ios":"levelo://app?vid=e8d25b9b-2f6f-4f7f-8bc4-2102c4e24b79"},"vehicle_type_id":"4","last_reported":1733422304,"current_range_meters":38800,"station_id":"ce4bhoh2rcd13ifvqh5g","pricing_plan_id":"cebpf4jnsgd1na2vs0mg"},{"bike_id":"dce35d6a-08b0-4b4c-b89b-7b5e69e85874","system_id":"levelo_inurba_marseille","lat":43.32435,"lon":5.36371,"is_reserved":false,"is_disabled":false,"rental_uris":{"android":"levelo://app?vid=dce35d6a-08b0-4b4c-b89b-7b5e69e85874","ios":"levelo://app?vid=dce35d6a-08b0-4b4c-b89b-7b5e69e85874"},"vehicle_type_id":"4","last_reported":1733422304,"current_range_meters":8800,"station_id":"","pricing_plan_id":"cebpf4jnsgd1na2vs0mg"},{"bike_id":"37727576-2d28-4525-b065-40affdaee0f8","system_id":"levelo_inurba_marseille","lat":43.32347,"lon":5.38817,"is_reserved":false,"is_disabled":false,"rental_uris":{"android":"levelo://app?vid=37727576-2d28-4525-b065-40affdaee0f8","ios":"levelo://app?vid=37727576-2d28-4525-b065-40affdaee0f8"},"vehicle_type_id":"4","last_reported":1733422304,"current_range_meters":38400,"station_id":"","pricing_plan_id":"cebpf4jnsgd1na2vs0mg"},{"bike_id":"737bdef3-e4f9-4d42-9b3b-45164c8dc58f","system_id":"levelo_inurba_marseille","lat":43.24071,"lon":5.37729,"is_reserved":false,"is_disabled":true,"rental_uris":{"android":"levelo://app?vid=737bdef3-e4f9-4d42-9b3b-45164c8dc58f","ios":"levelo://app?vid=737bdef3-e4f9-4d42-9b3b-45164c8dc58f"},"vehicle_type_id":"4","last_reported":1733422304,"current_range_meters":11600,"station_id":"ce4bhnp2rcd13ifvqgvg","pricing_plan_id":"cebpf4jnsgd1na2vs0mg"},{"bike_id":"4a53085c-edee-457d-baad-2a365f253951","system_id":"levelo_inurba_marseille","lat":43.31118,"lon":5.37753,"is_reserved":false,"is_disabled":true,"rental_uris":{"android":"levelo://app?vid=4a53085c-edee-457d-baad-2a365f253951","ios":"levelo://app?vid=4a53085c-edee-457d-baad-2a365f253951"},"vehicle_type_id":"4","last_reported":1733422304,"current_range_meters":0,"station_id":"ce4bgt92rcd13ifvqcg0","pricing_plan_id":"cebpf4jnsgd1na2vs0mg"},{"bike_id":"bd019733-b285-43d6-9d13-b5c534a12ecb","system_id":"levelo_inurba_marseille","lat":43.31051,"lon":5.38757,"is_reserved":false,"is_disabled":false,"rental_uris":{"android":"levelo://app?vid=bd019733-b285-43d6-9d13-b5c534a12ecb","ios":"levelo://app?vid=bd019733-b285-43d6-9d13-b5c534a12ecb"},"vehicle_type_id":"4","last_reported":1733422304,"current_range_meters":38800,"station_id":"","pricing_plan_id":"cebpf4jnsgd1na2vs0mg"},{"bike_id":"19bc5189-ba13-4a1c-b5d3-90f7227aced6","system_id":"levelo_inurba_marseille","lat":43.2867,"lon":5.38665,"is_reserved":false,"is_disabled":false,"rental_uris":{"android":"levelo://app?vid=19bc5189-ba13-4a1c-b5d3-90f7227aced6","ios":"levelo://app?vid=19bc5189-ba13-4a1c-b5d3-90f7227aced6"},"vehicle_type_id":"4","last_reported":1733422304,"current_range_meters":8000,"station_id":"ce4bh492rcd13ifvqdug","pricing_plan_id":"cebpf4jnsgd1na2vs0mg"},{"bike_id":"5d0d87c6-624c-49c3-a382-3c51a5b0a87e","system_id":"levelo_inurba_marseille","lat":43.32364,"lon":5.38878,"is_reserved":false,"is_disabled":false,"rental_uris":{"android":"levelo://app?vid=5d0d87c6-624c-49c3-a382-3c51a5b0a87e","ios":"levelo://app?vid=5d0d87c6-624c-49c3-a382-3c51a5b0a87e"},"vehicle_type_id":"4","last_reported":1733422304,"current_range_meters":22800,"station_id":"ce4bhqp2rcd13ifvqhog","pricing_plan_id":"cebpf4jnsgd1na2vs0mg"},{"bike_id":"7566473e-84f7-494d-8edf-1c14cfb3d22b","system_id":"levelo_inurba_marseille","lat":43.30259,"lon":5.4007,"is_reserved":false,"is_disabled":false,"rental_uris":{"android":"levelo://app?vid=7566473e-84f7-494d-8edf-1c14cfb3d22b","ios":"levelo://app?vid=7566473e-84f7-494d-8edf-1c14cfb3d22b"},"vehicle_type_id":"4","last_reported":1733422304,"current_range_meters":14800,"station_id":"ce4bgvh2rcd13ifvqcs0","pricing_plan_id":"cebpf4jnsgd1na2vs0mg"},{"bike_id":"f963ce32-e074-4d93-8dde-a731e687b210","system_id":"levelo_inurba_marseille","lat":43.28917,"lon":5.38396,"is_reserved":false,"is_disabled":false,"rental_uris":{"android":"levelo://app?vid=f963ce32-e074-4d93-8dde-a731e687b210","ios":"levelo://app?vid=f963ce32-e074-4d93-8dde-a731e687b210"},"vehicle_type_id":"4","last_reported":1733422304,"current_range_meters":6000,"station_id":"ce4bh612rcd13ifvqe6g","pricing_plan_id":"cebpf4jnsgd1na2vs0mg"},{"bike_id":"e53f851f-4fe2-4f42-8246-21beb518723a","system_id":"levelo_inurba_marseille","lat":43.27062,"lon":5.40253,"is_reserved":false,"is_disabled":false,"rental_uris":{"android":"levelo://app?vid=e53f851f-4fe2-4f42-8246-21beb518723a","ios":"levelo://app?vid=e53f851f-4fe2-4f42-8246-21beb518723a"},"vehicle_type_id":"4","last_reported":1733422304,"current_range_meters":7200,"station_id":"ce4bhk92rcd13ifvqgc0","pricing_plan_id":"cebpf4jnsgd1na2vs0mg"},{"bike_id":"14d3a197-6f06-43bd-9e95-51ad7f989054","system_id":"levelo_inurba_marseille","lat":43.29376,"lon":5.37834,"is_reserved":false,"is_disabled":false,"rental_uris":{"android":"levelo://app?vid=14d3a197-6f06-43bd-9e95-51ad7f989054","ios":"levelo://app?vid=14d3a197-6f06-43bd-9e95-51ad7f989054"},"vehicle_type_id":"4","last_reported":1733422304,"current_range_meters":8400,"station_id":"ce4bgjh2rcd13ifvqbf0","pricing_plan_id":"cebpf4jnsgd1na2vs0mg"},{"bike_id":"12d85309-01de-4f02-a0c4-68c06e6fce6e","system_id":"levelo_inurba_marseille","lat":43.29041,"lon":5.35919,"is_reserved":false,"is_disabled":true,"rental_uris":{"android":"levelo://app?vid=12d85309-01de-4f02-a0c4-68c06e6fce6e","ios":"levelo://app?vid=12d85309-01de-4f02-a0c4-68c06e6fce6e"},"vehicle_type_id":"4","last_reported":1733422304,"current_range_meters":400,"station_id":"ce4bha92rcd13ifvqeg0","pricing_plan_id":"cebpf4jnsgd1na2vs0mg"},{"bike_id":"21c61b3f-2ae1-41ed-96e8-21fc1b01a387","system_id":"levelo_inurba_marseille","lat":43.30088,"lon":5.37244,"is_reserved":false,"is_disabled":false,"rental_uris":{"android":"levelo://app?vid=21c61b3f-2ae1-41ed-96e8-21fc1b01a387","ios":"levelo://app?vid=21c61b3f-2ae1-41ed-96e8-21fc1b01a387"},"vehicle_type_id":"4","last_reported":1733422304,"current_range_meters":14800,"station_id":"","pricing_plan_id":"cebpf4jnsgd1na2vs0mg"},{"bike_id":"f51684b7-fd29-4622-9efb-7a87c0a48d7b","system_id":"levelo_inurba_marseille","lat":43.24391,"lon":5.37059,"is_reserved":false,"is_disabled":true,"rental_uris":{"android":"levelo://app?vid=f51684b7-fd29-4622-9efb-7a87c0a48d7b","ios":"levelo://app?vid=f51684b7-fd29-4622-9efb-7a87c0a48d7b"},"vehicle_type_id":"4","last_reported":1733422304,"current_range_meters":28000,"station_id":"ce4bhhh2rcd13ifvqfk0","pricing_plan_id":"cebpf4jnsgd1na2vs0mg"},{"bike_id":"0e9b922f-66a9-4c95-8fab-f9adb2066dfc","system_id":"levelo_inurba_marseille","lat":43.2846,"lon":5.35898,"is_reserved":false,"is_disabled":false,"rental_uris":{"android":"levelo://app?vid=0e9b922f-66a9-4c95-8fab-f9adb2066dfc","ios":"levelo://app?vid=0e9b922f-66a9-4c95-8fab-f9adb2066dfc"},"vehicle_type_id":"4","last_reported":1733422304,"current_range_meters":28000,"station_id":"ce4bhah2rcd13ifvqei0","pricing_plan_id":"cebpf4jnsgd1na2vs0mg"},{"bike_id":"3a9149f3-357c-4d0a-859b-18382ef024a5","system_id":"levelo_inurba_marseille","lat":43.32113,"lon":5.36757,"is_reserved":false,"is_disabled":false,"rental_uris":{"android":"levelo://app?vid=3a9149f3-357c-4d0a-859b-18382ef024a5","ios":"levelo://app?vid=3a9149f3-357c-4d0a-859b-18382ef024a5"},"vehicle_type_id":"4","last_reported":1733422304,"current_range_meters":23200,"station_id":"ce4bhrh2rcd13ifvqhug","pricing_plan_id":"cebpf4jnsgd1na2vs0mg"},{"bike_id":"bbcbfa71-d8f5-4b8e-9040-d67356b9ece4","system_id":"levelo_inurba_marseille","lat":43.31361,"lon":5.38524,"is_reserved":false,"is_disabled":true,"rental_uris":{"android":"levelo://app?vid=bbcbfa71-d8f5-4b8e-9040-d67356b9ece4","ios":"levelo://app?vid=bbcbfa71-d8f5-4b8e-9040-d67356b9ece4"},"vehicle_type_id":"4","last_reported":1733422304,"current_range_meters":9600,"station_id":"ce4bgt92rcd13ifvqcf0","pricing_plan_id":"cebpf4jnsgd1na2vs0mg"},{"bike_id":"2dd527b0-8606-4deb-b2aa-537207be6863","system_id":"levelo_inurba_marseille","lat":43.33021,"lon":5.39038,"is_reserved":false,"is_disabled":false,"rental_uris":{"android":"levelo://app?vid=2dd527b0-8606-4deb-b2aa-537207be6863","ios":"levelo://app?vid=2dd527b0-8606-4deb-b2aa-537207be6863"},"vehicle_type_id":"4","last_reported":1733422304,"current_range_meters":30800,"station_id":"ce4bhr92rcd13ifvqhrg","pricing_plan_id":"cebpf4jnsgd1na2vs0mg"},{"bike_id":"8eb24b0b-f3ce-40cf-b50c-c71acc9a6488","system_id":"levelo_inurba_marseille","lat":43.27826,"lon":5.39209,"is_reserved":false,"is_disabled":false,"rental_uris":{"android":"levelo://app?vid=8eb24b0b-f3ce-40cf-b50c-c71acc9a6488","ios":"levelo://app?vid=8eb24b0b-f3ce-40cf-b50c-c71acc9a6488"},"vehicle_type_id":"4","last_reported":1733422304,"current_range_meters":16000,"station_id":"ce4bhjp2rcd13ifvqga0","pricing_plan_id":"cebpf4jnsgd1na2vs0mg"},{"bike_id":"91377ecf-29e3-451a-ab1d-f37d5b1c8041","system_id":"levelo_inurba_marseille","lat":43.2867,"lon":5.38679,"is_reserved":false,"is_disabled":false,"rental_uris":{"android":"levelo://app?vid=91377ecf-29e3-451a-ab1d-f37d5b1c8041","ios":"levelo://app?vid=91377ecf-29e3-451a-ab1d-f37d5b1c8041"},"vehicle_type_id":"4","last_reported":1733422304,"current_range_meters":24400,"station_id":"ce4bh492rcd13ifvqdug","pricing_plan_id":"cebpf4jnsgd1na2vs0mg"},{"bike_id":"721f5feb-b378-4dac-af39-7801c98d73b6","system_id":"levelo_inurba_marseille","lat":43.30151,"lon":5.38102,"is_reserved":false,"is_disabled":true,"rental_uris":{"android":"levelo://app?vid=721f5feb-b378-4dac-af39-7801c98d73b6","ios":"levelo://app?vid=721f5feb-b378-4dac-af39-7801c98d73b6"},"vehicle_type_id":"4","last_reported":1733422304,"current_range_meters":0,"station_id":"ce4bgjp2rcd13ifvqbh0","pricing_plan_id":"cebpf4jnsgd1na2vs0mg"},{"bike_id":"da6a7a1d-e653-4950-af8c-8137b06f7d40","system_id":"levelo_inurba_marseille","lat":43.3004,"lon":5.37551,"is_reserved":false,"is_disabled":true,"rental_uris":{"android":"levelo://app?vid=da6a7a1d-e653-4950-af8c-8137b06f7d40","ios":"levelo://app?vid=da6a7a1d-e653-4950-af8c-8137b06f7d40"},"vehicle_type_id":"4","last_reported":1733422304,"current_range_meters":0,"station_id":"","pricing_plan_id":"cebpf4jnsgd1na2vs0mg"},{"bike_id":"b1ce4e53-59d1-4dc6-bd81-38e823b0b8a9","system_id":"levelo_inurba_marseille","lat":43.29421,"lon":5.38604,"is_reserved":false,"is_disabled":true,"rental_uris":{"android":"levelo://app?vid=b1ce4e53-59d1-4dc6-bd81-38e823b0b8a9","ios":"levelo://app?vid=b1ce4e53-59d1-4dc6-bd81-38e823b0b8a9"},"vehicle_type_id":"4","last_reported":1733422304,"current_range_meters":0,"station_id":"ce4bh2h2rcd13ifvqdh0","pricing_plan_id":"cebpf4jnsgd1na2vs0mg"},{"bike_id":"b15b6b5e-bf26-4345-8946-14181dc7ac5b","system_id":"levelo_inurba_marseille","lat":43.25108,"lon":5.40321,"is_reserved":false,"is_disabled":false,"rental_uris":{"android":"levelo://app?vid=b15b6b5e-bf26-4345-8946-14181dc7ac5b","ios":"levelo://app?vid=b15b6b5e-bf26-4345-8946-14181dc7ac5b"},"vehicle_type_id":"4","last_reported":1733422304,"current_range_meters":3600,"station_id":"ce4bhlh2rcd13ifvqgig","pricing_plan_id":"cebpf4jnsgd1na2vs0mg"},{"bike_id":"976c15e7-80eb-439b-b8a7-6d7933bfddb9","system_id":"levelo_inurba_marseille","lat":43.29582,"lon":5.37516,"is_reserved":false,"is_disabled":false,"rental_uris":{"android":"levelo://app?vid=976c15e7-80eb-439b-b8a7-6d7933bfddb9","ios":"levelo://app?vid=976c15e7-80eb-439b-b8a7-6d7933bfddb9"},"vehicle_type_id":"4","last_reported":1733422304,"current_range_meters":24000,"station_id":"ce4bgh92rcd13ifvqb50","pricing_plan_id":"cebpf4jnsgd1na2vs0mg"},{"bike_id":"163a631b-221f-458e-bbd0-95484e5cc755","system_id":"levelo_inurba_marseille","lat":43.29254,"lon":5.3842,"is_reserved":false,"is_disabled":false,"rental_uris":{"android":"levelo://app?vid=163a631b-221f-458e-bbd0-95484e5cc755","ios":"levelo://app?vid=163a631b-221f-458e-bbd0-95484e5cc755"},"vehicle_type_id":"4","last_reported":1733422304,"current_range_meters":4400,"station_id":"ce4bh692rcd13ifvqea0","pricing_plan_id":"cebpf4jnsgd1na2vs0mg"},{"bike_id":"124117c4-99a4-4cec-8528-b439d7d63d7f","system_id":"levelo_inurba_marseille","lat":43.28563,"lon":5.39496,"is_reserved":false,"is_disabled":false,"rental_uris":{"android":"levelo://app?vid=124117c4-99a4-4cec-8528-b439d7d63d7f","ios":"levelo://app?vid=124117c4-99a4-4cec-8528-b439d7d63d7f"},"vehicle_type_id":"4","last_reported":1733422304,"current_range_meters":8000,"station_id":"ce4bh292rcd13ifvqdg0","pricing_plan_id":"cebpf4jnsgd1na2vs0mg"},{"bike_id":"b983f700-39e1-418f-84a3-1c3c95a84b96","system_id":"levelo_inurba_marseille","lat":43.33762,"lon":5.37501,"is_reserved":false,"is_disabled":false,"rental_uris":{"android":"levelo://app?vid=b983f700-39e1-418f-84a3-1c3c95a84b96","ios":"levelo://app?vid=b983f700-39e1-418f-84a3-1c3c95a84b96"},"vehicle_type_id":"4","last_reported":1733422304,"current_range_meters":37600,"station_id":"","pricing_plan_id":"cebpf4jnsgd1na2vs0mg"},{"bike_id":"30de221a-4ae9-44c8-af60-f5843b67f535","system_id":"levelo_inurba_marseille","lat":43.337444,"lon":5.374475,"is_reserved":false,"is_disabled":false,"rental_uris":{"android":"levelo://app?vid=30de221a-4ae9-44c8-af60-f5843b67f535","ios":"levelo://app?vid=30de221a-4ae9-44c8-af60-f5843b67f535"},"vehicle_type_id":"4","last_reported":1733422304,"current_range_meters":36800,"station_id":"","pricing_plan_id":"cebpf4jnsgd1na2vs0mg"},{"bike_id":"289c566e-a3fe-4a49-b52d-1d900c502732","system_id":"levelo_inurba_marseille","lat":43.23176,"lon":5.39987,"is_reserved":false,"is_disabled":false,"rental_uris":{"android":"levelo://app?vid=289c566e-a3fe-4a49-b52d-1d900c502732","ios":"levelo://app?vid=289c566e-a3fe-4a49-b52d-1d900c502732"},"vehicle_type_id":"4","last_reported":1733422304,"current_range_meters":18800,"station_id":"ce4bhn12rcd13ifvqgqg","pricing_plan_id":"cebpf4jnsgd1na2vs0mg"},{"bike_id":"57e1d7cb-12a3-41fd-b677-5990b01609b9","system_id":"levelo_inurba_marseille","lat":43.25819,"lon":5.39421,"is_reserved":false,"is_disabled":false,"rental_uris":{"android":"levelo://app?vid=57e1d7cb-12a3-41fd-b677-5990b01609b9","ios":"levelo://app?vid=57e1d7cb-12a3-41fd-b677-5990b01609b9"},"vehicle_type_id":"4","last_reported":1733422304,"current_range_meters":36400,"station_id":"ce4bhip2rcd13ifvqft0","pricing_plan_id":"cebpf4jnsgd1na2vs0mg"},{"bike_id":"097e3c51-feba-4f8f-9e91-caf8c3bd1fda","system_id":"levelo_inurba_marseille","lat":43.29867,"lon":5.39733,"is_reserved":false,"is_disabled":false,"rental_uris":{"android":"levelo://app?vid=097e3c51-feba-4f8f-9e91-caf8c3bd1fda","ios":"levelo://app?vid=097e3c51-feba-4f8f-9e91-caf8c3bd1fda"},"vehicle_type_id":"4","last_reported":1733422304,"current_range_meters":6400,"station_id":"ce4bh0h2rcd13ifvqd50","pricing_plan_id":"cebpf4jnsgd1na2vs0mg"},{"bike_id":"14a7634f-2c63-4372-8288-df8c18aa2742","system_id":"levelo_inurba_marseille","lat":43.29894,"lon":5.43667,"is_reserved":false,"is_disabled":true,"rental_uris":{"android":"levelo://app?vid=14a7634f-2c63-4372-8288-df8c18aa2742","ios":"levelo://app?vid=14a7634f-2c63-4372-8288-df8c18aa2742"},"vehicle_type_id":"4","last_reported":1733422304,"current_range_meters":400,"station_id":"ce4bhpp2rcd13ifvqhfg","pricing_plan_id":"cebpf4jnsgd1na2vs0mg"},{"bike_id":"ee92f9a9-230f-43cf-88af-7bd248e9528d","system_id":"levelo_inurba_marseille","lat":43.32481,"lon":5.36566,"is_reserved":false,"is_disabled":false,"rental_uris":{"android":"levelo://app?vid=ee92f9a9-230f-43cf-88af-7bd248e9528d","ios":"levelo://app?vid=ee92f9a9-230f-43cf-88af-7bd248e9528d"},"vehicle_type_id":"4","last_reported":1733422304,"current_range_meters":34800,"station_id":"ce4bhs12rcd13ifvqhvg","pricing_plan_id":"cebpf4jnsgd1na2vs0mg"},{"bike_id":"bae1c42b-8a08-4a08-aca3-4c99b9020d1a","system_id":"levelo_inurba_marseille","lat":43.31116,"lon":5.37752,"is_reserved":false,"is_disabled":true,"rental_uris":{"android":"levelo://app?vid=bae1c42b-8a08-4a08-aca3-4c99b9020d1a","ios":"levelo://app?vid=bae1c42b-8a08-4a08-aca3-4c99b9020d1a"},"vehicle_type_id":"4","last_reported":1733422304,"current_range_meters":800,"station_id":"ce4bgt92rcd13ifvqcg0","pricing_plan_id":"cebpf4jnsgd1na2vs0mg"},{"bike_id":"7714ce30-465c-426d-9621-0f0245a19ff8","system_id":"levelo_inurba_marseille","lat":43.2718,"lon":5.41,"is_reserved":false,"is_disabled":false,"rental_uris":{"android":"levelo://app?vid=7714ce30-465c-426d-9621-0f0245a19ff8","ios":"levelo://app?vid=7714ce30-465c-426d-9621-0f0245a19ff8"},"vehicle_type_id":"4","last_reported":1733422304,"current_range_meters":26000,"station_id":"ce4bhl12rcd13ifvqgf0","pricing_plan_id":"cebpf4jnsgd1na2vs0mg"},{"bike_id":"4a2552fb-fc34-4622-908e-9d7b39eeb28a","system_id":"levelo_inurba_marseille","lat":43.33015,"lon":5.39045,"is_reserved":false,"is_disabled":false,"rental_uris":{"android":"levelo://app?vid=4a2552fb-fc34-4622-908e-9d7b39eeb28a","ios":"levelo://app?vid=4a2552fb-fc34-4622-908e-9d7b39eeb28a"},"vehicle_type_id":"4","last_reported":1733422304,"current_range_meters":10800,"station_id":"ce4bhr92rcd13ifvqhrg","pricing_plan_id":"cebpf4jnsgd1na2vs0mg"},{"bike_id":"b12d51a9-9370-4e5b-ab46-f54ae82d1ede","system_id":"levelo_inurba_marseille","lat":43.30415,"lon":5.41286,"is_reserved":false,"is_disabled":false,"rental_uris":{"android":"levelo://app?vid=b12d51a9-9370-4e5b-ab46-f54ae82d1ede","ios":"levelo://app?vid=b12d51a9-9370-4e5b-ab46-f54ae82d1ede"},"vehicle_type_id":"4","last_reported":1733422304,"current_range_meters":30000,"station_id":"ce4bhop2rcd13ifvqh8g","pricing_plan_id":"cebpf4jnsgd1na2vs0mg"},{"bike_id":"cce3eecc-cb69-4101-857b-0cac7483201c","system_id":"levelo_inurba_marseille","lat":43.27492,"lon":5.42447,"is_reserved":false,"is_disabled":true,"rental_uris":{"android":"levelo://app?vid=cce3eecc-cb69-4101-857b-0cac7483201c","ios":"levelo://app?vid=cce3eecc-cb69-4101-857b-0cac7483201c"},"vehicle_type_id":"4","last_reported":1733422304,"current_range_meters":0,"station_id":"ce4bhn92rcd13ifvqgrg","pricing_plan_id":"cebpf4jnsgd1na2vs0mg"},{"bike_id":"d4a30345-f58f-484e-baba-eabe2301125a","system_id":"levelo_inurba_marseille","lat":43.31542,"lon":5.38024,"is_reserved":false,"is_disabled":false,"rental_uris":{"android":"levelo://app?vid=d4a30345-f58f-484e-baba-eabe2301125a","ios":"levelo://app?vid=d4a30345-f58f-484e-baba-eabe2301125a"},"vehicle_type_id":"4","last_reported":1733422304,"current_range_meters":38800,"station_id":"ce4bhsp2rcd13ifvqi50","pricing_plan_id":"cebpf4jnsgd1na2vs0mg"},{"bike_id":"914e2da6-b203-455d-bab7-6e3debbf268a","system_id":"levelo_inurba_marseille","lat":43.26572,"lon":5.37287,"is_reserved":false,"is_disabled":false,"rental_uris":{"android":"levelo://app?vid=914e2da6-b203-455d-bab7-6e3debbf268a","ios":"levelo://app?vid=914e2da6-b203-455d-bab7-6e3debbf268a"},"vehicle_type_id":"4","last_reported":1733422304,"current_range_meters":14400,"station_id":"ce4bhg12rcd13ifvqf70","pricing_plan_id":"cebpf4jnsgd1na2vs0mg"},{"bike_id":"cd830f02-9a1a-4a45-b43d-4f9c4cb35b55","system_id":"levelo_inurba_marseille","lat":43.26064,"lon":5.39393,"is_reserved":false,"is_disabled":true,"rental_uris":{"android":"levelo://app?vid=cd830f02-9a1a-4a45-b43d-4f9c4cb35b55","ios":"levelo://app?vid=cd830f02-9a1a-4a45-b43d-4f9c4cb35b55"},"vehicle_type_id":"4","last_reported":1733422304,"current_range_meters":800,"station_id":"ce4bhh92rcd13ifvqfj0","pricing_plan_id":"cebpf4jnsgd1na2vs0mg"},{"bike_id":"3e029d13-95a0-4b1b-a75a-9d3a5304443f","system_id":"levelo_inurba_marseille","lat":43.31273,"lon":5.40171,"is_reserved":false,"is_disabled":false,"rental_uris":{"android":"levelo://app?vid=3e029d13-95a0-4b1b-a75a-9d3a5304443f","ios":"levelo://app?vid=3e029d13-95a0-4b1b-a75a-9d3a5304443f"},"vehicle_type_id":"4","last_reported":1733422304,"current_range_meters":19600,"station_id":"ce4bh092rcd13ifvqd30","pricing_plan_id":"cebpf4jnsgd1na2vs0mg"},{"bike_id":"eaba7670-b58d-4da3-98e2-9aa758641e7c","system_id":"levelo_inurba_marseille","lat":43.2957,"lon":5.39953,"is_reserved":false,"is_disabled":true,"rental_uris":{"android":"levelo://app?vid=eaba7670-b58d-4da3-98e2-9aa758641e7c","ios":"levelo://app?vid=eaba7670-b58d-4da3-98e2-9aa758641e7c"},"vehicle_type_id":"4","last_reported":1733422304,"current_range_meters":0,"station_id":"ce4bh312rcd13ifvqdj0","pricing_plan_id":"cebpf4jnsgd1na2vs0mg"},{"bike_id":"c2d088b8-e7fe-415c-8080-0140a36ff0ad","system_id":"levelo_inurba_marseille","lat":43.290328,"lon":5.375603,"is_reserved":false,"is_disabled":false,"rental_uris":{"android":"levelo://app?vid=c2d088b8-e7fe-415c-8080-0140a36ff0ad","ios":"levelo://app?vid=c2d088b8-e7fe-415c-8080-0140a36ff0ad"},"vehicle_type_id":"4","last_reported":1733422304,"current_range_meters":8800,"station_id":"ce4bh692rcd13ifvqe90","pricing_plan_id":"cebpf4jnsgd1na2vs0mg"},{"bike_id":"f40ea2b5-6ab0-41d1-9e7a-2d26cc5a6507","system_id":"levelo_inurba_marseille","lat":43.29034,"lon":5.39947,"is_reserved":false,"is_disabled":false,"rental_uris":{"android":"levelo://app?vid=f40ea2b5-6ab0-41d1-9e7a-2d26cc5a6507","ios":"levelo://app?vid=f40ea2b5-6ab0-41d1-9e7a-2d26cc5a6507"},"vehicle_type_id":"4","last_reported":1733422304,"current_range_meters":37600,"station_id":"ce4bh392rcd13ifvqdm0","pricing_plan_id":"cebpf4jnsgd1na2vs0mg"},{"bike_id":"d7649603-3eee-47da-91be-bb4265ce6bb8","system_id":"levelo_inurba_marseille","lat":43.30257,"lon":5.40075,"is_reserved":false,"is_disabled":false,"rental_uris":{"android":"levelo://app?vid=d7649603-3eee-47da-91be-bb4265ce6bb8","ios":"levelo://app?vid=d7649603-3eee-47da-91be-bb4265ce6bb8"},"vehicle_type_id":"4","last_reported":1733422304,"current_range_meters":12400,"station_id":"ce4bgvh2rcd13ifvqcs0","pricing_plan_id":"cebpf4jnsgd1na2vs0mg"},{"bike_id":"be8cd377-bf58-414c-876c-45495911bc5b","system_id":"levelo_inurba_marseille","lat":43.28679,"lon":5.41075,"is_reserved":false,"is_disabled":true,"rental_uris":{"android":"levelo://app?vid=be8cd377-bf58-414c-876c-45495911bc5b","ios":"levelo://app?vid=be8cd377-bf58-414c-876c-45495911bc5b"},"vehicle_type_id":"4","last_reported":1733422304,"current_range_meters":4400,"station_id":"","pricing_plan_id":"cebpf4jnsgd1na2vs0mg"},{"bike_id":"bc18eddb-19fb-45b7-be24-39721f6b2ac4","system_id":"levelo_inurba_marseille","lat":43.30889,"lon":5.39653,"is_reserved":false,"is_disabled":false,"rental_uris":{"android":"levelo://app?vid=bc18eddb-19fb-45b7-be24-39721f6b2ac4","ios":"levelo://app?vid=bc18eddb-19fb-45b7-be24-39721f6b2ac4"},"vehicle_type_id":"4","last_reported":1733422304,"current_range_meters":11600,"station_id":"ce4bh012rcd13ifvqcv0","pricing_plan_id":"cebpf4jnsgd1na2vs0mg"},{"bike_id":"0770995c-964d-42cb-80de-55f4fd5ee79a","system_id":"levelo_inurba_marseille","lat":43.337444,"lon":5.374475,"is_reserved":false,"is_disabled":false,"rental_uris":{"android":"levelo://app?vid=0770995c-964d-42cb-80de-55f4fd5ee79a","ios":"levelo://app?vid=0770995c-964d-42cb-80de-55f4fd5ee79a"},"vehicle_type_id":"4","last_reported":1733422304,"current_range_meters":22400,"station_id":"","pricing_plan_id":"cebpf4jnsgd1na2vs0mg"},{"bike_id":"20e9db8d-d68b-4418-94af-d9d63f8c2b96","system_id":"levelo_inurba_marseille","lat":43.337444,"lon":5.374475,"is_reserved":false,"is_disabled":true,"rental_uris":{"android":"levelo://app?vid=20e9db8d-d68b-4418-94af-d9d63f8c2b96","ios":"levelo://app?vid=20e9db8d-d68b-4418-94af-d9d63f8c2b96"},"vehicle_type_id":"4","last_reported":1733422304,"current_range_meters":0,"station_id":"","pricing_plan_id":"cebpf4jnsgd1na2vs0mg"},{"bike_id":"88bd4630-1684-48a2-b33a-f80d98b6825f","system_id":"levelo_inurba_marseille","lat":43.33756,"lon":5.37433,"is_reserved":false,"is_disabled":false,"rental_uris":{"android":"levelo://app?vid=88bd4630-1684-48a2-b33a-f80d98b6825f","ios":"levelo://app?vid=88bd4630-1684-48a2-b33a-f80d98b6825f"},"vehicle_type_id":"4","last_reported":1733422304,"current_range_meters":34800,"station_id":"","pricing_plan_id":"cebpf4jnsgd1na2vs0mg"},{"bike_id":"0e847549-639a-4fc9-8547-3a4fd1219be4","system_id":"levelo_inurba_marseille","lat":43.26368,"lon":5.40446,"is_reserved":false,"is_disabled":false,"rental_uris":{"android":"levelo://app?vid=0e847549-639a-4fc9-8547-3a4fd1219be4","ios":"levelo://app?vid=0e847549-639a-4fc9-8547-3a4fd1219be4"},"vehicle_type_id":"4","last_reported":1733422304,"current_range_meters":5600,"station_id":"","pricing_plan_id":"cebpf4jnsgd1na2vs0mg"},{"bike_id":"ab74d258-8d56-4ed9-9cb7-57ae1639ee73","system_id":"levelo_inurba_marseille","lat":43.26312,"lon":5.40146,"is_reserved":false,"is_disabled":true,"rental_uris":{"android":"levelo://app?vid=ab74d258-8d56-4ed9-9cb7-57ae1639ee73","ios":"levelo://app?vid=ab74d258-8d56-4ed9-9cb7-57ae1639ee73"},"vehicle_type_id":"4","last_reported":1733422304,"current_range_meters":0,"station_id":"","pricing_plan_id":"cebpf4jnsgd1na2vs0mg"},