{"last_updated":1727702321,"ttl":60,"version":"2.2","data":{"bikes":[{"bike_id":"2531afcf-4228-4676-a058-feb56bd29fb5","system_id":"levelo_inurba_marseille","lat":43.2927,"lon":5.38437,"is_reserved":false,"is_disabled":false,"rental_uris":{"android":"levelo://app?vid=2531afcf-4228-4676-a058-feb56bd29fb5","ios":"levelo://app?vid=2531afcf-4228-4676-a058-feb56bd29fb5"},"vehicle_type_id":"4","last_reported":1727702321,"current_range_meters":4800,"station_id":"ce4bh692rcd13ifvqea0","pricing_plan_id":"cebpf4jnsgd1na2vs0mg"},{"bike_id":"9d32dcbc-8ead-4d60-b9de-9a6f184651e1","system_id":"levelo_inurba_marseille","lat":43.27825,"lon":5.40713,"is_reserved":false,"is_disabled":false,"rental_uris":{"android":"levelo://app?vid=9d32dcbc-8ead-4d60-b9de-9a6f184651e1","ios":"levelo://app?vid=9d32dcbc-8ead-4d60-b9de-9a6f184651e1"},"vehicle_type_id":"4","last_reported":1727702321,"current_range_meters":17600,"station_id":"ce4bhnh2rcd13ifvqgtg","pricing_plan_id":"cebpf4jnsgd1na2vs0mg"},{"bike_id":"4ddbf793-90a5-4ea8-a90c-0500fcea6f5c","system_id":"levelo_inurba_marseille","lat":43.29963,"lon":5.38496,"is_reserved":false,"is_disabled":false,"rental_uris":{"android":"levelo://app?vid=4ddbf793-90a5-4ea8-a90c-0500fcea6f5c","ios":"levelo://app?vid=4ddbf793-90a5-4ea8-a90c-0500fcea6f5c"},"vehicle_type_id":"4","last_reported":1727702321,"current_range_meters":28400,"station_id":"ce4bgj92rcd13ifvqbd0","pricing_plan_id":"cebpf4jnsgd1na2vs0mg"},{"bike_id":"85b7e542-d9aa-4411-8363-a890de08af0a","system_id":"levelo_inurba_marseille","lat":43.30921,"lon":5.36844,"is_reserved":false,"is_disabled":false,"rental_uris":{"android":"levelo://app?vid=85b7e542-d9aa-4411-8363-a890de08af0a","ios":"levelo://app?vid=85b7e542-d9aa-4411-8363-a890de08af0a"},"vehicle_type_id":"4","last_reported":1727702321,"current_range_meters":28000,"station_id":"ce4bgn92rcd13ifvqbvg","pricing_plan_id":"cebpf4jnsgd1na2vs0mg"},{"bike_id":"a64d2604-8992-49e7-bfbe-4c73da1546c0","system_id":"levelo_inurba_marseille","lat":43.30526,"lon":5.36529,"is_reserved":false,"is_disabled":false,"rental_uris":{"android":"levelo://app?vid=a64d2604-8992-49e7-bfbe-4c73da1546c0","ios":"levelo://app?vid=a64d2604-8992-49e7-bfbe-4c73da1546c0"},"vehicle_type_id":"4","last_reported":1727702321,"current_range_meters":25200,"station_id":"ce4bgs12rcd13ifvqcag","pricing_plan_id":"cebpf4jnsgd1na2vs0mg"},{"bike_id":"3ad168c0-f1fc-4900-bb75-ce190d3920b3","system_id":"levelo_inurba_marseille","lat":43.33771,"lon":5.37435,"is_reserved":false,"is_disabled":false,"rental_uris":{"android":"levelo://app?vid=3ad168c0-f1fc-4900-bb75-ce190d3920b3","ios":"levelo://app?vid=3ad168c0-f1fc-4900-bb75-ce190d3920b3"},"vehicle_type_id":"4","last_reported":1727702321,"current_range_meters":38400,"station_id":"","pricing_plan_id":"cebpf4jnsgd1na2vs0mg"},{"bike_id":"33f52322-c8c0-42e2-bc16-90f4a22d283a","system_id":"levelo_inurba_marseille","lat":43.297085,"lon":5.376943,"is_reserved":false,"is_disabled":false,"rental_uris":{"android":"levelo://app?vid=33f52322-c8c0-42e2-bc16-90f4a22d283a","ios":"levelo://app?vid=33f52322-c8c0-42e2-bc16-90f4a22d283a"},"vehicle_type_id":"4","last_reported":1727702321,"current_range_meters":33600,"station_id":"ce4bgkh2rcd13ifvqbl0","pricing_plan_id":"cebpf4jnsgd1na2vs0mg"},{"bike_id":"73d0d5df-4401-40c0-89eb-aa4e1f20a05f","system_id":"levelo_inurba_marseille","lat":43.29331,"lon":5.41167,"is_reserved":false,"is_disabled":false,"rental_uris":{"android":"levelo://app?vid=73d0d5df-4401-40c0-89eb-aa4e1f20a05f","ios":"levelo://app?vid=73d0d5df-4401-40c0-89eb-aa4e1f20a05f"},"vehicle_type_id":"4","last_reported":1727702321,"current_range_meters":27600,"station_id":"","pricing_plan_id":"cebpf4jnsgd1na2vs0mg"},{"bike_id":"76e34cad-0ed0-4625-87d2-dd2a19fc63b1","system_id":"levelo_inurba_marseille","lat":43.30553,"lon":5.3654,"is_reserved":false,"is_disabled":false,"rental_uris":{"android":"levelo://app?vid=76e34cad-0ed0-4625-87d2-dd2a19fc63b1","ios":"levelo://app?vid=76e34cad-0ed0-4625-87d2-dd2a19fc63b1"},"vehicle_type_id":"4","last_reported":1727702321,"current_range_meters":34800,"station_id":"ce4bgs12rcd13ifvqcag","pricing_plan_id":"cebpf4jnsgd1na2vs0mg"},{"bike_id":"aba9174e-4285-447c-b36c-fd2f12cbdf4f","system_id":"levelo_inurba_marseille","lat":43.33758,"lon":5.37443,"is_reserved":false,"is_disabled":false,"rental_uris":{"android":"levelo://app?vid=aba9174e-4285-447c-b36c-fd2f12cbdf4f","ios":"levelo://app?vid=aba9174e-4285-447c-b36c-fd2f12cbdf4f"},"vehicle_type_id":"4","last_reported":1727702321,"current_range_meters":38800,"station_id":"","pricing_plan_id":"cebpf4jnsgd1na2vs0mg"},{"bike_id":"f81f799d-767a-47d0-93c1-5db2c969f8ec","system_id":"levelo_inurba_marseille","lat":43.29178,"lon":5.35804,"is_reserved":false,"is_disabled":false,"rental_uris":{"android":"levelo://app?vid=f81f799d-767a-47d0-93c1-5db2c969f8ec","ios":"levelo://app?vid=f81f799d-767a-47d0-93c1-5db2c969f8ec"},"vehicle_type_id":"4","last_reported":1727702321,"current_range_meters":30800,"station_id":"ce4bhb12rcd13ifvqel0","pricing_plan_id":"cebpf4jnsgd1na2vs0mg"},{"bike_id":"43defcf7-27fa-4722-b56f-e45a1dfc2de3","system_id":"levelo_inurba_marseille","lat":43.31868,"lon":5.3871,"is_reserved":false,"is_disabled":false,"rental_uris":{"android":"levelo://app?vid=43defcf7-27fa-4722-b56f-e45a1dfc2de3","ios":"levelo://app?vid=43defcf7-27fa-4722-b56f-e45a1dfc2de3"},"vehicle_type_id":"4","last_reported":1727702321,"current_range_meters":20800,"station_id":"","pricing_plan_id":"cebpf4jnsgd1na2vs0mg"},{"bike_id":"df2b664d-5bac-465f-88e7-ae06dcb5ed98","system_id":"levelo_inurba_marseille","lat":43.24171,"lon":5.36405,"is_reserved":false,"is_disabled":false,"rental_uris":{"android":"levelo://app?vid=df2b664d-5bac-465f-88e7-ae06dcb5ed98","ios":"levelo://app?vid=df2b664d-5bac-465f-88e7-ae06dcb5ed98"},"vehicle_type_id":"4","last_reported":1727702321,"current_range_meters":20000,"station_id":"cpo36qri1sfpv3e86is0","pricing_plan_id":"cebpf4jnsgd1na2vs0mg"},{"bike_id":"ce3b3e18-c5f9-4f6d-9731-c710603bbc0d","system_id":"levelo_inurba_marseille","lat":43.30892,"lon":5.37188,"is_reserved":false,"is_disabled":false,"rental_uris":{"android":"levelo://app?vid=ce3b3e18-c5f9-4f6d-9731-c710603bbc0d","ios":"levelo://app?vid=ce3b3e18-c5f9-4f6d-9731-c710603bbc0d"},"vehicle_type_id":"4","last_reported":1727702321,"current_range_meters":18800,"station_id":"ce4bguh2rcd13ifvqckg","pricing_plan_id":"cebpf4jnsgd1na2vs0mg"},{"bike_id":"f0afd77c-5b27-42f8-847a-db82edca3359","system_id":"levelo_inurba_marseille","lat":43.27901,"lon":5.3801,"is_reserved":false,"is_disabled":false,"rental_uris":{"android":"levelo://app?vid=f0afd77c-5b27-42f8-847a-db82edca3359","ios":"levelo://app?vid=f0afd77c-5b27-42f8-847a-db82edca3359"},"vehicle_type_id":"4","last_reported":1727702321,"current_range_meters":37600,"station_id":"ce4bhf92rcd13ifvqf50","pricing_plan_id":"cebpf4jnsgd1na2vs0mg"},{"bike_id":"7c7310d8-0ff7-4710-8fc2-acd5e5e9e782","system_id":"levelo_inurba_marseille","lat":43.23174,"lon":5.43711,"is_reserved":false,"is_disabled":false,"rental_uris":{"android":"levelo://app?vid=7c7310d8-0ff7-4710-8fc2-acd5e5e9e782","ios":"levelo://app?vid=7c7310d8-0ff7-4710-8fc2-acd5e5e9e782"},"vehicle_type_id":"4","last_reported":1727702321,"current_range_meters":39200,"station_id":"ce4bhmp2rcd13ifvqgog","pricing_plan_id":"cebpf4jnsgd1na2vs0mg"},{"bike_id":"3bf0a32a-7e32-422e-bdd4-82164e871c17","system_id":"levelo_inurba_marseille","lat":43.31229,"lon":5.36856,"is_reserved":false,"is_disabled":false,"rental_uris":{"android":"levelo://app?vid=3bf0a32a-7e32-422e-bdd4-82164e871c17","ios":"levelo://app?vid=3bf0a32a-7e32-422e-bdd4-82164e871c17"},"vehicle_type_id":"4","last_reported":1727702321,"current_range_meters":38800,"station_id":"ce4bgl92rcd13ifvqbq0","pricing_plan_id":"cebpf4jnsgd1na2vs0mg"},{"bike_id":"365dfba5-918f-44ac-8c71-9138dda11f13","system_id":"levelo_inurba_marseille","lat":43.28271,"lon":5.35071,"is_reserved":false,"is_disabled":false,"rental_uris":{"android":"levelo://app?vid=365dfba5-918f-44ac-8c71-9138dda11f13","ios":"levelo://app?vid=365dfba5-918f-44ac-8c71-9138dda11f13"},"vehicle_type_id":"4","last_reported":1727702321,"current_range_meters":18000,"station_id":"ce4bhbp2rcd13ifvqerg","pricing_plan_id":"cebpf4jnsgd1na2vs0mg"},{"bike_id":"685a1d69-54ba-4ff8-be58-7fcd0979c792","system_id":"levelo_inurba_marseille","lat":43.32482,"lon":5.36562,"is_reserved":false,"is_disabled":false,"rental_uris":{"android":"levelo://app?vid=685a1d69-54ba-4ff8-be58-7fcd0979c792","ios":"levelo://app?vid=685a1d69-54ba-4ff8-be58-7fcd0979c792"},"vehicle_type_id":"4","last_reported":1727702321,"current_range_meters":17200,"station_id":"ce4bhs12rcd13ifvqhvg","pricing_plan_id":"cebpf4jnsgd1na2vs0mg"},{"bike_id":"950f0ed1-e694-4a3a-b1c7-4108814836c9","system_id":"levelo_inurba_marseille","lat":43.26677,"lon":5.38271,"is_reserved":false,"is_disabled":false,"rental_uris":{"android":"levelo://app?vid=950f0ed1-e694-4a3a-b1c7-4108814836c9","ios":"levelo://app?vid=950f0ed1-e694-4a3a-b1c7-4108814836c9"},"vehicle_type_id":"4","last_reported":1727702321,"current_range_meters":29600,"station_id":"ce4bhg92rcd13ifvqf90","pricing_plan_id":"cebpf4jnsgd1na2vs0mg"},{"bike_id":"a8d64e1e-2bd8-460f-bff5-2b61686240d9","system_id":"levelo_inurba_marseille","lat":43.23151,"lon":5.43714,"is_reserved":false,"is_disabled":false,"rental_uris":{"android":"levelo://app?vid=a8d64e1e-2bd8-460f-bff5-2b61686240d9","ios":"levelo://app?vid=a8d64e1e-2bd8-460f-bff5-2b61686240d9"},"vehicle_type_id":"4","last_reported":1727702321,"current_range_meters":4800,"station_id":"ce4bhmp2rcd13ifvqgog","pricing_plan_id":"cebpf4jnsgd1na2vs0mg"},{"bike_id":"57a80ae8-44a5-4b59-8305-8e5662314638","system_id":"levelo_inurba_marseille","lat":43.28221,"lon":5.38759,"is_reserved":false,"is_disabled":false,"rental_uris":{"android":"levelo://app?vid=57a80ae8-44a5-4b59-8305-8e5662314638","ios":"levelo://app?vid=57a80ae8-44a5-4b59-8305-8e5662314638"},"vehicle_type_id":"4","last_reported":1727702321,"current_range_meters":22800,"station_id":"","pricing_plan_id":"cebpf4jnsgd1na2vs0mg"},{"bike_id":"dbf820e9-fc5f-48a7-b12b-d310e6262f3d","system_id":"levelo_inurba_marseille","lat":43.25818,"lon":5.39434,"is_reserved":false,"is_disabled":false,"rental_uris":{"android":"levelo://app?vid=dbf820e9-fc5f-48a7-b12b-d310e6262f3d","ios":"levelo://app?vid=dbf820e9-fc5f-48a7-b12b-d310e6262f3d"},"vehicle_type_id":"4","last_reported":1727702321,"current_range_meters":24400,"station_id":"ce4bhip2rcd13ifvqft0","pricing_plan_id":"cebpf4jnsgd1na2vs0mg"},{"bike_id":"380892d5-0c07-4382-989e-ba79e6cba25e","system_id":"levelo_inurba_marseille","lat":43.28015,"lon":5.36085,"is_reserved":false,"is_disabled":false,"rental_uris":{"android":"levelo://app?vid=380892d5-0c07-4382-989e-ba79e6cba25e","ios":"levelo://app?vid=380892d5-0c07-4382-989e-ba79e6cba25e"},"vehicle_type_id":"4","last_reported":1727702321,"current_range_meters":18000,"station_id":"","pricing_plan_id":"cebpf4jnsgd1na2vs0mg"},{"bike_id":"98846a64-6c39-4e5f-b5cd-cb5585578d9d","system_id":"levelo_inurba_marseille","lat":43.2749,"lon":5.42457,"is_reserved":false,"is_disabled":false,"rental_uris":{"android":"levelo://app?vid=98846a64-6c39-4e5f-b5cd-cb5585578d9d","ios":"levelo://app?vid=98846a64-6c39-4e5f-b5cd-cb5585578d9d"},"vehicle_type_id":"4","last_reported":1727702321,"current_range_meters":32000,"station_id":"ce4bhn92rcd13ifvqgrg","pricing_plan_id":"cebpf4jnsgd1na2vs0mg"},{"bike_id":"2781c9d5-86e8-43d9-a819-20df714453ba","system_id":"levelo_inurba_marseille","lat":43.25716,"lon":5.41109,"is_reserved":false,"is_disabled":false,"rental_uris":{"android":"levelo://app?vid=2781c9d5-86e8-43d9-a819-20df714453ba","ios":"levelo://app?vid=2781c9d5-86e8-43d9-a819-20df714453ba"},"vehicle_type_id":"4","last_reported":1727702321,"current_range_meters":35200,"station_id":"ce4bhkp2rcd13ifvqgd0","pricing_plan_id":"cebpf4jnsgd1na2vs0mg"},{"bike_id":"4fd32a8b-5c64-472b-a152-f61f23a6b158","system_id":"levelo_inurba_marseille","lat":43.29253,"lon":5.40915,"is_reserved":false,"is_disabled":false,"rental_uris":{"android":"levelo://app?vid=4fd32a8b-5c64-472b-a152-f61f23a6b158","ios":"levelo://app?vid=4fd32a8b-5c64-472b-a152-f61f23a6b158"},"vehicle_type_id":"4","last_reported":1727702321,"current_range_meters":29600,"station_id":"ce4bh192rcd13ifvqdc0","pricing_plan_id":"cebpf4jnsgd1na2vs0mg"},{"bike_id":"9a105420-123b-400f-a951-1be7e5e376c1","system_id":"levelo_inurba_marseille","lat":43.337444,"lon":5.374475,"is_reserved":false,"is_disabled":false,"rental_uris":{"android":"levelo://app?vid=9a105420-123b-400f-a951-1be7e5e376c1","ios":"levelo://app?vid=9a105420-123b-400f-a951-1be7e5e376c1"},"vehicle_type_id":"4","last_reported":1727702321,"current_range_meters":38800,"station_id":"","pricing_plan_id":"cebpf4jnsgd1na2vs0mg"},{"bike_id":"763b7586-66ee-45db-901a-8b9d20791cea","system_id":"levelo_inurba_marseille","lat":43.32542,"lon":5.41442,"is_reserved":false,"is_disabled":false,"rental_uris":{"android":"levelo://app?vid=763b7586-66ee-45db-901a-8b9d20791cea","ios":"levelo://app?vid=763b7586-66ee-45db-901a-8b9d20791cea"},"vehicle_type_id":"4","last_reported":1727702321,"current_range_meters":36400,"station_id":"ce4bhq12rcd13ifvqhhg","pricing_plan_id":"cebpf4jnsgd1na2vs0mg"},{"bike_id":"4da857fe-840f-4131-8000-1901903cf630","system_id":"levelo_inurba_marseille","lat":43.29194,"lon":5.35805,"is_reserved":false,"is_disabled":false,"rental_uris":{"android":"levelo://app?vid=4da857fe-840f-4131-8000-1901903cf630","ios":"levelo://app?vid=4da857fe-840f-4131-8000-1901903cf630"},"vehicle_type_id":"4","last_reported":1727702321,"current_range_meters":38800,"station_id":"ce4bhb12rcd13ifvqel0","pricing_plan_id":"cebpf4jnsgd1na2vs0mg"},{"bike_id":"06c365e2-ada5-4784-b552-01f94928c737","system_id":"levelo_inurba_marseille","lat":43.337667,"lon":5.374383,"is_reserved":false,"is_disabled":false,"rental_uris":{"android":"levelo://app?vid=06c365e2-ada5-4784-b552-01f94928c737","ios":"levelo://app?vid=06c365e2-ada5-4784-b552-01f94928c737"},"vehicle_type_id":"4","last_reported":1727702321,"current_range_meters":12000,"station_id":"","pricing_plan_id":"cebpf4jnsgd1na2vs0mg"},{"bike_id":"27259275-6d2c-4dbe-82cb-b32b174259aa","system_id":"levelo_inurba_marseille","lat":43.29571,"lon":5.375,"is_reserved":false,"is_disabled":false,"rental_uris":{"android":"levelo://app?vid=27259275-6d2c-4dbe-82cb-b32b174259aa","ios":"levelo://app?vid=27259275-6d2c-4dbe-82cb-b32b174259aa"},"vehicle_type_id":"4","last_reported":1727702321,"current_range_meters":28800,"station_id":"ce4bgh92rcd13ifvqb50","pricing_plan_id":"cebpf4jnsgd1na2vs0mg"},{"bike_id":"683cdf7a-d3ac-4930-b554-580cc9b590bb","system_id":"levelo_inurba_marseille","lat":43.3055,"lon":5.36527,"is_reserved":false,"is_disabled":false,"rental_uris":{"android":"levelo://app?vid=683cdf7a-d3ac-4930-b554-580cc9b590bb","ios":"levelo://app?vid=683cdf7a-d3ac-4930-b554-580cc9b590bb"},"vehicle_type_id":"4","last_reported":1727702321,"current_range_meters":38800,"station_id":"ce4bgs12rcd13ifvqcag","pricing_plan_id":"cebpf4jnsgd1na2vs0mg"},{"bike_id":"7f65494c-bb0c-463b-b3a3-c11c60597589","system_id":"levelo_inurba_marseille","lat":43.24386,"lon":5.37067,"is_reserved":false,"is_disabled":false,"rental_uris":{"android":"levelo://app?vid=7f65494c-bb0c-463b-b3a3-c11c60597589","ios":"levelo://app?vid=7f65494c-bb0c-463b-b3a3-c11c60597589"},"vehicle_type_id":"4","last_reported":1727702321,"current_range_meters":37600,"station_id":"ce4bhhh2rcd13ifvqfk0","pricing_plan_id":"cebpf4jnsgd1na2vs0mg"},{"bike_id":"8a33f911-44dc-4d3f-b7da-50f88dd9e27e","system_id":"levelo_inurba_marseille","lat":43.28853,"lon":5.39297,"is_reserved":false,"is_disabled":false,"rental_uris":{"android":"levelo://app?vid=8a33f911-44dc-4d3f-b7da-50f88dd9e27e","ios":"levelo://app?vid=8a33f911-44dc-4d3f-b7da-50f88dd9e27e"},"vehicle_type_id":"4","last_reported":1727702321,"current_range_meters":14400,"station_id":"ce4bh2p2rcd13ifvqdi0","pricing_plan_id":"cebpf4jnsgd1na2vs0mg"},{"bike_id":"918a76fa-3501-4977-94c9-aac2efae816d","system_id":"levelo_inurba_marseille","lat":43.32483,"lon":5.36563,"is_reserved":false,"is_disabled":false,"rental_uris":{"android":"levelo://app?vid=918a76fa-3501-4977-94c9-aac2efae816d","ios":"levelo://app?vid=918a76fa-3501-4977-94c9-aac2efae816d"},"vehicle_type_id":"4","last_reported":1727702321,"current_range_meters":39200,"station_id":"ce4bhs12rcd13ifvqhvg","pricing_plan_id":"cebpf4jnsgd1na2vs0mg"},{"bike_id":"821594ea-0e6a-4525-967b-13303df55dbd","system_id":"levelo_inurba_marseille","lat":43.28472,"lon":5.38414,"is_reserved":false,"is_disabled":false,"rental_uris":{"android":"levelo://app?vid=821594ea-0e6a-4525-967b-13303df55dbd","ios":"levelo://app?vid=821594ea-0e6a-4525-967b-13303df55dbd"},"vehicle_type_id":"4","last_reported":1727702321,"current_range_meters":8000,"station_id":"ce4bh512rcd13ifvqe3g","pricing_plan_id":"cebpf4jnsgd1na2vs0mg"},{"bike_id":"6d0cd1a8-5426-484a-bd18-74b12855a99e","system_id":"levelo_inurba_marseille","lat":43.26194,"lon":5.37449,"is_reserved":false,"is_disabled":false,"rental_uris":{"android":"levelo://app?vid=6d0cd1a8-5426-484a-bd18-74b12855a99e","ios":"levelo://app?vid=6d0cd1a8-5426-484a-bd18-74b12855a99e"},"vehicle_type_id":"4","last_reported":1727702321,"current_range_meters":35600,"station_id":"ce4bhgp2rcd13ifvqfc0","pricing_plan_id":"cebpf4jnsgd1na2vs0mg"},{"bike_id":"9c5b3a0a-ac7b-405a-bfe5-38bd4b9a7997","system_id":"levelo_inurba_marseille","lat":43.29301,"lon":5.36838,"is_reserved":false,"is_disabled":false,"rental_uris":{"android":"levelo://app?vid=9c5b3a0a-ac7b-405a-bfe5-38bd4b9a7997","ios":"levelo://app?vid=9c5b3a0a-ac7b-405a-bfe5-38bd4b9a7997"},"vehicle_type_id":"4","last_reported":1727702321,"current_range_meters":4000,"station_id":"ce4bhbp2rcd13ifvqesg","pricing_plan_id":"cebpf4jnsgd1na2vs0mg"},{"bike_id":"1d5f749e-f53f-4b6f-965b-83e597511c9a","system_id":"levelo_inurba_marseille","lat":43.24388,"lon":5.37058,"is_reserved":false,"is_disabled":false,"rental_uris":{"android":"levelo://app?vid=1d5f749e-f53f-4b6f-965b-83e597511c9a","ios":"levelo://app?vid=1d5f749e-f53f-4b6f-965b-83e597511c9a"},"vehicle_type_id":"4","last_reported":1727702321,"current_range_meters":3200,"station_id":"ce4bhhh2rcd13ifvqfk0","pricing_plan_id":"cebpf4jnsgd1na2vs0mg"},{"bike_id":"680f5edc-c922-43cc-ade0-414e3a347732","system_id":"levelo_inurba_marseille","lat":43.24074,"lon":5.37752,"is_reserved":false,"is_disabled":false,"rental_uris":{"android":"levelo://app?vid=680f5edc-c922-43cc-ade0-414e3a347732","ios":"levelo://app?vid=680f5edc-c922-43cc-ade0-414e3a347732"},"vehicle_type_id":"4","last_reported":1727702321,"current_range_meters":23200,"station_id":"ce4bhnp2rcd13ifvqgvg","pricing_plan_id":"cebpf4jnsgd1na2vs0mg"},{"bike_id":"95f864cd-3d33-4a22-9e76-46c0e49460f2","system_id":"levelo_inurba_marseille","lat":43.30531,"lon":5.36535,"is_reserved":false,"is_disabled":false,"rental_uris":{"android":"levelo://app?vid=95f864cd-3d33-4a22-9e76-46c0e49460f2","ios":"levelo://app?vid=95f864cd-3d33-4a22-9e76-46c0e49460f2"},"vehicle_type_id":"4","last_reported":1727702321,"current_range_meters":8000,"station_id":"ce4bgs12rcd13ifvqcag","pricing_plan_id":"cebpf4jnsgd1na2vs0mg"},{"bike_id":"65b81cad-d8c4-4688-a851-db55e68aac95","system_id":"levelo_inurba_marseille","lat":43.31337,"lon":5.36719,"is_reserved":false,"is_disabled":false,"rental_uris":{"android":"levelo://app?vid=65b81cad-d8c4-4688-a851-db55e68aac95","ios":"levelo://app?vid=65b81cad-d8c4-4688-a851-db55e68aac95"},"vehicle_type_id":"4","last_reported":1727702321,"current_range_meters":37600,"station_id":"ce4bgr92rcd13ifvqc6g","pricing_plan_id":"cebpf4jnsgd1na2vs0mg"},{"bike_id":"43c06965-23b9-4d30-b7e8-7a5ba49ffbec","system_id":"levelo_inurba_marseille","lat":43.32318,"lon":5.38295,"is_reserved":false,"is_disabled":false,"rental_uris":{"android":"levelo://app?vid=43c06965-23b9-4d30-b7e8-7a5ba49ffbec","ios":"levelo://app?vid=43c06965-23b9-4d30-b7e8-7a5ba49ffbec"},"vehicle_type_id":"4","last_reported":1727702321,"current_range_meters":32800,"station_id":"ce4bhr12rcd13ifvqhqg","pricing_plan_id":"cebpf4jnsgd1na2vs0mg"},{"bike_id":"93a0196b-8767-434b-80f2-df7b9be12f9c","system_id":"levelo_inurba_marseille","lat":43.29011,"lon":5.35609,"is_reserved":false,"is_disabled":false,"rental_uris":{"android":"levelo://app?vid=93a0196b-8767-434b-80f2-df7b9be12f9c","ios":"levelo://app?vid=93a0196b-8767-434b-80f2-df7b9be12f9c"},"vehicle_type_id":"4","last_reported":1727702321,"current_range_meters":8800,"station_id":"ce4bhb92rcd13ifvqen0","pricing_plan_id":"cebpf4jnsgd1na2vs0mg"},{"bike_id":"5b800d39-ba23-48e7-941c-fd0fa9bc4b89","system_id":"levelo_inurba_marseille","lat":43.31229,"lon":5.36862,"is_reserved":false,"is_disabled":false,"rental_uris":{"android":"levelo://app?vid=5b800d39-ba23-48e7-941c-fd0fa9bc4b89","ios":"levelo://app?vid=5b800d39-ba23-48e7-941c-fd0fa9bc4b89"},"vehicle_type_id":"4","last_reported":1727702321,"current_range_meters":3200,"station_id":"ce4bgl92rcd13ifvqbq0","pricing_plan_id":"cebpf4jnsgd1na2vs0mg"},{"bike_id":"bcd51f7a-7c17-4d96-a6bb-c22dd1877d25","system_id":"levelo_inurba_marseille","lat":43.27496,"lon":5.4245,"is_reserved":false,"is_disabled":false,"rental_uris":{"android":"levelo://app?vid=bcd51f7a-7c17-4d96-a6bb-c22dd1877d25","ios":"levelo://app?vid=bcd51f7a-7c17-4d96-a6bb-c22dd1877d25"},"vehicle_type_id":"4","last_reported":1727702321,"current_range_meters":25200,"station_id":"ce4bhn92rcd13ifvqgrg","pricing_plan_id":"cebpf4jnsgd1na2vs0mg"},{"bike_id":"1b019db2-ef06-4c36-bae6-d19a82dfd8bc","system_id":"levelo_inurba_marseille","lat":43.24077,"lon":5.37746,"is_reserved":false,"is_disabled":false,"rental_uris":{"android":"levelo://app?vid=1b019db2-ef06-4c36-bae6-d19a82dfd8bc","ios":"levelo://app?vid=1b019db2-ef06-4c36-bae6-d19a82dfd8bc"},"vehicle_type_id":"4","last_reported":1727702321,"current_range_meters":11200,"station_id":"ce4bhnp2rcd13ifvqgvg","pricing_plan_id":"cebpf4jnsgd1na2vs0mg"},{"bike_id":"1123f35f-7ca2-40da-8d0d-2660f6ddca34","system_id":"levelo_inurba_marseille","lat":43.26789,"lon":5.39425,"is_reserved":false,"is_disabled":false,"rental_uris":{"android":"levelo://app?vid=1123f35f-7ca2-40da-8d0d-2660f6ddca34","ios":"levelo://app?vid=1123f35f-7ca2-40da-8d0d-2660f6ddca34"},"vehicle_type_id":"4","last_reported":1727702321,"current_range_meters":16400,"station_id":"ce4bhh12rcd13ifvqfg0","pricing_plan_id":"cebpf4jnsgd1na2vs0mg"},{"bike_id":"c08ccdf1-49d0-48b7-aafc-76e69921ca5c","system_id":"levelo_inurba_marseille","lat":43.28852,"lon":5.35847,"is_reserved":false,"is_disabled":false,"rental_uris":{"android":"levelo://app?vid=c08ccdf1-49d0-48b7-aafc-76e69921ca5c","ios":"levelo://app?vid=c08ccdf1-49d0-48b7-aafc-76e69921ca5c"},"vehicle_type_id":"4","last_reported":1727702321,"current_range_meters":38400,"station_id":"ce4bhb12rcd13ifvqem0","pricing_plan_id":"cebpf4jnsgd1na2vs0mg"},{"bike_id":"af8726ce-1f41-4136-ae0b-14a0449a0611","system_id":"levelo_inurba_marseille","lat":43.2397,"lon":5.36632,"is_reserved":false,"is_disabled":false,"rental_uris":{"android":"levelo://app?vid=af8726ce-1f41-4136-ae0b-14a0449a0611","ios":"levelo://app?vid=af8726ce-1f41-4136-ae0b-14a0449a0611"},"vehicle_type_id":"4","last_reported":1727702321,"current_range_meters":28000,"station_id":"ce4bhi12rcd13ifvqfp0","pricing_plan_id":"cebpf4jnsgd1na2vs0mg"},{"bike_id":"4e0767bc-a387-4078-b92c-53b47b25227f","system_id":"levelo_inurba_marseille","lat":43.2466,"lon":5.38166,"is_reserved":false,"is_disabled":false,"rental_uris":{"android":"levelo://app?vid=4e0767bc-a387-4078-b92c-53b47b25227f","ios":"levelo://app?vid=4e0767bc-a387-4078-b92c-53b47b25227f"},"vehicle_type_id":"4","last_reported":1727702321,"current_range_meters":35600,"station_id":"ce4bhih2rcd13ifvqfr0","pricing_plan_id":"cebpf4jnsgd1na2vs0mg"},{"bike_id":"0743d692-0f4b-4648-96e3-d7b0d3e36238","system_id":"levelo_inurba_marseille","lat":43.290361,"lon":5.375646,"is_reserved":false,"is_disabled":false,"rental_uris":{"android":"levelo://app?vid=0743d692-0f4b-4648-96e3-d7b0d3e36238","ios":"levelo://app?vid=0743d692-0f4b-4648-96e3-d7b0d3e36238"},"vehicle_type_id":"4","last_reported":1727702321,"current_range_meters":19200,"station_id":"ce4bh692rcd13ifvqe90","pricing_plan_id":"cebpf4jnsgd1na2vs0mg"},{"bike_id":"58303d09-2231-4d94-8ee6-9f07e0a1e318","system_id":"levelo_inurba_marseille","lat":43.29894,"lon":5.43672,"is_reserved":false,"is_disabled":false,"rental_uris":{"android":"levelo://app?vid=58303d09-2231-4d94-8ee6-9f07e0a1e318","ios":"levelo://app?vid=58303d09-2231-4d94-8ee6-9f07e0a1e318"},"vehicle_type_id":"4","last_reported":1727702321,"current_range_meters":39200,"station_id":"ce4bhpp2rcd13ifvqhfg","pricing_plan_id":"cebpf4jnsgd1na2vs0mg"},{"bike_id":"4f3587cb-8b87-47c7-bfb4-4d02e0e95214","system_id":"levelo_inurba_marseille","lat":43.26942,"lon":5.38647,"is_reserved":false,"is_disabled":false,"rental_uris":{"android":"levelo://app?vid=4f3587cb-8b87-47c7-bfb4-4d02e0e95214","ios":"levelo://app?vid=4f3587cb-8b87-47c7-bfb4-4d02e0e95214"},"vehicle_type_id":"4","last_reported":1727702321,"current_range_meters":32000,"station_id":"ce4bhh92rcd13ifvqfh0","pricing_plan_id":"cebpf4jnsgd1na2vs0mg"},{"bike_id":"f9ab2f40-2aa7-4215-b746-767e881314dc","system_id":"levelo_inurba_marseille","lat":43.30909,"lon":5.36846,"is_reserved":false,"is_disabled":false,"rental_uris":{"android":"levelo://app?vid=f9ab2f40-2aa7-4215-b746-767e881314dc","ios":"levelo://app?vid=f9ab2f40-2aa7-4215-b746-767e881314dc"},"vehicle_type_id":"4","last_reported":1727702321,"current_range_meters":23200,"station_id":"ce4bgn92rcd13ifvqbvg","pricing_plan_id":"cebpf4jnsgd1na2vs0mg"},{"bike_id":"45a967a4-8f54-440c-804e-c0c0be62963f","system_id":"levelo_inurba_marseille","lat":43.30282,"lon":5.37692,"is_reserved":false,"is_disabled":false,"rental_uris":{"android":"levelo://app?vid=45a967a4-8f54-440c-804e-c0c0be62963f","ios":"levelo://app?vid=45a967a4-8f54-440c-804e-c0c0be62963f"},"vehicle_type_id":"4","last_reported":1727702321,"current_range_meters":34800,"station_id":"ce4bguh2rcd13ifvqcj0","pricing_plan_id":"cebpf4jnsgd1na2vs0mg"},{"bike_id":"62110c18-ba6e-4a54-8b88-fbfbaf57e32e","system_id":"levelo_inurba_marseille","lat":43.32549,"lon":5.41419,"is_reserved":false,"is_disabled":false,"rental_uris":{"android":"levelo://app?vid=62110c18-ba6e-4a54-8b88-fbfbaf57e32e","ios":"levelo://app?vid=62110c18-ba6e-4a54-8b88-fbfbaf57e32e"},"vehicle_type_id":"4","last_reported":1727702321,"current_range_meters":38800,"station_id":"ce4bhq12rcd13ifvqhhg","pricing_plan_id":"cebpf4jnsgd1na2vs0mg"},{"bike_id":"5e71ae77-b20f-4683-a026-704f02d58cdb","system_id":"levelo_inurba_marseille","lat":43.2695,"lon":5.38626,"is_reserved":false,"is_disabled":false,"rental_uris":{"android":"levelo://app?vid=5e71ae77-b20f-4683-a026-704f02d58cdb","ios":"levelo://app?vid=5e71ae77-b20f-4683-a026-704f02d58cdb"},"vehicle_type_id":"4","last_reported":1727702321,"current_range_meters":27200,"station_id":"ce4bhh92rcd13ifvqfh0","pricing_plan_id":"cebpf4jnsgd1na2vs0mg"},{"bike_id":"37047790-f41e-4e74-b1bb-90e1eddc8cc2","system_id":"levelo_inurba_marseille","lat":43.29421,"lon":5.38617,"is_reserved":false,"is_disabled":false,"rental_uris":{"android":"levelo://app?vid=37047790-f41e-4e74-b1bb-90e1eddc8cc2","ios":"levelo://app?vid=37047790-f41e-4e74-b1bb-90e1eddc8cc2"},"vehicle_type_id":"4","last_reported":1727702321,"current_range_meters":6000,"station_id":"ce4bh2h2rcd13ifvqdh0","pricing_plan_id":"cebpf4jnsgd1na2vs0mg"},{"bike_id":"7446bb55-d4cf-470b-8117-7c389db882ed","system_id":"levelo_inurba_marseille","lat":43.24074,"lon":5.37759,"is_reserved":false,"is_disabled":false,"rental_uris":{"android":"levelo://app?vid=7446bb55-d4cf-470b-8117-7c389db882ed","ios":"levelo://app?vid=7446bb55-d4cf-470b-8117-7c389db882ed"},"vehicle_type_id":"4","last_reported":1727702321,"current_range_meters":14400,"station_id":"ce4bhnp2rcd13ifvqgvg","pricing_plan_id":"cebpf4jnsgd1na2vs0mg"},{"bike_id":"0d4a15b2-3df7-4a30-a28e-5d4bc276e27e","system_id":"levelo_inurba_marseille","lat":43.29594,"lon":5.38109,"is_reserved":false,"is_disabled":false,"rental_uris":{"android":"levelo://app?vid=0d4a15b2-3df7-4a30-a28e-5d4bc276e27e","ios":"levelo://app?vid=0d4a15b2-3df7-4a30-a28e-5d4bc276e27e"},"vehicle_type_id":"4","last_reported":1727702321,"current_range_meters":8000,"station_id":"ce4bgl12rcd13ifvqbo0","pricing_plan_id":"cebpf4jnsgd1na2vs0mg"},{"bike_id":"1f43bee8-50cb-4fd2-b9ad-c47690c25104","system_id":"levelo_inurba_marseille","lat":43.28486,"lon":5.38535,"is_reserved":false,"is_disabled":false,"rental_uris":{"android":"levelo://app?vid=1f43bee8-50cb-4fd2-b9ad-c47690c25104","ios":"levelo://app?vid=1f43bee8-50cb-4fd2-b9ad-c47690c25104"},"vehicle_type_id":"4","last_reported":1727702321,"current_range_meters":8000,"station_id":"ce4bh8p2rcd13ifvqeb0","pricing_plan_id":"cebpf4jnsgd1na2vs0mg"},{"bike_id":"da8c48a1-356e-4878-8d06-279e5da19d39","system_id":"levelo_inurba_marseille","lat":43.30807,"lon":5.38161,"is_reserved":false,"is_disabled":false,"rental_uris":{"android":"levelo://app?vid=da8c48a1-356e-4878-8d06-279e5da19d39","ios":"levelo://app?vid=da8c48a1-356e-4878-8d06-279e5da19d39"},"vehicle_type_id":"4","last_reported":1727702321,"current_range_meters":9600,"station_id":"ce4bgt12rcd13ifvqce0","pricing_plan_id":"cebpf4jnsgd1na2vs0mg"},{"bike_id":"fc000178-2a9f-49f3-96a7-94c32b0a9854","system_id":"levelo_inurba_marseille","lat":43.2695,"lon":5.3863,"is_reserved":false,"is_disabled":false,"rental_uris":{"android":"levelo://app?vid=fc000178-2a9f-49f3-96a7-94c32b0a9854","ios":"levelo://app?vid=fc000178-2a9f-49f3-96a7-94c32b0a9854"},"vehicle_type_id":"4","last_reported":1727702321,"current_range_meters":22800,"station_id":"ce4bhh92rcd13ifvqfh0","pricing_plan_id":"cebpf4jnsgd1na2vs0mg"},{"bike_id":"5af27ccc-425a-42bc-b5a0-0c0f10049fcb","system_id":"levelo_inurba_marseille","lat":43.29977,"lon":5.38497,"is_reserved":false,"is_disabled":false,"rental_uris":{"android":"levelo://app?vid=5af27ccc-425a-42bc-b5a0-0c0f10049fcb","ios":"levelo://app?vid=5af27ccc-425a-42bc-b5a0-0c0f10049fcb"},"vehicle_type_id":"4","last_reported":1727702321,"current_range_meters":36400,"station_id":"ce4bgj92rcd13ifvqbd0","pricing_plan_id":"cebpf4jnsgd1na2vs0mg"},{"bike_id":"44b3be37-5f9e-498a-a752-7653734d4ef1","system_id":"levelo_inurba_marseille","lat":43.24545,"lon":5.3953,"is_reserved":false,"is_disabled":false,"rental_uris":{"android":"levelo://app?vid=44b3be37-5f9e-498a-a752-7653734d4ef1","ios":"levelo://app?vid=44b3be37-5f9e-498a-a752-7653734d4ef1"},"vehicle_type_id":"4","last_reported":1727702321,"current_range_meters":22800,"station_id":"ce4bhlp2rcd13ifvqgjg","pricing_plan_id":"cebpf4jnsgd1na2vs0mg"},{"bike_id":"a1bc21e8-0918-44cf-ae4d-e4103e7fb6ee","system_id":"levelo_inurba_marseille","lat":43.27496,"lon":5.42453,"is_reserved":false,"is_disabled":false,"rental_uris":{"android":"levelo://app?vid=a1bc21e8-0918-44cf-ae4d-e4103e7fb6ee","ios":"levelo://app?vid=a1bc21e8-0918-44cf-ae4d-e4103e7fb6ee"},"vehicle_type_id":"4","last_reported":1727702321,"current_range_meters":14000,"station_id":"ce4bhn92rcd13ifvqgrg","pricing_plan_id":"cebpf4jnsgd1na2vs0mg"},{"bike_id":"e3738426-a3fd-4f49-a87a-ea5e7a30425c","system_id":"levelo_inurba_marseille","lat":43.24385,"lon":5.37058,"is_reserved":false,"is_disabled":false,"rental_uris":{"android":"levelo://app?vid=e3738426-a3fd-4f49-a87a-ea5e7a30425c","ios":"levelo://app?vid=e3738426-a3fd-4f49-a87a-ea5e7a30425c"},"vehicle_type_id":"4","last_reported":1727702321,"current_range_meters":30400,"station_id":"ce4bhhh2rcd13ifvqfk0","pricing_plan_id":"cebpf4jnsgd1na2vs0mg"},{"bike_id":"560eec86-d20e-4632-be2b-0f04c3e3f7f0","system_id":"levelo_inurba_marseille","lat":43.27069,"lon":5.42277,"is_reserved":false,"is_disabled":false,"rental_uris":{"android":"levelo://app?vid=560eec86-d20e-4632-be2b-0f04c3e3f7f0","ios":"levelo://app?vid=560eec86-d20e-4632-be2b-0f04c3e3f7f0"},"vehicle_type_id":"4","last_reported":1727702321,"current_range_meters":28800,"station_id":"ce4bhk92rcd13ifvqgb0","pricing_plan_id":"cebpf4jnsgd1na2vs0mg"},{"bike_id":"791778cb-b9b1-46da-80e8-ce0940cdd61d","system_id":"levelo_inurba_marseille","lat":43.23188,"lon":5.35547,"is_reserved":false,"is_disabled":false,"rental_uris":{"android":"levelo://app?vid=791778cb-b9b1-46da-80e8-ce0940cdd61d","ios":"levelo://app?vid=791778cb-b9b1-46da-80e8-ce0940cdd61d"},"vehicle_type_id":"4","last_reported":1727702321,"current_range_meters":10000,"station_id":"ce4bhu92rcd13ifvqi70","pricing_plan_id":"cebpf4jnsgd1na2vs0mg"},{"bike_id":"c91b2253-767b-4237-82bc-49763653b489","system_id":"levelo_inurba_marseille","lat":43.30417,"lon":5.41289,"is_reserved":false,"is_disabled":false,"rental_uris":{"android":"levelo://app?vid=c91b2253-767b-4237-82bc-49763653b489","ios":"levelo://app?vid=c91b2253-767b-4237-82bc-49763653b489"},"vehicle_type_id":"4","last_reported":1727702321,"current_range_meters":38800,"station_id":"ce4bhop2rcd13ifvqh8g","pricing_plan_id":"cebpf4jnsgd1na2vs0mg"},{"bike_id":"0569ffd9-5d73-439a-979a-a1c88b9a1061","system_id":"levelo_inurba_marseille","lat":43.32914,"lon":5.39046,"is_reserved":false,"is_disabled":false,"rental_uris":{"android":"levelo://app?vid=0569ffd9-5d73-439a-979a-a1c88b9a1061","ios":"levelo://app?vid=0569ffd9-5d73-439a-979a-a1c88b9a1061"},"vehicle_type_id":"4","last_reported":1727702321,"current_range_meters":32800,"station_id":"","pricing_plan_id":"cebpf4jnsgd1na2vs0mg"},{"bike_id":"fea66992-411c-4494-b803-d53d4cebc76a","system_id":"levelo_inurba_marseille","lat":43.28343,"lon":5.38104,"is_reserved":false,"is_disabled":false,"rental_uris":{"android":"levelo://app?vid=fea66992-411c-4494-b803-d53d4cebc76a","ios":"levelo://app?vid=fea66992-411c-4494-b803-d53d4cebc76a"},"vehicle_type_id":"4","last_reported":1727702321,"current_range_meters":24800,"station_id":"ce4bh412rcd13ifvqdr0","pricing_plan_id":"cebpf4jnsgd1na2vs0mg"},{"bike_id":"b513442b-6c10-4d05-9961-8edafb74c6b5","system_id":"levelo_inurba_marseille","lat":43.29051,"lon":5.35915,"is_reserved":false,"is_disabled":false,"rental_uris":{"android":"levelo://app?vid=b513442b-6c10-4d05-9961-8edafb74c6b5","ios":"levelo://app?vid=b513442b-6c10-4d05-9961-8edafb74c6b5"},"vehicle_type_id":"4","last_reported":1727702321,"current_range_meters":16400,"station_id":"ce4bha92rcd13ifvqeg0","pricing_plan_id":"cebpf4jnsgd1na2vs0mg"},{"bike_id":"80e06d63-e4bc-451b-a7e9-c06cc1bc640e","system_id":"levelo_inurba_marseille","lat":43.27076,"lon":5.42274,"is_reserved":false,"is_disabled":false,"rental_uris":{"android":"levelo://app?vid=80e06d63-e4bc-451b-a7e9-c06cc1bc640e","ios":"levelo://app?vid=80e06d63-e4bc-451b-a7e9-c06cc1bc640e"},"vehicle_type_id":"4","last_reported":1727702321,"current_range_meters":11200,"station_id":"ce4bhk92rcd13ifvqgb0","pricing_plan_id":"cebpf4jnsgd1na2vs0mg"},{"bike_id":"29cd1976-89d1-43cb-84d2-80e4439db4b1","system_id":"levelo_inurba_marseille","lat":43.31215,"lon":5.36837,"is_reserved":false,"is_disabled":false,"rental_uris":{"android":"levelo://app?vid=29cd1976-89d1-43cb-84d2-80e4439db4b1","ios":"levelo://app?vid=29cd1976-89d1-43cb-84d2-80e4439db4b1"},"vehicle_type_id":"4","last_reported":1727702321,"current_range_meters":39200,"station_id":"ce4bgl92rcd13ifvqbq0","pricing_plan_id":"cebpf4jnsgd1na2vs0mg"},{"bike_id":"88848e52-9afe-47f1-b751-55afa66467b5","system_id":"levelo_inurba_marseille","lat":43.32366,"lon":5.38889,"is_reserved":false,"is_disabled":false,"rental_uris":{"android":"levelo://app?vid=88848e52-9afe-47f1-b751-55afa66467b5","ios":"levelo://app?vid=88848e52-9afe-47f1-b751-55afa66467b5"},"vehicle_type_id":"4","last_reported":1727702321,"current_range_meters":14800,"station_id":"ce4bhqp2rcd13ifvqhog","pricing_plan_id":"cebpf4jnsgd1na2vs0mg"},{"bike_id":"995aa1ff-2139-4621-9eea-9356c2016c29","system_id":"levelo_inurba_marseille","lat":43.27488,"lon":5.42453,"is_reserved":false,"is_disabled":false,"rental_uris":{"android":"levelo://app?vid=995aa1ff-2139-4621-9eea-9356c2016c29","ios":"levelo://app?vid=995aa1ff-2139-4621-9eea-9356c2016c29"},"vehicle_type_id":"4","last_reported":1727702321,"current_range_meters":14400,"station_id":"ce4bhn92rcd13ifvqgrg","pricing_plan_id":"cebpf4jnsgd1na2vs0mg"},{"bike_id":"bd86acbb-18ff-4457-8d99-e11793cb14a0","system_id":"levelo_inurba_marseille","lat":43.27082,"lon":5.42275,"is_reserved":false,"is_disabled":false,"rental_uris":{"android":"levelo://app?vid=bd86acbb-18ff-4457-8d99-e11793cb14a0","ios":"levelo://app?vid=bd86acbb-18ff-4457-8d99-e11793cb14a0"},"vehicle_type_id":"4","last_reported":1727702321,"current_range_meters":31200,"station_id":"ce4bhk92rcd13ifvqgb0","pricing_plan_id":"cebpf4jnsgd1na2vs0mg"},{"bike_id":"53b8b279-3e36-4185-b3b0-4688e1a414fb","system_id":"levelo_inurba_marseille","lat":43.28421,"lon":5.34992,"is_reserved":false,"is_disabled":false,"rental_uris":{"android":"levelo://app?vid=53b8b279-3e36-4185-b3b0-4688e1a414fb","ios":"levelo://app?vid=53b8b279-3e36-4185-b3b0-4688e1a414fb"},"vehicle_type_id":"4","last_reported":1727702321,"current_range_meters":36000,"station_id":"ce4bhbh2rcd13ifvqepg","pricing_plan_id":"cebpf4jnsgd1na2vs0mg"},{"bike_id":"8d9d197c-59bf-4daf-9e78-32671be06413","system_id":"levelo_inurba_marseille","lat":43.27495,"lon":5.42454,"is_reserved":false,"is_disabled":false,"rental_uris":{"android":"levelo://app?vid=8d9d197c-59bf-4daf-9e78-32671be06413","ios":"levelo://app?vid=8d9d197c-59bf-4daf-9e78-32671be06413"},"vehicle_type_id":"4","last_reported":1727702321,"current_range_meters":8000,"station_id":"ce4bhn92rcd13ifvqgrg","pricing_plan_id":"cebpf4jnsgd1na2vs0mg"},{"bike_id":"3ea05e8b-dcf6-4f60-a396-3d9a74f783ed","system_id":"levelo_inurba_marseille","lat":43.23147,"lon":5.4372,"is_reserved":false,"is_disabled":false,"rental_uris":{"android":"levelo://app?vid=3ea05e8b-dcf6-4f60-a396-3d9a74f783ed","ios":"levelo://app?vid=3ea05e8b-dcf6-4f60-a396-3d9a74f783ed"},"vehicle_type_id":"4","last_reported":1727702321,"current_range_meters":24400,"station_id":"ce4bhmp2rcd13ifvqgog","pricing_plan_id":"cebpf4jnsgd1na2vs0mg"},{"bike_id":"7ebef0d5-ad33-4431-ac87-a11795f91fb2","system_id":"levelo_inurba_marseille","lat":43.31762,"lon":5.39013,"is_reserved":false,"is_disabled":false,"rental_uris":{"android":"levelo://app?vid=7ebef0d5-ad33-4431-ac87-a11795f91fb2","ios":"levelo://app?vid=7ebef0d5-ad33-4431-ac87-a11795f91fb2"},"vehicle_type_id":"4","last_reported":1727702321,"current_range_meters":18800,"station_id":"ce4bhqp2rcd13ifvqhng","pricing_plan_id":"cebpf4jnsgd1na2vs0mg"},{"bike_id":"3d60b879-a86d-4411-8be8-d4cc9feda08e","system_id":"levelo_inurba_marseille","lat":43.289337,"lon":5.364026,"is_reserved":false,"is_disabled":false,"rental_uris":{"android":"levelo://app?vid=3d60b879-a86d-4411-8be8-d4cc9feda08e","ios":"levelo://app?vid=3d60b879-a86d-4411-8be8-d4cc9feda08e"},"vehicle_type_id":"4","last_reported":1727702321,"current_range_meters":16000,"station_id":"ce4bhc92rcd13ifvqetg","pricing_plan_id":"cebpf4jnsgd1na2vs0mg"},{"bike_id":"b5287088-8145-4a2d-aba3-2d3c6aacbb87","system_id":"levelo_inurba_marseille","lat":43.23966,"lon":5.36639,"is_reserved":false,"is_disabled":false,"rental_uris":{"android":"levelo://app?vid=b5287088-8145-4a2d-aba3-2d3c6aacbb87","ios":"levelo://app?vid=b5287088-8145-4a2d-aba3-2d3c6aacbb87"},"vehicle_type_id":"4","last_reported":1727702321,"current_range_meters":26000,"station_id":"ce4bhi12rcd13ifvqfp0","pricing_plan_id":"cebpf4jnsgd1na2vs0mg"},{"bike_id":"85b66089-f5dc-40c1-a0b9-5b724c307c5f","system_id":"levelo_inurba_marseille","lat":43.28604,"lon":5.37068,"is_reserved":false,"is_disabled":false,"rental_uris":{"android":"levelo://app?vid=85b66089-f5dc-40c1-a0b9-5b724c307c5f","ios":"levelo://app?vid=85b66089-f5dc-40c1-a0b9-5b724c307c5f"},"vehicle_type_id":"4","last_reported":1727702321,"current_range_meters":24800,"station_id":"ce4bht12rcd13ifvqi60","pricing_plan_id":"cebpf4jnsgd1na2vs0mg"},{"bike_id":"0fee37a2-78c9-46bd-9b7b-4f9c5c7cf259","system_id":"levelo_inurba_marseille","lat":43.2847,"lon":5.38417,"is_reserved":false,"is_disabled":false,"rental_uris":{"android":"levelo://app?vid=0fee37a2-78c9-46bd-9b7b-4f9c5c7cf259","ios":"levelo://app?vid=0fee37a2-78c9-46bd-9b7b-4f9c5c7cf259"},"vehicle_type_id":"4","last_reported":1727702321,"current_range_meters":28800,"station_id":"ce4bh512rcd13ifvqe3g","pricing_plan_id":"cebpf4jnsgd1na2vs0mg"},{"bike_id":"e270df52-6ea8-4b07-8004-b0f4c13d11e9","system_id":"levelo_inurba_marseille","lat":43.28662,"lon":5.36355,"is_reserved":false,"is_disabled":false,"rental_uris":{"android":"levelo://app?vid=e270df52-6ea8-4b07-8004-b0f4c13d11e9","ios":"levelo://app?vid=e270df52-6ea8-4b07-8004-b0f4c13d11e9"},"vehicle_type_id":"4","last_reported":1727702321,"current_range_meters":18800,"station_id":"ce4bhah2rcd13ifvqej0","pricing_plan_id":"cebpf4jnsgd1na2vs0mg"},{"bike_id":"e0eb1afb-dc70-4c85-9198-29d110d3f8fa","system_id":"levelo_inurba_marseille","lat":43.27325,"lon":5.39073,"is_reserved":false,"is_disabled":false,"rental_uris":{"android":"levelo://app?vid=e0eb1afb-dc70-4c85-9198-29d110d3f8fa","ios":"levelo://app?vid=e0eb1afb-dc70-4c85-9198-29d110d3f8fa"},"vehicle_type_id":"4","last_reported":1727702321,"current_range_meters":4400,"station_id":"ce4bhgp2rcd13ifvqfe0","pricing_plan_id":"cebpf4jnsgd1na2vs0mg"},{"bike_id":"4b8c8b27-48ee-4f45-b57e-738460c2fbb7","system_id":"levelo_inurba_marseille","lat":43.33777,"lon":5.37441,"is_reserved":false,"is_disabled":false,"rental_uris":{"android":"levelo://app?vid=4b8c8b27-48ee-4f45-b57e-738460c2fbb7","ios":"levelo://app?vid=4b8c8b27-48ee-4f45-b57e-738460c2fbb7"},"vehicle_type_id":"4","last_reported":1727702321,"current_range_meters":37600,"station_id":"","pricing_plan_id":"cebpf4jnsgd1na2vs0mg"},{"bike_id":"c1a03853-933e-4d24-8b69-e5bcca84d5be","system_id":"levelo_inurba_marseille","lat":43.251495,"lon":5.385411,"is_reserved":false,"is_disabled":false,"rental_uris":{"android":"levelo://app?vid=c1a03853-933e-4d24-8b69-e5bcca84d5be","ios":"levelo://app?vid=c1a03853-933e-4d24-8b69-e5bcca84d5be"},"vehicle_type_id":"4","last_reported":1727702321,"current_range_meters":10800,"station_id":"ce4bhbp2rcd13ifvqerg","pricing_plan_id":"cebpf4jnsgd1na2vs0mg"},{"bike_id":"133fb6b7-5e38-4c3d-aafc-569467201556","system_id":"levelo_inurba_marseille","lat":43.23154,"lon":5.4371,"is_reserved":false,"is_disabled":false,"rental_uris":{"android":"levelo://app?vid=133fb6b7-5e38-4c3d-aafc-569467201556","ios":"levelo://app?vid=133fb6b7-5e38-4c3d-aafc-569467201556"},"vehicle_type_id":"4","last_reported":1727702321,"current_range_meters":16800,"station_id":"ce4bhmp2rcd13ifvqgog","pricing_plan_id":"cebpf4jnsgd1na2vs0mg"},{"bike_id":"3a1bb991-d927-4e42-83c7-80db4be539f3","system_id":"levelo_inurba_marseille","lat":43.31073,"lon":5.38355,"is_reserved":false,"is_disabled":false,"rental_uris":{"android":"levelo://app?vid=3a1bb991-d927-4e42-83c7-80db4be539f3","ios":"levelo://app?vid=3a1bb991-d927-4e42-83c7-80db4be539f3"},"vehicle_type_id":"4","last_reported":1727702321,"current_range_meters":10800,"station_id":"ce4bgv92rcd13ifvqcr0","pricing_plan_id":"cebpf4jnsgd1na2vs0mg"},{"bike_id":"5890614c-8f6e-468c-b760-f9855cffa13b","system_id":"levelo_inurba_marseille","lat":43.24075,"lon":5.37745,"is_reserved":false,"is_disabled":false,"rental_uris":{"android":"levelo://app?vid=5890614c-8f6e-468c-b760-f9855cffa13b","ios":"levelo://app?vid=5890614c-8f6e-468c-b760-f9855cffa13b"},"vehicle_type_id":"4","last_reported":1727702321,"current_range_meters":19600,"station_id":"ce4bhnp2rcd13ifvqgvg","pricing_plan_id":"cebpf4jnsgd1na2vs0mg"},{"bike_id":"1e79c019-699e-428e-8425-e4cd5fa054f5","system_id":"levelo_inurba_marseille","lat":43.29596,"lon":5.3811,"is_reserved":false,"is_disabled":false,"rental_uris":{"android":"levelo://app?vid=1e79c019-699e-428e-8425-e4cd5fa054f5","ios":"levelo://app?vid=1e79c019-699e-428e-8425-e4cd5fa054f5"},"vehicle_type_id":"4","last_reported":1727702321,"current_range_meters":38400,"station_id":"ce4bgl12rcd13ifvqbo0","pricing_plan_id":"cebpf4jnsgd1na2vs0mg"},{"bike_id":"cfa2c389-460c-4a35-afb1-cb8d88c8fa91","system_id":"levelo_inurba_marseille","lat":43.33101,"lon":5.37769,"is_reserved":false,"is_disabled":false,"rental_uris":{"android":"levelo://app?vid=cfa2c389-460c-4a35-afb1-cb8d88c8fa91","ios":"levelo://app?vid=cfa2c389-460c-4a35-afb1-cb8d88c8fa91"},"vehicle_type_id":"4","last_reported":1727702321,"current_range_meters":38800,"station_id":"","pricing_plan_id":"cebpf4jnsgd1na2vs0mg"},{"bike_id":"f3f00dbf-323a-42a8-ace3-4a4195aa797c","system_id":"levelo_inurba_marseille","lat":43.27899,"lon":5.38012,"is_reserved":false,"is_disabled":false,"rental_uris":{"android":"levelo://app?vid=f3f00dbf-323a-42a8-ace3-4a4195aa797c","ios":"levelo://app?vid=f3f00dbf-323a-42a8-ace3-4a4195aa797c"},"vehicle_type_id":"4","last_reported":1727702321,"current_range_meters":33600,"station_id":"ce4bhf92rcd13ifvqf50","pricing_plan_id":"cebpf4jnsgd1na2vs0mg"},{"bike_id":"5615da3f-e6d0-494c-8b31-97550f43797d","system_id":"levelo_inurba_marseille","lat":43.27498,"lon":5.4245,"is_reserved":false,"is_disabled":false,"rental_uris":{"android":"levelo://app?vid=5615da3f-e6d0-494c-8b31-97550f43797d","ios":"levelo://app?vid=5615da3f-e6d0-494c-8b31-97550f43797d"},"vehicle_type_id":"4","last_reported":1727702321,"current_range_meters":12400,"station_id":"ce4bhn92rcd13ifvqgrg","pricing_plan_id":"cebpf4jnsgd1na2vs0mg"},{"bike_id":"8f53a67f-5dd1-49fb-ba41-2808698f5c20","system_id":"levelo_inurba_marseille","lat":43.23155,"lon":5.437,"is_reserved":false,"is_disabled":false,"rental_uris":{"android":"levelo://app?vid=8f53a67f-5dd1-49fb-ba41-2808698f5c20","ios":"levelo://app?vid=8f53a67f-5dd1-49fb-ba41-2808698f5c20"},"vehicle_type_id":"4","last_reported":1727702321,"current_range_meters":27600,"station_id":"ce4bhmp2rcd13ifvqgog","pricing_plan_id":"cebpf4jnsgd1na2vs0mg"},{"bike_id":"506065c9-a261-470c-8a02-26fb6f0ed83c","system_id":"levelo_inurba_marseille","lat":43.30772,"lon":5.37661,"is_reserved":false,"is_disabled":false,"rental_uris":{"android":"levelo://app?vid=506065c9-a261-470c-8a02-26fb6f0ed83c","ios":"levelo://app?vid=506065c9-a261-470c-8a02-26fb6f0ed83c"},"vehicle_type_id":"4","last_reported":1727702321,"current_range_meters":39200,"station_id":"ce4bgv92rcd13ifvqcq0","pricing_plan_id":"cebpf4jnsgd1na2vs0mg"},{"bike_id":"7bd89c2a-5cd9-49ed-83ed-dd2d91ea9a0e","system_id":"levelo_inurba_marseille","lat":43.31219,"lon":5.36842,"is_reserved":false,"is_disabled":false,"rental_uris":{"android":"levelo://app?vid=7bd89c2a-5cd9-49ed-83ed-dd2d91ea9a0e","ios":"levelo://app?vid=7bd89c2a-5cd9-49ed-83ed-dd2d91ea9a0e"},"vehicle_type_id":"4","last_reported":1727702321,"current_range_meters":39200,"station_id":"ce4bgl92rcd13ifvqbq0","pricing_plan_id":"cebpf4jnsgd1na2vs0mg"},{"bike_id":"ea7096cb-1b5a-4b1f-bc5a-2ee4e0e75772","system_id":"levelo_inurba_marseille","lat":43.30211,"lon":5.39469,"is_reserved":false,"is_disabled":false,"rental_uris":{"android":"levelo://app?vid=ea7096cb-1b5a-4b1f-bc5a-2ee4e0e75772","ios":"levelo://app?vid=ea7096cb-1b5a-4b1f-bc5a-2ee4e0e75772"},"vehicle_type_id":"4","last_reported":1727702321,"current_range_meters":34000,"station_id":"ce4bh0p2rcd13ifvqd70","pricing_plan_id":"cebpf4jnsgd1na2vs0mg"},{"bike_id":"58eab6e4-00e6-4470-a933-0797b3ebe7f3","system_id":"levelo_inurba_marseille","lat":43.29896,"lon":5.43672,"is_reserved":false,"is_disabled":false,"rental_uris":{"android":"levelo://app?vid=58eab6e4-00e6-4470-a933-0797b3ebe7f3","ios":"levelo://app?vid=58eab6e4-00e6-4470-a933-0797b3ebe7f3"},"vehicle_type_id":"4","last_reported":1727702321,"current_range_meters":25200,"station_id":"ce4bhpp2rcd13ifvqhfg","pricing_plan_id":"cebpf4jnsgd1na2vs0mg"},{"bike_id":"2bc54687-80aa-4879-8f83-ecd93292d24e","system_id":"levelo_inurba_marseille","lat":43.29054,"lon":5.39948,"is_reserved":false,"is_disabled":false,"rental_uris":{"android":"levelo://app?vid=2bc54687-80aa-4879-8f83-ecd93292d24e","ios":"levelo://app?vid=2bc54687-80aa-4879-8f83-ecd93292d24e"},"vehicle_type_id":"4","last_reported":1727702321,"current_range_meters":38400,"station_id":"ce4bh392rcd13ifvqdm0","pricing_plan_id":"cebpf4jnsgd1na2vs0mg"},{"bike_id":"40774392-150e-4382-a6a3-5c4ac3eceb49","system_id":"levelo_inurba_marseille","lat":43.3091,"lon":5.3685,"is_reserved":false,"is_disabled":false,"rental_uris":{"android":"levelo://app?vid=40774392-150e-4382-a6a3-5c4ac3eceb49","ios":"levelo://app?vid=40774392-150e-4382-a6a3-5c4ac3eceb49"},"vehicle_type_id":"4","last_reported":1727702321,"current_range_meters":34000,"station_id":"ce4bgn92rcd13ifvqbvg","pricing_plan_id":"cebpf4jnsgd1na2vs0mg"},{"bike_id":"137d478a-69d8-4b77-ad5f-e7af690c0925","system_id":"levelo_inurba_marseille","lat":43.24082,"lon":5.37744,"is_reserved":false,"is_disabled":false,"rental_uris":{"android":"levelo://app?vid=137d478a-69d8-4b77-ad5f-e7af690c0925","ios":"levelo://app?vid=137d478a-69d8-4b77-ad5f-e7af690c0925"},"vehicle_type_id":"4","last_reported":1727702321,"current_range_meters":8000,"station_id":"ce4bhnp2rcd13ifvqgvg","pricing_plan_id":"cebpf4jnsgd1na2vs0mg"},{"bike_id":"318262dc-85f7-4629-9884-6167fafac465","system_id":"levelo_inurba_marseille","lat":43.23155,"lon":5.43699,"is_reserved":false,"is_disabled":false,"rental_uris":{"android":"levelo://app?vid=318262dc-85f7-4629-9884-6167fafac465","ios":"levelo://app?vid=318262dc-85f7-4629-9884-6167fafac465"},"vehicle_type_id":"4","last_reported":1727702321,"current_range_meters":36400,"station_id":"ce4bhmp2rcd13ifvqgog","pricing_plan_id":"cebpf4jnsgd1na2vs0mg"},{"bike_id":"e80684d7-58b9-4862-bbd8-a853c05edf58","system_id":"levelo_inurba_marseille","lat":43.29049,"lon":5.39956,"is_reserved":false,"is_disabled":false,"rental_uris":{"android":"levelo://app?vid=e80684d7-58b9-4862-bbd8-a853c05edf58","ios":"levelo://app?vid=e80684d7-58b9-4862-bbd8-a853c05edf58"},"vehicle_type_id":"4","last_reported":1727702321,"current_range_meters":37600,"station_id":"ce4bh392rcd13ifvqdm0","pricing_plan_id":"cebpf4jnsgd1na2vs0mg"},{"bike_id":"7977a9c9-5512-4fa7-9026-3e7c33952b44","system_id":"levelo_inurba_marseille","lat":43.267135,"lon":5.401396,"is_reserved":false,"is_disabled":false,"rental_uris":{"android":"levelo://app?vid=7977a9c9-5512-4fa7-9026-3e7c33952b44","ios":"levelo://app?vid=7977a9c9-5512-4fa7-9026-3e7c33952b44"},"vehicle_type_id":"4","last_reported":1727702321,"current_range_meters":18800,"station_id":"ce4bhm92rcd13ifvqglg","pricing_plan_id":"cebpf4jnsgd1na2vs0mg"},{"bike_id":"927f89eb-ec9f-463d-89aa-08f3b60c72f8","system_id":"levelo_inurba_marseille","lat":43.30463,"lon":5.37907,"is_reserved":false,"is_disabled":false,"rental_uris":{"android":"levelo://app?vid=927f89eb-ec9f-463d-89aa-08f3b60c72f8","ios":"levelo://app?vid=927f89eb-ec9f-463d-89aa-08f3b60c72f8"},"vehicle_type_id":"4","last_reported":1727702321,"current_range_meters":24400,"station_id":"ce4bgup2rcd13ifvqcn0","pricing_plan_id":"cebpf4jnsgd1na2vs0mg"},{"bike_id":"24fde79f-68ad-43be-bb60-169bb62af017","system_id":"levelo_inurba_marseille","lat":43.25114,"lon":5.40328,"is_reserved":false,"is_disabled":false,"rental_uris":{"android":"levelo://app?vid=24fde79f-68ad-43be-bb60-169bb62af017","ios":"levelo://app?vid=24fde79f-68ad-43be-bb60-169bb62af017"},"vehicle_type_id":"4","last_reported":1727702321,"current_range_meters":32400,"station_id":"ce4bhlh2rcd13ifvqgig","pricing_plan_id":"cebpf4jnsgd1na2vs0mg"},{"bike_id":"908021a4-c1b6-4d63-8e7a-87eb8947eb54","system_id":"levelo_inurba_marseille","lat":43.24083,"lon":5.37749,"is_reserved":false,"is_disabled":false,"rental_uris":{"android":"levelo://app?vid=908021a4-c1b6-4d63-8e7a-87eb8947eb54","ios":"levelo://app?vid=908021a4-c1b6-4d63-8e7a-87eb8947eb54"},"vehicle_type_id":"4","last_reported":1727702321,"current_range_meters":4400,"station_id":"ce4bhnp2rcd13ifvqgvg","pricing_plan_id":"cebpf4jnsgd1na2vs0mg"},{"bike_id":"9aa714ff-32ac-45c6-9230-72549b98afe2","system_id":"levelo_inurba_marseille","lat":43.27944,"lon":5.41042,"is_reserved":false,"is_disabled":false,"rental_uris":{"android":"levelo://app?vid=9aa714ff-32ac-45c6-9230-72549b98afe2","ios":"levelo://app?vid=9aa714ff-32ac-45c6-9230-72549b98afe2"},"vehicle_type_id":"4","last_reported":1727702321,"current_range_meters":4800,"station_id":"ce4bhnp2rcd13ifvqh0g","pricing_plan_id":"cebpf4jnsgd1na2vs0mg"},{"bike_id":"198c6525-69f6-4d89-bcbd-1175e992d462","system_id":"levelo_inurba_marseille","lat":43.33755,"lon":5.37452,"is_reserved":false,"is_disabled":false,"rental_uris":{"android":"levelo://app?vid=198c6525-69f6-4d89-bcbd-1175e992d462","ios":"levelo://app?vid=198c6525-69f6-4d89-bcbd-1175e992d462"},"vehicle_type_id":"4","last_reported":1727702321,"current_range_meters":36800,"station_id":"","pricing_plan_id":"cebpf4jnsgd1na2vs0mg"},{"bike_id":"605d2914-d3c6-4ce1-bf72-419b15445aef","system_id":"levelo_inurba_marseille","lat":43.30893,"lon":5.37187,"is_reserved":false,"is_disabled":false,"rental_uris":{"android":"levelo://app?vid=605d2914-d3c6-4ce1-bf72-419b15445aef","ios":"levelo://app?vid=605d2914-d3c6-4ce1-bf72-419b15445aef"},"vehicle_type_id":"4","last_reported":1727702321,"current_range_meters":37600,"station_id":"ce4bguh2rcd13ifvqckg","pricing_plan_id":"cebpf4jnsgd1na2vs0mg"},{"bike_id":"7f31e939-386b-4eec-8a38-2c2f697c2949","system_id":"levelo_inurba_marseille","lat":43.29882,"lon":5.39732,"is_reserved":false,"is_disabled":false,"rental_uris":{"android":"levelo://app?vid=7f31e939-386b-4eec-8a38-2c2f697c2949","ios":"levelo://app?vid=7f31e939-386b-4eec-8a38-2c2f697c2949"},"vehicle_type_id":"4","last_reported":1727702321,"current_range_meters":28000,"station_id":"ce4bh0h2rcd13ifvqd50","pricing_plan_id":"cebpf4jnsgd1na2vs0mg"},{"bike_id":"0079a2ab-35ac-44a9-a3fb-2b221435dedf","system_id":"levelo_inurba_marseille","lat":43.2407,"lon":5.37762,"is_reserved":false,"is_disabled":false,"rental_uris":{"android":"levelo://app?vid=0079a2ab-35ac-44a9-a3fb-2b221435dedf","ios":"levelo://app?vid=0079a2ab-35ac-44a9-a3fb-2b221435dedf"},"vehicle_type_id":"4","last_reported":1727702321,"current_range_meters":17200,"station_id":"ce4bhnp2rcd13ifvqgvg","pricing_plan_id":"cebpf4jnsgd1na2vs0mg"},{"bike_id":"e333d9dd-0090-46f9-a1a4-1c15628fa9d1","system_id":"levelo_inurba_marseille","lat":43.337444,"lon":5.374475,"is_reserved":false,"is_disabled":false,"rental_uris":{"android":"levelo://app?vid=e333d9dd-0090-46f9-a1a4-1c15628fa9d1","ios":"levelo://app?vid=e333d9dd-0090-46f9-a1a4-1c15628fa9d1"},"vehicle_type_id":"4","last_reported":1727702321,"current_range_meters":30000,"station_id":"","pricing_plan_id":"cebpf4jnsgd1na2vs0mg"},{"bike_id":"b98c0ab9-0367-4eb2-a7bd-6f4abbeb0e08","system_id":"levelo_inurba_marseille","lat":43.32048,"lon":5.41556,"is_reserved":false,"is_disabled":false,"rental_uris":{"android":"levelo://app?vid=b98c0ab9-0367-4eb2-a7bd-6f4abbeb0e08","ios":"levelo://app?vid=b98c0ab9-0367-4eb2-a7bd-6f4abbeb0e08"},"vehicle_type_id":"4","last_reported":1727702321,"current_range_meters":12800,"station_id":"ce4bhnh2rcd13ifvqgug","pricing_plan_id":"cebpf4jnsgd1na2vs0mg"},{"bike_id":"2a4f744d-4171-42a9-b0cb-dfb324aae8c3","system_id":"levelo_inurba_marseille","lat":43.23148,"lon":5.43725,"is_reserved":false,"is_disabled":false,"rental_uris":{"android":"levelo://app?vid=2a4f744d-4171-42a9-b0cb-dfb324aae8c3","ios":"levelo://app?vid=2a4f744d-4171-42a9-b0cb-dfb324aae8c3"},"vehicle_type_id":"4","last_reported":1727702321,"current_range_meters":25600,"station_id":"ce4bhmp2rcd13ifvqgog","pricing_plan_id":"cebpf4jnsgd1na2vs0mg"},{"bike_id":"429c6c27-a639-439a-9eee-ff0212b945d3","system_id":"levelo_inurba_marseille","lat":43.29626,"lon":5.37725,"is_reserved":false,"is_disabled":false,"rental_uris":{"android":"levelo://app?vid=429c6c27-a639-439a-9eee-ff0212b945d3","ios":"levelo://app?vid=429c6c27-a639-439a-9eee-ff0212b945d3"},"vehicle_type_id":"4","last_reported":1727702321,"current_range_meters":30400,"station_id":"ce4bgi92rcd13ifvqb90","pricing_plan_id":"cebpf4jnsgd1na2vs0mg"},{"bike_id":"74479432-8491-41df-b67e-3d5fce6ca1e0","system_id":"levelo_inurba_marseille","lat":43.33738,"lon":5.37457,"is_reserved":false,"is_disabled":false,"rental_uris":{"android":"levelo://app?vid=74479432-8491-41df-b67e-3d5fce6ca1e0","ios":"levelo://app?vid=74479432-8491-41df-b67e-3d5fce6ca1e0"},"vehicle_type_id":"4","last_reported":1727702321,"current_range_meters":33200,"station_id":"","pricing_plan_id":"cebpf4jnsgd1na2vs0mg"},{"bike_id":"aeb7063a-a7f3-464d-a41e-33ad466ff7fc","system_id":"levelo_inurba_marseille","lat":43.28701,"lon":5.37389,"is_reserved":false,"is_disabled":false,"rental_uris":{"android":"levelo://app?vid=aeb7063a-a7f3-464d-a41e-33ad466ff7fc","ios":"levelo://app?vid=aeb7063a-a7f3-464d-a41e-33ad466ff7fc"},"vehicle_type_id":"4","last_reported":1727702321,"current_range_meters":20400,"station_id":"ce4bh3p2rcd13ifvqdq0","pricing_plan_id":"cebpf4jnsgd1na2vs0mg"},{"bike_id":"87dec603-f582-4cdd-bcb5-d6c85b8852bf","system_id":"levelo_inurba_marseille","lat":43.24663,"lon":5.38162,"is_reserved":false,"is_disabled":false,"rental_uris":{"android":"levelo://app?vid=87dec603-f582-4cdd-bcb5-d6c85b8852bf","ios":"levelo://app?vid=87dec603-f582-4cdd-bcb5-d6c85b8852bf"},"vehicle_type_id":"4","last_reported":1727702321,"current_range_meters":28400,"station_id":"ce4bhih2rcd13ifvqfr0","pricing_plan_id":"cebpf4jnsgd1na2vs0mg"},{"bike_id":"6c15b6fe-f957-44b9-9482-3e1638347433","system_id":"levelo_inurba_marseille","lat":43.29304,"lon":5.37178,"is_reserved":false,"is_disabled":false,"rental_uris":{"android":"levelo://app?vid=6c15b6fe-f957-44b9-9482-3e1638347433","ios":"levelo://app?vid=6c15b6fe-f957-44b9-9482-3e1638347433"},"vehicle_type_id":"4","last_reported":1727702321,"current_range_meters":21600,"station_id":"ce4bgh92rcd13ifvqb40","pricing_plan_id":"cebpf4jnsgd1na2vs0mg"},{"bike_id":"5f5feaf6-953c-4ab3-b1b9-502fc5ee8b0f","system_id":"levelo_inurba_marseille","lat":43.23194,"lon":5.35556,"is_reserved":false,"is_disabled":false,"rental_uris":{"android":"levelo://app?vid=5f5feaf6-953c-4ab3-b1b9-502fc5ee8b0f","ios":"levelo://app?vid=5f5feaf6-953c-4ab3-b1b9-502fc5ee8b0f"},"vehicle_type_id":"4","last_reported":1727702321,"current_range_meters":18800,"station_id":"ce4bhu92rcd13ifvqi70","pricing_plan_id":"cebpf4jnsgd1na2vs0mg"},{"bike_id":"60ec7494-c6a4-4df1-870c-e957e74be4eb","system_id":"levelo_inurba_marseille","lat":43.27307,"lon":5.3907,"is_reserved":false,"is_disabled":false,"rental_uris":{"android":"levelo://app?vid=60ec7494-c6a4-4df1-870c-e957e74be4eb","ios":"levelo://app?vid=60ec7494-c6a4-4df1-870c-e957e74be4eb"},"vehicle_type_id":"4","last_reported":1727702321,"current_range_meters":33200,"station_id":"ce4bhgp2rcd13ifvqfe0","pricing_plan_id":"cebpf4jnsgd1na2vs0mg"},{"bike_id":"757306db-bc8b-4147-85a6-62da2b338c0f","system_id":"levelo_inurba_marseille","lat":43.25725,"lon":5.41111,"is_reserved":false,"is_disabled":false,"rental_uris":{"android":"levelo://app?vid=757306db-bc8b-4147-85a6-62da2b338c0f","ios":"levelo://app?vid=757306db-bc8b-4147-85a6-62da2b338c0f"},"vehicle_type_id":"4","last_reported":1727702321,"current_range_meters":24400,"station_id":"ce4bhkp2rcd13ifvqgd0","pricing_plan_id":"cebpf4jnsgd1na2vs0mg"},{"bike_id":"37e3f075-d47c-4008-9c3f-677a4399e7e2","system_id":"levelo_inurba_marseille","lat":43.30072,"lon":5.38994,"is_reserved":false,"is_disabled":false,"rental_uris":{"android":"levelo://app?vid=37e3f075-d47c-4008-9c3f-677a4399e7e2","ios":"levelo://app?vid=37e3f075-d47c-4008-9c3f-677a4399e7e2"},"vehicle_type_id":"4","last_reported":1727702321,"current_range_meters":11600,"station_id":"","pricing_plan_id":"cebpf4jnsgd1na2vs0mg"},{"bike_id":"7b3013a1-964c-40e5-872d-644b2c85569a","system_id":"levelo_inurba_marseille","lat":43.27822,"lon":5.40716,"is_reserved":false,"is_disabled":false,"rental_uris":{"android":"levelo://app?vid=7b3013a1-964c-40e5-872d-644b2c85569a","ios":"levelo://app?vid=7b3013a1-964c-40e5-872d-644b2c85569a"},"vehicle_type_id":"4","last_reported":1727702321,"current_range_meters":38800,"station_id":"ce4bhnh2rcd13ifvqgtg","pricing_plan_id":"cebpf4jnsgd1na2vs0mg"},{"bike_id":"917e5486-e110-4358-a075-527001b4be1e","system_id":"levelo_inurba_marseille","lat":43.25585,"lon":5.38234,"is_reserved":false,"is_disabled":false,"rental_uris":{"android":"levelo://app?vid=917e5486-e110-4358-a075-527001b4be1e","ios":"levelo://app?vid=917e5486-e110-4358-a075-527001b4be1e"},"vehicle_type_id":"4","last_reported":1727702321,"current_range_meters":18000,"station_id":"ce4bhih2rcd13ifvqfs0","pricing_plan_id":"cebpf4jnsgd1na2vs0mg"},{"bike_id":"cca31004-19ce-4e6e-b4c1-3ee676597893","system_id":"levelo_inurba_marseille","lat":43.24655,"lon":5.38894,"is_reserved":false,"is_disabled":false,"rental_uris":{"android":"levelo://app?vid=cca31004-19ce-4e6e-b4c1-3ee676597893","ios":"levelo://app?vid=cca31004-19ce-4e6e-b4c1-3ee676597893"},"vehicle_type_id":"4","last_reported":1727702321,"current_range_meters":35200,"station_id":"ce4bhg12rcd13ifvqf60","pricing_plan_id":"cebpf4jnsgd1na2vs0mg"},{"bike_id":"cf33b555-cac1-43f8-89f7-e84b64897cfd","system_id":"levelo_inurba_marseille","lat":43.28381,"lon":5.3729,"is_reserved":false,"is_disabled":false,"rental_uris":{"android":"levelo://app?vid=cf33b555-cac1-43f8-89f7-e84b64897cfd","ios":"levelo://app?vid=cf33b555-cac1-43f8-89f7-e84b64897cfd"},"vehicle_type_id":"4","last_reported":1727702321,"current_range_meters":4800,"station_id":"","pricing_plan_id":"cebpf4jnsgd1na2vs0mg"},{"bike_id":"775b821b-1e28-4064-a50b-b93c8b7ffd3b","system_id":"levelo_inurba_marseille","lat":43.24078,"lon":5.37741,"is_reserved":false,"is_disabled":false,"rental_uris":{"android":"levelo://app?vid=775b821b-1e28-4064-a50b-b93c8b7ffd3b","ios":"levelo://app?vid=775b821b-1e28-4064-a50b-b93c8b7ffd3b"},"vehicle_type_id":"4","last_reported":1727702321,"current_range_meters":38800,"station_id":"ce4bhnp2rcd13ifvqgvg","pricing_plan_id":"cebpf4jnsgd1na2vs0mg"},{"bike_id":"4a423705-6c3e-4b14-9d3c-3d66995ef40c","system_id":"levelo_inurba_marseille","lat":43.28346,"lon":5.38112,"is_reserved":false,"is_disabled":false,"rental_uris":{"android":"levelo://app?vid=4a423705-6c3e-4b14-9d3c-3d66995ef40c","ios":"levelo://app?vid=4a423705-6c3e-4b14-9d3c-3d66995ef40c"},"vehicle_type_id":"4","last_reported":1727702321,"current_range_meters":38800,"station_id":"ce4bh412rcd13ifvqdr0","pricing_plan_id":"cebpf4jnsgd1na2vs0mg"},{"bike_id":"57ef25ef-c4c8-49fc-9cb9-dcf163f81726","system_id":"levelo_inurba_marseille","lat":43.31756,"lon":5.39022,"is_reserved":false,"is_disabled":false,"rental_uris":{"android":"levelo://app?vid=57ef25ef-c4c8-49fc-9cb9-dcf163f81726","ios":"levelo://app?vid=57ef25ef-c4c8-49fc-9cb9-dcf163f81726"},"vehicle_type_id":"4","last_reported":1727702321,"current_range_meters":38400,"station_id":"ce4bhqp2rcd13ifvqhng","pricing_plan_id":"cebpf4jnsgd1na2vs0mg"},{"bike_id":"fccbf3e6-5544-49b0-9b2e-1ac91a97c9f4","system_id":"levelo_inurba_marseille","lat":43.30541,"lon":5.36532,"is_reserved":false,"is_disabled":false,"rental_uris":{"android":"levelo://app?vid=fccbf3e6-5544-49b0-9b2e-1ac91a97c9f4","ios":"levelo://app?vid=fccbf3e6-5544-49b0-9b2e-1ac91a97c9f4"},"vehicle_type_id":"4","last_reported":1727702321,"current_range_meters":32400,"station_id":"ce4bgs12rcd13ifvqcag","pricing_plan_id":"cebpf4jnsgd1na2vs0mg"},{"bike_id":"f41e6ac7-d39b-432c-a205-b5e52984b1b4","system_id":"levelo_inurba_marseille","lat":43.33027,"lon":5.39371,"is_reserved":false,"is_disabled":false,"rental_uris":{"android":"levelo://app?vid=f41e6ac7-d39b-432c-a205-b5e52984b1b4","ios":"levelo://app?vid=f41e6ac7-d39b-432c-a205-b5e52984b1b4"},"vehicle_type_id":"4","last_reported":1727702321,"current_range_meters":36400,"station_id":"","pricing_plan_id":"cebpf4jnsgd1na2vs0mg"},{"bike_id":"bd4818fc-c3a3-49ae-88f0-5543b2bac4d1","system_id":"levelo_inurba_marseille","lat":43.2396,"lon":5.36633,"is_reserved":false,"is_disabled":false,"rental_uris":{"android":"levelo://app?vid=bd4818fc-c3a3-49ae-88f0-5543b2bac4d1","ios":"levelo://app?vid=bd4818fc-c3a3-49ae-88f0-5543b2bac4d1"},"vehicle_type_id":"4","last_reported":1727702321,"current_range_meters":38800,"station_id":"ce4bhi12rcd13ifvqfp0","pricing_plan_id":"cebpf4jnsgd1na2vs0mg"},{"bike_id":"f2b558bd-11b4-46b4-8609-8ac0ff64ace6","system_id":"levelo_inurba_marseille","lat":43.29075,"lon":5.37177,"is_reserved":false,"is_disabled":false,"rental_uris":{"android":"levelo://app?vid=f2b558bd-11b4-46b4-8609-8ac0ff64ace6","ios":"levelo://app?vid=f2b558bd-11b4-46b4-8609-8ac0ff64ace6"},"vehicle_type_id":"4","last_reported":1727702321,"current_range_meters":38800,"station_id":"ce4bh5p2rcd13ifvqe4g","pricing_plan_id":"cebpf4jnsgd1na2vs0mg"},{"bike_id":"269ac999-dad6-460a-aa43-d5c4c71dd1a3","system_id":"levelo_inurba_marseille","lat":43.23149,"lon":5.43712,"is_reserved":false,"is_disabled":false,"rental_uris":{"android":"levelo://app?vid=269ac999-dad6-460a-aa43-d5c4c71dd1a3","ios":"levelo://app?vid=269ac999-dad6-460a-aa43-d5c4c71dd1a3"},"vehicle_type_id":"4","last_reported":1727702321,"current_range_meters":16000,"station_id":"ce4bhmp2rcd13ifvqgog","pricing_plan_id":"cebpf4jnsgd1na2vs0mg"},{"bike_id":"e2d96cbd-5057-4d2f-9436-03670229e573","system_id":"levelo_inurba_marseille","lat":43.23153,"lon":5.43711,"is_reserved":false,"is_disabled":false,"rental_uris":{"android":"levelo://app?vid=e2d96cbd-5057-4d2f-9436-03670229e573","ios":"levelo://app?vid=e2d96cbd-5057-4d2f-9436-03670229e573"},"vehicle_type_id":"4","last_reported":1727702321,"current_range_meters":14400,"station_id":"ce4bhmp2rcd13ifvqgog","pricing_plan_id":"cebpf4jnsgd1na2vs0mg"},{"bike_id":"dfcd25eb-0455-4a7c-af04-cb98f76b63ed","system_id":"levelo_inurba_marseille","lat":43.28618,"lon":5.35105,"is_reserved":false,"is_disabled":false,"rental_uris":{"android":"levelo://app?vid=dfcd25eb-0455-4a7c-af04-cb98f76b63ed","ios":"levelo://app?vid=dfcd25eb-0455-4a7c-af04-cb98f76b63ed"},"vehicle_type_id":"4","last_reported":1727702321,"current_range_meters":28800,"station_id":"ce4bhch2rcd13ifvqeug","pricing_plan_id":"cebpf4jnsgd1na2vs0mg"},{"bike_id":"6b8929d5-ad92-409d-a69a-a9e49ae36445","system_id":"levelo_inurba_marseille","lat":43.24168,"lon":5.36395,"is_reserved":false,"is_disabled":false,"rental_uris":{"android":"levelo://app?vid=6b8929d5-ad92-409d-a69a-a9e49ae36445","ios":"levelo://app?vid=6b8929d5-ad92-409d-a69a-a9e49ae36445"},"vehicle_type_id":"4","last_reported":1727702321,"current_range_meters":8400,"station_id":"cpo36qri1sfpv3e86is0","pricing_plan_id":"cebpf4jnsgd1na2vs0mg"},{"bike_id":"64fb83a9-33bc-490d-9794-1cd916068014","system_id":"levelo_inurba_marseille","lat":43.27998,"lon":5.39995,"is_reserved":false,"is_disabled":false,"rental_uris":{"android":"levelo://app?vid=64fb83a9-33bc-490d-9794-1cd916068014","ios":"levelo://app?vid=64fb83a9-33bc-490d-9794-1cd916068014"},"vehicle_type_id":"4","last_reported":1727702321,"current_range_meters":38800,"station_id":"ce4bho92rcd13ifvqh4g","pricing_plan_id":"cebpf4jnsgd1na2vs0mg"},{"bike_id":"be3577c7-2a90-4f20-99da-dd64110a8f3f","system_id":"levelo_inurba_marseille","lat":43.24082,"lon":5.37754,"is_reserved":false,"is_disabled":false,"rental_uris":{"android":"levelo://app?vid=be3577c7-2a90-4f20-99da-dd64110a8f3f","ios":"levelo://app?vid=be3577c7-2a90-4f20-99da-dd64110a8f3f"},"vehicle_type_id":"4","last_reported":1727702321,"current_range_meters":14000,"station_id":"ce4bhnp2rcd13ifvqgvg","pricing_plan_id":"cebpf4jnsgd1na2vs0mg"},{"bike_id":"2fede673-a879-4ec1-bee9-00ba9def34b8","system_id":"levelo_inurba_marseille","lat":43.32047,"lon":5.41572,"is_reserved":false,"is_disabled":false,"rental_uris":{"android":"levelo://app?vid=2fede673-a879-4ec1-bee9-00ba9def34b8","ios":"levelo://app?vid=2fede673-a879-4ec1-bee9-00ba9def34b8"},"vehicle_type_id":"4","last_reported":1727702321,"current_range_meters":4800,"station_id":"ce4bhq92rcd13ifvqhkg","pricing_plan_id":"cebpf4jnsgd1na2vs0mg"},{"bike_id":"3dc02e90-07ec-4b9c-ae98-f92e543c6339","system_id":"levelo_inurba_marseille","lat":43.32046,"lon":5.41575,"is_reserved":false,"is_disabled":false,"rental_uris":{"android":"levelo://app?vid=3dc02e90-07ec-4b9c-ae98-f92e543c6339","ios":"levelo://app?vid=3dc02e90-07ec-4b9c-ae98-f92e543c6339"},"vehicle_type_id":"4","last_reported":1727702321,"current_range_meters":12400,"station_id":"ce4bhq92rcd13ifvqhkg","pricing_plan_id":"cebpf4jnsgd1na2vs0mg"},{"bike_id":"d1a4e3ee-6415-46fb-989a-8ab06e589b76","system_id":"levelo_inurba_marseille","lat":43.30915,"lon":5.36857,"is_reserved":false,"is_disabled":false,"rental_uris":{"android":"levelo://app?vid=d1a4e3ee-6415-46fb-989a-8ab06e589b76","ios":"levelo://app?vid=d1a4e3ee-6415-46fb-989a-8ab06e589b76"},"vehicle_type_id":"4","last_reported":1727702321,"current_range_meters":38800,"station_id":"ce4bgn92rcd13ifvqbvg","pricing_plan_id":"cebpf4jnsgd1na2vs0mg"},{"bike_id":"a8fdd3b9-8377-4d3a-bfc0-2945e46a2695","system_id":"levelo_inurba_marseille","lat":43.29978,"lon":5.38487,"is_reserved":false,"is_disabled":false,"rental_uris":{"android":"levelo://app?vid=a8fdd3b9-8377-4d3a-bfc0-2945e46a2695","ios":"levelo://app?vid=a8fdd3b9-8377-4d3a-bfc0-2945e46a2695"},"vehicle_type_id":"4","last_reported":1727702321,"current_range_meters":38800,"station_id":"ce4bgj92rcd13ifvqbd0","pricing_plan_id":"cebpf4jnsgd1na2vs0mg"},{"bike_id":"3bfc38b0-b087-4654-9080-e566bee9cf8a","system_id":"levelo_inurba_marseille","lat":43.284332,"lon":5.38457,"is_reserved":false,"is_disabled":false,"rental_uris":{"android":"levelo://app?vid=3bfc38b0-b087-4654-9080-e566bee9cf8a","ios":"levelo://app?vid=3bfc38b0-b087-4654-9080-e566bee9cf8a"},"vehicle_type_id":"4","last_reported":1727702321,"current_range_meters":3600,"station_id":"ce4bh512rcd13ifvqe3g","pricing_plan_id":"cebpf4jnsgd1na2vs0mg"},{"bike_id":"a2adede0-8ba1-40c0-ad2b-6abce7d6e5e4","system_id":"levelo_inurba_marseille","lat":43.24548,"lon":5.39526,"is_reserved":false,"is_disabled":false,"rental_uris":{"android":"levelo://app?vid=a2adede0-8ba1-40c0-ad2b-6abce7d6e5e4","ios":"levelo://app?vid=a2adede0-8ba1-40c0-ad2b-6abce7d6e5e4"},"vehicle_type_id":"4","last_reported":1727702321,"current_range_meters":3200,"station_id":"ce4bhlp2rcd13ifvqgjg","pricing_plan_id":"cebpf4jnsgd1na2vs0mg"},{"bike_id":"f71b7f63-17f8-4803-ba81-e0aaab220a33","system_id":"levelo_inurba_marseille","lat":43.305454,"lon":5.365357,"is_reserved":false,"is_disabled":false,"rental_uris":{"android":"levelo://app?vid=f71b7f63-17f8-4803-ba81-e0aaab220a33","ios":"levelo://app?vid=f71b7f63-17f8-4803-ba81-e0aaab220a33"},"vehicle_type_id":"4","last_reported":1727702321,"current_range_meters":39200,"station_id":"ce4bgs12rcd13ifvqcag","pricing_plan_id":"cebpf4jnsgd1na2vs0mg"},{"bike_id":"9bd3559d-075b-45ea-8808-41bdc2102bfa","system_id":"levelo_inurba_marseille","lat":43.29263,"lon":5.36848,"is_reserved":false,"is_disabled":false,"rental_uris":{"android":"levelo://app?vid=9bd3559d-075b-45ea-8808-41bdc2102bfa","ios":"levelo://app?vid=9bd3559d-075b-45ea-8808-41bdc2102bfa"},"vehicle_type_id":"4","last_reported":1727702321,"current_range_meters":38800,"station_id":"ce4bhbp2rcd13ifvqesg","pricing_plan_id":"cebpf4jnsgd1na2vs0mg"},{"bike_id":"92a377c1-c83e-4ce0-8033-a37f64060b32","system_id":"levelo_inurba_marseille","lat":43.29891,"lon":5.43656,"is_reserved":false,"is_disabled":false,"rental_uris":{"android":"levelo://app?vid=92a377c1-c83e-4ce0-8033-a37f64060b32","ios":"levelo://app?vid=92a377c1-c83e-4ce0-8033-a37f64060b32"},"vehicle_type_id":"4","last_reported":1727702321,"current_range_meters":23200,"station_id":"ce4bhpp2rcd13ifvqhfg","pricing_plan_id":"cebpf4jnsgd1na2vs0mg"},{"bike_id":"a6d8df58-1a10-45b4-8956-b2d4cdfcaa7e","system_id":"levelo_inurba_marseille","lat":43.29712,"lon":5.3662,"is_reserved":false,"is_disabled":false,"rental_uris":{"android":"levelo://app?vid=a6d8df58-1a10-45b4-8956-b2d4cdfcaa7e","ios":"levelo://app?vid=a6d8df58-1a10-45b4-8956-b2d4cdfcaa7e"},"vehicle_type_id":"4","last_reported":1727702321,"current_range_meters":29600,"station_id":"ce4bhb92rcd13ifvqen0","pricing_plan_id":"cebpf4jnsgd1na2vs0mg"},{"bike_id":"66c626da-c5b2-4c5c-abb5-549a9ee9c938","system_id":"levelo_inurba_marseille","lat":43.27492,"lon":5.42453,"is_reserved":false,"is_disabled":false,"rental_uris":{"android":"levelo://app?vid=66c626da-c5b2-4c5c-abb5-549a9ee9c938","ios":"levelo://app?vid=66c626da-c5b2-4c5c-abb5-549a9ee9c938"},"vehicle_type_id":"4","last_reported":1727702321,"current_range_meters":22400,"station_id":"ce4bhn92rcd13ifvqgrg","pricing_plan_id":"cebpf4jnsgd1na2vs0mg"},{"bike_id":"a3c774c4-fd72-4b56-9ae2-8a187c6aa284","system_id":"levelo_inurba_marseille","lat":43.32293,"lon":5.38273,"is_reserved":false,"is_disabled":false,"rental_uris":{"android":"levelo://app?vid=a3c774c4-fd72-4b56-9ae2-8a187c6aa284","ios":"levelo://app?vid=a3c774c4-fd72-4b56-9ae2-8a187c6aa284"},"vehicle_type_id":"4","last_reported":1727702321,"current_range_meters":38800,"station_id":"ce4bhr12rcd13ifvqhqg","pricing_plan_id":"cebpf4jnsgd1na2vs0mg"},{"bike_id":"f13e47bf-aeae-421f-aff1-c95adb082e6e","system_id":"levelo_inurba_marseille","lat":43.29025,"lon":5.38127,"is_reserved":false,"is_disabled":false,"rental_uris":{"android":"levelo://app?vid=f13e47bf-aeae-421f-aff1-c95adb082e6e","ios":"levelo://app?vid=f13e47bf-aeae-421f-aff1-c95adb082e6e"},"vehicle_type_id":"4","last_reported":1727702321,"current_range_meters":5600,"station_id":"ce4bh4p2rcd13ifvqe1g","pricing_plan_id":"cebpf4jnsgd1na2vs0mg"},{"bike_id":"6dc7b44d-9d0d-42f9-bc6f-4dff416c688a","system_id":"levelo_inurba_marseille","lat":43.31355,"lon":5.36708,"is_reserved":false,"is_disabled":false,"rental_uris":{"android":"levelo://app?vid=6dc7b44d-9d0d-42f9-bc6f-4dff416c688a","ios":"levelo://app?vid=6dc7b44d-9d0d-42f9-bc6f-4dff416c688a"},"vehicle_type_id":"4","last_reported":1727702321,"current_range_meters":17200,"station_id":"ce4bgr92rcd13ifvqc6g","pricing_plan_id":"cebpf4jnsgd1na2vs0mg"},{"bike_id":"7267344b-d071-407a-99ce-1ec821932d37","system_id":"levelo_inurba_marseille","lat":43.30912,"lon":5.36849,"is_reserved":false,"is_disabled":false,"rental_uris":{"android":"levelo://app?vid=7267344b-d071-407a-99ce-1ec821932d37","ios":"levelo://app?vid=7267344b-d071-407a-99ce-1ec821932d37"},"vehicle_type_id":"4","last_reported":1727702321,"current_range_meters":19200,"station_id":"ce4bgn92rcd13ifvqbvg","pricing_plan_id":"cebpf4jnsgd1na2vs0mg"},{"bike_id":"31f89c08-66db-40cc-ab41-9fc83559f379","system_id":"levelo_inurba_marseille","lat":43.337444,"lon":5.374475,"is_reserved":false,"is_disabled":false,"rental_uris":{"android":"levelo://app?vid=31f89c08-66db-40cc-ab41-9fc83559f379","ios":"levelo://app?vid=31f89c08-66db-40cc-ab41-9fc83559f379"},"vehicle_type_id":"4","last_reported":1727702321,"current_range_meters":28800,"station_id":"","pricing_plan_id":"cebpf4jnsgd1na2vs0mg"},{"bike_id":"03f573ac-7490-42b6-bb94-0191a3c93d6f","system_id":"levelo_inurba_marseille","lat":43.33736,"lon":5.39179,"is_reserved":false,"is_disabled":false,"rental_uris":{"android":"levelo://app?vid=03f573ac-7490-42b6-bb94-0191a3c93d6f","ios":"levelo://app?vid=03f573ac-7490-42b6-bb94-0191a3c93d6f"},"vehicle_type_id":"4","last_reported":1727702321,"current_range_meters":25200,"station_id":"ce4bhr92rcd13ifvqhsg","pricing_plan_id":"cebpf4jnsgd1na2vs0mg"},{"bike_id":"3658bbe6-1d83-49e9-ae55-529ae3b5ea81","system_id":"levelo_inurba_marseille","lat":43.30541,"lon":5.36523,"is_reserved":false,"is_disabled":false,"rental_uris":{"android":"levelo://app?vid=3658bbe6-1d83-49e9-ae55-529ae3b5ea81","ios":"levelo://app?vid=3658bbe6-1d83-49e9-ae55-529ae3b5ea81"},"vehicle_type_id":"4","last_reported":1727702321,"current_range_meters":21600,"station_id":"ce4bgs12rcd13ifvqcag","pricing_plan_id":"cebpf4jnsgd1na2vs0mg"},{"bike_id":"fe875b08-7bdb-47a5-a96d-d38c7513f927","system_id":"levelo_inurba_marseille","lat":43.31493,"lon":5.37305,"is_reserved":false,"is_disabled":false,"rental_uris":{"android":"levelo://app?vid=fe875b08-7bdb-47a5-a96d-d38c7513f927","ios":"levelo://app?vid=fe875b08-7bdb-47a5-a96d-d38c7513f927"},"vehicle_type_id":"4","last_reported":1727702321,"current_range_meters":14800,"station_id":"ce4bgt12rcd13ifvqcd0","pricing_plan_id":"cebpf4jnsgd1na2vs0mg"},{"bike_id":"fbcca567-9467-4529-92a9-0f3b18c5de3f","system_id":"levelo_inurba_marseille","lat":43.29266,"lon":5.40137,"is_reserved":false,"is_disabled":false,"rental_uris":{"android":"levelo://app?vid=fbcca567-9467-4529-92a9-0f3b18c5de3f","ios":"levelo://app?vid=fbcca567-9467-4529-92a9-0f3b18c5de3f"},"vehicle_type_id":"4","last_reported":1727702321,"current_range_meters":38000,"station_id":"ce4bh312rcd13ifvqdk0","pricing_plan_id":"cebpf4jnsgd1na2vs0mg"},{"bike_id":"8d8b36c8-8b41-4803-9f83-46b1b665c994","system_id":"levelo_inurba_marseille","lat":43.277989,"lon":5.406802,"is_reserved":false,"is_disabled":false,"rental_uris":{"android":"levelo://app?vid=8d8b36c8-8b41-4803-9f83-46b1b665c994","ios":"levelo://app?vid=8d8b36c8-8b41-4803-9f83-46b1b665c994"},"vehicle_type_id":"4","last_reported":1727702321,"current_range_meters":16400,"station_id":"ce4bhnh2rcd13ifvqgtg","pricing_plan_id":"cebpf4jnsgd1na2vs0mg"},{"bike_id":"8899af5b-9f62-4731-b7cd-121df8ac8752","system_id":"levelo_inurba_marseille","lat":43.30916,"lon":5.36853,"is_reserved":false,"is_disabled":false,"rental_uris":{"android":"levelo://app?vid=8899af5b-9f62-4731-b7cd-121df8ac8752","ios":"levelo://app?vid=8899af5b-9f62-4731-b7cd-121df8ac8752"},"vehicle_type_id":"4","last_reported":1727702321,"current_range_meters":40000,"station_id":"ce4bgn92rcd13ifvqbvg","pricing_plan_id":"cebpf4jnsgd1na2vs0mg"},{"bike_id":"bbfa4e14-7fa4-4aa7-91bf-e112b9082e51","system_id":"levelo_inurba_marseille","lat":43.23147,"lon":5.43715,"is_reserved":false,"is_disabled":false,"rental_uris":{"android":"levelo://app?vid=bbfa4e14-7fa4-4aa7-91bf-e112b9082e51","ios":"levelo://app?vid=bbfa4e14-7fa4-4aa7-91bf-e112b9082e51"},"vehicle_type_id":"4","last_reported":1727702321,"current_range_meters":24400,"station_id":"ce4bhmp2rcd13ifvqgog","pricing_plan_id":"cebpf4jnsgd1na2vs0mg"},{"bike_id":"97ed4417-a914-498b-9f9d-47d1b82eea1b","system_id":"levelo_inurba_marseille","lat":43.24079,"lon":5.37754,"is_reserved":false,"is_disabled":false,"rental_uris":{"android":"levelo://app?vid=97ed4417-a914-498b-9f9d-47d1b82eea1b","ios":"levelo://app?vid=97ed4417-a914-498b-9f9d-47d1b82eea1b"},"vehicle_type_id":"4","last_reported":1727702321,"current_range_meters":8000,"station_id":"ce4bhnp2rcd13ifvqgvg","pricing_plan_id":"cebpf4jnsgd1na2vs0mg"},{"bike_id":"af40e50c-ac96-46b6-a4bc-f7889d06829a","system_id":"levelo_inurba_marseille","lat":43.29793,"lon":5.38094,"is_reserved":false,"is_disabled":false,"rental_uris":{"android":"levelo://app?vid=af40e50c-ac96-46b6-a4bc-f7889d06829a","ios":"levelo://app?vid=af40e50c-ac96-46b6-a4bc-f7889d06829a"},"vehicle_type_id":"4","last_reported":1727702321,"current_range_meters":28800,"station_id":"ce4bgip2rcd13ifvqbb0","pricing_plan_id":"cebpf4jnsgd1na2vs0mg"},{"bike_id":"8490e44e-0aff-4d7e-8a96-481d57cd3987","system_id":"levelo_inurba_marseille","lat":43.28514,"lon":5.39123,"is_reserved":false,"is_disabled":false,"rental_uris":{"android":"levelo://app?vid=8490e44e-0aff-4d7e-8a96-481d57cd3987","ios":"levelo://app?vid=8490e44e-0aff-4d7e-8a96-481d57cd3987"},"vehicle_type_id":"4","last_reported":1727702321,"current_range_meters":24000,"station_id":"ce4bh3p2rcd13ifvqdp0","pricing_plan_id":"cebpf4jnsgd1na2vs0mg"},{"bike_id":"81766707-7478-4563-b73b-833a28b5fc00","system_id":"levelo_inurba_marseille","lat":43.287,"lon":5.37383,"is_reserved":false,"is_disabled":false,"rental_uris":{"android":"levelo://app?vid=81766707-7478-4563-b73b-833a28b5fc00","ios":"levelo://app?vid=81766707-7478-4563-b73b-833a28b5fc00"},"vehicle_type_id":"4","last_reported":1727702321,"current_range_meters":38800,"station_id":"ce4bh3p2rcd13ifvqdq0","pricing_plan_id":"cebpf4jnsgd1na2vs0mg"},{"bike_id":"218c8345-47a1-443e-b581-a48005fd3532","system_id":"levelo_inurba_marseille","lat":43.24388,"lon":5.37068,"is_reserved":false,"is_disabled":false,"rental_uris":{"android":"levelo://app?vid=218c8345-47a1-443e-b581-a48005fd3532","ios":"levelo://app?vid=218c8345-47a1-443e-b581-a48005fd3532"},"vehicle_type_id":"4","last_reported":1727702321,"current_range_meters":3600,"station_id":"ce4bhhh2rcd13ifvqfk0","pricing_plan_id":"cebpf4jnsgd1na2vs0mg"},{"bike_id":"6f0510e0-e0f7-4fbf-b61a-5263c22ae12f","system_id":"levelo_inurba_marseille","lat":43.30533,"lon":5.36695,"is_reserved":false,"is_disabled":false,"rental_uris":{"android":"levelo://app?vid=6f0510e0-e0f7-4fbf-b61a-5263c22ae12f","ios":"levelo://app?vid=6f0510e0-e0f7-4fbf-b61a-5263c22ae12f"},"vehicle_type_id":"4","last_reported":1727702321,"current_range_meters":28000,"station_id":"ce4bgrp2rcd13ifvqc9g","pricing_plan_id":"cebpf4jnsgd1na2vs0mg"},{"bike_id":"5f71d534-508b-44aa-ab48-4ceb1dc17092","system_id":"levelo_inurba_marseille","lat":43.26227,"lon":5.37508,"is_reserved":false,"is_disabled":false,"rental_uris":{"android":"levelo://app?vid=5f71d534-508b-44aa-ab48-4ceb1dc17092","ios":"levelo://app?vid=5f71d534-508b-44aa-ab48-4ceb1dc17092"},"vehicle_type_id":"4","last_reported":1727702321,"current_range_meters":16000,"station_id":"ce4bhgp2rcd13ifvqfc0","pricing_plan_id":"cebpf4jnsgd1na2vs0mg"},{"bike_id":"f54334eb-2195-4db5-889a-3481da52f9df","system_id":"levelo_inurba_marseille","lat":43.32294,"lon":5.38276,"is_reserved":false,"is_disabled":false,"rental_uris":{"android":"levelo://app?vid=f54334eb-2195-4db5-889a-3481da52f9df","ios":"levelo://app?vid=f54334eb-2195-4db5-889a-3481da52f9df"},"vehicle_type_id":"4","last_reported":1727702321,"current_range_meters":38800,"station_id":"ce4bhr12rcd13ifvqhqg","pricing_plan_id":"cebpf4jnsgd1na2vs0mg"},{"bike_id":"5b8f26ab-6b51-4c9d-ac3e-b872a6071183","system_id":"levelo_inurba_marseille","lat":43.31224,"lon":5.36839,"is_reserved":false,"is_disabled":false,"rental_uris":{"android":"levelo://app?vid=5b8f26ab-6b51-4c9d-ac3e-b872a6071183","ios":"levelo://app?vid=5b8f26ab-6b51-4c9d-ac3e-b872a6071183"},"vehicle_type_id":"4","last_reported":1727702321,"current_range_meters":40000,"station_id":"ce4bgl92rcd13ifvqbq0","pricing_plan_id":"cebpf4jnsgd1na2vs0mg"},{"bike_id":"6f081863-a512-4723-836e-629c741eb794","system_id":"levelo_inurba_marseille","lat":43.29986,"lon":5.38481,"is_reserved":false,"is_disabled":false,"rental_uris":{"android":"levelo://app?vid=6f081863-a512-4723-836e-629c741eb794","ios":"levelo://app?vid=6f081863-a512-4723-836e-629c741eb794"},"vehicle_type_id":"4","last_reported":1727702321,"current_range_meters":36400,"station_id":"ce4bgj92rcd13ifvqbd0","pricing_plan_id":"cebpf4jnsgd1na2vs0mg"},{"bike_id":"e87d6747-08b4-40ea-bb4a-3eb14962cff3","system_id":"levelo_inurba_marseille","lat":43.279742,"lon":5.387411,"is_reserved":false,"is_disabled":false,"rental_uris":{"android":"levelo://app?vid=e87d6747-08b4-40ea-bb4a-3eb14962cff3","ios":"levelo://app?vid=e87d6747-08b4-40ea-bb4a-3eb14962cff3"},"vehicle_type_id":"4","last_reported":1727702321,"current_range_meters":36800,"station_id":"ce4bhg12rcd13ifvqf80","pricing_plan_id":"cebpf4jnsgd1na2vs0mg"},{"bike_id":"2fb97a4b-1083-43d7-93db-274756968ab8","system_id":"levelo_inurba_marseille","lat":43.287048,"lon":5.399887,"is_reserved":false,"is_disabled":false,"rental_uris":{"android":"levelo://app?vid=2fb97a4b-1083-43d7-93db-274756968ab8","ios":"levelo://app?vid=2fb97a4b-1083-43d7-93db-274756968ab8"},"vehicle_type_id":"4","last_reported":1727702321,"current_range_meters":28000,"station_id":"ce4bho92rcd13ifvqh3g","pricing_plan_id":"cebpf4jnsgd1na2vs0mg"},{"bike_id":"ef026c7b-d2a8-4dad-a992-8e68858282f5","system_id":"levelo_inurba_marseille","lat":43.27816,"lon":5.40717,"is_reserved":false,"is_disabled":false,"rental_uris":{"android":"levelo://app?vid=ef026c7b-d2a8-4dad-a992-8e68858282f5","ios":"levelo://app?vid=ef026c7b-d2a8-4dad-a992-8e68858282f5"},"vehicle_type_id":"4","last_reported":1727702321,"current_range_meters":23200,"station_id":"ce4bhnh2rcd13ifvqgtg","pricing_plan_id":"cebpf4jnsgd1na2vs0mg"},{"bike_id":"308cc213-702e-4ebb-8c55-d51375650cfe","system_id":"levelo_inurba_marseille","lat":43.27502,"lon":5.42448,"is_reserved":false,"is_disabled":false,"rental_uris":{"android":"levelo://app?vid=308cc213-702e-4ebb-8c55-d51375650cfe","ios":"levelo://app?vid=308cc213-702e-4ebb-8c55-d51375650cfe"},"vehicle_type_id":"4","last_reported":1727702321,"current_range_meters":20400,"station_id":"ce4bhn92rcd13ifvqgrg","pricing_plan_id":"cebpf4jnsgd1na2vs0mg"},{"bike_id":"5dfd9658-fa7f-46fc-b68f-ea8f76487a17","system_id":"levelo_inurba_marseille","lat":43.337444,"lon":5.374475,"is_reserved":false,"is_disabled":false,"rental_uris":{"android":"levelo://app?vid=5dfd9658-fa7f-46fc-b68f-ea8f76487a17","ios":"levelo://app?vid=5dfd9658-fa7f-46fc-b68f-ea8f76487a17"},"vehicle_type_id":"4","last_reported":1727702321,"current_range_meters":21600,"station_id":"","pricing_plan_id":"cebpf4jnsgd1na2vs0mg"},{"bike_id":"c37ea69c-c268-4657-abee-0b98c5378098","system_id":"levelo_inurba_marseille","lat":43.305511,"lon":5.365371,"is_reserved":false,"is_disabled":false,"rental_uris":{"android":"levelo://app?vid=c37ea69c-c268-4657-abee-0b98c5378098","ios":"levelo://app?vid=c37ea69c-c268-4657-abee-0b98c5378098"},"vehicle_type_id":"4","last_reported":1727702321,"current_range_meters":18800,"station_id":"ce4bgs12rcd13ifvqcag","pricing_plan_id":"cebpf4jnsgd1na2vs0mg"},{"bike_id":"c384e77f-6823-45be-b61c-d4ac3d321b16","system_id":"levelo_inurba_marseille","lat":43.337444,"lon":5.374475,"is_reserved":false,"is_disabled":false,"rental_uris":{"android":"levelo://app?vid=c384e77f-6823-45be-b61c-d4ac3d321b16","ios":"levelo://app?vid=c384e77f-6823-45be-b61c-d4ac3d321b16"},"vehicle_type_id":"4","last_reported":1727702321,"current_range_meters":35600,"station_id":"ce4bh392rcd13ifvqdm0","pricing_plan_id":"cebpf4jnsgd1na2vs0mg"},{"bike_id":"eab30390-0c07-449c-a891-cba8bee1096b","system_id":"levelo_inurba_marseille","lat":43.32311,"lon":5.38301,"is_reserved":false,"is_disabled":false,"rental_uris":{"android":"levelo://app?vid=eab30390-0c07-449c-a891-cba8bee1096b","ios":"levelo://app?vid=eab30390-0c07-449c-a891-cba8bee1096b"},"vehicle_type_id":"4","last_reported":1727702321,"current_range_meters":36800,"station_id":"ce4bhr12rcd13ifvqhqg","pricing_plan_id":"cebpf4jnsgd1na2vs0mg"},{"bike_id":"fdef7ae9-ba96-44b0-b95b-7baf90afc649","system_id":"levelo_inurba_marseille","lat":43.23965,"lon":5.36628,"is_reserved":false,"is_disabled":false,"rental_uris":{"android":"levelo://app?vid=fdef7ae9-ba96-44b0-b95b-7baf90afc649","ios":"levelo://app?vid=fdef7ae9-ba96-44b0-b95b-7baf90afc649"},"vehicle_type_id":"4","last_reported":1727702321,"current_range_meters":24400,"station_id":"ce4bhi12rcd13ifvqfp0","pricing_plan_id":"cebpf4jnsgd1na2vs0mg"},{"bike_id":"eaa5c6b8-0c35-45cc-af34-432b2ae79abb","system_id":"levelo_inurba_marseille","lat":43.29978,"lon":5.38488,"is_reserved":false,"is_disabled":false,"rental_uris":{"android":"levelo://app?vid=eaa5c6b8-0c35-45cc-af34-432b2ae79abb","ios":"levelo://app?vid=eaa5c6b8-0c35-45cc-af34-432b2ae79abb"},"vehicle_type_id":"4","last_reported":1727702321,"current_range_meters":9600,"station_id":"ce4bgj92rcd13ifvqbd0","pricing_plan_id":"cebpf4jnsgd1na2vs0mg"},{"bike_id":"ab4452ef-e4f9-461a-8d2f-a481fc7c2d70","system_id":"levelo_inurba_marseille","lat":43.30462,"lon":5.37906,"is_reserved":false,"is_disabled":false,"rental_uris":{"android":"levelo://app?vid=ab4452ef-e4f9-461a-8d2f-a481fc7c2d70","ios":"levelo://app?vid=ab4452ef-e4f9-461a-8d2f-a481fc7c2d70"},"vehicle_type_id":"4","last_reported":1727702321,"current_range_meters":38400,"station_id":"ce4bgup2rcd13ifvqcn0","pricing_plan_id":"cebpf4jnsgd1na2vs0mg"},{"bike_id":"4e9319fd-3fb9-42aa-88b2-703201ec0185","system_id":"levelo_inurba_marseille","lat":43.29036,"lon":5.35918,"is_reserved":false,"is_disabled":false,"rental_uris":{"android":"levelo://app?vid=4e9319fd-3fb9-42aa-88b2-703201ec0185","ios":"levelo://app?vid=4e9319fd-3fb9-42aa-88b2-703201ec0185"},"vehicle_type_id":"4","last_reported":1727702321,"current_range_meters":18000,"station_id":"ce4bha92rcd13ifvqeg0","pricing_plan_id":"cebpf4jnsgd1na2vs0mg"},{"bike_id":"e027db7f-d671-40b5-a545-ccae688e2a87","system_id":"levelo_inurba_marseille","lat":43.29792,"lon":5.39348,"is_reserved":false,"is_disabled":false,"rental_uris":{"android":"levelo://app?vid=e027db7f-d671-40b5-a545-ccae688e2a87","ios":"levelo://app?vid=e027db7f-d671-40b5-a545-ccae688e2a87"},"vehicle_type_id":"4","last_reported":1727702321,"current_range_meters":36000,"station_id":"chh1huq6cuj3fo74tm60","pricing_plan_id":"cebpf4jnsgd1na2vs0mg"},{"bike_id":"df18c2fc-1ac4-43b5-98bd-b86c37d68909","system_id":"levelo_inurba_marseille","lat":43.29291,"lon":5.37453,"is_reserved":false,"is_disabled":false,"rental_uris":{"android":"levelo://app?vid=df18c2fc-1ac4-43b5-98bd-b86c37d68909","ios":"levelo://app?vid=df18c2fc-1ac4-43b5-98bd-b86c37d68909"},"vehicle_type_id":"4","last_reported":1727702321,"current_range_meters":36000,"station_id":"ce4bgi12rcd13ifvqb70","pricing_plan_id":"cebpf4jnsgd1na2vs0mg"},{"bike_id":"53c53043-770d-4731-badd-8766ed6cde24","system_id":"levelo_inurba_marseille","lat":43.26807,"lon":5.40271,"is_reserved":false,"is_disabled":false,"rental_uris":{"android":"levelo://app?vid=53c53043-770d-4731-badd-8766ed6cde24","ios":"levelo://app?vid=53c53043-770d-4731-badd-8766ed6cde24"},"vehicle_type_id":"4","last_reported":1727702321,"current_range_meters":28800,"station_id":"ce501612rcd8frsf0b60","pricing_plan_id":"cebpf4jnsgd1na2vs0mg"},{"bike_id":"a9d94fc0-5899-49ba-a07e-e9ffffddb5c4","system_id":"levelo_inurba_marseille","lat":43.23068,"lon":5.35495,"is_reserved":false,"is_disabled":false,"rental_uris":{"android":"levelo://app?vid=a9d94fc0-5899-49ba-a07e-e9ffffddb5c4","ios":"levelo://app?vid=a9d94fc0-5899-49ba-a07e-e9ffffddb5c4"},"vehicle_type_id":"4","last_reported":1727702321,"current_range_meters":24800,"station_id":"cpo3342slgdg3j2ifvpg","pricing_plan_id":"cebpf4jnsgd1na2vs0mg"},{"bike_id":"d555eb86-384a-4de4-ab02-c161cadb5fa6","system_id":"levelo_inurba_marseille","lat":43.28858,"lon":5.35851,"is_reserved":false,"is_disabled":false,"rental_uris":{"android":"levelo://app?vid=d555eb86-384a-4de4-ab02-c161cadb5fa6","ios":"levelo://app?vid=d555eb86-384a-4de4-ab02-c161cadb5fa6"},"vehicle_type_id":"4","last_reported":1727702321,"current_range_meters":26000,"station_id":"ce4bhb12rcd13ifvqem0","pricing_plan_id":"cebpf4jnsgd1na2vs0mg"},{"bike_id":"6f2d35b1-0278-43da-99ef-8d608ea1f489","system_id":"levelo_inurba_marseille","lat":43.23154,"lon":5.43716,"is_reserved":false,"is_disabled":false,"rental_uris":{"android":"levelo://app?vid=6f2d35b1-0278-43da-99ef-8d608ea1f489","ios":"levelo://app?vid=6f2d35b1-0278-43da-99ef-8d608ea1f489"},"vehicle_type_id":"4","last_reported":1727702321,"current_range_meters":21600,"station_id":"ce4bhmp2rcd13ifvqgog","pricing_plan_id":"cebpf4jnsgd1na2vs0mg"},{"bike_id":"7a2256be-fdbb-4df3-8afb-8c7cb651da8c","system_id":"levelo_inurba_marseille","lat":43.29318,"lon":5.3744,"is_reserved":false,"is_disabled":false,"rental_uris":{"android":"levelo://app?vid=7a2256be-fdbb-4df3-8afb-8c7cb651da8c","ios":"levelo://app?vid=7a2256be-fdbb-4df3-8afb-8c7cb651da8c"},"vehicle_type_id":"4","last_reported":1727702321,"current_range_meters":2800,"station_id":"ce4bgi12rcd13ifvqb70","pricing_plan_id":"cebpf4jnsgd1na2vs0mg"},{"bike_id":"a426d226-6c56-4a77-8958-260784630bbd","system_id":"levelo_inurba_marseille","lat":43.24664,"lon":5.3817,"is_reserved":false,"is_disabled":false,"rental_uris":{"android":"levelo://app?vid=a426d226-6c56-4a77-8958-260784630bbd","ios":"levelo://app?vid=a426d226-6c56-4a77-8958-260784630bbd"},"vehicle_type_id":"4","last_reported":1727702321,"current_range_meters":27600,"station_id":"ce4bhih2rcd13ifvqfr0","pricing_plan_id":"cebpf4jnsgd1na2vs0mg"},{"bike_id":"ce0a6298-7234-4702-b5b4-87c097f2e621","system_id":"levelo_inurba_marseille","lat":43.22931,"lon":5.35384,"is_reserved":false,"is_disabled":false,"rental_uris":{"android":"levelo://app?vid=ce0a6298-7234-4702-b5b4-87c097f2e621","ios":"levelo://app?vid=ce0a6298-7234-4702-b5b4-87c097f2e621"},"vehicle_type_id":"4","last_reported":1727702321,"current_range_meters":12400,"station_id":"cpo3532slgdg3j2ikp40","pricing_plan_id":"cebpf4jnsgd1na2vs0mg"},{"bike_id":"512bb4ed-c2e7-473f-aa47-7ed3f92d1436","system_id":"levelo_inurba_marseille","lat":43.27496,"lon":5.42457,"is_reserved":false,"is_disabled":false,"rental_uris":{"android":"levelo://app?vid=512bb4ed-c2e7-473f-aa47-7ed3f92d1436","ios":"levelo://app?vid=512bb4ed-c2e7-473f-aa47-7ed3f92d1436"},"vehicle_type_id":"4","last_reported":1727702321,"current_range_meters":34800,"station_id":"ce4bhn92rcd13ifvqgrg","pricing_plan_id":"cebpf4jnsgd1na2vs0mg"},{"bike_id":"ecfc2f74-a213-44b8-8774-3f1ffac18f03","system_id":"levelo_inurba_marseille","lat":43.26196,"lon":5.37922,"is_reserved":false,"is_disabled":false,"rental_uris":{"android":"levelo://app?vid=ecfc2f74-a213-44b8-8774-3f1ffac18f03","ios":"levelo://app?vid=ecfc2f74-a213-44b8-8774-3f1ffac18f03"},"vehicle_type_id":"4","last_reported":1727702321,"current_range_meters":36000,"station_id":"ce4bhjp2rcd13ifvqg90","pricing_plan_id":"cebpf4jnsgd1na2vs0mg"},{"bike_id":"439f27b3-e217-499d-87c7-5e88732074f8","system_id":"levelo_inurba_marseille","lat":43.251176,"lon":5.403359,"is_reserved":false,"is_disabled":false,"rental_uris":{"android":"levelo://app?vid=439f27b3-e217-499d-87c7-5e88732074f8","ios":"levelo://app?vid=439f27b3-e217-499d-87c7-5e88732074f8"},"vehicle_type_id":"4","last_reported":1727702321,"current_range_meters":3600,"station_id":"ce4bhlh2rcd13ifvqgig","pricing_plan_id":"cebpf4jnsgd1na2vs0mg"},{"bike_id":"b9a6b6ae-cba9-400e-818a-8dbfd5036d91","system_id":"levelo_inurba_marseille","lat":43.31081,"lon":5.4243,"is_reserved":false,"is_disabled":false,"rental_uris":{"android":"levelo://app?vid=b9a6b6ae-cba9-400e-818a-8dbfd5036d91","ios":"levelo://app?vid=b9a6b6ae-cba9-400e-818a-8dbfd5036d91"},"vehicle_type_id":"4","last_reported":1727702321,"current_range_meters":38000,"station_id":"ce4bhp92rcd13ifvqhag","pricing_plan_id":"cebpf4jnsgd1na2vs0mg"},{"bike_id":"25ad11b7-e75c-4cb9-8588-1ea820357716","system_id":"levelo_inurba_marseille","lat":43.29551,"lon":5.42286,"is_reserved":false,"is_disabled":false,"rental_uris":{"android":"levelo://app?vid=25ad11b7-e75c-4cb9-8588-1ea820357716","ios":"levelo://app?vid=25ad11b7-e75c-4cb9-8588-1ea820357716"},"vehicle_type_id":"4","last_reported":1727702321,"current_range_meters":17200,"station_id":"ce4bhph2rcd13ifvqhdg","pricing_plan_id":"cebpf4jnsgd1na2vs0mg"},{"bike_id":"b54a9626-109e-4d4b-bfb3-41424061170c","system_id":"levelo_inurba_marseille","lat":43.2749,"lon":5.4246,"is_reserved":false,"is_disabled":false,"rental_uris":{"android":"levelo://app?vid=b54a9626-109e-4d4b-bfb3-41424061170c","ios":"levelo://app?vid=b54a9626-109e-4d4b-bfb3-41424061170c"},"vehicle_type_id":"4","last_reported":1727702321,"current_range_meters":27600,"station_id":"ce4bhn92rcd13ifvqgrg","pricing_plan_id":"cebpf4jnsgd1na2vs0mg"},{"bike_id":"631bf7e5-794f-4608-ace5-47cfad4e62b2","system_id":"levelo_inurba_marseille","lat":43.26193,"lon":5.379357,"is_reserved":false,"is_disabled":false,"rental_uris":{"android":"levelo://app?vid=631bf7e5-794f-4608-ace5-47cfad4e62b2","ios":"levelo://app?vid=631bf7e5-794f-4608-ace5-47cfad4e62b2"},"vehicle_type_id":"4","last_reported":1727702321,"current_range_meters":27200,"station_id":"ce4bhjp2rcd13ifvqg90","pricing_plan_id":"cebpf4jnsgd1na2vs0mg"},{"bike_id":"5feffe5f-2046-4e9e-9092-0bf36a1385a2","system_id":"levelo_inurba_marseille","lat":43.26676,"lon":5.3827,"is_reserved":false,"is_disabled":false,"rental_uris":{"android":"levelo://app?vid=5feffe5f-2046-4e9e-9092-0bf36a1385a2","ios":"levelo://app?vid=5feffe5f-2046-4e9e-9092-0bf36a1385a2"},"vehicle_type_id":"4","last_reported":1727702321,"current_range_meters":29600,"station_id":"ce4bhg92rcd13ifvqf90","pricing_plan_id":"cebpf4jnsgd1na2vs0mg"},{"bike_id":"01122a65-523e-42ec-9ffd-e85ab0d4b80e","system_id":"levelo_inurba_marseille","lat":43.29295,"lon":5.37458,"is_reserved":false,"is_disabled":false,"rental_uris":{"android":"levelo://app?vid=01122a65-523e-42ec-9ffd-e85ab0d4b80e","ios":"levelo://app?vid=01122a65-523e-42ec-9ffd-e85ab0d4b80e"},"vehicle_type_id":"4","last_reported":1727702321,"current_range_meters":36800,"station_id":"ce4bgi12rcd13ifvqb70","pricing_plan_id":"cebpf4jnsgd1na2vs0mg"},{"bike_id":"064fbc96-87b4-421e-af03-f3f5f0c253eb","system_id":"levelo_inurba_marseille","lat":43.32111,"lon":5.36766,"is_reserved":false,"is_disabled":false,"rental_uris":{"android":"levelo://app?vid=064fbc96-87b4-421e-af03-f3f5f0c253eb","ios":"levelo://app?vid=064fbc96-87b4-421e-af03-f3f5f0c253eb"},"vehicle_type_id":"4","last_reported":1727702321,"current_range_meters":26000,"station_id":"ce4bhrh2rcd13ifvqhug","pricing_plan_id":"cebpf4jnsgd1na2vs0mg"},{"bike_id":"fa3ba039-322c-46ae-aee5-bad188b9bc7a","system_id":"levelo_inurba_marseille","lat":43.254485,"lon":5.378627,"is_reserved":false,"is_disabled":false,"rental_uris":{"android":"levelo://app?vid=fa3ba039-322c-46ae-aee5-bad188b9bc7a","ios":"levelo://app?vid=fa3ba039-322c-46ae-aee5-bad188b9bc7a"},"vehicle_type_id":"4","last_reported":1727702321,"current_range_meters":20400,"station_id":"ce4bhh12rcd13ifvqff0","pricing_plan_id":"cebpf4jnsgd1na2vs0mg"},{"bike_id":"3e6e294c-79b6-4dcc-976d-8bdd07cd84f8","system_id":"levelo_inurba_marseille","lat":43.3095,"lon":5.39029,"is_reserved":false,"is_disabled":false,"rental_uris":{"android":"levelo://app?vid=3e6e294c-79b6-4dcc-976d-8bdd07cd84f8","ios":"levelo://app?vid=3e6e294c-79b6-4dcc-976d-8bdd07cd84f8"},"vehicle_type_id":"4","last_reported":1727702321,"current_range_meters":14400,"station_id":"ce4bgup2rcd13ifvqco0","pricing_plan_id":"cebpf4jnsgd1na2vs0mg"},{"bike_id":"dcca5eb1-337d-4677-b150-3612f0c83882","system_id":"levelo_inurba_marseille","lat":43.31343,"lon":5.36712,"is_reserved":false,"is_disabled":false,"rental_uris":{"android":"levelo://app?vid=dcca5eb1-337d-4677-b150-3612f0c83882","ios":"levelo://app?vid=dcca5eb1-337d-4677-b150-3612f0c83882"},"vehicle_type_id":"4","last_reported":1727702321,"current_range_meters":30000,"station_id":"ce4bgr92rcd13ifvqc6g","pricing_plan_id":"cebpf4jnsgd1na2vs0mg"},{"bike_id":"5eeea372-2711-4d21-8d24-8440bc9ab4b3","system_id":"levelo_inurba_marseille","lat":43.32486,"lon":5.36569,"is_reserved":false,"is_disabled":false,"rental_uris":{"android":"levelo://app?vid=5eeea372-2711-4d21-8d24-8440bc9ab4b3","ios":"levelo://app?vid=5eeea372-2711-4d21-8d24-8440bc9ab4b3"},"vehicle_type_id":"4","last_reported":1727702321,"current_range_meters":12000,"station_id":"ce4bhs12rcd13ifvqhvg","pricing_plan_id":"cebpf4jnsgd1na2vs0mg"},{"bike_id":"245b9bf3-a805-45aa-b6e9-4d57e2017da5","system_id":"levelo_inurba_marseille","lat":43.31348,"lon":5.36728,"is_reserved":false,"is_disabled":false,"rental_uris":{"android":"levelo://app?vid=245b9bf3-a805-45aa-b6e9-4d57e2017da5","ios":"levelo://app?vid=245b9bf3-a805-45aa-b6e9-4d57e2017da5"},"vehicle_type_id":"4","last_reported":1727702321,"current_range_meters":5600,"station_id":"ce4bgr92rcd13ifvqc6g","pricing_plan_id":"cebpf4jnsgd1na2vs0mg"},{"bike_id":"b1d361e1-7dbf-43b7-9364-8dc174bf8cf5","system_id":"levelo_inurba_marseille","lat":43.30362,"lon":5.41884,"is_reserved":false,"is_disabled":false,"rental_uris":{"android":"levelo://app?vid=b1d361e1-7dbf-43b7-9364-8dc174bf8cf5","ios":"levelo://app?vid=b1d361e1-7dbf-43b7-9364-8dc174bf8cf5"},"vehicle_type_id":"4","last_reported":1727702321,"current_range_meters":9600,"station_id":"ce4bhop2rcd13ifvqh7g","pricing_plan_id":"cebpf4jnsgd1na2vs0mg"},{"bike_id":"d2510458-9021-47e9-a5f4-1eb3ebe0c080","system_id":"levelo_inurba_marseille","lat":43.31759,"lon":5.39016,"is_reserved":false,"is_disabled":false,"rental_uris":{"android":"levelo://app?vid=d2510458-9021-47e9-a5f4-1eb3ebe0c080","ios":"levelo://app?vid=d2510458-9021-47e9-a5f4-1eb3ebe0c080"},"vehicle_type_id":"4","last_reported":1727702321,"current_range_meters":38000,"station_id":"ce4bhqp2rcd13ifvqhng","pricing_plan_id":"cebpf4jnsgd1na2vs0mg"},{"bike_id":"79e3b807-678c-4e9f-bcb7-05c9cb3c6740","system_id":"levelo_inurba_marseille","lat":43.32267,"lon":5.38296,"is_reserved":false,"is_disabled":false,"rental_uris":{"android":"levelo://app?vid=79e3b807-678c-4e9f-bcb7-05c9cb3c6740","ios":"levelo://app?vid=79e3b807-678c-4e9f-bcb7-05c9cb3c6740"},"vehicle_type_id":"4","last_reported":1727702321,"current_range_meters":6400,"station_id":"ce4bhr12rcd13ifvqhqg","pricing_plan_id":"cebpf4jnsgd1na2vs0mg"},