{"last_updated":1745255309,"ttl":60,"version":"2.2","data":{"bikes":[{"bike_id":"ac6f1ae4-6036-4aa2-8811-bc1d01bbbd56","system_id":"levelo_inurba_marseille","lat":43.25395,"lon":5.41857,"is_reserved":false,"is_disabled":false,"rental_uris":{"android":"levelo://app?vid=ac6f1ae4-6036-4aa2-8811-bc1d01bbbd56","ios":"levelo://app?vid=ac6f1ae4-6036-4aa2-8811-bc1d01bbbd56"},"vehicle_type_id":"4","last_reported":1745255309,"current_range_meters":2800,"station_id":"","pricing_plan_id":"cebpf4jnsgd1na2vs0mg"},{"bike_id":"ee1a0700-0871-48c3-b7c7-132a528a7679","system_id":"levelo_inurba_marseille","lat":43.29254,"lon":5.36856,"is_reserved":false,"is_disabled":false,"rental_uris":{"android":"levelo://app?vid=ee1a0700-0871-48c3-b7c7-132a528a7679","ios":"levelo://app?vid=ee1a0700-0871-48c3-b7c7-132a528a7679"},"vehicle_type_id":"4","last_reported":1745255309,"current_range_meters":2800,"station_id":"ce4bhbp2rcd13ifvqesg","pricing_plan_id":"cebpf4jnsgd1na2vs0mg"},{"bike_id":"cc3514d1-6f4f-439e-982f-8d45d790db35","system_id":"levelo_inurba_marseille","lat":43.29192,"lon":5.35795,"is_reserved":false,"is_disabled":false,"rental_uris":{"android":"levelo://app?vid=cc3514d1-6f4f-439e-982f-8d45d790db35","ios":"levelo://app?vid=cc3514d1-6f4f-439e-982f-8d45d790db35"},"vehicle_type_id":"4","last_reported":1745255309,"current_range_meters":2800,"station_id":"ce4bhb12rcd13ifvqel0","pricing_plan_id":"cebpf4jnsgd1na2vs0mg"},{"bike_id":"62dd741c-a9e8-478f-a53a-c362a53452e6","system_id":"levelo_inurba_marseille","lat":43.27981,"lon":5.40071,"is_reserved":false,"is_disabled":false,"rental_uris":{"android":"levelo://app?vid=62dd741c-a9e8-478f-a53a-c362a53452e6","ios":"levelo://app?vid=62dd741c-a9e8-478f-a53a-c362a53452e6"},"vehicle_type_id":"4","last_reported":1745255309,"current_range_meters":2800,"station_id":"ce4bho92rcd13ifvqh4g","pricing_plan_id":"cebpf4jnsgd1na2vs0mg"},{"bike_id":"4a8981ff-364e-4a8b-affd-83f82ab64050","system_id":"levelo_inurba_marseille","lat":43.231873,"lon":5.399827,"is_reserved":false,"is_disabled":false,"rental_uris":{"android":"levelo://app?vid=4a8981ff-364e-4a8b-affd-83f82ab64050","ios":"levelo://app?vid=4a8981ff-364e-4a8b-affd-83f82ab64050"},"vehicle_type_id":"4","last_reported":1745255309,"current_range_meters":2800,"station_id":"ce4bhn12rcd13ifvqgqg","pricing_plan_id":"cebpf4jnsgd1na2vs0mg"},{"bike_id":"6fc0fd9d-bd37-43f4-a24f-1e3a799a6094","system_id":"levelo_inurba_marseille","lat":43.2799,"lon":5.40041,"is_reserved":false,"is_disabled":false,"rental_uris":{"android":"levelo://app?vid=6fc0fd9d-bd37-43f4-a24f-1e3a799a6094","ios":"levelo://app?vid=6fc0fd9d-bd37-43f4-a24f-1e3a799a6094"},"vehicle_type_id":"4","last_reported":1745255309,"current_range_meters":2800,"station_id":"ce4bho92rcd13ifvqh4g","pricing_plan_id":"cebpf4jnsgd1na2vs0mg"},{"bike_id":"b5cc8185-e581-46d7-8df3-59634ab6fc6e","system_id":"levelo_inurba_marseille","lat":43.28261,"lon":5.35082,"is_reserved":false,"is_disabled":true,"rental_uris":{"android":"levelo://app?vid=b5cc8185-e581-46d7-8df3-59634ab6fc6e","ios":"levelo://app?vid=b5cc8185-e581-46d7-8df3-59634ab6fc6e"},"vehicle_type_id":"4","last_reported":1745255309,"current_range_meters":2800,"station_id":"ce4bhbp2rcd13ifvqerg","pricing_plan_id":"cebpf4jnsgd1na2vs0mg"},{"bike_id":"d0d5055d-0588-487a-b752-7b0ecd80effa","system_id":"levelo_inurba_marseille","lat":43.27205,"lon":5.39185,"is_reserved":false,"is_disabled":false,"rental_uris":{"android":"levelo://app?vid=d0d5055d-0588-487a-b752-7b0ecd80effa","ios":"levelo://app?vid=d0d5055d-0588-487a-b752-7b0ecd80effa"},"vehicle_type_id":"4","last_reported":1745255309,"current_range_meters":3200,"station_id":"ce4bhhp2rcd13ifvqfm0","pricing_plan_id":"cebpf4jnsgd1na2vs0mg"},{"bike_id":"9ad1c933-a4d3-49b6-ab80-f98559b79cee","system_id":"levelo_inurba_marseille","lat":43.29608,"lon":5.38092,"is_reserved":false,"is_disabled":false,"rental_uris":{"android":"levelo://app?vid=9ad1c933-a4d3-49b6-ab80-f98559b79cee","ios":"levelo://app?vid=9ad1c933-a4d3-49b6-ab80-f98559b79cee"},"vehicle_type_id":"4","last_reported":1745255309,"current_range_meters":3200,"station_id":"ce4bgl12rcd13ifvqbo0","pricing_plan_id":"cebpf4jnsgd1na2vs0mg"},{"bike_id":"95d31d5c-d92e-4708-8a67-ca501a87b1a1","system_id":"levelo_inurba_marseille","lat":43.26771,"lon":5.39432,"is_reserved":false,"is_disabled":false,"rental_uris":{"android":"levelo://app?vid=95d31d5c-d92e-4708-8a67-ca501a87b1a1","ios":"levelo://app?vid=95d31d5c-d92e-4708-8a67-ca501a87b1a1"},"vehicle_type_id":"4","last_reported":1745255309,"current_range_meters":3600,"station_id":"ce4bhh12rcd13ifvqfg0","pricing_plan_id":"cebpf4jnsgd1na2vs0mg"},{"bike_id":"d2fcecfe-72e4-469e-b6d8-72e77b2e571d","system_id":"levelo_inurba_marseille","lat":43.28974,"lon":5.37836,"is_reserved":false,"is_disabled":false,"rental_uris":{"android":"levelo://app?vid=d2fcecfe-72e4-469e-b6d8-72e77b2e571d","ios":"levelo://app?vid=d2fcecfe-72e4-469e-b6d8-72e77b2e571d"},"vehicle_type_id":"4","last_reported":1745255309,"current_range_meters":3600,"station_id":"ce4bh9p2rcd13ifvqed0","pricing_plan_id":"cebpf4jnsgd1na2vs0mg"},{"bike_id":"7fda0187-c52f-4cfc-8f70-170e3886ee0b","system_id":"levelo_inurba_marseille","lat":43.28084,"lon":5.39645,"is_reserved":false,"is_disabled":false,"rental_uris":{"android":"levelo://app?vid=7fda0187-c52f-4cfc-8f70-170e3886ee0b","ios":"levelo://app?vid=7fda0187-c52f-4cfc-8f70-170e3886ee0b"},"vehicle_type_id":"4","last_reported":1745255309,"current_range_meters":3600,"station_id":"ce4bho12rcd13ifvqh2g","pricing_plan_id":"cebpf4jnsgd1na2vs0mg"},{"bike_id":"012645d0-a5fd-48d8-a661-e6d5a3bdcf92","system_id":"levelo_inurba_marseille","lat":43.30633,"lon":5.40079,"is_reserved":false,"is_disabled":false,"rental_uris":{"android":"levelo://app?vid=012645d0-a5fd-48d8-a661-e6d5a3bdcf92","ios":"levelo://app?vid=012645d0-a5fd-48d8-a661-e6d5a3bdcf92"},"vehicle_type_id":"4","last_reported":1745255309,"current_range_meters":3600,"station_id":"ce4bh112rcd13ifvqda0","pricing_plan_id":"cebpf4jnsgd1na2vs0mg"},{"bike_id":"dea4c88b-2c2f-43a7-bd81-9c9b914276fd","system_id":"levelo_inurba_marseille","lat":43.2319,"lon":5.35558,"is_reserved":false,"is_disabled":true,"rental_uris":{"android":"levelo://app?vid=dea4c88b-2c2f-43a7-bd81-9c9b914276fd","ios":"levelo://app?vid=dea4c88b-2c2f-43a7-bd81-9c9b914276fd"},"vehicle_type_id":"4","last_reported":1745255309,"current_range_meters":3600,"station_id":"ce4bhu92rcd13ifvqi70","pricing_plan_id":"cebpf4jnsgd1na2vs0mg"},{"bike_id":"2e6daf31-1c47-4e6d-bb9b-d8ecbfed91b1","system_id":"levelo_inurba_marseille","lat":43.29888,"lon":5.38896,"is_reserved":false,"is_disabled":false,"rental_uris":{"android":"levelo://app?vid=2e6daf31-1c47-4e6d-bb9b-d8ecbfed91b1","ios":"levelo://app?vid=2e6daf31-1c47-4e6d-bb9b-d8ecbfed91b1"},"vehicle_type_id":"4","last_reported":1745255309,"current_range_meters":3600,"station_id":"ce4bh392rcd13ifvqdl0","pricing_plan_id":"cebpf4jnsgd1na2vs0mg"},{"bike_id":"3af77425-de1a-4d28-be2c-87073723dc4b","system_id":"levelo_inurba_marseille","lat":43.2292,"lon":5.35371,"is_reserved":false,"is_disabled":true,"rental_uris":{"android":"levelo://app?vid=3af77425-de1a-4d28-be2c-87073723dc4b","ios":"levelo://app?vid=3af77425-de1a-4d28-be2c-87073723dc4b"},"vehicle_type_id":"4","last_reported":1745255309,"current_range_meters":3600,"station_id":"cpo3532slgdg3j2ikp40","pricing_plan_id":"cebpf4jnsgd1na2vs0mg"},{"bike_id":"a44769d4-7f6f-4855-8cb6-eb30cd43dd8b","system_id":"levelo_inurba_marseille","lat":43.24801,"lon":5.3745,"is_reserved":false,"is_disabled":false,"rental_uris":{"android":"levelo://app?vid=a44769d4-7f6f-4855-8cb6-eb30cd43dd8b","ios":"levelo://app?vid=a44769d4-7f6f-4855-8cb6-eb30cd43dd8b"},"vehicle_type_id":"4","last_reported":1745255309,"current_range_meters":3600,"station_id":"ce4bhgh2rcd13ifvqfb0","pricing_plan_id":"cebpf4jnsgd1na2vs0mg"},{"bike_id":"e39d68e1-d581-42b4-beaf-9a00f5ac5bac","system_id":"levelo_inurba_marseille","lat":43.21193,"lon":5.35075,"is_reserved":false,"is_disabled":true,"rental_uris":{"android":"levelo://app?vid=e39d68e1-d581-42b4-beaf-9a00f5ac5bac","ios":"levelo://app?vid=e39d68e1-d581-42b4-beaf-9a00f5ac5bac"},"vehicle_type_id":"4","last_reported":1745255309,"current_range_meters":3600,"station_id":"st_cvj6sg6p6f1abm77japg","pricing_plan_id":"cebpf4jnsgd1na2vs0mg"},{"bike_id":"9fe46d1f-81b1-48ab-a54a-5c3c88a2f3aa","system_id":"levelo_inurba_marseille","lat":43.25585,"lon":5.38234,"is_reserved":false,"is_disabled":false,"rental_uris":{"android":"levelo://app?vid=9fe46d1f-81b1-48ab-a54a-5c3c88a2f3aa","ios":"levelo://app?vid=9fe46d1f-81b1-48ab-a54a-5c3c88a2f3aa"},"vehicle_type_id":"4","last_reported":1745255309,"current_range_meters":3200,"station_id":"ce4bhih2rcd13ifvqfs0","pricing_plan_id":"cebpf4jnsgd1na2vs0mg"},{"bike_id":"da09b479-7f23-4365-b1db-00a175e8fa9a","system_id":"levelo_inurba_marseille","lat":43.29277,"lon":5.40118,"is_reserved":false,"is_disabled":false,"rental_uris":{"android":"levelo://app?vid=da09b479-7f23-4365-b1db-00a175e8fa9a","ios":"levelo://app?vid=da09b479-7f23-4365-b1db-00a175e8fa9a"},"vehicle_type_id":"4","last_reported":1745255309,"current_range_meters":4000,"station_id":"ce4bh312rcd13ifvqdk0","pricing_plan_id":"cebpf4jnsgd1na2vs0mg"},{"bike_id":"db63ef2b-f795-4461-841e-4a88a18bc5c9","system_id":"levelo_inurba_marseille","lat":43.29426,"lon":5.3976,"is_reserved":false,"is_disabled":true,"rental_uris":{"android":"levelo://app?vid=db63ef2b-f795-4461-841e-4a88a18bc5c9","ios":"levelo://app?vid=db63ef2b-f795-4461-841e-4a88a18bc5c9"},"vehicle_type_id":"4","last_reported":1745255309,"current_range_meters":4000,"station_id":"ce4bh3h2rcd13ifvqdo0","pricing_plan_id":"cebpf4jnsgd1na2vs0mg"},{"bike_id":"7817c7bd-80bb-471f-8651-4672af0cbdc6","system_id":"levelo_inurba_marseille","lat":43.2961,"lon":5.38099,"is_reserved":false,"is_disabled":false,"rental_uris":{"android":"levelo://app?vid=7817c7bd-80bb-471f-8651-4672af0cbdc6","ios":"levelo://app?vid=7817c7bd-80bb-471f-8651-4672af0cbdc6"},"vehicle_type_id":"4","last_reported":1745255309,"current_range_meters":4000,"station_id":"ce4bgl12rcd13ifvqbo0","pricing_plan_id":"cebpf4jnsgd1na2vs0mg"},{"bike_id":"c6023d7b-0c8f-4a5e-8eb4-dd919f7bc1c0","system_id":"levelo_inurba_marseille","lat":43.27355,"lon":5.36236,"is_reserved":false,"is_disabled":true,"rental_uris":{"android":"levelo://app?vid=c6023d7b-0c8f-4a5e-8eb4-dd919f7bc1c0","ios":"levelo://app?vid=c6023d7b-0c8f-4a5e-8eb4-dd919f7bc1c0"},"vehicle_type_id":"4","last_reported":1745255309,"current_range_meters":4000,"station_id":"ce4bhbh2rcd13ifvqeo0","pricing_plan_id":"cebpf4jnsgd1na2vs0mg"},{"bike_id":"53ecf183-2eb5-45d1-8ac5-dfc7573a2639","system_id":"levelo_inurba_marseille","lat":43.24808,"lon":5.37455,"is_reserved":false,"is_disabled":false,"rental_uris":{"android":"levelo://app?vid=53ecf183-2eb5-45d1-8ac5-dfc7573a2639","ios":"levelo://app?vid=53ecf183-2eb5-45d1-8ac5-dfc7573a2639"},"vehicle_type_id":"4","last_reported":1745255309,"current_range_meters":4000,"station_id":"ce4bhgh2rcd13ifvqfb0","pricing_plan_id":"cebpf4jnsgd1na2vs0mg"},{"bike_id":"a899bc4e-8555-4467-99e2-dd689f4c2b8a","system_id":"levelo_inurba_marseille","lat":43.31126,"lon":5.377528,"is_reserved":false,"is_disabled":false,"rental_uris":{"android":"levelo://app?vid=a899bc4e-8555-4467-99e2-dd689f4c2b8a","ios":"levelo://app?vid=a899bc4e-8555-4467-99e2-dd689f4c2b8a"},"vehicle_type_id":"4","last_reported":1745255309,"current_range_meters":4400,"station_id":"ce4bgt92rcd13ifvqcg0","pricing_plan_id":"cebpf4jnsgd1na2vs0mg"},{"bike_id":"f3f340a3-e5ea-4961-8256-ba168bd105d0","system_id":"levelo_inurba_marseille","lat":43.29191,"lon":5.39332,"is_reserved":false,"is_disabled":false,"rental_uris":{"android":"levelo://app?vid=f3f340a3-e5ea-4961-8256-ba168bd105d0","ios":"levelo://app?vid=f3f340a3-e5ea-4961-8256-ba168bd105d0"},"vehicle_type_id":"4","last_reported":1745255309,"current_range_meters":4000,"station_id":"ce4bh192rcd13ifvqdd0","pricing_plan_id":"cebpf4jnsgd1na2vs0mg"},{"bike_id":"213fb158-06bd-4e42-8510-0aa3f7eaae67","system_id":"levelo_inurba_marseille","lat":43.23216,"lon":5.35542,"is_reserved":false,"is_disabled":true,"rental_uris":{"android":"levelo://app?vid=213fb158-06bd-4e42-8510-0aa3f7eaae67","ios":"levelo://app?vid=213fb158-06bd-4e42-8510-0aa3f7eaae67"},"vehicle_type_id":"4","last_reported":1745255309,"current_range_meters":4400,"station_id":"ce4bhu92rcd13ifvqi70","pricing_plan_id":"cebpf4jnsgd1na2vs0mg"},{"bike_id":"c82056fa-be43-4e8c-bee3-9e92f3a8ce5a","system_id":"levelo_inurba_marseille","lat":43.24079,"lon":5.37753,"is_reserved":false,"is_disabled":false,"rental_uris":{"android":"levelo://app?vid=c82056fa-be43-4e8c-bee3-9e92f3a8ce5a","ios":"levelo://app?vid=c82056fa-be43-4e8c-bee3-9e92f3a8ce5a"},"vehicle_type_id":"4","last_reported":1745255309,"current_range_meters":4400,"station_id":"ce4bhnp2rcd13ifvqgvg","pricing_plan_id":"cebpf4jnsgd1na2vs0mg"},{"bike_id":"a8fedd1d-acc7-4e57-9ce4-cf39fbc135e3","system_id":"levelo_inurba_marseille","lat":43.246588,"lon":5.373844,"is_reserved":false,"is_disabled":false,"rental_uris":{"android":"levelo://app?vid=a8fedd1d-acc7-4e57-9ce4-cf39fbc135e3","ios":"levelo://app?vid=a8fedd1d-acc7-4e57-9ce4-cf39fbc135e3"},"vehicle_type_id":"4","last_reported":1745255309,"current_range_meters":4400,"station_id":"ce4bhip2rcd13ifvqft0","pricing_plan_id":"cebpf4jnsgd1na2vs0mg"},{"bike_id":"d2145e36-a51d-471a-90b7-470f99789fce","system_id":"levelo_inurba_marseille","lat":43.28486,"lon":5.38423,"is_reserved":false,"is_disabled":false,"rental_uris":{"android":"levelo://app?vid=d2145e36-a51d-471a-90b7-470f99789fce","ios":"levelo://app?vid=d2145e36-a51d-471a-90b7-470f99789fce"},"vehicle_type_id":"4","last_reported":1745255309,"current_range_meters":4400,"station_id":"ce4bh512rcd13ifvqe3g","pricing_plan_id":"cebpf4jnsgd1na2vs0mg"},{"bike_id":"454c767f-7c89-4426-a363-9c16b76168b4","system_id":"levelo_inurba_marseille","lat":43.29959,"lon":5.38498,"is_reserved":false,"is_disabled":false,"rental_uris":{"android":"levelo://app?vid=454c767f-7c89-4426-a363-9c16b76168b4","ios":"levelo://app?vid=454c767f-7c89-4426-a363-9c16b76168b4"},"vehicle_type_id":"4","last_reported":1745255309,"current_range_meters":4400,"station_id":"ce4bgj92rcd13ifvqbd0","pricing_plan_id":"cebpf4jnsgd1na2vs0mg"},{"bike_id":"fc3312cf-0fd5-4970-b770-7d8b0ddcaf00","system_id":"levelo_inurba_marseille","lat":43.28448,"lon":5.3589,"is_reserved":false,"is_disabled":false,"rental_uris":{"android":"levelo://app?vid=fc3312cf-0fd5-4970-b770-7d8b0ddcaf00","ios":"levelo://app?vid=fc3312cf-0fd5-4970-b770-7d8b0ddcaf00"},"vehicle_type_id":"4","last_reported":1745255309,"current_range_meters":4400,"station_id":"ce4bhah2rcd13ifvqei0","pricing_plan_id":"cebpf4jnsgd1na2vs0mg"},{"bike_id":"06749a18-1e36-4084-8892-a6bb5894da30","system_id":"levelo_inurba_marseille","lat":43.25726,"lon":5.41107,"is_reserved":false,"is_disabled":false,"rental_uris":{"android":"levelo://app?vid=06749a18-1e36-4084-8892-a6bb5894da30","ios":"levelo://app?vid=06749a18-1e36-4084-8892-a6bb5894da30"},"vehicle_type_id":"4","last_reported":1745255309,"current_range_meters":4400,"station_id":"ce4bhkp2rcd13ifvqgd0","pricing_plan_id":"cebpf4jnsgd1na2vs0mg"},{"bike_id":"79de5615-1ad4-4ab4-b306-34362703beff","system_id":"levelo_inurba_marseille","lat":43.23175,"lon":5.39984,"is_reserved":false,"is_disabled":false,"rental_uris":{"android":"levelo://app?vid=79de5615-1ad4-4ab4-b306-34362703beff","ios":"levelo://app?vid=79de5615-1ad4-4ab4-b306-34362703beff"},"vehicle_type_id":"4","last_reported":1745255309,"current_range_meters":4400,"station_id":"ce4bhn12rcd13ifvqgqg","pricing_plan_id":"cebpf4jnsgd1na2vs0mg"},{"bike_id":"f68dfb65-4b3b-494c-99fb-5394bc11dba4","system_id":"levelo_inurba_marseille","lat":43.28152,"lon":5.42652,"is_reserved":false,"is_disabled":false,"rental_uris":{"android":"levelo://app?vid=f68dfb65-4b3b-494c-99fb-5394bc11dba4","ios":"levelo://app?vid=f68dfb65-4b3b-494c-99fb-5394bc11dba4"},"vehicle_type_id":"4","last_reported":1745255309,"current_range_meters":4400,"station_id":"ce4bhnh2rcd13ifvqgug","pricing_plan_id":"cebpf4jnsgd1na2vs0mg"},{"bike_id":"b6d1855a-6e84-4cee-b10c-0e2efe67a2ae","system_id":"levelo_inurba_marseille","lat":43.30933,"lon":5.40155,"is_reserved":false,"is_disabled":false,"rental_uris":{"android":"levelo://app?vid=b6d1855a-6e84-4cee-b10c-0e2efe67a2ae","ios":"levelo://app?vid=b6d1855a-6e84-4cee-b10c-0e2efe67a2ae"},"vehicle_type_id":"4","last_reported":1745255309,"current_range_meters":4400,"station_id":"ce4bgvp2rcd13ifvqct0","pricing_plan_id":"cebpf4jnsgd1na2vs0mg"},{"bike_id":"f4a612dc-df33-48e6-a2c0-1f6803c18ed5","system_id":"levelo_inurba_marseille","lat":43.23196,"lon":5.355554,"is_reserved":false,"is_disabled":false,"rental_uris":{"android":"levelo://app?vid=f4a612dc-df33-48e6-a2c0-1f6803c18ed5","ios":"levelo://app?vid=f4a612dc-df33-48e6-a2c0-1f6803c18ed5"},"vehicle_type_id":"4","last_reported":1745255309,"current_range_meters":4800,"station_id":"ce4bhh92rcd13ifvqfi0","pricing_plan_id":"cebpf4jnsgd1na2vs0mg"},{"bike_id":"03cc7d85-8143-4fb0-9eb7-1bbd713a634d","system_id":"levelo_inurba_marseille","lat":43.27552,"lon":5.3843,"is_reserved":false,"is_disabled":false,"rental_uris":{"android":"levelo://app?vid=03cc7d85-8143-4fb0-9eb7-1bbd713a634d","ios":"levelo://app?vid=03cc7d85-8143-4fb0-9eb7-1bbd713a634d"},"vehicle_type_id":"4","last_reported":1745255309,"current_range_meters":4400,"station_id":"ce4bhh92rcd13ifvqfi0","pricing_plan_id":"cebpf4jnsgd1na2vs0mg"},{"bike_id":"914a5686-da75-4c98-a2a1-7e553b4362af","system_id":"levelo_inurba_marseille","lat":43.27493,"lon":5.42454,"is_reserved":false,"is_disabled":false,"rental_uris":{"android":"levelo://app?vid=914a5686-da75-4c98-a2a1-7e553b4362af","ios":"levelo://app?vid=914a5686-da75-4c98-a2a1-7e553b4362af"},"vehicle_type_id":"4","last_reported":1745255309,"current_range_meters":4800,"station_id":"ce4bhn92rcd13ifvqgrg","pricing_plan_id":"cebpf4jnsgd1na2vs0mg"},{"bike_id":"69a71401-8344-49c5-8ac5-9d956591040c","system_id":"levelo_inurba_marseille","lat":43.30627,"lon":5.37226,"is_reserved":false,"is_disabled":false,"rental_uris":{"android":"levelo://app?vid=69a71401-8344-49c5-8ac5-9d956591040c","ios":"levelo://app?vid=69a71401-8344-49c5-8ac5-9d956591040c"},"vehicle_type_id":"4","last_reported":1745255309,"current_range_meters":4800,"station_id":"ce4bgqh2rcd13ifvqc4g","pricing_plan_id":"cebpf4jnsgd1na2vs0mg"},{"bike_id":"6e2a839d-b3ea-4eb4-9fd8-b9c55bcc52ca","system_id":"levelo_inurba_marseille","lat":43.24806,"lon":5.3745,"is_reserved":false,"is_disabled":false,"rental_uris":{"android":"levelo://app?vid=6e2a839d-b3ea-4eb4-9fd8-b9c55bcc52ca","ios":"levelo://app?vid=6e2a839d-b3ea-4eb4-9fd8-b9c55bcc52ca"},"vehicle_type_id":"4","last_reported":1745255309,"current_range_meters":5600,"station_id":"ce4bhgh2rcd13ifvqfb0","pricing_plan_id":"cebpf4jnsgd1na2vs0mg"},{"bike_id":"13dcc10c-4cac-4cf2-9318-07e242720dc9","system_id":"levelo_inurba_marseille","lat":43.312,"lon":5.37715,"is_reserved":false,"is_disabled":false,"rental_uris":{"android":"levelo://app?vid=13dcc10c-4cac-4cf2-9318-07e242720dc9","ios":"levelo://app?vid=13dcc10c-4cac-4cf2-9318-07e242720dc9"},"vehicle_type_id":"4","last_reported":1745255309,"current_range_meters":5600,"station_id":"","pricing_plan_id":"cebpf4jnsgd1na2vs0mg"},{"bike_id":"1dd5943c-eb2b-4b8b-aa15-c9dead4dadf3","system_id":"levelo_inurba_marseille","lat":43.27915,"lon":5.39574,"is_reserved":false,"is_disabled":false,"rental_uris":{"android":"levelo://app?vid=1dd5943c-eb2b-4b8b-aa15-c9dead4dadf3","ios":"levelo://app?vid=1dd5943c-eb2b-4b8b-aa15-c9dead4dadf3"},"vehicle_type_id":"4","last_reported":1745255309,"current_range_meters":5600,"station_id":"ce4bhf92rcd13ifvqf40","pricing_plan_id":"cebpf4jnsgd1na2vs0mg"},{"bike_id":"3499910d-2a19-4893-aebd-ef6b2c379992","system_id":"levelo_inurba_marseille","lat":43.28423,"lon":5.34992,"is_reserved":false,"is_disabled":false,"rental_uris":{"android":"levelo://app?vid=3499910d-2a19-4893-aebd-ef6b2c379992","ios":"levelo://app?vid=3499910d-2a19-4893-aebd-ef6b2c379992"},"vehicle_type_id":"4","last_reported":1745255309,"current_range_meters":5600,"station_id":"ce4bhbh2rcd13ifvqepg","pricing_plan_id":"cebpf4jnsgd1na2vs0mg"},{"bike_id":"a4c49803-08cd-44e9-8cec-c58a79dc5fef","system_id":"levelo_inurba_marseille","lat":43.27907,"lon":5.38013,"is_reserved":false,"is_disabled":false,"rental_uris":{"android":"levelo://app?vid=a4c49803-08cd-44e9-8cec-c58a79dc5fef","ios":"levelo://app?vid=a4c49803-08cd-44e9-8cec-c58a79dc5fef"},"vehicle_type_id":"4","last_reported":1745255309,"current_range_meters":5600,"station_id":"ce4bhf92rcd13ifvqf50","pricing_plan_id":"cebpf4jnsgd1na2vs0mg"},{"bike_id":"6eb4573b-07d2-44ef-9d70-af21cc3eab62","system_id":"levelo_inurba_marseille","lat":43.2315,"lon":5.4372,"is_reserved":false,"is_disabled":false,"rental_uris":{"android":"levelo://app?vid=6eb4573b-07d2-44ef-9d70-af21cc3eab62","ios":"levelo://app?vid=6eb4573b-07d2-44ef-9d70-af21cc3eab62"},"vehicle_type_id":"4","last_reported":1745255309,"current_range_meters":4800,"station_id":"ce4bhmp2rcd13ifvqgog","pricing_plan_id":"cebpf4jnsgd1na2vs0mg"},{"bike_id":"949a3b98-b3d0-4b58-9e5c-50967c540964","system_id":"levelo_inurba_marseille","lat":43.29719,"lon":5.40072,"is_reserved":false,"is_disabled":false,"rental_uris":{"android":"levelo://app?vid=949a3b98-b3d0-4b58-9e5c-50967c540964","ios":"levelo://app?vid=949a3b98-b3d0-4b58-9e5c-50967c540964"},"vehicle_type_id":"4","last_reported":1745255309,"current_range_meters":5600,"station_id":"","pricing_plan_id":"cebpf4jnsgd1na2vs0mg"},{"bike_id":"0bf1f289-5b5d-4148-b563-1960ad2b696a","system_id":"levelo_inurba_marseille","lat":43.29867,"lon":5.39737,"is_reserved":false,"is_disabled":false,"rental_uris":{"android":"levelo://app?vid=0bf1f289-5b5d-4148-b563-1960ad2b696a","ios":"levelo://app?vid=0bf1f289-5b5d-4148-b563-1960ad2b696a"},"vehicle_type_id":"4","last_reported":1745255309,"current_range_meters":6000,"station_id":"ce4bh0h2rcd13ifvqd50","pricing_plan_id":"cebpf4jnsgd1na2vs0mg"},{"bike_id":"2f25c421-6a91-41bc-be24-05b02e3c9edb","system_id":"levelo_inurba_marseille","lat":43.29196,"lon":5.35817,"is_reserved":false,"is_disabled":false,"rental_uris":{"android":"levelo://app?vid=2f25c421-6a91-41bc-be24-05b02e3c9edb","ios":"levelo://app?vid=2f25c421-6a91-41bc-be24-05b02e3c9edb"},"vehicle_type_id":"4","last_reported":1745255309,"current_range_meters":5600,"station_id":"ce4bhb12rcd13ifvqel0","pricing_plan_id":"cebpf4jnsgd1na2vs0mg"},{"bike_id":"6be1f674-accd-44b3-9860-965f8987e4fc","system_id":"levelo_inurba_marseille","lat":43.3021,"lon":5.3947,"is_reserved":false,"is_disabled":false,"rental_uris":{"android":"levelo://app?vid=6be1f674-accd-44b3-9860-965f8987e4fc","ios":"levelo://app?vid=6be1f674-accd-44b3-9860-965f8987e4fc"},"vehicle_type_id":"4","last_reported":1745255309,"current_range_meters":6000,"station_id":"ce4bh0p2rcd13ifvqd70","pricing_plan_id":"cebpf4jnsgd1na2vs0mg"},{"bike_id":"71ff5b2c-b49e-4c65-9c0a-88f720b4f482","system_id":"levelo_inurba_marseille","lat":43.22933,"lon":5.35375,"is_reserved":false,"is_disabled":false,"rental_uris":{"android":"levelo://app?vid=71ff5b2c-b49e-4c65-9c0a-88f720b4f482","ios":"levelo://app?vid=71ff5b2c-b49e-4c65-9c0a-88f720b4f482"},"vehicle_type_id":"4","last_reported":1745255309,"current_range_meters":6000,"station_id":"cpo3532slgdg3j2ikp40","pricing_plan_id":"cebpf4jnsgd1na2vs0mg"},{"bike_id":"710504c8-be1d-4a7b-9340-79620abc0cbb","system_id":"levelo_inurba_marseille","lat":43.28463,"lon":5.35867,"is_reserved":false,"is_disabled":false,"rental_uris":{"android":"levelo://app?vid=710504c8-be1d-4a7b-9340-79620abc0cbb","ios":"levelo://app?vid=710504c8-be1d-4a7b-9340-79620abc0cbb"},"vehicle_type_id":"4","last_reported":1745255309,"current_range_meters":6000,"station_id":"ce4bhah2rcd13ifvqei0","pricing_plan_id":"cebpf4jnsgd1na2vs0mg"},{"bike_id":"3a1727f4-9168-4948-b6f2-c9c1e03ced57","system_id":"levelo_inurba_marseille","lat":43.3205,"lon":5.41545,"is_reserved":false,"is_disabled":false,"rental_uris":{"android":"levelo://app?vid=3a1727f4-9168-4948-b6f2-c9c1e03ced57","ios":"levelo://app?vid=3a1727f4-9168-4948-b6f2-c9c1e03ced57"},"vehicle_type_id":"4","last_reported":1745255309,"current_range_meters":5600,"station_id":"ce4bhq92rcd13ifvqhkg","pricing_plan_id":"cebpf4jnsgd1na2vs0mg"},{"bike_id":"f3a940f0-aed0-4bad-a33e-6bbde2229405","system_id":"levelo_inurba_marseille","lat":43.29096,"lon":5.38183,"is_reserved":false,"is_disabled":false,"rental_uris":{"android":"levelo://app?vid=f3a940f0-aed0-4bad-a33e-6bbde2229405","ios":"levelo://app?vid=f3a940f0-aed0-4bad-a33e-6bbde2229405"},"vehicle_type_id":"4","last_reported":1745255309,"current_range_meters":6000,"station_id":"ce4bh512rcd13ifvqe2g","pricing_plan_id":"cebpf4jnsgd1na2vs0mg"},{"bike_id":"f5263ebf-87d0-4cd5-b2ac-5cb4a8bdb13a","system_id":"levelo_inurba_marseille","lat":43.28572,"lon":5.395,"is_reserved":false,"is_disabled":false,"rental_uris":{"android":"levelo://app?vid=f5263ebf-87d0-4cd5-b2ac-5cb4a8bdb13a","ios":"levelo://app?vid=f5263ebf-87d0-4cd5-b2ac-5cb4a8bdb13a"},"vehicle_type_id":"4","last_reported":1745255309,"current_range_meters":5600,"station_id":"ce4bh292rcd13ifvqdg0","pricing_plan_id":"cebpf4jnsgd1na2vs0mg"},{"bike_id":"4f0b25c3-2f51-4c00-9f56-69333455e756","system_id":"levelo_inurba_marseille","lat":43.27834,"lon":5.39334,"is_reserved":false,"is_disabled":false,"rental_uris":{"android":"levelo://app?vid=4f0b25c3-2f51-4c00-9f56-69333455e756","ios":"levelo://app?vid=4f0b25c3-2f51-4c00-9f56-69333455e756"},"vehicle_type_id":"4","last_reported":1745255309,"current_range_meters":6000,"station_id":"","pricing_plan_id":"cebpf4jnsgd1na2vs0mg"},{"bike_id":"dd2d29ee-0c18-4d21-a028-027f30ac467c","system_id":"levelo_inurba_marseille","lat":43.29571,"lon":5.3997,"is_reserved":false,"is_disabled":false,"rental_uris":{"android":"levelo://app?vid=dd2d29ee-0c18-4d21-a028-027f30ac467c","ios":"levelo://app?vid=dd2d29ee-0c18-4d21-a028-027f30ac467c"},"vehicle_type_id":"4","last_reported":1745255309,"current_range_meters":5600,"station_id":"ce4bh312rcd13ifvqdj0","pricing_plan_id":"cebpf4jnsgd1na2vs0mg"},{"bike_id":"2b84e9bc-47c1-49f7-b485-41581cf747e7","system_id":"levelo_inurba_marseille","lat":43.29272,"lon":5.36845,"is_reserved":false,"is_disabled":false,"rental_uris":{"android":"levelo://app?vid=2b84e9bc-47c1-49f7-b485-41581cf747e7","ios":"levelo://app?vid=2b84e9bc-47c1-49f7-b485-41581cf747e7"},"vehicle_type_id":"4","last_reported":1745255309,"current_range_meters":6000,"station_id":"ce4bhbp2rcd13ifvqesg","pricing_plan_id":"cebpf4jnsgd1na2vs0mg"},{"bike_id":"0301a3e0-a0a8-4e29-bac9-fe0713c72a23","system_id":"levelo_inurba_marseille","lat":43.296003,"lon":5.380773,"is_reserved":false,"is_disabled":false,"rental_uris":{"android":"levelo://app?vid=0301a3e0-a0a8-4e29-bac9-fe0713c72a23","ios":"levelo://app?vid=0301a3e0-a0a8-4e29-bac9-fe0713c72a23"},"vehicle_type_id":"4","last_reported":1745255309,"current_range_meters":6000,"station_id":"ce4bgl12rcd13ifvqbo0","pricing_plan_id":"cebpf4jnsgd1na2vs0mg"},{"bike_id":"e066a99a-088e-4b64-aec3-9ee2cc78b239","system_id":"levelo_inurba_marseille","lat":43.24998,"lon":5.38932,"is_reserved":false,"is_disabled":false,"rental_uris":{"android":"levelo://app?vid=e066a99a-088e-4b64-aec3-9ee2cc78b239","ios":"levelo://app?vid=e066a99a-088e-4b64-aec3-9ee2cc78b239"},"vehicle_type_id":"4","last_reported":1745255309,"current_range_meters":6400,"station_id":"ce4bhgp2rcd13ifvqfd0","pricing_plan_id":"cebpf4jnsgd1na2vs0mg"},{"bike_id":"bf4c75cc-035f-4c1b-95bc-06322504f79a","system_id":"levelo_inurba_marseille","lat":43.29046,"lon":5.38654,"is_reserved":false,"is_disabled":false,"rental_uris":{"android":"levelo://app?vid=bf4c75cc-035f-4c1b-95bc-06322504f79a","ios":"levelo://app?vid=bf4c75cc-035f-4c1b-95bc-06322504f79a"},"vehicle_type_id":"4","last_reported":1745255309,"current_range_meters":6400,"station_id":"ce4bh4p2rcd13ifvqe0g","pricing_plan_id":"cebpf4jnsgd1na2vs0mg"},{"bike_id":"49225d49-9260-47b2-a782-7d3d21b08c48","system_id":"levelo_inurba_marseille","lat":43.295342,"lon":5.378851,"is_reserved":false,"is_disabled":false,"rental_uris":{"android":"levelo://app?vid=49225d49-9260-47b2-a782-7d3d21b08c48","ios":"levelo://app?vid=49225d49-9260-47b2-a782-7d3d21b08c48"},"vehicle_type_id":"4","last_reported":1745255309,"current_range_meters":6400,"station_id":"","pricing_plan_id":"cebpf4jnsgd1na2vs0mg"},{"bike_id":"c078bc48-3940-4b2f-9179-ff3d403e8aa9","system_id":"levelo_inurba_marseille","lat":43.29268,"lon":5.37621,"is_reserved":false,"is_disabled":false,"rental_uris":{"android":"levelo://app?vid=c078bc48-3940-4b2f-9179-ff3d403e8aa9","ios":"levelo://app?vid=c078bc48-3940-4b2f-9179-ff3d403e8aa9"},"vehicle_type_id":"4","last_reported":1745255309,"current_range_meters":6400,"station_id":"ce4bgi12rcd13ifvqb80","pricing_plan_id":"cebpf4jnsgd1na2vs0mg"},{"bike_id":"29f93845-c762-4d90-a0d5-988a15d4dde8","system_id":"levelo_inurba_marseille","lat":43.28567,"lon":5.39501,"is_reserved":false,"is_disabled":false,"rental_uris":{"android":"levelo://app?vid=29f93845-c762-4d90-a0d5-988a15d4dde8","ios":"levelo://app?vid=29f93845-c762-4d90-a0d5-988a15d4dde8"},"vehicle_type_id":"4","last_reported":1745255309,"current_range_meters":6000,"station_id":"ce4bh292rcd13ifvqdg0","pricing_plan_id":"cebpf4jnsgd1na2vs0mg"},{"bike_id":"52e8249b-08f5-4827-9fc9-02d59758e099","system_id":"levelo_inurba_marseille","lat":43.2898,"lon":5.37842,"is_reserved":false,"is_disabled":false,"rental_uris":{"android":"levelo://app?vid=52e8249b-08f5-4827-9fc9-02d59758e099","ios":"levelo://app?vid=52e8249b-08f5-4827-9fc9-02d59758e099"},"vehicle_type_id":"4","last_reported":1745255309,"current_range_meters":6400,"station_id":"ce4bh9p2rcd13ifvqed0","pricing_plan_id":"cebpf4jnsgd1na2vs0mg"},{"bike_id":"d3ede3e4-9cd4-4d9a-9144-706440474cdd","system_id":"levelo_inurba_marseille","lat":43.30577,"lon":5.39347,"is_reserved":false,"is_disabled":false,"rental_uris":{"android":"levelo://app?vid=d3ede3e4-9cd4-4d9a-9144-706440474cdd","ios":"levelo://app?vid=d3ede3e4-9cd4-4d9a-9144-706440474cdd"},"vehicle_type_id":"4","last_reported":1745255309,"current_range_meters":6800,"station_id":"ce4bh0p2rcd13ifvqd80","pricing_plan_id":"cebpf4jnsgd1na2vs0mg"},{"bike_id":"4da56156-39d7-4007-9859-0f8e82dbe585","system_id":"levelo_inurba_marseille","lat":43.29288,"lon":5.40963,"is_reserved":false,"is_disabled":false,"rental_uris":{"android":"levelo://app?vid=4da56156-39d7-4007-9859-0f8e82dbe585","ios":"levelo://app?vid=4da56156-39d7-4007-9859-0f8e82dbe585"},"vehicle_type_id":"4","last_reported":1745255309,"current_range_meters":6800,"station_id":"","pricing_plan_id":"cebpf4jnsgd1na2vs0mg"},{"bike_id":"6b1267c3-337e-476c-a09a-6c8ec461c28c","system_id":"levelo_inurba_marseille","lat":43.30336,"lon":5.40458,"is_reserved":false,"is_disabled":false,"rental_uris":{"android":"levelo://app?vid=6b1267c3-337e-476c-a09a-6c8ec461c28c","ios":"levelo://app?vid=6b1267c3-337e-476c-a09a-6c8ec461c28c"},"vehicle_type_id":"4","last_reported":1745255309,"current_range_meters":6800,"station_id":"ce4bh012rcd13ifvqd10","pricing_plan_id":"cebpf4jnsgd1na2vs0mg"},{"bike_id":"a31f8c4b-6cb7-4a65-9e74-a7070eb5ffd7","system_id":"levelo_inurba_marseille","lat":43.29024,"lon":5.3864,"is_reserved":false,"is_disabled":false,"rental_uris":{"android":"levelo://app?vid=a31f8c4b-6cb7-4a65-9e74-a7070eb5ffd7","ios":"levelo://app?vid=a31f8c4b-6cb7-4a65-9e74-a7070eb5ffd7"},"vehicle_type_id":"4","last_reported":1745255309,"current_range_meters":6400,"station_id":"ce4bh4p2rcd13ifvqe0g","pricing_plan_id":"cebpf4jnsgd1na2vs0mg"},{"bike_id":"6e7d2935-fa60-4396-8fd6-4589e4ac4634","system_id":"levelo_inurba_marseille","lat":43.23204,"lon":5.35597,"is_reserved":false,"is_disabled":false,"rental_uris":{"android":"levelo://app?vid=6e7d2935-fa60-4396-8fd6-4589e4ac4634","ios":"levelo://app?vid=6e7d2935-fa60-4396-8fd6-4589e4ac4634"},"vehicle_type_id":"4","last_reported":1745255309,"current_range_meters":6800,"station_id":"ce4bhu92rcd13ifvqi70","pricing_plan_id":"cebpf4jnsgd1na2vs0mg"},{"bike_id":"92223572-9c4e-4e11-abb0-80ffcb01caab","system_id":"levelo_inurba_marseille","lat":43.29533,"lon":5.38548,"is_reserved":false,"is_disabled":false,"rental_uris":{"android":"levelo://app?vid=92223572-9c4e-4e11-abb0-80ffcb01caab","ios":"levelo://app?vid=92223572-9c4e-4e11-abb0-80ffcb01caab"},"vehicle_type_id":"4","last_reported":1745255309,"current_range_meters":6800,"station_id":"ce4bgih2rcd13ifvqba0","pricing_plan_id":"cebpf4jnsgd1na2vs0mg"},{"bike_id":"49d46f27-8939-4cbc-beb6-3e61b2323e40","system_id":"levelo_inurba_marseille","lat":43.29436,"lon":5.39748,"is_reserved":false,"is_disabled":false,"rental_uris":{"android":"levelo://app?vid=49d46f27-8939-4cbc-beb6-3e61b2323e40","ios":"levelo://app?vid=49d46f27-8939-4cbc-beb6-3e61b2323e40"},"vehicle_type_id":"4","last_reported":1745255309,"current_range_meters":6400,"station_id":"ce4bh3h2rcd13ifvqdo0","pricing_plan_id":"cebpf4jnsgd1na2vs0mg"},{"bike_id":"2da6ef4a-0251-4b2f-8641-c041e466b079","system_id":"levelo_inurba_marseille","lat":43.287295,"lon":5.37938,"is_reserved":false,"is_disabled":false,"rental_uris":{"android":"levelo://app?vid=2da6ef4a-0251-4b2f-8641-c041e466b079","ios":"levelo://app?vid=2da6ef4a-0251-4b2f-8641-c041e466b079"},"vehicle_type_id":"4","last_reported":1745255309,"current_range_meters":6400,"station_id":"ce4bh9p2rcd13ifvqec0","pricing_plan_id":"cebpf4jnsgd1na2vs0mg"},{"bike_id":"8a7ec3da-38e6-4187-9266-c9d5e220963c","system_id":"levelo_inurba_marseille","lat":43.24652,"lon":5.38893,"is_reserved":false,"is_disabled":false,"rental_uris":{"android":"levelo://app?vid=8a7ec3da-38e6-4187-9266-c9d5e220963c","ios":"levelo://app?vid=8a7ec3da-38e6-4187-9266-c9d5e220963c"},"vehicle_type_id":"4","last_reported":1745255309,"current_range_meters":6800,"station_id":"ce4bhg12rcd13ifvqf60","pricing_plan_id":"cebpf4jnsgd1na2vs0mg"},{"bike_id":"9a463569-4b1c-4339-8059-e5fa2b087b7d","system_id":"levelo_inurba_marseille","lat":43.27912,"lon":5.39573,"is_reserved":false,"is_disabled":false,"rental_uris":{"android":"levelo://app?vid=9a463569-4b1c-4339-8059-e5fa2b087b7d","ios":"levelo://app?vid=9a463569-4b1c-4339-8059-e5fa2b087b7d"},"vehicle_type_id":"4","last_reported":1745255309,"current_range_meters":7200,"station_id":"ce4bhf92rcd13ifvqf40","pricing_plan_id":"cebpf4jnsgd1na2vs0mg"},{"bike_id":"3a6d009e-2e7e-4c02-9f51-08d9aaf56ce6","system_id":"levelo_inurba_marseille","lat":43.30307,"lon":5.39218,"is_reserved":false,"is_disabled":true,"rental_uris":{"android":"levelo://app?vid=3a6d009e-2e7e-4c02-9f51-08d9aaf56ce6","ios":"levelo://app?vid=3a6d009e-2e7e-4c02-9f51-08d9aaf56ce6"},"vehicle_type_id":"4","last_reported":1745255309,"current_range_meters":7200,"station_id":"ce4bgkh2rcd13ifvqbk0","pricing_plan_id":"cebpf4jnsgd1na2vs0mg"},{"bike_id":"0a1ff438-1444-490f-97d8-96d5ebe3ac93","system_id":"levelo_inurba_marseille","lat":43.28613,"lon":5.35099,"is_reserved":false,"is_disabled":false,"rental_uris":{"android":"levelo://app?vid=0a1ff438-1444-490f-97d8-96d5ebe3ac93","ios":"levelo://app?vid=0a1ff438-1444-490f-97d8-96d5ebe3ac93"},"vehicle_type_id":"4","last_reported":1745255309,"current_range_meters":7200,"station_id":"ce4bhch2rcd13ifvqeug","pricing_plan_id":"cebpf4jnsgd1na2vs0mg"},{"bike_id":"6d0b1e09-0778-4875-a9ec-ebd4ab3c5c71","system_id":"levelo_inurba_marseille","lat":43.21193,"lon":5.35088,"is_reserved":false,"is_disabled":true,"rental_uris":{"android":"levelo://app?vid=6d0b1e09-0778-4875-a9ec-ebd4ab3c5c71","ios":"levelo://app?vid=6d0b1e09-0778-4875-a9ec-ebd4ab3c5c71"},"vehicle_type_id":"4","last_reported":1745255309,"current_range_meters":7200,"station_id":"st_cvj6sg6p6f1abm77japg","pricing_plan_id":"cebpf4jnsgd1na2vs0mg"},{"bike_id":"192d51cc-116a-4926-aa4a-e1515bcb8248","system_id":"levelo_inurba_marseille","lat":43.29974,"lon":5.38491,"is_reserved":false,"is_disabled":true,"rental_uris":{"android":"levelo://app?vid=192d51cc-116a-4926-aa4a-e1515bcb8248","ios":"levelo://app?vid=192d51cc-116a-4926-aa4a-e1515bcb8248"},"vehicle_type_id":"4","last_reported":1745255309,"current_range_meters":7200,"station_id":"ce4bgj92rcd13ifvqbd0","pricing_plan_id":"cebpf4jnsgd1na2vs0mg"},{"bike_id":"ebc8dcc6-8e50-4c98-a275-174725f0b761","system_id":"levelo_inurba_marseille","lat":43.28502,"lon":5.38543,"is_reserved":false,"is_disabled":false,"rental_uris":{"android":"levelo://app?vid=ebc8dcc6-8e50-4c98-a275-174725f0b761","ios":"levelo://app?vid=ebc8dcc6-8e50-4c98-a275-174725f0b761"},"vehicle_type_id":"4","last_reported":1745255309,"current_range_meters":7200,"station_id":"ce4bh8p2rcd13ifvqeb0","pricing_plan_id":"cebpf4jnsgd1na2vs0mg"},{"bike_id":"5e53560a-5849-4e01-b8ee-3a378a7aa834","system_id":"levelo_inurba_marseille","lat":43.28167,"lon":5.42642,"is_reserved":false,"is_disabled":false,"rental_uris":{"android":"levelo://app?vid=5e53560a-5849-4e01-b8ee-3a378a7aa834","ios":"levelo://app?vid=5e53560a-5849-4e01-b8ee-3a378a7aa834"},"vehicle_type_id":"4","last_reported":1745255309,"current_range_meters":7200,"station_id":"ce4bhnh2rcd13ifvqgug","pricing_plan_id":"cebpf4jnsgd1na2vs0mg"},{"bike_id":"602d8625-82bd-4cc7-8845-f17451aba7b8","system_id":"levelo_inurba_marseille","lat":43.28711,"lon":5.40048,"is_reserved":false,"is_disabled":false,"rental_uris":{"android":"levelo://app?vid=602d8625-82bd-4cc7-8845-f17451aba7b8","ios":"levelo://app?vid=602d8625-82bd-4cc7-8845-f17451aba7b8"},"vehicle_type_id":"4","last_reported":1745255309,"current_range_meters":6800,"station_id":"ce4bho92rcd13ifvqh3g","pricing_plan_id":"cebpf4jnsgd1na2vs0mg"},{"bike_id":"a690620e-886f-4a7e-b000-db663d32c7b3","system_id":"levelo_inurba_marseille","lat":43.298923,"lon":5.436709,"is_reserved":false,"is_disabled":false,"rental_uris":{"android":"levelo://app?vid=a690620e-886f-4a7e-b000-db663d32c7b3","ios":"levelo://app?vid=a690620e-886f-4a7e-b000-db663d32c7b3"},"vehicle_type_id":"4","last_reported":1745255309,"current_range_meters":8000,"station_id":"ce4bhpp2rcd13ifvqhfg","pricing_plan_id":"cebpf4jnsgd1na2vs0mg"},{"bike_id":"43e7ec10-f2ad-4298-9016-0090b74835db","system_id":"levelo_inurba_marseille","lat":43.31696,"lon":5.40469,"is_reserved":false,"is_disabled":false,"rental_uris":{"android":"levelo://app?vid=43e7ec10-f2ad-4298-9016-0090b74835db","ios":"levelo://app?vid=43e7ec10-f2ad-4298-9016-0090b74835db"},"vehicle_type_id":"4","last_reported":1745255309,"current_range_meters":8000,"station_id":"ce4bh012rcd13ifvqd00","pricing_plan_id":"cebpf4jnsgd1na2vs0mg"},{"bike_id":"f143800f-2ea4-4f96-9e22-0dcd5597b716","system_id":"levelo_inurba_marseille","lat":43.23965,"lon":5.36638,"is_reserved":false,"is_disabled":false,"rental_uris":{"android":"levelo://app?vid=f143800f-2ea4-4f96-9e22-0dcd5597b716","ios":"levelo://app?vid=f143800f-2ea4-4f96-9e22-0dcd5597b716"},"vehicle_type_id":"4","last_reported":1745255309,"current_range_meters":7200,"station_id":"ce4bhi12rcd13ifvqfp0","pricing_plan_id":"cebpf4jnsgd1na2vs0mg"},{"bike_id":"e9b40b8c-aa8b-493b-9704-ac204b4fdb74","system_id":"levelo_inurba_marseille","lat":43.225039,"lon":5.347841,"is_reserved":false,"is_disabled":true,"rental_uris":{"android":"levelo://app?vid=e9b40b8c-aa8b-493b-9704-ac204b4fdb74","ios":"levelo://app?vid=e9b40b8c-aa8b-493b-9704-ac204b4fdb74"},"vehicle_type_id":"4","last_reported":1745255309,"current_range_meters":8000,"station_id":"","pricing_plan_id":"cebpf4jnsgd1na2vs0mg"},{"bike_id":"b95ea2d9-feb0-4899-9e89-fe9874f80cd6","system_id":"levelo_inurba_marseille","lat":43.31692,"lon":5.40464,"is_reserved":false,"is_disabled":false,"rental_uris":{"android":"levelo://app?vid=b95ea2d9-feb0-4899-9e89-fe9874f80cd6","ios":"levelo://app?vid=b95ea2d9-feb0-4899-9e89-fe9874f80cd6"},"vehicle_type_id":"4","last_reported":1745255309,"current_range_meters":8000,"station_id":"ce4bh012rcd13ifvqd00","pricing_plan_id":"cebpf4jnsgd1na2vs0mg"},{"bike_id":"c06d46ec-666f-427f-a6bd-e94cc017af1f","system_id":"levelo_inurba_marseille","lat":43.2467,"lon":5.38189,"is_reserved":false,"is_disabled":false,"rental_uris":{"android":"levelo://app?vid=c06d46ec-666f-427f-a6bd-e94cc017af1f","ios":"levelo://app?vid=c06d46ec-666f-427f-a6bd-e94cc017af1f"},"vehicle_type_id":"4","last_reported":1745255309,"current_range_meters":8000,"station_id":"ce4bhih2rcd13ifvqfr0","pricing_plan_id":"cebpf4jnsgd1na2vs0mg"},{"bike_id":"6d491e03-7550-49ca-bd39-842b49c9b888","system_id":"levelo_inurba_marseille","lat":43.27203,"lon":5.39177,"is_reserved":false,"is_disabled":false,"rental_uris":{"android":"levelo://app?vid=6d491e03-7550-49ca-bd39-842b49c9b888","ios":"levelo://app?vid=6d491e03-7550-49ca-bd39-842b49c9b888"},"vehicle_type_id":"4","last_reported":1745255309,"current_range_meters":8000,"station_id":"ce4bhhp2rcd13ifvqfm0","pricing_plan_id":"cebpf4jnsgd1na2vs0mg"},{"bike_id":"a55d9834-f9ec-474a-9106-1ad58fec3b67","system_id":"levelo_inurba_marseille","lat":43.28037,"lon":5.3695,"is_reserved":false,"is_disabled":false,"rental_uris":{"android":"levelo://app?vid=a55d9834-f9ec-474a-9106-1ad58fec3b67","ios":"levelo://app?vid=a55d9834-f9ec-474a-9106-1ad58fec3b67"},"vehicle_type_id":"4","last_reported":1745255309,"current_range_meters":7200,"station_id":"ce4bha12rcd13ifvqef0","pricing_plan_id":"cebpf4jnsgd1na2vs0mg"},{"bike_id":"0e3f01e5-c3de-4476-9321-0ae8ce1ce1f2","system_id":"levelo_inurba_marseille","lat":43.28367,"lon":5.38637,"is_reserved":false,"is_disabled":false,"rental_uris":{"android":"levelo://app?vid=0e3f01e5-c3de-4476-9321-0ae8ce1ce1f2","ios":"levelo://app?vid=0e3f01e5-c3de-4476-9321-0ae8ce1ce1f2"},"vehicle_type_id":"4","last_reported":1745255309,"current_range_meters":8000,"station_id":"ce4bh492rcd13ifvqdvg","pricing_plan_id":"cebpf4jnsgd1na2vs0mg"},{"bike_id":"8f6209a8-16bd-436b-9491-f8fdb7c18c36","system_id":"levelo_inurba_marseille","lat":43.29519,"lon":5.37503,"is_reserved":false,"is_disabled":false,"rental_uris":{"android":"levelo://app?vid=8f6209a8-16bd-436b-9491-f8fdb7c18c36","ios":"levelo://app?vid=8f6209a8-16bd-436b-9491-f8fdb7c18c36"},"vehicle_type_id":"4","last_reported":1745255309,"current_range_meters":8000,"station_id":"ce4bgkp2rcd13ifvqbmg","pricing_plan_id":"cebpf4jnsgd1na2vs0mg"},{"bike_id":"5b1779ff-e10f-4bc9-879f-b8b6868d8b91","system_id":"levelo_inurba_marseille","lat":43.26567,"lon":5.3901,"is_reserved":false,"is_disabled":false,"rental_uris":{"android":"levelo://app?vid=5b1779ff-e10f-4bc9-879f-b8b6868d8b91","ios":"levelo://app?vid=5b1779ff-e10f-4bc9-879f-b8b6868d8b91"},"vehicle_type_id":"4","last_reported":1745255309,"current_range_meters":8000,"station_id":"ce4bhe12rcd13ifvqf30","pricing_plan_id":"cebpf4jnsgd1na2vs0mg"},{"bike_id":"47baaac0-a9f0-467a-88e8-808cfa152b59","system_id":"levelo_inurba_marseille","lat":43.27997,"lon":5.40011,"is_reserved":false,"is_disabled":false,"rental_uris":{"android":"levelo://app?vid=47baaac0-a9f0-467a-88e8-808cfa152b59","ios":"levelo://app?vid=47baaac0-a9f0-467a-88e8-808cfa152b59"},"vehicle_type_id":"4","last_reported":1745255309,"current_range_meters":8000,"station_id":"ce4bho92rcd13ifvqh4g","pricing_plan_id":"cebpf4jnsgd1na2vs0mg"},{"bike_id":"91e08a4b-ddcc-4b67-9353-958cd7ae2dab","system_id":"levelo_inurba_marseille","lat":43.29423,"lon":5.38623,"is_reserved":false,"is_disabled":false,"rental_uris":{"android":"levelo://app?vid=91e08a4b-ddcc-4b67-9353-958cd7ae2dab","ios":"levelo://app?vid=91e08a4b-ddcc-4b67-9353-958cd7ae2dab"},"vehicle_type_id":"4","last_reported":1745255309,"current_range_meters":8400,"station_id":"ce4bh2h2rcd13ifvqdh0","pricing_plan_id":"cebpf4jnsgd1na2vs0mg"},{"bike_id":"5ed27f9d-7ace-4772-b3eb-e10847cdcf16","system_id":"levelo_inurba_marseille","lat":43.28342,"lon":5.38114,"is_reserved":false,"is_disabled":false,"rental_uris":{"android":"levelo://app?vid=5ed27f9d-7ace-4772-b3eb-e10847cdcf16","ios":"levelo://app?vid=5ed27f9d-7ace-4772-b3eb-e10847cdcf16"},"vehicle_type_id":"4","last_reported":1745255309,"current_range_meters":8000,"station_id":"ce4bh412rcd13ifvqdr0","pricing_plan_id":"cebpf4jnsgd1na2vs0mg"},{"bike_id":"c13688c3-7453-4748-a219-c4110a1c5ab4","system_id":"levelo_inurba_marseille","lat":43.30127,"lon":5.38778,"is_reserved":false,"is_disabled":false,"rental_uris":{"android":"levelo://app?vid=c13688c3-7453-4748-a219-c4110a1c5ab4","ios":"levelo://app?vid=c13688c3-7453-4748-a219-c4110a1c5ab4"},"vehicle_type_id":"4","last_reported":1745255309,"current_range_meters":8400,"station_id":"ce4bghh2rcd13ifvqb60","pricing_plan_id":"cebpf4jnsgd1na2vs0mg"},{"bike_id":"7ecc2c84-df92-4862-b643-71b9c75c8d79","system_id":"levelo_inurba_marseille","lat":43.26786,"lon":5.39416,"is_reserved":false,"is_disabled":false,"rental_uris":{"android":"levelo://app?vid=7ecc2c84-df92-4862-b643-71b9c75c8d79","ios":"levelo://app?vid=7ecc2c84-df92-4862-b643-71b9c75c8d79"},"vehicle_type_id":"4","last_reported":1745255309,"current_range_meters":8400,"station_id":"ce4bhh12rcd13ifvqfg0","pricing_plan_id":"cebpf4jnsgd1na2vs0mg"},{"bike_id":"fed4d8a8-91ec-435e-8c51-e5a0f464be82","system_id":"levelo_inurba_marseille","lat":43.28402,"lon":5.37514,"is_reserved":false,"is_disabled":false,"rental_uris":{"android":"levelo://app?vid=fed4d8a8-91ec-435e-8c51-e5a0f464be82","ios":"levelo://app?vid=fed4d8a8-91ec-435e-8c51-e5a0f464be82"},"vehicle_type_id":"4","last_reported":1745255309,"current_range_meters":8000,"station_id":"ce4bh412rcd13ifvqds0","pricing_plan_id":"cebpf4jnsgd1na2vs0mg"},{"bike_id":"294382f6-f73b-4608-a115-e31ada155d08","system_id":"levelo_inurba_marseille","lat":43.27499,"lon":5.42428,"is_reserved":false,"is_disabled":false,"rental_uris":{"android":"levelo://app?vid=294382f6-f73b-4608-a115-e31ada155d08","ios":"levelo://app?vid=294382f6-f73b-4608-a115-e31ada155d08"},"vehicle_type_id":"4","last_reported":1745255309,"current_range_meters":8400,"station_id":"ce4bhn92rcd13ifvqgrg","pricing_plan_id":"cebpf4jnsgd1na2vs0mg"},{"bike_id":"ba0b2a3a-4629-4b64-9ab3-aeb1b5f4669c","system_id":"levelo_inurba_marseille","lat":43.28348,"lon":5.38105,"is_reserved":false,"is_disabled":false,"rental_uris":{"android":"levelo://app?vid=ba0b2a3a-4629-4b64-9ab3-aeb1b5f4669c","ios":"levelo://app?vid=ba0b2a3a-4629-4b64-9ab3-aeb1b5f4669c"},"vehicle_type_id":"4","last_reported":1745255309,"current_range_meters":8400,"station_id":"ce4bh412rcd13ifvqdr0","pricing_plan_id":"cebpf4jnsgd1na2vs0mg"},{"bike_id":"4b1a9232-f353-42c9-b97f-244ee3231c80","system_id":"levelo_inurba_marseille","lat":43.30154,"lon":5.37418,"is_reserved":false,"is_disabled":false,"rental_uris":{"android":"levelo://app?vid=4b1a9232-f353-42c9-b97f-244ee3231c80","ios":"levelo://app?vid=4b1a9232-f353-42c9-b97f-244ee3231c80"},"vehicle_type_id":"4","last_reported":1745255309,"current_range_meters":8400,"station_id":"ce4bgs92rcd13ifvqcc0","pricing_plan_id":"cebpf4jnsgd1na2vs0mg"},{"bike_id":"e06bd2ef-5111-45bf-acf1-cf26a9f92360","system_id":"levelo_inurba_marseille","lat":43.24668,"lon":5.38164,"is_reserved":false,"is_disabled":false,"rental_uris":{"android":"levelo://app?vid=e06bd2ef-5111-45bf-acf1-cf26a9f92360","ios":"levelo://app?vid=e06bd2ef-5111-45bf-acf1-cf26a9f92360"},"vehicle_type_id":"4","last_reported":1745255309,"current_range_meters":8800,"station_id":"ce4bhih2rcd13ifvqfr0","pricing_plan_id":"cebpf4jnsgd1na2vs0mg"},{"bike_id":"91c6e67a-3cd5-4b8d-adb0-ed910baa2106","system_id":"levelo_inurba_marseille","lat":43.2981,"lon":5.3809,"is_reserved":false,"is_disabled":false,"rental_uris":{"android":"levelo://app?vid=91c6e67a-3cd5-4b8d-adb0-ed910baa2106","ios":"levelo://app?vid=91c6e67a-3cd5-4b8d-adb0-ed910baa2106"},"vehicle_type_id":"4","last_reported":1745255309,"current_range_meters":8800,"station_id":"ce4bgip2rcd13ifvqbb0","pricing_plan_id":"cebpf4jnsgd1na2vs0mg"},{"bike_id":"b09a0f3d-c48b-475b-8346-07998bdf0685","system_id":"levelo_inurba_marseille","lat":43.24072,"lon":5.37764,"is_reserved":false,"is_disabled":false,"rental_uris":{"android":"levelo://app?vid=b09a0f3d-c48b-475b-8346-07998bdf0685","ios":"levelo://app?vid=b09a0f3d-c48b-475b-8346-07998bdf0685"},"vehicle_type_id":"4","last_reported":1745255309,"current_range_meters":8800,"station_id":"ce4bhnp2rcd13ifvqgvg","pricing_plan_id":"cebpf4jnsgd1na2vs0mg"},{"bike_id":"44c391bc-49b8-4135-9b17-e1ad9f29c5d7","system_id":"levelo_inurba_marseille","lat":43.29602,"lon":5.38089,"is_reserved":false,"is_disabled":false,"rental_uris":{"android":"levelo://app?vid=44c391bc-49b8-4135-9b17-e1ad9f29c5d7","ios":"levelo://app?vid=44c391bc-49b8-4135-9b17-e1ad9f29c5d7"},"vehicle_type_id":"4","last_reported":1745255309,"current_range_meters":8800,"station_id":"ce4bgl12rcd13ifvqbo0","pricing_plan_id":"cebpf4jnsgd1na2vs0mg"},{"bike_id":"ca22777a-0e62-468f-ba81-887347ce2f6e","system_id":"levelo_inurba_marseille","lat":43.29299,"lon":5.36831,"is_reserved":false,"is_disabled":true,"rental_uris":{"android":"levelo://app?vid=ca22777a-0e62-468f-ba81-887347ce2f6e","ios":"levelo://app?vid=ca22777a-0e62-468f-ba81-887347ce2f6e"},"vehicle_type_id":"4","last_reported":1745255309,"current_range_meters":9200,"station_id":"ce4bhbp2rcd13ifvqesg","pricing_plan_id":"cebpf4jnsgd1na2vs0mg"},{"bike_id":"aa28a7aa-20fb-47d6-be09-ff0ea182004d","system_id":"levelo_inurba_marseille","lat":43.29259,"lon":5.40904,"is_reserved":false,"is_disabled":false,"rental_uris":{"android":"levelo://app?vid=aa28a7aa-20fb-47d6-be09-ff0ea182004d","ios":"levelo://app?vid=aa28a7aa-20fb-47d6-be09-ff0ea182004d"},"vehicle_type_id":"4","last_reported":1745255309,"current_range_meters":9200,"station_id":"ce4bh192rcd13ifvqdc0","pricing_plan_id":"cebpf4jnsgd1na2vs0mg"},{"bike_id":"1f84f51f-d2f4-4d4c-982d-d184ffe24a02","system_id":"levelo_inurba_marseille","lat":43.32373,"lon":5.388713,"is_reserved":false,"is_disabled":true,"rental_uris":{"android":"levelo://app?vid=1f84f51f-d2f4-4d4c-982d-d184ffe24a02","ios":"levelo://app?vid=1f84f51f-d2f4-4d4c-982d-d184ffe24a02"},"vehicle_type_id":"4","last_reported":1745255309,"current_range_meters":9200,"station_id":"ce4bhqp2rcd13ifvqhog","pricing_plan_id":"cebpf4jnsgd1na2vs0mg"},{"bike_id":"0704165f-9e9b-4a18-a67c-54960943ae78","system_id":"levelo_inurba_marseille","lat":43.27983,"lon":5.41657,"is_reserved":false,"is_disabled":false,"rental_uris":{"android":"levelo://app?vid=0704165f-9e9b-4a18-a67c-54960943ae78","ios":"levelo://app?vid=0704165f-9e9b-4a18-a67c-54960943ae78"},"vehicle_type_id":"4","last_reported":1745255309,"current_range_meters":9200,"station_id":"ce4bho12rcd13ifvqh1g","pricing_plan_id":"cebpf4jnsgd1na2vs0mg"},{"bike_id":"6ef8f19c-aee6-4fd4-8d5e-8909a779505a","system_id":"levelo_inurba_marseille","lat":43.2844,"lon":5.39189,"is_reserved":false,"is_disabled":false,"rental_uris":{"android":"levelo://app?vid=6ef8f19c-aee6-4fd4-8d5e-8909a779505a","ios":"levelo://app?vid=6ef8f19c-aee6-4fd4-8d5e-8909a779505a"},"vehicle_type_id":"4","last_reported":1745255309,"current_range_meters":9200,"station_id":"ce4bhoh2rcd13ifvqh5g","pricing_plan_id":"cebpf4jnsgd1na2vs0mg"},{"bike_id":"66a0691d-8c91-45dd-a0eb-b5577303af6c","system_id":"levelo_inurba_marseille","lat":43.23214,"lon":5.35548,"is_reserved":false,"is_disabled":false,"rental_uris":{"android":"levelo://app?vid=66a0691d-8c91-45dd-a0eb-b5577303af6c","ios":"levelo://app?vid=66a0691d-8c91-45dd-a0eb-b5577303af6c"},"vehicle_type_id":"4","last_reported":1745255309,"current_range_meters":8800,"station_id":"ce4bhu92rcd13ifvqi70","pricing_plan_id":"cebpf4jnsgd1na2vs0mg"},{"bike_id":"c894d4bf-57c9-4063-b8f8-b5f9b7b03009","system_id":"levelo_inurba_marseille","lat":43.292265,"lon":5.360724,"is_reserved":false,"is_disabled":false,"rental_uris":{"android":"levelo://app?vid=c894d4bf-57c9-4063-b8f8-b5f9b7b03009","ios":"levelo://app?vid=c894d4bf-57c9-4063-b8f8-b5f9b7b03009"},"vehicle_type_id":"4","last_reported":1745255309,"current_range_meters":9600,"station_id":"ce4bhbh2rcd13ifvqeqg","pricing_plan_id":"cebpf4jnsgd1na2vs0mg"},{"bike_id":"6469a7e1-808f-4c61-8e95-84d12371d79b","system_id":"levelo_inurba_marseille","lat":43.2836,"lon":5.38094,"is_reserved":false,"is_disabled":false,"rental_uris":{"android":"levelo://app?vid=6469a7e1-808f-4c61-8e95-84d12371d79b","ios":"levelo://app?vid=6469a7e1-808f-4c61-8e95-84d12371d79b"},"vehicle_type_id":"4","last_reported":1745255309,"current_range_meters":9600,"station_id":"ce4bh412rcd13ifvqdr0","pricing_plan_id":"cebpf4jnsgd1na2vs0mg"},{"bike_id":"08adba7b-eac3-4cfc-9923-2ccf0cc4ffef","system_id":"levelo_inurba_marseille","lat":43.24545,"lon":5.41294,"is_reserved":false,"is_disabled":false,"rental_uris":{"android":"levelo://app?vid=08adba7b-eac3-4cfc-9923-2ccf0cc4ffef","ios":"levelo://app?vid=08adba7b-eac3-4cfc-9923-2ccf0cc4ffef"},"vehicle_type_id":"4","last_reported":1745255309,"current_range_meters":9600,"station_id":"","pricing_plan_id":"cebpf4jnsgd1na2vs0mg"},{"bike_id":"14088e1e-6a3a-40e1-9f1d-0c535a237656","system_id":"levelo_inurba_marseille","lat":43.29842,"lon":5.36265,"is_reserved":false,"is_disabled":false,"rental_uris":{"android":"levelo://app?vid=14088e1e-6a3a-40e1-9f1d-0c535a237656","ios":"levelo://app?vid=14088e1e-6a3a-40e1-9f1d-0c535a237656"},"vehicle_type_id":"4","last_reported":1745255309,"current_range_meters":9600,"station_id":"ce4bgpp2rcd13ifvqc3g","pricing_plan_id":"cebpf4jnsgd1na2vs0mg"},{"bike_id":"3a1d8fc1-263e-4283-ab83-846507d4a35e","system_id":"levelo_inurba_marseille","lat":43.26782,"lon":5.39415,"is_reserved":false,"is_disabled":false,"rental_uris":{"android":"levelo://app?vid=3a1d8fc1-263e-4283-ab83-846507d4a35e","ios":"levelo://app?vid=3a1d8fc1-263e-4283-ab83-846507d4a35e"},"vehicle_type_id":"4","last_reported":1745255309,"current_range_meters":10800,"station_id":"ce4bhh12rcd13ifvqfg0","pricing_plan_id":"cebpf4jnsgd1na2vs0mg"},{"bike_id":"b340315f-7635-490c-b7d4-961aad66f3f9","system_id":"levelo_inurba_marseille","lat":43.29707,"lon":5.36607,"is_reserved":false,"is_disabled":false,"rental_uris":{"android":"levelo://app?vid=b340315f-7635-490c-b7d4-961aad66f3f9","ios":"levelo://app?vid=b340315f-7635-490c-b7d4-961aad66f3f9"},"vehicle_type_id":"4","last_reported":1745255309,"current_range_meters":10000,"station_id":"ce4bgn12rcd13ifvqbt0","pricing_plan_id":"cebpf4jnsgd1na2vs0mg"},{"bike_id":"34166cb2-24d1-48d4-88e5-65264e3a037d","system_id":"levelo_inurba_marseille","lat":43.31049,"lon":5.37098,"is_reserved":false,"is_disabled":false,"rental_uris":{"android":"levelo://app?vid=34166cb2-24d1-48d4-88e5-65264e3a037d","ios":"levelo://app?vid=34166cb2-24d1-48d4-88e5-65264e3a037d"},"vehicle_type_id":"4","last_reported":1745255309,"current_range_meters":10000,"station_id":"","pricing_plan_id":"cebpf4jnsgd1na2vs0mg"},{"bike_id":"7ea815e0-1924-488e-8218-70ab503a204b","system_id":"levelo_inurba_marseille","lat":43.29866,"lon":5.39733,"is_reserved":false,"is_disabled":false,"rental_uris":{"android":"levelo://app?vid=7ea815e0-1924-488e-8218-70ab503a204b","ios":"levelo://app?vid=7ea815e0-1924-488e-8218-70ab503a204b"},"vehicle_type_id":"4","last_reported":1745255309,"current_range_meters":10000,"station_id":"ce4bh0h2rcd13ifvqd50","pricing_plan_id":"cebpf4jnsgd1na2vs0mg"},{"bike_id":"ee56bb0d-f391-445b-8456-6e98a45f328e","system_id":"levelo_inurba_marseille","lat":43.24074,"lon":5.3776,"is_reserved":false,"is_disabled":false,"rental_uris":{"android":"levelo://app?vid=ee56bb0d-f391-445b-8456-6e98a45f328e","ios":"levelo://app?vid=ee56bb0d-f391-445b-8456-6e98a45f328e"},"vehicle_type_id":"4","last_reported":1745255309,"current_range_meters":10000,"station_id":"ce4bhnp2rcd13ifvqgvg","pricing_plan_id":"cebpf4jnsgd1na2vs0mg"},{"bike_id":"782a2391-b0ab-4023-904c-d3c9a3f78be1","system_id":"levelo_inurba_marseille","lat":43.30323,"lon":5.40436,"is_reserved":false,"is_disabled":false,"rental_uris":{"android":"levelo://app?vid=782a2391-b0ab-4023-904c-d3c9a3f78be1","ios":"levelo://app?vid=782a2391-b0ab-4023-904c-d3c9a3f78be1"},"vehicle_type_id":"4","last_reported":1745255309,"current_range_meters":10000,"station_id":"ce4bh012rcd13ifvqd10","pricing_plan_id":"cebpf4jnsgd1na2vs0mg"},{"bike_id":"fa60464c-501f-45cb-a1c2-106283aa35e0","system_id":"levelo_inurba_marseille","lat":43.307944,"lon":5.38134,"is_reserved":false,"is_disabled":false,"rental_uris":{"android":"levelo://app?vid=fa60464c-501f-45cb-a1c2-106283aa35e0","ios":"levelo://app?vid=fa60464c-501f-45cb-a1c2-106283aa35e0"},"vehicle_type_id":"4","last_reported":1745255309,"current_range_meters":10000,"station_id":"ce4bguh2rcd13ifvqcj0","pricing_plan_id":"cebpf4jnsgd1na2vs0mg"},{"bike_id":"476a529f-cf1d-46a4-8ae6-4700419573d5","system_id":"levelo_inurba_marseille","lat":43.2893,"lon":5.36639,"is_reserved":false,"is_disabled":true,"rental_uris":{"android":"levelo://app?vid=476a529f-cf1d-46a4-8ae6-4700419573d5","ios":"levelo://app?vid=476a529f-cf1d-46a4-8ae6-4700419573d5"},"vehicle_type_id":"4","last_reported":1745255309,"current_range_meters":10800,"station_id":"ce4bhap2rcd13ifvqek0","pricing_plan_id":"cebpf4jnsgd1na2vs0mg"},{"bike_id":"f0ca9ef9-81eb-40c2-a4cd-830a9083ce89","system_id":"levelo_inurba_marseille","lat":43.32109,"lon":5.36775,"is_reserved":false,"is_disabled":false,"rental_uris":{"android":"levelo://app?vid=f0ca9ef9-81eb-40c2-a4cd-830a9083ce89","ios":"levelo://app?vid=f0ca9ef9-81eb-40c2-a4cd-830a9083ce89"},"vehicle_type_id":"4","last_reported":1745255309,"current_range_meters":10800,"station_id":"ce4bhrh2rcd13ifvqhug","pricing_plan_id":"cebpf4jnsgd1na2vs0mg"},{"bike_id":"c633ffb6-a2e4-43ee-bc04-55b3730fd199","system_id":"levelo_inurba_marseille","lat":43.29413,"lon":5.3859,"is_reserved":false,"is_disabled":true,"rental_uris":{"android":"levelo://app?vid=c633ffb6-a2e4-43ee-bc04-55b3730fd199","ios":"levelo://app?vid=c633ffb6-a2e4-43ee-bc04-55b3730fd199"},"vehicle_type_id":"4","last_reported":1745255309,"current_range_meters":10800,"station_id":"ce4bh2h2rcd13ifvqdh0","pricing_plan_id":"cebpf4jnsgd1na2vs0mg"},{"bike_id":"1c755526-7610-4241-9257-348acde561d3","system_id":"levelo_inurba_marseille","lat":43.248561,"lon":5.38202,"is_reserved":false,"is_disabled":false,"rental_uris":{"android":"levelo://app?vid=1c755526-7610-4241-9257-348acde561d3","ios":"levelo://app?vid=1c755526-7610-4241-9257-348acde561d3"},"vehicle_type_id":"4","last_reported":1745255309,"current_range_meters":11200,"station_id":"","pricing_plan_id":"cebpf4jnsgd1na2vs0mg"},{"bike_id":"0a536518-79a4-40dc-8bd3-71d044441b24","system_id":"levelo_inurba_marseille","lat":43.25741,"lon":5.41166,"is_reserved":false,"is_disabled":false,"rental_uris":{"android":"levelo://app?vid=0a536518-79a4-40dc-8bd3-71d044441b24","ios":"levelo://app?vid=0a536518-79a4-40dc-8bd3-71d044441b24"},"vehicle_type_id":"4","last_reported":1745255309,"current_range_meters":11200,"station_id":"","pricing_plan_id":"cebpf4jnsgd1na2vs0mg"},{"bike_id":"f9478023-6e65-445e-8206-7b06a0558485","system_id":"levelo_inurba_marseille","lat":43.29248,"lon":5.38419,"is_reserved":false,"is_disabled":false,"rental_uris":{"android":"levelo://app?vid=f9478023-6e65-445e-8206-7b06a0558485","ios":"levelo://app?vid=f9478023-6e65-445e-8206-7b06a0558485"},"vehicle_type_id":"4","last_reported":1745255309,"current_range_meters":11200,"station_id":"ce4bh692rcd13ifvqea0","pricing_plan_id":"cebpf4jnsgd1na2vs0mg"},{"bike_id":"2c10463b-5daf-449c-96fb-d74d526c98ce","system_id":"levelo_inurba_marseille","lat":43.307939,"lon":5.381451,"is_reserved":false,"is_disabled":false,"rental_uris":{"android":"levelo://app?vid=2c10463b-5daf-449c-96fb-d74d526c98ce","ios":"levelo://app?vid=2c10463b-5daf-449c-96fb-d74d526c98ce"},"vehicle_type_id":"4","last_reported":1745255309,"current_range_meters":11200,"station_id":"ce4bh9p2rcd13ifvqec0","pricing_plan_id":"cebpf4jnsgd1na2vs0mg"},{"bike_id":"0f0363fd-2aef-4227-9157-c1a76b69ef46","system_id":"levelo_inurba_marseille","lat":43.29186,"lon":5.39323,"is_reserved":false,"is_disabled":false,"rental_uris":{"android":"levelo://app?vid=0f0363fd-2aef-4227-9157-c1a76b69ef46","ios":"levelo://app?vid=0f0363fd-2aef-4227-9157-c1a76b69ef46"},"vehicle_type_id":"4","last_reported":1745255309,"current_range_meters":10800,"station_id":"ce4bh192rcd13ifvqdd0","pricing_plan_id":"cebpf4jnsgd1na2vs0mg"},{"bike_id":"8b6a6010-343f-4aeb-825f-27cc2c7c8211","system_id":"levelo_inurba_marseille","lat":43.30537,"lon":5.38429,"is_reserved":false,"is_disabled":false,"rental_uris":{"android":"levelo://app?vid=8b6a6010-343f-4aeb-825f-27cc2c7c8211","ios":"levelo://app?vid=8b6a6010-343f-4aeb-825f-27cc2c7c8211"},"vehicle_type_id":"4","last_reported":1745255309,"current_range_meters":11200,"station_id":"ce4bgg92rcd13ifvqb30","pricing_plan_id":"cebpf4jnsgd1na2vs0mg"},{"bike_id":"29f8f44d-accb-4ec6-ba97-fa6a4015ca42","system_id":"levelo_inurba_marseille","lat":43.28483,"lon":5.38422,"is_reserved":false,"is_disabled":false,"rental_uris":{"android":"levelo://app?vid=29f8f44d-accb-4ec6-ba97-fa6a4015ca42","ios":"levelo://app?vid=29f8f44d-accb-4ec6-ba97-fa6a4015ca42"},"vehicle_type_id":"4","last_reported":1745255309,"current_range_meters":11200,"station_id":"ce4bh512rcd13ifvqe3g","pricing_plan_id":"cebpf4jnsgd1na2vs0mg"},{"bike_id":"70cbf5df-50d2-43b3-b7fc-bd7f4e381436","system_id":"levelo_inurba_marseille","lat":43.29327,"lon":5.37099,"is_reserved":false,"is_disabled":false,"rental_uris":{"android":"levelo://app?vid=70cbf5df-50d2-43b3-b7fc-bd7f4e381436","ios":"levelo://app?vid=70cbf5df-50d2-43b3-b7fc-bd7f4e381436"},"vehicle_type_id":"4","last_reported":1745255309,"current_range_meters":11600,"station_id":"","pricing_plan_id":"cebpf4jnsgd1na2vs0mg"},{"bike_id":"53b4e336-aa8d-481f-a844-fc248f11b8bd","system_id":"levelo_inurba_marseille","lat":43.290222,"lon":5.38646,"is_reserved":false,"is_disabled":false,"rental_uris":{"android":"levelo://app?vid=53b4e336-aa8d-481f-a844-fc248f11b8bd","ios":"levelo://app?vid=53b4e336-aa8d-481f-a844-fc248f11b8bd"},"vehicle_type_id":"4","last_reported":1745255309,"current_range_meters":11600,"station_id":"ce4bh4p2rcd13ifvqe0g","pricing_plan_id":"cebpf4jnsgd1na2vs0mg"},{"bike_id":"c33e8774-6822-49ad-9a68-8af55daf3eab","system_id":"levelo_inurba_marseille","lat":43.31523,"lon":5.38038,"is_reserved":false,"is_disabled":false,"rental_uris":{"android":"levelo://app?vid=c33e8774-6822-49ad-9a68-8af55daf3eab","ios":"levelo://app?vid=c33e8774-6822-49ad-9a68-8af55daf3eab"},"vehicle_type_id":"4","last_reported":1745255309,"current_range_meters":11200,"station_id":"ce4bhsp2rcd13ifvqi50","pricing_plan_id":"cebpf4jnsgd1na2vs0mg"},{"bike_id":"3265ad4f-c34f-46ed-a984-21c52f04126c","system_id":"levelo_inurba_marseille","lat":43.27428,"lon":5.39407,"is_reserved":false,"is_disabled":false,"rental_uris":{"android":"levelo://app?vid=3265ad4f-c34f-46ed-a984-21c52f04126c","ios":"levelo://app?vid=3265ad4f-c34f-46ed-a984-21c52f04126c"},"vehicle_type_id":"4","last_reported":1745255309,"current_range_meters":11600,"station_id":"ce4bhdp2rcd13ifvqf20","pricing_plan_id":"cebpf4jnsgd1na2vs0mg"},{"bike_id":"74999db1-0a1a-49ca-b402-353ba53aa18b","system_id":"levelo_inurba_marseille","lat":43.30786,"lon":5.37625,"is_reserved":false,"is_disabled":false,"rental_uris":{"android":"levelo://app?vid=74999db1-0a1a-49ca-b402-353ba53aa18b","ios":"levelo://app?vid=74999db1-0a1a-49ca-b402-353ba53aa18b"},"vehicle_type_id":"4","last_reported":1745255309,"current_range_meters":11600,"station_id":"ce4bgv92rcd13ifvqcq0","pricing_plan_id":"cebpf4jnsgd1na2vs0mg"},{"bike_id":"4af98c61-7063-4f0f-844e-e77669924810","system_id":"levelo_inurba_marseille","lat":43.2582,"lon":5.39437,"is_reserved":false,"is_disabled":false,"rental_uris":{"android":"levelo://app?vid=4af98c61-7063-4f0f-844e-e77669924810","ios":"levelo://app?vid=4af98c61-7063-4f0f-844e-e77669924810"},"vehicle_type_id":"4","last_reported":1745255309,"current_range_meters":11600,"station_id":"ce4bhip2rcd13ifvqft0","pricing_plan_id":"cebpf4jnsgd1na2vs0mg"},{"bike_id":"3c6fe546-2339-4bc5-82b3-87b85344ef00","system_id":"levelo_inurba_marseille","lat":43.29026,"lon":5.38131,"is_reserved":false,"is_disabled":false,"rental_uris":{"android":"levelo://app?vid=3c6fe546-2339-4bc5-82b3-87b85344ef00","ios":"levelo://app?vid=3c6fe546-2339-4bc5-82b3-87b85344ef00"},"vehicle_type_id":"4","last_reported":1745255309,"current_range_meters":12000,"station_id":"ce4bh4p2rcd13ifvqe1g","pricing_plan_id":"cebpf4jnsgd1na2vs0mg"},{"bike_id":"228b0d48-fc5d-43c9-b4a1-eef09ad72af1","system_id":"levelo_inurba_marseille","lat":43.257163,"lon":5.41112,"is_reserved":false,"is_disabled":false,"rental_uris":{"android":"levelo://app?vid=228b0d48-fc5d-43c9-b4a1-eef09ad72af1","ios":"levelo://app?vid=228b0d48-fc5d-43c9-b4a1-eef09ad72af1"},"vehicle_type_id":"4","last_reported":1745255309,"current_range_meters":12000,"station_id":"ce4bhkp2rcd13ifvqgd0","pricing_plan_id":"cebpf4jnsgd1na2vs0mg"},{"bike_id":"7d75436c-9a85-4540-b5c0-77fa37c395d7","system_id":"levelo_inurba_marseille","lat":43.28698,"lon":5.37377,"is_reserved":false,"is_disabled":false,"rental_uris":{"android":"levelo://app?vid=7d75436c-9a85-4540-b5c0-77fa37c395d7","ios":"levelo://app?vid=7d75436c-9a85-4540-b5c0-77fa37c395d7"},"vehicle_type_id":"4","last_reported":1745255309,"current_range_meters":12000,"station_id":"ce4bh3p2rcd13ifvqdq0","pricing_plan_id":"cebpf4jnsgd1na2vs0mg"},{"bike_id":"1df4148a-6179-4958-b5be-79e102a9155f","system_id":"levelo_inurba_marseille","lat":43.29252,"lon":5.40917,"is_reserved":false,"is_disabled":false,"rental_uris":{"android":"levelo://app?vid=1df4148a-6179-4958-b5be-79e102a9155f","ios":"levelo://app?vid=1df4148a-6179-4958-b5be-79e102a9155f"},"vehicle_type_id":"4","last_reported":1745255309,"current_range_meters":12400,"station_id":"ce4bh192rcd13ifvqdc0","pricing_plan_id":"cebpf4jnsgd1na2vs0mg"},{"bike_id":"7238b3c1-8734-472f-8c11-4dbce155694c","system_id":"levelo_inurba_marseille","lat":43.29035,"lon":5.38649,"is_reserved":false,"is_disabled":false,"rental_uris":{"android":"levelo://app?vid=7238b3c1-8734-472f-8c11-4dbce155694c","ios":"levelo://app?vid=7238b3c1-8734-472f-8c11-4dbce155694c"},"vehicle_type_id":"4","last_reported":1745255309,"current_range_meters":12400,"station_id":"ce4bh4p2rcd13ifvqe0g","pricing_plan_id":"cebpf4jnsgd1na2vs0mg"},{"bike_id":"e2743cb5-8343-4da5-953c-012a6cce8d5d","system_id":"levelo_inurba_marseille","lat":43.29101,"lon":5.38131,"is_reserved":false,"is_disabled":false,"rental_uris":{"android":"levelo://app?vid=e2743cb5-8343-4da5-953c-012a6cce8d5d","ios":"levelo://app?vid=e2743cb5-8343-4da5-953c-012a6cce8d5d"},"vehicle_type_id":"4","last_reported":1745255309,"current_range_meters":12400,"station_id":"ce4bh512rcd13ifvqe2g","pricing_plan_id":"cebpf4jnsgd1na2vs0mg"},{"bike_id":"fec12399-bb25-467f-92a8-5ae26e150e30","system_id":"levelo_inurba_marseille","lat":43.28675,"lon":5.36356,"is_reserved":false,"is_disabled":false,"rental_uris":{"android":"levelo://app?vid=fec12399-bb25-467f-92a8-5ae26e150e30","ios":"levelo://app?vid=fec12399-bb25-467f-92a8-5ae26e150e30"},"vehicle_type_id":"4","last_reported":1745255309,"current_range_meters":12000,"station_id":"ce4bhah2rcd13ifvqej0","pricing_plan_id":"cebpf4jnsgd1na2vs0mg"},{"bike_id":"fcc3bf42-fd6d-426f-ac52-879248c7a2e1","system_id":"levelo_inurba_marseille","lat":43.27496,"lon":5.42452,"is_reserved":false,"is_disabled":false,"rental_uris":{"android":"levelo://app?vid=fcc3bf42-fd6d-426f-ac52-879248c7a2e1","ios":"levelo://app?vid=fcc3bf42-fd6d-426f-ac52-879248c7a2e1"},"vehicle_type_id":"4","last_reported":1745255309,"current_range_meters":12000,"station_id":"ce4bhn92rcd13ifvqgrg","pricing_plan_id":"cebpf4jnsgd1na2vs0mg"},{"bike_id":"2764f5e8-3d41-42de-91e1-22dadc299b85","system_id":"levelo_inurba_marseille","lat":43.28706,"lon":5.37379,"is_reserved":false,"is_disabled":false,"rental_uris":{"android":"levelo://app?vid=2764f5e8-3d41-42de-91e1-22dadc299b85","ios":"levelo://app?vid=2764f5e8-3d41-42de-91e1-22dadc299b85"},"vehicle_type_id":"4","last_reported":1745255309,"current_range_meters":12800,"station_id":"ce4bh3p2rcd13ifvqdq0","pricing_plan_id":"cebpf4jnsgd1na2vs0mg"},{"bike_id":"b3fc77a2-db0f-4423-9abb-eb1b2bfb9285","system_id":"levelo_inurba_marseille","lat":43.29535,"lon":5.38542,"is_reserved":false,"is_disabled":false,"rental_uris":{"android":"levelo://app?vid=b3fc77a2-db0f-4423-9abb-eb1b2bfb9285","ios":"levelo://app?vid=b3fc77a2-db0f-4423-9abb-eb1b2bfb9285"},"vehicle_type_id":"4","last_reported":1745255309,"current_range_meters":12400,"station_id":"ce4bgih2rcd13ifvqba0","pricing_plan_id":"cebpf4jnsgd1na2vs0mg"},{"bike_id":"444deaf3-854a-494c-af53-d6ef4ecbbc17","system_id":"levelo_inurba_marseille","lat":43.30427,"lon":5.38884,"is_reserved":false,"is_disabled":false,"rental_uris":{"android":"levelo://app?vid=444deaf3-854a-494c-af53-d6ef4ecbbc17","ios":"levelo://app?vid=444deaf3-854a-494c-af53-d6ef4ecbbc17"},"vehicle_type_id":"4","last_reported":1745255309,"current_range_meters":12800,"station_id":"ce4bgk12rcd13ifvqbi0","pricing_plan_id":"cebpf4jnsgd1na2vs0mg"},{"bike_id":"8963d7e6-bca2-45c1-8400-1c533c244da4","system_id":"levelo_inurba_marseille","lat":43.2502,"lon":5.38933,"is_reserved":false,"is_disabled":false,"rental_uris":{"android":"levelo://app?vid=8963d7e6-bca2-45c1-8400-1c533c244da4","ios":"levelo://app?vid=8963d7e6-bca2-45c1-8400-1c533c244da4"},"vehicle_type_id":"4","last_reported":1745255309,"current_range_meters":12000,"station_id":"ce4bhgp2rcd13ifvqfd0","pricing_plan_id":"cebpf4jnsgd1na2vs0mg"},{"bike_id":"916b480d-34f4-4d24-b95f-924b122e58af","system_id":"levelo_inurba_marseille","lat":43.2834,"lon":5.38087,"is_reserved":false,"is_disabled":false,"rental_uris":{"android":"levelo://app?vid=916b480d-34f4-4d24-b95f-924b122e58af","ios":"levelo://app?vid=916b480d-34f4-4d24-b95f-924b122e58af"},"vehicle_type_id":"4","last_reported":1745255309,"current_range_meters":12800,"station_id":"ce4bh412rcd13ifvqdr0","pricing_plan_id":"cebpf4jnsgd1na2vs0mg"},{"bike_id":"10c2c45e-6177-4bd2-9e2f-beabeb846adf","system_id":"levelo_inurba_marseille","lat":43.28399,"lon":5.37514,"is_reserved":false,"is_disabled":false,"rental_uris":{"android":"levelo://app?vid=10c2c45e-6177-4bd2-9e2f-beabeb846adf","ios":"levelo://app?vid=10c2c45e-6177-4bd2-9e2f-beabeb846adf"},"vehicle_type_id":"4","last_reported":1745255309,"current_range_meters":12800,"station_id":"ce4bh412rcd13ifvqds0","pricing_plan_id":"cebpf4jnsgd1na2vs0mg"},{"bike_id":"d2d7d5eb-7420-467b-bc5f-9fb3a8aa6be9","system_id":"levelo_inurba_marseille","lat":43.29889,"lon":5.38893,"is_reserved":false,"is_disabled":false,"rental_uris":{"android":"levelo://app?vid=d2d7d5eb-7420-467b-bc5f-9fb3a8aa6be9","ios":"levelo://app?vid=d2d7d5eb-7420-467b-bc5f-9fb3a8aa6be9"},"vehicle_type_id":"4","last_reported":1745255309,"current_range_meters":12800,"station_id":"ce4bh392rcd13ifvqdl0","pricing_plan_id":"cebpf4jnsgd1na2vs0mg"},{"bike_id":"21f15cfd-e112-4414-aa38-3f376b764dcc","system_id":"levelo_inurba_marseille","lat":43.28366,"lon":5.38128,"is_reserved":false,"is_disabled":false,"rental_uris":{"android":"levelo://app?vid=21f15cfd-e112-4414-aa38-3f376b764dcc","ios":"levelo://app?vid=21f15cfd-e112-4414-aa38-3f376b764dcc"},"vehicle_type_id":"4","last_reported":1745255309,"current_range_meters":13600,"station_id":"ce4bh412rcd13ifvqdr0","pricing_plan_id":"cebpf4jnsgd1na2vs0mg"},{"bike_id":"4ea89127-6749-491f-a497-ee89fc988fed","system_id":"levelo_inurba_marseille","lat":43.29723,"lon":5.37704,"is_reserved":false,"is_disabled":false,"rental_uris":{"android":"levelo://app?vid=4ea89127-6749-491f-a497-ee89fc988fed","ios":"levelo://app?vid=4ea89127-6749-491f-a497-ee89fc988fed"},"vehicle_type_id":"4","last_reported":1745255309,"current_range_meters":13600,"station_id":"ce4bgkh2rcd13ifvqbl0","pricing_plan_id":"cebpf4jnsgd1na2vs0mg"},{"bike_id":"3d113c54-8766-48ca-b245-0bbfd2e98ee5","system_id":"levelo_inurba_marseille","lat":43.3087,"lon":5.37174,"is_reserved":false,"is_disabled":false,"rental_uris":{"android":"levelo://app?vid=3d113c54-8766-48ca-b245-0bbfd2e98ee5","ios":"levelo://app?vid=3d113c54-8766-48ca-b245-0bbfd2e98ee5"},"vehicle_type_id":"4","last_reported":1745255309,"current_range_meters":14000,"station_id":"ce4bguh2rcd13ifvqckg","pricing_plan_id":"cebpf4jnsgd1na2vs0mg"},{"bike_id":"2deff371-da5c-43e1-93ee-4aa4b017f1d7","system_id":"levelo_inurba_marseille","lat":43.28461,"lon":5.35887,"is_reserved":false,"is_disabled":false,"rental_uris":{"android":"levelo://app?vid=2deff371-da5c-43e1-93ee-4aa4b017f1d7","ios":"levelo://app?vid=2deff371-da5c-43e1-93ee-4aa4b017f1d7"},"vehicle_type_id":"4","last_reported":1745255309,"current_range_meters":12400,"station_id":"ce4bhah2rcd13ifvqei0","pricing_plan_id":"cebpf4jnsgd1na2vs0mg"},{"bike_id":"1d49a84b-85b0-4ec3-a4a9-5c0fa37dd96e","system_id":"levelo_inurba_marseille","lat":43.2846,"lon":5.35882,"is_reserved":false,"is_disabled":false,"rental_uris":{"android":"levelo://app?vid=1d49a84b-85b0-4ec3-a4a9-5c0fa37dd96e","ios":"levelo://app?vid=1d49a84b-85b0-4ec3-a4a9-5c0fa37dd96e"},"vehicle_type_id":"4","last_reported":1745255309,"current_range_meters":14000,"station_id":"ce4bhah2rcd13ifvqei0","pricing_plan_id":"cebpf4jnsgd1na2vs0mg"},{"bike_id":"2dc4e79a-33a8-48b0-bf03-f6328f1dc1f6","system_id":"levelo_inurba_marseille","lat":43.32361,"lon":5.38897,"is_reserved":false,"is_disabled":true,"rental_uris":{"android":"levelo://app?vid=2dc4e79a-33a8-48b0-bf03-f6328f1dc1f6","ios":"levelo://app?vid=2dc4e79a-33a8-48b0-bf03-f6328f1dc1f6"},"vehicle_type_id":"4","last_reported":1745255309,"current_range_meters":14000,"station_id":"ce4bhqp2rcd13ifvqhog","pricing_plan_id":"cebpf4jnsgd1na2vs0mg"},{"bike_id":"71463a73-8f65-4596-a13e-923dacc46da6","system_id":"levelo_inurba_marseille","lat":43.28541,"lon":5.39515,"is_reserved":false,"is_disabled":false,"rental_uris":{"android":"levelo://app?vid=71463a73-8f65-4596-a13e-923dacc46da6","ios":"levelo://app?vid=71463a73-8f65-4596-a13e-923dacc46da6"},"vehicle_type_id":"4","last_reported":1745255309,"current_range_meters":13600,"station_id":"ce4bh292rcd13ifvqdg0","pricing_plan_id":"cebpf4jnsgd1na2vs0mg"},{"bike_id":"c3c56564-9b8c-4d3f-8848-6577b8d49a05","system_id":"levelo_inurba_marseille","lat":43.28706,"lon":5.37388,"is_reserved":false,"is_disabled":false,"rental_uris":{"android":"levelo://app?vid=c3c56564-9b8c-4d3f-8848-6577b8d49a05","ios":"levelo://app?vid=c3c56564-9b8c-4d3f-8848-6577b8d49a05"},"vehicle_type_id":"4","last_reported":1745255309,"current_range_meters":14000,"station_id":"ce4bh3p2rcd13ifvqdq0","pricing_plan_id":"cebpf4jnsgd1na2vs0mg"},{"bike_id":"8ab30e82-ea7a-4b82-aff0-6a66d0485361","system_id":"levelo_inurba_marseille","lat":43.28709,"lon":5.39988,"is_reserved":false,"is_disabled":false,"rental_uris":{"android":"levelo://app?vid=8ab30e82-ea7a-4b82-aff0-6a66d0485361","ios":"levelo://app?vid=8ab30e82-ea7a-4b82-aff0-6a66d0485361"},"vehicle_type_id":"4","last_reported":1745255309,"current_range_meters":14400,"station_id":"ce4bho92rcd13ifvqh3g","pricing_plan_id":"cebpf4jnsgd1na2vs0mg"},{"bike_id":"59d828c0-aa93-479d-8b6b-37c2c2fdf562","system_id":"levelo_inurba_marseille","lat":43.286652,"lon":5.363455,"is_reserved":false,"is_disabled":false,"rental_uris":{"android":"levelo://app?vid=59d828c0-aa93-479d-8b6b-37c2c2fdf562","ios":"levelo://app?vid=59d828c0-aa93-479d-8b6b-37c2c2fdf562"},"vehicle_type_id":"4","last_reported":1745255309,"current_range_meters":14000,"station_id":"ce4bhah2rcd13ifvqej0","pricing_plan_id":"cebpf4jnsgd1na2vs0mg"},{"bike_id":"a7aa4f0d-dbae-40db-a193-3ad158f70ff8","system_id":"levelo_inurba_marseille","lat":43.3104,"lon":5.37109,"is_reserved":false,"is_disabled":false,"rental_uris":{"android":"levelo://app?vid=a7aa4f0d-dbae-40db-a193-3ad158f70ff8","ios":"levelo://app?vid=a7aa4f0d-dbae-40db-a193-3ad158f70ff8"},"vehicle_type_id":"4","last_reported":1745255309,"current_range_meters":14400,"station_id":"","pricing_plan_id":"cebpf4jnsgd1na2vs0mg"},{"bike_id":"bf57fc63-5888-497c-8aa9-385ca4ea934b","system_id":"levelo_inurba_marseille","lat":43.23154,"lon":5.43705,"is_reserved":false,"is_disabled":false,"rental_uris":{"android":"levelo://app?vid=bf57fc63-5888-497c-8aa9-385ca4ea934b","ios":"levelo://app?vid=bf57fc63-5888-497c-8aa9-385ca4ea934b"},"vehicle_type_id":"4","last_reported":1745255309,"current_range_meters":14000,"station_id":"ce4bhmp2rcd13ifvqgog","pricing_plan_id":"cebpf4jnsgd1na2vs0mg"},{"bike_id":"bd36ff26-696b-42c4-9e5e-bd0220f6f6cd","system_id":"levelo_inurba_marseille","lat":43.302159,"lon":5.394593,"is_reserved":false,"is_disabled":false,"rental_uris":{"android":"levelo://app?vid=bd36ff26-696b-42c4-9e5e-bd0220f6f6cd","ios":"levelo://app?vid=bd36ff26-696b-42c4-9e5e-bd0220f6f6cd"},"vehicle_type_id":"4","last_reported":1745255309,"current_range_meters":14400,"station_id":"ce4bhh12rcd13ifvqff0","pricing_plan_id":"cebpf4jnsgd1na2vs0mg"},{"bike_id":"ca62fc37-4f28-42e1-8992-3e4769c6cf3a","system_id":"levelo_inurba_marseille","lat":43.24069,"lon":5.37767,"is_reserved":false,"is_disabled":false,"rental_uris":{"android":"levelo://app?vid=ca62fc37-4f28-42e1-8992-3e4769c6cf3a","ios":"levelo://app?vid=ca62fc37-4f28-42e1-8992-3e4769c6cf3a"},"vehicle_type_id":"4","last_reported":1745255309,"current_range_meters":14400,"station_id":"ce4bhnp2rcd13ifvqgvg","pricing_plan_id":"cebpf4jnsgd1na2vs0mg"},{"bike_id":"3e9c1db8-7dce-4e99-bd9f-96cfdfd7dfc6","system_id":"levelo_inurba_marseille","lat":43.28346,"lon":5.38108,"is_reserved":false,"is_disabled":false,"rental_uris":{"android":"levelo://app?vid=3e9c1db8-7dce-4e99-bd9f-96cfdfd7dfc6","ios":"levelo://app?vid=3e9c1db8-7dce-4e99-bd9f-96cfdfd7dfc6"},"vehicle_type_id":"4","last_reported":1745255309,"current_range_meters":14400,"station_id":"ce4bh412rcd13ifvqdr0","pricing_plan_id":"cebpf4jnsgd1na2vs0mg"},{"bike_id":"92c2be27-23df-4098-8e09-5e373a8d8976","system_id":"levelo_inurba_marseille","lat":43.29846,"lon":5.36285,"is_reserved":false,"is_disabled":false,"rental_uris":{"android":"levelo://app?vid=92c2be27-23df-4098-8e09-5e373a8d8976","ios":"levelo://app?vid=92c2be27-23df-4098-8e09-5e373a8d8976"},"vehicle_type_id":"4","last_reported":1745255309,"current_range_meters":14400,"station_id":"ce4bgpp2rcd13ifvqc3g","pricing_plan_id":"cebpf4jnsgd1na2vs0mg"},{"bike_id":"ad632c28-7d84-41d4-9b4e-ede9e5a1a5e6","system_id":"levelo_inurba_marseille","lat":43.29531,"lon":5.38534,"is_reserved":false,"is_disabled":false,"rental_uris":{"android":"levelo://app?vid=ad632c28-7d84-41d4-9b4e-ede9e5a1a5e6","ios":"levelo://app?vid=ad632c28-7d84-41d4-9b4e-ede9e5a1a5e6"},"vehicle_type_id":"4","last_reported":1745255309,"current_range_meters":14400,"station_id":"ce4bgih2rcd13ifvqba0","pricing_plan_id":"cebpf4jnsgd1na2vs0mg"},{"bike_id":"ee3fecd6-6ab4-468b-8d72-632ae83b84ea","system_id":"levelo_inurba_marseille","lat":43.298473,"lon":5.36274,"is_reserved":false,"is_disabled":false,"rental_uris":{"android":"levelo://app?vid=ee3fecd6-6ab4-468b-8d72-632ae83b84ea","ios":"levelo://app?vid=ee3fecd6-6ab4-468b-8d72-632ae83b84ea"},"vehicle_type_id":"4","last_reported":1745255309,"current_range_meters":14400,"station_id":"ce4bgpp2rcd13ifvqc3g","pricing_plan_id":"cebpf4jnsgd1na2vs0mg"},{"bike_id":"f2841af9-d203-464c-8dea-dba7eca886f6","system_id":"levelo_inurba_marseille","lat":43.29598,"lon":5.38116,"is_reserved":false,"is_disabled":false,"rental_uris":{"android":"levelo://app?vid=f2841af9-d203-464c-8dea-dba7eca886f6","ios":"levelo://app?vid=f2841af9-d203-464c-8dea-dba7eca886f6"},"vehicle_type_id":"4","last_reported":1745255309,"current_range_meters":14800,"station_id":"ce4bgl12rcd13ifvqbo0","pricing_plan_id":"cebpf4jnsgd1na2vs0mg"},{"bike_id":"8039eeea-ab9d-42f4-89d7-e8c6f77ef6ce","system_id":"levelo_inurba_marseille","lat":43.29098,"lon":5.38151,"is_reserved":false,"is_disabled":false,"rental_uris":{"android":"levelo://app?vid=8039eeea-ab9d-42f4-89d7-e8c6f77ef6ce","ios":"levelo://app?vid=8039eeea-ab9d-42f4-89d7-e8c6f77ef6ce"},"vehicle_type_id":"4","last_reported":1745255309,"current_range_meters":15200,"station_id":"ce4bh512rcd13ifvqe2g","pricing_plan_id":"cebpf4jnsgd1na2vs0mg"},{"bike_id":"4f6b12a3-084b-4722-b5f4-298317e6a025","system_id":"levelo_inurba_marseille","lat":43.292633,"lon":5.384404,"is_reserved":false,"is_disabled":false,"rental_uris":{"android":"levelo://app?vid=4f6b12a3-084b-4722-b5f4-298317e6a025","ios":"levelo://app?vid=4f6b12a3-084b-4722-b5f4-298317e6a025"},"vehicle_type_id":"4","last_reported":1745255309,"current_range_meters":15200,"station_id":"ce4bh3p2rcd13ifvqdq0","pricing_plan_id":"cebpf4jnsgd1na2vs0mg"},{"bike_id":"b7e84e44-b02e-4a39-90eb-c07af8428076","system_id":"levelo_inurba_marseille","lat":43.23152,"lon":5.437229,"is_reserved":false,"is_disabled":false,"rental_uris":{"android":"levelo://app?vid=b7e84e44-b02e-4a39-90eb-c07af8428076","ios":"levelo://app?vid=b7e84e44-b02e-4a39-90eb-c07af8428076"},"vehicle_type_id":"4","last_reported":1745255309,"current_range_meters":15200,"station_id":"ce4bhmp2rcd13ifvqgog","pricing_plan_id":"cebpf4jnsgd1na2vs0mg"},{"bike_id":"b373a9fc-b19f-49e6-9414-e3e614041e34","system_id":"levelo_inurba_marseille","lat":43.27069,"lon":5.42281,"is_reserved":false,"is_disabled":true,"rental_uris":{"android":"levelo://app?vid=b373a9fc-b19f-49e6-9414-e3e614041e34","ios":"levelo://app?vid=b373a9fc-b19f-49e6-9414-e3e614041e34"},"vehicle_type_id":"4","last_reported":1745255309,"current_range_meters":15200,"station_id":"ce4bhk92rcd13ifvqgb0","pricing_plan_id":"cebpf4jnsgd1na2vs0mg"},{"bike_id":"a953ef50-0644-4dce-a1f6-64af404dd829","system_id":"levelo_inurba_marseille","lat":43.27493,"lon":5.4245,"is_reserved":false,"is_disabled":false,"rental_uris":{"android":"levelo://app?vid=a953ef50-0644-4dce-a1f6-64af404dd829","ios":"levelo://app?vid=a953ef50-0644-4dce-a1f6-64af404dd829"},"vehicle_type_id":"4","last_reported":1745255309,"current_range_meters":15200,"station_id":"ce4bhn92rcd13ifvqgrg","pricing_plan_id":"cebpf4jnsgd1na2vs0mg"},{"bike_id":"4fed1524-c0ad-48c2-a4fd-0df41558f366","system_id":"levelo_inurba_marseille","lat":43.241618,"lon":5.363855,"is_reserved":false,"is_disabled":false,"rental_uris":{"android":"levelo://app?vid=4fed1524-c0ad-48c2-a4fd-0df41558f366","ios":"levelo://app?vid=4fed1524-c0ad-48c2-a4fd-0df41558f366"},"vehicle_type_id":"4","last_reported":1745255309,"current_range_meters":15200,"station_id":"cpo36qri1sfpv3e86is0","pricing_plan_id":"cebpf4jnsgd1na2vs0mg"},{"bike_id":"70d52410-058c-4e0d-83d9-ea6109b97ca7","system_id":"levelo_inurba_marseille","lat":43.28464,"lon":5.3858,"is_reserved":false,"is_disabled":false,"rental_uris":{"android":"levelo://app?vid=70d52410-058c-4e0d-83d9-ea6109b97ca7","ios":"levelo://app?vid=70d52410-058c-4e0d-83d9-ea6109b97ca7"},"vehicle_type_id":"4","last_reported":1745255309,"current_range_meters":16000,"station_id":"ce4bh8p2rcd13ifvqeb0","pricing_plan_id":"cebpf4jnsgd1na2vs0mg"},{"bike_id":"5151fa4d-cd7f-42d0-9fa2-4b32526bb904","system_id":"levelo_inurba_marseille","lat":43.24179,"lon":5.39725,"is_reserved":false,"is_disabled":true,"rental_uris":{"android":"levelo://app?vid=5151fa4d-cd7f-42d0-9fa2-4b32526bb904","ios":"levelo://app?vid=5151fa4d-cd7f-42d0-9fa2-4b32526bb904"},"vehicle_type_id":"4","last_reported":1745255309,"current_range_meters":16000,"station_id":"ce4bhn12rcd13ifvqgpg","pricing_plan_id":"cebpf4jnsgd1na2vs0mg"},{"bike_id":"a70c6b4a-9a1b-4697-9546-4f666dcb485d","system_id":"levelo_inurba_marseille","lat":43.2797,"lon":5.38738,"is_reserved":false,"is_disabled":false,"rental_uris":{"android":"levelo://app?vid=a70c6b4a-9a1b-4697-9546-4f666dcb485d","ios":"levelo://app?vid=a70c6b4a-9a1b-4697-9546-4f666dcb485d"},"vehicle_type_id":"4","last_reported":1745255309,"current_range_meters":11200,"station_id":"ce4bhg12rcd13ifvqf80","pricing_plan_id":"cebpf4jnsgd1na2vs0mg"},{"bike_id":"50fd4a29-8e7c-4677-9313-4c9598c1862f","system_id":"levelo_inurba_marseille","lat":43.288529,"lon":5.393189,"is_reserved":false,"is_disabled":false,"rental_uris":{"android":"levelo://app?vid=50fd4a29-8e7c-4677-9313-4c9598c1862f","ios":"levelo://app?vid=50fd4a29-8e7c-4677-9313-4c9598c1862f"},"vehicle_type_id":"4","last_reported":1745255309,"current_range_meters":15200,"station_id":"ce4bh2p2rcd13ifvqdi0","pricing_plan_id":"cebpf4jnsgd1na2vs0mg"},{"bike_id":"afca05cb-9dea-4e13-bae3-b0bd83251e29","system_id":"levelo_inurba_marseille","lat":43.33766,"lon":5.3742,"is_reserved":false,"is_disabled":false,"rental_uris":{"android":"levelo://app?vid=afca05cb-9dea-4e13-bae3-b0bd83251e29","ios":"levelo://app?vid=afca05cb-9dea-4e13-bae3-b0bd83251e29"},"vehicle_type_id":"4","last_reported":1745255309,"current_range_meters":16000,"station_id":"","pricing_plan_id":"cebpf4jnsgd1na2vs0mg"},{"bike_id":"5286935d-7cca-45c3-94d8-f5367541f791","system_id":"levelo_inurba_marseille","lat":43.3093,"lon":5.36854,"is_reserved":false,"is_disabled":false,"rental_uris":{"android":"levelo://app?vid=5286935d-7cca-45c3-94d8-f5367541f791","ios":"levelo://app?vid=5286935d-7cca-45c3-94d8-f5367541f791"},"vehicle_type_id":"4","last_reported":1745255309,"current_range_meters":16000,"station_id":"ce4bgn92rcd13ifvqbvg","pricing_plan_id":"cebpf4jnsgd1na2vs0mg"},{"bike_id":"e5a5c11f-041b-472c-bef7-21d9fdd2f1d6","system_id":"levelo_inurba_marseille","lat":43.29539,"lon":5.42271,"is_reserved":false,"is_disabled":false,"rental_uris":{"android":"levelo://app?vid=e5a5c11f-041b-472c-bef7-21d9fdd2f1d6","ios":"levelo://app?vid=e5a5c11f-041b-472c-bef7-21d9fdd2f1d6"},"vehicle_type_id":"4","last_reported":1745255309,"current_range_meters":16000,"station_id":"ce4bhph2rcd13ifvqhdg","pricing_plan_id":"cebpf4jnsgd1na2vs0mg"},{"bike_id":"96c11cbc-40c8-4f48-a070-25fb8aa7f8eb","system_id":"levelo_inurba_marseille","lat":43.29537,"lon":5.38536,"is_reserved":false,"is_disabled":false,"rental_uris":{"android":"levelo://app?vid=96c11cbc-40c8-4f48-a070-25fb8aa7f8eb","ios":"levelo://app?vid=96c11cbc-40c8-4f48-a070-25fb8aa7f8eb"},"vehicle_type_id":"4","last_reported":1745255309,"current_range_meters":15200,"station_id":"ce4bgih2rcd13ifvqba0","pricing_plan_id":"cebpf4jnsgd1na2vs0mg"},{"bike_id":"217bc09c-9054-444f-b0a6-1a91698bbf60","system_id":"levelo_inurba_marseille","lat":43.26185,"lon":5.37453,"is_reserved":false,"is_disabled":true,"rental_uris":{"android":"levelo://app?vid=217bc09c-9054-444f-b0a6-1a91698bbf60","ios":"levelo://app?vid=217bc09c-9054-444f-b0a6-1a91698bbf60"},"vehicle_type_id":"4","last_reported":1745255309,"current_range_meters":16400,"station_id":"ce4bhgp2rcd13ifvqfc0","pricing_plan_id":"cebpf4jnsgd1na2vs0mg"},{"bike_id":"c15f5f5f-6815-48f9-8eeb-5d19f873fe9f","system_id":"levelo_inurba_marseille","lat":43.30423,"lon":5.41277,"is_reserved":false,"is_disabled":false,"rental_uris":{"android":"levelo://app?vid=c15f5f5f-6815-48f9-8eeb-5d19f873fe9f","ios":"levelo://app?vid=c15f5f5f-6815-48f9-8eeb-5d19f873fe9f"},"vehicle_type_id":"4","last_reported":1745255309,"current_range_meters":16400,"station_id":"ce4bhop2rcd13ifvqh8g","pricing_plan_id":"cebpf4jnsgd1na2vs0mg"},{"bike_id":"e5db2ef9-d68d-4358-b49b-4708b47217a7","system_id":"levelo_inurba_marseille","lat":43.29255,"lon":5.38446,"is_reserved":false,"is_disabled":false,"rental_uris":{"android":"levelo://app?vid=e5db2ef9-d68d-4358-b49b-4708b47217a7","ios":"levelo://app?vid=e5db2ef9-d68d-4358-b49b-4708b47217a7"},"vehicle_type_id":"4","last_reported":1745255309,"current_range_meters":16400,"station_id":"ce4bh692rcd13ifvqea0","pricing_plan_id":"cebpf4jnsgd1na2vs0mg"},{"bike_id":"ac6e319d-c7fc-4f01-9ace-cede2ca89765","system_id":"levelo_inurba_marseille","lat":43.28942,"lon":5.36641,"is_reserved":false,"is_disabled":false,"rental_uris":{"android":"levelo://app?vid=ac6e319d-c7fc-4f01-9ace-cede2ca89765","ios":"levelo://app?vid=ac6e319d-c7fc-4f01-9ace-cede2ca89765"},"vehicle_type_id":"4","last_reported":1745255309,"current_range_meters":16800,"station_id":"ce4bhap2rcd13ifvqek0","pricing_plan_id":"cebpf4jnsgd1na2vs0mg"},{"bike_id":"57a719f7-7437-4d4b-87de-8eb45d1388a1","system_id":"levelo_inurba_marseille","lat":43.2945,"lon":5.39752,"is_reserved":false,"is_disabled":false,"rental_uris":{"android":"levelo://app?vid=57a719f7-7437-4d4b-87de-8eb45d1388a1","ios":"levelo://app?vid=57a719f7-7437-4d4b-87de-8eb45d1388a1"},"vehicle_type_id":"4","last_reported":1745255309,"current_range_meters":16800,"station_id":"ce4bh3h2rcd13ifvqdo0","pricing_plan_id":"cebpf4jnsgd1na2vs0mg"},{"bike_id":"9b54feae-f005-4394-a492-64ca9b46820c","system_id":"levelo_inurba_marseille","lat":43.29542,"lon":5.38542,"is_reserved":false,"is_disabled":false,"rental_uris":{"android":"levelo://app?vid=9b54feae-f005-4394-a492-64ca9b46820c","ios":"levelo://app?vid=9b54feae-f005-4394-a492-64ca9b46820c"},"vehicle_type_id":"4","last_reported":1745255309,"current_range_meters":16400,"station_id":"ce4bgih2rcd13ifvqba0","pricing_plan_id":"cebpf4jnsgd1na2vs0mg"},{"bike_id":"3eaa4224-8d02-4059-96c9-e67582326098","system_id":"levelo_inurba_marseille","lat":43.28038,"lon":5.36949,"is_reserved":false,"is_disabled":false,"rental_uris":{"android":"levelo://app?vid=3eaa4224-8d02-4059-96c9-e67582326098","ios":"levelo://app?vid=3eaa4224-8d02-4059-96c9-e67582326098"},"vehicle_type_id":"4","last_reported":1745255309,"current_range_meters":16400,"station_id":"ce4bha12rcd13ifvqef0","pricing_plan_id":"cebpf4jnsgd1na2vs0mg"},{"bike_id":"6b4282bc-9432-4c95-847b-7452cf13e716","system_id":"levelo_inurba_marseille","lat":43.29314,"lon":5.37143,"is_reserved":false,"is_disabled":true,"rental_uris":{"android":"levelo://app?vid=6b4282bc-9432-4c95-847b-7452cf13e716","ios":"levelo://app?vid=6b4282bc-9432-4c95-847b-7452cf13e716"},"vehicle_type_id":"4","last_reported":1745255309,"current_range_meters":16800,"station_id":"ce4bgh92rcd13ifvqb40","pricing_plan_id":"cebpf4jnsgd1na2vs0mg"},{"bike_id":"a5255d90-225f-40e7-9173-60478be8a6fd","system_id":"levelo_inurba_marseille","lat":43.29526,"lon":5.38531,"is_reserved":false,"is_disabled":false,"rental_uris":{"android":"levelo://app?vid=a5255d90-225f-40e7-9173-60478be8a6fd","ios":"levelo://app?vid=a5255d90-225f-40e7-9173-60478be8a6fd"},"vehicle_type_id":"4","last_reported":1745255309,"current_range_meters":16800,"station_id":"ce4bgih2rcd13ifvqba0","pricing_plan_id":"cebpf4jnsgd1na2vs0mg"},{"bike_id":"1065b5c9-4bfe-4ac5-81d5-299af3cb97dd","system_id":"levelo_inurba_marseille","lat":43.28568,"lon":5.39499,"is_reserved":false,"is_disabled":false,"rental_uris":{"android":"levelo://app?vid=1065b5c9-4bfe-4ac5-81d5-299af3cb97dd","ios":"levelo://app?vid=1065b5c9-4bfe-4ac5-81d5-299af3cb97dd"},"vehicle_type_id":"4","last_reported":1745255309,"current_range_meters":16400,"station_id":"ce4bh292rcd13ifvqdg0","pricing_plan_id":"cebpf4jnsgd1na2vs0mg"},{"bike_id":"b02ba539-7578-4c21-bf6f-15dfa33217bf","system_id":"levelo_inurba_marseille","lat":43.29045,"lon":5.37567,"is_reserved":false,"is_disabled":false,"rental_uris":{"android":"levelo://app?vid=b02ba539-7578-4c21-bf6f-15dfa33217bf","ios":"levelo://app?vid=b02ba539-7578-4c21-bf6f-15dfa33217bf"},"vehicle_type_id":"4","last_reported":1745255309,"current_range_meters":16800,"station_id":"ce4bh692rcd13ifvqe90","pricing_plan_id":"cebpf4jnsgd1na2vs0mg"},{"bike_id":"f90aa721-30b5-4d2c-8133-448bc13c81b5","system_id":"levelo_inurba_marseille","lat":43.29114,"lon":5.38149,"is_reserved":false,"is_disabled":false,"rental_uris":{"android":"levelo://app?vid=f90aa721-30b5-4d2c-8133-448bc13c81b5","ios":"levelo://app?vid=f90aa721-30b5-4d2c-8133-448bc13c81b5"},"vehicle_type_id":"4","last_reported":1745255309,"current_range_meters":17200,"station_id":"ce4bh512rcd13ifvqe2g","pricing_plan_id":"cebpf4jnsgd1na2vs0mg"},{"bike_id":"b5cfbcb4-cab4-49e4-aa0c-4a801b50e386","system_id":"levelo_inurba_marseille","lat":43.27986,"lon":5.38767,"is_reserved":false,"is_disabled":false,"rental_uris":{"android":"levelo://app?vid=b5cfbcb4-cab4-49e4-aa0c-4a801b50e386","ios":"levelo://app?vid=b5cfbcb4-cab4-49e4-aa0c-4a801b50e386"},"vehicle_type_id":"4","last_reported":1745255309,"current_range_meters":17200,"station_id":"ce4bhg12rcd13ifvqf80","pricing_plan_id":"cebpf4jnsgd1na2vs0mg"},{"bike_id":"14287db6-e69c-42a8-8108-28c52bb386ce","system_id":"levelo_inurba_marseille","lat":43.29319,"lon":5.36912,"is_reserved":false,"is_disabled":false,"rental_uris":{"android":"levelo://app?vid=14287db6-e69c-42a8-8108-28c52bb386ce","ios":"levelo://app?vid=14287db6-e69c-42a8-8108-28c52bb386ce"},"vehicle_type_id":"4","last_reported":1745255309,"current_range_meters":17200,"station_id":"ce4bhbp2rcd13ifvqesg","pricing_plan_id":"cebpf4jnsgd1na2vs0mg"},{"bike_id":"900f4b11-d96d-444e-ae5a-81b839029132","system_id":"levelo_inurba_marseille","lat":43.2895,"lon":5.39601,"is_reserved":false,"is_disabled":false,"rental_uris":{"android":"levelo://app?vid=900f4b11-d96d-444e-ae5a-81b839029132","ios":"levelo://app?vid=900f4b11-d96d-444e-ae5a-81b839029132"},"vehicle_type_id":"4","last_reported":1745255309,"current_range_meters":17200,"station_id":"ce4bh3h2rcd13ifvqdn0","pricing_plan_id":"cebpf4jnsgd1na2vs0mg"},{"bike_id":"2a35ab10-f416-439f-a4fa-784873cd587f","system_id":"levelo_inurba_marseille","lat":43.26951,"lon":5.38648,"is_reserved":false,"is_disabled":true,"rental_uris":{"android":"levelo://app?vid=2a35ab10-f416-439f-a4fa-784873cd587f","ios":"levelo://app?vid=2a35ab10-f416-439f-a4fa-784873cd587f"},"vehicle_type_id":"4","last_reported":1745255309,"current_range_meters":17200,"station_id":"ce4bhh92rcd13ifvqfh0","pricing_plan_id":"cebpf4jnsgd1na2vs0mg"},{"bike_id":"11a1d65d-cae6-44a5-8b3d-6c72db738808","system_id":"levelo_inurba_marseille","lat":43.24648,"lon":5.38898,"is_reserved":false,"is_disabled":false,"rental_uris":{"android":"levelo://app?vid=11a1d65d-cae6-44a5-8b3d-6c72db738808","ios":"levelo://app?vid=11a1d65d-cae6-44a5-8b3d-6c72db738808"},"vehicle_type_id":"4","last_reported":1745255309,"current_range_meters":17200,"station_id":"ce4bhg12rcd13ifvqf60","pricing_plan_id":"cebpf4jnsgd1na2vs0mg"},{"bike_id":"4c342c78-8204-4e18-959b-c6005cd74f36","system_id":"levelo_inurba_marseille","lat":43.29931,"lon":5.36549,"is_reserved":false,"is_disabled":false,"rental_uris":{"android":"levelo://app?vid=4c342c78-8204-4e18-959b-c6005cd74f36","ios":"levelo://app?vid=4c342c78-8204-4e18-959b-c6005cd74f36"},"vehicle_type_id":"4","last_reported":1745255309,"current_range_meters":17200,"station_id":"ce4bgm92rcd13ifvqbr0","pricing_plan_id":"cebpf4jnsgd1na2vs0mg"},{"bike_id":"538ad7ed-3578-4812-8849-d6e7a1b5d7ad","system_id":"levelo_inurba_marseille","lat":43.28459,"lon":5.35891,"is_reserved":false,"is_disabled":false,"rental_uris":{"android":"levelo://app?vid=538ad7ed-3578-4812-8849-d6e7a1b5d7ad","ios":"levelo://app?vid=538ad7ed-3578-4812-8849-d6e7a1b5d7ad"},"vehicle_type_id":"4","last_reported":1745255309,"current_range_meters":17200,"station_id":"ce4bhah2rcd13ifvqei0","pricing_plan_id":"cebpf4jnsgd1na2vs0mg"},{"bike_id":"137d6f7b-447f-4e55-b338-752dd215843c","system_id":"levelo_inurba_marseille","lat":43.27047,"lon":5.40366,"is_reserved":false,"is_disabled":false,"rental_uris":{"android":"levelo://app?vid=137d6f7b-447f-4e55-b338-752dd215843c","ios":"levelo://app?vid=137d6f7b-447f-4e55-b338-752dd215843c"},"vehicle_type_id":"4","last_reported":1745255309,"current_range_meters":17200,"station_id":"","pricing_plan_id":"cebpf4jnsgd1na2vs0mg"},{"bike_id":"a25dc213-a537-441e-9b2d-85cd32f10ea3","system_id":"levelo_inurba_marseille","lat":43.29029,"lon":5.3814,"is_reserved":false,"is_disabled":false,"rental_uris":{"android":"levelo://app?vid=a25dc213-a537-441e-9b2d-85cd32f10ea3","ios":"levelo://app?vid=a25dc213-a537-441e-9b2d-85cd32f10ea3"},"vehicle_type_id":"4","last_reported":1745255309,"current_range_meters":17200,"station_id":"ce4bh4p2rcd13ifvqe1g","pricing_plan_id":"cebpf4jnsgd1na2vs0mg"},{"bike_id":"2d72c1aa-8f90-458a-864c-a504c7eccbf9","system_id":"levelo_inurba_marseille","lat":43.29277,"lon":5.38446,"is_reserved":false,"is_disabled":false,"rental_uris":{"android":"levelo://app?vid=2d72c1aa-8f90-458a-864c-a504c7eccbf9","ios":"levelo://app?vid=2d72c1aa-8f90-458a-864c-a504c7eccbf9"},"vehicle_type_id":"4","last_reported":1745255309,"current_range_meters":17600,"station_id":"ce4bh692rcd13ifvqea0","pricing_plan_id":"cebpf4jnsgd1na2vs0mg"},{"bike_id":"765d4d1a-7cd1-46d5-a835-26b5cf7f3645","system_id":"levelo_inurba_marseille","lat":43.30308,"lon":5.36891,"is_reserved":false,"is_disabled":false,"rental_uris":{"android":"levelo://app?vid=765d4d1a-7cd1-46d5-a835-26b5cf7f3645","ios":"levelo://app?vid=765d4d1a-7cd1-46d5-a835-26b5cf7f3645"},"vehicle_type_id":"4","last_reported":1745255309,"current_range_meters":17600,"station_id":"ce4bgqh2rcd13ifvqc5g","pricing_plan_id":"cebpf4jnsgd1na2vs0mg"},{"bike_id":"013b0bba-3a8e-4176-aec5-9b030be1a006","system_id":"levelo_inurba_marseille","lat":43.31731,"lon":5.37776,"is_reserved":false,"is_disabled":false,"rental_uris":{"android":"levelo://app?vid=013b0bba-3a8e-4176-aec5-9b030be1a006","ios":"levelo://app?vid=013b0bba-3a8e-4176-aec5-9b030be1a006"},"vehicle_type_id":"4","last_reported":1745255309,"current_range_meters":17600,"station_id":"ce4bgth2rcd13ifvqch0","pricing_plan_id":"cebpf4jnsgd1na2vs0mg"},{"bike_id":"cf8c555c-feb2-4e37-8a93-b83b0d888465","system_id":"levelo_inurba_marseille","lat":43.2904,"lon":5.37547,"is_reserved":false,"is_disabled":false,"rental_uris":{"android":"levelo://app?vid=cf8c555c-feb2-4e37-8a93-b83b0d888465","ios":"levelo://app?vid=cf8c555c-feb2-4e37-8a93-b83b0d888465"},"vehicle_type_id":"4","last_reported":1745255309,"current_range_meters":17600,"station_id":"ce4bh692rcd13ifvqe90","pricing_plan_id":"cebpf4jnsgd1na2vs0mg"},{"bike_id":"57139b23-28c8-4c5b-8f78-341aff0d7d08","system_id":"levelo_inurba_marseille","lat":43.27998,"lon":5.40014,"is_reserved":false,"is_disabled":false,"rental_uris":{"android":"levelo://app?vid=57139b23-28c8-4c5b-8f78-341aff0d7d08","ios":"levelo://app?vid=57139b23-28c8-4c5b-8f78-341aff0d7d08"},"vehicle_type_id":"4","last_reported":1745255309,"current_range_meters":17600,"station_id":"ce4bho92rcd13ifvqh4g","pricing_plan_id":"cebpf4jnsgd1na2vs0mg"},{"bike_id":"43c99f59-94d0-4fe5-af16-e752d9a3e1e5","system_id":"levelo_inurba_marseille","lat":43.30484,"lon":5.38887,"is_reserved":false,"is_disabled":false,"rental_uris":{"android":"levelo://app?vid=43c99f59-94d0-4fe5-af16-e752d9a3e1e5","ios":"levelo://app?vid=43c99f59-94d0-4fe5-af16-e752d9a3e1e5"},"vehicle_type_id":"4","last_reported":1745255309,"current_range_meters":17600,"station_id":"","pricing_plan_id":"cebpf4jnsgd1na2vs0mg"},{"bike_id":"899be234-0d90-47ec-b0de-be76f74ff9da","system_id":"levelo_inurba_marseille","lat":43.28574,"lon":5.39504,"is_reserved":false,"is_disabled":false,"rental_uris":{"android":"levelo://app?vid=899be234-0d90-47ec-b0de-be76f74ff9da","ios":"levelo://app?vid=899be234-0d90-47ec-b0de-be76f74ff9da"},"vehicle_type_id":"4","last_reported":1745255309,"current_range_meters":17600,"station_id":"ce4bh292rcd13ifvqdg0","pricing_plan_id":"cebpf4jnsgd1na2vs0mg"},{"bike_id":"bf4e794e-0c4b-4fad-8aa3-5564eae09e6a","system_id":"levelo_inurba_marseille","lat":43.30722,"lon":5.42446,"is_reserved":false,"is_disabled":false,"rental_uris":{"android":"levelo://app?vid=bf4e794e-0c4b-4fad-8aa3-5564eae09e6a","ios":"levelo://app?vid=bf4e794e-0c4b-4fad-8aa3-5564eae09e6a"},"vehicle_type_id":"4","last_reported":1745255309,"current_range_meters":17600,"station_id":"st_cvj6ca6bvosntc0bfgr0","pricing_plan_id":"cebpf4jnsgd1na2vs0mg"},{"bike_id":"62db6a06-e803-4ea0-bd9d-462fb7a4ece7","system_id":"levelo_inurba_marseille","lat":43.29852,"lon":5.36287,"is_reserved":false,"is_disabled":false,"rental_uris":{"android":"levelo://app?vid=62db6a06-e803-4ea0-bd9d-462fb7a4ece7","ios":"levelo://app?vid=62db6a06-e803-4ea0-bd9d-462fb7a4ece7"},"vehicle_type_id":"4","last_reported":1745255309,"current_range_meters":18000,"station_id":"ce4bgpp2rcd13ifvqc3g","pricing_plan_id":"cebpf4jnsgd1na2vs0mg"},{"bike_id":"95afd635-6827-4b96-96e2-f038ee903fe3","system_id":"levelo_inurba_marseille","lat":43.2653,"lon":5.37342,"is_reserved":false,"is_disabled":true,"rental_uris":{"android":"levelo://app?vid=95afd635-6827-4b96-96e2-f038ee903fe3","ios":"levelo://app?vid=95afd635-6827-4b96-96e2-f038ee903fe3"},"vehicle_type_id":"4","last_reported":1745255309,"current_range_meters":18000,"station_id":"","pricing_plan_id":"cebpf4jnsgd1na2vs0mg"},{"bike_id":"322cb3bd-1b2c-4ec8-9cd5-563729b64d42","system_id":"levelo_inurba_marseille","lat":43.241,"lon":5.37742,"is_reserved":false,"is_disabled":false,"rental_uris":{"android":"levelo://app?vid=322cb3bd-1b2c-4ec8-9cd5-563729b64d42","ios":"levelo://app?vid=322cb3bd-1b2c-4ec8-9cd5-563729b64d42"},"vehicle_type_id":"4","last_reported":1745255309,"current_range_meters":18000,"station_id":"ce4bhnp2rcd13ifvqgvg","pricing_plan_id":"cebpf4jnsgd1na2vs0mg"},{"bike_id":"7b2dc864-a4e9-468c-9cee-f3075a20977d","system_id":"levelo_inurba_marseille","lat":43.31193,"lon":5.37731,"is_reserved":false,"is_disabled":false,"rental_uris":{"android":"levelo://app?vid=7b2dc864-a4e9-468c-9cee-f3075a20977d","ios":"levelo://app?vid=7b2dc864-a4e9-468c-9cee-f3075a20977d"},