{"last_updated":1728918552,"ttl":60,"version":"2.2","data":{"bikes":[{"bike_id":"3224dfc5-5b6a-478b-9844-346b58ce32d1","system_id":"levelo_inurba_marseille","lat":43.27996,"lon":5.40008,"is_reserved":false,"is_disabled":false,"rental_uris":{"android":"levelo://app?vid=3224dfc5-5b6a-478b-9844-346b58ce32d1","ios":"levelo://app?vid=3224dfc5-5b6a-478b-9844-346b58ce32d1"},"vehicle_type_id":"4","last_reported":1728918552,"current_range_meters":14400,"station_id":"ce4bho92rcd13ifvqh4g","pricing_plan_id":"cebpf4jnsgd1na2vs0mg"},{"bike_id":"10530386-7ea2-4630-9cfd-fe14c55cdb58","system_id":"levelo_inurba_marseille","lat":43.31754,"lon":5.39013,"is_reserved":false,"is_disabled":false,"rental_uris":{"android":"levelo://app?vid=10530386-7ea2-4630-9cfd-fe14c55cdb58","ios":"levelo://app?vid=10530386-7ea2-4630-9cfd-fe14c55cdb58"},"vehicle_type_id":"4","last_reported":1728918552,"current_range_meters":15200,"station_id":"ce4bhqp2rcd13ifvqhng","pricing_plan_id":"cebpf4jnsgd1na2vs0mg"},{"bike_id":"d8bbe762-6502-4961-b172-7ff079b9d838","system_id":"levelo_inurba_marseille","lat":43.30248,"lon":5.40055,"is_reserved":false,"is_disabled":false,"rental_uris":{"android":"levelo://app?vid=d8bbe762-6502-4961-b172-7ff079b9d838","ios":"levelo://app?vid=d8bbe762-6502-4961-b172-7ff079b9d838"},"vehicle_type_id":"4","last_reported":1728918552,"current_range_meters":31200,"station_id":"ce4bgvh2rcd13ifvqcs0","pricing_plan_id":"cebpf4jnsgd1na2vs0mg"},{"bike_id":"b1e4c9a9-430e-4c24-b184-8ba8b4722981","system_id":"levelo_inurba_marseille","lat":43.30217,"lon":5.39476,"is_reserved":false,"is_disabled":false,"rental_uris":{"android":"levelo://app?vid=b1e4c9a9-430e-4c24-b184-8ba8b4722981","ios":"levelo://app?vid=b1e4c9a9-430e-4c24-b184-8ba8b4722981"},"vehicle_type_id":"4","last_reported":1728918552,"current_range_meters":23200,"station_id":"ce4bh0p2rcd13ifvqd70","pricing_plan_id":"cebpf4jnsgd1na2vs0mg"},{"bike_id":"9acbe740-080e-4764-8878-44aac56dbe91","system_id":"levelo_inurba_marseille","lat":43.26209,"lon":5.37442,"is_reserved":false,"is_disabled":false,"rental_uris":{"android":"levelo://app?vid=9acbe740-080e-4764-8878-44aac56dbe91","ios":"levelo://app?vid=9acbe740-080e-4764-8878-44aac56dbe91"},"vehicle_type_id":"4","last_reported":1728918552,"current_range_meters":22000,"station_id":"ce4bhgp2rcd13ifvqfc0","pricing_plan_id":"cebpf4jnsgd1na2vs0mg"},{"bike_id":"a4f7ff2e-eed2-4971-82a9-5fc7a96d666e","system_id":"levelo_inurba_marseille","lat":43.29966,"lon":5.38495,"is_reserved":false,"is_disabled":false,"rental_uris":{"android":"levelo://app?vid=a4f7ff2e-eed2-4971-82a9-5fc7a96d666e","ios":"levelo://app?vid=a4f7ff2e-eed2-4971-82a9-5fc7a96d666e"},"vehicle_type_id":"4","last_reported":1728918552,"current_range_meters":30800,"station_id":"ce4bgj92rcd13ifvqbd0","pricing_plan_id":"cebpf4jnsgd1na2vs0mg"},{"bike_id":"6c769316-75e3-4eba-8bca-7dffbdb7e41c","system_id":"levelo_inurba_marseille","lat":43.28459,"lon":5.35894,"is_reserved":false,"is_disabled":false,"rental_uris":{"android":"levelo://app?vid=6c769316-75e3-4eba-8bca-7dffbdb7e41c","ios":"levelo://app?vid=6c769316-75e3-4eba-8bca-7dffbdb7e41c"},"vehicle_type_id":"4","last_reported":1728918552,"current_range_meters":4000,"station_id":"ce4bhah2rcd13ifvqei0","pricing_plan_id":"cebpf4jnsgd1na2vs0mg"},{"bike_id":"c9784db0-01e9-4c5b-a952-21162f168a11","system_id":"levelo_inurba_marseille","lat":43.29536,"lon":5.39034,"is_reserved":false,"is_disabled":false,"rental_uris":{"android":"levelo://app?vid=c9784db0-01e9-4c5b-a952-21162f168a11","ios":"levelo://app?vid=c9784db0-01e9-4c5b-a952-21162f168a11"},"vehicle_type_id":"4","last_reported":1728918552,"current_range_meters":34800,"station_id":"ce4bh3p2rcd13ifvqdp0","pricing_plan_id":"cebpf4jnsgd1na2vs0mg"},{"bike_id":"4ea2fbd1-66c7-477b-a3c4-4e9223e0aa13","system_id":"levelo_inurba_marseille","lat":43.32359,"lon":5.38881,"is_reserved":false,"is_disabled":false,"rental_uris":{"android":"levelo://app?vid=4ea2fbd1-66c7-477b-a3c4-4e9223e0aa13","ios":"levelo://app?vid=4ea2fbd1-66c7-477b-a3c4-4e9223e0aa13"},"vehicle_type_id":"4","last_reported":1728918552,"current_range_meters":25600,"station_id":"ce4bhqp2rcd13ifvqhog","pricing_plan_id":"cebpf4jnsgd1na2vs0mg"},{"bike_id":"1c8678bf-f09e-43f6-884d-88ba02c9812a","system_id":"levelo_inurba_marseille","lat":43.28351,"lon":5.39807,"is_reserved":false,"is_disabled":false,"rental_uris":{"android":"levelo://app?vid=1c8678bf-f09e-43f6-884d-88ba02c9812a","ios":"levelo://app?vid=1c8678bf-f09e-43f6-884d-88ba02c9812a"},"vehicle_type_id":"4","last_reported":1728918552,"current_range_meters":24000,"station_id":"ce4bgl12rcd13ifvqbo0","pricing_plan_id":"cebpf4jnsgd1na2vs0mg"},{"bike_id":"6dc5788f-0c44-41fb-8658-9f0406a7ec99","system_id":"levelo_inurba_marseille","lat":43.27946,"lon":5.41051,"is_reserved":false,"is_disabled":false,"rental_uris":{"android":"levelo://app?vid=6dc5788f-0c44-41fb-8658-9f0406a7ec99","ios":"levelo://app?vid=6dc5788f-0c44-41fb-8658-9f0406a7ec99"},"vehicle_type_id":"4","last_reported":1728918552,"current_range_meters":20800,"station_id":"ce4bhnp2rcd13ifvqh0g","pricing_plan_id":"cebpf4jnsgd1na2vs0mg"},{"bike_id":"337f4929-9cdd-44b3-9cb5-d213dd2eed01","system_id":"levelo_inurba_marseille","lat":43.28154,"lon":5.42646,"is_reserved":false,"is_disabled":false,"rental_uris":{"android":"levelo://app?vid=337f4929-9cdd-44b3-9cb5-d213dd2eed01","ios":"levelo://app?vid=337f4929-9cdd-44b3-9cb5-d213dd2eed01"},"vehicle_type_id":"4","last_reported":1728918552,"current_range_meters":17600,"station_id":"ce4bhnh2rcd13ifvqgug","pricing_plan_id":"cebpf4jnsgd1na2vs0mg"},{"bike_id":"d166bc6b-652b-4c77-b931-1a4d0627cf6f","system_id":"levelo_inurba_marseille","lat":43.29894,"lon":5.43671,"is_reserved":false,"is_disabled":false,"rental_uris":{"android":"levelo://app?vid=d166bc6b-652b-4c77-b931-1a4d0627cf6f","ios":"levelo://app?vid=d166bc6b-652b-4c77-b931-1a4d0627cf6f"},"vehicle_type_id":"4","last_reported":1728918552,"current_range_meters":38800,"station_id":"ce4bhpp2rcd13ifvqhfg","pricing_plan_id":"cebpf4jnsgd1na2vs0mg"},{"bike_id":"58bf2fd2-c54e-4270-8dde-c3504ed90542","system_id":"levelo_inurba_marseille","lat":43.3171,"lon":5.43707,"is_reserved":false,"is_disabled":false,"rental_uris":{"android":"levelo://app?vid=58bf2fd2-c54e-4270-8dde-c3504ed90542","ios":"levelo://app?vid=58bf2fd2-c54e-4270-8dde-c3504ed90542"},"vehicle_type_id":"4","last_reported":1728918552,"current_range_meters":33200,"station_id":"ce4bhp92rcd13ifvqhcg","pricing_plan_id":"cebpf4jnsgd1na2vs0mg"},{"bike_id":"2af9f960-6583-4195-bf50-d54367bdee35","system_id":"levelo_inurba_marseille","lat":43.27985,"lon":5.39534,"is_reserved":false,"is_disabled":false,"rental_uris":{"android":"levelo://app?vid=2af9f960-6583-4195-bf50-d54367bdee35","ios":"levelo://app?vid=2af9f960-6583-4195-bf50-d54367bdee35"},"vehicle_type_id":"4","last_reported":1728918552,"current_range_meters":22800,"station_id":"ce4bhf92rcd13ifvqf40","pricing_plan_id":"cebpf4jnsgd1na2vs0mg"},{"bike_id":"72847957-b91c-4739-a051-6dd0337137d9","system_id":"levelo_inurba_marseille","lat":43.29842,"lon":5.36276,"is_reserved":false,"is_disabled":false,"rental_uris":{"android":"levelo://app?vid=72847957-b91c-4739-a051-6dd0337137d9","ios":"levelo://app?vid=72847957-b91c-4739-a051-6dd0337137d9"},"vehicle_type_id":"4","last_reported":1728918552,"current_range_meters":25200,"station_id":"ce4bgpp2rcd13ifvqc3g","pricing_plan_id":"cebpf4jnsgd1na2vs0mg"},{"bike_id":"c4b65d77-4238-4a4f-8f17-6e01410144b1","system_id":"levelo_inurba_marseille","lat":43.31756,"lon":5.39017,"is_reserved":false,"is_disabled":false,"rental_uris":{"android":"levelo://app?vid=c4b65d77-4238-4a4f-8f17-6e01410144b1","ios":"levelo://app?vid=c4b65d77-4238-4a4f-8f17-6e01410144b1"},"vehicle_type_id":"4","last_reported":1728918552,"current_range_meters":6000,"station_id":"ce4bhqp2rcd13ifvqhng","pricing_plan_id":"cebpf4jnsgd1na2vs0mg"},{"bike_id":"428d6170-493e-4ed0-acf4-686ecc8e3b57","system_id":"levelo_inurba_marseille","lat":43.27812,"lon":5.40713,"is_reserved":false,"is_disabled":false,"rental_uris":{"android":"levelo://app?vid=428d6170-493e-4ed0-acf4-686ecc8e3b57","ios":"levelo://app?vid=428d6170-493e-4ed0-acf4-686ecc8e3b57"},"vehicle_type_id":"4","last_reported":1728918552,"current_range_meters":9600,"station_id":"ce4bhnh2rcd13ifvqgtg","pricing_plan_id":"cebpf4jnsgd1na2vs0mg"},{"bike_id":"3da7f9d2-6299-4bd1-8ca3-8d7bf680c0f9","system_id":"levelo_inurba_marseille","lat":43.28662,"lon":5.36354,"is_reserved":false,"is_disabled":false,"rental_uris":{"android":"levelo://app?vid=3da7f9d2-6299-4bd1-8ca3-8d7bf680c0f9","ios":"levelo://app?vid=3da7f9d2-6299-4bd1-8ca3-8d7bf680c0f9"},"vehicle_type_id":"4","last_reported":1728918552,"current_range_meters":39200,"station_id":"ce4bhah2rcd13ifvqej0","pricing_plan_id":"cebpf4jnsgd1na2vs0mg"},{"bike_id":"9a5f02e7-f2c0-4d66-9b29-b5537d018711","system_id":"levelo_inurba_marseille","lat":43.25819,"lon":5.394326,"is_reserved":false,"is_disabled":false,"rental_uris":{"android":"levelo://app?vid=9a5f02e7-f2c0-4d66-9b29-b5537d018711","ios":"levelo://app?vid=9a5f02e7-f2c0-4d66-9b29-b5537d018711"},"vehicle_type_id":"4","last_reported":1728918552,"current_range_meters":36400,"station_id":"ce4bhip2rcd13ifvqft0","pricing_plan_id":"cebpf4jnsgd1na2vs0mg"},{"bike_id":"c2d6564b-1001-44b1-bbf6-3b3a60ee4119","system_id":"levelo_inurba_marseille","lat":43.3204,"lon":5.41553,"is_reserved":false,"is_disabled":false,"rental_uris":{"android":"levelo://app?vid=c2d6564b-1001-44b1-bbf6-3b3a60ee4119","ios":"levelo://app?vid=c2d6564b-1001-44b1-bbf6-3b3a60ee4119"},"vehicle_type_id":"4","last_reported":1728918552,"current_range_meters":35200,"station_id":"ce4bhq92rcd13ifvqhkg","pricing_plan_id":"cebpf4jnsgd1na2vs0mg"},{"bike_id":"1c9343e4-7b78-402e-b1fe-6599c269887e","system_id":"levelo_inurba_marseille","lat":43.314515,"lon":5.37384,"is_reserved":false,"is_disabled":false,"rental_uris":{"android":"levelo://app?vid=1c9343e4-7b78-402e-b1fe-6599c269887e","ios":"levelo://app?vid=1c9343e4-7b78-402e-b1fe-6599c269887e"},"vehicle_type_id":"4","last_reported":1728918552,"current_range_meters":27600,"station_id":"","pricing_plan_id":"cebpf4jnsgd1na2vs0mg"},{"bike_id":"bd33998d-4a02-48bd-b709-922bb0f8030c","system_id":"levelo_inurba_marseille","lat":43.301727,"lon":5.39794,"is_reserved":false,"is_disabled":false,"rental_uris":{"android":"levelo://app?vid=bd33998d-4a02-48bd-b709-922bb0f8030c","ios":"levelo://app?vid=bd33998d-4a02-48bd-b709-922bb0f8030c"},"vehicle_type_id":"4","last_reported":1728918552,"current_range_meters":19200,"station_id":"ce4bh0h2rcd13ifvqd40","pricing_plan_id":"cebpf4jnsgd1na2vs0mg"},{"bike_id":"7fa2cdb2-f6bb-4d29-9011-9528209a8569","system_id":"levelo_inurba_marseille","lat":43.29977,"lon":5.37174,"is_reserved":false,"is_disabled":false,"rental_uris":{"android":"levelo://app?vid=7fa2cdb2-f6bb-4d29-9011-9528209a8569","ios":"levelo://app?vid=7fa2cdb2-f6bb-4d29-9011-9528209a8569"},"vehicle_type_id":"4","last_reported":1728918552,"current_range_meters":39200,"station_id":"ce4bgr92rcd13ifvqc7g","pricing_plan_id":"cebpf4jnsgd1na2vs0mg"},{"bike_id":"05c13f11-cb7a-454d-9399-b9513c3e5949","system_id":"levelo_inurba_marseille","lat":43.28149,"lon":5.42647,"is_reserved":false,"is_disabled":false,"rental_uris":{"android":"levelo://app?vid=05c13f11-cb7a-454d-9399-b9513c3e5949","ios":"levelo://app?vid=05c13f11-cb7a-454d-9399-b9513c3e5949"},"vehicle_type_id":"4","last_reported":1728918552,"current_range_meters":22800,"station_id":"ce4bhnh2rcd13ifvqgug","pricing_plan_id":"cebpf4jnsgd1na2vs0mg"},{"bike_id":"d14b522c-3b35-422a-83cc-8f864ffef6d0","system_id":"levelo_inurba_marseille","lat":43.31165,"lon":5.38726,"is_reserved":false,"is_disabled":false,"rental_uris":{"android":"levelo://app?vid=d14b522c-3b35-422a-83cc-8f864ffef6d0","ios":"levelo://app?vid=d14b522c-3b35-422a-83cc-8f864ffef6d0"},"vehicle_type_id":"4","last_reported":1728918552,"current_range_meters":8000,"station_id":"ce4bgv12rcd13ifvqcp0","pricing_plan_id":"cebpf4jnsgd1na2vs0mg"},{"bike_id":"806d9ba2-6c48-471a-88fe-c43006149b93","system_id":"levelo_inurba_marseille","lat":43.286133,"lon":5.370653,"is_reserved":false,"is_disabled":false,"rental_uris":{"android":"levelo://app?vid=806d9ba2-6c48-471a-88fe-c43006149b93","ios":"levelo://app?vid=806d9ba2-6c48-471a-88fe-c43006149b93"},"vehicle_type_id":"4","last_reported":1728918552,"current_range_meters":38400,"station_id":"ce4bgjh2rcd13ifvqbf0","pricing_plan_id":"cebpf4jnsgd1na2vs0mg"},{"bike_id":"ec53d29e-2f85-4a3c-88ee-8b43ae482eb7","system_id":"levelo_inurba_marseille","lat":43.27171,"lon":5.40992,"is_reserved":false,"is_disabled":false,"rental_uris":{"android":"levelo://app?vid=ec53d29e-2f85-4a3c-88ee-8b43ae482eb7","ios":"levelo://app?vid=ec53d29e-2f85-4a3c-88ee-8b43ae482eb7"},"vehicle_type_id":"4","last_reported":1728918552,"current_range_meters":20400,"station_id":"ce4bhl12rcd13ifvqgf0","pricing_plan_id":"cebpf4jnsgd1na2vs0mg"},{"bike_id":"5fe20323-0016-4ce7-9d5f-2acc9cf04e86","system_id":"levelo_inurba_marseille","lat":43.31726,"lon":5.37133,"is_reserved":false,"is_disabled":false,"rental_uris":{"android":"levelo://app?vid=5fe20323-0016-4ce7-9d5f-2acc9cf04e86","ios":"levelo://app?vid=5fe20323-0016-4ce7-9d5f-2acc9cf04e86"},"vehicle_type_id":"4","last_reported":1728918552,"current_range_meters":22000,"station_id":"","pricing_plan_id":"cebpf4jnsgd1na2vs0mg"},{"bike_id":"969cfeb2-178b-4d82-8b59-635595546a6c","system_id":"levelo_inurba_marseille","lat":43.28998,"lon":5.3561,"is_reserved":false,"is_disabled":false,"rental_uris":{"android":"levelo://app?vid=969cfeb2-178b-4d82-8b59-635595546a6c","ios":"levelo://app?vid=969cfeb2-178b-4d82-8b59-635595546a6c"},"vehicle_type_id":"4","last_reported":1728918552,"current_range_meters":38800,"station_id":"","pricing_plan_id":"cebpf4jnsgd1na2vs0mg"},{"bike_id":"388893d9-9361-4dae-a8f1-e319b85b80f6","system_id":"levelo_inurba_marseille","lat":43.31211,"lon":5.41817,"is_reserved":false,"is_disabled":false,"rental_uris":{"android":"levelo://app?vid=388893d9-9361-4dae-a8f1-e319b85b80f6","ios":"levelo://app?vid=388893d9-9361-4dae-a8f1-e319b85b80f6"},"vehicle_type_id":"4","last_reported":1728918552,"current_range_meters":36800,"station_id":"","pricing_plan_id":"cebpf4jnsgd1na2vs0mg"},{"bike_id":"e03ba84a-3d9d-4a89-bb53-bc9289f0ee4a","system_id":"levelo_inurba_marseille","lat":43.26553,"lon":5.37291,"is_reserved":false,"is_disabled":false,"rental_uris":{"android":"levelo://app?vid=e03ba84a-3d9d-4a89-bb53-bc9289f0ee4a","ios":"levelo://app?vid=e03ba84a-3d9d-4a89-bb53-bc9289f0ee4a"},"vehicle_type_id":"4","last_reported":1728918552,"current_range_meters":27200,"station_id":"ce4bhg12rcd13ifvqf70","pricing_plan_id":"cebpf4jnsgd1na2vs0mg"},{"bike_id":"7fb62f98-132e-43d0-99de-89a7860d9014","system_id":"levelo_inurba_marseille","lat":43.30538,"lon":5.36556,"is_reserved":false,"is_disabled":false,"rental_uris":{"android":"levelo://app?vid=7fb62f98-132e-43d0-99de-89a7860d9014","ios":"levelo://app?vid=7fb62f98-132e-43d0-99de-89a7860d9014"},"vehicle_type_id":"4","last_reported":1728918552,"current_range_meters":28000,"station_id":"ce4bgs12rcd13ifvqcag","pricing_plan_id":"cebpf4jnsgd1na2vs0mg"},{"bike_id":"c355a965-9dd0-4b07-b983-3618ea069bbb","system_id":"levelo_inurba_marseille","lat":43.24388,"lon":5.37052,"is_reserved":false,"is_disabled":false,"rental_uris":{"android":"levelo://app?vid=c355a965-9dd0-4b07-b983-3618ea069bbb","ios":"levelo://app?vid=c355a965-9dd0-4b07-b983-3618ea069bbb"},"vehicle_type_id":"4","last_reported":1728918552,"current_range_meters":28400,"station_id":"ce4bhhh2rcd13ifvqfk0","pricing_plan_id":"cebpf4jnsgd1na2vs0mg"},{"bike_id":"edc73577-7c14-4283-bc0d-0918bfbd27e1","system_id":"levelo_inurba_marseille","lat":43.281567,"lon":5.426455,"is_reserved":false,"is_disabled":false,"rental_uris":{"android":"levelo://app?vid=edc73577-7c14-4283-bc0d-0918bfbd27e1","ios":"levelo://app?vid=edc73577-7c14-4283-bc0d-0918bfbd27e1"},"vehicle_type_id":"4","last_reported":1728918552,"current_range_meters":8400,"station_id":"ce4bhnh2rcd13ifvqgug","pricing_plan_id":"cebpf4jnsgd1na2vs0mg"},{"bike_id":"d74f15f0-82da-40c1-a93d-cc8378dbde19","system_id":"levelo_inurba_marseille","lat":43.29005,"lon":5.35616,"is_reserved":false,"is_disabled":false,"rental_uris":{"android":"levelo://app?vid=d74f15f0-82da-40c1-a93d-cc8378dbde19","ios":"levelo://app?vid=d74f15f0-82da-40c1-a93d-cc8378dbde19"},"vehicle_type_id":"4","last_reported":1728918552,"current_range_meters":38800,"station_id":"ce4bhb92rcd13ifvqen0","pricing_plan_id":"cebpf4jnsgd1na2vs0mg"},{"bike_id":"7969a43c-81ad-4c19-8312-a2d30eba253b","system_id":"levelo_inurba_marseille","lat":43.30327,"lon":5.4044,"is_reserved":false,"is_disabled":false,"rental_uris":{"android":"levelo://app?vid=7969a43c-81ad-4c19-8312-a2d30eba253b","ios":"levelo://app?vid=7969a43c-81ad-4c19-8312-a2d30eba253b"},"vehicle_type_id":"4","last_reported":1728918552,"current_range_meters":8800,"station_id":"ce4bh012rcd13ifvqd10","pricing_plan_id":"cebpf4jnsgd1na2vs0mg"},{"bike_id":"51a43f96-867e-4ab9-8ec5-999842e38d95","system_id":"levelo_inurba_marseille","lat":43.31071,"lon":5.40092,"is_reserved":false,"is_disabled":false,"rental_uris":{"android":"levelo://app?vid=51a43f96-867e-4ab9-8ec5-999842e38d95","ios":"levelo://app?vid=51a43f96-867e-4ab9-8ec5-999842e38d95"},"vehicle_type_id":"4","last_reported":1728918552,"current_range_meters":25200,"station_id":"","pricing_plan_id":"cebpf4jnsgd1na2vs0mg"},{"bike_id":"28c25997-a908-4469-8de5-2fe4b7cd4284","system_id":"levelo_inurba_marseille","lat":43.32545,"lon":5.414129,"is_reserved":false,"is_disabled":false,"rental_uris":{"android":"levelo://app?vid=28c25997-a908-4469-8de5-2fe4b7cd4284","ios":"levelo://app?vid=28c25997-a908-4469-8de5-2fe4b7cd4284"},"vehicle_type_id":"4","last_reported":1728918552,"current_range_meters":19200,"station_id":"ce4bhq12rcd13ifvqhhg","pricing_plan_id":"cebpf4jnsgd1na2vs0mg"},{"bike_id":"22a96efd-39c4-4912-a6a0-80515b1ce0d5","system_id":"levelo_inurba_marseille","lat":43.27562,"lon":5.38423,"is_reserved":false,"is_disabled":false,"rental_uris":{"android":"levelo://app?vid=22a96efd-39c4-4912-a6a0-80515b1ce0d5","ios":"levelo://app?vid=22a96efd-39c4-4912-a6a0-80515b1ce0d5"},"vehicle_type_id":"4","last_reported":1728918552,"current_range_meters":22400,"station_id":"ce4bhh92rcd13ifvqfi0","pricing_plan_id":"cebpf4jnsgd1na2vs0mg"},{"bike_id":"09a2e575-ef21-47f1-afdd-66b4617de5a0","system_id":"levelo_inurba_marseille","lat":43.28081,"lon":5.39657,"is_reserved":false,"is_disabled":false,"rental_uris":{"android":"levelo://app?vid=09a2e575-ef21-47f1-afdd-66b4617de5a0","ios":"levelo://app?vid=09a2e575-ef21-47f1-afdd-66b4617de5a0"},"vehicle_type_id":"4","last_reported":1728918552,"current_range_meters":38800,"station_id":"ce4bho12rcd13ifvqh2g","pricing_plan_id":"cebpf4jnsgd1na2vs0mg"},{"bike_id":"f8c1a6ac-71aa-43fa-b711-f19f38e8f57c","system_id":"levelo_inurba_marseille","lat":43.28036,"lon":5.36947,"is_reserved":false,"is_disabled":false,"rental_uris":{"android":"levelo://app?vid=f8c1a6ac-71aa-43fa-b711-f19f38e8f57c","ios":"levelo://app?vid=f8c1a6ac-71aa-43fa-b711-f19f38e8f57c"},"vehicle_type_id":"4","last_reported":1728918552,"current_range_meters":34000,"station_id":"ce4bha12rcd13ifvqef0","pricing_plan_id":"cebpf4jnsgd1na2vs0mg"},{"bike_id":"4482dbd3-0d31-4b43-bbd3-5cfbb130291d","system_id":"levelo_inurba_marseille","lat":43.23187,"lon":5.35543,"is_reserved":false,"is_disabled":false,"rental_uris":{"android":"levelo://app?vid=4482dbd3-0d31-4b43-bbd3-5cfbb130291d","ios":"levelo://app?vid=4482dbd3-0d31-4b43-bbd3-5cfbb130291d"},"vehicle_type_id":"4","last_reported":1728918552,"current_range_meters":4800,"station_id":"ce4bhu92rcd13ifvqi70","pricing_plan_id":"cebpf4jnsgd1na2vs0mg"},{"bike_id":"1569050f-6e3b-42e1-abc9-64a075a94db8","system_id":"levelo_inurba_marseille","lat":43.31077,"lon":5.38364,"is_reserved":false,"is_disabled":false,"rental_uris":{"android":"levelo://app?vid=1569050f-6e3b-42e1-abc9-64a075a94db8","ios":"levelo://app?vid=1569050f-6e3b-42e1-abc9-64a075a94db8"},"vehicle_type_id":"4","last_reported":1728918552,"current_range_meters":25200,"station_id":"ce4bgv92rcd13ifvqcr0","pricing_plan_id":"cebpf4jnsgd1na2vs0mg"},{"bike_id":"87c93df4-6f1e-4822-a9da-35893dd1d59a","system_id":"levelo_inurba_marseille","lat":43.31375,"lon":5.38518,"is_reserved":false,"is_disabled":false,"rental_uris":{"android":"levelo://app?vid=87c93df4-6f1e-4822-a9da-35893dd1d59a","ios":"levelo://app?vid=87c93df4-6f1e-4822-a9da-35893dd1d59a"},"vehicle_type_id":"4","last_reported":1728918552,"current_range_meters":9600,"station_id":"ce4bgt92rcd13ifvqcf0","pricing_plan_id":"cebpf4jnsgd1na2vs0mg"},{"bike_id":"8efbdcb5-3d94-48e5-a40d-5fd189f8afd4","system_id":"levelo_inurba_marseille","lat":43.29259,"lon":5.40902,"is_reserved":false,"is_disabled":false,"rental_uris":{"android":"levelo://app?vid=8efbdcb5-3d94-48e5-a40d-5fd189f8afd4","ios":"levelo://app?vid=8efbdcb5-3d94-48e5-a40d-5fd189f8afd4"},"vehicle_type_id":"4","last_reported":1728918552,"current_range_meters":6800,"station_id":"ce4bh192rcd13ifvqdc0","pricing_plan_id":"cebpf4jnsgd1na2vs0mg"},{"bike_id":"77674291-f315-4e56-96c3-09e6ce827a81","system_id":"levelo_inurba_marseille","lat":43.27969,"lon":5.38725,"is_reserved":false,"is_disabled":false,"rental_uris":{"android":"levelo://app?vid=77674291-f315-4e56-96c3-09e6ce827a81","ios":"levelo://app?vid=77674291-f315-4e56-96c3-09e6ce827a81"},"vehicle_type_id":"4","last_reported":1728918552,"current_range_meters":36000,"station_id":"ce4bhg12rcd13ifvqf80","pricing_plan_id":"cebpf4jnsgd1na2vs0mg"},{"bike_id":"85b6bd43-4cad-4119-a205-5538c3069ff3","system_id":"levelo_inurba_marseille","lat":43.30591,"lon":5.39363,"is_reserved":false,"is_disabled":false,"rental_uris":{"android":"levelo://app?vid=85b6bd43-4cad-4119-a205-5538c3069ff3","ios":"levelo://app?vid=85b6bd43-4cad-4119-a205-5538c3069ff3"},"vehicle_type_id":"4","last_reported":1728918552,"current_range_meters":38800,"station_id":"ce4bh0p2rcd13ifvqd80","pricing_plan_id":"cebpf4jnsgd1na2vs0mg"},{"bike_id":"b178b062-35cd-4f92-91db-f4ae171fe0ea","system_id":"levelo_inurba_marseille","lat":43.292851,"lon":5.368404,"is_reserved":false,"is_disabled":false,"rental_uris":{"android":"levelo://app?vid=b178b062-35cd-4f92-91db-f4ae171fe0ea","ios":"levelo://app?vid=b178b062-35cd-4f92-91db-f4ae171fe0ea"},"vehicle_type_id":"4","last_reported":1728918552,"current_range_meters":14400,"station_id":"","pricing_plan_id":"cebpf4jnsgd1na2vs0mg"},{"bike_id":"63346ca8-47d7-49c0-b506-a43ebef1174f","system_id":"levelo_inurba_marseille","lat":43.29031,"lon":5.38643,"is_reserved":false,"is_disabled":false,"rental_uris":{"android":"levelo://app?vid=63346ca8-47d7-49c0-b506-a43ebef1174f","ios":"levelo://app?vid=63346ca8-47d7-49c0-b506-a43ebef1174f"},"vehicle_type_id":"4","last_reported":1728918552,"current_range_meters":6800,"station_id":"ce4bh4p2rcd13ifvqe0g","pricing_plan_id":"cebpf4jnsgd1na2vs0mg"},{"bike_id":"5ccc40fc-135e-4a46-8e38-1b0157b782fd","system_id":"levelo_inurba_marseille","lat":43.27613,"lon":5.36106,"is_reserved":false,"is_disabled":false,"rental_uris":{"android":"levelo://app?vid=5ccc40fc-135e-4a46-8e38-1b0157b782fd","ios":"levelo://app?vid=5ccc40fc-135e-4a46-8e38-1b0157b782fd"},"vehicle_type_id":"4","last_reported":1728918552,"current_range_meters":27200,"station_id":"ce4bgj92rcd13ifvqbe0","pricing_plan_id":"cebpf4jnsgd1na2vs0mg"},{"bike_id":"b17bd6a0-4c14-4c8c-96d0-fdc1bec84ba5","system_id":"levelo_inurba_marseille","lat":43.31078,"lon":5.38362,"is_reserved":false,"is_disabled":false,"rental_uris":{"android":"levelo://app?vid=b17bd6a0-4c14-4c8c-96d0-fdc1bec84ba5","ios":"levelo://app?vid=b17bd6a0-4c14-4c8c-96d0-fdc1bec84ba5"},"vehicle_type_id":"4","last_reported":1728918552,"current_range_meters":12800,"station_id":"ce4bgv92rcd13ifvqcr0","pricing_plan_id":"cebpf4jnsgd1na2vs0mg"},{"bike_id":"a0004b86-0108-4a59-8420-8474f739e195","system_id":"levelo_inurba_marseille","lat":43.31758,"lon":5.39012,"is_reserved":false,"is_disabled":false,"rental_uris":{"android":"levelo://app?vid=a0004b86-0108-4a59-8420-8474f739e195","ios":"levelo://app?vid=a0004b86-0108-4a59-8420-8474f739e195"},"vehicle_type_id":"4","last_reported":1728918552,"current_range_meters":38800,"station_id":"ce4bhqp2rcd13ifvqhng","pricing_plan_id":"cebpf4jnsgd1na2vs0mg"},{"bike_id":"c0670d96-b06e-446b-a07e-6b5eeebc59d7","system_id":"levelo_inurba_marseille","lat":43.274948,"lon":5.424466,"is_reserved":false,"is_disabled":false,"rental_uris":{"android":"levelo://app?vid=c0670d96-b06e-446b-a07e-6b5eeebc59d7","ios":"levelo://app?vid=c0670d96-b06e-446b-a07e-6b5eeebc59d7"},"vehicle_type_id":"4","last_reported":1728918552,"current_range_meters":16400,"station_id":"ce4bhn92rcd13ifvqgrg","pricing_plan_id":"cebpf4jnsgd1na2vs0mg"},{"bike_id":"cc160756-c5be-47df-8986-85e756db12d6","system_id":"levelo_inurba_marseille","lat":43.29647,"lon":5.37258,"is_reserved":false,"is_disabled":false,"rental_uris":{"android":"levelo://app?vid=cc160756-c5be-47df-8986-85e756db12d6","ios":"levelo://app?vid=cc160756-c5be-47df-8986-85e756db12d6"},"vehicle_type_id":"4","last_reported":1728918552,"current_range_meters":10000,"station_id":"ce4bgk12rcd13ifvqbj0","pricing_plan_id":"cebpf4jnsgd1na2vs0mg"},{"bike_id":"b1565ea8-3034-4c58-a83e-91b9c7e77af1","system_id":"levelo_inurba_marseille","lat":43.30952,"lon":5.3904,"is_reserved":false,"is_disabled":false,"rental_uris":{"android":"levelo://app?vid=b1565ea8-3034-4c58-a83e-91b9c7e77af1","ios":"levelo://app?vid=b1565ea8-3034-4c58-a83e-91b9c7e77af1"},"vehicle_type_id":"4","last_reported":1728918552,"current_range_meters":38800,"station_id":"ce4bgup2rcd13ifvqco0","pricing_plan_id":"cebpf4jnsgd1na2vs0mg"},{"bike_id":"61f4ae0b-dc19-4b1b-9d53-4fe07e8abc83","system_id":"levelo_inurba_marseille","lat":43.3137,"lon":5.38498,"is_reserved":false,"is_disabled":false,"rental_uris":{"android":"levelo://app?vid=61f4ae0b-dc19-4b1b-9d53-4fe07e8abc83","ios":"levelo://app?vid=61f4ae0b-dc19-4b1b-9d53-4fe07e8abc83"},"vehicle_type_id":"4","last_reported":1728918552,"current_range_meters":24000,"station_id":"ce4bgt92rcd13ifvqcf0","pricing_plan_id":"cebpf4jnsgd1na2vs0mg"},{"bike_id":"a0d3d324-fa7e-4417-aee7-85012ecab44e","system_id":"levelo_inurba_marseille","lat":43.34225,"lon":5.44563,"is_reserved":false,"is_disabled":false,"rental_uris":{"android":"levelo://app?vid=a0d3d324-fa7e-4417-aee7-85012ecab44e","ios":"levelo://app?vid=a0d3d324-fa7e-4417-aee7-85012ecab44e"},"vehicle_type_id":"4","last_reported":1728918552,"current_range_meters":27600,"station_id":"","pricing_plan_id":"cebpf4jnsgd1na2vs0mg"},{"bike_id":"b8942f18-7b49-4e82-b9d7-7cb9ae166979","system_id":"levelo_inurba_marseille","lat":43.30027,"lon":5.37187,"is_reserved":false,"is_disabled":false,"rental_uris":{"android":"levelo://app?vid=b8942f18-7b49-4e82-b9d7-7cb9ae166979","ios":"levelo://app?vid=b8942f18-7b49-4e82-b9d7-7cb9ae166979"},"vehicle_type_id":"4","last_reported":1728918552,"current_range_meters":27600,"station_id":"ce4bgr92rcd13ifvqc7g","pricing_plan_id":"cebpf4jnsgd1na2vs0mg"},{"bike_id":"3a0819a5-5607-46ab-8caf-12200453e62c","system_id":"levelo_inurba_marseille","lat":43.26782,"lon":5.39417,"is_reserved":false,"is_disabled":false,"rental_uris":{"android":"levelo://app?vid=3a0819a5-5607-46ab-8caf-12200453e62c","ios":"levelo://app?vid=3a0819a5-5607-46ab-8caf-12200453e62c"},"vehicle_type_id":"4","last_reported":1728918552,"current_range_meters":2800,"station_id":"ce4bhh12rcd13ifvqfg0","pricing_plan_id":"cebpf4jnsgd1na2vs0mg"},{"bike_id":"2b7e1507-3293-42c7-b21e-b79470cff341","system_id":"levelo_inurba_marseille","lat":43.231541,"lon":5.436981,"is_reserved":false,"is_disabled":false,"rental_uris":{"android":"levelo://app?vid=2b7e1507-3293-42c7-b21e-b79470cff341","ios":"levelo://app?vid=2b7e1507-3293-42c7-b21e-b79470cff341"},"vehicle_type_id":"4","last_reported":1728918552,"current_range_meters":38400,"station_id":"ce4bhmp2rcd13ifvqgog","pricing_plan_id":"cebpf4jnsgd1na2vs0mg"},{"bike_id":"a1cc2bd7-fd7d-4528-9c24-11b7980b0e59","system_id":"levelo_inurba_marseille","lat":43.29577,"lon":5.36747,"is_reserved":false,"is_disabled":false,"rental_uris":{"android":"levelo://app?vid=a1cc2bd7-fd7d-4528-9c24-11b7980b0e59","ios":"levelo://app?vid=a1cc2bd7-fd7d-4528-9c24-11b7980b0e59"},"vehicle_type_id":"4","last_reported":1728918552,"current_range_meters":11200,"station_id":"ce4bgph2rcd13ifvqc2g","pricing_plan_id":"cebpf4jnsgd1na2vs0mg"},{"bike_id":"3a6440f7-d8d6-444b-bcb5-c18d16425ed6","system_id":"levelo_inurba_marseille","lat":43.32104,"lon":5.36773,"is_reserved":false,"is_disabled":false,"rental_uris":{"android":"levelo://app?vid=3a6440f7-d8d6-444b-bcb5-c18d16425ed6","ios":"levelo://app?vid=3a6440f7-d8d6-444b-bcb5-c18d16425ed6"},"vehicle_type_id":"4","last_reported":1728918552,"current_range_meters":38800,"station_id":"ce4bhrh2rcd13ifvqhug","pricing_plan_id":"cebpf4jnsgd1na2vs0mg"},{"bike_id":"b5148039-176d-4bd1-bc23-0ff97e867e2d","system_id":"levelo_inurba_marseille","lat":43.30148,"lon":5.38081,"is_reserved":false,"is_disabled":false,"rental_uris":{"android":"levelo://app?vid=b5148039-176d-4bd1-bc23-0ff97e867e2d","ios":"levelo://app?vid=b5148039-176d-4bd1-bc23-0ff97e867e2d"},"vehicle_type_id":"4","last_reported":1728918552,"current_range_meters":36400,"station_id":"ce4bgjp2rcd13ifvqbh0","pricing_plan_id":"cebpf4jnsgd1na2vs0mg"},{"bike_id":"4a7e0710-cfb9-43aa-ad33-fe705a2b0901","system_id":"levelo_inurba_marseille","lat":43.27901,"lon":5.38007,"is_reserved":false,"is_disabled":false,"rental_uris":{"android":"levelo://app?vid=4a7e0710-cfb9-43aa-ad33-fe705a2b0901","ios":"levelo://app?vid=4a7e0710-cfb9-43aa-ad33-fe705a2b0901"},"vehicle_type_id":"4","last_reported":1728918552,"current_range_meters":18800,"station_id":"ce4bhf92rcd13ifvqf50","pricing_plan_id":"cebpf4jnsgd1na2vs0mg"},{"bike_id":"b711e072-779a-45e4-baf0-19538092ce33","system_id":"levelo_inurba_marseille","lat":43.29786,"lon":5.39347,"is_reserved":false,"is_disabled":false,"rental_uris":{"android":"levelo://app?vid=b711e072-779a-45e4-baf0-19538092ce33","ios":"levelo://app?vid=b711e072-779a-45e4-baf0-19538092ce33"},"vehicle_type_id":"4","last_reported":1728918552,"current_range_meters":23200,"station_id":"chh1huq6cuj3fo74tm60","pricing_plan_id":"cebpf4jnsgd1na2vs0mg"},{"bike_id":"3afb0681-8fbd-47fe-8917-e12bc3cf488b","system_id":"levelo_inurba_marseille","lat":43.33712,"lon":5.39183,"is_reserved":false,"is_disabled":false,"rental_uris":{"android":"levelo://app?vid=3afb0681-8fbd-47fe-8917-e12bc3cf488b","ios":"levelo://app?vid=3afb0681-8fbd-47fe-8917-e12bc3cf488b"},"vehicle_type_id":"4","last_reported":1728918552,"current_range_meters":39200,"station_id":"ce4bhr92rcd13ifvqhsg","pricing_plan_id":"cebpf4jnsgd1na2vs0mg"},{"bike_id":"025048a1-1d87-4678-a467-42cb27858e40","system_id":"levelo_inurba_marseille","lat":43.30533,"lon":5.367,"is_reserved":false,"is_disabled":false,"rental_uris":{"android":"levelo://app?vid=025048a1-1d87-4678-a467-42cb27858e40","ios":"levelo://app?vid=025048a1-1d87-4678-a467-42cb27858e40"},"vehicle_type_id":"4","last_reported":1728918552,"current_range_meters":38800,"station_id":"ce4bgrp2rcd13ifvqc9g","pricing_plan_id":"cebpf4jnsgd1na2vs0mg"},{"bike_id":"a732941c-85bc-42aa-bd93-04ae552d110c","system_id":"levelo_inurba_marseille","lat":43.30807,"lon":5.43526,"is_reserved":false,"is_disabled":false,"rental_uris":{"android":"levelo://app?vid=a732941c-85bc-42aa-bd93-04ae552d110c","ios":"levelo://app?vid=a732941c-85bc-42aa-bd93-04ae552d110c"},"vehicle_type_id":"4","last_reported":1728918552,"current_range_meters":20000,"station_id":"ce4bhph2rcd13ifvqheg","pricing_plan_id":"cebpf4jnsgd1na2vs0mg"},{"bike_id":"5fbdb7ff-9511-4319-a934-f29602ec250e","system_id":"levelo_inurba_marseille","lat":43.26566,"lon":5.39014,"is_reserved":false,"is_disabled":false,"rental_uris":{"android":"levelo://app?vid=5fbdb7ff-9511-4319-a934-f29602ec250e","ios":"levelo://app?vid=5fbdb7ff-9511-4319-a934-f29602ec250e"},"vehicle_type_id":"4","last_reported":1728918552,"current_range_meters":3200,"station_id":"ce4bhe12rcd13ifvqf30","pricing_plan_id":"cebpf4jnsgd1na2vs0mg"},{"bike_id":"0be38a6e-ac59-4aee-8935-648b4bc649f4","system_id":"levelo_inurba_marseille","lat":43.298553,"lon":5.380861,"is_reserved":false,"is_disabled":false,"rental_uris":{"android":"levelo://app?vid=0be38a6e-ac59-4aee-8935-648b4bc649f4","ios":"levelo://app?vid=0be38a6e-ac59-4aee-8935-648b4bc649f4"},"vehicle_type_id":"4","last_reported":1728918552,"current_range_meters":18800,"station_id":"ce4bh4p2rcd13ifvqe1g","pricing_plan_id":"cebpf4jnsgd1na2vs0mg"},{"bike_id":"9e28eef6-65d5-45f3-949e-f408b00a230d","system_id":"levelo_inurba_marseille","lat":43.29024,"lon":5.38635,"is_reserved":false,"is_disabled":false,"rental_uris":{"android":"levelo://app?vid=9e28eef6-65d5-45f3-949e-f408b00a230d","ios":"levelo://app?vid=9e28eef6-65d5-45f3-949e-f408b00a230d"},"vehicle_type_id":"4","last_reported":1728918552,"current_range_meters":2800,"station_id":"ce4bh4p2rcd13ifvqe0g","pricing_plan_id":"cebpf4jnsgd1na2vs0mg"},{"bike_id":"0414a6f3-3a4f-43b9-8c1f-b9716e2b2116","system_id":"levelo_inurba_marseille","lat":43.23965,"lon":5.36629,"is_reserved":false,"is_disabled":false,"rental_uris":{"android":"levelo://app?vid=0414a6f3-3a4f-43b9-8c1f-b9716e2b2116","ios":"levelo://app?vid=0414a6f3-3a4f-43b9-8c1f-b9716e2b2116"},"vehicle_type_id":"4","last_reported":1728918552,"current_range_meters":39200,"station_id":"ce4bhi12rcd13ifvqfp0","pricing_plan_id":"cebpf4jnsgd1na2vs0mg"},{"bike_id":"69865d35-9015-4f0b-ba17-045bf17a9e77","system_id":"levelo_inurba_marseille","lat":43.26054,"lon":5.39387,"is_reserved":false,"is_disabled":false,"rental_uris":{"android":"levelo://app?vid=69865d35-9015-4f0b-ba17-045bf17a9e77","ios":"levelo://app?vid=69865d35-9015-4f0b-ba17-045bf17a9e77"},"vehicle_type_id":"4","last_reported":1728918552,"current_range_meters":23200,"station_id":"ce4bhh92rcd13ifvqfj0","pricing_plan_id":"cebpf4jnsgd1na2vs0mg"},{"bike_id":"a1fe21e4-acad-470b-8572-e8cdc34c704a","system_id":"levelo_inurba_marseille","lat":43.30126,"lon":5.39855,"is_reserved":false,"is_disabled":false,"rental_uris":{"android":"levelo://app?vid=a1fe21e4-acad-470b-8572-e8cdc34c704a","ios":"levelo://app?vid=a1fe21e4-acad-470b-8572-e8cdc34c704a"},"vehicle_type_id":"4","last_reported":1728918552,"current_range_meters":37600,"station_id":"ce4bh0h2rcd13ifvqd40","pricing_plan_id":"cebpf4jnsgd1na2vs0mg"},{"bike_id":"7d866d20-0993-4197-a123-3603884dde18","system_id":"levelo_inurba_marseille","lat":43.30798,"lon":5.3764,"is_reserved":false,"is_disabled":false,"rental_uris":{"android":"levelo://app?vid=7d866d20-0993-4197-a123-3603884dde18","ios":"levelo://app?vid=7d866d20-0993-4197-a123-3603884dde18"},"vehicle_type_id":"4","last_reported":1728918552,"current_range_meters":25200,"station_id":"ce4bgv92rcd13ifvqcq0","pricing_plan_id":"cebpf4jnsgd1na2vs0mg"},{"bike_id":"5d730eac-4f70-46bd-be4f-6c7a36698b9b","system_id":"levelo_inurba_marseille","lat":43.30133,"lon":5.39857,"is_reserved":false,"is_disabled":false,"rental_uris":{"android":"levelo://app?vid=5d730eac-4f70-46bd-be4f-6c7a36698b9b","ios":"levelo://app?vid=5d730eac-4f70-46bd-be4f-6c7a36698b9b"},"vehicle_type_id":"4","last_reported":1728918552,"current_range_meters":27200,"station_id":"ce4bh0h2rcd13ifvqd40","pricing_plan_id":"cebpf4jnsgd1na2vs0mg"},{"bike_id":"962561bf-93c4-4a4e-839f-c4b4f62bd94d","system_id":"levelo_inurba_marseille","lat":43.25858,"lon":5.39906,"is_reserved":false,"is_disabled":false,"rental_uris":{"android":"levelo://app?vid=962561bf-93c4-4a4e-839f-c4b4f62bd94d","ios":"levelo://app?vid=962561bf-93c4-4a4e-839f-c4b4f62bd94d"},"vehicle_type_id":"4","last_reported":1728918552,"current_range_meters":34000,"station_id":"ce4bhl92rcd13ifvqghg","pricing_plan_id":"cebpf4jnsgd1na2vs0mg"},{"bike_id":"b80c714b-6a66-4d5c-832e-bd487c535a72","system_id":"levelo_inurba_marseille","lat":43.31109,"lon":5.38064,"is_reserved":false,"is_disabled":false,"rental_uris":{"android":"levelo://app?vid=b80c714b-6a66-4d5c-832e-bd487c535a72","ios":"levelo://app?vid=b80c714b-6a66-4d5c-832e-bd487c535a72"},"vehicle_type_id":"4","last_reported":1728918552,"current_range_meters":19200,"station_id":"ce4bgt92rcd13ifvqcf0","pricing_plan_id":"cebpf4jnsgd1na2vs0mg"},{"bike_id":"2140b6a3-5118-4150-823e-9225aeb56201","system_id":"levelo_inurba_marseille","lat":43.23193,"lon":5.35549,"is_reserved":false,"is_disabled":false,"rental_uris":{"android":"levelo://app?vid=2140b6a3-5118-4150-823e-9225aeb56201","ios":"levelo://app?vid=2140b6a3-5118-4150-823e-9225aeb56201"},"vehicle_type_id":"4","last_reported":1728918552,"current_range_meters":8400,"station_id":"ce4bhu92rcd13ifvqi70","pricing_plan_id":"cebpf4jnsgd1na2vs0mg"},{"bike_id":"5f1bf830-0ae9-43a7-9ab3-75d7b653f804","system_id":"levelo_inurba_marseille","lat":43.24649,"lon":5.38899,"is_reserved":false,"is_disabled":false,"rental_uris":{"android":"levelo://app?vid=5f1bf830-0ae9-43a7-9ab3-75d7b653f804","ios":"levelo://app?vid=5f1bf830-0ae9-43a7-9ab3-75d7b653f804"},"vehicle_type_id":"4","last_reported":1728918552,"current_range_meters":38800,"station_id":"ce4bhg12rcd13ifvqf60","pricing_plan_id":"cebpf4jnsgd1na2vs0mg"},{"bike_id":"f3ffa9e3-8fd9-4512-81b9-b80cbaf83903","system_id":"levelo_inurba_marseille","lat":43.28151,"lon":5.42637,"is_reserved":false,"is_disabled":false,"rental_uris":{"android":"levelo://app?vid=f3ffa9e3-8fd9-4512-81b9-b80cbaf83903","ios":"levelo://app?vid=f3ffa9e3-8fd9-4512-81b9-b80cbaf83903"},"vehicle_type_id":"4","last_reported":1728918552,"current_range_meters":38000,"station_id":"ce4bhnh2rcd13ifvqgug","pricing_plan_id":"cebpf4jnsgd1na2vs0mg"},{"bike_id":"94e36800-0876-449f-ab73-0d327298c706","system_id":"levelo_inurba_marseille","lat":43.31368,"lon":5.38501,"is_reserved":false,"is_disabled":false,"rental_uris":{"android":"levelo://app?vid=94e36800-0876-449f-ab73-0d327298c706","ios":"levelo://app?vid=94e36800-0876-449f-ab73-0d327298c706"},"vehicle_type_id":"4","last_reported":1728918552,"current_range_meters":23200,"station_id":"ce4bgt92rcd13ifvqcf0","pricing_plan_id":"cebpf4jnsgd1na2vs0mg"},{"bike_id":"b3987c1a-9ce7-4db6-b6d6-a097637e4784","system_id":"levelo_inurba_marseille","lat":43.306398,"lon":5.400872,"is_reserved":false,"is_disabled":false,"rental_uris":{"android":"levelo://app?vid=b3987c1a-9ce7-4db6-b6d6-a097637e4784","ios":"levelo://app?vid=b3987c1a-9ce7-4db6-b6d6-a097637e4784"},"vehicle_type_id":"4","last_reported":1728918552,"current_range_meters":20800,"station_id":"ce4bh112rcd13ifvqda0","pricing_plan_id":"cebpf4jnsgd1na2vs0mg"},{"bike_id":"1c9d7349-98e6-4be7-8259-41b66f126eae","system_id":"levelo_inurba_marseille","lat":43.301822,"lon":5.397509,"is_reserved":false,"is_disabled":false,"rental_uris":{"android":"levelo://app?vid=1c9d7349-98e6-4be7-8259-41b66f126eae","ios":"levelo://app?vid=1c9d7349-98e6-4be7-8259-41b66f126eae"},"vehicle_type_id":"4","last_reported":1728918552,"current_range_meters":37600,"station_id":"ce4bh112rcd13ifvqd90","pricing_plan_id":"cebpf4jnsgd1na2vs0mg"},{"bike_id":"02edf250-0bdc-44d6-9936-04b527fbc30e","system_id":"levelo_inurba_marseille","lat":43.24386,"lon":5.37057,"is_reserved":false,"is_disabled":false,"rental_uris":{"android":"levelo://app?vid=02edf250-0bdc-44d6-9936-04b527fbc30e","ios":"levelo://app?vid=02edf250-0bdc-44d6-9936-04b527fbc30e"},"vehicle_type_id":"4","last_reported":1728918552,"current_range_meters":16000,"station_id":"ce4bhhh2rcd13ifvqfk0","pricing_plan_id":"cebpf4jnsgd1na2vs0mg"},{"bike_id":"3c5994d7-623c-4efb-8bae-370233f87bc7","system_id":"levelo_inurba_marseille","lat":43.28151,"lon":5.42641,"is_reserved":false,"is_disabled":false,"rental_uris":{"android":"levelo://app?vid=3c5994d7-623c-4efb-8bae-370233f87bc7","ios":"levelo://app?vid=3c5994d7-623c-4efb-8bae-370233f87bc7"},"vehicle_type_id":"4","last_reported":1728918552,"current_range_meters":9200,"station_id":"ce4bhnh2rcd13ifvqgug","pricing_plan_id":"cebpf4jnsgd1na2vs0mg"},{"bike_id":"78bdb84b-c1ee-4965-b64e-1cd2c42960aa","system_id":"levelo_inurba_marseille","lat":43.26801,"lon":5.40257,"is_reserved":false,"is_disabled":false,"rental_uris":{"android":"levelo://app?vid=78bdb84b-c1ee-4965-b64e-1cd2c42960aa","ios":"levelo://app?vid=78bdb84b-c1ee-4965-b64e-1cd2c42960aa"},"vehicle_type_id":"4","last_reported":1728918552,"current_range_meters":38000,"station_id":"ce501612rcd8frsf0b60","pricing_plan_id":"cebpf4jnsgd1na2vs0mg"},{"bike_id":"de49afd5-9caa-4fa4-918a-7526806c270b","system_id":"levelo_inurba_marseille","lat":43.29615,"lon":5.37154,"is_reserved":false,"is_disabled":false,"rental_uris":{"android":"levelo://app?vid=de49afd5-9caa-4fa4-918a-7526806c270b","ios":"levelo://app?vid=de49afd5-9caa-4fa4-918a-7526806c270b"},"vehicle_type_id":"4","last_reported":1728918552,"current_range_meters":38800,"station_id":"ce4bgnh2rcd13ifvqc0g","pricing_plan_id":"cebpf4jnsgd1na2vs0mg"},{"bike_id":"02b3b016-9f4d-4077-a6e9-92348c7fce1e","system_id":"levelo_inurba_marseille","lat":43.25112,"lon":5.40321,"is_reserved":false,"is_disabled":false,"rental_uris":{"android":"levelo://app?vid=02b3b016-9f4d-4077-a6e9-92348c7fce1e","ios":"levelo://app?vid=02b3b016-9f4d-4077-a6e9-92348c7fce1e"},"vehicle_type_id":"4","last_reported":1728918552,"current_range_meters":21600,"station_id":"ce4bhlh2rcd13ifvqgig","pricing_plan_id":"cebpf4jnsgd1na2vs0mg"},{"bike_id":"ac208dea-5660-43d5-84dc-3a3fb10e3de4","system_id":"levelo_inurba_marseille","lat":43.27055,"lon":5.40258,"is_reserved":false,"is_disabled":false,"rental_uris":{"android":"levelo://app?vid=ac208dea-5660-43d5-84dc-3a3fb10e3de4","ios":"levelo://app?vid=ac208dea-5660-43d5-84dc-3a3fb10e3de4"},"vehicle_type_id":"4","last_reported":1728918552,"current_range_meters":3600,"station_id":"ce4bhk92rcd13ifvqgc0","pricing_plan_id":"cebpf4jnsgd1na2vs0mg"},{"bike_id":"53dacfe1-b69a-46c1-8c21-5d68f904c4a7","system_id":"levelo_inurba_marseille","lat":43.29788,"lon":5.38111,"is_reserved":false,"is_disabled":false,"rental_uris":{"android":"levelo://app?vid=53dacfe1-b69a-46c1-8c21-5d68f904c4a7","ios":"levelo://app?vid=53dacfe1-b69a-46c1-8c21-5d68f904c4a7"},"vehicle_type_id":"4","last_reported":1728918552,"current_range_meters":37600,"station_id":"ce4bgip2rcd13ifvqbb0","pricing_plan_id":"cebpf4jnsgd1na2vs0mg"},{"bike_id":"9d75486b-6c9c-4d0c-b323-433629e49b0b","system_id":"levelo_inurba_marseille","lat":43.30542,"lon":5.36532,"is_reserved":false,"is_disabled":false,"rental_uris":{"android":"levelo://app?vid=9d75486b-6c9c-4d0c-b323-433629e49b0b","ios":"levelo://app?vid=9d75486b-6c9c-4d0c-b323-433629e49b0b"},"vehicle_type_id":"4","last_reported":1728918552,"current_range_meters":18000,"station_id":"ce4bgs12rcd13ifvqcag","pricing_plan_id":"cebpf4jnsgd1na2vs0mg"},{"bike_id":"cc195f2d-b632-4aa4-bf03-ed6157cf03a2","system_id":"levelo_inurba_marseille","lat":43.24383,"lon":5.37055,"is_reserved":false,"is_disabled":false,"rental_uris":{"android":"levelo://app?vid=cc195f2d-b632-4aa4-bf03-ed6157cf03a2","ios":"levelo://app?vid=cc195f2d-b632-4aa4-bf03-ed6157cf03a2"},"vehicle_type_id":"4","last_reported":1728918552,"current_range_meters":19600,"station_id":"ce4bhhh2rcd13ifvqfk0","pricing_plan_id":"cebpf4jnsgd1na2vs0mg"},{"bike_id":"e01e41b6-906b-4d38-bd47-8409331ef9cb","system_id":"levelo_inurba_marseille","lat":43.24166,"lon":5.3639,"is_reserved":false,"is_disabled":false,"rental_uris":{"android":"levelo://app?vid=e01e41b6-906b-4d38-bd47-8409331ef9cb","ios":"levelo://app?vid=e01e41b6-906b-4d38-bd47-8409331ef9cb"},"vehicle_type_id":"4","last_reported":1728918552,"current_range_meters":37600,"station_id":"cpo36qri1sfpv3e86is0","pricing_plan_id":"cebpf4jnsgd1na2vs0mg"},{"bike_id":"5fa385c9-31dc-4a25-97be-ac88aa734055","system_id":"levelo_inurba_marseille","lat":43.33022,"lon":5.39053,"is_reserved":false,"is_disabled":false,"rental_uris":{"android":"levelo://app?vid=5fa385c9-31dc-4a25-97be-ac88aa734055","ios":"levelo://app?vid=5fa385c9-31dc-4a25-97be-ac88aa734055"},"vehicle_type_id":"4","last_reported":1728918552,"current_range_meters":23200,"station_id":"ce4bhr92rcd13ifvqhrg","pricing_plan_id":"cebpf4jnsgd1na2vs0mg"},{"bike_id":"89211ee2-076f-4df3-92bd-cd8885f2e76d","system_id":"levelo_inurba_marseille","lat":43.23191,"lon":5.35557,"is_reserved":false,"is_disabled":false,"rental_uris":{"android":"levelo://app?vid=89211ee2-076f-4df3-92bd-cd8885f2e76d","ios":"levelo://app?vid=89211ee2-076f-4df3-92bd-cd8885f2e76d"},"vehicle_type_id":"4","last_reported":1728918552,"current_range_meters":38800,"station_id":"ce4bhu92rcd13ifvqi70","pricing_plan_id":"cebpf4jnsgd1na2vs0mg"},{"bike_id":"641bd591-9396-4ace-b31a-b42a0633f3fd","system_id":"levelo_inurba_marseille","lat":43.293642,"lon":5.378526,"is_reserved":false,"is_disabled":false,"rental_uris":{"android":"levelo://app?vid=641bd591-9396-4ace-b31a-b42a0633f3fd","ios":"levelo://app?vid=641bd591-9396-4ace-b31a-b42a0633f3fd"},"vehicle_type_id":"4","last_reported":1728918552,"current_range_meters":14800,"station_id":"ce4bgjh2rcd13ifvqbf0","pricing_plan_id":"cebpf4jnsgd1na2vs0mg"},{"bike_id":"6f108c79-169f-46fd-b08b-6b93e5050ee6","system_id":"levelo_inurba_marseille","lat":43.33725,"lon":5.39192,"is_reserved":false,"is_disabled":false,"rental_uris":{"android":"levelo://app?vid=6f108c79-169f-46fd-b08b-6b93e5050ee6","ios":"levelo://app?vid=6f108c79-169f-46fd-b08b-6b93e5050ee6"},"vehicle_type_id":"4","last_reported":1728918552,"current_range_meters":10000,"station_id":"ce4bhr92rcd13ifvqhsg","pricing_plan_id":"cebpf4jnsgd1na2vs0mg"},{"bike_id":"d68733c8-f5f8-4fde-8610-896ed5a57c82","system_id":"levelo_inurba_marseille","lat":43.30615,"lon":5.37227,"is_reserved":false,"is_disabled":false,"rental_uris":{"android":"levelo://app?vid=d68733c8-f5f8-4fde-8610-896ed5a57c82","ios":"levelo://app?vid=d68733c8-f5f8-4fde-8610-896ed5a57c82"},"vehicle_type_id":"4","last_reported":1728918552,"current_range_meters":30000,"station_id":"ce4bgqh2rcd13ifvqc4g","pricing_plan_id":"cebpf4jnsgd1na2vs0mg"},{"bike_id":"4401e9fe-8fae-4df0-be02-0119e3aeedbd","system_id":"levelo_inurba_marseille","lat":43.33761,"lon":5.37434,"is_reserved":false,"is_disabled":false,"rental_uris":{"android":"levelo://app?vid=4401e9fe-8fae-4df0-be02-0119e3aeedbd","ios":"levelo://app?vid=4401e9fe-8fae-4df0-be02-0119e3aeedbd"},"vehicle_type_id":"4","last_reported":1728918552,"current_range_meters":36400,"station_id":"","pricing_plan_id":"cebpf4jnsgd1na2vs0mg"},{"bike_id":"5dbd183c-e763-4b37-9443-a3c81b347de2","system_id":"levelo_inurba_marseille","lat":43.2466,"lon":5.38167,"is_reserved":false,"is_disabled":false,"rental_uris":{"android":"levelo://app?vid=5dbd183c-e763-4b37-9443-a3c81b347de2","ios":"levelo://app?vid=5dbd183c-e763-4b37-9443-a3c81b347de2"},"vehicle_type_id":"4","last_reported":1728918552,"current_range_meters":22800,"station_id":"ce4bhih2rcd13ifvqfr0","pricing_plan_id":"cebpf4jnsgd1na2vs0mg"},{"bike_id":"1ffa878e-7475-4e16-bedf-e1edad73f932","system_id":"levelo_inurba_marseille","lat":43.26801,"lon":5.40275,"is_reserved":false,"is_disabled":false,"rental_uris":{"android":"levelo://app?vid=1ffa878e-7475-4e16-bedf-e1edad73f932","ios":"levelo://app?vid=1ffa878e-7475-4e16-bedf-e1edad73f932"},"vehicle_type_id":"4","last_reported":1728918552,"current_range_meters":26000,"station_id":"ce501612rcd8frsf0b60","pricing_plan_id":"cebpf4jnsgd1na2vs0mg"},{"bike_id":"f27ba196-d4ef-40da-9138-25921896dd9f","system_id":"levelo_inurba_marseille","lat":43.30541,"lon":5.36561,"is_reserved":false,"is_disabled":false,"rental_uris":{"android":"levelo://app?vid=f27ba196-d4ef-40da-9138-25921896dd9f","ios":"levelo://app?vid=f27ba196-d4ef-40da-9138-25921896dd9f"},"vehicle_type_id":"4","last_reported":1728918552,"current_range_meters":24400,"station_id":"ce4bgs12rcd13ifvqcag","pricing_plan_id":"cebpf4jnsgd1na2vs0mg"},{"bike_id":"f86c0e4c-e675-4813-89ef-9c087542fa2b","system_id":"levelo_inurba_marseille","lat":43.28458,"lon":5.35883,"is_reserved":false,"is_disabled":false,"rental_uris":{"android":"levelo://app?vid=f86c0e4c-e675-4813-89ef-9c087542fa2b","ios":"levelo://app?vid=f86c0e4c-e675-4813-89ef-9c087542fa2b"},"vehicle_type_id":"4","last_reported":1728918552,"current_range_meters":6400,"station_id":"ce4bhah2rcd13ifvqei0","pricing_plan_id":"cebpf4jnsgd1na2vs0mg"},{"bike_id":"0a0a05c1-5515-4cb3-8960-ce6d5782267b","system_id":"levelo_inurba_marseille","lat":43.25867,"lon":5.39899,"is_reserved":false,"is_disabled":false,"rental_uris":{"android":"levelo://app?vid=0a0a05c1-5515-4cb3-8960-ce6d5782267b","ios":"levelo://app?vid=0a0a05c1-5515-4cb3-8960-ce6d5782267b"},"vehicle_type_id":"4","last_reported":1728918552,"current_range_meters":13600,"station_id":"ce4bhl92rcd13ifvqghg","pricing_plan_id":"cebpf4jnsgd1na2vs0mg"},{"bike_id":"3cb8022b-1caa-4a45-92ef-bfb43910ef47","system_id":"levelo_inurba_marseille","lat":43.27912,"lon":5.39585,"is_reserved":false,"is_disabled":false,"rental_uris":{"android":"levelo://app?vid=3cb8022b-1caa-4a45-92ef-bfb43910ef47","ios":"levelo://app?vid=3cb8022b-1caa-4a45-92ef-bfb43910ef47"},"vehicle_type_id":"4","last_reported":1728918552,"current_range_meters":22800,"station_id":"ce4bhf92rcd13ifvqf40","pricing_plan_id":"cebpf4jnsgd1na2vs0mg"},{"bike_id":"4ad45ef8-afc9-41d6-9994-9efa1b6cd170","system_id":"levelo_inurba_marseille","lat":43.29026,"lon":5.38142,"is_reserved":false,"is_disabled":false,"rental_uris":{"android":"levelo://app?vid=4ad45ef8-afc9-41d6-9994-9efa1b6cd170","ios":"levelo://app?vid=4ad45ef8-afc9-41d6-9994-9efa1b6cd170"},"vehicle_type_id":"4","last_reported":1728918552,"current_range_meters":4000,"station_id":"ce4bh4p2rcd13ifvqe1g","pricing_plan_id":"cebpf4jnsgd1na2vs0mg"},{"bike_id":"176a7a39-6d04-4fe2-b6fd-3ae9686d8ffb","system_id":"levelo_inurba_marseille","lat":43.26054,"lon":5.39387,"is_reserved":false,"is_disabled":false,"rental_uris":{"android":"levelo://app?vid=176a7a39-6d04-4fe2-b6fd-3ae9686d8ffb","ios":"levelo://app?vid=176a7a39-6d04-4fe2-b6fd-3ae9686d8ffb"},"vehicle_type_id":"4","last_reported":1728918552,"current_range_meters":39200,"station_id":"ce4bhh92rcd13ifvqfj0","pricing_plan_id":"cebpf4jnsgd1na2vs0mg"},{"bike_id":"d0ec2960-1685-4144-8de4-162ef81ffa1d","system_id":"levelo_inurba_marseille","lat":43.32102,"lon":5.36777,"is_reserved":false,"is_disabled":false,"rental_uris":{"android":"levelo://app?vid=d0ec2960-1685-4144-8de4-162ef81ffa1d","ios":"levelo://app?vid=d0ec2960-1685-4144-8de4-162ef81ffa1d"},"vehicle_type_id":"4","last_reported":1728918552,"current_range_meters":24400,"station_id":"ce4bhrh2rcd13ifvqhug","pricing_plan_id":"cebpf4jnsgd1na2vs0mg"},{"bike_id":"80f7ba2d-11fb-4206-a4bd-ac8e3a30bc2d","system_id":"levelo_inurba_marseille","lat":43.25866,"lon":5.39903,"is_reserved":false,"is_disabled":false,"rental_uris":{"android":"levelo://app?vid=80f7ba2d-11fb-4206-a4bd-ac8e3a30bc2d","ios":"levelo://app?vid=80f7ba2d-11fb-4206-a4bd-ac8e3a30bc2d"},"vehicle_type_id":"4","last_reported":1728918552,"current_range_meters":2800,"station_id":"ce4bhl92rcd13ifvqghg","pricing_plan_id":"cebpf4jnsgd1na2vs0mg"},{"bike_id":"a8ebe246-94bc-4a44-bf19-fced97686c33","system_id":"levelo_inurba_marseille","lat":43.28668,"lon":5.36357,"is_reserved":false,"is_disabled":false,"rental_uris":{"android":"levelo://app?vid=a8ebe246-94bc-4a44-bf19-fced97686c33","ios":"levelo://app?vid=a8ebe246-94bc-4a44-bf19-fced97686c33"},"vehicle_type_id":"4","last_reported":1728918552,"current_range_meters":22000,"station_id":"ce4bhah2rcd13ifvqej0","pricing_plan_id":"cebpf4jnsgd1na2vs0mg"},{"bike_id":"2bff342b-2151-4b90-b954-feb1d326746b","system_id":"levelo_inurba_marseille","lat":43.29978,"lon":5.37184,"is_reserved":false,"is_disabled":false,"rental_uris":{"android":"levelo://app?vid=2bff342b-2151-4b90-b954-feb1d326746b","ios":"levelo://app?vid=2bff342b-2151-4b90-b954-feb1d326746b"},"vehicle_type_id":"4","last_reported":1728918552,"current_range_meters":37600,"station_id":"ce4bgr92rcd13ifvqc7g","pricing_plan_id":"cebpf4jnsgd1na2vs0mg"},{"bike_id":"ff96eee3-1ac8-4888-9ae7-e4b6cc8154af","system_id":"levelo_inurba_marseille","lat":43.33739,"lon":5.3746,"is_reserved":false,"is_disabled":false,"rental_uris":{"android":"levelo://app?vid=ff96eee3-1ac8-4888-9ae7-e4b6cc8154af","ios":"levelo://app?vid=ff96eee3-1ac8-4888-9ae7-e4b6cc8154af"},"vehicle_type_id":"4","last_reported":1728918552,"current_range_meters":38000,"station_id":"","pricing_plan_id":"cebpf4jnsgd1na2vs0mg"},{"bike_id":"35bba3af-d722-4a26-b8dc-8aae3c1cb02e","system_id":"levelo_inurba_marseille","lat":43.31283,"lon":5.40175,"is_reserved":false,"is_disabled":false,"rental_uris":{"android":"levelo://app?vid=35bba3af-d722-4a26-b8dc-8aae3c1cb02e","ios":"levelo://app?vid=35bba3af-d722-4a26-b8dc-8aae3c1cb02e"},"vehicle_type_id":"4","last_reported":1728918552,"current_range_meters":19200,"station_id":"ce4bh092rcd13ifvqd30","pricing_plan_id":"cebpf4jnsgd1na2vs0mg"},{"bike_id":"5965f5b4-1463-47a3-ac53-dfc31cbe71fe","system_id":"levelo_inurba_marseille","lat":43.30174,"lon":5.36617,"is_reserved":false,"is_disabled":false,"rental_uris":{"android":"levelo://app?vid=5965f5b4-1463-47a3-ac53-dfc31cbe71fe","ios":"levelo://app?vid=5965f5b4-1463-47a3-ac53-dfc31cbe71fe"},"vehicle_type_id":"4","last_reported":1728918552,"current_range_meters":7200,"station_id":"ce4bgrh2rcd13ifvqc8g","pricing_plan_id":"cebpf4jnsgd1na2vs0mg"},{"bike_id":"75a9a6bb-d370-47ba-a632-54d34a3705e3","system_id":"levelo_inurba_marseille","lat":43.28456,"lon":5.35888,"is_reserved":false,"is_disabled":false,"rental_uris":{"android":"levelo://app?vid=75a9a6bb-d370-47ba-a632-54d34a3705e3","ios":"levelo://app?vid=75a9a6bb-d370-47ba-a632-54d34a3705e3"},"vehicle_type_id":"4","last_reported":1728918552,"current_range_meters":26800,"station_id":"ce4bhah2rcd13ifvqei0","pricing_plan_id":"cebpf4jnsgd1na2vs0mg"},{"bike_id":"4e7b8b1b-745d-4a0e-b13c-ab5fe48ef35e","system_id":"levelo_inurba_marseille","lat":43.30138,"lon":5.3806,"is_reserved":false,"is_disabled":false,"rental_uris":{"android":"levelo://app?vid=4e7b8b1b-745d-4a0e-b13c-ab5fe48ef35e","ios":"levelo://app?vid=4e7b8b1b-745d-4a0e-b13c-ab5fe48ef35e"},"vehicle_type_id":"4","last_reported":1728918552,"current_range_meters":31200,"station_id":"ce4bgjp2rcd13ifvqbh0","pricing_plan_id":"cebpf4jnsgd1na2vs0mg"},{"bike_id":"c50c599b-7eb4-4ae0-bc1f-a366e21ec0ac","system_id":"levelo_inurba_marseille","lat":43.33026,"lon":5.3904,"is_reserved":false,"is_disabled":false,"rental_uris":{"android":"levelo://app?vid=c50c599b-7eb4-4ae0-bc1f-a366e21ec0ac","ios":"levelo://app?vid=c50c599b-7eb4-4ae0-bc1f-a366e21ec0ac"},"vehicle_type_id":"4","last_reported":1728918552,"current_range_meters":24800,"station_id":"ce4bhr92rcd13ifvqhrg","pricing_plan_id":"cebpf4jnsgd1na2vs0mg"},{"bike_id":"278c02b7-4370-42b8-a412-5dadb2d73f66","system_id":"levelo_inurba_marseille","lat":43.29417,"lon":5.38623,"is_reserved":false,"is_disabled":false,"rental_uris":{"android":"levelo://app?vid=278c02b7-4370-42b8-a412-5dadb2d73f66","ios":"levelo://app?vid=278c02b7-4370-42b8-a412-5dadb2d73f66"},"vehicle_type_id":"4","last_reported":1728918552,"current_range_meters":12800,"station_id":"ce4bh2h2rcd13ifvqdh0","pricing_plan_id":"cebpf4jnsgd1na2vs0mg"},{"bike_id":"c429f716-c424-4505-91d9-ad1b402524be","system_id":"levelo_inurba_marseille","lat":43.29973,"lon":5.37178,"is_reserved":false,"is_disabled":false,"rental_uris":{"android":"levelo://app?vid=c429f716-c424-4505-91d9-ad1b402524be","ios":"levelo://app?vid=c429f716-c424-4505-91d9-ad1b402524be"},"vehicle_type_id":"4","last_reported":1728918552,"current_range_meters":11600,"station_id":"ce4bgr92rcd13ifvqc7g","pricing_plan_id":"cebpf4jnsgd1na2vs0mg"},{"bike_id":"40bc6735-ca61-48f5-9019-08f286e3a318","system_id":"levelo_inurba_marseille","lat":43.305369,"lon":5.367093,"is_reserved":false,"is_disabled":false,"rental_uris":{"android":"levelo://app?vid=40bc6735-ca61-48f5-9019-08f286e3a318","ios":"levelo://app?vid=40bc6735-ca61-48f5-9019-08f286e3a318"},"vehicle_type_id":"4","last_reported":1728918552,"current_range_meters":38800,"station_id":"ce4bgrp2rcd13ifvqc9g","pricing_plan_id":"cebpf4jnsgd1na2vs0mg"},{"bike_id":"3dad42cb-1a98-40ef-929d-51f38ae86056","system_id":"levelo_inurba_marseille","lat":43.2587,"lon":5.39901,"is_reserved":false,"is_disabled":false,"rental_uris":{"android":"levelo://app?vid=3dad42cb-1a98-40ef-929d-51f38ae86056","ios":"levelo://app?vid=3dad42cb-1a98-40ef-929d-51f38ae86056"},"vehicle_type_id":"4","last_reported":1728918552,"current_range_meters":38800,"station_id":"ce4bhl92rcd13ifvqghg","pricing_plan_id":"cebpf4jnsgd1na2vs0mg"},{"bike_id":"e55ce7e2-8e60-47b5-844e-977029bd08ba","system_id":"levelo_inurba_marseille","lat":43.29553,"lon":5.42276,"is_reserved":false,"is_disabled":false,"rental_uris":{"android":"levelo://app?vid=e55ce7e2-8e60-47b5-844e-977029bd08ba","ios":"levelo://app?vid=e55ce7e2-8e60-47b5-844e-977029bd08ba"},"vehicle_type_id":"4","last_reported":1728918552,"current_range_meters":40000,"station_id":"ce4bhph2rcd13ifvqhdg","pricing_plan_id":"cebpf4jnsgd1na2vs0mg"},{"bike_id":"0b4fd938-0ddc-4750-b5e2-c1fff0592639","system_id":"levelo_inurba_marseille","lat":43.30249,"lon":5.4007,"is_reserved":false,"is_disabled":false,"rental_uris":{"android":"levelo://app?vid=0b4fd938-0ddc-4750-b5e2-c1fff0592639","ios":"levelo://app?vid=0b4fd938-0ddc-4750-b5e2-c1fff0592639"},"vehicle_type_id":"4","last_reported":1728918552,"current_range_meters":16000,"station_id":"ce4bgvh2rcd13ifvqcs0","pricing_plan_id":"cebpf4jnsgd1na2vs0mg"},{"bike_id":"292b9425-1372-40d4-bf0a-fe57aa779a41","system_id":"levelo_inurba_marseille","lat":43.23058,"lon":5.35495,"is_reserved":false,"is_disabled":false,"rental_uris":{"android":"levelo://app?vid=292b9425-1372-40d4-bf0a-fe57aa779a41","ios":"levelo://app?vid=292b9425-1372-40d4-bf0a-fe57aa779a41"},"vehicle_type_id":"4","last_reported":1728918552,"current_range_meters":37600,"station_id":"cpo3342slgdg3j2ifvpg","pricing_plan_id":"cebpf4jnsgd1na2vs0mg"},{"bike_id":"4652adcd-edb9-4b33-ba5a-9a2d4d51b951","system_id":"levelo_inurba_marseille","lat":43.27916,"lon":5.39574,"is_reserved":false,"is_disabled":false,"rental_uris":{"android":"levelo://app?vid=4652adcd-edb9-4b33-ba5a-9a2d4d51b951","ios":"levelo://app?vid=4652adcd-edb9-4b33-ba5a-9a2d4d51b951"},"vehicle_type_id":"4","last_reported":1728918552,"current_range_meters":4000,"station_id":"ce4bhf92rcd13ifvqf40","pricing_plan_id":"cebpf4jnsgd1na2vs0mg"},{"bike_id":"32d879ff-a437-4861-a643-53704f037232","system_id":"levelo_inurba_marseille","lat":43.29578,"lon":5.36745,"is_reserved":false,"is_disabled":false,"rental_uris":{"android":"levelo://app?vid=32d879ff-a437-4861-a643-53704f037232","ios":"levelo://app?vid=32d879ff-a437-4861-a643-53704f037232"},"vehicle_type_id":"4","last_reported":1728918552,"current_range_meters":28000,"station_id":"ce4bgph2rcd13ifvqc2g","pricing_plan_id":"cebpf4jnsgd1na2vs0mg"},{"bike_id":"319db2db-70a0-4432-b12c-db6bad30cafc","system_id":"levelo_inurba_marseille","lat":43.29849,"lon":5.36284,"is_reserved":false,"is_disabled":false,"rental_uris":{"android":"levelo://app?vid=319db2db-70a0-4432-b12c-db6bad30cafc","ios":"levelo://app?vid=319db2db-70a0-4432-b12c-db6bad30cafc"},"vehicle_type_id":"4","last_reported":1728918552,"current_range_meters":31200,"station_id":"ce4bgpp2rcd13ifvqc3g","pricing_plan_id":"cebpf4jnsgd1na2vs0mg"},{"bike_id":"99173874-41bf-4056-859d-e4b11123a08d","system_id":"levelo_inurba_marseille","lat":43.31513,"lon":5.38045,"is_reserved":false,"is_disabled":false,"rental_uris":{"android":"levelo://app?vid=99173874-41bf-4056-859d-e4b11123a08d","ios":"levelo://app?vid=99173874-41bf-4056-859d-e4b11123a08d"},"vehicle_type_id":"4","last_reported":1728918552,"current_range_meters":28800,"station_id":"ce4bhsp2rcd13ifvqi50","pricing_plan_id":"cebpf4jnsgd1na2vs0mg"},{"bike_id":"2c1638e5-4be7-4564-a61a-45b1d6f91a3c","system_id":"levelo_inurba_marseille","lat":43.30603,"lon":5.3722,"is_reserved":false,"is_disabled":false,"rental_uris":{"android":"levelo://app?vid=2c1638e5-4be7-4564-a61a-45b1d6f91a3c","ios":"levelo://app?vid=2c1638e5-4be7-4564-a61a-45b1d6f91a3c"},"vehicle_type_id":"4","last_reported":1728918552,"current_range_meters":36400,"station_id":"ce4bgqh2rcd13ifvqc4g","pricing_plan_id":"cebpf4jnsgd1na2vs0mg"},{"bike_id":"f9431acc-4158-4e63-bbe0-7544277cc35e","system_id":"levelo_inurba_marseille","lat":43.29032,"lon":5.37567,"is_reserved":false,"is_disabled":false,"rental_uris":{"android":"levelo://app?vid=f9431acc-4158-4e63-bbe0-7544277cc35e","ios":"levelo://app?vid=f9431acc-4158-4e63-bbe0-7544277cc35e"},"vehicle_type_id":"4","last_reported":1728918552,"current_range_meters":30400,"station_id":"ce4bh692rcd13ifvqe90","pricing_plan_id":"cebpf4jnsgd1na2vs0mg"},{"bike_id":"e42a5c5b-19d2-48bc-8dfc-c8514ef28621","system_id":"levelo_inurba_marseille","lat":43.24167,"lon":5.36395,"is_reserved":false,"is_disabled":false,"rental_uris":{"android":"levelo://app?vid=e42a5c5b-19d2-48bc-8dfc-c8514ef28621","ios":"levelo://app?vid=e42a5c5b-19d2-48bc-8dfc-c8514ef28621"},"vehicle_type_id":"4","last_reported":1728918552,"current_range_meters":30000,"station_id":"cpo36qri1sfpv3e86is0","pricing_plan_id":"cebpf4jnsgd1na2vs0mg"},{"bike_id":"8872b830-4908-4958-a3c3-0858a25f1a6b","system_id":"levelo_inurba_marseille","lat":43.306,"lon":5.37236,"is_reserved":false,"is_disabled":false,"rental_uris":{"android":"levelo://app?vid=8872b830-4908-4958-a3c3-0858a25f1a6b","ios":"levelo://app?vid=8872b830-4908-4958-a3c3-0858a25f1a6b"},"vehicle_type_id":"4","last_reported":1728918552,"current_range_meters":3200,"station_id":"ce4bgqh2rcd13ifvqc4g","pricing_plan_id":"cebpf4jnsgd1na2vs0mg"},{"bike_id":"1eb75a27-fc0f-4656-9ddb-21f9da141972","system_id":"levelo_inurba_marseille","lat":43.262543,"lon":5.412664,"is_reserved":false,"is_disabled":false,"rental_uris":{"android":"levelo://app?vid=1eb75a27-fc0f-4656-9ddb-21f9da141972","ios":"levelo://app?vid=1eb75a27-fc0f-4656-9ddb-21f9da141972"},"vehicle_type_id":"4","last_reported":1728918552,"current_range_meters":2800,"station_id":"","pricing_plan_id":"cebpf4jnsgd1na2vs0mg"},{"bike_id":"b06fad3a-c976-49a7-9eef-73d7ba88f78c","system_id":"levelo_inurba_marseille","lat":43.29196,"lon":5.358037,"is_reserved":false,"is_disabled":false,"rental_uris":{"android":"levelo://app?vid=b06fad3a-c976-49a7-9eef-73d7ba88f78c","ios":"levelo://app?vid=b06fad3a-c976-49a7-9eef-73d7ba88f78c"},"vehicle_type_id":"4","last_reported":1728918552,"current_range_meters":24000,"station_id":"ce4bhb12rcd13ifvqel0","pricing_plan_id":"cebpf4jnsgd1na2vs0mg"},{"bike_id":"85f32b24-4e57-4529-85ff-dc69e447e31b","system_id":"levelo_inurba_marseille","lat":43.28613,"lon":5.351,"is_reserved":false,"is_disabled":false,"rental_uris":{"android":"levelo://app?vid=85f32b24-4e57-4529-85ff-dc69e447e31b","ios":"levelo://app?vid=85f32b24-4e57-4529-85ff-dc69e447e31b"},"vehicle_type_id":"4","last_reported":1728918552,"current_range_meters":28000,"station_id":"ce4bhch2rcd13ifvqeug","pricing_plan_id":"cebpf4jnsgd1na2vs0mg"},{"bike_id":"339289c4-7b38-4d77-815f-139b6ca78fd9","system_id":"levelo_inurba_marseille","lat":43.291931,"lon":5.358038,"is_reserved":false,"is_disabled":false,"rental_uris":{"android":"levelo://app?vid=339289c4-7b38-4d77-815f-139b6ca78fd9","ios":"levelo://app?vid=339289c4-7b38-4d77-815f-139b6ca78fd9"},"vehicle_type_id":"4","last_reported":1728918552,"current_range_meters":23200,"station_id":"ce4bhb12rcd13ifvqel0","pricing_plan_id":"cebpf4jnsgd1na2vs0mg"},{"bike_id":"ecfca1da-6817-43fe-a9cf-1c4d1dab8d0c","system_id":"levelo_inurba_marseille","lat":43.31236,"lon":5.36885,"is_reserved":false,"is_disabled":false,"rental_uris":{"android":"levelo://app?vid=ecfca1da-6817-43fe-a9cf-1c4d1dab8d0c","ios":"levelo://app?vid=ecfca1da-6817-43fe-a9cf-1c4d1dab8d0c"},"vehicle_type_id":"4","last_reported":1728918552,"current_range_meters":14000,"station_id":"ce4bgl92rcd13ifvqbq0","pricing_plan_id":"cebpf4jnsgd1na2vs0mg"},{"bike_id":"d06f24f3-1961-4c39-8b26-c72733863fe9","system_id":"levelo_inurba_marseille","lat":43.33781,"lon":5.37443,"is_reserved":false,"is_disabled":false,"rental_uris":{"android":"levelo://app?vid=d06f24f3-1961-4c39-8b26-c72733863fe9","ios":"levelo://app?vid=d06f24f3-1961-4c39-8b26-c72733863fe9"},"vehicle_type_id":"4","last_reported":1728918552,"current_range_meters":28400,"station_id":"","pricing_plan_id":"cebpf4jnsgd1na2vs0mg"},{"bike_id":"de55ef64-fd38-455a-b0e1-1ae601486694","system_id":"levelo_inurba_marseille","lat":43.28459,"lon":5.35895,"is_reserved":false,"is_disabled":false,"rental_uris":{"android":"levelo://app?vid=de55ef64-fd38-455a-b0e1-1ae601486694","ios":"levelo://app?vid=de55ef64-fd38-455a-b0e1-1ae601486694"},"vehicle_type_id":"4","last_reported":1728918552,"current_range_meters":30400,"station_id":"ce4bhah2rcd13ifvqei0","pricing_plan_id":"cebpf4jnsgd1na2vs0mg"},{"bike_id":"d41309ab-1a1f-4395-acaa-455483c3f8e1","system_id":"levelo_inurba_marseille","lat":43.23193,"lon":5.35559,"is_reserved":false,"is_disabled":false,"rental_uris":{"android":"levelo://app?vid=d41309ab-1a1f-4395-acaa-455483c3f8e1","ios":"levelo://app?vid=d41309ab-1a1f-4395-acaa-455483c3f8e1"},"vehicle_type_id":"4","last_reported":1728918552,"current_range_meters":37600,"station_id":"ce4bhu92rcd13ifvqi70","pricing_plan_id":"cebpf4jnsgd1na2vs0mg"},{"bike_id":"6efd7890-f0c5-48a2-b250-adaa3d30e661","system_id":"levelo_inurba_marseille","lat":43.30328,"lon":5.40442,"is_reserved":false,"is_disabled":false,"rental_uris":{"android":"levelo://app?vid=6efd7890-f0c5-48a2-b250-adaa3d30e661","ios":"levelo://app?vid=6efd7890-f0c5-48a2-b250-adaa3d30e661"},"vehicle_type_id":"4","last_reported":1728918552,"current_range_meters":27600,"station_id":"ce4bh012rcd13ifvqd10","pricing_plan_id":"cebpf4jnsgd1na2vs0mg"},{"bike_id":"9a05f69f-811d-4b7a-8d0e-8192e9671b23","system_id":"levelo_inurba_marseille","lat":43.30548,"lon":5.36717,"is_reserved":false,"is_disabled":false,"rental_uris":{"android":"levelo://app?vid=9a05f69f-811d-4b7a-8d0e-8192e9671b23","ios":"levelo://app?vid=9a05f69f-811d-4b7a-8d0e-8192e9671b23"},"vehicle_type_id":"4","last_reported":1728918552,"current_range_meters":8800,"station_id":"ce4bgrp2rcd13ifvqc9g","pricing_plan_id":"cebpf4jnsgd1na2vs0mg"},{"bike_id":"5b282a8a-bc6a-4a44-ba86-5ea47fe786e0","system_id":"levelo_inurba_marseille","lat":43.32108,"lon":5.36781,"is_reserved":false,"is_disabled":false,"rental_uris":{"android":"levelo://app?vid=5b282a8a-bc6a-4a44-ba86-5ea47fe786e0","ios":"levelo://app?vid=5b282a8a-bc6a-4a44-ba86-5ea47fe786e0"},"vehicle_type_id":"4","last_reported":1728918552,"current_range_meters":34800,"station_id":"ce4bhrh2rcd13ifvqhug","pricing_plan_id":"cebpf4jnsgd1na2vs0mg"},{"bike_id":"eaedc49c-645c-4444-a4d2-8456bbc17d70","system_id":"levelo_inurba_marseille","lat":43.29908,"lon":5.43671,"is_reserved":false,"is_disabled":false,"rental_uris":{"android":"levelo://app?vid=eaedc49c-645c-4444-a4d2-8456bbc17d70","ios":"levelo://app?vid=eaedc49c-645c-4444-a4d2-8456bbc17d70"},"vehicle_type_id":"4","last_reported":1728918552,"current_range_meters":17200,"station_id":"ce4bhpp2rcd13ifvqhfg","pricing_plan_id":"cebpf4jnsgd1na2vs0mg"},{"bike_id":"5b7c8d4d-3bd7-4fcd-a8ee-134472049447","system_id":"levelo_inurba_marseille","lat":43.27616,"lon":5.36112,"is_reserved":false,"is_disabled":false,"rental_uris":{"android":"levelo://app?vid=5b7c8d4d-3bd7-4fcd-a8ee-134472049447","ios":"levelo://app?vid=5b7c8d4d-3bd7-4fcd-a8ee-134472049447"},"vehicle_type_id":"4","last_reported":1728918552,"current_range_meters":36800,"station_id":"ce4bgj92rcd13ifvqbe0","pricing_plan_id":"cebpf4jnsgd1na2vs0mg"},{"bike_id":"d4df80f1-e151-423d-9227-64617f7201ab","system_id":"levelo_inurba_marseille","lat":43.25001,"lon":5.38931,"is_reserved":false,"is_disabled":false,"rental_uris":{"android":"levelo://app?vid=d4df80f1-e151-423d-9227-64617f7201ab","ios":"levelo://app?vid=d4df80f1-e151-423d-9227-64617f7201ab"},"vehicle_type_id":"4","last_reported":1728918552,"current_range_meters":18800,"station_id":"ce4bhgp2rcd13ifvqfd0","pricing_plan_id":"cebpf4jnsgd1na2vs0mg"},{"bike_id":"4538ff7e-a73b-4ca3-a155-5c1efe1abb3c","system_id":"levelo_inurba_marseille","lat":43.26567,"lon":5.39006,"is_reserved":false,"is_disabled":false,"rental_uris":{"android":"levelo://app?vid=4538ff7e-a73b-4ca3-a155-5c1efe1abb3c","ios":"levelo://app?vid=4538ff7e-a73b-4ca3-a155-5c1efe1abb3c"},"vehicle_type_id":"4","last_reported":1728918552,"current_range_meters":28400,"station_id":"ce4bhe12rcd13ifvqf30","pricing_plan_id":"cebpf4jnsgd1na2vs0mg"},{"bike_id":"e7e61ae4-6759-4924-a24a-ca9c5e30895c","system_id":"levelo_inurba_marseille","lat":43.25117,"lon":5.4032,"is_reserved":false,"is_disabled":false,"rental_uris":{"android":"levelo://app?vid=e7e61ae4-6759-4924-a24a-ca9c5e30895c","ios":"levelo://app?vid=e7e61ae4-6759-4924-a24a-ca9c5e30895c"},"vehicle_type_id":"4","last_reported":1728918552,"current_range_meters":32400,"station_id":"ce4bhlh2rcd13ifvqgig","pricing_plan_id":"cebpf4jnsgd1na2vs0mg"},{"bike_id":"22edebf1-76bb-4f9a-b44a-ecdf24f0d4da","system_id":"levelo_inurba_marseille","lat":43.30263,"lon":5.40082,"is_reserved":false,"is_disabled":false,"rental_uris":{"android":"levelo://app?vid=22edebf1-76bb-4f9a-b44a-ecdf24f0d4da","ios":"levelo://app?vid=22edebf1-76bb-4f9a-b44a-ecdf24f0d4da"},"vehicle_type_id":"4","last_reported":1728918552,"current_range_meters":39200,"station_id":"ce4bgvh2rcd13ifvqcs0","pricing_plan_id":"cebpf4jnsgd1na2vs0mg"},{"bike_id":"a5fe0612-2ba4-4448-a6f4-dda9b1b68d0f","system_id":"levelo_inurba_marseille","lat":43.30171,"lon":5.36599,"is_reserved":false,"is_disabled":false,"rental_uris":{"android":"levelo://app?vid=a5fe0612-2ba4-4448-a6f4-dda9b1b68d0f","ios":"levelo://app?vid=a5fe0612-2ba4-4448-a6f4-dda9b1b68d0f"},"vehicle_type_id":"4","last_reported":1728918552,"current_range_meters":27200,"station_id":"ce4bgrh2rcd13ifvqc8g","pricing_plan_id":"cebpf4jnsgd1na2vs0mg"},{"bike_id":"1af2813b-98a0-4b62-aaf8-89652b30f639","system_id":"levelo_inurba_marseille","lat":43.22936,"lon":5.35378,"is_reserved":false,"is_disabled":false,"rental_uris":{"android":"levelo://app?vid=1af2813b-98a0-4b62-aaf8-89652b30f639","ios":"levelo://app?vid=1af2813b-98a0-4b62-aaf8-89652b30f639"},"vehicle_type_id":"4","last_reported":1728918552,"current_range_meters":36000,"station_id":"cpo3532slgdg3j2ikp40","pricing_plan_id":"cebpf4jnsgd1na2vs0mg"},{"bike_id":"85145c8d-ffe3-4050-8ffe-e1bbf4533bf2","system_id":"levelo_inurba_marseille","lat":43.2955,"lon":5.42284,"is_reserved":false,"is_disabled":false,"rental_uris":{"android":"levelo://app?vid=85145c8d-ffe3-4050-8ffe-e1bbf4533bf2","ios":"levelo://app?vid=85145c8d-ffe3-4050-8ffe-e1bbf4533bf2"},"vehicle_type_id":"4","last_reported":1728918552,"current_range_meters":33600,"station_id":"ce4bhph2rcd13ifvqhdg","pricing_plan_id":"cebpf4jnsgd1na2vs0mg"},{"bike_id":"ce68acda-5d11-4bcc-b149-493d30fbe157","system_id":"levelo_inurba_marseille","lat":43.27895,"lon":5.39919,"is_reserved":false,"is_disabled":false,"rental_uris":{"android":"levelo://app?vid=ce68acda-5d11-4bcc-b149-493d30fbe157","ios":"levelo://app?vid=ce68acda-5d11-4bcc-b149-493d30fbe157"},"vehicle_type_id":"4","last_reported":1728918552,"current_range_meters":39200,"station_id":"cjm6bp8fraef2m0cb0m0","pricing_plan_id":"cebpf4jnsgd1na2vs0mg"},{"bike_id":"f93454e1-a669-4c63-a4ca-b572042c7971","system_id":"levelo_inurba_marseille","lat":43.23192,"lon":5.35559,"is_reserved":false,"is_disabled":false,"rental_uris":{"android":"levelo://app?vid=f93454e1-a669-4c63-a4ca-b572042c7971","ios":"levelo://app?vid=f93454e1-a669-4c63-a4ca-b572042c7971"},"vehicle_type_id":"4","last_reported":1728918552,"current_range_meters":29600,"station_id":"ce4bhu92rcd13ifvqi70","pricing_plan_id":"cebpf4jnsgd1na2vs0mg"},{"bike_id":"a02ab075-96e8-49d3-865f-a6fe61a96844","system_id":"levelo_inurba_marseille","lat":43.30332,"lon":5.40436,"is_reserved":false,"is_disabled":false,"rental_uris":{"android":"levelo://app?vid=a02ab075-96e8-49d3-865f-a6fe61a96844","ios":"levelo://app?vid=a02ab075-96e8-49d3-865f-a6fe61a96844"},"vehicle_type_id":"4","last_reported":1728918552,"current_range_meters":36800,"station_id":"ce4bh012rcd13ifvqd10","pricing_plan_id":"cebpf4jnsgd1na2vs0mg"},{"bike_id":"f89eeca3-f788-45e3-a285-753cb13e4971","system_id":"levelo_inurba_marseille","lat":43.28151,"lon":5.42645,"is_reserved":false,"is_disabled":false,"rental_uris":{"android":"levelo://app?vid=f89eeca3-f788-45e3-a285-753cb13e4971","ios":"levelo://app?vid=f89eeca3-f788-45e3-a285-753cb13e4971"},"vehicle_type_id":"4","last_reported":1728918552,"current_range_meters":20000,"station_id":"ce4bhnh2rcd13ifvqgug","pricing_plan_id":"cebpf4jnsgd1na2vs0mg"},{"bike_id":"88bbd8a7-e10a-4820-ac15-e21da7c4d0dc","system_id":"levelo_inurba_marseille","lat":43.25112,"lon":5.40322,"is_reserved":false,"is_disabled":false,"rental_uris":{"android":"levelo://app?vid=88bbd8a7-e10a-4820-ac15-e21da7c4d0dc","ios":"levelo://app?vid=88bbd8a7-e10a-4820-ac15-e21da7c4d0dc"},"vehicle_type_id":"4","last_reported":1728918552,"current_range_meters":8400,"station_id":"ce4bhlh2rcd13ifvqgig","pricing_plan_id":"cebpf4jnsgd1na2vs0mg"},{"bike_id":"c5b6a96f-e7c0-4f5f-b4d6-09f23063f915","system_id":"levelo_inurba_marseille","lat":43.29199,"lon":5.39327,"is_reserved":false,"is_disabled":false,"rental_uris":{"android":"levelo://app?vid=c5b6a96f-e7c0-4f5f-b4d6-09f23063f915","ios":"levelo://app?vid=c5b6a96f-e7c0-4f5f-b4d6-09f23063f915"},"vehicle_type_id":"4","last_reported":1728918552,"current_range_meters":38800,"station_id":"ce4bh192rcd13ifvqdd0","pricing_plan_id":"cebpf4jnsgd1na2vs0mg"},{"bike_id":"6a344486-14e7-432e-98bf-b8beed8e06c6","system_id":"levelo_inurba_marseille","lat":43.32336,"lon":5.38328,"is_reserved":false,"is_disabled":false,"rental_uris":{"android":"levelo://app?vid=6a344486-14e7-432e-98bf-b8beed8e06c6","ios":"levelo://app?vid=6a344486-14e7-432e-98bf-b8beed8e06c6"},"vehicle_type_id":"4","last_reported":1728918552,"current_range_meters":34800,"station_id":"","pricing_plan_id":"cebpf4jnsgd1na2vs0mg"},{"bike_id":"0f09572d-e4a8-4c4f-b8c1-5fb3988af630","system_id":"levelo_inurba_marseille","lat":43.28706,"lon":5.37385,"is_reserved":false,"is_disabled":false,"rental_uris":{"android":"levelo://app?vid=0f09572d-e4a8-4c4f-b8c1-5fb3988af630","ios":"levelo://app?vid=0f09572d-e4a8-4c4f-b8c1-5fb3988af630"},"vehicle_type_id":"4","last_reported":1728918552,"current_range_meters":6800,"station_id":"ce4bh3p2rcd13ifvqdq0","pricing_plan_id":"cebpf4jnsgd1na2vs0mg"},{"bike_id":"4af56b53-ded6-4d45-a44c-0c0e41e42ce6","system_id":"levelo_inurba_marseille","lat":43.30603,"lon":5.37228,"is_reserved":false,"is_disabled":false,"rental_uris":{"android":"levelo://app?vid=4af56b53-ded6-4d45-a44c-0c0e41e42ce6","ios":"levelo://app?vid=4af56b53-ded6-4d45-a44c-0c0e41e42ce6"},"vehicle_type_id":"4","last_reported":1728918552,"current_range_meters":28000,"station_id":"ce4bgqh2rcd13ifvqc4g","pricing_plan_id":"cebpf4jnsgd1na2vs0mg"},{"bike_id":"fc9ea00d-8057-4ce8-96b9-a98501c16984","system_id":"levelo_inurba_marseille","lat":43.28275,"lon":5.35069,"is_reserved":false,"is_disabled":false,"rental_uris":{"android":"levelo://app?vid=fc9ea00d-8057-4ce8-96b9-a98501c16984","ios":"levelo://app?vid=fc9ea00d-8057-4ce8-96b9-a98501c16984"},"vehicle_type_id":"4","last_reported":1728918552,"current_range_meters":3600,"station_id":"ce4bhbp2rcd13ifvqerg","pricing_plan_id":"cebpf4jnsgd1na2vs0mg"},{"bike_id":"fb98a24e-0938-4426-b862-7886718862d9","system_id":"levelo_inurba_marseille","lat":43.29922,"lon":5.37454,"is_reserved":false,"is_disabled":false,"rental_uris":{"android":"levelo://app?vid=fb98a24e-0938-4426-b862-7886718862d9","ios":"levelo://app?vid=fb98a24e-0938-4426-b862-7886718862d9"},"vehicle_type_id":"4","last_reported":1728918552,"current_range_meters":25600,"station_id":"ce4bgjh2rcd13ifvqbg0","pricing_plan_id":"cebpf4jnsgd1na2vs0mg"},{"bike_id":"6b6c40a7-31c3-45c2-9ed8-4744786dc7f0","system_id":"levelo_inurba_marseille","lat":43.33719,"lon":5.39191,"is_reserved":false,"is_disabled":false,"rental_uris":{"android":"levelo://app?vid=6b6c40a7-31c3-45c2-9ed8-4744786dc7f0","ios":"levelo://app?vid=6b6c40a7-31c3-45c2-9ed8-4744786dc7f0"},"vehicle_type_id":"4","last_reported":1728918552,"current_range_meters":24000,"station_id":"ce4bhr92rcd13ifvqhsg","pricing_plan_id":"cebpf4jnsgd1na2vs0mg"},{"bike_id":"826e67a1-1f1b-48d5-9965-734aa482296d","system_id":"levelo_inurba_marseille","lat":43.30797,"lon":5.43524,"is_reserved":false,"is_disabled":false,"rental_uris":{"android":"levelo://app?vid=826e67a1-1f1b-48d5-9965-734aa482296d","ios":"levelo://app?vid=826e67a1-1f1b-48d5-9965-734aa482296d"},"vehicle_type_id":"4","last_reported":1728918552,"current_range_meters":10800,"station_id":"ce4bhph2rcd13ifvqheg","pricing_plan_id":"cebpf4jnsgd1na2vs0mg"},{"bike_id":"2f73988e-ad8e-493b-91d1-db89ebf50c76","system_id":"levelo_inurba_marseille","lat":43.303002,"lon":5.368991,"is_reserved":false,"is_disabled":false,"rental_uris":{"android":"levelo://app?vid=2f73988e-ad8e-493b-91d1-db89ebf50c76","ios":"levelo://app?vid=2f73988e-ad8e-493b-91d1-db89ebf50c76"},"vehicle_type_id":"4","last_reported":1728918552,"current_range_meters":7200,"station_id":"ce4bgqh2rcd13ifvqc5g","pricing_plan_id":"cebpf4jnsgd1na2vs0mg"},{"bike_id":"754da881-cbc9-4b35-beb2-51d368048841","system_id":"levelo_inurba_marseille","lat":43.33738,"lon":5.37447,"is_reserved":false,"is_disabled":false,"rental_uris":{"android":"levelo://app?vid=754da881-cbc9-4b35-beb2-51d368048841","ios":"levelo://app?vid=754da881-cbc9-4b35-beb2-51d368048841"},"vehicle_type_id":"4","last_reported":1728918552,"current_range_meters":38000,"station_id":"","pricing_plan_id":"cebpf4jnsgd1na2vs0mg"},{"bike_id":"952ec04e-e156-4a81-92cf-caab40b96d6b","system_id":"levelo_inurba_marseille","lat":43.31171,"lon":5.38711,"is_reserved":false,"is_disabled":false,"rental_uris":{"android":"levelo://app?vid=952ec04e-e156-4a81-92cf-caab40b96d6b","ios":"levelo://app?vid=952ec04e-e156-4a81-92cf-caab40b96d6b"},"vehicle_type_id":"4","last_reported":1728918552,"current_range_meters":38800,"station_id":"ce4bgv12rcd13ifvqcp0","pricing_plan_id":"cebpf4jnsgd1na2vs0mg"},{"bike_id":"95aedba1-9ed2-4940-abe7-09b2c169e296","system_id":"levelo_inurba_marseille","lat":43.287462,"lon":5.36554,"is_reserved":false,"is_disabled":false,"rental_uris":{"android":"levelo://app?vid=95aedba1-9ed2-4940-abe7-09b2c169e296","ios":"levelo://app?vid=95aedba1-9ed2-4940-abe7-09b2c169e296"},"vehicle_type_id":"4","last_reported":1728918552,"current_range_meters":11200,"station_id":"ce4bh3h2rcd13ifvqdo0","pricing_plan_id":"cebpf4jnsgd1na2vs0mg"},{"bike_id":"dcd9c2d3-0fb7-41e9-a6a9-4039f2f8d9b8","system_id":"levelo_inurba_marseille","lat":43.22934,"lon":5.35375,"is_reserved":false,"is_disabled":false,"rental_uris":{"android":"levelo://app?vid=dcd9c2d3-0fb7-41e9-a6a9-4039f2f8d9b8","ios":"levelo://app?vid=dcd9c2d3-0fb7-41e9-a6a9-4039f2f8d9b8"},"vehicle_type_id":"4","last_reported":1728918552,"current_range_meters":20800,"station_id":"cpo3532slgdg3j2ikp40","pricing_plan_id":"cebpf4jnsgd1na2vs0mg"},{"bike_id":"80004c0b-1888-4bc4-861c-1bb18fe1efd7","system_id":"levelo_inurba_marseille","lat":43.29548,"lon":5.42284,"is_reserved":false,"is_disabled":false,"rental_uris":{"android":"levelo://app?vid=80004c0b-1888-4bc4-861c-1bb18fe1efd7","ios":"levelo://app?vid=80004c0b-1888-4bc4-861c-1bb18fe1efd7"},"vehicle_type_id":"4","last_reported":1728918552,"current_range_meters":16000,"station_id":"ce4bhph2rcd13ifvqhdg","pricing_plan_id":"cebpf4jnsgd1na2vs0mg"},{"bike_id":"d5dc4be6-ff32-49c9-b788-423b242146a5","system_id":"levelo_inurba_marseille","lat":43.24663,"lon":5.38171,"is_reserved":false,"is_disabled":false,"rental_uris":{"android":"levelo://app?vid=d5dc4be6-ff32-49c9-b788-423b242146a5","ios":"levelo://app?vid=d5dc4be6-ff32-49c9-b788-423b242146a5"},"vehicle_type_id":"4","last_reported":1728918552,"current_range_meters":3600,"station_id":"ce4bhih2rcd13ifvqfr0","pricing_plan_id":"cebpf4jnsgd1na2vs0mg"},{"bike_id":"552ef3f0-704a-498c-ae10-da5e2e2c864e","system_id":"levelo_inurba_marseille","lat":43.31325,"lon":5.39699,"is_reserved":false,"is_disabled":false,"rental_uris":{"android":"levelo://app?vid=552ef3f0-704a-498c-ae10-da5e2e2c864e","ios":"levelo://app?vid=552ef3f0-704a-498c-ae10-da5e2e2c864e"},"vehicle_type_id":"4","last_reported":1728918552,"current_range_meters":33600,"station_id":"ce4bgvp2rcd13ifvqcu0","pricing_plan_id":"cebpf4jnsgd1na2vs0mg"},{"bike_id":"b5136cb7-600a-49a4-bc3b-9f4f8afeed26","system_id":"levelo_inurba_marseille","lat":43.24997,"lon":5.38935,"is_reserved":false,"is_disabled":false,"rental_uris":{"android":"levelo://app?vid=b5136cb7-600a-49a4-bc3b-9f4f8afeed26","ios":"levelo://app?vid=b5136cb7-600a-49a4-bc3b-9f4f8afeed26"},"vehicle_type_id":"4","last_reported":1728918552,"current_range_meters":28000,"station_id":"ce4bhgp2rcd13ifvqfd0","pricing_plan_id":"cebpf4jnsgd1na2vs0mg"},{"bike_id":"b5d7dcd2-8a72-43ec-b95b-bda03c934296","system_id":"levelo_inurba_marseille","lat":43.29255,"lon":5.40908,"is_reserved":false,"is_disabled":false,"rental_uris":{"android":"levelo://app?vid=b5d7dcd2-8a72-43ec-b95b-bda03c934296","ios":"levelo://app?vid=b5d7dcd2-8a72-43ec-b95b-bda03c934296"},"vehicle_type_id":"4","last_reported":1728918552,"current_range_meters":27600,"station_id":"ce4bh192rcd13ifvqdc0","pricing_plan_id":"cebpf4jnsgd1na2vs0mg"},{"bike_id":"b5548bf0-82ba-46a5-85c8-67dcb6ee30cb","system_id":"levelo_inurba_marseille","lat":43.292175,"lon":5.360762,"is_reserved":false,"is_disabled":false,"rental_uris":{"android":"levelo://app?vid=b5548bf0-82ba-46a5-85c8-67dcb6ee30cb","ios":"levelo://app?vid=b5548bf0-82ba-46a5-85c8-67dcb6ee30cb"},"vehicle_type_id":"4","last_reported":1728918552,"current_range_meters":12800,"station_id":"ce4bhbh2rcd13ifvqeqg","pricing_plan_id":"cebpf4jnsgd1na2vs0mg"},{"bike_id":"b250cbcd-46bd-44b1-8819-7961f8e6d330","system_id":"levelo_inurba_marseille","lat":43.24388,"lon":5.37052,"is_reserved":false,"is_disabled":false,"rental_uris":{"android":"levelo://app?vid=b250cbcd-46bd-44b1-8819-7961f8e6d330","ios":"levelo://app?vid=b250cbcd-46bd-44b1-8819-7961f8e6d330"},"vehicle_type_id":"4","last_reported":1728918552,"current_range_meters":38800,"station_id":"ce4bhhh2rcd13ifvqfk0","pricing_plan_id":"cebpf4jnsgd1na2vs0mg"},{"bike_id":"c12437bb-4036-46e1-bfd2-7ca6730e6490","system_id":"levelo_inurba_marseille","lat":43.29716,"lon":5.37699,"is_reserved":false,"is_disabled":false,"rental_uris":{"android":"levelo://app?vid=c12437bb-4036-46e1-bfd2-7ca6730e6490","ios":"levelo://app?vid=c12437bb-4036-46e1-bfd2-7ca6730e6490"},"vehicle_type_id":"4","last_reported":1728918552,"current_range_meters":38800,"station_id":"ce4bgkh2rcd13ifvqbl0","pricing_plan_id":"cebpf4jnsgd1na2vs0mg"},{"bike_id":"285782c3-fef8-4748-a4ba-6c8e1c5e2c19","system_id":"levelo_inurba_marseille","lat":43.27059,"lon":5.40262,"is_reserved":false,"is_disabled":false,"rental_uris":{"android":"levelo://app?vid=285782c3-fef8-4748-a4ba-6c8e1c5e2c19","ios":"levelo://app?vid=285782c3-fef8-4748-a4ba-6c8e1c5e2c19"},"vehicle_type_id":"4","last_reported":1728918552,"current_range_meters":28000,"station_id":"ce4bhk92rcd13ifvqgc0","pricing_plan_id":"cebpf4jnsgd1na2vs0mg"},{"bike_id":"ea2a3b89-1aad-414c-a5b8-ceffb8e3efee","system_id":"levelo_inurba_marseille","lat":43.29576,"lon":5.37514,"is_reserved":false,"is_disabled":false,"rental_uris":{"android":"levelo://app?vid=ea2a3b89-1aad-414c-a5b8-ceffb8e3efee","ios":"levelo://app?vid=ea2a3b89-1aad-414c-a5b8-ceffb8e3efee"},"vehicle_type_id":"4","last_reported":1728918552,"current_range_meters":24000,"station_id":"ce4bgh92rcd13ifvqb50","pricing_plan_id":"cebpf4jnsgd1na2vs0mg"},{"bike_id":"0c70ca1c-07b5-42a3-aef6-a17a281cdc5f","system_id":"levelo_inurba_marseille","lat":43.30253,"lon":5.4008,"is_reserved":false,"is_disabled":false,"rental_uris":{"android":"levelo://app?vid=0c70ca1c-07b5-42a3-aef6-a17a281cdc5f","ios":"levelo://app?vid=0c70ca1c-07b5-42a3-aef6-a17a281cdc5f"},"vehicle_type_id":"4","last_reported":1728918552,"current_range_meters":5600,"station_id":"ce4bgvh2rcd13ifvqcs0","pricing_plan_id":"cebpf4jnsgd1na2vs0mg"},{"bike_id":"824fc291-63f2-4605-b264-772dcd3cef17","system_id":"levelo_inurba_marseille","lat":43.3372,"lon":5.39186,"is_reserved":false,"is_disabled":false,"rental_uris":{"android":"levelo://app?vid=824fc291-63f2-4605-b264-772dcd3cef17","ios":"levelo://app?vid=824fc291-63f2-4605-b264-772dcd3cef17"},"vehicle_type_id":"4","last_reported":1728918552,"current_range_meters":25600,"station_id":"ce4bhr92rcd13ifvqhsg","pricing_plan_id":"cebpf4jnsgd1na2vs0mg"},{"bike_id":"6484c328-3310-4860-83fc-c04cb372ae68","system_id":"levelo_inurba_marseille","lat":43.26054,"lon":5.39394,"is_reserved":false,"is_disabled":false,"rental_uris":{"android":"levelo://app?vid=6484c328-3310-4860-83fc-c04cb372ae68","ios":"levelo://app?vid=6484c328-3310-4860-83fc-c04cb372ae68"},"vehicle_type_id":"4","last_reported":1728918552,"current_range_meters":36400,"station_id":"ce4bhh92rcd13ifvqfj0","pricing_plan_id":"cebpf4jnsgd1na2vs0mg"},{"bike_id":"f269126c-1b0b-4a1a-a1d6-f8c3716f5336","system_id":"levelo_inurba_marseille","lat":43.23196,"lon":5.35552,"is_reserved":false,"is_disabled":false,"rental_uris":{"android":"levelo://app?vid=f269126c-1b0b-4a1a-a1d6-f8c3716f5336","ios":"levelo://app?vid=f269126c-1b0b-4a1a-a1d6-f8c3716f5336"},"vehicle_type_id":"4","last_reported":1728918552,"current_range_meters":37600,"station_id":"ce4bhu92rcd13ifvqi70","pricing_plan_id":"cebpf4jnsgd1na2vs0mg"},{"bike_id":"b4a783f3-fc28-44f0-8b01-6ea964188ff7","system_id":"levelo_inurba_marseille","lat":43.27292,"lon":5.39076,"is_reserved":false,"is_disabled":false,"rental_uris":{"android":"levelo://app?vid=b4a783f3-fc28-44f0-8b01-6ea964188ff7","ios":"levelo://app?vid=b4a783f3-fc28-44f0-8b01-6ea964188ff7"},"vehicle_type_id":"4","last_reported":1728918552,"current_range_meters":37600,"station_id":"ce4bhgp2rcd13ifvqfe0","pricing_plan_id":"cebpf4jnsgd1na2vs0mg"},{"bike_id":"6f4b79a1-feca-496a-a641-6bdad1c9828a","system_id":"levelo_inurba_marseille","lat":43.32484,"lon":5.36561,"is_reserved":false,"is_disabled":false,"rental_uris":{"android":"levelo://app?vid=6f4b79a1-feca-496a-a641-6bdad1c9828a","ios":"levelo://app?vid=6f4b79a1-feca-496a-a641-6bdad1c9828a"},"vehicle_type_id":"4","last_reported":1728918552,"current_range_meters":38800,"station_id":"ce4bhs12rcd13ifvqhvg","pricing_plan_id":"cebpf4jnsgd1na2vs0mg"},{"bike_id":"4d6bab1d-37fd-48f3-828e-64776edb28b4","system_id":"levelo_inurba_marseille","lat":43.28147,"lon":5.42638,"is_reserved":false,"is_disabled":false,"rental_uris":{"android":"levelo://app?vid=4d6bab1d-37fd-48f3-828e-64776edb28b4","ios":"levelo://app?vid=4d6bab1d-37fd-48f3-828e-64776edb28b4"},"vehicle_type_id":"4","last_reported":1728918552,"current_range_meters":23200,"station_id":"ce4bhnh2rcd13ifvqgug","pricing_plan_id":"cebpf4jnsgd1na2vs0mg"},{"bike_id":"262fd014-e30d-43d7-ad9d-63c21a7313a2","system_id":"levelo_inurba_marseille","lat":43.29894,"lon":5.43658,"is_reserved":false,"is_disabled":false,"rental_uris":{"android":"levelo://app?vid=262fd014-e30d-43d7-ad9d-63c21a7313a2","ios":"levelo://app?vid=262fd014-e30d-43d7-ad9d-63c21a7313a2"},"vehicle_type_id":"4","last_reported":1728918552,"current_range_meters":38800,"station_id":"ce4bhpp2rcd13ifvqhfg","pricing_plan_id":"cebpf4jnsgd1na2vs0mg"},{"bike_id":"2146558d-993b-4010-bf4d-b2b87f16d98f","system_id":"levelo_inurba_marseille","lat":43.30805,"lon":5.43529,"is_reserved":false,"is_disabled":false,"rental_uris":{"android":"levelo://app?vid=2146558d-993b-4010-bf4d-b2b87f16d98f","ios":"levelo://app?vid=2146558d-993b-4010-bf4d-b2b87f16d98f"},"vehicle_type_id":"4","last_reported":1728918552,"current_range_meters":27600,"station_id":"ce4bhph2rcd13ifvqheg","pricing_plan_id":"cebpf4jnsgd1na2vs0mg"},{"bike_id":"c6710237-b445-4862-8616-47ea11d83d0f","system_id":"levelo_inurba_marseille","lat":43.24161,"lon":5.36394,"is_reserved":false,"is_disabled":false,"rental_uris":{"android":"levelo://app?vid=c6710237-b445-4862-8616-47ea11d83d0f","ios":"levelo://app?vid=c6710237-b445-4862-8616-47ea11d83d0f"},"vehicle_type_id":"4","last_reported":1728918552,"current_range_meters":29600,"station_id":"cpo36qri1sfpv3e86is0","pricing_plan_id":"cebpf4jnsgd1na2vs0mg"},{"bike_id":"b218a7d5-6490-449c-a844-2af8e23cd444","system_id":"levelo_inurba_marseille","lat":43.301409,"lon":5.387732,"is_reserved":false,"is_disabled":false,"rental_uris":{"android":"levelo://app?vid=b218a7d5-6490-449c-a844-2af8e23cd444","ios":"levelo://app?vid=b218a7d5-6490-449c-a844-2af8e23cd444"},"vehicle_type_id":"4","last_reported":1728918552,"current_range_meters":28000,"station_id":"ce4bghh2rcd13ifvqb60","pricing_plan_id":"cebpf4jnsgd1na2vs0mg"},{"bike_id":"45c889c9-afb6-46d4-8392-9cf0e7285dd2","system_id":"levelo_inurba_marseille","lat":43.30214,"lon":5.39472,"is_reserved":false,"is_disabled":false,"rental_uris":{"android":"levelo://app?vid=45c889c9-afb6-46d4-8392-9cf0e7285dd2","ios":"levelo://app?vid=45c889c9-afb6-46d4-8392-9cf0e7285dd2"},"vehicle_type_id":"4","last_reported":1728918552,"current_range_meters":7200,"station_id":"ce4bh0p2rcd13ifvqd70","pricing_plan_id":"cebpf4jnsgd1na2vs0mg"},{"bike_id":"299fa77c-d820-4ee5-9f4e-8abc5b7a410f","system_id":"levelo_inurba_marseille","lat":43.28458,"lon":5.35893,"is_reserved":false,"is_disabled":false,"rental_uris":{"android":"levelo://app?vid=299fa77c-d820-4ee5-9f4e-8abc5b7a410f","ios":"levelo://app?vid=299fa77c-d820-4ee5-9f4e-8abc5b7a410f"},"vehicle_type_id":"4","last_reported":1728918552,"current_range_meters":29600,"station_id":"ce4bhah2rcd13ifvqei0","pricing_plan_id":"cebpf4jnsgd1na2vs0mg"},{"bike_id":"a3d92d5d-06a6-491a-a900-e94736046b32","system_id":"levelo_inurba_marseille","lat":43.27622,"lon":5.36112,"is_reserved":false,"is_disabled":false,"rental_uris":{"android":"levelo://app?vid=a3d92d5d-06a6-491a-a900-e94736046b32","ios":"levelo://app?vid=a3d92d5d-06a6-491a-a900-e94736046b32"},"vehicle_type_id":"4","last_reported":1728918552,"current_range_meters":30400,"station_id":"ce4bgj92rcd13ifvqbe0","pricing_plan_id":"cebpf4jnsgd1na2vs0mg"},{"bike_id":"ca153cfb-ab0a-414d-a6cf-2eb63d132266","system_id":"levelo_inurba_marseille","lat":43.30926,"lon":5.40136,"is_reserved":false,"is_disabled":false,"rental_uris":{"android":"levelo://app?vid=ca153cfb-ab0a-414d-a6cf-2eb63d132266","ios":"levelo://app?vid=ca153cfb-ab0a-414d-a6cf-2eb63d132266"},"vehicle_type_id":"4","last_reported":1728918552,"current_range_meters":11200,"station_id":"ce4bgvp2rcd13ifvqct0","pricing_plan_id":"cebpf4jnsgd1na2vs0mg"},{"bike_id":"bef2fd9d-ff07-4a0e-81ee-7eae6c4d24c4","system_id":"levelo_inurba_marseille","lat":43.33753,"lon":5.37458,"is_reserved":false,"is_disabled":false,"rental_uris":{"android":"levelo://app?vid=bef2fd9d-ff07-4a0e-81ee-7eae6c4d24c4","ios":"levelo://app?vid=bef2fd9d-ff07-4a0e-81ee-7eae6c4d24c4"},"vehicle_type_id":"4","last_reported":1728918552,"current_range_meters":14000,"station_id":"","pricing_plan_id":"cebpf4jnsgd1na2vs0mg"},{"bike_id":"c3eb21a0-f0e3-4650-a881-d10fdfd416cb","system_id":"levelo_inurba_marseille","lat":43.28509,"lon":5.36873,"is_reserved":false,"is_disabled":false,"rental_uris":{"android":"levelo://app?vid=c3eb21a0-f0e3-4650-a881-d10fdfd416cb","ios":"levelo://app?vid=c3eb21a0-f0e3-4650-a881-d10fdfd416cb"},"vehicle_type_id":"4","last_reported":1728918552,"current_range_meters":4400,"station_id":"","pricing_plan_id":"cebpf4jnsgd1na2vs0mg"},{"bike_id":"2ca4206d-efa4-4f26-a528-e5a85beffeec","system_id":"levelo_inurba_marseille","lat":43.32472,"lon":5.3656,"is_reserved":false,"is_disabled":false,"rental_uris":{"android":"levelo://app?vid=2ca4206d-efa4-4f26-a528-e5a85beffeec","ios":"levelo://app?vid=2ca4206d-efa4-4f26-a528-e5a85beffeec"},"vehicle_type_id":"4","last_reported":1728918552,"current_range_meters":39200,"station_id":"ce4bhs12rcd13ifvqhvg","pricing_plan_id":"cebpf4jnsgd1na2vs0mg"},{"bike_id":"a89a91c0-08a1-4bee-9692-4d8fc686439f","system_id":"levelo_inurba_marseille","lat":43.28978,"lon":5.37835,"is_reserved":false,"is_disabled":false,"rental_uris":{"android":"levelo://app?vid=a89a91c0-08a1-4bee-9692-4d8fc686439f","ios":"levelo://app?vid=a89a91c0-08a1-4bee-9692-4d8fc686439f"},"vehicle_type_id":"4","last_reported":1728918552,"current_range_meters":25200,"station_id":"ce4bh9p2rcd13ifvqed0","pricing_plan_id":"cebpf4jnsgd1na2vs0mg"},{"bike_id":"6e4c119c-4a6d-496e-ba58-412b09a572f4","system_id":"levelo_inurba_marseille","lat":43.29422,"lon":5.38618,"is_reserved":false,"is_disabled":false,"rental_uris":{"android":"levelo://app?vid=6e4c119c-4a6d-496e-ba58-412b09a572f4","ios":"levelo://app?vid=6e4c119c-4a6d-496e-ba58-412b09a572f4"},"vehicle_type_id":"4","last_reported":1728918552,"current_range_meters":27600,"station_id":"ce4bh2h2rcd13ifvqdh0","pricing_plan_id":"cebpf4jnsgd1na2vs0mg"},{"bike_id":"310c082c-cc63-43f0-b70b-6d740566c170","system_id":"levelo_inurba_marseille","lat":43.28459,"lon":5.35891,"is_reserved":false,"is_disabled":false,"rental_uris":{"android":"levelo://app?vid=310c082c-cc63-43f0-b70b-6d740566c170","ios":"levelo://app?vid=310c082c-cc63-43f0-b70b-6d740566c170"},"vehicle_type_id":"4","last_reported":1728918552,"current_range_meters":18000,"station_id":"ce4bhah2rcd13ifvqei0","pricing_plan_id":"cebpf4jnsgd1na2vs0mg"},{"bike_id":"4ae6b941-0ea0-46ee-8ce3-e86a27d08228","system_id":"levelo_inurba_marseille","lat":43.27541,"lon":5.38335,"is_reserved":false,"is_disabled":false,"rental_uris":{"android":"levelo://app?vid=4ae6b941-0ea0-46ee-8ce3-e86a27d08228","ios":"levelo://app?vid=4ae6b941-0ea0-46ee-8ce3-e86a27d08228"},"vehicle_type_id":"4","last_reported":1728918552,"current_range_meters":30000,"station_id":"ce4bho92rcd13ifvqh4g","pricing_plan_id":"cebpf4jnsgd1na2vs0mg"},{"bike_id":"cffca992-e11d-4b26-92c7-cc573d38d850","system_id":"levelo_inurba_marseille","lat":43.25578,"lon":5.3823,"is_reserved":false,"is_disabled":false,"rental_uris":{"android":"levelo://app?vid=cffca992-e11d-4b26-92c7-cc573d38d850","ios":"levelo://app?vid=cffca992-e11d-4b26-92c7-cc573d38d850"},"vehicle_type_id":"4","last_reported":1728918552,"current_range_meters":8800,"station_id":"ce4bhih2rcd13ifvqfs0","pricing_plan_id":"cebpf4jnsgd1na2vs0mg"},{"bike_id":"512b3e8a-4ceb-464b-b9a1-cf1769dcf5ac","system_id":"levelo_inurba_marseille","lat":43.29626,"lon":5.3773,"is_reserved":false,"is_disabled":false,"rental_uris":{"android":"levelo://app?vid=512b3e8a-4ceb-464b-b9a1-cf1769dcf5ac","ios":"levelo://app?vid=512b3e8a-4ceb-464b-b9a1-cf1769dcf5ac"},"vehicle_type_id":"4","last_reported":1728918552,"current_range_meters":8400,"station_id":"ce4bgi92rcd13ifvqb90","pricing_plan_id":"cebpf4jnsgd1na2vs0mg"},{"bike_id":"a739c149-606a-4cd0-8808-8479e3415b1d","system_id":"levelo_inurba_marseille","lat":43.30307,"lon":5.36894,"is_reserved":false,"is_disabled":false,"rental_uris":{"android":"levelo://app?vid=a739c149-606a-4cd0-8808-8479e3415b1d","ios":"levelo://app?vid=a739c149-606a-4cd0-8808-8479e3415b1d"},"vehicle_type_id":"4","last_reported":1728918552,"current_range_meters":24400,"station_id":"ce4bgqh2rcd13ifvqc5g","pricing_plan_id":"cebpf4jnsgd1na2vs0mg"},{"bike_id":"680d2566-8bc8-4d4e-b6bc-b1c08ddf7b77","system_id":"levelo_inurba_marseille","lat":43.30178,"lon":5.36608,"is_reserved":false,"is_disabled":false,"rental_uris":{"android":"levelo://app?vid=680d2566-8bc8-4d4e-b6bc-b1c08ddf7b77","ios":"levelo://app?vid=680d2566-8bc8-4d4e-b6bc-b1c08ddf7b77"},"vehicle_type_id":"4","last_reported":1728918552,"current_range_meters":16800,"station_id":"ce4bgrh2rcd13ifvqc8g","pricing_plan_id":"cebpf4jnsgd1na2vs0mg"},{"bike_id":"4b837548-cca5-446e-9fbe-d329234e41ad","system_id":"levelo_inurba_marseille","lat":43.29418,"lon":5.38631,"is_reserved":false,"is_disabled":false,"rental_uris":{"android":"levelo://app?vid=4b837548-cca5-446e-9fbe-d329234e41ad","ios":"levelo://app?vid=4b837548-cca5-446e-9fbe-d329234e41ad"},"vehicle_type_id":"4","last_reported":1728918552,"current_range_meters":7200,"station_id":"ce4bh2h2rcd13ifvqdh0","pricing_plan_id":"cebpf4jnsgd1na2vs0mg"},{"bike_id":"23f67136-cd07-4870-830a-7b682d21ab7c","system_id":"levelo_inurba_marseille","lat":43.28459,"lon":5.35884,"is_reserved":false,"is_disabled":false,"rental_uris":{"android":"levelo://app?vid=23f67136-cd07-4870-830a-7b682d21ab7c","ios":"levelo://app?vid=23f67136-cd07-4870-830a-7b682d21ab7c"},"vehicle_type_id":"4","last_reported":1728918552,"current_range_meters":30800,"station_id":"ce4bhah2rcd13ifvqei0","pricing_plan_id":"cebpf4jnsgd1na2vs0mg"},{"bike_id":"ab88b7e1-6208-4feb-bd09-b7d5276a2f05","system_id":"levelo_inurba_marseille","lat":43.31492,"lon":5.37304,"is_reserved":false,"is_disabled":false,"rental_uris":{"android":"levelo://app?vid=ab88b7e1-6208-4feb-bd09-b7d5276a2f05","ios":"levelo://app?vid=ab88b7e1-6208-4feb-bd09-b7d5276a2f05"},"vehicle_type_id":"4","last_reported":1728918552,"current_range_meters":28800,"station_id":"ce4bgt12rcd13ifvqcd0","pricing_plan_id":"cebpf4jnsgd1na2vs0mg"},{"bike_id":"8af16a10-01c7-423c-8697-d5fdb9e53499","system_id":"levelo_inurba_marseille","lat":43.265533,"lon":5.372842,"is_reserved":false,"is_disabled":false,"rental_uris":{"android":"levelo://app?vid=8af16a10-01c7-423c-8697-d5fdb9e53499","ios":"levelo://app?vid=8af16a10-01c7-423c-8697-d5fdb9e53499"},"vehicle_type_id":"4","last_reported":1728918552,"current_range_meters":38800,"station_id":"ce4bhg12rcd13ifvqf70","pricing_plan_id":"cebpf4jnsgd1na2vs0mg"},{"bike_id":"7feaaa42-294f-491f-a16e-aa608e0114eb","system_id":"levelo_inurba_marseille","lat":43.2761,"lon":5.36109,"is_reserved":false,"is_disabled":false,"rental_uris":{"android":"levelo://app?vid=7feaaa42-294f-491f-a16e-aa608e0114eb","ios":"levelo://app?vid=7feaaa42-294f-491f-a16e-aa608e0114eb"},"vehicle_type_id":"4","last_reported":1728918552,"current_range_meters":38400,"station_id":"ce4bgj92rcd13ifvqbe0","pricing_plan_id":"cebpf4jnsgd1na2vs0mg"},{"bike_id":"cc80af15-7ef1-4178-92ba-0afc4895d779","system_id":"levelo_inurba_marseille","lat":43.3035,"lon":5.41877,"is_reserved":false,"is_disabled":false,"rental_uris":{"android":"levelo://app?vid=cc80af15-7ef1-4178-92ba-0afc4895d779","ios":"levelo://app?vid=cc80af15-7ef1-4178-92ba-0afc4895d779"},"vehicle_type_id":"4","last_reported":1728918552,"current_range_meters":10800,"station_id":"ce4bhop2rcd13ifvqh7g","pricing_plan_id":"cebpf4jnsgd1na2vs0mg"},{"bike_id":"5f13aa5d-1b65-49f8-872c-73a809ba7bbf","system_id":"levelo_inurba_marseille","lat":43.23964,"lon":5.36636,"is_reserved":false,"is_disabled":false,"rental_uris":{"android":"levelo://app?vid=5f13aa5d-1b65-49f8-872c-73a809ba7bbf","ios":"levelo://app?vid=5f13aa5d-1b65-49f8-872c-73a809ba7bbf"},"vehicle_type_id":"4","last_reported":1728918552,"current_range_meters":35200,"station_id":"ce4bhi12rcd13ifvqfp0","pricing_plan_id":"cebpf4jnsgd1na2vs0mg"},{"bike_id":"4f701649-d257-481e-8b7b-e515da69ed6c","system_id":"levelo_inurba_marseille","lat":43.29838,"lon":5.36275,"is_reserved":false,"is_disabled":false,"rental_uris":{"android":"levelo://app?vid=4f701649-d257-481e-8b7b-e515da69ed6c","ios":"levelo://app?vid=4f701649-d257-481e-8b7b-e515da69ed6c"},"vehicle_type_id":"4","last_reported":1728918552,"current_range_meters":38800,"station_id":"ce4bgpp2rcd13ifvqc3g","pricing_plan_id":"cebpf4jnsgd1na2vs0mg"},{"bike_id":"6f7b6b68-12dd-44a9-a7a5-3bd16dde43e9","system_id":"levelo_inurba_marseille","lat":43.30529,"lon":5.36704,"is_reserved":false,"is_disabled":false,"rental_uris":{"android":"levelo://app?vid=6f7b6b68-12dd-44a9-a7a5-3bd16dde43e9","ios":"levelo://app?vid=6f7b6b68-12dd-44a9-a7a5-3bd16dde43e9"},"vehicle_type_id":"4","last_reported":1728918552,"current_range_meters":34000,"station_id":"ce4bgrp2rcd13ifvqc9g","pricing_plan_id":"cebpf4jnsgd1na2vs0mg"},{"bike_id":"85829fd1-9257-4336-9897-7b6e33ac35c3","system_id":"levelo_inurba_marseille","lat":43.23196,"lon":5.35549,"is_reserved":false,"is_disabled":false,"rental_uris":{"android":"levelo://app?vid=85829fd1-9257-4336-9897-7b6e33ac35c3","ios":"levelo://app?vid=85829fd1-9257-4336-9897-7b6e33ac35c3"},"vehicle_type_id":"4","last_reported":1728918552,"current_range_meters":10800,"station_id":"ce4bhu92rcd13ifvqi70","pricing_plan_id":"cebpf4jnsgd1na2vs0mg"},{"bike_id":"341c395e-8f41-4148-845f-710ad6659a50","system_id":"levelo_inurba_marseille","lat":43.24166,"lon":5.36392,"is_reserved":false,"is_disabled":false,"rental_uris":{"android":"levelo://app?vid=341c395e-8f41-4148-845f-710ad6659a50","ios":"levelo://app?vid=341c395e-8f41-4148-845f-710ad6659a50"},"vehicle_type_id":"4","last_reported":1728918552,"current_range_meters":34000,"station_id":"cpo36qri1sfpv3e86is0","pricing_plan_id":"cebpf4jnsgd1na2vs0mg"},