{"last_updated":1768403750,"ttl":60,"version":"2.2","data":{"bikes":[{"bike_id":"754deb6d-b707-4695-aea3-a1b1544cd133","system_id":"levelo_inurba_marseille","lat":43.31586,"lon":5.36628,"is_reserved":false,"is_disabled":false,"rental_uris":{"android":"levelo://app?vid=754deb6d-b707-4695-aea3-a1b1544cd133","ios":"levelo://app?vid=754deb6d-b707-4695-aea3-a1b1544cd133"},"vehicle_type_id":"4","last_reported":1768403750,"current_range_meters":2800,"station_id":"","pricing_plan_id":"cebpf4jnsgd1na2vs0mg"},{"bike_id":"93ee6405-db38-4ca6-acc1-e8de6e8d2bdc","system_id":"levelo_inurba_marseille","lat":43.32503,"lon":5.36563,"is_reserved":false,"is_disabled":false,"rental_uris":{"android":"levelo://app?vid=93ee6405-db38-4ca6-acc1-e8de6e8d2bdc","ios":"levelo://app?vid=93ee6405-db38-4ca6-acc1-e8de6e8d2bdc"},"vehicle_type_id":"4","last_reported":1768403750,"current_range_meters":2800,"station_id":"ce4bhs12rcd13ifvqhvg","pricing_plan_id":"cebpf4jnsgd1na2vs0mg"},{"bike_id":"13cd38e8-d512-4cfd-951f-24fea91e2d49","system_id":"levelo_inurba_marseille","lat":43.30238,"lon":5.36574,"is_reserved":false,"is_disabled":false,"rental_uris":{"android":"levelo://app?vid=13cd38e8-d512-4cfd-951f-24fea91e2d49","ios":"levelo://app?vid=13cd38e8-d512-4cfd-951f-24fea91e2d49"},"vehicle_type_id":"4","last_reported":1768403750,"current_range_meters":2800,"station_id":"","pricing_plan_id":"cebpf4jnsgd1na2vs0mg"},{"bike_id":"b41f9551-ae47-4da7-a60d-f3352e00b4ad","system_id":"levelo_inurba_marseille","lat":43.28476,"lon":5.48392,"is_reserved":false,"is_disabled":false,"rental_uris":{"android":"levelo://app?vid=b41f9551-ae47-4da7-a60d-f3352e00b4ad","ios":"levelo://app?vid=b41f9551-ae47-4da7-a60d-f3352e00b4ad"},"vehicle_type_id":"4","last_reported":1768403750,"current_range_meters":2800,"station_id":"st_d3svhcjqgbts73a3dn0g","pricing_plan_id":"cebpf4jnsgd1na2vs0mg"},{"bike_id":"841440e5-4cf2-4432-a161-4904d9a6bd15","system_id":"levelo_inurba_marseille","lat":43.2854,"lon":5.44109,"is_reserved":false,"is_disabled":false,"rental_uris":{"android":"levelo://app?vid=841440e5-4cf2-4432-a161-4904d9a6bd15","ios":"levelo://app?vid=841440e5-4cf2-4432-a161-4904d9a6bd15"},"vehicle_type_id":"4","last_reported":1768403750,"current_range_meters":2800,"station_id":"st_d3j3df2ikq2c7380ej80","pricing_plan_id":"cebpf4jnsgd1na2vs0mg"},{"bike_id":"19acb0d9-5641-4610-b2b2-7ba868c5f563","system_id":"levelo_inurba_marseille","lat":43.239545,"lon":5.366339,"is_reserved":false,"is_disabled":false,"rental_uris":{"android":"levelo://app?vid=19acb0d9-5641-4610-b2b2-7ba868c5f563","ios":"levelo://app?vid=19acb0d9-5641-4610-b2b2-7ba868c5f563"},"vehicle_type_id":"4","last_reported":1768403750,"current_range_meters":2800,"station_id":"ce4bhi12rcd13ifvqfp0","pricing_plan_id":"cebpf4jnsgd1na2vs0mg"},{"bike_id":"3502b945-707a-499e-b3af-6caf8e3903bc","system_id":"levelo_inurba_marseille","lat":43.28477,"lon":5.48403,"is_reserved":false,"is_disabled":false,"rental_uris":{"android":"levelo://app?vid=3502b945-707a-499e-b3af-6caf8e3903bc","ios":"levelo://app?vid=3502b945-707a-499e-b3af-6caf8e3903bc"},"vehicle_type_id":"4","last_reported":1768403750,"current_range_meters":2800,"station_id":"","pricing_plan_id":"cebpf4jnsgd1na2vs0mg"},{"bike_id":"bee2231a-aedd-4f8a-ae11-883f123d575e","system_id":"levelo_inurba_marseille","lat":43.31203,"lon":5.38175,"is_reserved":false,"is_disabled":false,"rental_uris":{"android":"levelo://app?vid=bee2231a-aedd-4f8a-ae11-883f123d575e","ios":"levelo://app?vid=bee2231a-aedd-4f8a-ae11-883f123d575e"},"vehicle_type_id":"4","last_reported":1768403750,"current_range_meters":2800,"station_id":"","pricing_plan_id":"cebpf4jnsgd1na2vs0mg"},{"bike_id":"1801c6f9-0c65-4e78-bbf2-c91fed55b8f3","system_id":"levelo_inurba_marseille","lat":43.26205,"lon":5.37442,"is_reserved":false,"is_disabled":false,"rental_uris":{"android":"levelo://app?vid=1801c6f9-0c65-4e78-bbf2-c91fed55b8f3","ios":"levelo://app?vid=1801c6f9-0c65-4e78-bbf2-c91fed55b8f3"},"vehicle_type_id":"4","last_reported":1768403750,"current_range_meters":3200,"station_id":"ce4bhgp2rcd13ifvqfc0","pricing_plan_id":"cebpf4jnsgd1na2vs0mg"},{"bike_id":"2cf2dbb5-c275-458b-a583-376515587ad8","system_id":"levelo_inurba_marseille","lat":43.3171,"lon":5.40469,"is_reserved":false,"is_disabled":true,"rental_uris":{"android":"levelo://app?vid=2cf2dbb5-c275-458b-a583-376515587ad8","ios":"levelo://app?vid=2cf2dbb5-c275-458b-a583-376515587ad8"},"vehicle_type_id":"4","last_reported":1768403750,"current_range_meters":3200,"station_id":"ce4bh012rcd13ifvqd00","pricing_plan_id":"cebpf4jnsgd1na2vs0mg"},{"bike_id":"ea9769ab-39d8-4325-b701-f75eef547046","system_id":"levelo_inurba_marseille","lat":43.22528,"lon":5.34843,"is_reserved":false,"is_disabled":false,"rental_uris":{"android":"levelo://app?vid=ea9769ab-39d8-4325-b701-f75eef547046","ios":"levelo://app?vid=ea9769ab-39d8-4325-b701-f75eef547046"},"vehicle_type_id":"4","last_reported":1768403750,"current_range_meters":3200,"station_id":"st_cvj5dfep6f1abm77gieg","pricing_plan_id":"cebpf4jnsgd1na2vs0mg"},{"bike_id":"8a7b85d3-c7d2-4196-b1ab-690364287dcf","system_id":"levelo_inurba_marseille","lat":43.31353,"lon":5.36722,"is_reserved":false,"is_disabled":false,"rental_uris":{"android":"levelo://app?vid=8a7b85d3-c7d2-4196-b1ab-690364287dcf","ios":"levelo://app?vid=8a7b85d3-c7d2-4196-b1ab-690364287dcf"},"vehicle_type_id":"4","last_reported":1768403750,"current_range_meters":3200,"station_id":"ce4bgr92rcd13ifvqc6g","pricing_plan_id":"cebpf4jnsgd1na2vs0mg"},{"bike_id":"f970f8ab-b8b8-4d5b-83fd-bac5e2c16217","system_id":"levelo_inurba_marseille","lat":43.30968,"lon":5.39051,"is_reserved":false,"is_disabled":false,"rental_uris":{"android":"levelo://app?vid=f970f8ab-b8b8-4d5b-83fd-bac5e2c16217","ios":"levelo://app?vid=f970f8ab-b8b8-4d5b-83fd-bac5e2c16217"},"vehicle_type_id":"4","last_reported":1768403750,"current_range_meters":3200,"station_id":"ce4bgup2rcd13ifvqco0","pricing_plan_id":"cebpf4jnsgd1na2vs0mg"},{"bike_id":"1680fad3-9e51-4c48-a9a6-3ed8179fb100","system_id":"levelo_inurba_marseille","lat":43.28368,"lon":5.38633,"is_reserved":false,"is_disabled":false,"rental_uris":{"android":"levelo://app?vid=1680fad3-9e51-4c48-a9a6-3ed8179fb100","ios":"levelo://app?vid=1680fad3-9e51-4c48-a9a6-3ed8179fb100"},"vehicle_type_id":"4","last_reported":1768403750,"current_range_meters":3200,"station_id":"ce4bh492rcd13ifvqdvg","pricing_plan_id":"cebpf4jnsgd1na2vs0mg"},{"bike_id":"f07021ed-c47a-4950-b9d2-f417cc9d2db8","system_id":"levelo_inurba_marseille","lat":43.273649,"lon":5.362668,"is_reserved":false,"is_disabled":false,"rental_uris":{"android":"levelo://app?vid=f07021ed-c47a-4950-b9d2-f417cc9d2db8","ios":"levelo://app?vid=f07021ed-c47a-4950-b9d2-f417cc9d2db8"},"vehicle_type_id":"4","last_reported":1768403750,"current_range_meters":3200,"station_id":"ce4bhbh2rcd13ifvqeo0","pricing_plan_id":"cebpf4jnsgd1na2vs0mg"},{"bike_id":"2a79143f-3d8b-4742-85af-e8ce69787652","system_id":"levelo_inurba_marseille","lat":43.32143,"lon":5.36741,"is_reserved":false,"is_disabled":false,"rental_uris":{"android":"levelo://app?vid=2a79143f-3d8b-4742-85af-e8ce69787652","ios":"levelo://app?vid=2a79143f-3d8b-4742-85af-e8ce69787652"},"vehicle_type_id":"4","last_reported":1768403750,"current_range_meters":3200,"station_id":"","pricing_plan_id":"cebpf4jnsgd1na2vs0mg"},{"bike_id":"874aa7ee-1e54-48fd-96cb-78f074972571","system_id":"levelo_inurba_marseille","lat":43.248045,"lon":5.374671,"is_reserved":false,"is_disabled":false,"rental_uris":{"android":"levelo://app?vid=874aa7ee-1e54-48fd-96cb-78f074972571","ios":"levelo://app?vid=874aa7ee-1e54-48fd-96cb-78f074972571"},"vehicle_type_id":"4","last_reported":1768403750,"current_range_meters":3200,"station_id":"ce4bhgh2rcd13ifvqfb0","pricing_plan_id":"cebpf4jnsgd1na2vs0mg"},{"bike_id":"b523c110-d25e-4af1-b7ea-2ae80dfe757b","system_id":"levelo_inurba_marseille","lat":43.23785,"lon":5.36631,"is_reserved":false,"is_disabled":false,"rental_uris":{"android":"levelo://app?vid=b523c110-d25e-4af1-b7ea-2ae80dfe757b","ios":"levelo://app?vid=b523c110-d25e-4af1-b7ea-2ae80dfe757b"},"vehicle_type_id":"4","last_reported":1768403750,"current_range_meters":3600,"station_id":"st_d3nk18o9ro0c73en2l3g","pricing_plan_id":"cebpf4jnsgd1na2vs0mg"},{"bike_id":"1d115a65-13c1-4f91-aeb5-e8e1e9fe8ea5","system_id":"levelo_inurba_marseille","lat":43.28096,"lon":5.37852,"is_reserved":false,"is_disabled":false,"rental_uris":{"android":"levelo://app?vid=1d115a65-13c1-4f91-aeb5-e8e1e9fe8ea5","ios":"levelo://app?vid=1d115a65-13c1-4f91-aeb5-e8e1e9fe8ea5"},"vehicle_type_id":"4","last_reported":1768403750,"current_range_meters":3600,"station_id":"ce4bha12rcd13ifvqee0","pricing_plan_id":"cebpf4jnsgd1na2vs0mg"},{"bike_id":"d93aad5b-726f-4681-895f-a4263493fbd8","system_id":"levelo_inurba_marseille","lat":43.3015,"lon":5.38083,"is_reserved":false,"is_disabled":false,"rental_uris":{"android":"levelo://app?vid=d93aad5b-726f-4681-895f-a4263493fbd8","ios":"levelo://app?vid=d93aad5b-726f-4681-895f-a4263493fbd8"},"vehicle_type_id":"4","last_reported":1768403750,"current_range_meters":3600,"station_id":"ce4bgjp2rcd13ifvqbh0","pricing_plan_id":"cebpf4jnsgd1na2vs0mg"},{"bike_id":"763cde72-cf1a-459e-90d2-d7349170d84e","system_id":"levelo_inurba_marseille","lat":43.31758,"lon":5.39014,"is_reserved":false,"is_disabled":false,"rental_uris":{"android":"levelo://app?vid=763cde72-cf1a-459e-90d2-d7349170d84e","ios":"levelo://app?vid=763cde72-cf1a-459e-90d2-d7349170d84e"},"vehicle_type_id":"4","last_reported":1768403750,"current_range_meters":3600,"station_id":"ce4bhqp2rcd13ifvqhng","pricing_plan_id":"cebpf4jnsgd1na2vs0mg"},{"bike_id":"23a3eada-dea7-4044-b22b-1e0f7c60e76c","system_id":"levelo_inurba_marseille","lat":43.29515,"lon":5.39197,"is_reserved":false,"is_disabled":true,"rental_uris":{"android":"levelo://app?vid=23a3eada-dea7-4044-b22b-1e0f7c60e76c","ios":"levelo://app?vid=23a3eada-dea7-4044-b22b-1e0f7c60e76c"},"vehicle_type_id":"4","last_reported":1768403750,"current_range_meters":3600,"station_id":"","pricing_plan_id":"cebpf4jnsgd1na2vs0mg"},{"bike_id":"486f5db0-76e1-427e-8da6-b795f5aacf8d","system_id":"levelo_inurba_marseille","lat":43.24392,"lon":5.37074,"is_reserved":false,"is_disabled":false,"rental_uris":{"android":"levelo://app?vid=486f5db0-76e1-427e-8da6-b795f5aacf8d","ios":"levelo://app?vid=486f5db0-76e1-427e-8da6-b795f5aacf8d"},"vehicle_type_id":"4","last_reported":1768403750,"current_range_meters":3600,"station_id":"ce4bhhh2rcd13ifvqfk0","pricing_plan_id":"cebpf4jnsgd1na2vs0mg"},{"bike_id":"644dfc11-0852-4e9f-9cb3-1fbca54c69b9","system_id":"levelo_inurba_marseille","lat":43.2418,"lon":5.39715,"is_reserved":false,"is_disabled":false,"rental_uris":{"android":"levelo://app?vid=644dfc11-0852-4e9f-9cb3-1fbca54c69b9","ios":"levelo://app?vid=644dfc11-0852-4e9f-9cb3-1fbca54c69b9"},"vehicle_type_id":"4","last_reported":1768403750,"current_range_meters":3600,"station_id":"ce4bhn12rcd13ifvqgpg","pricing_plan_id":"cebpf4jnsgd1na2vs0mg"},{"bike_id":"5775fb83-76da-4ec7-a67c-63e90f15d92b","system_id":"levelo_inurba_marseille","lat":43.29262,"lon":5.40908,"is_reserved":false,"is_disabled":false,"rental_uris":{"android":"levelo://app?vid=5775fb83-76da-4ec7-a67c-63e90f15d92b","ios":"levelo://app?vid=5775fb83-76da-4ec7-a67c-63e90f15d92b"},"vehicle_type_id":"4","last_reported":1768403750,"current_range_meters":3600,"station_id":"ce4bh192rcd13ifvqdc0","pricing_plan_id":"cebpf4jnsgd1na2vs0mg"},{"bike_id":"4210b5e1-14c0-4350-9f09-b328efe96417","system_id":"levelo_inurba_marseille","lat":43.3017,"lon":5.37114,"is_reserved":false,"is_disabled":false,"rental_uris":{"android":"levelo://app?vid=4210b5e1-14c0-4350-9f09-b328efe96417","ios":"levelo://app?vid=4210b5e1-14c0-4350-9f09-b328efe96417"},"vehicle_type_id":"4","last_reported":1768403750,"current_range_meters":4000,"station_id":"","pricing_plan_id":"cebpf4jnsgd1na2vs0mg"},{"bike_id":"7e09f6aa-6a01-490d-a5d4-56de9c0277ad","system_id":"levelo_inurba_marseille","lat":43.28528,"lon":5.44091,"is_reserved":false,"is_disabled":false,"rental_uris":{"android":"levelo://app?vid=7e09f6aa-6a01-490d-a5d4-56de9c0277ad","ios":"levelo://app?vid=7e09f6aa-6a01-490d-a5d4-56de9c0277ad"},"vehicle_type_id":"4","last_reported":1768403750,"current_range_meters":4000,"station_id":"st_d3j3df2ikq2c7380ej80","pricing_plan_id":"cebpf4jnsgd1na2vs0mg"},{"bike_id":"d467484e-7aee-4722-aeb8-99ac2b445e1f","system_id":"levelo_inurba_marseille","lat":43.28874,"lon":5.42507,"is_reserved":false,"is_disabled":false,"rental_uris":{"android":"levelo://app?vid=d467484e-7aee-4722-aeb8-99ac2b445e1f","ios":"levelo://app?vid=d467484e-7aee-4722-aeb8-99ac2b445e1f"},"vehicle_type_id":"4","last_reported":1768403750,"current_range_meters":4000,"station_id":"st_d3b462108ojc7389ooeg","pricing_plan_id":"cebpf4jnsgd1na2vs0mg"},{"bike_id":"7c969669-50db-4552-b574-0619ffa44efd","system_id":"levelo_inurba_marseille","lat":43.25005,"lon":5.38942,"is_reserved":false,"is_disabled":false,"rental_uris":{"android":"levelo://app?vid=7c969669-50db-4552-b574-0619ffa44efd","ios":"levelo://app?vid=7c969669-50db-4552-b574-0619ffa44efd"},"vehicle_type_id":"4","last_reported":1768403750,"current_range_meters":4000,"station_id":"ce4bhgp2rcd13ifvqfd0","pricing_plan_id":"cebpf4jnsgd1na2vs0mg"},{"bike_id":"933d84a2-2aa2-4af7-9098-6f88c35fa1c7","system_id":"levelo_inurba_marseille","lat":43.24368,"lon":5.37085,"is_reserved":false,"is_disabled":false,"rental_uris":{"android":"levelo://app?vid=933d84a2-2aa2-4af7-9098-6f88c35fa1c7","ios":"levelo://app?vid=933d84a2-2aa2-4af7-9098-6f88c35fa1c7"},"vehicle_type_id":"4","last_reported":1768403750,"current_range_meters":4000,"station_id":"ce4bhhh2rcd13ifvqfk0","pricing_plan_id":"cebpf4jnsgd1na2vs0mg"},{"bike_id":"edfbacb0-b907-480c-b228-32a2ccd9121e","system_id":"levelo_inurba_marseille","lat":43.29168,"lon":5.37153,"is_reserved":false,"is_disabled":false,"rental_uris":{"android":"levelo://app?vid=edfbacb0-b907-480c-b228-32a2ccd9121e","ios":"levelo://app?vid=edfbacb0-b907-480c-b228-32a2ccd9121e"},"vehicle_type_id":"4","last_reported":1768403750,"current_range_meters":4000,"station_id":"ce4bha92rcd13ifvqeh0","pricing_plan_id":"cebpf4jnsgd1na2vs0mg"},{"bike_id":"a31c8f9e-9708-4ea2-9e5d-05e3441bc85f","system_id":"levelo_inurba_marseille","lat":43.28445,"lon":5.48366,"is_reserved":false,"is_disabled":false,"rental_uris":{"android":"levelo://app?vid=a31c8f9e-9708-4ea2-9e5d-05e3441bc85f","ios":"levelo://app?vid=a31c8f9e-9708-4ea2-9e5d-05e3441bc85f"},"vehicle_type_id":"4","last_reported":1768403750,"current_range_meters":4000,"station_id":"st_d3svhcjqgbts73a3dn0g","pricing_plan_id":"cebpf4jnsgd1na2vs0mg"},{"bike_id":"18e7aed4-7cab-4e5f-b147-5c98f8a1e192","system_id":"levelo_inurba_marseille","lat":43.32354,"lon":5.36741,"is_reserved":false,"is_disabled":false,"rental_uris":{"android":"levelo://app?vid=18e7aed4-7cab-4e5f-b147-5c98f8a1e192","ios":"levelo://app?vid=18e7aed4-7cab-4e5f-b147-5c98f8a1e192"},"vehicle_type_id":"4","last_reported":1768403750,"current_range_meters":4400,"station_id":"ce4bhsh2rcd13ifvqi2g","pricing_plan_id":"cebpf4jnsgd1na2vs0mg"},{"bike_id":"0ab483f6-2c64-4f01-82ac-b52f13aaff16","system_id":"levelo_inurba_marseille","lat":43.33011,"lon":5.39019,"is_reserved":false,"is_disabled":false,"rental_uris":{"android":"levelo://app?vid=0ab483f6-2c64-4f01-82ac-b52f13aaff16","ios":"levelo://app?vid=0ab483f6-2c64-4f01-82ac-b52f13aaff16"},"vehicle_type_id":"4","last_reported":1768403750,"current_range_meters":4400,"station_id":"ce4bhr92rcd13ifvqhrg","pricing_plan_id":"cebpf4jnsgd1na2vs0mg"},{"bike_id":"f386e451-0ff7-4c2a-a6cd-27139c57272a","system_id":"levelo_inurba_marseille","lat":43.28534,"lon":5.44105,"is_reserved":false,"is_disabled":false,"rental_uris":{"android":"levelo://app?vid=f386e451-0ff7-4c2a-a6cd-27139c57272a","ios":"levelo://app?vid=f386e451-0ff7-4c2a-a6cd-27139c57272a"},"vehicle_type_id":"4","last_reported":1768403750,"current_range_meters":4400,"station_id":"st_d3j3df2ikq2c7380ej80","pricing_plan_id":"cebpf4jnsgd1na2vs0mg"},{"bike_id":"ae443cce-ff29-49ee-9c93-a04cf4bdacaf","system_id":"levelo_inurba_marseille","lat":43.29543,"lon":5.38548,"is_reserved":false,"is_disabled":false,"rental_uris":{"android":"levelo://app?vid=ae443cce-ff29-49ee-9c93-a04cf4bdacaf","ios":"levelo://app?vid=ae443cce-ff29-49ee-9c93-a04cf4bdacaf"},"vehicle_type_id":"4","last_reported":1768403750,"current_range_meters":4400,"station_id":"ce4bgih2rcd13ifvqba0","pricing_plan_id":"cebpf4jnsgd1na2vs0mg"},{"bike_id":"969beef6-de62-48a5-8c35-c443b488f51f","system_id":"levelo_inurba_marseille","lat":43.29972,"lon":5.38491,"is_reserved":false,"is_disabled":false,"rental_uris":{"android":"levelo://app?vid=969beef6-de62-48a5-8c35-c443b488f51f","ios":"levelo://app?vid=969beef6-de62-48a5-8c35-c443b488f51f"},"vehicle_type_id":"4","last_reported":1768403750,"current_range_meters":4400,"station_id":"ce4bgj92rcd13ifvqbd0","pricing_plan_id":"cebpf4jnsgd1na2vs0mg"},{"bike_id":"4da4b9b5-8e34-4a21-a7eb-76e6a1792527","system_id":"levelo_inurba_marseille","lat":43.282358,"lon":5.430222,"is_reserved":false,"is_disabled":false,"rental_uris":{"android":"levelo://app?vid=4da4b9b5-8e34-4a21-a7eb-76e6a1792527","ios":"levelo://app?vid=4da4b9b5-8e34-4a21-a7eb-76e6a1792527"},"vehicle_type_id":"4","last_reported":1768403750,"current_range_meters":4400,"station_id":"","pricing_plan_id":"cebpf4jnsgd1na2vs0mg"},{"bike_id":"d972730d-8fb9-4cbc-872d-001a2c703b0b","system_id":"levelo_inurba_marseille","lat":43.29972,"lon":5.38522,"is_reserved":false,"is_disabled":false,"rental_uris":{"android":"levelo://app?vid=d972730d-8fb9-4cbc-872d-001a2c703b0b","ios":"levelo://app?vid=d972730d-8fb9-4cbc-872d-001a2c703b0b"},"vehicle_type_id":"4","last_reported":1768403750,"current_range_meters":4400,"station_id":"ce4bgj92rcd13ifvqbd0","pricing_plan_id":"cebpf4jnsgd1na2vs0mg"},{"bike_id":"988898f4-9f2f-4c83-8935-c2cdd80dcda2","system_id":"levelo_inurba_marseille","lat":43.29905,"lon":5.3746,"is_reserved":false,"is_disabled":false,"rental_uris":{"android":"levelo://app?vid=988898f4-9f2f-4c83-8935-c2cdd80dcda2","ios":"levelo://app?vid=988898f4-9f2f-4c83-8935-c2cdd80dcda2"},"vehicle_type_id":"4","last_reported":1768403750,"current_range_meters":4400,"station_id":"ce4bgjh2rcd13ifvqbg0","pricing_plan_id":"cebpf4jnsgd1na2vs0mg"},{"bike_id":"842777ef-2bd2-4386-9378-625a67143cc8","system_id":"levelo_inurba_marseille","lat":43.24387,"lon":5.37055,"is_reserved":false,"is_disabled":false,"rental_uris":{"android":"levelo://app?vid=842777ef-2bd2-4386-9378-625a67143cc8","ios":"levelo://app?vid=842777ef-2bd2-4386-9378-625a67143cc8"},"vehicle_type_id":"4","last_reported":1768403750,"current_range_meters":4400,"station_id":"ce4bhhh2rcd13ifvqfk0","pricing_plan_id":"cebpf4jnsgd1na2vs0mg"},{"bike_id":"ea5a0539-d10a-493d-b63d-e4e8abdbd9c8","system_id":"levelo_inurba_marseille","lat":43.29191,"lon":5.38811,"is_reserved":false,"is_disabled":false,"rental_uris":{"android":"levelo://app?vid=ea5a0539-d10a-493d-b63d-e4e8abdbd9c8","ios":"levelo://app?vid=ea5a0539-d10a-493d-b63d-e4e8abdbd9c8"},"vehicle_type_id":"4","last_reported":1768403750,"current_range_meters":4400,"station_id":"","pricing_plan_id":"cebpf4jnsgd1na2vs0mg"},{"bike_id":"09274d01-4a95-409b-8171-0131639b6dc1","system_id":"levelo_inurba_marseille","lat":43.289954,"lon":5.381656,"is_reserved":false,"is_disabled":false,"rental_uris":{"android":"levelo://app?vid=09274d01-4a95-409b-8171-0131639b6dc1","ios":"levelo://app?vid=09274d01-4a95-409b-8171-0131639b6dc1"},"vehicle_type_id":"4","last_reported":1768403750,"current_range_meters":4400,"station_id":"ce4bgjh2rcd13ifvqbg0","pricing_plan_id":"cebpf4jnsgd1na2vs0mg"},{"bike_id":"1cc7ab25-688b-48d8-84f8-63da59107ff1","system_id":"levelo_inurba_marseille","lat":43.262512,"lon":5.374298,"is_reserved":false,"is_disabled":false,"rental_uris":{"android":"levelo://app?vid=1cc7ab25-688b-48d8-84f8-63da59107ff1","ios":"levelo://app?vid=1cc7ab25-688b-48d8-84f8-63da59107ff1"},"vehicle_type_id":"4","last_reported":1768403750,"current_range_meters":4400,"station_id":"ce4bhgp2rcd13ifvqfc0","pricing_plan_id":"cebpf4jnsgd1na2vs0mg"},{"bike_id":"cc9ffb63-dfad-4d9e-be44-3f5c7c1cb0e8","system_id":"levelo_inurba_marseille","lat":43.26206,"lon":5.37454,"is_reserved":false,"is_disabled":false,"rental_uris":{"android":"levelo://app?vid=cc9ffb63-dfad-4d9e-be44-3f5c7c1cb0e8","ios":"levelo://app?vid=cc9ffb63-dfad-4d9e-be44-3f5c7c1cb0e8"},"vehicle_type_id":"4","last_reported":1768403750,"current_range_meters":4800,"station_id":"ce4bhgp2rcd13ifvqfc0","pricing_plan_id":"cebpf4jnsgd1na2vs0mg"},{"bike_id":"4984d6b8-a38b-4c8b-a6cf-9cd9c50ff7f8","system_id":"levelo_inurba_marseille","lat":43.25007,"lon":5.38927,"is_reserved":false,"is_disabled":false,"rental_uris":{"android":"levelo://app?vid=4984d6b8-a38b-4c8b-a6cf-9cd9c50ff7f8","ios":"levelo://app?vid=4984d6b8-a38b-4c8b-a6cf-9cd9c50ff7f8"},"vehicle_type_id":"4","last_reported":1768403750,"current_range_meters":4800,"station_id":"ce4bhgp2rcd13ifvqfd0","pricing_plan_id":"cebpf4jnsgd1na2vs0mg"},{"bike_id":"edb5354c-8c7a-42db-a5e2-6c3d09b20625","system_id":"levelo_inurba_marseille","lat":43.272092,"lon":5.391786,"is_reserved":false,"is_disabled":false,"rental_uris":{"android":"levelo://app?vid=edb5354c-8c7a-42db-a5e2-6c3d09b20625","ios":"levelo://app?vid=edb5354c-8c7a-42db-a5e2-6c3d09b20625"},"vehicle_type_id":"4","last_reported":1768403750,"current_range_meters":4800,"station_id":"ce4bhhp2rcd13ifvqfm0","pricing_plan_id":"cebpf4jnsgd1na2vs0mg"},{"bike_id":"d8b52035-9107-4203-ba3b-8ab85229defc","system_id":"levelo_inurba_marseille","lat":43.25885,"lon":5.39923,"is_reserved":false,"is_disabled":false,"rental_uris":{"android":"levelo://app?vid=d8b52035-9107-4203-ba3b-8ab85229defc","ios":"levelo://app?vid=d8b52035-9107-4203-ba3b-8ab85229defc"},"vehicle_type_id":"4","last_reported":1768403750,"current_range_meters":4800,"station_id":"ce4bhl92rcd13ifvqghg","pricing_plan_id":"cebpf4jnsgd1na2vs0mg"},{"bike_id":"7dd1d8e7-5022-463f-b173-f03ecce952da","system_id":"levelo_inurba_marseille","lat":43.21753,"lon":5.346,"is_reserved":false,"is_disabled":false,"rental_uris":{"android":"levelo://app?vid=7dd1d8e7-5022-463f-b173-f03ecce952da","ios":"levelo://app?vid=7dd1d8e7-5022-463f-b173-f03ecce952da"},"vehicle_type_id":"4","last_reported":1768403750,"current_range_meters":4800,"station_id":"st_cvj6r9ubvosntc0bgbag","pricing_plan_id":"cebpf4jnsgd1na2vs0mg"},{"bike_id":"5a2c2793-dc2f-43e7-ad23-468a2836c35e","system_id":"levelo_inurba_marseille","lat":43.29262,"lon":5.38444,"is_reserved":false,"is_disabled":false,"rental_uris":{"android":"levelo://app?vid=5a2c2793-dc2f-43e7-ad23-468a2836c35e","ios":"levelo://app?vid=5a2c2793-dc2f-43e7-ad23-468a2836c35e"},"vehicle_type_id":"4","last_reported":1768403750,"current_range_meters":4800,"station_id":"ce4bh692rcd13ifvqea0","pricing_plan_id":"cebpf4jnsgd1na2vs0mg"},{"bike_id":"5506c513-4e43-4b65-9b63-88fe81873ef0","system_id":"levelo_inurba_marseille","lat":43.27314,"lon":5.39088,"is_reserved":false,"is_disabled":false,"rental_uris":{"android":"levelo://app?vid=5506c513-4e43-4b65-9b63-88fe81873ef0","ios":"levelo://app?vid=5506c513-4e43-4b65-9b63-88fe81873ef0"},"vehicle_type_id":"4","last_reported":1768403750,"current_range_meters":4800,"station_id":"ce4bhgp2rcd13ifvqfe0","pricing_plan_id":"cebpf4jnsgd1na2vs0mg"},{"bike_id":"cfffa06c-ecc8-4e98-b890-218b1a91837c","system_id":"levelo_inurba_marseille","lat":43.29911,"lon":5.37482,"is_reserved":false,"is_disabled":false,"rental_uris":{"android":"levelo://app?vid=cfffa06c-ecc8-4e98-b890-218b1a91837c","ios":"levelo://app?vid=cfffa06c-ecc8-4e98-b890-218b1a91837c"},"vehicle_type_id":"4","last_reported":1768403750,"current_range_meters":4800,"station_id":"ce4bgjh2rcd13ifvqbg0","pricing_plan_id":"cebpf4jnsgd1na2vs0mg"},{"bike_id":"27f242f3-3ae7-4945-8a79-3968179ff814","system_id":"levelo_inurba_marseille","lat":43.32458,"lon":5.36587,"is_reserved":false,"is_disabled":false,"rental_uris":{"android":"levelo://app?vid=27f242f3-3ae7-4945-8a79-3968179ff814","ios":"levelo://app?vid=27f242f3-3ae7-4945-8a79-3968179ff814"},"vehicle_type_id":"4","last_reported":1768403750,"current_range_meters":4800,"station_id":"ce4bhs12rcd13ifvqhvg","pricing_plan_id":"cebpf4jnsgd1na2vs0mg"},{"bike_id":"ea7f32b6-7877-46fd-82b1-7ebc9194a1fd","system_id":"levelo_inurba_marseille","lat":43.217464,"lon":5.346017,"is_reserved":false,"is_disabled":false,"rental_uris":{"android":"levelo://app?vid=ea7f32b6-7877-46fd-82b1-7ebc9194a1fd","ios":"levelo://app?vid=ea7f32b6-7877-46fd-82b1-7ebc9194a1fd"},"vehicle_type_id":"4","last_reported":1768403750,"current_range_meters":4800,"station_id":"","pricing_plan_id":"cebpf4jnsgd1na2vs0mg"},{"bike_id":"936570bf-e455-479b-ab9d-421b36b3f09d","system_id":"levelo_inurba_marseille","lat":43.23193,"lon":5.35555,"is_reserved":false,"is_disabled":false,"rental_uris":{"android":"levelo://app?vid=936570bf-e455-479b-ab9d-421b36b3f09d","ios":"levelo://app?vid=936570bf-e455-479b-ab9d-421b36b3f09d"},"vehicle_type_id":"4","last_reported":1768403750,"current_range_meters":4800,"station_id":"ce4bhu92rcd13ifvqi70","pricing_plan_id":"cebpf4jnsgd1na2vs0mg"},{"bike_id":"c5248147-7fef-42d5-9ac7-8dfd55008d05","system_id":"levelo_inurba_marseille","lat":43.2826,"lon":5.35083,"is_reserved":false,"is_disabled":false,"rental_uris":{"android":"levelo://app?vid=c5248147-7fef-42d5-9ac7-8dfd55008d05","ios":"levelo://app?vid=c5248147-7fef-42d5-9ac7-8dfd55008d05"},"vehicle_type_id":"4","last_reported":1768403750,"current_range_meters":5600,"station_id":"ce4bhbp2rcd13ifvqerg","pricing_plan_id":"cebpf4jnsgd1na2vs0mg"},{"bike_id":"dccf6443-2690-4508-8f9a-a0435732725f","system_id":"levelo_inurba_marseille","lat":43.25491,"lon":5.37645,"is_reserved":false,"is_disabled":false,"rental_uris":{"android":"levelo://app?vid=dccf6443-2690-4508-8f9a-a0435732725f","ios":"levelo://app?vid=dccf6443-2690-4508-8f9a-a0435732725f"},"vehicle_type_id":"4","last_reported":1768403750,"current_range_meters":5600,"station_id":"ce4bhh12rcd13ifvqff0","pricing_plan_id":"cebpf4jnsgd1na2vs0mg"},{"bike_id":"cbdc031a-f7a8-4ff1-8b01-803b2dfeb125","system_id":"levelo_inurba_marseille","lat":43.26648,"lon":5.39339,"is_reserved":false,"is_disabled":false,"rental_uris":{"android":"levelo://app?vid=cbdc031a-f7a8-4ff1-8b01-803b2dfeb125","ios":"levelo://app?vid=cbdc031a-f7a8-4ff1-8b01-803b2dfeb125"},"vehicle_type_id":"4","last_reported":1768403750,"current_range_meters":5600,"station_id":"","pricing_plan_id":"cebpf4jnsgd1na2vs0mg"},{"bike_id":"11d6153c-dd89-4c4a-af20-37dd5f2e70db","system_id":"levelo_inurba_marseille","lat":43.30454,"lon":5.38898,"is_reserved":false,"is_disabled":false,"rental_uris":{"android":"levelo://app?vid=11d6153c-dd89-4c4a-af20-37dd5f2e70db","ios":"levelo://app?vid=11d6153c-dd89-4c4a-af20-37dd5f2e70db"},"vehicle_type_id":"4","last_reported":1768403750,"current_range_meters":5600,"station_id":"ce4bgk12rcd13ifvqbi0","pricing_plan_id":"cebpf4jnsgd1na2vs0mg"},{"bike_id":"fec414c1-c810-41d2-8c70-9e28210e8340","system_id":"levelo_inurba_marseille","lat":43.25086,"lon":5.39508,"is_reserved":false,"is_disabled":false,"rental_uris":{"android":"levelo://app?vid=fec414c1-c810-41d2-8c70-9e28210e8340","ios":"levelo://app?vid=fec414c1-c810-41d2-8c70-9e28210e8340"},"vehicle_type_id":"4","last_reported":1768403750,"current_range_meters":5600,"station_id":"ce4bhm12rcd13ifvqgkg","pricing_plan_id":"cebpf4jnsgd1na2vs0mg"},{"bike_id":"6c8933bb-e549-411e-bbee-946bd19f4175","system_id":"levelo_inurba_marseille","lat":43.2917,"lon":5.37164,"is_reserved":false,"is_disabled":false,"rental_uris":{"android":"levelo://app?vid=6c8933bb-e549-411e-bbee-946bd19f4175","ios":"levelo://app?vid=6c8933bb-e549-411e-bbee-946bd19f4175"},"vehicle_type_id":"4","last_reported":1768403750,"current_range_meters":5600,"station_id":"ce4bha92rcd13ifvqeh0","pricing_plan_id":"cebpf4jnsgd1na2vs0mg"},{"bike_id":"edcf3188-4a6b-46e2-aa32-dc6a17ca3c7d","system_id":"levelo_inurba_marseille","lat":43.25575,"lon":5.38231,"is_reserved":false,"is_disabled":false,"rental_uris":{"android":"levelo://app?vid=edcf3188-4a6b-46e2-aa32-dc6a17ca3c7d","ios":"levelo://app?vid=edcf3188-4a6b-46e2-aa32-dc6a17ca3c7d"},"vehicle_type_id":"4","last_reported":1768403750,"current_range_meters":5600,"station_id":"ce4bhih2rcd13ifvqfs0","pricing_plan_id":"cebpf4jnsgd1na2vs0mg"},{"bike_id":"0ccd4614-307a-4d9d-b349-4920d64f5541","system_id":"levelo_inurba_marseille","lat":43.28478,"lon":5.38421,"is_reserved":false,"is_disabled":false,"rental_uris":{"android":"levelo://app?vid=0ccd4614-307a-4d9d-b349-4920d64f5541","ios":"levelo://app?vid=0ccd4614-307a-4d9d-b349-4920d64f5541"},"vehicle_type_id":"4","last_reported":1768403750,"current_range_meters":5600,"station_id":"ce4bh512rcd13ifvqe3g","pricing_plan_id":"cebpf4jnsgd1na2vs0mg"},{"bike_id":"1cada60d-67ba-40f7-97c1-1a320d055880","system_id":"levelo_inurba_marseille","lat":43.27811,"lon":5.4073,"is_reserved":false,"is_disabled":false,"rental_uris":{"android":"levelo://app?vid=1cada60d-67ba-40f7-97c1-1a320d055880","ios":"levelo://app?vid=1cada60d-67ba-40f7-97c1-1a320d055880"},"vehicle_type_id":"4","last_reported":1768403750,"current_range_meters":6000,"station_id":"ce4bhnh2rcd13ifvqgtg","pricing_plan_id":"cebpf4jnsgd1na2vs0mg"},{"bike_id":"87700f80-f8eb-41ad-95b4-a6cadc9557f6","system_id":"levelo_inurba_marseille","lat":43.26368,"lon":5.41088,"is_reserved":false,"is_disabled":false,"rental_uris":{"android":"levelo://app?vid=87700f80-f8eb-41ad-95b4-a6cadc9557f6","ios":"levelo://app?vid=87700f80-f8eb-41ad-95b4-a6cadc9557f6"},"vehicle_type_id":"4","last_reported":1768403750,"current_range_meters":6000,"station_id":"st_d4e5ca6na9uc73bfl5fg","pricing_plan_id":"cebpf4jnsgd1na2vs0mg"},{"bike_id":"0e90d51b-5071-4a42-a270-6759fe02b547","system_id":"levelo_inurba_marseille","lat":43.23182,"lon":5.39977,"is_reserved":false,"is_disabled":false,"rental_uris":{"android":"levelo://app?vid=0e90d51b-5071-4a42-a270-6759fe02b547","ios":"levelo://app?vid=0e90d51b-5071-4a42-a270-6759fe02b547"},"vehicle_type_id":"4","last_reported":1768403750,"current_range_meters":6000,"station_id":"ce4bhn12rcd13ifvqgqg","pricing_plan_id":"cebpf4jnsgd1na2vs0mg"},{"bike_id":"6d5b743f-0d0d-4728-9aac-92cae33bf20c","system_id":"levelo_inurba_marseille","lat":43.25575,"lon":5.38224,"is_reserved":false,"is_disabled":false,"rental_uris":{"android":"levelo://app?vid=6d5b743f-0d0d-4728-9aac-92cae33bf20c","ios":"levelo://app?vid=6d5b743f-0d0d-4728-9aac-92cae33bf20c"},"vehicle_type_id":"4","last_reported":1768403750,"current_range_meters":6000,"station_id":"ce4bhih2rcd13ifvqfs0","pricing_plan_id":"cebpf4jnsgd1na2vs0mg"},{"bike_id":"45ce8043-6d38-4f16-8225-1b3f4a3a97b0","system_id":"levelo_inurba_marseille","lat":43.25081,"lon":5.3951,"is_reserved":false,"is_disabled":false,"rental_uris":{"android":"levelo://app?vid=45ce8043-6d38-4f16-8225-1b3f4a3a97b0","ios":"levelo://app?vid=45ce8043-6d38-4f16-8225-1b3f4a3a97b0"},"vehicle_type_id":"4","last_reported":1768403750,"current_range_meters":6000,"station_id":"ce4bhm12rcd13ifvqgkg","pricing_plan_id":"cebpf4jnsgd1na2vs0mg"},{"bike_id":"050e123c-3645-4b91-8890-55b00dedb5ba","system_id":"levelo_inurba_marseille","lat":43.2991,"lon":5.37472,"is_reserved":false,"is_disabled":false,"rental_uris":{"android":"levelo://app?vid=050e123c-3645-4b91-8890-55b00dedb5ba","ios":"levelo://app?vid=050e123c-3645-4b91-8890-55b00dedb5ba"},"vehicle_type_id":"4","last_reported":1768403750,"current_range_meters":6000,"station_id":"ce4bgjh2rcd13ifvqbg0","pricing_plan_id":"cebpf4jnsgd1na2vs0mg"},{"bike_id":"20ca3697-5029-4111-8a7c-1c8468104a43","system_id":"levelo_inurba_marseille","lat":43.31334,"lon":5.39695,"is_reserved":false,"is_disabled":false,"rental_uris":{"android":"levelo://app?vid=20ca3697-5029-4111-8a7c-1c8468104a43","ios":"levelo://app?vid=20ca3697-5029-4111-8a7c-1c8468104a43"},"vehicle_type_id":"4","last_reported":1768403750,"current_range_meters":6000,"station_id":"ce4bgvp2rcd13ifvqcu0","pricing_plan_id":"cebpf4jnsgd1na2vs0mg"},{"bike_id":"d10c3e03-17c1-4a18-84d3-e167ce7531e2","system_id":"levelo_inurba_marseille","lat":43.32348,"lon":5.3674,"is_reserved":false,"is_disabled":false,"rental_uris":{"android":"levelo://app?vid=d10c3e03-17c1-4a18-84d3-e167ce7531e2","ios":"levelo://app?vid=d10c3e03-17c1-4a18-84d3-e167ce7531e2"},"vehicle_type_id":"4","last_reported":1768403750,"current_range_meters":6000,"station_id":"ce4bhsh2rcd13ifvqi2g","pricing_plan_id":"cebpf4jnsgd1na2vs0mg"},{"bike_id":"3c0d874e-90b2-4c4c-a562-a0a9a7ae10ca","system_id":"levelo_inurba_marseille","lat":43.23781,"lon":5.36629,"is_reserved":false,"is_disabled":false,"rental_uris":{"android":"levelo://app?vid=3c0d874e-90b2-4c4c-a562-a0a9a7ae10ca","ios":"levelo://app?vid=3c0d874e-90b2-4c4c-a562-a0a9a7ae10ca"},"vehicle_type_id":"4","last_reported":1768403750,"current_range_meters":6000,"station_id":"st_d3nk18o9ro0c73en2l3g","pricing_plan_id":"cebpf4jnsgd1na2vs0mg"},{"bike_id":"f0af60f3-c34d-4fc2-b453-249abc129471","system_id":"levelo_inurba_marseille","lat":43.290293,"lon":5.374295,"is_reserved":false,"is_disabled":false,"rental_uris":{"android":"levelo://app?vid=f0af60f3-c34d-4fc2-b453-249abc129471","ios":"levelo://app?vid=f0af60f3-c34d-4fc2-b453-249abc129471"},"vehicle_type_id":"4","last_reported":1768403750,"current_range_meters":6000,"station_id":"ce4bh5p2rcd13ifvqe4g","pricing_plan_id":"cebpf4jnsgd1na2vs0mg"},{"bike_id":"ef548c48-8610-435e-b14c-65569ee83068","system_id":"levelo_inurba_marseille","lat":43.28606,"lon":5.3987,"is_reserved":false,"is_disabled":false,"rental_uris":{"android":"levelo://app?vid=ef548c48-8610-435e-b14c-65569ee83068","ios":"levelo://app?vid=ef548c48-8610-435e-b14c-65569ee83068"},"vehicle_type_id":"4","last_reported":1768403750,"current_range_meters":6000,"station_id":"st_d4a7ka997mjs738ck50g","pricing_plan_id":"cebpf4jnsgd1na2vs0mg"},{"bike_id":"fbe88db2-416a-478a-ac7c-29c397f79fa0","system_id":"levelo_inurba_marseille","lat":43.24651,"lon":5.389,"is_reserved":false,"is_disabled":false,"rental_uris":{"android":"levelo://app?vid=fbe88db2-416a-478a-ac7c-29c397f79fa0","ios":"levelo://app?vid=fbe88db2-416a-478a-ac7c-29c397f79fa0"},"vehicle_type_id":"4","last_reported":1768403750,"current_range_meters":6000,"station_id":"ce4bhg12rcd13ifvqf60","pricing_plan_id":"cebpf4jnsgd1na2vs0mg"},{"bike_id":"e0b428f0-eceb-42b2-abfb-1c2fa2419392","system_id":"levelo_inurba_marseille","lat":43.2396,"lon":5.36633,"is_reserved":false,"is_disabled":false,"rental_uris":{"android":"levelo://app?vid=e0b428f0-eceb-42b2-abfb-1c2fa2419392","ios":"levelo://app?vid=e0b428f0-eceb-42b2-abfb-1c2fa2419392"},"vehicle_type_id":"4","last_reported":1768403750,"current_range_meters":6000,"station_id":"ce4bhi12rcd13ifvqfp0","pricing_plan_id":"cebpf4jnsgd1na2vs0mg"},{"bike_id":"2ee0fab5-7040-4975-9414-0b1e23a72b5b","system_id":"levelo_inurba_marseille","lat":43.32368,"lon":5.36759,"is_reserved":false,"is_disabled":false,"rental_uris":{"android":"levelo://app?vid=2ee0fab5-7040-4975-9414-0b1e23a72b5b","ios":"levelo://app?vid=2ee0fab5-7040-4975-9414-0b1e23a72b5b"},"vehicle_type_id":"4","last_reported":1768403750,"current_range_meters":6400,"station_id":"ce4bhsh2rcd13ifvqi2g","pricing_plan_id":"cebpf4jnsgd1na2vs0mg"},{"bike_id":"266c2051-cecc-4d1d-bc12-d0ea8442efcf","system_id":"levelo_inurba_marseille","lat":43.23146,"lon":5.43738,"is_reserved":false,"is_disabled":false,"rental_uris":{"android":"levelo://app?vid=266c2051-cecc-4d1d-bc12-d0ea8442efcf","ios":"levelo://app?vid=266c2051-cecc-4d1d-bc12-d0ea8442efcf"},"vehicle_type_id":"4","last_reported":1768403750,"current_range_meters":6400,"station_id":"ce4bhmp2rcd13ifvqgog","pricing_plan_id":"cebpf4jnsgd1na2vs0mg"},{"bike_id":"ff1e20fa-84b0-41c9-9d49-6081e242e43e","system_id":"levelo_inurba_marseille","lat":43.24806,"lon":5.37452,"is_reserved":false,"is_disabled":false,"rental_uris":{"android":"levelo://app?vid=ff1e20fa-84b0-41c9-9d49-6081e242e43e","ios":"levelo://app?vid=ff1e20fa-84b0-41c9-9d49-6081e242e43e"},"vehicle_type_id":"4","last_reported":1768403750,"current_range_meters":6400,"station_id":"ce4bhgh2rcd13ifvqfb0","pricing_plan_id":"cebpf4jnsgd1na2vs0mg"},{"bike_id":"05f63fa9-494d-453c-8fbd-b43a99415aa7","system_id":"levelo_inurba_marseille","lat":43.26677,"lon":5.38273,"is_reserved":false,"is_disabled":false,"rental_uris":{"android":"levelo://app?vid=05f63fa9-494d-453c-8fbd-b43a99415aa7","ios":"levelo://app?vid=05f63fa9-494d-453c-8fbd-b43a99415aa7"},"vehicle_type_id":"4","last_reported":1768403750,"current_range_meters":6400,"station_id":"ce4bhg92rcd13ifvqf90","pricing_plan_id":"cebpf4jnsgd1na2vs0mg"},{"bike_id":"47e8d937-7ec7-4d88-84dd-f958423c70de","system_id":"levelo_inurba_marseille","lat":43.263705,"lon":5.410836,"is_reserved":false,"is_disabled":false,"rental_uris":{"android":"levelo://app?vid=47e8d937-7ec7-4d88-84dd-f958423c70de","ios":"levelo://app?vid=47e8d937-7ec7-4d88-84dd-f958423c70de"},"vehicle_type_id":"4","last_reported":1768403750,"current_range_meters":6400,"station_id":"","pricing_plan_id":"cebpf4jnsgd1na2vs0mg"},{"bike_id":"b7d49573-3e66-48d0-a113-0b261fcd2347","system_id":"levelo_inurba_marseille","lat":43.30134,"lon":5.37409,"is_reserved":false,"is_disabled":false,"rental_uris":{"android":"levelo://app?vid=b7d49573-3e66-48d0-a113-0b261fcd2347","ios":"levelo://app?vid=b7d49573-3e66-48d0-a113-0b261fcd2347"},"vehicle_type_id":"4","last_reported":1768403750,"current_range_meters":6400,"station_id":"ce4bgs92rcd13ifvqcc0","pricing_plan_id":"cebpf4jnsgd1na2vs0mg"},{"bike_id":"d19abdb9-38f3-416f-9391-8c377e2636a5","system_id":"levelo_inurba_marseille","lat":43.30595,"lon":5.37215,"is_reserved":false,"is_disabled":false,"rental_uris":{"android":"levelo://app?vid=d19abdb9-38f3-416f-9391-8c377e2636a5","ios":"levelo://app?vid=d19abdb9-38f3-416f-9391-8c377e2636a5"},"vehicle_type_id":"4","last_reported":1768403750,"current_range_meters":6400,"station_id":"ce4bgqh2rcd13ifvqc4g","pricing_plan_id":"cebpf4jnsgd1na2vs0mg"},{"bike_id":"323bdf5a-fc85-45ab-8b18-361a392bbea5","system_id":"levelo_inurba_marseille","lat":43.2996,"lon":5.37929,"is_reserved":false,"is_disabled":false,"rental_uris":{"android":"levelo://app?vid=323bdf5a-fc85-45ab-8b18-361a392bbea5","ios":"levelo://app?vid=323bdf5a-fc85-45ab-8b18-361a392bbea5"},"vehicle_type_id":"4","last_reported":1768403750,"current_range_meters":6400,"station_id":"","pricing_plan_id":"cebpf4jnsgd1na2vs0mg"},{"bike_id":"a0f9b52c-bbb7-4f7a-b55f-b65905b6c8ef","system_id":"levelo_inurba_marseille","lat":43.24951,"lon":5.40484,"is_reserved":false,"is_disabled":false,"rental_uris":{"android":"levelo://app?vid=a0f9b52c-bbb7-4f7a-b55f-b65905b6c8ef","ios":"levelo://app?vid=a0f9b52c-bbb7-4f7a-b55f-b65905b6c8ef"},"vehicle_type_id":"4","last_reported":1768403750,"current_range_meters":6400,"station_id":"st_d2ngiaodas8pm72gd1h0","pricing_plan_id":"cebpf4jnsgd1na2vs0mg"},{"bike_id":"0496460c-cd9f-43fd-8720-c5e183ef0a0e","system_id":"levelo_inurba_marseille","lat":43.237905,"lon":5.366333,"is_reserved":false,"is_disabled":false,"rental_uris":{"android":"levelo://app?vid=0496460c-cd9f-43fd-8720-c5e183ef0a0e","ios":"levelo://app?vid=0496460c-cd9f-43fd-8720-c5e183ef0a0e"},"vehicle_type_id":"4","last_reported":1768403750,"current_range_meters":6400,"station_id":"st_d3nk18o9ro0c73en2l3g","pricing_plan_id":"cebpf4jnsgd1na2vs0mg"},{"bike_id":"edb3f9c5-6e6f-4d74-ac22-6330b2cf1217","system_id":"levelo_inurba_marseille","lat":43.32477,"lon":5.36581,"is_reserved":false,"is_disabled":false,"rental_uris":{"android":"levelo://app?vid=edb3f9c5-6e6f-4d74-ac22-6330b2cf1217","ios":"levelo://app?vid=edb3f9c5-6e6f-4d74-ac22-6330b2cf1217"},"vehicle_type_id":"4","last_reported":1768403750,"current_range_meters":6400,"station_id":"ce4bhs12rcd13ifvqhvg","pricing_plan_id":"cebpf4jnsgd1na2vs0mg"},{"bike_id":"a2c3fda5-fb1e-4329-88c2-2e7960229574","system_id":"levelo_inurba_marseille","lat":43.31203,"lon":5.40305,"is_reserved":false,"is_disabled":false,"rental_uris":{"android":"levelo://app?vid=a2c3fda5-fb1e-4329-88c2-2e7960229574","ios":"levelo://app?vid=a2c3fda5-fb1e-4329-88c2-2e7960229574"},"vehicle_type_id":"4","last_reported":1768403750,"current_range_meters":6400,"station_id":"","pricing_plan_id":"cebpf4jnsgd1na2vs0mg"},{"bike_id":"f680f50c-74ae-434a-9907-5a62e8f7d3ec","system_id":"levelo_inurba_marseille","lat":43.30541,"lon":5.36693,"is_reserved":false,"is_disabled":false,"rental_uris":{"android":"levelo://app?vid=f680f50c-74ae-434a-9907-5a62e8f7d3ec","ios":"levelo://app?vid=f680f50c-74ae-434a-9907-5a62e8f7d3ec"},"vehicle_type_id":"4","last_reported":1768403750,"current_range_meters":6400,"station_id":"ce4bgrp2rcd13ifvqc9g","pricing_plan_id":"cebpf4jnsgd1na2vs0mg"},{"bike_id":"2469529a-4c4f-45b7-b2ce-c4433e05b931","system_id":"levelo_inurba_marseille","lat":43.28493,"lon":5.48405,"is_reserved":false,"is_disabled":false,"rental_uris":{"android":"levelo://app?vid=2469529a-4c4f-45b7-b2ce-c4433e05b931","ios":"levelo://app?vid=2469529a-4c4f-45b7-b2ce-c4433e05b931"},"vehicle_type_id":"4","last_reported":1768403750,"current_range_meters":6400,"station_id":"st_d3svhcjqgbts73a3dn0g","pricing_plan_id":"cebpf4jnsgd1na2vs0mg"},{"bike_id":"b0591438-4f8b-458b-95d3-396e832bb098","system_id":"levelo_inurba_marseille","lat":43.22548,"lon":5.41629,"is_reserved":false,"is_disabled":false,"rental_uris":{"android":"levelo://app?vid=b0591438-4f8b-458b-95d3-396e832bb098","ios":"levelo://app?vid=b0591438-4f8b-458b-95d3-396e832bb098"},"vehicle_type_id":"4","last_reported":1768403750,"current_range_meters":6400,"station_id":"st_d2o4gvlbi1j2169b742g","pricing_plan_id":"cebpf4jnsgd1na2vs0mg"},{"bike_id":"febaf834-6890-4460-af4c-2069c66ec096","system_id":"levelo_inurba_marseille","lat":43.28563,"lon":5.39492,"is_reserved":false,"is_disabled":false,"rental_uris":{"android":"levelo://app?vid=febaf834-6890-4460-af4c-2069c66ec096","ios":"levelo://app?vid=febaf834-6890-4460-af4c-2069c66ec096"},"vehicle_type_id":"4","last_reported":1768403750,"current_range_meters":6400,"station_id":"ce4bh292rcd13ifvqdg0","pricing_plan_id":"cebpf4jnsgd1na2vs0mg"},{"bike_id":"3628cfe9-19f5-43ff-9270-69e7b74c63cf","system_id":"levelo_inurba_marseille","lat":43.2935,"lon":5.40429,"is_reserved":false,"is_disabled":false,"rental_uris":{"android":"levelo://app?vid=3628cfe9-19f5-43ff-9270-69e7b74c63cf","ios":"levelo://app?vid=3628cfe9-19f5-43ff-9270-69e7b74c63cf"},"vehicle_type_id":"4","last_reported":1768403750,"current_range_meters":6400,"station_id":"","pricing_plan_id":"cebpf4jnsgd1na2vs0mg"},{"bike_id":"4a3d2ba7-a518-4e78-907b-34c7957e978e","system_id":"levelo_inurba_marseille","lat":43.29781,"lon":5.38086,"is_reserved":false,"is_disabled":false,"rental_uris":{"android":"levelo://app?vid=4a3d2ba7-a518-4e78-907b-34c7957e978e","ios":"levelo://app?vid=4a3d2ba7-a518-4e78-907b-34c7957e978e"},"vehicle_type_id":"4","last_reported":1768403750,"current_range_meters":6400,"station_id":"ce4bgip2rcd13ifvqbb0","pricing_plan_id":"cebpf4jnsgd1na2vs0mg"},{"bike_id":"6a4a1ebd-8c7d-4994-93f6-96c7adcc3fb5","system_id":"levelo_inurba_marseille","lat":43.25932,"lon":5.40899,"is_reserved":false,"is_disabled":false,"rental_uris":{"android":"levelo://app?vid=6a4a1ebd-8c7d-4994-93f6-96c7adcc3fb5","ios":"levelo://app?vid=6a4a1ebd-8c7d-4994-93f6-96c7adcc3fb5"},"vehicle_type_id":"4","last_reported":1768403750,"current_range_meters":6800,"station_id":"ce4bhm92rcd13ifvqglg","pricing_plan_id":"cebpf4jnsgd1na2vs0mg"},{"bike_id":"80e1cacf-c38d-4e99-beb6-97caf9f5d5a5","system_id":"levelo_inurba_marseille","lat":43.28214,"lon":5.39069,"is_reserved":false,"is_disabled":false,"rental_uris":{"android":"levelo://app?vid=80e1cacf-c38d-4e99-beb6-97caf9f5d5a5","ios":"levelo://app?vid=80e1cacf-c38d-4e99-beb6-97caf9f5d5a5"},"vehicle_type_id":"4","last_reported":1768403750,"current_range_meters":6800,"station_id":"ce4bhn92rcd13ifvqgsg","pricing_plan_id":"cebpf4jnsgd1na2vs0mg"},{"bike_id":"d8e03ef6-0c5e-49db-943c-98c26bf654da","system_id":"levelo_inurba_marseille","lat":43.29953,"lon":5.37434,"is_reserved":false,"is_disabled":false,"rental_uris":{"android":"levelo://app?vid=d8e03ef6-0c5e-49db-943c-98c26bf654da","ios":"levelo://app?vid=d8e03ef6-0c5e-49db-943c-98c26bf654da"},"vehicle_type_id":"4","last_reported":1768403750,"current_range_meters":6800,"station_id":"ce4bgjh2rcd13ifvqbg0","pricing_plan_id":"cebpf4jnsgd1na2vs0mg"},{"bike_id":"f90b66d8-7ec0-4b35-997a-ab70de47e1d5","system_id":"levelo_inurba_marseille","lat":43.32498,"lon":5.36552,"is_reserved":false,"is_disabled":false,"rental_uris":{"android":"levelo://app?vid=f90b66d8-7ec0-4b35-997a-ab70de47e1d5","ios":"levelo://app?vid=f90b66d8-7ec0-4b35-997a-ab70de47e1d5"},"vehicle_type_id":"4","last_reported":1768403750,"current_range_meters":6800,"station_id":"ce4bhs12rcd13ifvqhvg","pricing_plan_id":"cebpf4jnsgd1na2vs0mg"},{"bike_id":"a0b3c393-788e-427a-ba12-453c908bd9de","system_id":"levelo_inurba_marseille","lat":43.22926,"lon":5.35377,"is_reserved":false,"is_disabled":false,"rental_uris":{"android":"levelo://app?vid=a0b3c393-788e-427a-ba12-453c908bd9de","ios":"levelo://app?vid=a0b3c393-788e-427a-ba12-453c908bd9de"},"vehicle_type_id":"4","last_reported":1768403750,"current_range_meters":6800,"station_id":"cpo3532slgdg3j2ikp40","pricing_plan_id":"cebpf4jnsgd1na2vs0mg"},{"bike_id":"c584537b-62c7-4948-a162-60dcd0d33c4c","system_id":"levelo_inurba_marseille","lat":43.3236,"lon":5.36747,"is_reserved":false,"is_disabled":false,"rental_uris":{"android":"levelo://app?vid=c584537b-62c7-4948-a162-60dcd0d33c4c","ios":"levelo://app?vid=c584537b-62c7-4948-a162-60dcd0d33c4c"},"vehicle_type_id":"4","last_reported":1768403750,"current_range_meters":6800,"station_id":"ce4bhsh2rcd13ifvqi2g","pricing_plan_id":"cebpf4jnsgd1na2vs0mg"},{"bike_id":"d77c0181-f68a-40f5-8c4a-00b8c6ec74e6","system_id":"levelo_inurba_marseille","lat":43.29014,"lon":5.38644,"is_reserved":false,"is_disabled":false,"rental_uris":{"android":"levelo://app?vid=d77c0181-f68a-40f5-8c4a-00b8c6ec74e6","ios":"levelo://app?vid=d77c0181-f68a-40f5-8c4a-00b8c6ec74e6"},"vehicle_type_id":"4","last_reported":1768403750,"current_range_meters":6800,"station_id":"ce4bh4p2rcd13ifvqe0g","pricing_plan_id":"cebpf4jnsgd1na2vs0mg"},{"bike_id":"a41afe78-53cf-4544-bc4e-f67c85d3e8c4","system_id":"levelo_inurba_marseille","lat":43.31373,"lon":5.36734,"is_reserved":false,"is_disabled":false,"rental_uris":{"android":"levelo://app?vid=a41afe78-53cf-4544-bc4e-f67c85d3e8c4","ios":"levelo://app?vid=a41afe78-53cf-4544-bc4e-f67c85d3e8c4"},"vehicle_type_id":"4","last_reported":1768403750,"current_range_meters":6800,"station_id":"ce4bgr92rcd13ifvqc6g","pricing_plan_id":"cebpf4jnsgd1na2vs0mg"},{"bike_id":"611cbb73-54c4-4011-a401-b601214ce58b","system_id":"levelo_inurba_marseille","lat":43.25585,"lon":5.38243,"is_reserved":false,"is_disabled":false,"rental_uris":{"android":"levelo://app?vid=611cbb73-54c4-4011-a401-b601214ce58b","ios":"levelo://app?vid=611cbb73-54c4-4011-a401-b601214ce58b"},"vehicle_type_id":"4","last_reported":1768403750,"current_range_meters":6800,"station_id":"ce4bhih2rcd13ifvqfs0","pricing_plan_id":"cebpf4jnsgd1na2vs0mg"},{"bike_id":"c5ca41df-a10b-4946-8859-f377e5e5fca6","system_id":"levelo_inurba_marseille","lat":43.32553,"lon":5.41465,"is_reserved":false,"is_disabled":false,"rental_uris":{"android":"levelo://app?vid=c5ca41df-a10b-4946-8859-f377e5e5fca6","ios":"levelo://app?vid=c5ca41df-a10b-4946-8859-f377e5e5fca6"},"vehicle_type_id":"4","last_reported":1768403750,"current_range_meters":6800,"station_id":"ce4bhq12rcd13ifvqhhg","pricing_plan_id":"cebpf4jnsgd1na2vs0mg"},{"bike_id":"ae61c49b-1317-4f66-bef7-faf737c6ab84","system_id":"levelo_inurba_marseille","lat":43.24642,"lon":5.43144,"is_reserved":false,"is_disabled":false,"rental_uris":{"android":"levelo://app?vid=ae61c49b-1317-4f66-bef7-faf737c6ab84","ios":"levelo://app?vid=ae61c49b-1317-4f66-bef7-faf737c6ab84"},"vehicle_type_id":"4","last_reported":1768403750,"current_range_meters":7200,"station_id":"st_d2m6c4gdas8pm72e190g","pricing_plan_id":"cebpf4jnsgd1na2vs0mg"},{"bike_id":"b02e7b3d-bfa1-4a73-bfb4-3a8d24b24cf4","system_id":"levelo_inurba_marseille","lat":43.25499,"lon":5.37648,"is_reserved":false,"is_disabled":false,"rental_uris":{"android":"levelo://app?vid=b02e7b3d-bfa1-4a73-bfb4-3a8d24b24cf4","ios":"levelo://app?vid=b02e7b3d-bfa1-4a73-bfb4-3a8d24b24cf4"},"vehicle_type_id":"4","last_reported":1768403750,"current_range_meters":7200,"station_id":"ce4bhh12rcd13ifvqff0","pricing_plan_id":"cebpf4jnsgd1na2vs0mg"},{"bike_id":"07a56075-c17b-4aa2-85e8-1c03dc8948cc","system_id":"levelo_inurba_marseille","lat":43.30147,"lon":5.38082,"is_reserved":false,"is_disabled":false,"rental_uris":{"android":"levelo://app?vid=07a56075-c17b-4aa2-85e8-1c03dc8948cc","ios":"levelo://app?vid=07a56075-c17b-4aa2-85e8-1c03dc8948cc"},"vehicle_type_id":"4","last_reported":1768403750,"current_range_meters":7200,"station_id":"ce4bgjp2rcd13ifvqbh0","pricing_plan_id":"cebpf4jnsgd1na2vs0mg"},{"bike_id":"9f6a6cad-23f3-4d57-9bb7-4168c174d7e4","system_id":"levelo_inurba_marseille","lat":43.279972,"lon":5.400031,"is_reserved":false,"is_disabled":false,"rental_uris":{"android":"levelo://app?vid=9f6a6cad-23f3-4d57-9bb7-4168c174d7e4","ios":"levelo://app?vid=9f6a6cad-23f3-4d57-9bb7-4168c174d7e4"},"vehicle_type_id":"4","last_reported":1768403750,"current_range_meters":7200,"station_id":"ce4bho92rcd13ifvqh4g","pricing_plan_id":"cebpf4jnsgd1na2vs0mg"},{"bike_id":"55c2b75b-1ea7-466b-96dc-6daa0aa92ad4","system_id":"levelo_inurba_marseille","lat":43.29789,"lon":5.37104,"is_reserved":false,"is_disabled":false,"rental_uris":{"android":"levelo://app?vid=55c2b75b-1ea7-466b-96dc-6daa0aa92ad4","ios":"levelo://app?vid=55c2b75b-1ea7-466b-96dc-6daa0aa92ad4"},"vehicle_type_id":"4","last_reported":1768403750,"current_range_meters":7200,"station_id":"ce4bgop2rcd13ifvqc1g","pricing_plan_id":"cebpf4jnsgd1na2vs0mg"},{"bike_id":"cfb7bb00-10cc-4ff1-8a6d-b40c1192e549","system_id":"levelo_inurba_marseille","lat":43.30309,"lon":5.39206,"is_reserved":false,"is_disabled":false,"rental_uris":{"android":"levelo://app?vid=cfb7bb00-10cc-4ff1-8a6d-b40c1192e549","ios":"levelo://app?vid=cfb7bb00-10cc-4ff1-8a6d-b40c1192e549"},"vehicle_type_id":"4","last_reported":1768403750,"current_range_meters":7200,"station_id":"ce4bgkh2rcd13ifvqbk0","pricing_plan_id":"cebpf4jnsgd1na2vs0mg"},{"bike_id":"1c368511-4dc5-413e-9320-5c9141f9acf7","system_id":"levelo_inurba_marseille","lat":43.26422,"lon":5.39873,"is_reserved":false,"is_disabled":true,"rental_uris":{"android":"levelo://app?vid=1c368511-4dc5-413e-9320-5c9141f9acf7","ios":"levelo://app?vid=1c368511-4dc5-413e-9320-5c9141f9acf7"},"vehicle_type_id":"4","last_reported":1768403750,"current_range_meters":7200,"station_id":"","pricing_plan_id":"cebpf4jnsgd1na2vs0mg"},{"bike_id":"a23e10de-890f-42dc-9f7c-13c2744d871d","system_id":"levelo_inurba_marseille","lat":43.303582,"lon":5.396878,"is_reserved":false,"is_disabled":false,"rental_uris":{"android":"levelo://app?vid=a23e10de-890f-42dc-9f7c-13c2744d871d","ios":"levelo://app?vid=a23e10de-890f-42dc-9f7c-13c2744d871d"},"vehicle_type_id":"4","last_reported":1768403750,"current_range_meters":7200,"station_id":"ce4bh092rcd13ifvqd20","pricing_plan_id":"cebpf4jnsgd1na2vs0mg"},{"bike_id":"326fd45d-11eb-4826-92b5-835d5b4d7fbd","system_id":"levelo_inurba_marseille","lat":43.300324,"lon":5.388794,"is_reserved":false,"is_disabled":false,"rental_uris":{"android":"levelo://app?vid=326fd45d-11eb-4826-92b5-835d5b4d7fbd","ios":"levelo://app?vid=326fd45d-11eb-4826-92b5-835d5b4d7fbd"},"vehicle_type_id":"4","last_reported":1768403750,"current_range_meters":7200,"station_id":"","pricing_plan_id":"cebpf4jnsgd1na2vs0mg"},{"bike_id":"0fa275a2-2da3-48cc-9c56-8d7afce192ba","system_id":"levelo_inurba_marseille","lat":43.29773,"lon":5.37109,"is_reserved":false,"is_disabled":false,"rental_uris":{"android":"levelo://app?vid=0fa275a2-2da3-48cc-9c56-8d7afce192ba","ios":"levelo://app?vid=0fa275a2-2da3-48cc-9c56-8d7afce192ba"},"vehicle_type_id":"4","last_reported":1768403750,"current_range_meters":7200,"station_id":"ce4bgop2rcd13ifvqc1g","pricing_plan_id":"cebpf4jnsgd1na2vs0mg"},{"bike_id":"dbd86f85-5b5f-4ae9-8c1d-698ae30b47da","system_id":"levelo_inurba_marseille","lat":43.29685,"lon":5.36617,"is_reserved":false,"is_disabled":false,"rental_uris":{"android":"levelo://app?vid=dbd86f85-5b5f-4ae9-8c1d-698ae30b47da","ios":"levelo://app?vid=dbd86f85-5b5f-4ae9-8c1d-698ae30b47da"},"vehicle_type_id":"4","last_reported":1768403750,"current_range_meters":7200,"station_id":"ce4bgn12rcd13ifvqbt0","pricing_plan_id":"cebpf4jnsgd1na2vs0mg"},{"bike_id":"cb91171a-b433-4d62-9e48-7aa16e13fdf7","system_id":"levelo_inurba_marseille","lat":43.2976,"lon":5.42772,"is_reserved":false,"is_disabled":false,"rental_uris":{"android":"levelo://app?vid=cb91171a-b433-4d62-9e48-7aa16e13fdf7","ios":"levelo://app?vid=cb91171a-b433-4d62-9e48-7aa16e13fdf7"},"vehicle_type_id":"4","last_reported":1768403750,"current_range_meters":7200,"station_id":"st_d3md5207bmas73dh9klg","pricing_plan_id":"cebpf4jnsgd1na2vs0mg"},{"bike_id":"8803a6e9-67a3-479e-b849-a893754260d5","system_id":"levelo_inurba_marseille","lat":43.22954,"lon":5.35362,"is_reserved":false,"is_disabled":false,"rental_uris":{"android":"levelo://app?vid=8803a6e9-67a3-479e-b849-a893754260d5","ios":"levelo://app?vid=8803a6e9-67a3-479e-b849-a893754260d5"},"vehicle_type_id":"4","last_reported":1768403750,"current_range_meters":7200,"station_id":"cpo3532slgdg3j2ikp40","pricing_plan_id":"cebpf4jnsgd1na2vs0mg"},{"bike_id":"a95b6f12-0846-4420-87fd-d24a14a6b78d","system_id":"levelo_inurba_marseille","lat":43.262,"lon":5.37904,"is_reserved":false,"is_disabled":false,"rental_uris":{"android":"levelo://app?vid=a95b6f12-0846-4420-87fd-d24a14a6b78d","ios":"levelo://app?vid=a95b6f12-0846-4420-87fd-d24a14a6b78d"},"vehicle_type_id":"4","last_reported":1768403750,"current_range_meters":7200,"station_id":"ce4bhjp2rcd13ifvqg90","pricing_plan_id":"cebpf4jnsgd1na2vs0mg"},{"bike_id":"b9622b17-3746-4bc2-bd4b-3f727358b610","system_id":"levelo_inurba_marseille","lat":43.28032,"lon":5.36948,"is_reserved":false,"is_disabled":false,"rental_uris":{"android":"levelo://app?vid=b9622b17-3746-4bc2-bd4b-3f727358b610","ios":"levelo://app?vid=b9622b17-3746-4bc2-bd4b-3f727358b610"},"vehicle_type_id":"4","last_reported":1768403750,"current_range_meters":7200,"station_id":"ce4bha12rcd13ifvqef0","pricing_plan_id":"cebpf4jnsgd1na2vs0mg"},{"bike_id":"7efa5c5d-987d-4ada-abdf-caf18ee4b7ff","system_id":"levelo_inurba_marseille","lat":43.28012,"lon":5.40008,"is_reserved":false,"is_disabled":false,"rental_uris":{"android":"levelo://app?vid=7efa5c5d-987d-4ada-abdf-caf18ee4b7ff","ios":"levelo://app?vid=7efa5c5d-987d-4ada-abdf-caf18ee4b7ff"},"vehicle_type_id":"4","last_reported":1768403750,"current_range_meters":7200,"station_id":"ce4bho92rcd13ifvqh4g","pricing_plan_id":"cebpf4jnsgd1na2vs0mg"},{"bike_id":"a6f7909c-a26a-4d0c-8ed1-db8945d687a2","system_id":"levelo_inurba_marseille","lat":43.2619,"lon":5.37446,"is_reserved":false,"is_disabled":false,"rental_uris":{"android":"levelo://app?vid=a6f7909c-a26a-4d0c-8ed1-db8945d687a2","ios":"levelo://app?vid=a6f7909c-a26a-4d0c-8ed1-db8945d687a2"},"vehicle_type_id":"4","last_reported":1768403750,"current_range_meters":7200,"station_id":"ce4bhgp2rcd13ifvqfc0","pricing_plan_id":"cebpf4jnsgd1na2vs0mg"},{"bike_id":"f8065af1-b9b8-4652-a253-631edf7b8d39","system_id":"levelo_inurba_marseille","lat":43.28033,"lon":5.369378,"is_reserved":false,"is_disabled":false,"rental_uris":{"android":"levelo://app?vid=f8065af1-b9b8-4652-a253-631edf7b8d39","ios":"levelo://app?vid=f8065af1-b9b8-4652-a253-631edf7b8d39"},"vehicle_type_id":"4","last_reported":1768403750,"current_range_meters":7200,"station_id":"ce4bha12rcd13ifvqef0","pricing_plan_id":"cebpf4jnsgd1na2vs0mg"},{"bike_id":"c2354b44-17c1-478f-94d4-6c400a3bd0b6","system_id":"levelo_inurba_marseille","lat":43.24169,"lon":5.36395,"is_reserved":false,"is_disabled":false,"rental_uris":{"android":"levelo://app?vid=c2354b44-17c1-478f-94d4-6c400a3bd0b6","ios":"levelo://app?vid=c2354b44-17c1-478f-94d4-6c400a3bd0b6"},"vehicle_type_id":"4","last_reported":1768403750,"current_range_meters":7200,"station_id":"cpo36qri1sfpv3e86is0","pricing_plan_id":"cebpf4jnsgd1na2vs0mg"},{"bike_id":"037a0099-1ded-43c7-8e30-7e3e2a0dc4bc","system_id":"levelo_inurba_marseille","lat":43.24955,"lon":5.40495,"is_reserved":false,"is_disabled":false,"rental_uris":{"android":"levelo://app?vid=037a0099-1ded-43c7-8e30-7e3e2a0dc4bc","ios":"levelo://app?vid=037a0099-1ded-43c7-8e30-7e3e2a0dc4bc"},"vehicle_type_id":"4","last_reported":1768403750,"current_range_meters":7200,"station_id":"st_d2ngiaodas8pm72gd1h0","pricing_plan_id":"cebpf4jnsgd1na2vs0mg"},{"bike_id":"fb9e54b7-2865-432c-8762-7b2135e9a1f1","system_id":"levelo_inurba_marseille","lat":43.25121,"lon":5.40326,"is_reserved":false,"is_disabled":false,"rental_uris":{"android":"levelo://app?vid=fb9e54b7-2865-432c-8762-7b2135e9a1f1","ios":"levelo://app?vid=fb9e54b7-2865-432c-8762-7b2135e9a1f1"},"vehicle_type_id":"4","last_reported":1768403750,"current_range_meters":7200,"station_id":"ce4bhlh2rcd13ifvqgig","pricing_plan_id":"cebpf4jnsgd1na2vs0mg"},{"bike_id":"d9ee91fc-9736-4458-bad0-71b7ed5f4df8","system_id":"levelo_inurba_marseille","lat":43.295471,"lon":5.374776,"is_reserved":false,"is_disabled":false,"rental_uris":{"android":"levelo://app?vid=d9ee91fc-9736-4458-bad0-71b7ed5f4df8","ios":"levelo://app?vid=d9ee91fc-9736-4458-bad0-71b7ed5f4df8"},"vehicle_type_id":"4","last_reported":1768403750,"current_range_meters":8000,"station_id":"ce4bgkp2rcd13ifvqbmg","pricing_plan_id":"cebpf4jnsgd1na2vs0mg"},{"bike_id":"c4c5a3df-e90e-4579-88a2-9cc4ceac9cd9","system_id":"levelo_inurba_marseille","lat":43.30557,"lon":5.36679,"is_reserved":false,"is_disabled":false,"rental_uris":{"android":"levelo://app?vid=c4c5a3df-e90e-4579-88a2-9cc4ceac9cd9","ios":"levelo://app?vid=c4c5a3df-e90e-4579-88a2-9cc4ceac9cd9"},"vehicle_type_id":"4","last_reported":1768403750,"current_range_meters":8000,"station_id":"","pricing_plan_id":"cebpf4jnsgd1na2vs0mg"},{"bike_id":"c75b139b-6977-457c-8fab-86c172554976","system_id":"levelo_inurba_marseille","lat":43.25103,"lon":5.40455,"is_reserved":false,"is_disabled":false,"rental_uris":{"android":"levelo://app?vid=c75b139b-6977-457c-8fab-86c172554976","ios":"levelo://app?vid=c75b139b-6977-457c-8fab-86c172554976"},"vehicle_type_id":"4","last_reported":1768403750,"current_range_meters":8000,"station_id":"","pricing_plan_id":"cebpf4jnsgd1na2vs0mg"},{"bike_id":"45b63253-9cd6-43ba-af0b-349cd775f52c","system_id":"levelo_inurba_marseille","lat":43.29031,"lon":5.38669,"is_reserved":false,"is_disabled":false,"rental_uris":{"android":"levelo://app?vid=45b63253-9cd6-43ba-af0b-349cd775f52c","ios":"levelo://app?vid=45b63253-9cd6-43ba-af0b-349cd775f52c"},"vehicle_type_id":"4","last_reported":1768403750,"current_range_meters":8000,"station_id":"ce4bh4p2rcd13ifvqe0g","pricing_plan_id":"cebpf4jnsgd1na2vs0mg"},{"bike_id":"2f317efe-a01b-468a-9036-21dfc4cc3358","system_id":"levelo_inurba_marseille","lat":43.25821,"lon":5.39431,"is_reserved":false,"is_disabled":false,"rental_uris":{"android":"levelo://app?vid=2f317efe-a01b-468a-9036-21dfc4cc3358","ios":"levelo://app?vid=2f317efe-a01b-468a-9036-21dfc4cc3358"},"vehicle_type_id":"4","last_reported":1768403750,"current_range_meters":8000,"station_id":"ce4bhip2rcd13ifvqft0","pricing_plan_id":"cebpf4jnsgd1na2vs0mg"},{"bike_id":"660f8d3d-996c-4d0c-a098-476ebc30f600","system_id":"levelo_inurba_marseille","lat":43.22562,"lon":5.41634,"is_reserved":false,"is_disabled":false,"rental_uris":{"android":"levelo://app?vid=660f8d3d-996c-4d0c-a098-476ebc30f600","ios":"levelo://app?vid=660f8d3d-996c-4d0c-a098-476ebc30f600"},"vehicle_type_id":"4","last_reported":1768403750,"current_range_meters":8000,"station_id":"st_d2o4gvlbi1j2169b742g","pricing_plan_id":"cebpf4jnsgd1na2vs0mg"},{"bike_id":"72ff7b73-b7a5-4e8c-b009-667fa554ab4f","system_id":"levelo_inurba_marseille","lat":43.23146,"lon":5.43712,"is_reserved":false,"is_disabled":false,"rental_uris":{"android":"levelo://app?vid=72ff7b73-b7a5-4e8c-b009-667fa554ab4f","ios":"levelo://app?vid=72ff7b73-b7a5-4e8c-b009-667fa554ab4f"},"vehicle_type_id":"4","last_reported":1768403750,"current_range_meters":8000,"station_id":"ce4bhmp2rcd13ifvqgog","pricing_plan_id":"cebpf4jnsgd1na2vs0mg"},{"bike_id":"e6a4415e-66da-4886-926f-dde89eafb0da","system_id":"levelo_inurba_marseille","lat":43.265395,"lon":5.372878,"is_reserved":false,"is_disabled":false,"rental_uris":{"android":"levelo://app?vid=e6a4415e-66da-4886-926f-dde89eafb0da","ios":"levelo://app?vid=e6a4415e-66da-4886-926f-dde89eafb0da"},"vehicle_type_id":"4","last_reported":1768403750,"current_range_meters":8000,"station_id":"ce4bhg12rcd13ifvqf70","pricing_plan_id":"cebpf4jnsgd1na2vs0mg"},{"bike_id":"0c08eb3d-a19e-4d62-b497-0f3ea168f9d9","system_id":"levelo_inurba_marseille","lat":43.25859,"lon":5.39898,"is_reserved":false,"is_disabled":false,"rental_uris":{"android":"levelo://app?vid=0c08eb3d-a19e-4d62-b497-0f3ea168f9d9","ios":"levelo://app?vid=0c08eb3d-a19e-4d62-b497-0f3ea168f9d9"},"vehicle_type_id":"4","last_reported":1768403750,"current_range_meters":8000,"station_id":"ce4bhl92rcd13ifvqghg","pricing_plan_id":"cebpf4jnsgd1na2vs0mg"},{"bike_id":"f27272d4-b42c-4660-aff8-11729aa104cc","system_id":"levelo_inurba_marseille","lat":43.31227,"lon":5.36846,"is_reserved":false,"is_disabled":false,"rental_uris":{"android":"levelo://app?vid=f27272d4-b42c-4660-aff8-11729aa104cc","ios":"levelo://app?vid=f27272d4-b42c-4660-aff8-11729aa104cc"},"vehicle_type_id":"4","last_reported":1768403750,"current_range_meters":8000,"station_id":"ce4bgl92rcd13ifvqbq0","pricing_plan_id":"cebpf4jnsgd1na2vs0mg"},{"bike_id":"86aaef4b-aac1-4248-ac79-0d9f37b8c62f","system_id":"levelo_inurba_marseille","lat":43.27317,"lon":5.41682,"is_reserved":false,"is_disabled":false,"rental_uris":{"android":"levelo://app?vid=86aaef4b-aac1-4248-ac79-0d9f37b8c62f","ios":"levelo://app?vid=86aaef4b-aac1-4248-ac79-0d9f37b8c62f"},"vehicle_type_id":"4","last_reported":1768403750,"current_range_meters":8000,"station_id":"","pricing_plan_id":"cebpf4jnsgd1na2vs0mg"},{"bike_id":"8c24ea60-47e9-4aa1-9da8-ac4bf37e02a1","system_id":"levelo_inurba_marseille","lat":43.24385,"lon":5.37049,"is_reserved":false,"is_disabled":false,"rental_uris":{"android":"levelo://app?vid=8c24ea60-47e9-4aa1-9da8-ac4bf37e02a1","ios":"levelo://app?vid=8c24ea60-47e9-4aa1-9da8-ac4bf37e02a1"},"vehicle_type_id":"4","last_reported":1768403750,"current_range_meters":8000,"station_id":"ce4bhhh2rcd13ifvqfk0","pricing_plan_id":"cebpf4jnsgd1na2vs0mg"},{"bike_id":"7cb266d5-07da-4248-a2a3-ae0ed4caa721","system_id":"levelo_inurba_marseille","lat":43.29166,"lon":5.37156,"is_reserved":false,"is_disabled":false,"rental_uris":{"android":"levelo://app?vid=7cb266d5-07da-4248-a2a3-ae0ed4caa721","ios":"levelo://app?vid=7cb266d5-07da-4248-a2a3-ae0ed4caa721"},"vehicle_type_id":"4","last_reported":1768403750,"current_range_meters":8000,"station_id":"ce4bha92rcd13ifvqeh0","pricing_plan_id":"cebpf4jnsgd1na2vs0mg"},{"bike_id":"32a6fb2e-0d07-41f5-98d9-49c5a72b9745","system_id":"levelo_inurba_marseille","lat":43.2582,"lon":5.39429,"is_reserved":false,"is_disabled":false,"rental_uris":{"android":"levelo://app?vid=32a6fb2e-0d07-41f5-98d9-49c5a72b9745","ios":"levelo://app?vid=32a6fb2e-0d07-41f5-98d9-49c5a72b9745"},"vehicle_type_id":"4","last_reported":1768403750,"current_range_meters":8000,"station_id":"ce4bhip2rcd13ifvqft0","pricing_plan_id":"cebpf4jnsgd1na2vs0mg"},{"bike_id":"a45f187f-4ab2-403a-85d2-aa48ef73c203","system_id":"levelo_inurba_marseille","lat":43.30607,"lon":5.37226,"is_reserved":false,"is_disabled":false,"rental_uris":{"android":"levelo://app?vid=a45f187f-4ab2-403a-85d2-aa48ef73c203","ios":"levelo://app?vid=a45f187f-4ab2-403a-85d2-aa48ef73c203"},"vehicle_type_id":"4","last_reported":1768403750,"current_range_meters":8000,"station_id":"ce4bgqh2rcd13ifvqc4g","pricing_plan_id":"cebpf4jnsgd1na2vs0mg"},{"bike_id":"55194f29-42dd-4454-96b2-a5d4401446b6","system_id":"levelo_inurba_marseille","lat":43.29935,"lon":5.4275,"is_reserved":false,"is_disabled":false,"rental_uris":{"android":"levelo://app?vid=55194f29-42dd-4454-96b2-a5d4401446b6","ios":"levelo://app?vid=55194f29-42dd-4454-96b2-a5d4401446b6"},"vehicle_type_id":"4","last_reported":1768403750,"current_range_meters":8000,"station_id":"","pricing_plan_id":"cebpf4jnsgd1na2vs0mg"},{"bike_id":"ae1d99b1-82a1-460d-bd96-dc1d194fe893","system_id":"levelo_inurba_marseille","lat":43.29823,"lon":5.37648,"is_reserved":false,"is_disabled":false,"rental_uris":{"android":"levelo://app?vid=ae1d99b1-82a1-460d-bd96-dc1d194fe893","ios":"levelo://app?vid=ae1d99b1-82a1-460d-bd96-dc1d194fe893"},"vehicle_type_id":"4","last_reported":1768403750,"current_range_meters":8000,"station_id":"","pricing_plan_id":"cebpf4jnsgd1na2vs0mg"},{"bike_id":"091c8081-61de-43ac-bb2c-74077a5d4149","system_id":"levelo_inurba_marseille","lat":43.22554,"lon":5.41628,"is_reserved":false,"is_disabled":false,"rental_uris":{"android":"levelo://app?vid=091c8081-61de-43ac-bb2c-74077a5d4149","ios":"levelo://app?vid=091c8081-61de-43ac-bb2c-74077a5d4149"},"vehicle_type_id":"4","last_reported":1768403750,"current_range_meters":8000,"station_id":"st_d2o4gvlbi1j2169b742g","pricing_plan_id":"cebpf4jnsgd1na2vs0mg"},{"bike_id":"204ac4ab-e203-4329-9ff0-720626e1f908","system_id":"levelo_inurba_marseille","lat":43.27065,"lon":5.38313,"is_reserved":false,"is_disabled":true,"rental_uris":{"android":"levelo://app?vid=204ac4ab-e203-4329-9ff0-720626e1f908","ios":"levelo://app?vid=204ac4ab-e203-4329-9ff0-720626e1f908"},"vehicle_type_id":"4","last_reported":1768403750,"current_range_meters":8000,"station_id":"st_d3n2fo6cfp8s73cte1j0","pricing_plan_id":"cebpf4jnsgd1na2vs0mg"},{"bike_id":"d822d21f-2a31-408a-b00b-b3387695630b","system_id":"levelo_inurba_marseille","lat":43.21193,"lon":5.35079,"is_reserved":false,"is_disabled":false,"rental_uris":{"android":"levelo://app?vid=d822d21f-2a31-408a-b00b-b3387695630b","ios":"levelo://app?vid=d822d21f-2a31-408a-b00b-b3387695630b"},"vehicle_type_id":"4","last_reported":1768403750,"current_range_meters":8000,"station_id":"st_cvj6sg6p6f1abm77japg","pricing_plan_id":"cebpf4jnsgd1na2vs0mg"},{"bike_id":"4883c970-634b-4de4-9e21-df47a68eb757","system_id":"levelo_inurba_marseille","lat":43.28482,"lon":5.48391,"is_reserved":false,"is_disabled":false,"rental_uris":{"android":"levelo://app?vid=4883c970-634b-4de4-9e21-df47a68eb757","ios":"levelo://app?vid=4883c970-634b-4de4-9e21-df47a68eb757"},"vehicle_type_id":"4","last_reported":1768403750,"current_range_meters":8000,"station_id":"st_d3svhcjqgbts73a3dn0g","pricing_plan_id":"cebpf4jnsgd1na2vs0mg"},{"bike_id":"e5ac10bb-a8aa-46ba-b5c6-882fa56001e2","system_id":"levelo_inurba_marseille","lat":43.27326,"lon":5.39108,"is_reserved":false,"is_disabled":false,"rental_uris":{"android":"levelo://app?vid=e5ac10bb-a8aa-46ba-b5c6-882fa56001e2","ios":"levelo://app?vid=e5ac10bb-a8aa-46ba-b5c6-882fa56001e2"},"vehicle_type_id":"4","last_reported":1768403750,"current_range_meters":8000,"station_id":"ce4bhgp2rcd13ifvqfe0","pricing_plan_id":"cebpf4jnsgd1na2vs0mg"},{"bike_id":"44e09ea4-244a-4bbe-8077-ea08fd693753","system_id":"levelo_inurba_marseille","lat":43.3027,"lon":5.37701,"is_reserved":false,"is_disabled":false,"rental_uris":{"android":"levelo://app?vid=44e09ea4-244a-4bbe-8077-ea08fd693753","ios":"levelo://app?vid=44e09ea4-244a-4bbe-8077-ea08fd693753"},"vehicle_type_id":"4","last_reported":1768403750,"current_range_meters":8400,"station_id":"ce4bguh2rcd13ifvqcj0","pricing_plan_id":"cebpf4jnsgd1na2vs0mg"},{"bike_id":"7cccb604-f149-4e8e-9ee8-78300c58372e","system_id":"levelo_inurba_marseille","lat":43.2319,"lon":5.3999,"is_reserved":false,"is_disabled":false,"rental_uris":{"android":"levelo://app?vid=7cccb604-f149-4e8e-9ee8-78300c58372e","ios":"levelo://app?vid=7cccb604-f149-4e8e-9ee8-78300c58372e"},"vehicle_type_id":"4","last_reported":1768403750,"current_range_meters":8400,"station_id":"ce4bhn12rcd13ifvqgqg","pricing_plan_id":"cebpf4jnsgd1na2vs0mg"},{"bike_id":"06897417-f925-403b-9b53-83cb77fb311f","system_id":"levelo_inurba_marseille","lat":43.22948,"lon":5.3537,"is_reserved":false,"is_disabled":false,"rental_uris":{"android":"levelo://app?vid=06897417-f925-403b-9b53-83cb77fb311f","ios":"levelo://app?vid=06897417-f925-403b-9b53-83cb77fb311f"},"vehicle_type_id":"4","last_reported":1768403750,"current_range_meters":8400,"station_id":"cpo3532slgdg3j2ikp40","pricing_plan_id":"cebpf4jnsgd1na2vs0mg"},{"bike_id":"9e6b9d48-95e6-48ab-b8e9-c4dd24303086","system_id":"levelo_inurba_marseille","lat":43.26216,"lon":5.37438,"is_reserved":false,"is_disabled":false,"rental_uris":{"android":"levelo://app?vid=9e6b9d48-95e6-48ab-b8e9-c4dd24303086","ios":"levelo://app?vid=9e6b9d48-95e6-48ab-b8e9-c4dd24303086"},"vehicle_type_id":"4","last_reported":1768403750,"current_range_meters":8400,"station_id":"ce4bhgp2rcd13ifvqfc0","pricing_plan_id":"cebpf4jnsgd1na2vs0mg"},{"bike_id":"0018a145-5229-40b3-8721-56b2cedfd3d6","system_id":"levelo_inurba_marseille","lat":43.27994,"lon":5.39994,"is_reserved":false,"is_disabled":false,"rental_uris":{"android":"levelo://app?vid=0018a145-5229-40b3-8721-56b2cedfd3d6","ios":"levelo://app?vid=0018a145-5229-40b3-8721-56b2cedfd3d6"},"vehicle_type_id":"4","last_reported":1768403750,"current_range_meters":8400,"station_id":"ce4bho92rcd13ifvqh4g","pricing_plan_id":"cebpf4jnsgd1na2vs0mg"},{"bike_id":"52dc7a23-02b1-49ea-88fe-a1d65ef8f548","system_id":"levelo_inurba_marseille","lat":43.22937,"lon":5.3537,"is_reserved":false,"is_disabled":false,"rental_uris":{"android":"levelo://app?vid=52dc7a23-02b1-49ea-88fe-a1d65ef8f548","ios":"levelo://app?vid=52dc7a23-02b1-49ea-88fe-a1d65ef8f548"},"vehicle_type_id":"4","last_reported":1768403750,"current_range_meters":8400,"station_id":"cpo3532slgdg3j2ikp40","pricing_plan_id":"cebpf4jnsgd1na2vs0mg"},{"bike_id":"98c3b462-21fb-4de9-b751-76d8a990aacf","system_id":"levelo_inurba_marseille","lat":43.29978,"lon":5.38506,"is_reserved":false,"is_disabled":false,"rental_uris":{"android":"levelo://app?vid=98c3b462-21fb-4de9-b751-76d8a990aacf","ios":"levelo://app?vid=98c3b462-21fb-4de9-b751-76d8a990aacf"},"vehicle_type_id":"4","last_reported":1768403750,"current_range_meters":8400,"station_id":"ce4bgj92rcd13ifvqbd0","pricing_plan_id":"cebpf4jnsgd1na2vs0mg"},{"bike_id":"c9da304b-df64-469f-a8fe-783a041f993b","system_id":"levelo_inurba_marseille","lat":43.3055,"lon":5.36529,"is_reserved":false,"is_disabled":false,"rental_uris":{"android":"levelo://app?vid=c9da304b-df64-469f-a8fe-783a041f993b","ios":"levelo://app?vid=c9da304b-df64-469f-a8fe-783a041f993b"},"vehicle_type_id":"4","last_reported":1768403750,"current_range_meters":8400,"station_id":"ce4bgs12rcd13ifvqcag","pricing_plan_id":"cebpf4jnsgd1na2vs0mg"},{"bike_id":"f1177697-24b8-4122-96be-92006a04ddc7","system_id":"levelo_inurba_marseille","lat":43.27842,"lon":5.40679,"is_reserved":false,"is_disabled":false,"rental_uris":{"android":"levelo://app?vid=f1177697-24b8-4122-96be-92006a04ddc7","ios":"levelo://app?vid=f1177697-24b8-4122-96be-92006a04ddc7"},"vehicle_type_id":"4","last_reported":1768403750,"current_range_meters":8400,"station_id":"ce4bhnh2rcd13ifvqgtg","pricing_plan_id":"cebpf4jnsgd1na2vs0mg"},{"bike_id":"c63bcb26-d45e-41ec-a1d2-cc279005f6af","system_id":"levelo_inurba_marseille","lat":43.2949,"lon":5.43309,"is_reserved":false,"is_disabled":false,"rental_uris":{"android":"levelo://app?vid=c63bcb26-d45e-41ec-a1d2-cc279005f6af","ios":"levelo://app?vid=c63bcb26-d45e-41ec-a1d2-cc279005f6af"},"vehicle_type_id":"4","last_reported":1768403750,"current_range_meters":8400,"station_id":"st_d3j5ugp08ojc73fj9d10","pricing_plan_id":"cebpf4jnsgd1na2vs0mg"},{"bike_id":"7420a463-05be-48d3-a089-82560d5ea99f","system_id":"levelo_inurba_marseille","lat":43.25111,"lon":5.40325,"is_reserved":false,"is_disabled":false,"rental_uris":{"android":"levelo://app?vid=7420a463-05be-48d3-a089-82560d5ea99f","ios":"levelo://app?vid=7420a463-05be-48d3-a089-82560d5ea99f"},"vehicle_type_id":"4","last_reported":1768403750,"current_range_meters":8400,"station_id":"ce4bhlh2rcd13ifvqgig","pricing_plan_id":"cebpf4jnsgd1na2vs0mg"},{"bike_id":"f387d4b1-1f1a-4be4-8ba2-1fe01e55e68b","system_id":"levelo_inurba_marseille","lat":43.29181,"lon":5.39314,"is_reserved":false,"is_disabled":false,"rental_uris":{"android":"levelo://app?vid=f387d4b1-1f1a-4be4-8ba2-1fe01e55e68b","ios":"levelo://app?vid=f387d4b1-1f1a-4be4-8ba2-1fe01e55e68b"},"vehicle_type_id":"4","last_reported":1768403750,"current_range_meters":8400,"station_id":"ce4bh192rcd13ifvqdd0","pricing_plan_id":"cebpf4jnsgd1na2vs0mg"},{"bike_id":"6c799995-0e06-42c8-b4eb-c92366ef62a8","system_id":"levelo_inurba_marseille","lat":43.27335,"lon":5.3909,"is_reserved":false,"is_disabled":false,"rental_uris":{"android":"levelo://app?vid=6c799995-0e06-42c8-b4eb-c92366ef62a8","ios":"levelo://app?vid=6c799995-0e06-42c8-b4eb-c92366ef62a8"},"vehicle_type_id":"4","last_reported":1768403750,"current_range_meters":8400,"station_id":"ce4bhgp2rcd13ifvqfe0","pricing_plan_id":"cebpf4jnsgd1na2vs0mg"},{"bike_id":"43edefa6-64e3-4912-b92b-ba1472456f7d","system_id":"levelo_inurba_marseille","lat":43.28936,"lon":5.36397,"is_reserved":false,"is_disabled":false,"rental_uris":{"android":"levelo://app?vid=43edefa6-64e3-4912-b92b-ba1472456f7d","ios":"levelo://app?vid=43edefa6-64e3-4912-b92b-ba1472456f7d"},"vehicle_type_id":"4","last_reported":1768403750,"current_range_meters":8400,"station_id":"ce4bhc92rcd13ifvqetg","pricing_plan_id":"cebpf4jnsgd1na2vs0mg"},{"bike_id":"4c558cb0-66d7-4abe-a172-a3dd3c0e5333","system_id":"levelo_inurba_marseille","lat":43.30878,"lon":5.37185,"is_reserved":false,"is_disabled":false,"rental_uris":{"android":"levelo://app?vid=4c558cb0-66d7-4abe-a172-a3dd3c0e5333","ios":"levelo://app?vid=4c558cb0-66d7-4abe-a172-a3dd3c0e5333"},"vehicle_type_id":"4","last_reported":1768403750,"current_range_meters":8400,"station_id":"ce4bguh2rcd13ifvqckg","pricing_plan_id":"cebpf4jnsgd1na2vs0mg"},{"bike_id":"5eca2757-10c0-4e1c-b8b4-d19eda7615f8","system_id":"levelo_inurba_marseille","lat":43.24468,"lon":5.42529,"is_reserved":false,"is_disabled":false,"rental_uris":{"android":"levelo://app?vid=5eca2757-10c0-4e1c-b8b4-d19eda7615f8","ios":"levelo://app?vid=5eca2757-10c0-4e1c-b8b4-d19eda7615f8"},"vehicle_type_id":"4","last_reported":1768403750,"current_range_meters":8400,"station_id":"st_d4a3vfp97mjs738cd8kg","pricing_plan_id":"cebpf4jnsgd1na2vs0mg"},{"bike_id":"e944e67b-6d99-427b-be9e-46cf21d151b9","system_id":"levelo_inurba_marseille","lat":43.28697,"lon":5.37388,"is_reserved":false,"is_disabled":false,"rental_uris":{"android":"levelo://app?vid=e944e67b-6d99-427b-be9e-46cf21d151b9","ios":"levelo://app?vid=e944e67b-6d99-427b-be9e-46cf21d151b9"},"vehicle_type_id":"4","last_reported":1768403750,"current_range_meters":8400,"station_id":"ce4bh3p2rcd13ifvqdq0","pricing_plan_id":"cebpf4jnsgd1na2vs0mg"},{"bike_id":"03e9f015-73ba-4c3e-a345-a62206b593d1","system_id":"levelo_inurba_marseille","lat":43.32493,"lon":5.36558,"is_reserved":false,"is_disabled":false,"rental_uris":{"android":"levelo://app?vid=03e9f015-73ba-4c3e-a345-a62206b593d1","ios":"levelo://app?vid=03e9f015-73ba-4c3e-a345-a62206b593d1"},"vehicle_type_id":"4","last_reported":1768403750,"current_range_meters":8800,"station_id":"ce4bhs12rcd13ifvqhvg","pricing_plan_id":"cebpf4jnsgd1na2vs0mg"},{"bike_id":"9d1a6d24-7155-4458-99e8-cf8d159dfd69","system_id":"levelo_inurba_marseille","lat":43.28459,"lon":5.35898,"is_reserved":false,"is_disabled":false,"rental_uris":{"android":"levelo://app?vid=9d1a6d24-7155-4458-99e8-cf8d159dfd69","ios":"levelo://app?vid=9d1a6d24-7155-4458-99e8-cf8d159dfd69"},"vehicle_type_id":"4","last_reported":1768403750,"current_range_meters":8800,"station_id":"ce4bhah2rcd13ifvqei0","pricing_plan_id":"cebpf4jnsgd1na2vs0mg"},{"bike_id":"a91a986f-611b-4f2d-a755-d3c91591c10f","system_id":"levelo_inurba_marseille","lat":43.25168,"lon":5.40318,"is_reserved":false,"is_disabled":false,"rental_uris":{"android":"levelo://app?vid=a91a986f-611b-4f2d-a755-d3c91591c10f","ios":"levelo://app?vid=a91a986f-611b-4f2d-a755-d3c91591c10f"},"vehicle_type_id":"4","last_reported":1768403750,"current_range_meters":8800,"station_id":"","pricing_plan_id":"cebpf4jnsgd1na2vs0mg"},{"bike_id":"634a5032-07c2-4ad0-b886-0e21c013fdce","system_id":"levelo_inurba_marseille","lat":43.25583,"lon":5.38221,"is_reserved":false,"is_disabled":false,"rental_uris":{"android":"levelo://app?vid=634a5032-07c2-4ad0-b886-0e21c013fdce","ios":"levelo://app?vid=634a5032-07c2-4ad0-b886-0e21c013fdce"},"vehicle_type_id":"4","last_reported":1768403750,"current_range_meters":8800,"station_id":"ce4bhih2rcd13ifvqfs0","pricing_plan_id":"cebpf4jnsgd1na2vs0mg"},{"bike_id":"7445f670-7827-4e99-80df-37c19e7cc9ec","system_id":"levelo_inurba_marseille","lat":43.321,"lon":5.36768,"is_reserved":false,"is_disabled":false,"rental_uris":{"android":"levelo://app?vid=7445f670-7827-4e99-80df-37c19e7cc9ec","ios":"levelo://app?vid=7445f670-7827-4e99-80df-37c19e7cc9ec"},"vehicle_type_id":"4","last_reported":1768403750,"current_range_meters":8800,"station_id":"ce4bhrh2rcd13ifvqhug","pricing_plan_id":"cebpf4jnsgd1na2vs0mg"},{"bike_id":"5e7227f8-86fb-4cf6-9e24-904df88209ff","system_id":"levelo_inurba_marseille","lat":43.2842,"lon":5.34986,"is_reserved":false,"is_disabled":false,"rental_uris":{"android":"levelo://app?vid=5e7227f8-86fb-4cf6-9e24-904df88209ff","ios":"levelo://app?vid=5e7227f8-86fb-4cf6-9e24-904df88209ff"},"vehicle_type_id":"4","last_reported":1768403750,"current_range_meters":8800,"station_id":"ce4bhbh2rcd13ifvqepg","pricing_plan_id":"cebpf4jnsgd1na2vs0mg"},{"bike_id":"1d4a4fad-6302-435f-a955-d4f4ff25438d","system_id":"levelo_inurba_marseille","lat":43.26776,"lon":5.39417,"is_reserved":false,"is_disabled":false,"rental_uris":{"android":"levelo://app?vid=1d4a4fad-6302-435f-a955-d4f4ff25438d","ios":"levelo://app?vid=1d4a4fad-6302-435f-a955-d4f4ff25438d"},"vehicle_type_id":"4","last_reported":1768403750,"current_range_meters":8800,"station_id":"ce4bhh12rcd13ifvqfg0","pricing_plan_id":"cebpf4jnsgd1na2vs0mg"},{"bike_id":"984953dd-4d3f-44ad-bb8d-cee2582bab23","system_id":"levelo_inurba_marseille","lat":43.27813,"lon":5.40708,"is_reserved":false,"is_disabled":false,"rental_uris":{"android":"levelo://app?vid=984953dd-4d3f-44ad-bb8d-cee2582bab23","ios":"levelo://app?vid=984953dd-4d3f-44ad-bb8d-cee2582bab23"},"vehicle_type_id":"4","last_reported":1768403750,"current_range_meters":8800,"station_id":"ce4bhnh2rcd13ifvqgtg","pricing_plan_id":"cebpf4jnsgd1na2vs0mg"},{"bike_id":"5410fd45-b8b4-470d-9bd7-ad1acafbc363","system_id":"levelo_inurba_marseille","lat":43.28476,"lon":5.48397,"is_reserved":false,"is_disabled":false,"rental_uris":{"android":"levelo://app?vid=5410fd45-b8b4-470d-9bd7-ad1acafbc363","ios":"levelo://app?vid=5410fd45-b8b4-470d-9bd7-ad1acafbc363"},"vehicle_type_id":"4","last_reported":1768403750,"current_range_meters":8800,"station_id":"","pricing_plan_id":"cebpf4jnsgd1na2vs0mg"},{"bike_id":"e11889a7-dd00-4680-82ad-dc48c0a7f8b9","system_id":"levelo_inurba_marseille","lat":43.2295,"lon":5.35364,"is_reserved":false,"is_disabled":false,"rental_uris":{"android":"levelo://app?vid=e11889a7-dd00-4680-82ad-dc48c0a7f8b9","ios":"levelo://app?vid=e11889a7-dd00-4680-82ad-dc48c0a7f8b9"},"vehicle_type_id":"4","last_reported":1768403750,"current_range_meters":8800,"station_id":"cpo3532slgdg3j2ikp40","pricing_plan_id":"cebpf4jnsgd1na2vs0mg"},{"bike_id":"aac02660-451c-4466-97cc-03bd6873da26","system_id":"levelo_inurba_marseille","lat":43.24803,"lon":5.37445,"is_reserved":false,"is_disabled":false,"rental_uris":{"android":"levelo://app?vid=aac02660-451c-4466-97cc-03bd6873da26","ios":"levelo://app?vid=aac02660-451c-4466-97cc-03bd6873da26"},"vehicle_type_id":"4","last_reported":1768403750,"current_range_meters":8800,"station_id":"ce4bhgh2rcd13ifvqfb0","pricing_plan_id":"cebpf4jnsgd1na2vs0mg"},{"bike_id":"e02c7f3d-6071-45aa-8ebf-5ecfe6972e7e","system_id":"levelo_inurba_marseille","lat":43.25331,"lon":5.42165,"is_reserved":false,"is_disabled":false,"rental_uris":{"android":"levelo://app?vid=e02c7f3d-6071-45aa-8ebf-5ecfe6972e7e","ios":"levelo://app?vid=e02c7f3d-6071-45aa-8ebf-5ecfe6972e7e"},"vehicle_type_id":"4","last_reported":1768403750,"current_range_meters":8800,"station_id":"st_d2m65c5bi1j21697t3ng","pricing_plan_id":"cebpf4jnsgd1na2vs0mg"},{"bike_id":"a293b5ac-cc9d-4eaf-9c82-287a9bc7812d","system_id":"levelo_inurba_marseille","lat":43.28972,"lon":5.3884,"is_reserved":false,"is_disabled":false,"rental_uris":{"android":"levelo://app?vid=a293b5ac-cc9d-4eaf-9c82-287a9bc7812d","ios":"levelo://app?vid=a293b5ac-cc9d-4eaf-9c82-287a9bc7812d"},"vehicle_type_id":"4","last_reported":1768403750,"current_range_meters":8800,"station_id":"","pricing_plan_id":"cebpf4jnsgd1na2vs0mg"},{"bike_id":"c183831b-2c60-4146-b7a0-f26742514f22","system_id":"levelo_inurba_marseille","lat":43.28922,"lon":5.36628,"is_reserved":false,"is_disabled":false,"rental_uris":{"android":"levelo://app?vid=c183831b-2c60-4146-b7a0-f26742514f22","ios":"levelo://app?vid=c183831b-2c60-4146-b7a0-f26742514f22"},"vehicle_type_id":"4","last_reported":1768403750,"current_range_meters":8800,"station_id":"ce4bhap2rcd13ifvqek0","pricing_plan_id":"cebpf4jnsgd1na2vs0mg"},{"bike_id":"4a0910bc-2cb8-4117-a88f-aa517b88b474","system_id":"levelo_inurba_marseille","lat":43.344069,"lon":5.399894,"is_reserved":false,"is_disabled":false,"rental_uris":{"android":"levelo://app?vid=4a0910bc-2cb8-4117-a88f-aa517b88b474","ios":"levelo://app?vid=4a0910bc-2cb8-4117-a88f-aa517b88b474"},"vehicle_type_id":"4","last_reported":1768403750,"current_range_meters":8800,"station_id":"","pricing_plan_id":"cebpf4jnsgd1na2vs0mg"},{"bike_id":"32ed67de-fd5b-4133-8bca-f90f8a490931","system_id":"levelo_inurba_marseille","lat":43.29542,"lon":5.37505,"is_reserved":false,"is_disabled":false,"rental_uris":{"android":"levelo://app?vid=32ed67de-fd5b-4133-8bca-f90f8a490931","ios":"levelo://app?vid=32ed67de-fd5b-4133-8bca-f90f8a490931"},"vehicle_type_id":"4","last_reported":1768403750,"current_range_meters":8800,"station_id":"ce4bgkp2rcd13ifvqbmg","pricing_plan_id":"cebpf4jnsgd1na2vs0mg"},{"bike_id":"c123464f-c78f-4ecb-b36c-78457419eb91","system_id":"levelo_inurba_marseille","lat":43.28605,"lon":5.39898,"is_reserved":false,"is_disabled":false,"rental_uris":{"android":"levelo://app?vid=c123464f-c78f-4ecb-b36c-78457419eb91","ios":"levelo://app?vid=c123464f-c78f-4ecb-b36c-78457419eb91"},"vehicle_type_id":"4","last_reported":1768403750,"current_range_meters":8800,"station_id":"st_d4a7ka997mjs738ck50g","pricing_plan_id":"cebpf4jnsgd1na2vs0mg"},{"bike_id":"f9fdbb48-1798-4538-9bda-de4b35ab0ad4","system_id":"levelo_inurba_marseille","lat":43.29711,"lon":5.37699,"is_reserved":false,"is_disabled":false,"rental_uris":{"android":"levelo://app?vid=f9fdbb48-1798-4538-9bda-de4b35ab0ad4","ios":"levelo://app?vid=f9fdbb48-1798-4538-9bda-de4b35ab0ad4"},"vehicle_type_id":"4","last_reported":1768403750,"current_range_meters":8800,"station_id":"ce4bgkh2rcd13ifvqbl0","pricing_plan_id":"cebpf4jnsgd1na2vs0mg"},{"bike_id":"c98051db-5841-432c-a36b-9ad9148725d8","system_id":"levelo_inurba_marseille","lat":43.29887,"lon":5.43656,"is_reserved":false,"is_disabled":false,"rental_uris":{"android":"levelo://app?vid=c98051db-5841-432c-a36b-9ad9148725d8","ios":"levelo://app?vid=c98051db-5841-432c-a36b-9ad9148725d8"},"vehicle_type_id":"4","last_reported":1768403750,"current_range_meters":8800,"station_id":"ce4bhpp2rcd13ifvqhfg","pricing_plan_id":"cebpf4jnsgd1na2vs0mg"},{"bike_id":"774ca479-5bb9-49b9-8ea6-99c5cf896279","system_id":"levelo_inurba_marseille","lat":43.24646,"lon":5.43159,"is_reserved":false,"is_disabled":false,"rental_uris":{"android":"levelo://app?vid=774ca479-5bb9-49b9-8ea6-99c5cf896279","ios":"levelo://app?vid=774ca479-5bb9-49b9-8ea6-99c5cf896279"},"vehicle_type_id":"4","last_reported":1768403750,"current_range_meters":8800,"station_id":"st_d2m6c4gdas8pm72e190g","pricing_plan_id":"cebpf4jnsgd1na2vs0mg"},{"bike_id":"d525b888-c806-4fb4-a12d-c84645a750ae","system_id":"levelo_inurba_marseille","lat":43.24077,"lon":5.37763,"is_reserved":false,"is_disabled":false,"rental_uris":{"android":"levelo://app?vid=d525b888-c806-4fb4-a12d-c84645a750ae","ios":"levelo://app?vid=d525b888-c806-4fb4-a12d-c84645a750ae"},"vehicle_type_id":"4","last_reported":1768403750,"current_range_meters":8800,"station_id":"ce4bhnp2rcd13ifvqgvg","pricing_plan_id":"cebpf4jnsgd1na2vs0mg"},{"bike_id":"bd00352f-5ba4-4775-8493-23a3250863ef","system_id":"levelo_inurba_marseille","lat":43.27327,"lon":5.39083,"is_reserved":false,"is_disabled":false,"rental_uris":{"android":"levelo://app?vid=bd00352f-5ba4-4775-8493-23a3250863ef","ios":"levelo://app?vid=bd00352f-5ba4-4775-8493-23a3250863ef"},"vehicle_type_id":"4","last_reported":1768403750,"current_range_meters":8800,"station_id":"ce4bhgp2rcd13ifvqfe0","pricing_plan_id":"cebpf4jnsgd1na2vs0mg"},{"bike_id":"96056386-d9a6-4636-bb5c-976733254508","system_id":"levelo_inurba_marseille","lat":43.21187,"lon":5.35085,"is_reserved":false,"is_disabled":false,"rental_uris":{"android":"levelo://app?vid=96056386-d9a6-4636-bb5c-976733254508","ios":"levelo://app?vid=96056386-d9a6-4636-bb5c-976733254508"},"vehicle_type_id":"4","last_reported":1768403750,"current_range_meters":8800,"station_id":"","pricing_plan_id":"cebpf4jnsgd1na2vs0mg"},{"bike_id":"f8f41106-6f3b-4e2a-a16c-d3b2443f7473","system_id":"levelo_inurba_marseille","lat":43.29757,"lon":5.42779,"is_reserved":false,"is_disabled":false,"rental_uris":{"android":"levelo://app?vid=f8f41106-6f3b-4e2a-a16c-d3b2443f7473","ios":"levelo://app?vid=f8f41106-6f3b-4e2a-a16c-d3b2443f7473"},"vehicle_type_id":"4","last_reported":1768403750,"current_range_meters":8800,"station_id":"st_d3md5207bmas73dh9klg","pricing_plan_id":"cebpf4jnsgd1na2vs0mg"},{"bike_id":"c6c5d463-23b6-44c8-bb8d-f511cf63d089","system_id":"levelo_inurba_marseille","lat":43.2656,"lon":5.37312,"is_reserved":false,"is_disabled":false,"rental_uris":{"android":"levelo://app?vid=c6c5d463-23b6-44c8-bb8d-f511cf63d089","ios":"levelo://app?vid=c6c5d463-23b6-44c8-bb8d-f511cf63d089"},"vehicle_type_id":"4","last_reported":1768403750,"current_range_meters":8800,"station_id":"ce4bhg12rcd13ifvqf70","pricing_plan_id":"cebpf4jnsgd1na2vs0mg"},{"bike_id":"eb0ad9ed-8a5f-4adc-8ba2-7f829ef52aab","system_id":"levelo_inurba_marseille","lat":43.24801,"lon":5.37455,"is_reserved":false,"is_disabled":false,"rental_uris":{"android":"levelo://app?vid=eb0ad9ed-8a5f-4adc-8ba2-7f829ef52aab","ios":"levelo://app?vid=eb0ad9ed-8a5f-4adc-8ba2-7f829ef52aab"},"vehicle_type_id":"4","last_reported":1768403750,"current_range_meters":8800,"station_id":"ce4bhgh2rcd13ifvqfb0","pricing_plan_id":"cebpf4jnsgd1na2vs0mg"},{"bike_id":"10e580fb-3a4d-48aa-a18d-73ca6a776e6c","system_id":"levelo_inurba_marseille","lat":43.26858,"lon":5.40692,"is_reserved":false,"is_disabled":false,"rental_uris":{"android":"levelo://app?vid=10e580fb-3a4d-48aa-a18d-73ca6a776e6c","ios":"levelo://app?vid=10e580fb-3a4d-48aa-a18d-73ca6a776e6c"},"vehicle_type_id":"4","last_reported":1768403750,"current_range_meters":8800,"station_id":"","pricing_plan_id":"cebpf4jnsgd1na2vs0mg"},{"bike_id":"4810dca0-bad6-47b5-b7db-2f7125b3e022","system_id":"levelo_inurba_marseille","lat":43.21181,"lon":5.35077,"is_reserved":false,"is_disabled":false,"rental_uris":{"android":"levelo://app?vid=4810dca0-bad6-47b5-b7db-2f7125b3e022","ios":"levelo://app?vid=4810dca0-bad6-47b5-b7db-2f7125b3e022"},"vehicle_type_id":"4","last_reported":1768403750,"current_range_meters":8800,"station_id":"st_cvj6sg6p6f1abm77japg","pricing_plan_id":"cebpf4jnsgd1na2vs0mg"},{"bike_id":"68015da5-6f89-4790-94c2-3a3f14750b81","system_id":"levelo_inurba_marseille","lat":43.29806,"lon":5.38088,"is_reserved":false,"is_disabled":false,"rental_uris":{"android":"levelo://app?vid=68015da5-6f89-4790-94c2-3a3f14750b81","ios":"levelo://app?vid=68015da5-6f89-4790-94c2-3a3f14750b81"},"vehicle_type_id":"4","last_reported":1768403750,"current_range_meters":8800,"station_id":"ce4bgip2rcd13ifvqbb0","pricing_plan_id":"cebpf4jnsgd1na2vs0mg"},{"bike_id":"ba903605-23c9-49f6-a7ab-812f5468ec17","system_id":"levelo_inurba_marseille","lat":43.25583,"lon":5.38237,"is_reserved":false,"is_disabled":false,"rental_uris":{"android":"levelo://app?vid=ba903605-23c9-49f6-a7ab-812f5468ec17","ios":"levelo://app?vid=ba903605-23c9-49f6-a7ab-812f5468ec17"},"vehicle_type_id":"4","last_reported":1768403750,"current_range_meters":9200,"station_id":"ce4bhih2rcd13ifvqfs0","pricing_plan_id":"cebpf4jnsgd1na2vs0mg"},{"bike_id":"e3689fe5-a0aa-4258-8eec-13656f1f8382","system_id":"levelo_inurba_marseille","lat":43.24794,"lon":5.37464,"is_reserved":false,"is_disabled":false,"rental_uris":{"android":"levelo://app?vid=e3689fe5-a0aa-4258-8eec-13656f1f8382","ios":"levelo://app?vid=e3689fe5-a0aa-4258-8eec-13656f1f8382"},"vehicle_type_id":"4","last_reported":1768403750,"current_range_meters":9200,"station_id":"","pricing_plan_id":"cebpf4jnsgd1na2vs0mg"},{"bike_id":"ab4c7e8d-c082-49f2-ad38-3b04b1436978","system_id":"levelo_inurba_marseille","lat":43.22565,"lon":5.41629,"is_reserved":false,"is_disabled":false,"rental_uris":{"android":"levelo://app?vid=ab4c7e8d-c082-49f2-ad38-3b04b1436978","ios":"levelo://app?vid=ab4c7e8d-c082-49f2-ad38-3b04b1436978"},"vehicle_type_id":"4","last_reported":1768403750,"current_range_meters":9200,"station_id":"st_d2o4gvlbi1j2169b742g","pricing_plan_id":"cebpf4jnsgd1na2vs0mg"},{"bike_id":"76971c30-a8f6-4a00-b030-b14396b1d766","system_id":"levelo_inurba_marseille","lat":43.28474,"lon":5.38462,"is_reserved":false,"is_disabled":false,"rental_uris":{"android":"levelo://app?vid=76971c30-a8f6-4a00-b030-b14396b1d766","ios":"levelo://app?vid=76971c30-a8f6-4a00-b030-b14396b1d766"},"vehicle_type_id":"4","last_reported":1768403750,"current_range_meters":9200,"station_id":"ce4bh512rcd13ifvqe3g","pricing_plan_id":"cebpf4jnsgd1na2vs0mg"},{"bike_id":"3b326f81-b0c4-4b16-a9c9-f528a517d078","system_id":"levelo_inurba_marseille","lat":43.23192,"lon":5.3555,"is_reserved":false,"is_disabled":false,"rental_uris":{"android":"levelo://app?vid=3b326f81-b0c4-4b16-a9c9-f528a517d078","ios":"levelo://app?vid=3b326f81-b0c4-4b16-a9c9-f528a517d078"},"vehicle_type_id":"4","last_reported":1768403750,"current_range_meters":9200,"station_id":"ce4bhu92rcd13ifvqi70","pricing_plan_id":"cebpf4jnsgd1na2vs0mg"},{"bike_id":"eab509f6-fed7-4ab1-97e1-b1827c9aacc5","system_id":"levelo_inurba_marseille","lat":43.30878,"lon":5.37181,"is_reserved":false,"is_disabled":false,"rental_uris":{"android":"levelo://app?vid=eab509f6-fed7-4ab1-97e1-b1827c9aacc5","ios":"levelo://app?vid=eab509f6-fed7-4ab1-97e1-b1827c9aacc5"},"vehicle_type_id":"4","last_reported":1768403750,"current_range_meters":9200,"station_id":"ce4bguh2rcd13ifvqckg","pricing_plan_id":"cebpf4jnsgd1na2vs0mg"},{"bike_id":"641b863c-a59f-4c4a-9dd7-5a69be5d3503","system_id":"levelo_inurba_marseille","lat":43.29758,"lon":5.42778,"is_reserved":false,"is_disabled":false,"rental_uris":{"android":"levelo://app?vid=641b863c-a59f-4c4a-9dd7-5a69be5d3503","ios":"levelo://app?vid=641b863c-a59f-4c4a-9dd7-5a69be5d3503"},"vehicle_type_id":"4","last_reported":1768403750,"current_range_meters":9200,"station_id":"st_d3md5207bmas73dh9klg","pricing_plan_id":"cebpf4jnsgd1na2vs0mg"},{"bike_id":"3ed5d2ad-4d63-4e94-824e-32edf1a4d7c3","system_id":"levelo_inurba_marseille","lat":43.27938,"lon":5.41028,"is_reserved":false,"is_disabled":false,"rental_uris":{"android":"levelo://app?vid=3ed5d2ad-4d63-4e94-824e-32edf1a4d7c3","ios":"levelo://app?vid=3ed5d2ad-4d63-4e94-824e-32edf1a4d7c3"},"vehicle_type_id":"4","last_reported":1768403750,"current_range_meters":9200,"station_id":"ce4bhnp2rcd13ifvqh0g","pricing_plan_id":"cebpf4jnsgd1na2vs0mg"},{"bike_id":"83b24877-4fa1-4cbc-9729-5d9b1f26a09d","system_id":"levelo_inurba_marseille","lat":43.29626,"lon":5.39155,"is_reserved":false,"is_disabled":false,"rental_uris":{"android":"levelo://app?vid=83b24877-4fa1-4cbc-9729-5d9b1f26a09d","ios":"levelo://app?vid=83b24877-4fa1-4cbc-9729-5d9b1f26a09d"},"vehicle_type_id":"4","last_reported":1768403750,"current_range_meters":9200,"station_id":"","pricing_plan_id":"cebpf4jnsgd1na2vs0mg"},{"bike_id":"06e2ddc8-0c3d-42cf-a8f3-09e33b6ac519","system_id":"levelo_inurba_marseille","lat":43.31085,"lon":5.42432,"is_reserved":false,"is_disabled":false,"rental_uris":{"android":"levelo://app?vid=06e2ddc8-0c3d-42cf-a8f3-09e33b6ac519","ios":"levelo://app?vid=06e2ddc8-0c3d-42cf-a8f3-09e33b6ac519"},"vehicle_type_id":"4","last_reported":1768403750,"current_range_meters":9200,"station_id":"ce4bhp92rcd13ifvqhag","pricing_plan_id":"cebpf4jnsgd1na2vs0mg"},{"bike_id":"ce705002-36e9-4a86-ba6d-0f075dbe99d7","system_id":"levelo_inurba_marseille","lat":43.29742,"lon":5.36248,"is_reserved":false,"is_disabled":false,"rental_uris":{"android":"levelo://app?vid=ce705002-36e9-4a86-ba6d-0f075dbe99d7","ios":"levelo://app?vid=ce705002-36e9-4a86-ba6d-0f075dbe99d7"},"vehicle_type_id":"4","last_reported":1768403750,"current_range_meters":9200,"station_id":"","pricing_plan_id":"cebpf4jnsgd1na2vs0mg"},{"bike_id":"8f6daa34-e9ca-4e53-9008-3e6ccdeeeed5","system_id":"levelo_inurba_marseille","lat":43.29978,"lon":5.38488,"is_reserved":false,"is_disabled":false,"rental_uris":{"android":"levelo://app?vid=8f6daa34-e9ca-4e53-9008-3e6ccdeeeed5","ios":"levelo://app?vid=8f6daa34-e9ca-4e53-9008-3e6ccdeeeed5"},"vehicle_type_id":"4","last_reported":1768403750,"current_range_meters":9200,"station_id":"ce4bgj92rcd13ifvqbd0","pricing_plan_id":"cebpf4jnsgd1na2vs0mg"},{"bike_id":"fe669348-bf89-4dd7-a35a-ddb9a64d3309","system_id":"levelo_inurba_marseille","lat":43.29911,"lon":5.37472,"is_reserved":false,"is_disabled":false,"rental_uris":{"android":"levelo://app?vid=fe669348-bf89-4dd7-a35a-ddb9a64d3309","ios":"levelo://app?vid=fe669348-bf89-4dd7-a35a-ddb9a64d3309"},"vehicle_type_id":"4","last_reported":1768403750,"current_range_meters":9200,"station_id":"ce4bgjh2rcd13ifvqbg0","pricing_plan_id":"cebpf4jnsgd1na2vs0mg"},{"bike_id":"699c6bb0-1655-47f0-86fb-78256d649744","system_id":"levelo_inurba_marseille","lat":43.278293,"lon":5.407198,"is_reserved":false,"is_disabled":false,"rental_uris":{"android":"levelo://app?vid=699c6bb0-1655-47f0-86fb-78256d649744","ios":"levelo://app?vid=699c6bb0-1655-47f0-86fb-78256d649744"},"vehicle_type_id":"4","last_reported":1768403750,"current_range_meters":9200,"station_id":"ce4bhnh2rcd13ifvqgtg","pricing_plan_id":"cebpf4jnsgd1na2vs0mg"},{"bike_id":"18dc8c62-b29b-42f7-9621-fffcbbc18a5c","system_id":"levelo_inurba_marseille","lat":43.23955,"lon":5.36636,"is_reserved":false,"is_disabled":false,"rental_uris":{"android":"levelo://app?vid=18dc8c62-b29b-42f7-9621-fffcbbc18a5c","ios":"levelo://app?vid=18dc8c62-b29b-42f7-9621-fffcbbc18a5c"},"vehicle_type_id":"4","last_reported":1768403750,"current_range_meters":9200,"station_id":"ce4bhi12rcd13ifvqfp0","pricing_plan_id":"cebpf4jnsgd1na2vs0mg"},{"bike_id":"8edd0db3-c88a-4cbe-8904-85542e04b406","system_id":"levelo_inurba_marseille","lat":43.25941,"lon":5.40912,"is_reserved":false,"is_disabled":false,"rental_uris":{"android":"levelo://app?vid=8edd0db3-c88a-4cbe-8904-85542e04b406","ios":"levelo://app?vid=8edd0db3-c88a-4cbe-8904-85542e04b406"},"vehicle_type_id":"4","last_reported":1768403750,"current_range_meters":9200,"station_id":"ce4bhm92rcd13ifvqglg","pricing_plan_id":"cebpf4jnsgd1na2vs0mg"},{"bike_id":"679badb2-9a2f-43f1-a335-b73e2a05fc3e","system_id":"levelo_inurba_marseille","lat":43.2558,"lon":5.38229,"is_reserved":false,"is_disabled":false,"rental_uris":{"android":"levelo://app?vid=679badb2-9a2f-43f1-a335-b73e2a05fc3e","ios":"levelo://app?vid=679badb2-9a2f-43f1-a335-b73e2a05fc3e"},"vehicle_type_id":"4","last_reported":1768403750,"current_range_meters":9200,"station_id":"ce4bhih2rcd13ifvqfs0","pricing_plan_id":"cebpf4jnsgd1na2vs0mg"},{"bike_id":"0f756daa-8d92-4357-b5c1-b4a29ad92185","system_id":"levelo_inurba_marseille","lat":43.31245,"lon":5.36798,"is_reserved":false,"is_disabled":false,"rental_uris":{"android":"levelo://app?vid=0f756daa-8d92-4357-b5c1-b4a29ad92185","ios":"levelo://app?vid=0f756daa-8d92-4357-b5c1-b4a29ad92185"},"vehicle_type_id":"4","last_reported":1768403750,"current_range_meters":9200,"station_id":"ce4bgl92rcd13ifvqbq0","pricing_plan_id":"cebpf4jnsgd1na2vs0mg"},{"bike_id":"f26e9a9c-efcf-4817-ad70-c481de1d89b3","system_id":"levelo_inurba_marseille","lat":43.25569,"lon":5.38237,"is_reserved":false,"is_disabled":false,"rental_uris":{"android":"levelo://app?vid=f26e9a9c-efcf-4817-ad70-c481de1d89b3","ios":"levelo://app?vid=f26e9a9c-efcf-4817-ad70-c481de1d89b3"},"vehicle_type_id":"4","last_reported":1768403750,"current_range_meters":9600,"station_id":"ce4bhih2rcd13ifvqfs0","pricing_plan_id":"cebpf4jnsgd1na2vs0mg"},{"bike_id":"eda67525-db07-4b18-aa7a-fc8c14661402","system_id":"levelo_inurba_marseille","lat":43.23231,"lon":5.35515,"is_reserved":false,"is_disabled":false,"rental_uris":{"android":"levelo://app?vid=eda67525-db07-4b18-aa7a-fc8c14661402","ios":"levelo://app?vid=eda67525-db07-4b18-aa7a-fc8c14661402"},"vehicle_type_id":"4","last_reported":1768403750,"current_range_meters":9600,"station_id":"ce4bhu92rcd13ifvqi70","pricing_plan_id":"cebpf4jnsgd1na2vs0mg"},{"bike_id":"5cfd03cf-24a1-4762-9fb7-26a053abe44f","system_id":"levelo_inurba_marseille","lat":43.2584,"lon":5.39408,"is_reserved":false,"is_disabled":false,"rental_uris":{"android":"levelo://app?vid=5cfd03cf-24a1-4762-9fb7-26a053abe44f","ios":"levelo://app?vid=5cfd03cf-24a1-4762-9fb7-26a053abe44f"},"vehicle_type_id":"4","last_reported":1768403750,"current_range_meters":9600,"station_id":"","pricing_plan_id":"cebpf4jnsgd1na2vs0mg"},{"bike_id":"48e1370e-6b52-4ec1-971f-7c1a4445b804","system_id":"levelo_inurba_marseille","lat":43.25592,"lon":5.38228,"is_reserved":false,"is_disabled":false,"rental_uris":{"android":"levelo://app?vid=48e1370e-6b52-4ec1-971f-7c1a4445b804","ios":"levelo://app?vid=48e1370e-6b52-4ec1-971f-7c1a4445b804"},"vehicle_type_id":"4","last_reported":1768403750,"current_range_meters":9600,"station_id":"ce4bhih2rcd13ifvqfs0","pricing_plan_id":"cebpf4jnsgd1na2vs0mg"},{"bike_id":"3cf44cbc-fe31-4047-8f08-85bd3cf3bfe3","system_id":"levelo_inurba_marseille","lat":43.29782,"lon":5.41364,"is_reserved":false,"is_disabled":false,"rental_uris":{"android":"levelo://app?vid=3cf44cbc-fe31-4047-8f08-85bd3cf3bfe3","ios":"levelo://app?vid=3cf44cbc-fe31-4047-8f08-85bd3cf3bfe3"},"vehicle_type_id":"4","last_reported":1768403750,"current_range_meters":9600,"station_id":"","pricing_plan_id":"cebpf4jnsgd1na2vs0mg"},{"bike_id":"19b141b1-85be-49ab-a753-41007920869c","system_id":"levelo_inurba_marseille","lat":43.26692,"lon":5.38268,"is_reserved":false,"is_disabled":false,"rental_uris":{"android":"levelo://app?vid=19b141b1-85be-49ab-a753-41007920869c","ios":"levelo://app?vid=19b141b1-85be-49ab-a753-41007920869c"},"vehicle_type_id":"4","last_reported":1768403750,"current_range_meters":9600,"station_id":"ce4bhg92rcd13ifvqf90","pricing_plan_id":"cebpf4jnsgd1na2vs0mg"},{"bike_id":"ec7cfe69-ce17-4347-9607-bf42e20090ad","system_id":"levelo_inurba_marseille","lat":43.32355,"lon":5.36745,"is_reserved":false,"is_disabled":false,"rental_uris":{"android":"levelo://app?vid=ec7cfe69-ce17-4347-9607-bf42e20090ad","ios":"levelo://app?vid=ec7cfe69-ce17-4347-9607-bf42e20090ad"},"vehicle_type_id":"4","last_reported":1768403750,"current_range_meters":9600,"station_id":"ce4bhsh2rcd13ifvqi2g","pricing_plan_id":"cebpf4jnsgd1na2vs0mg"},{"bike_id":"c75336c1-8b9f-43c4-a057-384dcfedfe8f","system_id":"levelo_inurba_marseille","lat":43.29718,"lon":5.3771,"is_reserved":false,"is_disabled":false,"rental_uris":{"android":"levelo://app?vid=c75336c1-8b9f-43c4-a057-384dcfedfe8f","ios":"levelo://app?vid=c75336c1-8b9f-43c4-a057-384dcfedfe8f"},"vehicle_type_id":"4","last_reported":1768403750,"current_range_meters":9600,"station_id":"ce4bgkh2rcd13ifvqbl0","pricing_plan_id":"cebpf4jnsgd1na2vs0mg"},{"bike_id":"03bea929-ded9-4f0a-b535-3ced67ddbf39","system_id":"levelo_inurba_marseille","lat":43.24665,"lon":5.43122,"is_reserved":false,"is_disabled":false,"rental_uris":{"android":"levelo://app?vid=03bea929-ded9-4f0a-b535-3ced67ddbf39","ios":"levelo://app?vid=03bea929-ded9-4f0a-b535-3ced67ddbf39"},"vehicle_type_id":"4","last_reported":1768403750,"current_range_meters":9600,"station_id":"st_d2m6c4gdas8pm72e190g","pricing_plan_id":"cebpf4jnsgd1na2vs0mg"},