{"last_updated":1728649047,"ttl":60,"version":"2.2","data":{"bikes":[{"bike_id":"f605b493-7483-4140-8c09-56647acb946a","system_id":"levelo_inurba_marseille","lat":43.27616,"lon":5.36105,"is_reserved":false,"is_disabled":false,"rental_uris":{"android":"levelo://app?vid=f605b493-7483-4140-8c09-56647acb946a","ios":"levelo://app?vid=f605b493-7483-4140-8c09-56647acb946a"},"vehicle_type_id":"4","last_reported":1728649047,"current_range_meters":12400,"station_id":"ce4bgj92rcd13ifvqbe0","pricing_plan_id":"cebpf4jnsgd1na2vs0mg"},{"bike_id":"3b5ee00a-b538-4543-8fc5-faae5e7271ef","system_id":"levelo_inurba_marseille","lat":43.26804,"lon":5.40273,"is_reserved":false,"is_disabled":false,"rental_uris":{"android":"levelo://app?vid=3b5ee00a-b538-4543-8fc5-faae5e7271ef","ios":"levelo://app?vid=3b5ee00a-b538-4543-8fc5-faae5e7271ef"},"vehicle_type_id":"4","last_reported":1728649047,"current_range_meters":36000,"station_id":"ce501612rcd8frsf0b60","pricing_plan_id":"cebpf4jnsgd1na2vs0mg"},{"bike_id":"54f17dc3-6fa4-465d-8c00-a70edbf7ec85","system_id":"levelo_inurba_marseille","lat":43.29255,"lon":5.40908,"is_reserved":false,"is_disabled":false,"rental_uris":{"android":"levelo://app?vid=54f17dc3-6fa4-465d-8c00-a70edbf7ec85","ios":"levelo://app?vid=54f17dc3-6fa4-465d-8c00-a70edbf7ec85"},"vehicle_type_id":"4","last_reported":1728649047,"current_range_meters":17600,"station_id":"ce4bh192rcd13ifvqdc0","pricing_plan_id":"cebpf4jnsgd1na2vs0mg"},{"bike_id":"52fc8537-bd50-4647-ae34-dacc696f265a","system_id":"levelo_inurba_marseille","lat":43.30247,"lon":5.40079,"is_reserved":false,"is_disabled":false,"rental_uris":{"android":"levelo://app?vid=52fc8537-bd50-4647-ae34-dacc696f265a","ios":"levelo://app?vid=52fc8537-bd50-4647-ae34-dacc696f265a"},"vehicle_type_id":"4","last_reported":1728649047,"current_range_meters":34800,"station_id":"ce4bgvh2rcd13ifvqcs0","pricing_plan_id":"cebpf4jnsgd1na2vs0mg"},{"bike_id":"90c79001-4edd-4bec-9382-905b2d6414b7","system_id":"levelo_inurba_marseille","lat":43.28367,"lon":5.38637,"is_reserved":false,"is_disabled":false,"rental_uris":{"android":"levelo://app?vid=90c79001-4edd-4bec-9382-905b2d6414b7","ios":"levelo://app?vid=90c79001-4edd-4bec-9382-905b2d6414b7"},"vehicle_type_id":"4","last_reported":1728649047,"current_range_meters":25600,"station_id":"ce4bh492rcd13ifvqdvg","pricing_plan_id":"cebpf4jnsgd1na2vs0mg"},{"bike_id":"51dd5005-a195-4642-bd5f-8cbea71cb3b3","system_id":"levelo_inurba_marseille","lat":43.22927,"lon":5.35375,"is_reserved":false,"is_disabled":false,"rental_uris":{"android":"levelo://app?vid=51dd5005-a195-4642-bd5f-8cbea71cb3b3","ios":"levelo://app?vid=51dd5005-a195-4642-bd5f-8cbea71cb3b3"},"vehicle_type_id":"4","last_reported":1728649047,"current_range_meters":6000,"station_id":"cpo3532slgdg3j2ikp40","pricing_plan_id":"cebpf4jnsgd1na2vs0mg"},{"bike_id":"b1d28133-ba72-4ed4-95f0-3bc942b63058","system_id":"levelo_inurba_marseille","lat":43.29582,"lon":5.36743,"is_reserved":false,"is_disabled":false,"rental_uris":{"android":"levelo://app?vid=b1d28133-ba72-4ed4-95f0-3bc942b63058","ios":"levelo://app?vid=b1d28133-ba72-4ed4-95f0-3bc942b63058"},"vehicle_type_id":"4","last_reported":1728649047,"current_range_meters":32800,"station_id":"ce4bgph2rcd13ifvqc2g","pricing_plan_id":"cebpf4jnsgd1na2vs0mg"},{"bike_id":"fc259be6-bae0-4671-9acb-b45c230b0b82","system_id":"levelo_inurba_marseille","lat":43.28724,"lon":5.36081,"is_reserved":false,"is_disabled":false,"rental_uris":{"android":"levelo://app?vid=fc259be6-bae0-4671-9acb-b45c230b0b82","ios":"levelo://app?vid=fc259be6-bae0-4671-9acb-b45c230b0b82"},"vehicle_type_id":"4","last_reported":1728649047,"current_range_meters":38000,"station_id":"cki0cbj6b192h4jlfktg","pricing_plan_id":"cebpf4jnsgd1na2vs0mg"},{"bike_id":"4f1ac9db-36fd-4126-b3cc-b859636a6a29","system_id":"levelo_inurba_marseille","lat":43.22928,"lon":5.35375,"is_reserved":false,"is_disabled":false,"rental_uris":{"android":"levelo://app?vid=4f1ac9db-36fd-4126-b3cc-b859636a6a29","ios":"levelo://app?vid=4f1ac9db-36fd-4126-b3cc-b859636a6a29"},"vehicle_type_id":"4","last_reported":1728649047,"current_range_meters":12400,"station_id":"cpo3532slgdg3j2ikp40","pricing_plan_id":"cebpf4jnsgd1na2vs0mg"},{"bike_id":"e51150b0-9fee-4347-899a-d691d4e98199","system_id":"levelo_inurba_marseille","lat":43.23186,"lon":5.39989,"is_reserved":false,"is_disabled":false,"rental_uris":{"android":"levelo://app?vid=e51150b0-9fee-4347-899a-d691d4e98199","ios":"levelo://app?vid=e51150b0-9fee-4347-899a-d691d4e98199"},"vehicle_type_id":"4","last_reported":1728649047,"current_range_meters":8800,"station_id":"ce4bhn12rcd13ifvqgqg","pricing_plan_id":"cebpf4jnsgd1na2vs0mg"},{"bike_id":"5b66bb42-a82b-47b7-b5f0-3d029b735168","system_id":"levelo_inurba_marseille","lat":43.32544,"lon":5.41428,"is_reserved":false,"is_disabled":false,"rental_uris":{"android":"levelo://app?vid=5b66bb42-a82b-47b7-b5f0-3d029b735168","ios":"levelo://app?vid=5b66bb42-a82b-47b7-b5f0-3d029b735168"},"vehicle_type_id":"4","last_reported":1728649047,"current_range_meters":31200,"station_id":"ce4bhq12rcd13ifvqhhg","pricing_plan_id":"cebpf4jnsgd1na2vs0mg"},{"bike_id":"e042394b-9286-45e7-b080-77a16fa7552d","system_id":"levelo_inurba_marseille","lat":43.23145,"lon":5.43694,"is_reserved":false,"is_disabled":false,"rental_uris":{"android":"levelo://app?vid=e042394b-9286-45e7-b080-77a16fa7552d","ios":"levelo://app?vid=e042394b-9286-45e7-b080-77a16fa7552d"},"vehicle_type_id":"4","last_reported":1728649047,"current_range_meters":24800,"station_id":"ce4bhmp2rcd13ifvqgog","pricing_plan_id":"cebpf4jnsgd1na2vs0mg"},{"bike_id":"418bad21-cf7d-4a9e-9cb5-74767d38c59f","system_id":"levelo_inurba_marseille","lat":43.2718,"lon":5.40999,"is_reserved":false,"is_disabled":false,"rental_uris":{"android":"levelo://app?vid=418bad21-cf7d-4a9e-9cb5-74767d38c59f","ios":"levelo://app?vid=418bad21-cf7d-4a9e-9cb5-74767d38c59f"},"vehicle_type_id":"4","last_reported":1728649047,"current_range_meters":17600,"station_id":"ce4bhl12rcd13ifvqgf0","pricing_plan_id":"cebpf4jnsgd1na2vs0mg"},{"bike_id":"7e07121e-7968-487b-96e4-ba8bf9090d89","system_id":"levelo_inurba_marseille","lat":43.26565,"lon":5.3728,"is_reserved":false,"is_disabled":false,"rental_uris":{"android":"levelo://app?vid=7e07121e-7968-487b-96e4-ba8bf9090d89","ios":"levelo://app?vid=7e07121e-7968-487b-96e4-ba8bf9090d89"},"vehicle_type_id":"4","last_reported":1728649047,"current_range_meters":24000,"station_id":"ce4bhg12rcd13ifvqf70","pricing_plan_id":"cebpf4jnsgd1na2vs0mg"},{"bike_id":"5ce2a66a-b949-4239-ae17-6ee1644fc5f2","system_id":"levelo_inurba_marseille","lat":43.25496,"lon":5.37645,"is_reserved":false,"is_disabled":false,"rental_uris":{"android":"levelo://app?vid=5ce2a66a-b949-4239-ae17-6ee1644fc5f2","ios":"levelo://app?vid=5ce2a66a-b949-4239-ae17-6ee1644fc5f2"},"vehicle_type_id":"4","last_reported":1728649047,"current_range_meters":14400,"station_id":"ce4bhh12rcd13ifvqff0","pricing_plan_id":"cebpf4jnsgd1na2vs0mg"},{"bike_id":"6cb2fd54-0aca-4f7d-aadb-bc057dc4fb59","system_id":"levelo_inurba_marseille","lat":43.23067,"lon":5.35487,"is_reserved":false,"is_disabled":false,"rental_uris":{"android":"levelo://app?vid=6cb2fd54-0aca-4f7d-aadb-bc057dc4fb59","ios":"levelo://app?vid=6cb2fd54-0aca-4f7d-aadb-bc057dc4fb59"},"vehicle_type_id":"4","last_reported":1728649047,"current_range_meters":28000,"station_id":"cpo3342slgdg3j2ifvpg","pricing_plan_id":"cebpf4jnsgd1na2vs0mg"},{"bike_id":"906a5294-7bdd-49e8-a075-76edc4487384","system_id":"levelo_inurba_marseille","lat":43.29397,"lon":5.3932,"is_reserved":false,"is_disabled":false,"rental_uris":{"android":"levelo://app?vid=906a5294-7bdd-49e8-a075-76edc4487384","ios":"levelo://app?vid=906a5294-7bdd-49e8-a075-76edc4487384"},"vehicle_type_id":"4","last_reported":1728649047,"current_range_meters":12800,"station_id":"ce4bh192rcd13ifvqdd0","pricing_plan_id":"cebpf4jnsgd1na2vs0mg"},{"bike_id":"c2ba09d2-6eec-4b8f-b737-48c40888d40d","system_id":"levelo_inurba_marseille","lat":43.29308,"lon":5.37169,"is_reserved":false,"is_disabled":false,"rental_uris":{"android":"levelo://app?vid=c2ba09d2-6eec-4b8f-b737-48c40888d40d","ios":"levelo://app?vid=c2ba09d2-6eec-4b8f-b737-48c40888d40d"},"vehicle_type_id":"4","last_reported":1728649047,"current_range_meters":27600,"station_id":"ce4bgh92rcd13ifvqb40","pricing_plan_id":"cebpf4jnsgd1na2vs0mg"},{"bike_id":"83efa23d-2de9-4ebf-b5c3-9911d2273528","system_id":"levelo_inurba_marseille","lat":43.30136,"lon":5.39875,"is_reserved":false,"is_disabled":false,"rental_uris":{"android":"levelo://app?vid=83efa23d-2de9-4ebf-b5c3-9911d2273528","ios":"levelo://app?vid=83efa23d-2de9-4ebf-b5c3-9911d2273528"},"vehicle_type_id":"4","last_reported":1728649047,"current_range_meters":38000,"station_id":"ce4bh0h2rcd13ifvqd40","pricing_plan_id":"cebpf4jnsgd1na2vs0mg"},{"bike_id":"5035ebae-119b-430f-83e8-8a35d9d0df4c","system_id":"levelo_inurba_marseille","lat":43.27255,"lon":5.38279,"is_reserved":false,"is_disabled":false,"rental_uris":{"android":"levelo://app?vid=5035ebae-119b-430f-83e8-8a35d9d0df4c","ios":"levelo://app?vid=5035ebae-119b-430f-83e8-8a35d9d0df4c"},"vehicle_type_id":"4","last_reported":1728649047,"current_range_meters":24400,"station_id":"ce4bha12rcd13ifvqef0","pricing_plan_id":"cebpf4jnsgd1na2vs0mg"},{"bike_id":"1aeb4897-70a0-4551-a71d-42119fc01eed","system_id":"levelo_inurba_marseille","lat":43.25869,"lon":5.39902,"is_reserved":false,"is_disabled":false,"rental_uris":{"android":"levelo://app?vid=1aeb4897-70a0-4551-a71d-42119fc01eed","ios":"levelo://app?vid=1aeb4897-70a0-4551-a71d-42119fc01eed"},"vehicle_type_id":"4","last_reported":1728649047,"current_range_meters":35600,"station_id":"ce4bhl92rcd13ifvqghg","pricing_plan_id":"cebpf4jnsgd1na2vs0mg"},{"bike_id":"aad4ba15-a0fe-47fa-8fff-67cc39415385","system_id":"levelo_inurba_marseille","lat":43.25498,"lon":5.37647,"is_reserved":false,"is_disabled":false,"rental_uris":{"android":"levelo://app?vid=aad4ba15-a0fe-47fa-8fff-67cc39415385","ios":"levelo://app?vid=aad4ba15-a0fe-47fa-8fff-67cc39415385"},"vehicle_type_id":"4","last_reported":1728649047,"current_range_meters":16000,"station_id":"ce4bhh12rcd13ifvqff0","pricing_plan_id":"cebpf4jnsgd1na2vs0mg"},{"bike_id":"f6ee8a2e-8cc0-48c8-9b9d-528acfdf71f6","system_id":"levelo_inurba_marseille","lat":43.31168,"lon":5.38723,"is_reserved":false,"is_disabled":false,"rental_uris":{"android":"levelo://app?vid=f6ee8a2e-8cc0-48c8-9b9d-528acfdf71f6","ios":"levelo://app?vid=f6ee8a2e-8cc0-48c8-9b9d-528acfdf71f6"},"vehicle_type_id":"4","last_reported":1728649047,"current_range_meters":38000,"station_id":"ce4bgv12rcd13ifvqcp0","pricing_plan_id":"cebpf4jnsgd1na2vs0mg"},{"bike_id":"34ce14c0-f173-4074-8103-4e09e52b3938","system_id":"levelo_inurba_marseille","lat":43.26205,"lon":5.37928,"is_reserved":false,"is_disabled":false,"rental_uris":{"android":"levelo://app?vid=34ce14c0-f173-4074-8103-4e09e52b3938","ios":"levelo://app?vid=34ce14c0-f173-4074-8103-4e09e52b3938"},"vehicle_type_id":"4","last_reported":1728649047,"current_range_meters":39200,"station_id":"ce4bhjp2rcd13ifvqg90","pricing_plan_id":"cebpf4jnsgd1na2vs0mg"},{"bike_id":"e308c361-2a31-418f-b7b8-04fa69e4b074","system_id":"levelo_inurba_marseille","lat":43.23188,"lon":5.39988,"is_reserved":false,"is_disabled":false,"rental_uris":{"android":"levelo://app?vid=e308c361-2a31-418f-b7b8-04fa69e4b074","ios":"levelo://app?vid=e308c361-2a31-418f-b7b8-04fa69e4b074"},"vehicle_type_id":"4","last_reported":1728649047,"current_range_meters":24400,"station_id":"ce4bhn12rcd13ifvqgqg","pricing_plan_id":"cebpf4jnsgd1na2vs0mg"},{"bike_id":"0c63cc75-cafd-4542-b489-b358b61801e8","system_id":"levelo_inurba_marseille","lat":43.2979,"lon":5.39344,"is_reserved":false,"is_disabled":false,"rental_uris":{"android":"levelo://app?vid=0c63cc75-cafd-4542-b489-b358b61801e8","ios":"levelo://app?vid=0c63cc75-cafd-4542-b489-b358b61801e8"},"vehicle_type_id":"4","last_reported":1728649047,"current_range_meters":16000,"station_id":"chh1huq6cuj3fo74tm60","pricing_plan_id":"cebpf4jnsgd1na2vs0mg"},{"bike_id":"8b81863d-c46e-4c3d-92b0-e89716814e94","system_id":"levelo_inurba_marseille","lat":43.28702,"lon":5.3998,"is_reserved":false,"is_disabled":false,"rental_uris":{"android":"levelo://app?vid=8b81863d-c46e-4c3d-92b0-e89716814e94","ios":"levelo://app?vid=8b81863d-c46e-4c3d-92b0-e89716814e94"},"vehicle_type_id":"4","last_reported":1728649047,"current_range_meters":19600,"station_id":"ce4bho92rcd13ifvqh3g","pricing_plan_id":"cebpf4jnsgd1na2vs0mg"},{"bike_id":"d884e1a6-4aa8-45c6-bd50-48bfb82310da","system_id":"levelo_inurba_marseille","lat":43.30143,"lon":5.37414,"is_reserved":false,"is_disabled":false,"rental_uris":{"android":"levelo://app?vid=d884e1a6-4aa8-45c6-bd50-48bfb82310da","ios":"levelo://app?vid=d884e1a6-4aa8-45c6-bd50-48bfb82310da"},"vehicle_type_id":"4","last_reported":1728649047,"current_range_meters":11200,"station_id":"ce4bgs92rcd13ifvqcc0","pricing_plan_id":"cebpf4jnsgd1na2vs0mg"},{"bike_id":"e05e04f4-e651-424c-a6aa-8f864e46be12","system_id":"levelo_inurba_marseille","lat":43.2843,"lon":5.34985,"is_reserved":false,"is_disabled":false,"rental_uris":{"android":"levelo://app?vid=e05e04f4-e651-424c-a6aa-8f864e46be12","ios":"levelo://app?vid=e05e04f4-e651-424c-a6aa-8f864e46be12"},"vehicle_type_id":"4","last_reported":1728649047,"current_range_meters":38800,"station_id":"ce4bhbh2rcd13ifvqepg","pricing_plan_id":"cebpf4jnsgd1na2vs0mg"},{"bike_id":"a0efacd8-e569-45d0-a5c7-9ef3274c0675","system_id":"levelo_inurba_marseille","lat":43.23154,"lon":5.43702,"is_reserved":false,"is_disabled":false,"rental_uris":{"android":"levelo://app?vid=a0efacd8-e569-45d0-a5c7-9ef3274c0675","ios":"levelo://app?vid=a0efacd8-e569-45d0-a5c7-9ef3274c0675"},"vehicle_type_id":"4","last_reported":1728649047,"current_range_meters":26000,"station_id":"ce4bhmp2rcd13ifvqgog","pricing_plan_id":"cebpf4jnsgd1na2vs0mg"},{"bike_id":"1535d0a0-d9e9-46f7-8630-ccbb8a13f826","system_id":"levelo_inurba_marseille","lat":43.265,"lon":5.39542,"is_reserved":false,"is_disabled":false,"rental_uris":{"android":"levelo://app?vid=1535d0a0-d9e9-46f7-8630-ccbb8a13f826","ios":"levelo://app?vid=1535d0a0-d9e9-46f7-8630-ccbb8a13f826"},"vehicle_type_id":"4","last_reported":1728649047,"current_range_meters":18000,"station_id":"ce4bhi12rcd13ifvqfq0","pricing_plan_id":"cebpf4jnsgd1na2vs0mg"},{"bike_id":"39a67477-041a-4624-8ccd-8037617c2560","system_id":"levelo_inurba_marseille","lat":43.28348,"lon":5.38105,"is_reserved":false,"is_disabled":false,"rental_uris":{"android":"levelo://app?vid=39a67477-041a-4624-8ccd-8037617c2560","ios":"levelo://app?vid=39a67477-041a-4624-8ccd-8037617c2560"},"vehicle_type_id":"4","last_reported":1728649047,"current_range_meters":38800,"station_id":"ce4bh412rcd13ifvqdr0","pricing_plan_id":"cebpf4jnsgd1na2vs0mg"},{"bike_id":"c99d2b51-f3c8-4486-8444-98f6d7a4b740","system_id":"levelo_inurba_marseille","lat":43.24805,"lon":5.37458,"is_reserved":false,"is_disabled":false,"rental_uris":{"android":"levelo://app?vid=c99d2b51-f3c8-4486-8444-98f6d7a4b740","ios":"levelo://app?vid=c99d2b51-f3c8-4486-8444-98f6d7a4b740"},"vehicle_type_id":"4","last_reported":1728649047,"current_range_meters":34000,"station_id":"ce4bhgh2rcd13ifvqfb0","pricing_plan_id":"cebpf4jnsgd1na2vs0mg"},{"bike_id":"1f414c8b-63c3-44b5-9ced-9e0bb0817876","system_id":"levelo_inurba_marseille","lat":43.23193,"lon":5.39981,"is_reserved":false,"is_disabled":false,"rental_uris":{"android":"levelo://app?vid=1f414c8b-63c3-44b5-9ced-9e0bb0817876","ios":"levelo://app?vid=1f414c8b-63c3-44b5-9ced-9e0bb0817876"},"vehicle_type_id":"4","last_reported":1728649047,"current_range_meters":8800,"station_id":"ce4bhn12rcd13ifvqgqg","pricing_plan_id":"cebpf4jnsgd1na2vs0mg"},{"bike_id":"aeaf83a7-c8c7-41d2-871c-26003077fb12","system_id":"levelo_inurba_marseille","lat":43.2606,"lon":5.39401,"is_reserved":false,"is_disabled":false,"rental_uris":{"android":"levelo://app?vid=aeaf83a7-c8c7-41d2-871c-26003077fb12","ios":"levelo://app?vid=aeaf83a7-c8c7-41d2-871c-26003077fb12"},"vehicle_type_id":"4","last_reported":1728649047,"current_range_meters":16400,"station_id":"ce4bhh92rcd13ifvqfj0","pricing_plan_id":"cebpf4jnsgd1na2vs0mg"},{"bike_id":"8dae5982-0bee-4bb9-8bb3-7822e71f6ac0","system_id":"levelo_inurba_marseille","lat":43.30144,"lon":5.39873,"is_reserved":false,"is_disabled":false,"rental_uris":{"android":"levelo://app?vid=8dae5982-0bee-4bb9-8bb3-7822e71f6ac0","ios":"levelo://app?vid=8dae5982-0bee-4bb9-8bb3-7822e71f6ac0"},"vehicle_type_id":"4","last_reported":1728649047,"current_range_meters":32800,"station_id":"ce4bh0h2rcd13ifvqd40","pricing_plan_id":"cebpf4jnsgd1na2vs0mg"},{"bike_id":"80b8ec0d-88d1-4e31-bfe7-39ab90c7d71f","system_id":"levelo_inurba_marseille","lat":43.29789,"lon":5.38098,"is_reserved":false,"is_disabled":false,"rental_uris":{"android":"levelo://app?vid=80b8ec0d-88d1-4e31-bfe7-39ab90c7d71f","ios":"levelo://app?vid=80b8ec0d-88d1-4e31-bfe7-39ab90c7d71f"},"vehicle_type_id":"4","last_reported":1728649047,"current_range_meters":31200,"station_id":"ce4bgip2rcd13ifvqbb0","pricing_plan_id":"cebpf4jnsgd1na2vs0mg"},{"bike_id":"e08aba31-5c8f-47f7-9250-5adbefd97496","system_id":"levelo_inurba_marseille","lat":43.28356,"lon":5.38109,"is_reserved":false,"is_disabled":false,"rental_uris":{"android":"levelo://app?vid=e08aba31-5c8f-47f7-9250-5adbefd97496","ios":"levelo://app?vid=e08aba31-5c8f-47f7-9250-5adbefd97496"},"vehicle_type_id":"4","last_reported":1728649047,"current_range_meters":20400,"station_id":"ce4bh412rcd13ifvqdr0","pricing_plan_id":"cebpf4jnsgd1na2vs0mg"},{"bike_id":"55b4e08f-f9b1-4422-8ad9-51bb1677c138","system_id":"levelo_inurba_marseille","lat":43.27623,"lon":5.3611,"is_reserved":false,"is_disabled":false,"rental_uris":{"android":"levelo://app?vid=55b4e08f-f9b1-4422-8ad9-51bb1677c138","ios":"levelo://app?vid=55b4e08f-f9b1-4422-8ad9-51bb1677c138"},"vehicle_type_id":"4","last_reported":1728649047,"current_range_meters":38800,"station_id":"ce4bgj92rcd13ifvqbe0","pricing_plan_id":"cebpf4jnsgd1na2vs0mg"},{"bike_id":"ef45b165-2c2b-4bf5-b417-cc338c1ff735","system_id":"levelo_inurba_marseille","lat":43.28423,"lon":5.34989,"is_reserved":false,"is_disabled":false,"rental_uris":{"android":"levelo://app?vid=ef45b165-2c2b-4bf5-b417-cc338c1ff735","ios":"levelo://app?vid=ef45b165-2c2b-4bf5-b417-cc338c1ff735"},"vehicle_type_id":"4","last_reported":1728649047,"current_range_meters":38800,"station_id":"ce4bhbh2rcd13ifvqepg","pricing_plan_id":"cebpf4jnsgd1na2vs0mg"},{"bike_id":"c2709d8c-182c-4c66-9678-32143d413767","system_id":"levelo_inurba_marseille","lat":43.22934,"lon":5.35381,"is_reserved":false,"is_disabled":false,"rental_uris":{"android":"levelo://app?vid=c2709d8c-182c-4c66-9678-32143d413767","ios":"levelo://app?vid=c2709d8c-182c-4c66-9678-32143d413767"},"vehicle_type_id":"4","last_reported":1728649047,"current_range_meters":31200,"station_id":"cpo3532slgdg3j2ikp40","pricing_plan_id":"cebpf4jnsgd1na2vs0mg"},{"bike_id":"3cfd67f5-55ee-44cc-84bd-71b03c8e0c59","system_id":"levelo_inurba_marseille","lat":43.31541,"lon":5.38024,"is_reserved":false,"is_disabled":false,"rental_uris":{"android":"levelo://app?vid=3cfd67f5-55ee-44cc-84bd-71b03c8e0c59","ios":"levelo://app?vid=3cfd67f5-55ee-44cc-84bd-71b03c8e0c59"},"vehicle_type_id":"4","last_reported":1728649047,"current_range_meters":36800,"station_id":"ce4bhsp2rcd13ifvqi50","pricing_plan_id":"cebpf4jnsgd1na2vs0mg"},{"bike_id":"e1b91a7d-5904-4f75-8ce6-15cab7d9e0cc","system_id":"levelo_inurba_marseille","lat":43.28939,"lon":5.3663,"is_reserved":false,"is_disabled":false,"rental_uris":{"android":"levelo://app?vid=e1b91a7d-5904-4f75-8ce6-15cab7d9e0cc","ios":"levelo://app?vid=e1b91a7d-5904-4f75-8ce6-15cab7d9e0cc"},"vehicle_type_id":"4","last_reported":1728649047,"current_range_meters":22400,"station_id":"ce4bhap2rcd13ifvqek0","pricing_plan_id":"cebpf4jnsgd1na2vs0mg"},{"bike_id":"8b3b1af1-5331-4163-962b-2d6eb80a6110","system_id":"levelo_inurba_marseille","lat":43.29942,"lon":5.36535,"is_reserved":false,"is_disabled":false,"rental_uris":{"android":"levelo://app?vid=8b3b1af1-5331-4163-962b-2d6eb80a6110","ios":"levelo://app?vid=8b3b1af1-5331-4163-962b-2d6eb80a6110"},"vehicle_type_id":"4","last_reported":1728649047,"current_range_meters":20400,"station_id":"ce4bgm92rcd13ifvqbr0","pricing_plan_id":"cebpf4jnsgd1na2vs0mg"},{"bike_id":"40b0be9e-ec7c-4954-aa6f-9d8791ce03d9","system_id":"levelo_inurba_marseille","lat":43.24811,"lon":5.37458,"is_reserved":false,"is_disabled":false,"rental_uris":{"android":"levelo://app?vid=40b0be9e-ec7c-4954-aa6f-9d8791ce03d9","ios":"levelo://app?vid=40b0be9e-ec7c-4954-aa6f-9d8791ce03d9"},"vehicle_type_id":"4","last_reported":1728649047,"current_range_meters":38800,"station_id":"ce4bhgh2rcd13ifvqfb0","pricing_plan_id":"cebpf4jnsgd1na2vs0mg"},{"bike_id":"14b07fed-aacd-4f67-bc2e-4b35e6570c46","system_id":"levelo_inurba_marseille","lat":43.292121,"lon":5.400008,"is_reserved":false,"is_disabled":false,"rental_uris":{"android":"levelo://app?vid=14b07fed-aacd-4f67-bc2e-4b35e6570c46","ios":"levelo://app?vid=14b07fed-aacd-4f67-bc2e-4b35e6570c46"},"vehicle_type_id":"4","last_reported":1728649047,"current_range_meters":8800,"station_id":"","pricing_plan_id":"cebpf4jnsgd1na2vs0mg"},{"bike_id":"6b80ea20-c009-43b2-93ac-16abfe5ddcff","system_id":"levelo_inurba_marseille","lat":43.29281,"lon":5.36847,"is_reserved":false,"is_disabled":false,"rental_uris":{"android":"levelo://app?vid=6b80ea20-c009-43b2-93ac-16abfe5ddcff","ios":"levelo://app?vid=6b80ea20-c009-43b2-93ac-16abfe5ddcff"},"vehicle_type_id":"4","last_reported":1728649047,"current_range_meters":32000,"station_id":"ce4bhbp2rcd13ifvqesg","pricing_plan_id":"cebpf4jnsgd1na2vs0mg"},{"bike_id":"15d17ad8-8082-42ca-9529-21626d10a661","system_id":"levelo_inurba_marseille","lat":43.29895,"lon":5.4366,"is_reserved":false,"is_disabled":false,"rental_uris":{"android":"levelo://app?vid=15d17ad8-8082-42ca-9529-21626d10a661","ios":"levelo://app?vid=15d17ad8-8082-42ca-9529-21626d10a661"},"vehicle_type_id":"4","last_reported":1728649047,"current_range_meters":31200,"station_id":"ce4bhpp2rcd13ifvqhfg","pricing_plan_id":"cebpf4jnsgd1na2vs0mg"},{"bike_id":"2f5f3f97-7515-4583-a368-fc4adf2cf4d5","system_id":"levelo_inurba_marseille","lat":43.34143,"lon":5.40899,"is_reserved":false,"is_disabled":false,"rental_uris":{"android":"levelo://app?vid=2f5f3f97-7515-4583-a368-fc4adf2cf4d5","ios":"levelo://app?vid=2f5f3f97-7515-4583-a368-fc4adf2cf4d5"},"vehicle_type_id":"4","last_reported":1728649047,"current_range_meters":27600,"station_id":"ce4bhqh2rcd13ifvqhlg","pricing_plan_id":"cebpf4jnsgd1na2vs0mg"},{"bike_id":"159fc0ab-1217-40d4-8969-b6ecd1d545c1","system_id":"levelo_inurba_marseille","lat":43.23185,"lon":5.39978,"is_reserved":false,"is_disabled":false,"rental_uris":{"android":"levelo://app?vid=159fc0ab-1217-40d4-8969-b6ecd1d545c1","ios":"levelo://app?vid=159fc0ab-1217-40d4-8969-b6ecd1d545c1"},"vehicle_type_id":"4","last_reported":1728649047,"current_range_meters":24000,"station_id":"ce4bhn12rcd13ifvqgqg","pricing_plan_id":"cebpf4jnsgd1na2vs0mg"},{"bike_id":"30e5f0c1-a8ce-4008-a16d-48c87d9b3ca6","system_id":"levelo_inurba_marseille","lat":43.33752,"lon":5.37437,"is_reserved":false,"is_disabled":false,"rental_uris":{"android":"levelo://app?vid=30e5f0c1-a8ce-4008-a16d-48c87d9b3ca6","ios":"levelo://app?vid=30e5f0c1-a8ce-4008-a16d-48c87d9b3ca6"},"vehicle_type_id":"4","last_reported":1728649047,"current_range_meters":38800,"station_id":"","pricing_plan_id":"cebpf4jnsgd1na2vs0mg"},{"bike_id":"71afc88c-f31a-4d35-8f41-3a6da9afe2a7","system_id":"levelo_inurba_marseille","lat":43.33726,"lon":5.39187,"is_reserved":false,"is_disabled":false,"rental_uris":{"android":"levelo://app?vid=71afc88c-f31a-4d35-8f41-3a6da9afe2a7","ios":"levelo://app?vid=71afc88c-f31a-4d35-8f41-3a6da9afe2a7"},"vehicle_type_id":"4","last_reported":1728649047,"current_range_meters":28400,"station_id":"ce4bhr92rcd13ifvqhsg","pricing_plan_id":"cebpf4jnsgd1na2vs0mg"},{"bike_id":"270de5d4-818f-406c-88a3-7eb6ecbdd79c","system_id":"levelo_inurba_marseille","lat":43.29305,"lon":5.37977,"is_reserved":false,"is_disabled":false,"rental_uris":{"android":"levelo://app?vid=270de5d4-818f-406c-88a3-7eb6ecbdd79c","ios":"levelo://app?vid=270de5d4-818f-406c-88a3-7eb6ecbdd79c"},"vehicle_type_id":"4","last_reported":1728649047,"current_range_meters":29600,"station_id":"","pricing_plan_id":"cebpf4jnsgd1na2vs0mg"},{"bike_id":"7ac07773-ad1e-4cef-97bc-8db8f8394f62","system_id":"levelo_inurba_marseille","lat":43.31659,"lon":5.38931,"is_reserved":false,"is_disabled":false,"rental_uris":{"android":"levelo://app?vid=7ac07773-ad1e-4cef-97bc-8db8f8394f62","ios":"levelo://app?vid=7ac07773-ad1e-4cef-97bc-8db8f8394f62"},"vehicle_type_id":"4","last_reported":1728649047,"current_range_meters":24000,"station_id":"","pricing_plan_id":"cebpf4jnsgd1na2vs0mg"},{"bike_id":"4d0a39a3-d6c0-42b9-a4c9-f31a67360faa","system_id":"levelo_inurba_marseille","lat":43.28729,"lon":5.37935,"is_reserved":false,"is_disabled":false,"rental_uris":{"android":"levelo://app?vid=4d0a39a3-d6c0-42b9-a4c9-f31a67360faa","ios":"levelo://app?vid=4d0a39a3-d6c0-42b9-a4c9-f31a67360faa"},"vehicle_type_id":"4","last_reported":1728649047,"current_range_meters":17200,"station_id":"ce4bh9p2rcd13ifvqec0","pricing_plan_id":"cebpf4jnsgd1na2vs0mg"},{"bike_id":"03b58ecf-d4ed-4997-96e3-90b65282111d","system_id":"levelo_inurba_marseille","lat":43.23148,"lon":5.43723,"is_reserved":false,"is_disabled":false,"rental_uris":{"android":"levelo://app?vid=03b58ecf-d4ed-4997-96e3-90b65282111d","ios":"levelo://app?vid=03b58ecf-d4ed-4997-96e3-90b65282111d"},"vehicle_type_id":"4","last_reported":1728649047,"current_range_meters":14000,"station_id":"ce4bhmp2rcd13ifvqgog","pricing_plan_id":"cebpf4jnsgd1na2vs0mg"},{"bike_id":"e78251a7-1b20-4e2f-bd9d-b431a65e58b0","system_id":"levelo_inurba_marseille","lat":43.23154,"lon":5.43712,"is_reserved":false,"is_disabled":false,"rental_uris":{"android":"levelo://app?vid=e78251a7-1b20-4e2f-bd9d-b431a65e58b0","ios":"levelo://app?vid=e78251a7-1b20-4e2f-bd9d-b431a65e58b0"},"vehicle_type_id":"4","last_reported":1728649047,"current_range_meters":17200,"station_id":"ce4bhmp2rcd13ifvqgog","pricing_plan_id":"cebpf4jnsgd1na2vs0mg"},{"bike_id":"3d819519-2feb-41f9-9ba5-7980c2cc54aa","system_id":"levelo_inurba_marseille","lat":43.30541,"lon":5.36528,"is_reserved":false,"is_disabled":false,"rental_uris":{"android":"levelo://app?vid=3d819519-2feb-41f9-9ba5-7980c2cc54aa","ios":"levelo://app?vid=3d819519-2feb-41f9-9ba5-7980c2cc54aa"},"vehicle_type_id":"4","last_reported":1728649047,"current_range_meters":39200,"station_id":"ce4bgs12rcd13ifvqcag","pricing_plan_id":"cebpf4jnsgd1na2vs0mg"},{"bike_id":"c6938137-c0d6-4ace-b751-67f074547a5a","system_id":"levelo_inurba_marseille","lat":43.23151,"lon":5.43711,"is_reserved":false,"is_disabled":false,"rental_uris":{"android":"levelo://app?vid=c6938137-c0d6-4ace-b751-67f074547a5a","ios":"levelo://app?vid=c6938137-c0d6-4ace-b751-67f074547a5a"},"vehicle_type_id":"4","last_reported":1728649047,"current_range_meters":14800,"station_id":"ce4bhmp2rcd13ifvqgog","pricing_plan_id":"cebpf4jnsgd1na2vs0mg"},{"bike_id":"2c7a4b28-59fc-401b-9c8c-03fcb1ba7223","system_id":"levelo_inurba_marseille","lat":43.29552,"lon":5.42295,"is_reserved":false,"is_disabled":false,"rental_uris":{"android":"levelo://app?vid=2c7a4b28-59fc-401b-9c8c-03fcb1ba7223","ios":"levelo://app?vid=2c7a4b28-59fc-401b-9c8c-03fcb1ba7223"},"vehicle_type_id":"4","last_reported":1728649047,"current_range_meters":26800,"station_id":"ce4bhph2rcd13ifvqhdg","pricing_plan_id":"cebpf4jnsgd1na2vs0mg"},{"bike_id":"5b894182-9047-444a-be00-cdd9adafe8ba","system_id":"levelo_inurba_marseille","lat":43.28721,"lon":5.3608,"is_reserved":false,"is_disabled":false,"rental_uris":{"android":"levelo://app?vid=5b894182-9047-444a-be00-cdd9adafe8ba","ios":"levelo://app?vid=5b894182-9047-444a-be00-cdd9adafe8ba"},"vehicle_type_id":"4","last_reported":1728649047,"current_range_meters":16000,"station_id":"cki0cbj6b192h4jlfktg","pricing_plan_id":"cebpf4jnsgd1na2vs0mg"},{"bike_id":"cf54bc3a-b60f-4256-8ef7-7ab240fbef8f","system_id":"levelo_inurba_marseille","lat":43.24662,"lon":5.38168,"is_reserved":false,"is_disabled":false,"rental_uris":{"android":"levelo://app?vid=cf54bc3a-b60f-4256-8ef7-7ab240fbef8f","ios":"levelo://app?vid=cf54bc3a-b60f-4256-8ef7-7ab240fbef8f"},"vehicle_type_id":"4","last_reported":1728649047,"current_range_meters":8800,"station_id":"ce4bhih2rcd13ifvqfr0","pricing_plan_id":"cebpf4jnsgd1na2vs0mg"},{"bike_id":"1b2b0088-9f30-4bd3-a277-04c338f8de9f","system_id":"levelo_inurba_marseille","lat":43.30266,"lon":5.37713,"is_reserved":false,"is_disabled":false,"rental_uris":{"android":"levelo://app?vid=1b2b0088-9f30-4bd3-a277-04c338f8de9f","ios":"levelo://app?vid=1b2b0088-9f30-4bd3-a277-04c338f8de9f"},"vehicle_type_id":"4","last_reported":1728649047,"current_range_meters":32800,"station_id":"ce4bguh2rcd13ifvqcj0","pricing_plan_id":"cebpf4jnsgd1na2vs0mg"},{"bike_id":"47717afc-4238-43f1-b35b-a62124556ff4","system_id":"levelo_inurba_marseille","lat":43.25874,"lon":5.39899,"is_reserved":false,"is_disabled":false,"rental_uris":{"android":"levelo://app?vid=47717afc-4238-43f1-b35b-a62124556ff4","ios":"levelo://app?vid=47717afc-4238-43f1-b35b-a62124556ff4"},"vehicle_type_id":"4","last_reported":1728649047,"current_range_meters":9200,"station_id":"ce4bhl92rcd13ifvqghg","pricing_plan_id":"cebpf4jnsgd1na2vs0mg"},{"bike_id":"487dab23-159c-430b-8b28-38018803c546","system_id":"levelo_inurba_marseille","lat":43.24389,"lon":5.37064,"is_reserved":false,"is_disabled":false,"rental_uris":{"android":"levelo://app?vid=487dab23-159c-430b-8b28-38018803c546","ios":"levelo://app?vid=487dab23-159c-430b-8b28-38018803c546"},"vehicle_type_id":"4","last_reported":1728649047,"current_range_meters":6000,"station_id":"ce4bhhh2rcd13ifvqfk0","pricing_plan_id":"cebpf4jnsgd1na2vs0mg"},{"bike_id":"cea95fcd-5510-4e29-a295-74e45d2353a1","system_id":"levelo_inurba_marseille","lat":43.2862,"lon":5.35099,"is_reserved":false,"is_disabled":false,"rental_uris":{"android":"levelo://app?vid=cea95fcd-5510-4e29-a295-74e45d2353a1","ios":"levelo://app?vid=cea95fcd-5510-4e29-a295-74e45d2353a1"},"vehicle_type_id":"4","last_reported":1728649047,"current_range_meters":38800,"station_id":"ce4bhch2rcd13ifvqeug","pricing_plan_id":"cebpf4jnsgd1na2vs0mg"},{"bike_id":"684d88b2-eb8c-4e05-ae37-d1d8a22b101a","system_id":"levelo_inurba_marseille","lat":43.23148,"lon":5.43723,"is_reserved":false,"is_disabled":false,"rental_uris":{"android":"levelo://app?vid=684d88b2-eb8c-4e05-ae37-d1d8a22b101a","ios":"levelo://app?vid=684d88b2-eb8c-4e05-ae37-d1d8a22b101a"},"vehicle_type_id":"4","last_reported":1728649047,"current_range_meters":28800,"station_id":"ce4bhmp2rcd13ifvqgog","pricing_plan_id":"cebpf4jnsgd1na2vs0mg"},{"bike_id":"ff68b789-7173-415f-860f-fb58c1b9d01d","system_id":"levelo_inurba_marseille","lat":43.22929,"lon":5.3538,"is_reserved":false,"is_disabled":false,"rental_uris":{"android":"levelo://app?vid=ff68b789-7173-415f-860f-fb58c1b9d01d","ios":"levelo://app?vid=ff68b789-7173-415f-860f-fb58c1b9d01d"},"vehicle_type_id":"4","last_reported":1728649047,"current_range_meters":30800,"station_id":"cpo3532slgdg3j2ikp40","pricing_plan_id":"cebpf4jnsgd1na2vs0mg"},{"bike_id":"57f51ef0-2e4f-4576-89ee-657aed13b47f","system_id":"levelo_inurba_marseille","lat":43.27204,"lon":5.39186,"is_reserved":false,"is_disabled":false,"rental_uris":{"android":"levelo://app?vid=57f51ef0-2e4f-4576-89ee-657aed13b47f","ios":"levelo://app?vid=57f51ef0-2e4f-4576-89ee-657aed13b47f"},"vehicle_type_id":"4","last_reported":1728649047,"current_range_meters":23200,"station_id":"ce4bhhp2rcd13ifvqfm0","pricing_plan_id":"cebpf4jnsgd1na2vs0mg"},{"bike_id":"11ed2bc4-99e4-42ab-8911-f3374fcced68","system_id":"levelo_inurba_marseille","lat":43.27179,"lon":5.40989,"is_reserved":false,"is_disabled":false,"rental_uris":{"android":"levelo://app?vid=11ed2bc4-99e4-42ab-8911-f3374fcced68","ios":"levelo://app?vid=11ed2bc4-99e4-42ab-8911-f3374fcced68"},"vehicle_type_id":"4","last_reported":1728649047,"current_range_meters":36800,"station_id":"ce4bhl12rcd13ifvqgf0","pricing_plan_id":"cebpf4jnsgd1na2vs0mg"},{"bike_id":"6cb5b02c-2401-484a-8b7d-b4d2106d6b08","system_id":"levelo_inurba_marseille","lat":43.23199,"lon":5.35552,"is_reserved":false,"is_disabled":false,"rental_uris":{"android":"levelo://app?vid=6cb5b02c-2401-484a-8b7d-b4d2106d6b08","ios":"levelo://app?vid=6cb5b02c-2401-484a-8b7d-b4d2106d6b08"},"vehicle_type_id":"4","last_reported":1728649047,"current_range_meters":36400,"station_id":"ce4bhu92rcd13ifvqi70","pricing_plan_id":"cebpf4jnsgd1na2vs0mg"},{"bike_id":"7ac7e627-06e3-49fc-b1d7-b6203dd7d747","system_id":"levelo_inurba_marseille","lat":43.31756,"lon":5.39022,"is_reserved":false,"is_disabled":false,"rental_uris":{"android":"levelo://app?vid=7ac7e627-06e3-49fc-b1d7-b6203dd7d747","ios":"levelo://app?vid=7ac7e627-06e3-49fc-b1d7-b6203dd7d747"},"vehicle_type_id":"4","last_reported":1728649047,"current_range_meters":8400,"station_id":"ce4bhqp2rcd13ifvqhng","pricing_plan_id":"cebpf4jnsgd1na2vs0mg"},{"bike_id":"f06ff067-23b3-45aa-b448-e20cbc870865","system_id":"levelo_inurba_marseille","lat":43.26493,"lon":5.39537,"is_reserved":false,"is_disabled":false,"rental_uris":{"android":"levelo://app?vid=f06ff067-23b3-45aa-b448-e20cbc870865","ios":"levelo://app?vid=f06ff067-23b3-45aa-b448-e20cbc870865"},"vehicle_type_id":"4","last_reported":1728649047,"current_range_meters":18800,"station_id":"ce4bhi12rcd13ifvqfq0","pricing_plan_id":"cebpf4jnsgd1na2vs0mg"},{"bike_id":"29493c8f-8461-4d39-b5a3-551c210f2171","system_id":"levelo_inurba_marseille","lat":43.28037,"lon":5.3694,"is_reserved":false,"is_disabled":false,"rental_uris":{"android":"levelo://app?vid=29493c8f-8461-4d39-b5a3-551c210f2171","ios":"levelo://app?vid=29493c8f-8461-4d39-b5a3-551c210f2171"},"vehicle_type_id":"4","last_reported":1728649047,"current_range_meters":35600,"station_id":"ce4bha12rcd13ifvqef0","pricing_plan_id":"cebpf4jnsgd1na2vs0mg"},{"bike_id":"c417019c-5367-4191-a213-8153b6c2ea08","system_id":"levelo_inurba_marseille","lat":43.324767,"lon":5.365715,"is_reserved":false,"is_disabled":false,"rental_uris":{"android":"levelo://app?vid=c417019c-5367-4191-a213-8153b6c2ea08","ios":"levelo://app?vid=c417019c-5367-4191-a213-8153b6c2ea08"},"vehicle_type_id":"4","last_reported":1728649047,"current_range_meters":25200,"station_id":"ce4bhs12rcd13ifvqhvg","pricing_plan_id":"cebpf4jnsgd1na2vs0mg"},{"bike_id":"44c4e2cb-0dae-4c90-ac01-ffed0976125e","system_id":"levelo_inurba_marseille","lat":43.28256,"lon":5.35071,"is_reserved":false,"is_disabled":false,"rental_uris":{"android":"levelo://app?vid=44c4e2cb-0dae-4c90-ac01-ffed0976125e","ios":"levelo://app?vid=44c4e2cb-0dae-4c90-ac01-ffed0976125e"},"vehicle_type_id":"4","last_reported":1728649047,"current_range_meters":37600,"station_id":"ce4bhbp2rcd13ifvqerg","pricing_plan_id":"cebpf4jnsgd1na2vs0mg"},{"bike_id":"ac975a99-947c-44b2-8c20-bedd2ae6720b","system_id":"levelo_inurba_marseille","lat":43.3053,"lon":5.36531,"is_reserved":false,"is_disabled":false,"rental_uris":{"android":"levelo://app?vid=ac975a99-947c-44b2-8c20-bedd2ae6720b","ios":"levelo://app?vid=ac975a99-947c-44b2-8c20-bedd2ae6720b"},"vehicle_type_id":"4","last_reported":1728649047,"current_range_meters":36000,"station_id":"ce4bgs12rcd13ifvqcag","pricing_plan_id":"cebpf4jnsgd1na2vs0mg"},{"bike_id":"34a37c96-76e3-4d1f-a9c6-c03590d95344","system_id":"levelo_inurba_marseille","lat":43.29032,"lon":5.35921,"is_reserved":false,"is_disabled":false,"rental_uris":{"android":"levelo://app?vid=34a37c96-76e3-4d1f-a9c6-c03590d95344","ios":"levelo://app?vid=34a37c96-76e3-4d1f-a9c6-c03590d95344"},"vehicle_type_id":"4","last_reported":1728649047,"current_range_meters":38800,"station_id":"ce4bha92rcd13ifvqeg0","pricing_plan_id":"cebpf4jnsgd1na2vs0mg"},{"bike_id":"a9cb6427-421a-4984-b472-0272a06a4a23","system_id":"levelo_inurba_marseille","lat":43.24854,"lon":5.38545,"is_reserved":false,"is_disabled":false,"rental_uris":{"android":"levelo://app?vid=a9cb6427-421a-4984-b472-0272a06a4a23","ios":"levelo://app?vid=a9cb6427-421a-4984-b472-0272a06a4a23"},"vehicle_type_id":"4","last_reported":1728649047,"current_range_meters":36400,"station_id":"ce4bhi12rcd13ifvqfp0","pricing_plan_id":"cebpf4jnsgd1na2vs0mg"},{"bike_id":"21f68032-d557-445c-b6ab-db9019377622","system_id":"levelo_inurba_marseille","lat":43.30879,"lon":5.37194,"is_reserved":false,"is_disabled":false,"rental_uris":{"android":"levelo://app?vid=21f68032-d557-445c-b6ab-db9019377622","ios":"levelo://app?vid=21f68032-d557-445c-b6ab-db9019377622"},"vehicle_type_id":"4","last_reported":1728649047,"current_range_meters":38000,"station_id":"ce4bguh2rcd13ifvqckg","pricing_plan_id":"cebpf4jnsgd1na2vs0mg"},{"bike_id":"f80c2e75-b47f-4161-9783-8454957aba75","system_id":"levelo_inurba_marseille","lat":43.32102,"lon":5.36768,"is_reserved":false,"is_disabled":false,"rental_uris":{"android":"levelo://app?vid=f80c2e75-b47f-4161-9783-8454957aba75","ios":"levelo://app?vid=f80c2e75-b47f-4161-9783-8454957aba75"},"vehicle_type_id":"4","last_reported":1728649047,"current_range_meters":4400,"station_id":"ce4bhrh2rcd13ifvqhug","pricing_plan_id":"cebpf4jnsgd1na2vs0mg"},{"bike_id":"c04f721e-ff49-450b-bd98-5ccb28f4c8a9","system_id":"levelo_inurba_marseille","lat":43.29317,"lon":5.37172,"is_reserved":false,"is_disabled":false,"rental_uris":{"android":"levelo://app?vid=c04f721e-ff49-450b-bd98-5ccb28f4c8a9","ios":"levelo://app?vid=c04f721e-ff49-450b-bd98-5ccb28f4c8a9"},"vehicle_type_id":"4","last_reported":1728649047,"current_range_meters":38000,"station_id":"ce4bgh92rcd13ifvqb40","pricing_plan_id":"cebpf4jnsgd1na2vs0mg"},{"bike_id":"d54c2b23-cb9f-4031-bd56-1cd7eb8a187a","system_id":"levelo_inurba_marseille","lat":43.27494,"lon":5.42452,"is_reserved":false,"is_disabled":false,"rental_uris":{"android":"levelo://app?vid=d54c2b23-cb9f-4031-bd56-1cd7eb8a187a","ios":"levelo://app?vid=d54c2b23-cb9f-4031-bd56-1cd7eb8a187a"},"vehicle_type_id":"4","last_reported":1728649047,"current_range_meters":24800,"station_id":"ce4bhn92rcd13ifvqgrg","pricing_plan_id":"cebpf4jnsgd1na2vs0mg"},{"bike_id":"a9a9c221-5070-4158-8cfd-fdde4b98e8f7","system_id":"levelo_inurba_marseille","lat":43.23184,"lon":5.39978,"is_reserved":false,"is_disabled":false,"rental_uris":{"android":"levelo://app?vid=a9a9c221-5070-4158-8cfd-fdde4b98e8f7","ios":"levelo://app?vid=a9a9c221-5070-4158-8cfd-fdde4b98e8f7"},"vehicle_type_id":"4","last_reported":1728649047,"current_range_meters":20800,"station_id":"ce4bhn12rcd13ifvqgqg","pricing_plan_id":"cebpf4jnsgd1na2vs0mg"},{"bike_id":"1350ca88-7207-4db6-9a70-5e7e18d77c80","system_id":"levelo_inurba_marseille","lat":43.24386,"lon":5.37058,"is_reserved":false,"is_disabled":false,"rental_uris":{"android":"levelo://app?vid=1350ca88-7207-4db6-9a70-5e7e18d77c80","ios":"levelo://app?vid=1350ca88-7207-4db6-9a70-5e7e18d77c80"},"vehicle_type_id":"4","last_reported":1728649047,"current_range_meters":18800,"station_id":"ce4bhhh2rcd13ifvqfk0","pricing_plan_id":"cebpf4jnsgd1na2vs0mg"},{"bike_id":"16e14eef-d9f9-4ac8-994a-43d73b6ef4d3","system_id":"levelo_inurba_marseille","lat":43.29579,"lon":5.3674,"is_reserved":false,"is_disabled":false,"rental_uris":{"android":"levelo://app?vid=16e14eef-d9f9-4ac8-994a-43d73b6ef4d3","ios":"levelo://app?vid=16e14eef-d9f9-4ac8-994a-43d73b6ef4d3"},"vehicle_type_id":"4","last_reported":1728649047,"current_range_meters":36400,"station_id":"ce4bgph2rcd13ifvqc2g","pricing_plan_id":"cebpf4jnsgd1na2vs0mg"},{"bike_id":"ee6c85c3-013c-4cc6-9b13-8fc33c7e4744","system_id":"levelo_inurba_marseille","lat":43.266754,"lon":5.382646,"is_reserved":false,"is_disabled":false,"rental_uris":{"android":"levelo://app?vid=ee6c85c3-013c-4cc6-9b13-8fc33c7e4744","ios":"levelo://app?vid=ee6c85c3-013c-4cc6-9b13-8fc33c7e4744"},"vehicle_type_id":"4","last_reported":1728649047,"current_range_meters":10800,"station_id":"ce4bhg92rcd13ifvqf90","pricing_plan_id":"cebpf4jnsgd1na2vs0mg"},{"bike_id":"b933402b-d1ca-49a8-bbf7-fb19281d941c","system_id":"levelo_inurba_marseille","lat":43.23197,"lon":5.35548,"is_reserved":false,"is_disabled":false,"rental_uris":{"android":"levelo://app?vid=b933402b-d1ca-49a8-bbf7-fb19281d941c","ios":"levelo://app?vid=b933402b-d1ca-49a8-bbf7-fb19281d941c"},"vehicle_type_id":"4","last_reported":1728649047,"current_range_meters":27200,"station_id":"ce4bhu92rcd13ifvqi70","pricing_plan_id":"cebpf4jnsgd1na2vs0mg"},{"bike_id":"f5025c91-10ce-417c-b0cc-aa63fb454c26","system_id":"levelo_inurba_marseille","lat":43.24646,"lon":5.38887,"is_reserved":false,"is_disabled":false,"rental_uris":{"android":"levelo://app?vid=f5025c91-10ce-417c-b0cc-aa63fb454c26","ios":"levelo://app?vid=f5025c91-10ce-417c-b0cc-aa63fb454c26"},"vehicle_type_id":"4","last_reported":1728649047,"current_range_meters":34800,"station_id":"ce4bhg12rcd13ifvqf60","pricing_plan_id":"cebpf4jnsgd1na2vs0mg"},{"bike_id":"c47db258-3107-4c4c-873b-13c85236ece7","system_id":"levelo_inurba_marseille","lat":43.29606,"lon":5.37716,"is_reserved":false,"is_disabled":false,"rental_uris":{"android":"levelo://app?vid=c47db258-3107-4c4c-873b-13c85236ece7","ios":"levelo://app?vid=c47db258-3107-4c4c-873b-13c85236ece7"},"vehicle_type_id":"4","last_reported":1728649047,"current_range_meters":38000,"station_id":"ce4bgi92rcd13ifvqb90","pricing_plan_id":"cebpf4jnsgd1na2vs0mg"},{"bike_id":"1bf39129-7013-4caa-8d33-ef279b792ee7","system_id":"levelo_inurba_marseille","lat":43.255746,"lon":5.382391,"is_reserved":false,"is_disabled":false,"rental_uris":{"android":"levelo://app?vid=1bf39129-7013-4caa-8d33-ef279b792ee7","ios":"levelo://app?vid=1bf39129-7013-4caa-8d33-ef279b792ee7"},"vehicle_type_id":"4","last_reported":1728649047,"current_range_meters":7200,"station_id":"ce4bhih2rcd13ifvqfs0","pricing_plan_id":"cebpf4jnsgd1na2vs0mg"},{"bike_id":"a77bafb3-070b-4187-8232-a4240baa175b","system_id":"levelo_inurba_marseille","lat":43.278083,"lon":5.407077,"is_reserved":false,"is_disabled":false,"rental_uris":{"android":"levelo://app?vid=a77bafb3-070b-4187-8232-a4240baa175b","ios":"levelo://app?vid=a77bafb3-070b-4187-8232-a4240baa175b"},"vehicle_type_id":"4","last_reported":1728649047,"current_range_meters":32800,"station_id":"ce4bh3h2rcd13ifvqdn0","pricing_plan_id":"cebpf4jnsgd1na2vs0mg"},{"bike_id":"e72f6259-66a3-4007-8aa1-7b04c3c8b318","system_id":"levelo_inurba_marseille","lat":43.255,"lon":5.37661,"is_reserved":false,"is_disabled":false,"rental_uris":{"android":"levelo://app?vid=e72f6259-66a3-4007-8aa1-7b04c3c8b318","ios":"levelo://app?vid=e72f6259-66a3-4007-8aa1-7b04c3c8b318"},"vehicle_type_id":"4","last_reported":1728649047,"current_range_meters":32800,"station_id":"ce4bhh12rcd13ifvqff0","pricing_plan_id":"cebpf4jnsgd1na2vs0mg"},{"bike_id":"1430f6f2-73dd-42ca-8307-5f209eb4a512","system_id":"levelo_inurba_marseille","lat":43.2946,"lon":5.37631,"is_reserved":false,"is_disabled":false,"rental_uris":{"android":"levelo://app?vid=1430f6f2-73dd-42ca-8307-5f209eb4a512","ios":"levelo://app?vid=1430f6f2-73dd-42ca-8307-5f209eb4a512"},"vehicle_type_id":"4","last_reported":1728649047,"current_range_meters":7200,"station_id":"","pricing_plan_id":"cebpf4jnsgd1na2vs0mg"},{"bike_id":"484a4c63-4ef1-4433-b27a-9a9ca5ad2f9a","system_id":"levelo_inurba_marseille","lat":43.22932,"lon":5.35371,"is_reserved":false,"is_disabled":false,"rental_uris":{"android":"levelo://app?vid=484a4c63-4ef1-4433-b27a-9a9ca5ad2f9a","ios":"levelo://app?vid=484a4c63-4ef1-4433-b27a-9a9ca5ad2f9a"},"vehicle_type_id":"4","last_reported":1728649047,"current_range_meters":16800,"station_id":"cpo3532slgdg3j2ikp40","pricing_plan_id":"cebpf4jnsgd1na2vs0mg"},{"bike_id":"a0f93102-ffc9-4e40-8ae3-0a8c25daf130","system_id":"levelo_inurba_marseille","lat":43.25574,"lon":5.38227,"is_reserved":false,"is_disabled":false,"rental_uris":{"android":"levelo://app?vid=a0f93102-ffc9-4e40-8ae3-0a8c25daf130","ios":"levelo://app?vid=a0f93102-ffc9-4e40-8ae3-0a8c25daf130"},"vehicle_type_id":"4","last_reported":1728649047,"current_range_meters":8400,"station_id":"ce4bhih2rcd13ifvqfs0","pricing_plan_id":"cebpf4jnsgd1na2vs0mg"},{"bike_id":"a8db6b21-4e4b-41d9-9a0d-2120cf1440f6","system_id":"levelo_inurba_marseille","lat":43.28934,"lon":5.39628,"is_reserved":false,"is_disabled":false,"rental_uris":{"android":"levelo://app?vid=a8db6b21-4e4b-41d9-9a0d-2120cf1440f6","ios":"levelo://app?vid=a8db6b21-4e4b-41d9-9a0d-2120cf1440f6"},"vehicle_type_id":"4","last_reported":1728649047,"current_range_meters":39200,"station_id":"ce4bh3h2rcd13ifvqdn0","pricing_plan_id":"cebpf4jnsgd1na2vs0mg"},{"bike_id":"890b8847-1693-4160-88f7-f99654adee24","system_id":"levelo_inurba_marseille","lat":43.30329,"lon":5.40442,"is_reserved":false,"is_disabled":false,"rental_uris":{"android":"levelo://app?vid=890b8847-1693-4160-88f7-f99654adee24","ios":"levelo://app?vid=890b8847-1693-4160-88f7-f99654adee24"},"vehicle_type_id":"4","last_reported":1728649047,"current_range_meters":4800,"station_id":"ce4bh012rcd13ifvqd10","pricing_plan_id":"cebpf4jnsgd1na2vs0mg"},{"bike_id":"9bc974b6-43fd-4902-9fba-f57282146dca","system_id":"levelo_inurba_marseille","lat":43.31495,"lon":5.37305,"is_reserved":false,"is_disabled":false,"rental_uris":{"android":"levelo://app?vid=9bc974b6-43fd-4902-9fba-f57282146dca","ios":"levelo://app?vid=9bc974b6-43fd-4902-9fba-f57282146dca"},"vehicle_type_id":"4","last_reported":1728649047,"current_range_meters":28800,"station_id":"ce4bgt12rcd13ifvqcd0","pricing_plan_id":"cebpf4jnsgd1na2vs0mg"},{"bike_id":"84935173-08eb-4c47-b6dd-960520a0292b","system_id":"levelo_inurba_marseille","lat":43.30099,"lon":5.39844,"is_reserved":false,"is_disabled":false,"rental_uris":{"android":"levelo://app?vid=84935173-08eb-4c47-b6dd-960520a0292b","ios":"levelo://app?vid=84935173-08eb-4c47-b6dd-960520a0292b"},"vehicle_type_id":"4","last_reported":1728649047,"current_range_meters":4400,"station_id":"ce4bh0h2rcd13ifvqd40","pricing_plan_id":"cebpf4jnsgd1na2vs0mg"},{"bike_id":"7044fed3-e8e5-4365-ab3d-1031619849d0","system_id":"levelo_inurba_marseille","lat":43.23185,"lon":5.39976,"is_reserved":false,"is_disabled":false,"rental_uris":{"android":"levelo://app?vid=7044fed3-e8e5-4365-ab3d-1031619849d0","ios":"levelo://app?vid=7044fed3-e8e5-4365-ab3d-1031619849d0"},"vehicle_type_id":"4","last_reported":1728649047,"current_range_meters":10800,"station_id":"ce4bhgh2rcd13ifvqfb0","pricing_plan_id":"cebpf4jnsgd1na2vs0mg"},{"bike_id":"fb79f393-18d8-4a77-ac7a-1805da759722","system_id":"levelo_inurba_marseille","lat":43.24688,"lon":5.38385,"is_reserved":false,"is_disabled":false,"rental_uris":{"android":"levelo://app?vid=fb79f393-18d8-4a77-ac7a-1805da759722","ios":"levelo://app?vid=fb79f393-18d8-4a77-ac7a-1805da759722"},"vehicle_type_id":"4","last_reported":1728649047,"current_range_meters":27200,"station_id":"ce4bhih2rcd13ifvqfr0","pricing_plan_id":"cebpf4jnsgd1na2vs0mg"},{"bike_id":"39bb093e-1fb0-4fe9-a7de-f970ccf3512f","system_id":"levelo_inurba_marseille","lat":43.22932,"lon":5.35378,"is_reserved":false,"is_disabled":false,"rental_uris":{"android":"levelo://app?vid=39bb093e-1fb0-4fe9-a7de-f970ccf3512f","ios":"levelo://app?vid=39bb093e-1fb0-4fe9-a7de-f970ccf3512f"},"vehicle_type_id":"4","last_reported":1728649047,"current_range_meters":25600,"station_id":"cpo3532slgdg3j2ikp40","pricing_plan_id":"cebpf4jnsgd1na2vs0mg"},{"bike_id":"d07326e0-a973-4c1c-bb42-c6abe8a21bec","system_id":"levelo_inurba_marseille","lat":43.28659,"lon":5.38688,"is_reserved":false,"is_disabled":false,"rental_uris":{"android":"levelo://app?vid=d07326e0-a973-4c1c-bb42-c6abe8a21bec","ios":"levelo://app?vid=d07326e0-a973-4c1c-bb42-c6abe8a21bec"},"vehicle_type_id":"4","last_reported":1728649047,"current_range_meters":11200,"station_id":"ce4bh492rcd13ifvqdug","pricing_plan_id":"cebpf4jnsgd1na2vs0mg"},{"bike_id":"a68794f3-920b-4f09-b290-d8764da9616f","system_id":"levelo_inurba_marseille","lat":43.2894,"lon":5.36632,"is_reserved":false,"is_disabled":false,"rental_uris":{"android":"levelo://app?vid=a68794f3-920b-4f09-b290-d8764da9616f","ios":"levelo://app?vid=a68794f3-920b-4f09-b290-d8764da9616f"},"vehicle_type_id":"4","last_reported":1728649047,"current_range_meters":38800,"station_id":"ce4bhap2rcd13ifvqek0","pricing_plan_id":"cebpf4jnsgd1na2vs0mg"},{"bike_id":"779abea3-10c7-4fb1-b30c-7223e06821ec","system_id":"levelo_inurba_marseille","lat":43.28483,"lon":5.38542,"is_reserved":false,"is_disabled":false,"rental_uris":{"android":"levelo://app?vid=779abea3-10c7-4fb1-b30c-7223e06821ec","ios":"levelo://app?vid=779abea3-10c7-4fb1-b30c-7223e06821ec"},"vehicle_type_id":"4","last_reported":1728649047,"current_range_meters":8400,"station_id":"ce4bh8p2rcd13ifvqeb0","pricing_plan_id":"cebpf4jnsgd1na2vs0mg"},{"bike_id":"de1b9930-e636-46d5-bc4b-40e16bee5c28","system_id":"levelo_inurba_marseille","lat":43.28275,"lon":5.3508,"is_reserved":false,"is_disabled":false,"rental_uris":{"android":"levelo://app?vid=de1b9930-e636-46d5-bc4b-40e16bee5c28","ios":"levelo://app?vid=de1b9930-e636-46d5-bc4b-40e16bee5c28"},"vehicle_type_id":"4","last_reported":1728649047,"current_range_meters":26000,"station_id":"ce4bhbp2rcd13ifvqerg","pricing_plan_id":"cebpf4jnsgd1na2vs0mg"},{"bike_id":"5ae2683b-8a70-4e9f-8c7c-2eef71050cef","system_id":"levelo_inurba_marseille","lat":43.32368,"lon":5.38881,"is_reserved":false,"is_disabled":false,"rental_uris":{"android":"levelo://app?vid=5ae2683b-8a70-4e9f-8c7c-2eef71050cef","ios":"levelo://app?vid=5ae2683b-8a70-4e9f-8c7c-2eef71050cef"},"vehicle_type_id":"4","last_reported":1728649047,"current_range_meters":18800,"station_id":"ce4bhqp2rcd13ifvqhog","pricing_plan_id":"cebpf4jnsgd1na2vs0mg"},{"bike_id":"4ce4ff2b-a8e7-449e-9098-4ad5b1394eca","system_id":"levelo_inurba_marseille","lat":43.30859,"lon":5.37203,"is_reserved":false,"is_disabled":false,"rental_uris":{"android":"levelo://app?vid=4ce4ff2b-a8e7-449e-9098-4ad5b1394eca","ios":"levelo://app?vid=4ce4ff2b-a8e7-449e-9098-4ad5b1394eca"},"vehicle_type_id":"4","last_reported":1728649047,"current_range_meters":38800,"station_id":"ce4bguh2rcd13ifvqckg","pricing_plan_id":"cebpf4jnsgd1na2vs0mg"},{"bike_id":"3d3d46fd-62ae-415a-bc82-a452fb120f50","system_id":"levelo_inurba_marseille","lat":43.30542,"lon":5.36695,"is_reserved":false,"is_disabled":false,"rental_uris":{"android":"levelo://app?vid=3d3d46fd-62ae-415a-bc82-a452fb120f50","ios":"levelo://app?vid=3d3d46fd-62ae-415a-bc82-a452fb120f50"},"vehicle_type_id":"4","last_reported":1728649047,"current_range_meters":38800,"station_id":"ce4bgrp2rcd13ifvqc9g","pricing_plan_id":"cebpf4jnsgd1na2vs0mg"},{"bike_id":"f0c628cf-1f11-4514-bb66-f2ef1d04937d","system_id":"levelo_inurba_marseille","lat":43.32038,"lon":5.41564,"is_reserved":false,"is_disabled":false,"rental_uris":{"android":"levelo://app?vid=f0c628cf-1f11-4514-bb66-f2ef1d04937d","ios":"levelo://app?vid=f0c628cf-1f11-4514-bb66-f2ef1d04937d"},"vehicle_type_id":"4","last_reported":1728649047,"current_range_meters":14400,"station_id":"ce4bhq92rcd13ifvqhkg","pricing_plan_id":"cebpf4jnsgd1na2vs0mg"},{"bike_id":"3e6f81e5-4ee5-499a-9586-b657ae4e2d0e","system_id":"levelo_inurba_marseille","lat":43.2959,"lon":5.38192,"is_reserved":false,"is_disabled":false,"rental_uris":{"android":"levelo://app?vid=3e6f81e5-4ee5-499a-9586-b657ae4e2d0e","ios":"levelo://app?vid=3e6f81e5-4ee5-499a-9586-b657ae4e2d0e"},"vehicle_type_id":"4","last_reported":1728649047,"current_range_meters":24400,"station_id":"","pricing_plan_id":"cebpf4jnsgd1na2vs0mg"},{"bike_id":"07573ff7-7c48-4a5f-9bd0-2a3f2b9d68d5","system_id":"levelo_inurba_marseille","lat":43.22929,"lon":5.35373,"is_reserved":false,"is_disabled":false,"rental_uris":{"android":"levelo://app?vid=07573ff7-7c48-4a5f-9bd0-2a3f2b9d68d5","ios":"levelo://app?vid=07573ff7-7c48-4a5f-9bd0-2a3f2b9d68d5"},"vehicle_type_id":"4","last_reported":1728649047,"current_range_meters":14400,"station_id":"cpo3532slgdg3j2ikp40","pricing_plan_id":"cebpf4jnsgd1na2vs0mg"},{"bike_id":"5a5649e8-a9bc-4d0f-be41-ed6fc56a9baf","system_id":"levelo_inurba_marseille","lat":43.22925,"lon":5.35374,"is_reserved":false,"is_disabled":false,"rental_uris":{"android":"levelo://app?vid=5a5649e8-a9bc-4d0f-be41-ed6fc56a9baf","ios":"levelo://app?vid=5a5649e8-a9bc-4d0f-be41-ed6fc56a9baf"},"vehicle_type_id":"4","last_reported":1728649047,"current_range_meters":36800,"station_id":"cpo3532slgdg3j2ikp40","pricing_plan_id":"cebpf4jnsgd1na2vs0mg"},{"bike_id":"f1f5206c-1454-4bd6-ad35-1c5faeebcb5b","system_id":"levelo_inurba_marseille","lat":43.28453,"lon":5.35888,"is_reserved":false,"is_disabled":false,"rental_uris":{"android":"levelo://app?vid=f1f5206c-1454-4bd6-ad35-1c5faeebcb5b","ios":"levelo://app?vid=f1f5206c-1454-4bd6-ad35-1c5faeebcb5b"},"vehicle_type_id":"4","last_reported":1728649047,"current_range_meters":38800,"station_id":"ce4bhah2rcd13ifvqei0","pricing_plan_id":"cebpf4jnsgd1na2vs0mg"},{"bike_id":"bd93e13d-1693-457c-910d-afb8602e32c0","system_id":"levelo_inurba_marseille","lat":43.30129,"lon":5.39868,"is_reserved":false,"is_disabled":false,"rental_uris":{"android":"levelo://app?vid=bd93e13d-1693-457c-910d-afb8602e32c0","ios":"levelo://app?vid=bd93e13d-1693-457c-910d-afb8602e32c0"},"vehicle_type_id":"4","last_reported":1728649047,"current_range_meters":36400,"station_id":"ce4bh0h2rcd13ifvqd40","pricing_plan_id":"cebpf4jnsgd1na2vs0mg"},{"bike_id":"120745e3-238a-49d1-b748-048446932b6e","system_id":"levelo_inurba_marseille","lat":43.28701,"lon":5.37917,"is_reserved":false,"is_disabled":false,"rental_uris":{"android":"levelo://app?vid=120745e3-238a-49d1-b748-048446932b6e","ios":"levelo://app?vid=120745e3-238a-49d1-b748-048446932b6e"},"vehicle_type_id":"4","last_reported":1728649047,"current_range_meters":39200,"station_id":"ce4bh9p2rcd13ifvqec0","pricing_plan_id":"cebpf4jnsgd1na2vs0mg"},{"bike_id":"9be00149-c25c-42e9-be9c-e94c3802246f","system_id":"levelo_inurba_marseille","lat":43.2867,"lon":5.36355,"is_reserved":false,"is_disabled":false,"rental_uris":{"android":"levelo://app?vid=9be00149-c25c-42e9-be9c-e94c3802246f","ios":"levelo://app?vid=9be00149-c25c-42e9-be9c-e94c3802246f"},"vehicle_type_id":"4","last_reported":1728649047,"current_range_meters":8400,"station_id":"ce4bhah2rcd13ifvqej0","pricing_plan_id":"cebpf4jnsgd1na2vs0mg"},{"bike_id":"92092275-3bc2-42b7-ba9a-44a1f2105c14","system_id":"levelo_inurba_marseille","lat":43.24662,"lon":5.38168,"is_reserved":false,"is_disabled":false,"rental_uris":{"android":"levelo://app?vid=92092275-3bc2-42b7-ba9a-44a1f2105c14","ios":"levelo://app?vid=92092275-3bc2-42b7-ba9a-44a1f2105c14"},"vehicle_type_id":"4","last_reported":1728649047,"current_range_meters":16400,"station_id":"ce4bhih2rcd13ifvqfr0","pricing_plan_id":"cebpf4jnsgd1na2vs0mg"},{"bike_id":"fea68042-6912-4946-948b-ae6c942d18e2","system_id":"levelo_inurba_marseille","lat":43.24996,"lon":5.38939,"is_reserved":false,"is_disabled":false,"rental_uris":{"android":"levelo://app?vid=fea68042-6912-4946-948b-ae6c942d18e2","ios":"levelo://app?vid=fea68042-6912-4946-948b-ae6c942d18e2"},"vehicle_type_id":"4","last_reported":1728649047,"current_range_meters":26800,"station_id":"ce4bhgp2rcd13ifvqfd0","pricing_plan_id":"cebpf4jnsgd1na2vs0mg"},{"bike_id":"da5c52fd-3d7e-4f3c-aa2e-a5e970b78f93","system_id":"levelo_inurba_marseille","lat":43.24165,"lon":5.39721,"is_reserved":false,"is_disabled":false,"rental_uris":{"android":"levelo://app?vid=da5c52fd-3d7e-4f3c-aa2e-a5e970b78f93","ios":"levelo://app?vid=da5c52fd-3d7e-4f3c-aa2e-a5e970b78f93"},"vehicle_type_id":"4","last_reported":1728649047,"current_range_meters":8800,"station_id":"ce4bhn12rcd13ifvqgpg","pricing_plan_id":"cebpf4jnsgd1na2vs0mg"},{"bike_id":"8fb2b431-bcb9-46ba-80fb-e26e84592fc5","system_id":"levelo_inurba_marseille","lat":43.23195,"lon":5.35547,"is_reserved":false,"is_disabled":false,"rental_uris":{"android":"levelo://app?vid=8fb2b431-bcb9-46ba-80fb-e26e84592fc5","ios":"levelo://app?vid=8fb2b431-bcb9-46ba-80fb-e26e84592fc5"},"vehicle_type_id":"4","last_reported":1728649047,"current_range_meters":36800,"station_id":"ce4bhu92rcd13ifvqi70","pricing_plan_id":"cebpf4jnsgd1na2vs0mg"},{"bike_id":"cc9a766f-35c0-45af-93ea-7cfccc4dec28","system_id":"levelo_inurba_marseille","lat":43.30597,"lon":5.3936,"is_reserved":false,"is_disabled":false,"rental_uris":{"android":"levelo://app?vid=cc9a766f-35c0-45af-93ea-7cfccc4dec28","ios":"levelo://app?vid=cc9a766f-35c0-45af-93ea-7cfccc4dec28"},"vehicle_type_id":"4","last_reported":1728649047,"current_range_meters":12000,"station_id":"ce4bh0p2rcd13ifvqd80","pricing_plan_id":"cebpf4jnsgd1na2vs0mg"},{"bike_id":"e14b04f8-b1e6-4c9a-a125-14302e0ca4f2","system_id":"levelo_inurba_marseille","lat":43.29223,"lon":5.36071,"is_reserved":false,"is_disabled":false,"rental_uris":{"android":"levelo://app?vid=e14b04f8-b1e6-4c9a-a125-14302e0ca4f2","ios":"levelo://app?vid=e14b04f8-b1e6-4c9a-a125-14302e0ca4f2"},"vehicle_type_id":"4","last_reported":1728649047,"current_range_meters":3600,"station_id":"ce4bhbh2rcd13ifvqeqg","pricing_plan_id":"cebpf4jnsgd1na2vs0mg"},{"bike_id":"ad059a67-1f0e-4891-9e56-822dd40ac2c2","system_id":"levelo_inurba_marseille","lat":43.28694,"lon":5.37396,"is_reserved":false,"is_disabled":false,"rental_uris":{"android":"levelo://app?vid=ad059a67-1f0e-4891-9e56-822dd40ac2c2","ios":"levelo://app?vid=ad059a67-1f0e-4891-9e56-822dd40ac2c2"},"vehicle_type_id":"4","last_reported":1728649047,"current_range_meters":5600,"station_id":"ce4bh3p2rcd13ifvqdq0","pricing_plan_id":"cebpf4jnsgd1na2vs0mg"},{"bike_id":"063d03b6-a87c-4b22-ae2d-f60331fa49ac","system_id":"levelo_inurba_marseille","lat":43.29126,"lon":5.382667,"is_reserved":false,"is_disabled":false,"rental_uris":{"android":"levelo://app?vid=063d03b6-a87c-4b22-ae2d-f60331fa49ac","ios":"levelo://app?vid=063d03b6-a87c-4b22-ae2d-f60331fa49ac"},"vehicle_type_id":"4","last_reported":1728649047,"current_range_meters":11200,"station_id":"ce4bh192rcd13ifvqdc0","pricing_plan_id":"cebpf4jnsgd1na2vs0mg"},{"bike_id":"3ad2d4df-6578-4fe4-ba47-66942feeb37d","system_id":"levelo_inurba_marseille","lat":43.23151,"lon":5.43711,"is_reserved":false,"is_disabled":false,"rental_uris":{"android":"levelo://app?vid=3ad2d4df-6578-4fe4-ba47-66942feeb37d","ios":"levelo://app?vid=3ad2d4df-6578-4fe4-ba47-66942feeb37d"},"vehicle_type_id":"4","last_reported":1728649047,"current_range_meters":28800,"station_id":"ce4bhmp2rcd13ifvqgog","pricing_plan_id":"cebpf4jnsgd1na2vs0mg"},{"bike_id":"17b1854f-1c85-4869-b2f6-1e7a40bde75f","system_id":"levelo_inurba_marseille","lat":43.25827,"lon":5.39425,"is_reserved":false,"is_disabled":false,"rental_uris":{"android":"levelo://app?vid=17b1854f-1c85-4869-b2f6-1e7a40bde75f","ios":"levelo://app?vid=17b1854f-1c85-4869-b2f6-1e7a40bde75f"},"vehicle_type_id":"4","last_reported":1728649047,"current_range_meters":18000,"station_id":"ce4bhip2rcd13ifvqft0","pricing_plan_id":"cebpf4jnsgd1na2vs0mg"},{"bike_id":"cff8b1f1-6585-4027-9748-31607689b25f","system_id":"levelo_inurba_marseille","lat":43.2582,"lon":5.39437,"is_reserved":false,"is_disabled":false,"rental_uris":{"android":"levelo://app?vid=cff8b1f1-6585-4027-9748-31607689b25f","ios":"levelo://app?vid=cff8b1f1-6585-4027-9748-31607689b25f"},"vehicle_type_id":"4","last_reported":1728649047,"current_range_meters":9600,"station_id":"ce4bhip2rcd13ifvqft0","pricing_plan_id":"cebpf4jnsgd1na2vs0mg"},{"bike_id":"cbb4c02e-d773-40f3-9fc9-9d89b3bcd035","system_id":"levelo_inurba_marseille","lat":43.317553,"lon":5.390131,"is_reserved":false,"is_disabled":false,"rental_uris":{"android":"levelo://app?vid=cbb4c02e-d773-40f3-9fc9-9d89b3bcd035","ios":"levelo://app?vid=cbb4c02e-d773-40f3-9fc9-9d89b3bcd035"},"vehicle_type_id":"4","last_reported":1728649047,"current_range_meters":11200,"station_id":"ce4bhqh2rcd13ifvqhlg","pricing_plan_id":"cebpf4jnsgd1na2vs0mg"},{"bike_id":"a16567ee-8663-415e-88a2-3a019332e0dc","system_id":"levelo_inurba_marseille","lat":43.25579,"lon":5.38234,"is_reserved":false,"is_disabled":false,"rental_uris":{"android":"levelo://app?vid=a16567ee-8663-415e-88a2-3a019332e0dc","ios":"levelo://app?vid=a16567ee-8663-415e-88a2-3a019332e0dc"},"vehicle_type_id":"4","last_reported":1728649047,"current_range_meters":28400,"station_id":"ce4bhih2rcd13ifvqfs0","pricing_plan_id":"cebpf4jnsgd1na2vs0mg"},{"bike_id":"b77ea0eb-5d3b-4128-a383-258cf0d3ad87","system_id":"levelo_inurba_marseille","lat":43.27813,"lon":5.40716,"is_reserved":false,"is_disabled":false,"rental_uris":{"android":"levelo://app?vid=b77ea0eb-5d3b-4128-a383-258cf0d3ad87","ios":"levelo://app?vid=b77ea0eb-5d3b-4128-a383-258cf0d3ad87"},"vehicle_type_id":"4","last_reported":1728649047,"current_range_meters":20800,"station_id":"ce4bhnh2rcd13ifvqgtg","pricing_plan_id":"cebpf4jnsgd1na2vs0mg"},{"bike_id":"2d6b34e7-38b9-4382-8bb4-f923bcf86327","system_id":"levelo_inurba_marseille","lat":43.282723,"lon":5.350751,"is_reserved":false,"is_disabled":false,"rental_uris":{"android":"levelo://app?vid=2d6b34e7-38b9-4382-8bb4-f923bcf86327","ios":"levelo://app?vid=2d6b34e7-38b9-4382-8bb4-f923bcf86327"},"vehicle_type_id":"4","last_reported":1728649047,"current_range_meters":39200,"station_id":"ce4bhbp2rcd13ifvqerg","pricing_plan_id":"cebpf4jnsgd1na2vs0mg"},{"bike_id":"3097f178-3df2-4e42-8254-d7c96177a79e","system_id":"levelo_inurba_marseille","lat":43.24387,"lon":5.37069,"is_reserved":false,"is_disabled":false,"rental_uris":{"android":"levelo://app?vid=3097f178-3df2-4e42-8254-d7c96177a79e","ios":"levelo://app?vid=3097f178-3df2-4e42-8254-d7c96177a79e"},"vehicle_type_id":"4","last_reported":1728649047,"current_range_meters":36800,"station_id":"ce4bhhh2rcd13ifvqfk0","pricing_plan_id":"cebpf4jnsgd1na2vs0mg"},{"bike_id":"b3fada19-33b7-4c06-8532-c9003b697763","system_id":"levelo_inurba_marseille","lat":43.29714,"lon":5.36621,"is_reserved":false,"is_disabled":false,"rental_uris":{"android":"levelo://app?vid=b3fada19-33b7-4c06-8532-c9003b697763","ios":"levelo://app?vid=b3fada19-33b7-4c06-8532-c9003b697763"},"vehicle_type_id":"4","last_reported":1728649047,"current_range_meters":3600,"station_id":"ce4bgn12rcd13ifvqbt0","pricing_plan_id":"cebpf4jnsgd1na2vs0mg"},{"bike_id":"428e02d8-1cdb-4617-af0b-79b2b6c7fafd","system_id":"levelo_inurba_marseille","lat":43.26198,"lon":5.37922,"is_reserved":false,"is_disabled":false,"rental_uris":{"android":"levelo://app?vid=428e02d8-1cdb-4617-af0b-79b2b6c7fafd","ios":"levelo://app?vid=428e02d8-1cdb-4617-af0b-79b2b6c7fafd"},"vehicle_type_id":"4","last_reported":1728649047,"current_range_meters":4800,"station_id":"ce4bhjp2rcd13ifvqg90","pricing_plan_id":"cebpf4jnsgd1na2vs0mg"},{"bike_id":"866026d9-f486-472b-8422-aa308d45f74e","system_id":"levelo_inurba_marseille","lat":43.33751,"lon":5.37472,"is_reserved":false,"is_disabled":false,"rental_uris":{"android":"levelo://app?vid=866026d9-f486-472b-8422-aa308d45f74e","ios":"levelo://app?vid=866026d9-f486-472b-8422-aa308d45f74e"},"vehicle_type_id":"4","last_reported":1728649047,"current_range_meters":28800,"station_id":"","pricing_plan_id":"cebpf4jnsgd1na2vs0mg"},{"bike_id":"c0c870de-5d4e-4810-9222-e43e6177ae68","system_id":"levelo_inurba_marseille","lat":43.28719,"lon":5.37938,"is_reserved":false,"is_disabled":false,"rental_uris":{"android":"levelo://app?vid=c0c870de-5d4e-4810-9222-e43e6177ae68","ios":"levelo://app?vid=c0c870de-5d4e-4810-9222-e43e6177ae68"},"vehicle_type_id":"4","last_reported":1728649047,"current_range_meters":38800,"station_id":"ce4bh9p2rcd13ifvqec0","pricing_plan_id":"cebpf4jnsgd1na2vs0mg"},{"bike_id":"aa75c41c-1391-4d5a-b0ad-fb29c317877d","system_id":"levelo_inurba_marseille","lat":43.23063,"lon":5.35493,"is_reserved":false,"is_disabled":false,"rental_uris":{"android":"levelo://app?vid=aa75c41c-1391-4d5a-b0ad-fb29c317877d","ios":"levelo://app?vid=aa75c41c-1391-4d5a-b0ad-fb29c317877d"},"vehicle_type_id":"4","last_reported":1728649047,"current_range_meters":6800,"station_id":"cpo3342slgdg3j2ifvpg","pricing_plan_id":"cebpf4jnsgd1na2vs0mg"},{"bike_id":"81ea2e88-152f-407f-a209-df02eb42dc31","system_id":"levelo_inurba_marseille","lat":43.29029,"lon":5.386477,"is_reserved":false,"is_disabled":false,"rental_uris":{"android":"levelo://app?vid=81ea2e88-152f-407f-a209-df02eb42dc31","ios":"levelo://app?vid=81ea2e88-152f-407f-a209-df02eb42dc31"},"vehicle_type_id":"4","last_reported":1728649047,"current_range_meters":30800,"station_id":"ce4bh4p2rcd13ifvqe0g","pricing_plan_id":"cebpf4jnsgd1na2vs0mg"},{"bike_id":"1ae5d8bf-e2a1-4cc6-9a93-253833622b0f","system_id":"levelo_inurba_marseille","lat":43.29299,"lon":5.37465,"is_reserved":false,"is_disabled":false,"rental_uris":{"android":"levelo://app?vid=1ae5d8bf-e2a1-4cc6-9a93-253833622b0f","ios":"levelo://app?vid=1ae5d8bf-e2a1-4cc6-9a93-253833622b0f"},"vehicle_type_id":"4","last_reported":1728649047,"current_range_meters":32000,"station_id":"ce4bgi12rcd13ifvqb70","pricing_plan_id":"cebpf4jnsgd1na2vs0mg"},{"bike_id":"1a0f090a-d6e7-4a1e-bfe5-0c2a632b851c","system_id":"levelo_inurba_marseille","lat":43.27173,"lon":5.40998,"is_reserved":false,"is_disabled":false,"rental_uris":{"android":"levelo://app?vid=1a0f090a-d6e7-4a1e-bfe5-0c2a632b851c","ios":"levelo://app?vid=1a0f090a-d6e7-4a1e-bfe5-0c2a632b851c"},"vehicle_type_id":"4","last_reported":1728649047,"current_range_meters":11600,"station_id":"ce4bhl12rcd13ifvqgf0","pricing_plan_id":"cebpf4jnsgd1na2vs0mg"},{"bike_id":"c4968693-c26a-402b-ba2d-f98a46283c54","system_id":"levelo_inurba_marseille","lat":43.28475,"lon":5.38421,"is_reserved":false,"is_disabled":false,"rental_uris":{"android":"levelo://app?vid=c4968693-c26a-402b-ba2d-f98a46283c54","ios":"levelo://app?vid=c4968693-c26a-402b-ba2d-f98a46283c54"},"vehicle_type_id":"4","last_reported":1728649047,"current_range_meters":37600,"station_id":"ce4bh512rcd13ifvqe3g","pricing_plan_id":"cebpf4jnsgd1na2vs0mg"},{"bike_id":"26f3279a-c098-4560-a284-f44c9423f176","system_id":"levelo_inurba_marseille","lat":43.29792,"lon":5.37101,"is_reserved":false,"is_disabled":false,"rental_uris":{"android":"levelo://app?vid=26f3279a-c098-4560-a284-f44c9423f176","ios":"levelo://app?vid=26f3279a-c098-4560-a284-f44c9423f176"},"vehicle_type_id":"4","last_reported":1728649047,"current_range_meters":25200,"station_id":"ce4bgop2rcd13ifvqc1g","pricing_plan_id":"cebpf4jnsgd1na2vs0mg"},{"bike_id":"3bd04d24-eb1f-4c1a-9b06-8a083056d297","system_id":"levelo_inurba_marseille","lat":43.25874,"lon":5.39895,"is_reserved":false,"is_disabled":false,"rental_uris":{"android":"levelo://app?vid=3bd04d24-eb1f-4c1a-9b06-8a083056d297","ios":"levelo://app?vid=3bd04d24-eb1f-4c1a-9b06-8a083056d297"},"vehicle_type_id":"4","last_reported":1728649047,"current_range_meters":16000,"station_id":"ce4bhl92rcd13ifvqghg","pricing_plan_id":"cebpf4jnsgd1na2vs0mg"},{"bike_id":"17717874-c106-4098-bc3f-7289273936c5","system_id":"levelo_inurba_marseille","lat":43.284912,"lon":5.373989,"is_reserved":false,"is_disabled":false,"rental_uris":{"android":"levelo://app?vid=17717874-c106-4098-bc3f-7289273936c5","ios":"levelo://app?vid=17717874-c106-4098-bc3f-7289273936c5"},"vehicle_type_id":"4","last_reported":1728649047,"current_range_meters":20000,"station_id":"ce4bh412rcd13ifvqds0","pricing_plan_id":"cebpf4jnsgd1na2vs0mg"},{"bike_id":"215f7dd5-6c27-420c-899f-dd33221146a7","system_id":"levelo_inurba_marseille","lat":43.2315,"lon":5.43709,"is_reserved":false,"is_disabled":false,"rental_uris":{"android":"levelo://app?vid=215f7dd5-6c27-420c-899f-dd33221146a7","ios":"levelo://app?vid=215f7dd5-6c27-420c-899f-dd33221146a7"},"vehicle_type_id":"4","last_reported":1728649047,"current_range_meters":6400,"station_id":"ce4bhmp2rcd13ifvqgog","pricing_plan_id":"cebpf4jnsgd1na2vs0mg"},{"bike_id":"d4e7c199-5b07-4cc4-b4e1-e0fc91d98728","system_id":"levelo_inurba_marseille","lat":43.25586,"lon":5.38225,"is_reserved":false,"is_disabled":false,"rental_uris":{"android":"levelo://app?vid=d4e7c199-5b07-4cc4-b4e1-e0fc91d98728","ios":"levelo://app?vid=d4e7c199-5b07-4cc4-b4e1-e0fc91d98728"},"vehicle_type_id":"4","last_reported":1728649047,"current_range_meters":37600,"station_id":"ce4bhih2rcd13ifvqfs0","pricing_plan_id":"cebpf4jnsgd1na2vs0mg"},{"bike_id":"b1009450-6152-462c-a724-90df51eeb6db","system_id":"levelo_inurba_marseille","lat":43.32382,"lon":5.38917,"is_reserved":false,"is_disabled":false,"rental_uris":{"android":"levelo://app?vid=b1009450-6152-462c-a724-90df51eeb6db","ios":"levelo://app?vid=b1009450-6152-462c-a724-90df51eeb6db"},"vehicle_type_id":"4","last_reported":1728649047,"current_range_meters":6000,"station_id":"ce4bhqp2rcd13ifvqhog","pricing_plan_id":"cebpf4jnsgd1na2vs0mg"},{"bike_id":"e7ff8a71-08f6-4d85-81cd-23e686b45531","system_id":"levelo_inurba_marseille","lat":43.23196,"lon":5.35553,"is_reserved":false,"is_disabled":false,"rental_uris":{"android":"levelo://app?vid=e7ff8a71-08f6-4d85-81cd-23e686b45531","ios":"levelo://app?vid=e7ff8a71-08f6-4d85-81cd-23e686b45531"},"vehicle_type_id":"4","last_reported":1728649047,"current_range_meters":25600,"station_id":"ce4bhu92rcd13ifvqi70","pricing_plan_id":"cebpf4jnsgd1na2vs0mg"},{"bike_id":"19f5f42a-6adc-4145-8932-c12d978bc3e8","system_id":"levelo_inurba_marseille","lat":43.29853,"lon":5.36288,"is_reserved":false,"is_disabled":false,"rental_uris":{"android":"levelo://app?vid=19f5f42a-6adc-4145-8932-c12d978bc3e8","ios":"levelo://app?vid=19f5f42a-6adc-4145-8932-c12d978bc3e8"},"vehicle_type_id":"4","last_reported":1728649047,"current_range_meters":12800,"station_id":"ce4bgpp2rcd13ifvqc3g","pricing_plan_id":"cebpf4jnsgd1na2vs0mg"},{"bike_id":"e57eee6e-49c8-4cfb-a61d-0bf39603ab36","system_id":"levelo_inurba_marseille","lat":43.25501,"lon":5.37646,"is_reserved":false,"is_disabled":false,"rental_uris":{"android":"levelo://app?vid=e57eee6e-49c8-4cfb-a61d-0bf39603ab36","ios":"levelo://app?vid=e57eee6e-49c8-4cfb-a61d-0bf39603ab36"},"vehicle_type_id":"4","last_reported":1728649047,"current_range_meters":9600,"station_id":"ce4bhh12rcd13ifvqff0","pricing_plan_id":"cebpf4jnsgd1na2vs0mg"},{"bike_id":"d15bb18b-7ad1-41e5-b85b-98d3de42750c","system_id":"levelo_inurba_marseille","lat":43.29898,"lon":5.43671,"is_reserved":false,"is_disabled":false,"rental_uris":{"android":"levelo://app?vid=d15bb18b-7ad1-41e5-b85b-98d3de42750c","ios":"levelo://app?vid=d15bb18b-7ad1-41e5-b85b-98d3de42750c"},"vehicle_type_id":"4","last_reported":1728649047,"current_range_meters":34000,"station_id":"ce4bhpp2rcd13ifvqhfg","pricing_plan_id":"cebpf4jnsgd1na2vs0mg"},{"bike_id":"eb5d9176-5785-4ed1-9d04-dbdaee7661b2","system_id":"levelo_inurba_marseille","lat":43.28852,"lon":5.3586,"is_reserved":false,"is_disabled":false,"rental_uris":{"android":"levelo://app?vid=eb5d9176-5785-4ed1-9d04-dbdaee7661b2","ios":"levelo://app?vid=eb5d9176-5785-4ed1-9d04-dbdaee7661b2"},"vehicle_type_id":"4","last_reported":1728649047,"current_range_meters":31200,"station_id":"ce4bhb12rcd13ifvqem0","pricing_plan_id":"cebpf4jnsgd1na2vs0mg"},{"bike_id":"7ba29f14-c78e-4c52-8f9c-0c8cfa49f962","system_id":"levelo_inurba_marseille","lat":43.30281,"lon":5.37705,"is_reserved":false,"is_disabled":false,"rental_uris":{"android":"levelo://app?vid=7ba29f14-c78e-4c52-8f9c-0c8cfa49f962","ios":"levelo://app?vid=7ba29f14-c78e-4c52-8f9c-0c8cfa49f962"},"vehicle_type_id":"4","last_reported":1728649047,"current_range_meters":22000,"station_id":"ce4bguh2rcd13ifvqcj0","pricing_plan_id":"cebpf4jnsgd1na2vs0mg"},{"bike_id":"65ea635f-9bef-40c1-8f75-29e1372bce6f","system_id":"levelo_inurba_marseille","lat":43.28276,"lon":5.35067,"is_reserved":false,"is_disabled":false,"rental_uris":{"android":"levelo://app?vid=65ea635f-9bef-40c1-8f75-29e1372bce6f","ios":"levelo://app?vid=65ea635f-9bef-40c1-8f75-29e1372bce6f"},"vehicle_type_id":"4","last_reported":1728649047,"current_range_meters":38800,"station_id":"ce4bhbp2rcd13ifvqerg","pricing_plan_id":"cebpf4jnsgd1na2vs0mg"},{"bike_id":"73be986d-9035-40da-95f7-9fa8f7d4cd39","system_id":"levelo_inurba_marseille","lat":43.23148,"lon":5.43727,"is_reserved":false,"is_disabled":false,"rental_uris":{"android":"levelo://app?vid=73be986d-9035-40da-95f7-9fa8f7d4cd39","ios":"levelo://app?vid=73be986d-9035-40da-95f7-9fa8f7d4cd39"},"vehicle_type_id":"4","last_reported":1728649047,"current_range_meters":18000,"station_id":"ce4bhmp2rcd13ifvqgog","pricing_plan_id":"cebpf4jnsgd1na2vs0mg"},{"bike_id":"4fd525ae-d66c-4419-8176-3cf07a3c2361","system_id":"levelo_inurba_marseille","lat":43.26793,"lon":5.39416,"is_reserved":false,"is_disabled":false,"rental_uris":{"android":"levelo://app?vid=4fd525ae-d66c-4419-8176-3cf07a3c2361","ios":"levelo://app?vid=4fd525ae-d66c-4419-8176-3cf07a3c2361"},"vehicle_type_id":"4","last_reported":1728649047,"current_range_meters":18800,"station_id":"ce4bhh12rcd13ifvqfg0","pricing_plan_id":"cebpf4jnsgd1na2vs0mg"},{"bike_id":"697179ec-19d4-47b1-a5c5-aed19302354f","system_id":"levelo_inurba_marseille","lat":43.25498,"lon":5.3765,"is_reserved":false,"is_disabled":false,"rental_uris":{"android":"levelo://app?vid=697179ec-19d4-47b1-a5c5-aed19302354f","ios":"levelo://app?vid=697179ec-19d4-47b1-a5c5-aed19302354f"},"vehicle_type_id":"4","last_reported":1728649047,"current_range_meters":9200,"station_id":"ce4bhh12rcd13ifvqff0","pricing_plan_id":"cebpf4jnsgd1na2vs0mg"},{"bike_id":"b8a87ab0-d055-4a8f-adad-dfa9d208369b","system_id":"levelo_inurba_marseille","lat":43.33753,"lon":5.37449,"is_reserved":false,"is_disabled":false,"rental_uris":{"android":"levelo://app?vid=b8a87ab0-d055-4a8f-adad-dfa9d208369b","ios":"levelo://app?vid=b8a87ab0-d055-4a8f-adad-dfa9d208369b"},"vehicle_type_id":"4","last_reported":1728649047,"current_range_meters":28800,"station_id":"","pricing_plan_id":"cebpf4jnsgd1na2vs0mg"},{"bike_id":"ac7ae474-8451-4087-8a89-a777ebcf6d60","system_id":"levelo_inurba_marseille","lat":43.28903,"lon":5.38733,"is_reserved":false,"is_disabled":false,"rental_uris":{"android":"levelo://app?vid=ac7ae474-8451-4087-8a89-a777ebcf6d60","ios":"levelo://app?vid=ac7ae474-8451-4087-8a89-a777ebcf6d60"},"vehicle_type_id":"4","last_reported":1728649047,"current_range_meters":24000,"station_id":"ce4bh4p2rcd13ifvqe0g","pricing_plan_id":"cebpf4jnsgd1na2vs0mg"},{"bike_id":"9e8fa02f-8080-4224-afa0-881fdf831587","system_id":"levelo_inurba_marseille","lat":43.29301,"lon":5.37461,"is_reserved":false,"is_disabled":false,"rental_uris":{"android":"levelo://app?vid=9e8fa02f-8080-4224-afa0-881fdf831587","ios":"levelo://app?vid=9e8fa02f-8080-4224-afa0-881fdf831587"},"vehicle_type_id":"4","last_reported":1728649047,"current_range_meters":8000,"station_id":"ce4bgi12rcd13ifvqb70","pricing_plan_id":"cebpf4jnsgd1na2vs0mg"},{"bike_id":"78fb2659-a037-4dba-91e0-d1b1d12423e0","system_id":"levelo_inurba_marseille","lat":43.3019,"lon":5.3663,"is_reserved":false,"is_disabled":false,"rental_uris":{"android":"levelo://app?vid=78fb2659-a037-4dba-91e0-d1b1d12423e0","ios":"levelo://app?vid=78fb2659-a037-4dba-91e0-d1b1d12423e0"},"vehicle_type_id":"4","last_reported":1728649047,"current_range_meters":12400,"station_id":"ce4bgrh2rcd13ifvqc8g","pricing_plan_id":"cebpf4jnsgd1na2vs0mg"},{"bike_id":"541961a5-1744-418a-b140-71fa553bad0f","system_id":"levelo_inurba_marseille","lat":43.29639,"lon":5.40597,"is_reserved":false,"is_disabled":false,"rental_uris":{"android":"levelo://app?vid=541961a5-1744-418a-b140-71fa553bad0f","ios":"levelo://app?vid=541961a5-1744-418a-b140-71fa553bad0f"},"vehicle_type_id":"4","last_reported":1728649047,"current_range_meters":6400,"station_id":"ce4bh0h2rcd13ifvqd60","pricing_plan_id":"cebpf4jnsgd1na2vs0mg"},{"bike_id":"d46265f1-c284-4a09-bedb-9ff35cdeacc2","system_id":"levelo_inurba_marseille","lat":43.25871,"lon":5.39893,"is_reserved":false,"is_disabled":false,"rental_uris":{"android":"levelo://app?vid=d46265f1-c284-4a09-bedb-9ff35cdeacc2","ios":"levelo://app?vid=d46265f1-c284-4a09-bedb-9ff35cdeacc2"},"vehicle_type_id":"4","last_reported":1728649047,"current_range_meters":5600,"station_id":"ce4bhl92rcd13ifvqghg","pricing_plan_id":"cebpf4jnsgd1na2vs0mg"},{"bike_id":"05d89ab7-af13-4571-b1dc-e1eae8af7d69","system_id":"levelo_inurba_marseille","lat":43.240798,"lon":5.37752,"is_reserved":false,"is_disabled":false,"rental_uris":{"android":"levelo://app?vid=05d89ab7-af13-4571-b1dc-e1eae8af7d69","ios":"levelo://app?vid=05d89ab7-af13-4571-b1dc-e1eae8af7d69"},"vehicle_type_id":"4","last_reported":1728649047,"current_range_meters":30800,"station_id":"ce4bhnp2rcd13ifvqgvg","pricing_plan_id":"cebpf4jnsgd1na2vs0mg"},{"bike_id":"80b3f1db-23d6-4120-af3c-a31eba3131b4","system_id":"levelo_inurba_marseille","lat":43.28469,"lon":5.3842,"is_reserved":false,"is_disabled":false,"rental_uris":{"android":"levelo://app?vid=80b3f1db-23d6-4120-af3c-a31eba3131b4","ios":"levelo://app?vid=80b3f1db-23d6-4120-af3c-a31eba3131b4"},"vehicle_type_id":"4","last_reported":1728649047,"current_range_meters":14000,"station_id":"ce4bh512rcd13ifvqe3g","pricing_plan_id":"cebpf4jnsgd1na2vs0mg"},{"bike_id":"ce04f614-a320-42df-8776-6146f8ec634d","system_id":"levelo_inurba_marseille","lat":43.25578,"lon":5.38223,"is_reserved":false,"is_disabled":false,"rental_uris":{"android":"levelo://app?vid=ce04f614-a320-42df-8776-6146f8ec634d","ios":"levelo://app?vid=ce04f614-a320-42df-8776-6146f8ec634d"},"vehicle_type_id":"4","last_reported":1728649047,"current_range_meters":36800,"station_id":"ce4bhih2rcd13ifvqfs0","pricing_plan_id":"cebpf4jnsgd1na2vs0mg"},{"bike_id":"e041d603-2959-4408-bf00-a1c35e7857da","system_id":"levelo_inurba_marseille","lat":43.30533,"lon":5.36553,"is_reserved":false,"is_disabled":false,"rental_uris":{"android":"levelo://app?vid=e041d603-2959-4408-bf00-a1c35e7857da","ios":"levelo://app?vid=e041d603-2959-4408-bf00-a1c35e7857da"},"vehicle_type_id":"4","last_reported":1728649047,"current_range_meters":30000,"station_id":"ce4bgs12rcd13ifvqcag","pricing_plan_id":"cebpf4jnsgd1na2vs0mg"},{"bike_id":"a652b5c3-29da-4a4b-9fe8-208d32cfa525","system_id":"levelo_inurba_marseille","lat":43.30303,"lon":5.36901,"is_reserved":false,"is_disabled":false,"rental_uris":{"android":"levelo://app?vid=a652b5c3-29da-4a4b-9fe8-208d32cfa525","ios":"levelo://app?vid=a652b5c3-29da-4a4b-9fe8-208d32cfa525"},"vehicle_type_id":"4","last_reported":1728649047,"current_range_meters":20400,"station_id":"ce4bgqh2rcd13ifvqc5g","pricing_plan_id":"cebpf4jnsgd1na2vs0mg"},{"bike_id":"57c5b202-4d22-4168-b24f-1961bfc4e5db","system_id":"levelo_inurba_marseille","lat":43.28258,"lon":5.35069,"is_reserved":false,"is_disabled":false,"rental_uris":{"android":"levelo://app?vid=57c5b202-4d22-4168-b24f-1961bfc4e5db","ios":"levelo://app?vid=57c5b202-4d22-4168-b24f-1961bfc4e5db"},"vehicle_type_id":"4","last_reported":1728649047,"current_range_meters":23200,"station_id":"ce4bhbp2rcd13ifvqerg","pricing_plan_id":"cebpf4jnsgd1na2vs0mg"},{"bike_id":"52d2a09e-0a87-4ba1-9156-98bb33eb33d2","system_id":"levelo_inurba_marseille","lat":43.297762,"lon":5.37914,"is_reserved":false,"is_disabled":false,"rental_uris":{"android":"levelo://app?vid=52d2a09e-0a87-4ba1-9156-98bb33eb33d2","ios":"levelo://app?vid=52d2a09e-0a87-4ba1-9156-98bb33eb33d2"},"vehicle_type_id":"4","last_reported":1728649047,"current_range_meters":19600,"station_id":"ce4bgip2rcd13ifvqbb0","pricing_plan_id":"cebpf4jnsgd1na2vs0mg"},{"bike_id":"5547baba-2e58-49b2-b997-d7c58c9e9300","system_id":"levelo_inurba_marseille","lat":43.28464,"lon":5.38424,"is_reserved":false,"is_disabled":false,"rental_uris":{"android":"levelo://app?vid=5547baba-2e58-49b2-b997-d7c58c9e9300","ios":"levelo://app?vid=5547baba-2e58-49b2-b997-d7c58c9e9300"},"vehicle_type_id":"4","last_reported":1728649047,"current_range_meters":20400,"station_id":"ce4bh512rcd13ifvqe3g","pricing_plan_id":"cebpf4jnsgd1na2vs0mg"},{"bike_id":"1fe8144b-e4d1-453f-aa73-05cf344d4dff","system_id":"levelo_inurba_marseille","lat":43.2894,"lon":5.36635,"is_reserved":false,"is_disabled":false,"rental_uris":{"android":"levelo://app?vid=1fe8144b-e4d1-453f-aa73-05cf344d4dff","ios":"levelo://app?vid=1fe8144b-e4d1-453f-aa73-05cf344d4dff"},"vehicle_type_id":"4","last_reported":1728649047,"current_range_meters":22000,"station_id":"","pricing_plan_id":"cebpf4jnsgd1na2vs0mg"},{"bike_id":"86399c9b-cf0c-4b00-9f5f-a4d8bd639b5d","system_id":"levelo_inurba_marseille","lat":43.26552,"lon":5.37287,"is_reserved":false,"is_disabled":false,"rental_uris":{"android":"levelo://app?vid=86399c9b-cf0c-4b00-9f5f-a4d8bd639b5d","ios":"levelo://app?vid=86399c9b-cf0c-4b00-9f5f-a4d8bd639b5d"},"vehicle_type_id":"4","last_reported":1728649047,"current_range_meters":34800,"station_id":"ce4bhg12rcd13ifvqf70","pricing_plan_id":"cebpf4jnsgd1na2vs0mg"},{"bike_id":"9476f4d5-e8ba-47cf-bdd2-be6f4a93d7d2","system_id":"levelo_inurba_marseille","lat":43.28157,"lon":5.42647,"is_reserved":false,"is_disabled":false,"rental_uris":{"android":"levelo://app?vid=9476f4d5-e8ba-47cf-bdd2-be6f4a93d7d2","ios":"levelo://app?vid=9476f4d5-e8ba-47cf-bdd2-be6f4a93d7d2"},"vehicle_type_id":"4","last_reported":1728649047,"current_range_meters":29600,"station_id":"ce4bhnh2rcd13ifvqgug","pricing_plan_id":"cebpf4jnsgd1na2vs0mg"},{"bike_id":"e657eb87-c69a-4481-991d-74aadfa29b7e","system_id":"levelo_inurba_marseille","lat":43.23911,"lon":5.43672,"is_reserved":false,"is_disabled":false,"rental_uris":{"android":"levelo://app?vid=e657eb87-c69a-4481-991d-74aadfa29b7e","ios":"levelo://app?vid=e657eb87-c69a-4481-991d-74aadfa29b7e"},"vehicle_type_id":"4","last_reported":1728649047,"current_range_meters":10000,"station_id":"","pricing_plan_id":"cebpf4jnsgd1na2vs0mg"},{"bike_id":"513a600d-c03a-463c-87b7-96585b02738c","system_id":"levelo_inurba_marseille","lat":43.28464,"lon":5.38431,"is_reserved":false,"is_disabled":false,"rental_uris":{"android":"levelo://app?vid=513a600d-c03a-463c-87b7-96585b02738c","ios":"levelo://app?vid=513a600d-c03a-463c-87b7-96585b02738c"},"vehicle_type_id":"4","last_reported":1728649047,"current_range_meters":30400,"station_id":"ce4bh512rcd13ifvqe3g","pricing_plan_id":"cebpf4jnsgd1na2vs0mg"},{"bike_id":"173405a9-617c-4cfe-98b4-0a18d00e6daf","system_id":"levelo_inurba_marseille","lat":43.23151,"lon":5.43721,"is_reserved":false,"is_disabled":false,"rental_uris":{"android":"levelo://app?vid=173405a9-617c-4cfe-98b4-0a18d00e6daf","ios":"levelo://app?vid=173405a9-617c-4cfe-98b4-0a18d00e6daf"},"vehicle_type_id":"4","last_reported":1728649047,"current_range_meters":21600,"station_id":"ce4bhmp2rcd13ifvqgog","pricing_plan_id":"cebpf4jnsgd1na2vs0mg"},{"bike_id":"4258e283-c9b2-4abb-b0da-fbaa438577cb","system_id":"levelo_inurba_marseille","lat":43.2315,"lon":5.43704,"is_reserved":false,"is_disabled":false,"rental_uris":{"android":"levelo://app?vid=4258e283-c9b2-4abb-b0da-fbaa438577cb","ios":"levelo://app?vid=4258e283-c9b2-4abb-b0da-fbaa438577cb"},"vehicle_type_id":"4","last_reported":1728649047,"current_range_meters":6000,"station_id":"ce4bhmp2rcd13ifvqgog","pricing_plan_id":"cebpf4jnsgd1na2vs0mg"},{"bike_id":"cb257378-68a1-44f9-a594-23fe6ddc6793","system_id":"levelo_inurba_marseille","lat":43.23157,"lon":5.43701,"is_reserved":false,"is_disabled":false,"rental_uris":{"android":"levelo://app?vid=cb257378-68a1-44f9-a594-23fe6ddc6793","ios":"levelo://app?vid=cb257378-68a1-44f9-a594-23fe6ddc6793"},"vehicle_type_id":"4","last_reported":1728649047,"current_range_meters":12000,"station_id":"ce4bhmp2rcd13ifvqgog","pricing_plan_id":"cebpf4jnsgd1na2vs0mg"},{"bike_id":"c7aa5051-864e-4c9e-abe0-807ea5092b2a","system_id":"levelo_inurba_marseille","lat":43.29298,"lon":5.37461,"is_reserved":false,"is_disabled":false,"rental_uris":{"android":"levelo://app?vid=c7aa5051-864e-4c9e-abe0-807ea5092b2a","ios":"levelo://app?vid=c7aa5051-864e-4c9e-abe0-807ea5092b2a"},"vehicle_type_id":"4","last_reported":1728649047,"current_range_meters":6400,"station_id":"ce4bgi12rcd13ifvqb70","pricing_plan_id":"cebpf4jnsgd1na2vs0mg"},{"bike_id":"6acb1ad7-5715-46b6-b6d3-2d41abd5ee14","system_id":"levelo_inurba_marseille","lat":43.30544,"lon":5.36566,"is_reserved":false,"is_disabled":false,"rental_uris":{"android":"levelo://app?vid=6acb1ad7-5715-46b6-b6d3-2d41abd5ee14","ios":"levelo://app?vid=6acb1ad7-5715-46b6-b6d3-2d41abd5ee14"},"vehicle_type_id":"4","last_reported":1728649047,"current_range_meters":28400,"station_id":"ce4bgs12rcd13ifvqcag","pricing_plan_id":"cebpf4jnsgd1na2vs0mg"},{"bike_id":"d3515cc2-9931-4d17-a2b9-231072d9e4d2","system_id":"levelo_inurba_marseille","lat":43.23202,"lon":5.35548,"is_reserved":false,"is_disabled":false,"rental_uris":{"android":"levelo://app?vid=d3515cc2-9931-4d17-a2b9-231072d9e4d2","ios":"levelo://app?vid=d3515cc2-9931-4d17-a2b9-231072d9e4d2"},"vehicle_type_id":"4","last_reported":1728649047,"current_range_meters":24000,"station_id":"ce4bhu92rcd13ifvqi70","pricing_plan_id":"cebpf4jnsgd1na2vs0mg"},{"bike_id":"5e9b747e-82e9-4343-9a7e-19f72fd473f0","system_id":"levelo_inurba_marseille","lat":43.23151,"lon":5.43704,"is_reserved":false,"is_disabled":false,"rental_uris":{"android":"levelo://app?vid=5e9b747e-82e9-4343-9a7e-19f72fd473f0","ios":"levelo://app?vid=5e9b747e-82e9-4343-9a7e-19f72fd473f0"},"vehicle_type_id":"4","last_reported":1728649047,"current_range_meters":20000,"station_id":"ce4bhmp2rcd13ifvqgog","pricing_plan_id":"cebpf4jnsgd1na2vs0mg"},{"bike_id":"9f21766f-0837-4bcb-a575-e8ce2df39312","system_id":"levelo_inurba_marseille","lat":43.3302,"lon":5.3904,"is_reserved":false,"is_disabled":false,"rental_uris":{"android":"levelo://app?vid=9f21766f-0837-4bcb-a575-e8ce2df39312","ios":"levelo://app?vid=9f21766f-0837-4bcb-a575-e8ce2df39312"},"vehicle_type_id":"4","last_reported":1728649047,"current_range_meters":20800,"station_id":"ce4bhr92rcd13ifvqhrg","pricing_plan_id":"cebpf4jnsgd1na2vs0mg"},{"bike_id":"2e410f33-230c-485b-bb31-c0483a8b1912","system_id":"levelo_inurba_marseille","lat":43.304901,"lon":5.368127,"is_reserved":false,"is_disabled":false,"rental_uris":{"android":"levelo://app?vid=2e410f33-230c-485b-bb31-c0483a8b1912","ios":"levelo://app?vid=2e410f33-230c-485b-bb31-c0483a8b1912"},"vehicle_type_id":"4","last_reported":1728649047,"current_range_meters":30800,"station_id":"ce4bgrp2rcd13ifvqc9g","pricing_plan_id":"cebpf4jnsgd1na2vs0mg"},{"bike_id":"57f79489-9047-4176-84cd-ad8fff29e8f8","system_id":"levelo_inurba_marseille","lat":43.29995,"lon":5.38499,"is_reserved":false,"is_disabled":false,"rental_uris":{"android":"levelo://app?vid=57f79489-9047-4176-84cd-ad8fff29e8f8","ios":"levelo://app?vid=57f79489-9047-4176-84cd-ad8fff29e8f8"},"vehicle_type_id":"4","last_reported":1728649047,"current_range_meters":16400,"station_id":"ce4bgj92rcd13ifvqbd0","pricing_plan_id":"cebpf4jnsgd1na2vs0mg"},{"bike_id":"8eecb571-3ca2-46a8-8993-72de21bb9426","system_id":"levelo_inurba_marseille","lat":43.2834,"lon":5.38101,"is_reserved":false,"is_disabled":false,"rental_uris":{"android":"levelo://app?vid=8eecb571-3ca2-46a8-8993-72de21bb9426","ios":"levelo://app?vid=8eecb571-3ca2-46a8-8993-72de21bb9426"},"vehicle_type_id":"4","last_reported":1728649047,"current_range_meters":8800,"station_id":"ce4bh412rcd13ifvqdr0","pricing_plan_id":"cebpf4jnsgd1na2vs0mg"},{"bike_id":"c6c8142f-92aa-44b1-832a-d9b7de23f3e9","system_id":"levelo_inurba_marseille","lat":43.33725,"lon":5.39178,"is_reserved":false,"is_disabled":false,"rental_uris":{"android":"levelo://app?vid=c6c8142f-92aa-44b1-832a-d9b7de23f3e9","ios":"levelo://app?vid=c6c8142f-92aa-44b1-832a-d9b7de23f3e9"},"vehicle_type_id":"4","last_reported":1728649047,"current_range_meters":36800,"station_id":"ce4bhr92rcd13ifvqhsg","pricing_plan_id":"cebpf4jnsgd1na2vs0mg"},{"bike_id":"e9074a87-d53d-44e0-bb77-4fe33bdcf2eb","system_id":"levelo_inurba_marseille","lat":43.32107,"lon":5.36772,"is_reserved":false,"is_disabled":false,"rental_uris":{"android":"levelo://app?vid=e9074a87-d53d-44e0-bb77-4fe33bdcf2eb","ios":"levelo://app?vid=e9074a87-d53d-44e0-bb77-4fe33bdcf2eb"},"vehicle_type_id":"4","last_reported":1728649047,"current_range_meters":24800,"station_id":"ce4bhrh2rcd13ifvqhug","pricing_plan_id":"cebpf4jnsgd1na2vs0mg"},{"bike_id":"34b3f1cd-c3e3-4ff6-9714-48c4b7b6cb65","system_id":"levelo_inurba_marseille","lat":43.28344,"lon":5.3811,"is_reserved":false,"is_disabled":false,"rental_uris":{"android":"levelo://app?vid=34b3f1cd-c3e3-4ff6-9714-48c4b7b6cb65","ios":"levelo://app?vid=34b3f1cd-c3e3-4ff6-9714-48c4b7b6cb65"},"vehicle_type_id":"4","last_reported":1728649047,"current_range_meters":38800,"station_id":"ce4bh412rcd13ifvqdr0","pricing_plan_id":"cebpf4jnsgd1na2vs0mg"},{"bike_id":"66bc406b-f23b-4527-a726-48cb3b0eb98f","system_id":"levelo_inurba_marseille","lat":43.23192,"lon":5.39979,"is_reserved":false,"is_disabled":false,"rental_uris":{"android":"levelo://app?vid=66bc406b-f23b-4527-a726-48cb3b0eb98f","ios":"levelo://app?vid=66bc406b-f23b-4527-a726-48cb3b0eb98f"},"vehicle_type_id":"4","last_reported":1728649047,"current_range_meters":16400,"station_id":"ce4bhn12rcd13ifvqgqg","pricing_plan_id":"cebpf4jnsgd1na2vs0mg"},{"bike_id":"0b0d534a-320e-41eb-bae6-b161d9e86d16","system_id":"levelo_inurba_marseille","lat":43.29899,"lon":5.4367,"is_reserved":false,"is_disabled":false,"rental_uris":{"android":"levelo://app?vid=0b0d534a-320e-41eb-bae6-b161d9e86d16","ios":"levelo://app?vid=0b0d534a-320e-41eb-bae6-b161d9e86d16"},"vehicle_type_id":"4","last_reported":1728649047,"current_range_meters":16800,"station_id":"ce4bhpp2rcd13ifvqhfg","pricing_plan_id":"cebpf4jnsgd1na2vs0mg"},{"bike_id":"cc6c26d0-2292-4b4b-9639-26e90b6184a9","system_id":"levelo_inurba_marseille","lat":43.26577,"lon":5.39005,"is_reserved":false,"is_disabled":false,"rental_uris":{"android":"levelo://app?vid=cc6c26d0-2292-4b4b-9639-26e90b6184a9","ios":"levelo://app?vid=cc6c26d0-2292-4b4b-9639-26e90b6184a9"},"vehicle_type_id":"4","last_reported":1728649047,"current_range_meters":16000,"station_id":"ce4bhe12rcd13ifvqf30","pricing_plan_id":"cebpf4jnsgd1na2vs0mg"},{"bike_id":"b08f9cbe-2868-453e-930b-90c8304d760a","system_id":"levelo_inurba_marseille","lat":43.25581,"lon":5.38228,"is_reserved":false,"is_disabled":false,"rental_uris":{"android":"levelo://app?vid=b08f9cbe-2868-453e-930b-90c8304d760a","ios":"levelo://app?vid=b08f9cbe-2868-453e-930b-90c8304d760a"},"vehicle_type_id":"4","last_reported":1728649047,"current_range_meters":34800,"station_id":"ce4bhih2rcd13ifvqfs0","pricing_plan_id":"cebpf4jnsgd1na2vs0mg"},{"bike_id":"772ce8c0-7cb9-4d2c-a622-a4a6b5e7b9a8","system_id":"levelo_inurba_marseille","lat":43.2931,"lon":5.37181,"is_reserved":false,"is_disabled":false,"rental_uris":{"android":"levelo://app?vid=772ce8c0-7cb9-4d2c-a622-a4a6b5e7b9a8","ios":"levelo://app?vid=772ce8c0-7cb9-4d2c-a622-a4a6b5e7b9a8"},"vehicle_type_id":"4","last_reported":1728649047,"current_range_meters":37600,"station_id":"ce4bgh92rcd13ifvqb40","pricing_plan_id":"cebpf4jnsgd1na2vs0mg"},{"bike_id":"4b8142d2-7dd8-41c8-b2ed-3c506736d651","system_id":"levelo_inurba_marseille","lat":43.26065,"lon":5.39398,"is_reserved":false,"is_disabled":false,"rental_uris":{"android":"levelo://app?vid=4b8142d2-7dd8-41c8-b2ed-3c506736d651","ios":"levelo://app?vid=4b8142d2-7dd8-41c8-b2ed-3c506736d651"},"vehicle_type_id":"4","last_reported":1728649047,"current_range_meters":11600,"station_id":"ce4bhh92rcd13ifvqfj0","pricing_plan_id":"cebpf4jnsgd1na2vs0mg"},{"bike_id":"5118bbf6-b515-45dc-bd91-51991d9c4e12","system_id":"levelo_inurba_marseille","lat":43.28732,"lon":5.37937,"is_reserved":false,"is_disabled":false,"rental_uris":{"android":"levelo://app?vid=5118bbf6-b515-45dc-bd91-51991d9c4e12","ios":"levelo://app?vid=5118bbf6-b515-45dc-bd91-51991d9c4e12"},"vehicle_type_id":"4","last_reported":1728649047,"current_range_meters":22800,"station_id":"ce4bh9p2rcd13ifvqec0","pricing_plan_id":"cebpf4jnsgd1na2vs0mg"},{"bike_id":"cb961f0b-55f7-4252-ac0d-03b370080ee9","system_id":"levelo_inurba_marseille","lat":43.30279,"lon":5.37698,"is_reserved":false,"is_disabled":false,"rental_uris":{"android":"levelo://app?vid=cb961f0b-55f7-4252-ac0d-03b370080ee9","ios":"levelo://app?vid=cb961f0b-55f7-4252-ac0d-03b370080ee9"},"vehicle_type_id":"4","last_reported":1728649047,"current_range_meters":38800,"station_id":"ce4bguh2rcd13ifvqcj0","pricing_plan_id":"cebpf4jnsgd1na2vs0mg"},{"bike_id":"c462ac31-e294-4267-bc1b-a4f664716350","system_id":"levelo_inurba_marseille","lat":43.232,"lon":5.35546,"is_reserved":false,"is_disabled":false,"rental_uris":{"android":"levelo://app?vid=c462ac31-e294-4267-bc1b-a4f664716350","ios":"levelo://app?vid=c462ac31-e294-4267-bc1b-a4f664716350"},"vehicle_type_id":"4","last_reported":1728649047,"current_range_meters":27200,"station_id":"ce4bhu92rcd13ifvqi70","pricing_plan_id":"cebpf4jnsgd1na2vs0mg"},{"bike_id":"df37e778-64f1-4bf1-a355-00b2cd20b0d9","system_id":"levelo_inurba_marseille","lat":43.23064,"lon":5.35491,"is_reserved":false,"is_disabled":false,"rental_uris":{"android":"levelo://app?vid=df37e778-64f1-4bf1-a355-00b2cd20b0d9","ios":"levelo://app?vid=df37e778-64f1-4bf1-a355-00b2cd20b0d9"},"vehicle_type_id":"4","last_reported":1728649047,"current_range_meters":24000,"station_id":"cpo3342slgdg3j2ifvpg","pricing_plan_id":"cebpf4jnsgd1na2vs0mg"},{"bike_id":"3622130c-d11e-4841-90ee-fea41f7f1c34","system_id":"levelo_inurba_marseille","lat":43.28485,"lon":5.38395,"is_reserved":false,"is_disabled":false,"rental_uris":{"android":"levelo://app?vid=3622130c-d11e-4841-90ee-fea41f7f1c34","ios":"levelo://app?vid=3622130c-d11e-4841-90ee-fea41f7f1c34"},"vehicle_type_id":"4","last_reported":1728649047,"current_range_meters":7200,"station_id":"ce4bh512rcd13ifvqe3g","pricing_plan_id":"cebpf4jnsgd1na2vs0mg"},{"bike_id":"91e3ec78-c2b8-4b98-9ac9-36053e95c07e","system_id":"levelo_inurba_marseille","lat":43.28458,"lon":5.35875,"is_reserved":false,"is_disabled":false,"rental_uris":{"android":"levelo://app?vid=91e3ec78-c2b8-4b98-9ac9-36053e95c07e","ios":"levelo://app?vid=91e3ec78-c2b8-4b98-9ac9-36053e95c07e"},"vehicle_type_id":"4","last_reported":1728649047,"current_range_meters":29600,"station_id":"ce4bhah2rcd13ifvqei0","pricing_plan_id":"cebpf4jnsgd1na2vs0mg"},{"bike_id":"8cd9e14e-5824-4b12-aa35-95207f13839a","system_id":"levelo_inurba_marseille","lat":43.290274,"lon":5.386612,"is_reserved":false,"is_disabled":false,"rental_uris":{"android":"levelo://app?vid=8cd9e14e-5824-4b12-aa35-95207f13839a","ios":"levelo://app?vid=8cd9e14e-5824-4b12-aa35-95207f13839a"},"vehicle_type_id":"4","last_reported":1728649047,"current_range_meters":24400,"station_id":"ce4bh3p2rcd13ifvqdp0","pricing_plan_id":"cebpf4jnsgd1na2vs0mg"},{"bike_id":"72b465ec-d1f9-43c0-bc9f-b3809a91d425","system_id":"levelo_inurba_marseille","lat":43.2842,"lon":5.34976,"is_reserved":false,"is_disabled":false,"rental_uris":{"android":"levelo://app?vid=72b465ec-d1f9-43c0-bc9f-b3809a91d425","ios":"levelo://app?vid=72b465ec-d1f9-43c0-bc9f-b3809a91d425"},"vehicle_type_id":"4","last_reported":1728649047,"current_range_meters":18800,"station_id":"ce4bhbh2rcd13ifvqepg","pricing_plan_id":"cebpf4jnsgd1na2vs0mg"},{"bike_id":"da650af4-92b6-4776-bd9d-5325377fc222","system_id":"levelo_inurba_marseille","lat":43.31557,"lon":5.38864,"is_reserved":false,"is_disabled":false,"rental_uris":{"android":"levelo://app?vid=da650af4-92b6-4776-bd9d-5325377fc222","ios":"levelo://app?vid=da650af4-92b6-4776-bd9d-5325377fc222"},"vehicle_type_id":"4","last_reported":1728649047,"current_range_meters":15200,"station_id":"","pricing_plan_id":"cebpf4jnsgd1na2vs0mg"},{"bike_id":"f1afbf23-de88-47a5-8710-8f0a83efa346","system_id":"levelo_inurba_marseille","lat":43.2678,"lon":5.39416,"is_reserved":false,"is_disabled":false,"rental_uris":{"android":"levelo://app?vid=f1afbf23-de88-47a5-8710-8f0a83efa346","ios":"levelo://app?vid=f1afbf23-de88-47a5-8710-8f0a83efa346"},"vehicle_type_id":"4","last_reported":1728649047,"current_range_meters":26800,"station_id":"ce4bhh12rcd13ifvqfg0","pricing_plan_id":"cebpf4jnsgd1na2vs0mg"},{"bike_id":"eb2e85f4-0d7b-4246-b9c9-60288f20b4f9","system_id":"levelo_inurba_marseille","lat":43.24181,"lon":5.39729,"is_reserved":false,"is_disabled":false,"rental_uris":{"android":"levelo://app?vid=eb2e85f4-0d7b-4246-b9c9-60288f20b4f9","ios":"levelo://app?vid=eb2e85f4-0d7b-4246-b9c9-60288f20b4f9"},"vehicle_type_id":"4","last_reported":1728649047,"current_range_meters":14000,"station_id":"ce4bhn12rcd13ifvqgpg","pricing_plan_id":"cebpf4jnsgd1na2vs0mg"},{"bike_id":"2426f864-da68-46e8-8e07-947e5f0b5689","system_id":"levelo_inurba_marseille","lat":43.26683,"lon":5.3827,"is_reserved":false,"is_disabled":false,"rental_uris":{"android":"levelo://app?vid=2426f864-da68-46e8-8e07-947e5f0b5689","ios":"levelo://app?vid=2426f864-da68-46e8-8e07-947e5f0b5689"},"vehicle_type_id":"4","last_reported":1728649047,"current_range_meters":22000,"station_id":"ce4bhg92rcd13ifvqf90","pricing_plan_id":"cebpf4jnsgd1na2vs0mg"},{"bike_id":"aa4e6a6c-d8ac-4f97-a36c-cb4a589d3623","system_id":"levelo_inurba_marseille","lat":43.30252,"lon":5.39645,"is_reserved":false,"is_disabled":false,"rental_uris":{"android":"levelo://app?vid=aa4e6a6c-d8ac-4f97-a36c-cb4a589d3623","ios":"levelo://app?vid=aa4e6a6c-d8ac-4f97-a36c-cb4a589d3623"},"vehicle_type_id":"4","last_reported":1728649047,"current_range_meters":28400,"station_id":"ce4bh0h2rcd13ifvqd40","pricing_plan_id":"cebpf4jnsgd1na2vs0mg"},{"bike_id":"eab29b50-e10c-4eaf-8bb9-df69841bdc46","system_id":"levelo_inurba_marseille","lat":43.33613,"lon":5.41022,"is_reserved":false,"is_disabled":false,"rental_uris":{"android":"levelo://app?vid=eab29b50-e10c-4eaf-8bb9-df69841bdc46","ios":"levelo://app?vid=eab29b50-e10c-4eaf-8bb9-df69841bdc46"},"vehicle_type_id":"4","last_reported":1728649047,"current_range_meters":4000,"station_id":"ce4bhqh2rcd13ifvqhmg","pricing_plan_id":"cebpf4jnsgd1na2vs0mg"},{"bike_id":"b5aec9cf-9c84-4d49-b0d2-6dfd061486db","system_id":"levelo_inurba_marseille","lat":43.2707,"lon":5.42284,"is_reserved":false,"is_disabled":false,"rental_uris":{"android":"levelo://app?vid=b5aec9cf-9c84-4d49-b0d2-6dfd061486db","ios":"levelo://app?vid=b5aec9cf-9c84-4d49-b0d2-6dfd061486db"},"vehicle_type_id":"4","last_reported":1728649047,"current_range_meters":32400,"station_id":"ce4bhk92rcd13ifvqgb0","pricing_plan_id":"cebpf4jnsgd1na2vs0mg"},{"bike_id":"ac0f8a44-69d2-41f9-aee6-faf9c36586f5","system_id":"levelo_inurba_marseille","lat":43.27211,"lon":5.39176,"is_reserved":false,"is_disabled":false,"rental_uris":{"android":"levelo://app?vid=ac0f8a44-69d2-41f9-aee6-faf9c36586f5","ios":"levelo://app?vid=ac0f8a44-69d2-41f9-aee6-faf9c36586f5"},"vehicle_type_id":"4","last_reported":1728649047,"current_range_meters":25200,"station_id":"ce4bhhp2rcd13ifvqfm0","pricing_plan_id":"cebpf4jnsgd1na2vs0mg"},{"bike_id":"3d7c78c6-a1ae-429e-a11e-5d34fda8befc","system_id":"levelo_inurba_marseille","lat":43.33614,"lon":5.41023,"is_reserved":false,"is_disabled":false,"rental_uris":{"android":"levelo://app?vid=3d7c78c6-a1ae-429e-a11e-5d34fda8befc","ios":"levelo://app?vid=3d7c78c6-a1ae-429e-a11e-5d34fda8befc"},"vehicle_type_id":"4","last_reported":1728649047,"current_range_meters":38800,"station_id":"ce4bhqh2rcd13ifvqhmg","pricing_plan_id":"cebpf4jnsgd1na2vs0mg"},{"bike_id":"cc67fb43-54ad-4206-b57a-ce1b2e26ba01","system_id":"levelo_inurba_marseille","lat":43.28036,"lon":5.36942,"is_reserved":false,"is_disabled":false,"rental_uris":{"android":"levelo://app?vid=cc67fb43-54ad-4206-b57a-ce1b2e26ba01","ios":"levelo://app?vid=cc67fb43-54ad-4206-b57a-ce1b2e26ba01"},"vehicle_type_id":"4","last_reported":1728649047,"current_range_meters":14000,"station_id":"ce4bha12rcd13ifvqef0","pricing_plan_id":"cebpf4jnsgd1na2vs0mg"},{"bike_id":"6f52a303-c7a1-4b34-846f-7d73ecef9b3c","system_id":"levelo_inurba_marseille","lat":43.26564,"lon":5.39,"is_reserved":false,"is_disabled":false,"rental_uris":{"android":"levelo://app?vid=6f52a303-c7a1-4b34-846f-7d73ecef9b3c","ios":"levelo://app?vid=6f52a303-c7a1-4b34-846f-7d73ecef9b3c"},"vehicle_type_id":"4","last_reported":1728649047,"current_range_meters":28000,"station_id":"ce4bhe12rcd13ifvqf30","pricing_plan_id":"cebpf4jnsgd1na2vs0mg"},{"bike_id":"9cf3db70-1431-4372-b452-2d0770d0c15d","system_id":"levelo_inurba_marseille","lat":43.23194,"lon":5.35553,"is_reserved":false,"is_disabled":false,"rental_uris":{"android":"levelo://app?vid=9cf3db70-1431-4372-b452-2d0770d0c15d","ios":"levelo://app?vid=9cf3db70-1431-4372-b452-2d0770d0c15d"},"vehicle_type_id":"4","last_reported":1728649047,"current_range_meters":38400,"station_id":"ce4bhu92rcd13ifvqi70","pricing_plan_id":"cebpf4jnsgd1na2vs0mg"},{"bike_id":"96e68bf3-b2f4-4374-b23d-f5122357bd8e","system_id":"levelo_inurba_marseille","lat":43.31356,"lon":5.38492,"is_reserved":false,"is_disabled":false,"rental_uris":{"android":"levelo://app?vid=96e68bf3-b2f4-4374-b23d-f5122357bd8e","ios":"levelo://app?vid=96e68bf3-b2f4-4374-b23d-f5122357bd8e"},"vehicle_type_id":"4","last_reported":1728649047,"current_range_meters":18000,"station_id":"ce4bgt92rcd13ifvqcf0","pricing_plan_id":"cebpf4jnsgd1na2vs0mg"},