{"last_updated":1737932871,"ttl":60,"version":"2.2","data":{"bikes":[{"bike_id":"b4587cac-60ec-4591-9a76-4cc1ca89059a","system_id":"levelo_inurba_marseille","lat":43.28616,"lon":5.35125,"is_reserved":false,"is_disabled":false,"rental_uris":{"android":"levelo://app?vid=b4587cac-60ec-4591-9a76-4cc1ca89059a","ios":"levelo://app?vid=b4587cac-60ec-4591-9a76-4cc1ca89059a"},"vehicle_type_id":"4","last_reported":1737932871,"current_range_meters":37600,"station_id":"ce4bhch2rcd13ifvqeug","pricing_plan_id":"cebpf4jnsgd1na2vs0mg"},{"bike_id":"d41d0fb6-3fec-4c9c-a302-31dcb6434499","system_id":"levelo_inurba_marseille","lat":43.28716,"lon":5.37942,"is_reserved":false,"is_disabled":false,"rental_uris":{"android":"levelo://app?vid=d41d0fb6-3fec-4c9c-a302-31dcb6434499","ios":"levelo://app?vid=d41d0fb6-3fec-4c9c-a302-31dcb6434499"},"vehicle_type_id":"4","last_reported":1737932871,"current_range_meters":34800,"station_id":"ce4bh9p2rcd13ifvqec0","pricing_plan_id":"cebpf4jnsgd1na2vs0mg"},{"bike_id":"a76c77ca-bdd4-473f-bfc6-6c271896973f","system_id":"levelo_inurba_marseille","lat":43.31493,"lon":5.37266,"is_reserved":false,"is_disabled":false,"rental_uris":{"android":"levelo://app?vid=a76c77ca-bdd4-473f-bfc6-6c271896973f","ios":"levelo://app?vid=a76c77ca-bdd4-473f-bfc6-6c271896973f"},"vehicle_type_id":"4","last_reported":1737932871,"current_range_meters":30800,"station_id":"ce4bgt12rcd13ifvqcd0","pricing_plan_id":"cebpf4jnsgd1na2vs0mg"},{"bike_id":"6d20adf9-b354-438a-8500-dfd420c9711b","system_id":"levelo_inurba_marseille","lat":43.28945,"lon":5.36633,"is_reserved":false,"is_disabled":false,"rental_uris":{"android":"levelo://app?vid=6d20adf9-b354-438a-8500-dfd420c9711b","ios":"levelo://app?vid=6d20adf9-b354-438a-8500-dfd420c9711b"},"vehicle_type_id":"4","last_reported":1737932871,"current_range_meters":6800,"station_id":"ce4bhap2rcd13ifvqek0","pricing_plan_id":"cebpf4jnsgd1na2vs0mg"},{"bike_id":"22fdda07-29f7-4097-aa7c-457566d3caba","system_id":"levelo_inurba_marseille","lat":43.25109,"lon":5.39511,"is_reserved":false,"is_disabled":false,"rental_uris":{"android":"levelo://app?vid=22fdda07-29f7-4097-aa7c-457566d3caba","ios":"levelo://app?vid=22fdda07-29f7-4097-aa7c-457566d3caba"},"vehicle_type_id":"4","last_reported":1737932871,"current_range_meters":24400,"station_id":"ce4bhm12rcd13ifvqgkg","pricing_plan_id":"cebpf4jnsgd1na2vs0mg"},{"bike_id":"d44c0e7f-f74f-4a6e-af97-909a7a560bfe","system_id":"levelo_inurba_marseille","lat":43.27831,"lon":5.40721,"is_reserved":false,"is_disabled":false,"rental_uris":{"android":"levelo://app?vid=d44c0e7f-f74f-4a6e-af97-909a7a560bfe","ios":"levelo://app?vid=d44c0e7f-f74f-4a6e-af97-909a7a560bfe"},"vehicle_type_id":"4","last_reported":1737932871,"current_range_meters":38800,"station_id":"ce4bhnh2rcd13ifvqgtg","pricing_plan_id":"cebpf4jnsgd1na2vs0mg"},{"bike_id":"4857b4cf-decd-41a9-ade3-4c571462c146","system_id":"levelo_inurba_marseille","lat":43.25377,"lon":5.41892,"is_reserved":false,"is_disabled":true,"rental_uris":{"android":"levelo://app?vid=4857b4cf-decd-41a9-ade3-4c571462c146","ios":"levelo://app?vid=4857b4cf-decd-41a9-ade3-4c571462c146"},"vehicle_type_id":"4","last_reported":1737932871,"current_range_meters":0,"station_id":"","pricing_plan_id":"cebpf4jnsgd1na2vs0mg"},{"bike_id":"dee161fe-82c1-4855-9bd7-e7193193e749","system_id":"levelo_inurba_marseille","lat":43.31706,"lon":5.43702,"is_reserved":false,"is_disabled":false,"rental_uris":{"android":"levelo://app?vid=dee161fe-82c1-4855-9bd7-e7193193e749","ios":"levelo://app?vid=dee161fe-82c1-4855-9bd7-e7193193e749"},"vehicle_type_id":"4","last_reported":1737932871,"current_range_meters":38800,"station_id":"ce4bhp92rcd13ifvqhcg","pricing_plan_id":"cebpf4jnsgd1na2vs0mg"},{"bike_id":"58d9e3df-28a3-4560-b2cd-4d33fefbd544","system_id":"levelo_inurba_marseille","lat":43.2835,"lon":5.38111,"is_reserved":false,"is_disabled":true,"rental_uris":{"android":"levelo://app?vid=58d9e3df-28a3-4560-b2cd-4d33fefbd544","ios":"levelo://app?vid=58d9e3df-28a3-4560-b2cd-4d33fefbd544"},"vehicle_type_id":"4","last_reported":1737932871,"current_range_meters":14800,"station_id":"ce4bh412rcd13ifvqdr0","pricing_plan_id":"cebpf4jnsgd1na2vs0mg"},{"bike_id":"fa5cc696-fa74-45d7-9894-bb340f9342a9","system_id":"levelo_inurba_marseille","lat":43.28653,"lon":5.36352,"is_reserved":false,"is_disabled":true,"rental_uris":{"android":"levelo://app?vid=fa5cc696-fa74-45d7-9894-bb340f9342a9","ios":"levelo://app?vid=fa5cc696-fa74-45d7-9894-bb340f9342a9"},"vehicle_type_id":"4","last_reported":1737932871,"current_range_meters":0,"station_id":"ce4bhah2rcd13ifvqej0","pricing_plan_id":"cebpf4jnsgd1na2vs0mg"},{"bike_id":"413f166e-cb54-4422-9d9a-1ad87b795b94","system_id":"levelo_inurba_marseille","lat":43.23186,"lon":5.39985,"is_reserved":false,"is_disabled":false,"rental_uris":{"android":"levelo://app?vid=413f166e-cb54-4422-9d9a-1ad87b795b94","ios":"levelo://app?vid=413f166e-cb54-4422-9d9a-1ad87b795b94"},"vehicle_type_id":"4","last_reported":1737932871,"current_range_meters":34800,"station_id":"ce4bhn12rcd13ifvqgqg","pricing_plan_id":"cebpf4jnsgd1na2vs0mg"},{"bike_id":"d48c5a28-3877-434f-a0d4-71f4eb2eb2cc","system_id":"levelo_inurba_marseille","lat":43.31373,"lon":5.39673,"is_reserved":false,"is_disabled":false,"rental_uris":{"android":"levelo://app?vid=d48c5a28-3877-434f-a0d4-71f4eb2eb2cc","ios":"levelo://app?vid=d48c5a28-3877-434f-a0d4-71f4eb2eb2cc"},"vehicle_type_id":"4","last_reported":1737932871,"current_range_meters":28000,"station_id":"ce4bgvp2rcd13ifvqcu0","pricing_plan_id":"cebpf4jnsgd1na2vs0mg"},{"bike_id":"984f7c78-4e5e-495f-9ca7-c8bc0d84b6d5","system_id":"levelo_inurba_marseille","lat":43.32277,"lon":5.38284,"is_reserved":false,"is_disabled":false,"rental_uris":{"android":"levelo://app?vid=984f7c78-4e5e-495f-9ca7-c8bc0d84b6d5","ios":"levelo://app?vid=984f7c78-4e5e-495f-9ca7-c8bc0d84b6d5"},"vehicle_type_id":"4","last_reported":1737932871,"current_range_meters":39200,"station_id":"ce4bhr12rcd13ifvqhqg","pricing_plan_id":"cebpf4jnsgd1na2vs0mg"},{"bike_id":"de56ca13-d6b6-4b57-8a84-aecab89f144c","system_id":"levelo_inurba_marseille","lat":43.31527,"lon":5.38034,"is_reserved":false,"is_disabled":false,"rental_uris":{"android":"levelo://app?vid=de56ca13-d6b6-4b57-8a84-aecab89f144c","ios":"levelo://app?vid=de56ca13-d6b6-4b57-8a84-aecab89f144c"},"vehicle_type_id":"4","last_reported":1737932871,"current_range_meters":25600,"station_id":"ce4bhsp2rcd13ifvqi50","pricing_plan_id":"cebpf4jnsgd1na2vs0mg"},{"bike_id":"5b6b2e54-c5dd-481f-98d0-6c95af8dd315","system_id":"levelo_inurba_marseille","lat":43.28544,"lon":5.39492,"is_reserved":false,"is_disabled":false,"rental_uris":{"android":"levelo://app?vid=5b6b2e54-c5dd-481f-98d0-6c95af8dd315","ios":"levelo://app?vid=5b6b2e54-c5dd-481f-98d0-6c95af8dd315"},"vehicle_type_id":"4","last_reported":1737932871,"current_range_meters":30800,"station_id":"ce4bh292rcd13ifvqdg0","pricing_plan_id":"cebpf4jnsgd1na2vs0mg"},{"bike_id":"19985da7-c90b-44fc-b1e6-cef44e141335","system_id":"levelo_inurba_marseille","lat":43.30205,"lon":5.3797,"is_reserved":false,"is_disabled":false,"rental_uris":{"android":"levelo://app?vid=19985da7-c90b-44fc-b1e6-cef44e141335","ios":"levelo://app?vid=19985da7-c90b-44fc-b1e6-cef44e141335"},"vehicle_type_id":"4","last_reported":1737932871,"current_range_meters":30400,"station_id":"ce4bgt12rcd13ifvqce0","pricing_plan_id":"cebpf4jnsgd1na2vs0mg"},{"bike_id":"46fec065-56c7-4e2a-8482-80c61674341c","system_id":"levelo_inurba_marseille","lat":43.28151,"lon":5.42639,"is_reserved":false,"is_disabled":false,"rental_uris":{"android":"levelo://app?vid=46fec065-56c7-4e2a-8482-80c61674341c","ios":"levelo://app?vid=46fec065-56c7-4e2a-8482-80c61674341c"},"vehicle_type_id":"4","last_reported":1737932871,"current_range_meters":32000,"station_id":"ce4bhnh2rcd13ifvqgug","pricing_plan_id":"cebpf4jnsgd1na2vs0mg"},{"bike_id":"22fe6381-bfa8-481c-9415-4e6666169356","system_id":"levelo_inurba_marseille","lat":43.26583,"lon":5.39016,"is_reserved":false,"is_disabled":false,"rental_uris":{"android":"levelo://app?vid=22fe6381-bfa8-481c-9415-4e6666169356","ios":"levelo://app?vid=22fe6381-bfa8-481c-9415-4e6666169356"},"vehicle_type_id":"4","last_reported":1737932871,"current_range_meters":30000,"station_id":"ce4bhe12rcd13ifvqf30","pricing_plan_id":"cebpf4jnsgd1na2vs0mg"},{"bike_id":"31986d48-0126-490d-a209-7613f7c2e6a3","system_id":"levelo_inurba_marseille","lat":43.26218,"lon":5.37898,"is_reserved":false,"is_disabled":false,"rental_uris":{"android":"levelo://app?vid=31986d48-0126-490d-a209-7613f7c2e6a3","ios":"levelo://app?vid=31986d48-0126-490d-a209-7613f7c2e6a3"},"vehicle_type_id":"4","last_reported":1737932871,"current_range_meters":38400,"station_id":"ce4bhjp2rcd13ifvqg90","pricing_plan_id":"cebpf4jnsgd1na2vs0mg"},{"bike_id":"457dbd0e-8f95-45e9-8ae6-40b39a5ca596","system_id":"levelo_inurba_marseille","lat":43.23198,"lon":5.35552,"is_reserved":false,"is_disabled":false,"rental_uris":{"android":"levelo://app?vid=457dbd0e-8f95-45e9-8ae6-40b39a5ca596","ios":"levelo://app?vid=457dbd0e-8f95-45e9-8ae6-40b39a5ca596"},"vehicle_type_id":"4","last_reported":1737932871,"current_range_meters":34800,"station_id":"ce4bhu92rcd13ifvqi70","pricing_plan_id":"cebpf4jnsgd1na2vs0mg"},{"bike_id":"d77db00f-908b-4381-ac06-dc3e91b69008","system_id":"levelo_inurba_marseille","lat":43.25579,"lon":5.38242,"is_reserved":false,"is_disabled":false,"rental_uris":{"android":"levelo://app?vid=d77db00f-908b-4381-ac06-dc3e91b69008","ios":"levelo://app?vid=d77db00f-908b-4381-ac06-dc3e91b69008"},"vehicle_type_id":"4","last_reported":1737932871,"current_range_meters":38400,"station_id":"ce4bhih2rcd13ifvqfs0","pricing_plan_id":"cebpf4jnsgd1na2vs0mg"},{"bike_id":"9c901d45-7d5a-4765-aa48-f82f03e112d0","system_id":"levelo_inurba_marseille","lat":43.26209,"lon":5.37934,"is_reserved":false,"is_disabled":false,"rental_uris":{"android":"levelo://app?vid=9c901d45-7d5a-4765-aa48-f82f03e112d0","ios":"levelo://app?vid=9c901d45-7d5a-4765-aa48-f82f03e112d0"},"vehicle_type_id":"4","last_reported":1737932871,"current_range_meters":35200,"station_id":"ce4bhjp2rcd13ifvqg90","pricing_plan_id":"cebpf4jnsgd1na2vs0mg"},{"bike_id":"fe87a798-f89c-45d8-8809-5a1b2847763b","system_id":"levelo_inurba_marseille","lat":43.31184,"lon":5.387,"is_reserved":false,"is_disabled":false,"rental_uris":{"android":"levelo://app?vid=fe87a798-f89c-45d8-8809-5a1b2847763b","ios":"levelo://app?vid=fe87a798-f89c-45d8-8809-5a1b2847763b"},"vehicle_type_id":"4","last_reported":1737932871,"current_range_meters":38800,"station_id":"ce4bgv12rcd13ifvqcp0","pricing_plan_id":"cebpf4jnsgd1na2vs0mg"},{"bike_id":"d249027f-c553-4ff1-9f7c-498d6709f69a","system_id":"levelo_inurba_marseille","lat":43.28417,"lon":5.349949,"is_reserved":false,"is_disabled":false,"rental_uris":{"android":"levelo://app?vid=d249027f-c553-4ff1-9f7c-498d6709f69a","ios":"levelo://app?vid=d249027f-c553-4ff1-9f7c-498d6709f69a"},"vehicle_type_id":"4","last_reported":1737932871,"current_range_meters":32800,"station_id":"","pricing_plan_id":"cebpf4jnsgd1na2vs0mg"},{"bike_id":"5a6503ca-c2c6-4dbe-a6f7-68e5f1916ac2","system_id":"levelo_inurba_marseille","lat":43.29909,"lon":5.43659,"is_reserved":false,"is_disabled":false,"rental_uris":{"android":"levelo://app?vid=5a6503ca-c2c6-4dbe-a6f7-68e5f1916ac2","ios":"levelo://app?vid=5a6503ca-c2c6-4dbe-a6f7-68e5f1916ac2"},"vehicle_type_id":"4","last_reported":1737932871,"current_range_meters":12800,"station_id":"ce4bhpp2rcd13ifvqhfg","pricing_plan_id":"cebpf4jnsgd1na2vs0mg"},{"bike_id":"38fec723-7563-4b43-95e0-d9e9b321dde2","system_id":"levelo_inurba_marseille","lat":43.3206,"lon":5.41584,"is_reserved":false,"is_disabled":false,"rental_uris":{"android":"levelo://app?vid=38fec723-7563-4b43-95e0-d9e9b321dde2","ios":"levelo://app?vid=38fec723-7563-4b43-95e0-d9e9b321dde2"},"vehicle_type_id":"4","last_reported":1737932871,"current_range_meters":37600,"station_id":"ce4bhq92rcd13ifvqhkg","pricing_plan_id":"cebpf4jnsgd1na2vs0mg"},{"bike_id":"e476cc46-e132-40ab-869e-629ed3b571fe","system_id":"levelo_inurba_marseille","lat":43.2797,"lon":5.4167,"is_reserved":false,"is_disabled":false,"rental_uris":{"android":"levelo://app?vid=e476cc46-e132-40ab-869e-629ed3b571fe","ios":"levelo://app?vid=e476cc46-e132-40ab-869e-629ed3b571fe"},"vehicle_type_id":"4","last_reported":1737932871,"current_range_meters":26000,"station_id":"ce4bho12rcd13ifvqh1g","pricing_plan_id":"cebpf4jnsgd1na2vs0mg"},{"bike_id":"d185c151-66b2-4c0e-be0f-1950a4ae5b3f","system_id":"levelo_inurba_marseille","lat":43.27992,"lon":5.4167,"is_reserved":false,"is_disabled":false,"rental_uris":{"android":"levelo://app?vid=d185c151-66b2-4c0e-be0f-1950a4ae5b3f","ios":"levelo://app?vid=d185c151-66b2-4c0e-be0f-1950a4ae5b3f"},"vehicle_type_id":"4","last_reported":1737932871,"current_range_meters":39200,"station_id":"ce4bho12rcd13ifvqh1g","pricing_plan_id":"cebpf4jnsgd1na2vs0mg"},{"bike_id":"2ed428b3-515b-450e-b73a-7d0d15c43f65","system_id":"levelo_inurba_marseille","lat":43.28449,"lon":5.39128,"is_reserved":false,"is_disabled":false,"rental_uris":{"android":"levelo://app?vid=2ed428b3-515b-450e-b73a-7d0d15c43f65","ios":"levelo://app?vid=2ed428b3-515b-450e-b73a-7d0d15c43f65"},"vehicle_type_id":"4","last_reported":1737932871,"current_range_meters":36400,"station_id":"ce4bhoh2rcd13ifvqh5g","pricing_plan_id":"cebpf4jnsgd1na2vs0mg"},{"bike_id":"e05b826e-7ecd-4d63-bf30-527254ee854c","system_id":"levelo_inurba_marseille","lat":43.30965,"lon":5.39056,"is_reserved":false,"is_disabled":true,"rental_uris":{"android":"levelo://app?vid=e05b826e-7ecd-4d63-bf30-527254ee854c","ios":"levelo://app?vid=e05b826e-7ecd-4d63-bf30-527254ee854c"},"vehicle_type_id":"4","last_reported":1737932871,"current_range_meters":0,"station_id":"ce4bgup2rcd13ifvqco0","pricing_plan_id":"cebpf4jnsgd1na2vs0mg"},{"bike_id":"b18c3ee3-d8f0-411a-a9a1-d1acf9c6cc06","system_id":"levelo_inurba_marseille","lat":43.27318,"lon":5.39937,"is_reserved":false,"is_disabled":false,"rental_uris":{"android":"levelo://app?vid=b18c3ee3-d8f0-411a-a9a1-d1acf9c6cc06","ios":"levelo://app?vid=b18c3ee3-d8f0-411a-a9a1-d1acf9c6cc06"},"vehicle_type_id":"4","last_reported":1737932871,"current_range_meters":24000,"station_id":"","pricing_plan_id":"cebpf4jnsgd1na2vs0mg"},{"bike_id":"cdd3ee8c-8a3d-434f-bbab-69b040fa03ea","system_id":"levelo_inurba_marseille","lat":43.31991,"lon":5.3815,"is_reserved":false,"is_disabled":false,"rental_uris":{"android":"levelo://app?vid=cdd3ee8c-8a3d-434f-bbab-69b040fa03ea","ios":"levelo://app?vid=cdd3ee8c-8a3d-434f-bbab-69b040fa03ea"},"vehicle_type_id":"4","last_reported":1737932871,"current_range_meters":38800,"station_id":"ce4bhr12rcd13ifvqhpg","pricing_plan_id":"cebpf4jnsgd1na2vs0mg"},{"bike_id":"5dc1f5fb-eda0-4754-be51-924e7e057635","system_id":"levelo_inurba_marseille","lat":43.3108,"lon":5.38357,"is_reserved":false,"is_disabled":false,"rental_uris":{"android":"levelo://app?vid=5dc1f5fb-eda0-4754-be51-924e7e057635","ios":"levelo://app?vid=5dc1f5fb-eda0-4754-be51-924e7e057635"},"vehicle_type_id":"4","last_reported":1737932871,"current_range_meters":21600,"station_id":"ce4bgv92rcd13ifvqcr0","pricing_plan_id":"cebpf4jnsgd1na2vs0mg"},{"bike_id":"ded30a15-60c7-424f-bd25-30f2ce3fe1bd","system_id":"levelo_inurba_marseille","lat":43.28855,"lon":5.3933,"is_reserved":false,"is_disabled":false,"rental_uris":{"android":"levelo://app?vid=ded30a15-60c7-424f-bd25-30f2ce3fe1bd","ios":"levelo://app?vid=ded30a15-60c7-424f-bd25-30f2ce3fe1bd"},"vehicle_type_id":"4","last_reported":1737932871,"current_range_meters":36000,"station_id":"ce4bh2p2rcd13ifvqdi0","pricing_plan_id":"cebpf4jnsgd1na2vs0mg"},{"bike_id":"bb9df935-971d-48fe-841d-0dade0ac91aa","system_id":"levelo_inurba_marseille","lat":43.29534,"lon":5.38546,"is_reserved":false,"is_disabled":true,"rental_uris":{"android":"levelo://app?vid=bb9df935-971d-48fe-841d-0dade0ac91aa","ios":"levelo://app?vid=bb9df935-971d-48fe-841d-0dade0ac91aa"},"vehicle_type_id":"4","last_reported":1737932871,"current_range_meters":28800,"station_id":"ce4bgih2rcd13ifvqba0","pricing_plan_id":"cebpf4jnsgd1na2vs0mg"},{"bike_id":"ea63cb8b-d27c-4283-95de-c25b5e4840c8","system_id":"levelo_inurba_marseille","lat":43.28398,"lon":5.37518,"is_reserved":false,"is_disabled":false,"rental_uris":{"android":"levelo://app?vid=ea63cb8b-d27c-4283-95de-c25b5e4840c8","ios":"levelo://app?vid=ea63cb8b-d27c-4283-95de-c25b5e4840c8"},"vehicle_type_id":"4","last_reported":1737932871,"current_range_meters":30800,"station_id":"ce4bh412rcd13ifvqds0","pricing_plan_id":"cebpf4jnsgd1na2vs0mg"},{"bike_id":"83da65c4-2ec2-4c74-b372-2a927e4740de","system_id":"levelo_inurba_marseille","lat":43.31718,"lon":5.43698,"is_reserved":false,"is_disabled":false,"rental_uris":{"android":"levelo://app?vid=83da65c4-2ec2-4c74-b372-2a927e4740de","ios":"levelo://app?vid=83da65c4-2ec2-4c74-b372-2a927e4740de"},"vehicle_type_id":"4","last_reported":1737932871,"current_range_meters":18800,"station_id":"ce4bhp92rcd13ifvqhcg","pricing_plan_id":"cebpf4jnsgd1na2vs0mg"},{"bike_id":"3a1a73c2-8e20-4664-94d7-51ec33b03a48","system_id":"levelo_inurba_marseille","lat":43.23188,"lon":5.39977,"is_reserved":false,"is_disabled":false,"rental_uris":{"android":"levelo://app?vid=3a1a73c2-8e20-4664-94d7-51ec33b03a48","ios":"levelo://app?vid=3a1a73c2-8e20-4664-94d7-51ec33b03a48"},"vehicle_type_id":"4","last_reported":1737932871,"current_range_meters":17200,"station_id":"ce4bhn12rcd13ifvqgqg","pricing_plan_id":"cebpf4jnsgd1na2vs0mg"},{"bike_id":"73fb0499-6b1c-4055-b0cb-b2aed22aaa10","system_id":"levelo_inurba_marseille","lat":43.23956,"lon":5.36653,"is_reserved":false,"is_disabled":false,"rental_uris":{"android":"levelo://app?vid=73fb0499-6b1c-4055-b0cb-b2aed22aaa10","ios":"levelo://app?vid=73fb0499-6b1c-4055-b0cb-b2aed22aaa10"},"vehicle_type_id":"4","last_reported":1737932871,"current_range_meters":38800,"station_id":"ce4bhi12rcd13ifvqfp0","pricing_plan_id":"cebpf4jnsgd1na2vs0mg"},{"bike_id":"054b7e8e-8389-4168-b0c3-4f7205cd402d","system_id":"levelo_inurba_marseille","lat":43.31883,"lon":5.40748,"is_reserved":false,"is_disabled":false,"rental_uris":{"android":"levelo://app?vid=054b7e8e-8389-4168-b0c3-4f7205cd402d","ios":"levelo://app?vid=054b7e8e-8389-4168-b0c3-4f7205cd402d"},"vehicle_type_id":"4","last_reported":1737932871,"current_range_meters":38800,"station_id":"ce4bhq12rcd13ifvqhig","pricing_plan_id":"cebpf4jnsgd1na2vs0mg"},{"bike_id":"94715de2-fa07-4f8d-b344-dd8862c3fe6d","system_id":"levelo_inurba_marseille","lat":43.30281,"lon":5.37215,"is_reserved":false,"is_disabled":false,"rental_uris":{"android":"levelo://app?vid=94715de2-fa07-4f8d-b344-dd8862c3fe6d","ios":"levelo://app?vid=94715de2-fa07-4f8d-b344-dd8862c3fe6d"},"vehicle_type_id":"4","last_reported":1737932871,"current_range_meters":8400,"station_id":"","pricing_plan_id":"cebpf4jnsgd1na2vs0mg"},{"bike_id":"f9dea65f-080b-42c9-8d55-bd6748fb1c63","system_id":"levelo_inurba_marseille","lat":43.31094,"lon":5.38361,"is_reserved":false,"is_disabled":false,"rental_uris":{"android":"levelo://app?vid=f9dea65f-080b-42c9-8d55-bd6748fb1c63","ios":"levelo://app?vid=f9dea65f-080b-42c9-8d55-bd6748fb1c63"},"vehicle_type_id":"4","last_reported":1737932871,"current_range_meters":38800,"station_id":"ce4bgv92rcd13ifvqcr0","pricing_plan_id":"cebpf4jnsgd1na2vs0mg"},{"bike_id":"2990ac0a-d6ce-48cf-8c2e-15129d853cd2","system_id":"levelo_inurba_marseille","lat":43.28961,"lon":5.38421,"is_reserved":false,"is_disabled":true,"rental_uris":{"android":"levelo://app?vid=2990ac0a-d6ce-48cf-8c2e-15129d853cd2","ios":"levelo://app?vid=2990ac0a-d6ce-48cf-8c2e-15129d853cd2"},"vehicle_type_id":"4","last_reported":1737932871,"current_range_meters":36800,"station_id":"ce4bh612rcd13ifvqe6g","pricing_plan_id":"cebpf4jnsgd1na2vs0mg"},{"bike_id":"8b24ee26-2ef3-43bc-a61f-7dad385fa3a7","system_id":"levelo_inurba_marseille","lat":43.2669,"lon":5.38263,"is_reserved":false,"is_disabled":true,"rental_uris":{"android":"levelo://app?vid=8b24ee26-2ef3-43bc-a61f-7dad385fa3a7","ios":"levelo://app?vid=8b24ee26-2ef3-43bc-a61f-7dad385fa3a7"},"vehicle_type_id":"4","last_reported":1737932871,"current_range_meters":3200,"station_id":"ce4bhg92rcd13ifvqf90","pricing_plan_id":"cebpf4jnsgd1na2vs0mg"},{"bike_id":"db9ff4d6-03c8-4ab8-8178-be1ed6b4d1d6","system_id":"levelo_inurba_marseille","lat":43.30291,"lon":5.40264,"is_reserved":false,"is_disabled":false,"rental_uris":{"android":"levelo://app?vid=db9ff4d6-03c8-4ab8-8178-be1ed6b4d1d6","ios":"levelo://app?vid=db9ff4d6-03c8-4ab8-8178-be1ed6b4d1d6"},"vehicle_type_id":"4","last_reported":1737932871,"current_range_meters":38800,"station_id":"ce4bh012rcd13ifvqd10","pricing_plan_id":"cebpf4jnsgd1na2vs0mg"},{"bike_id":"a0eebbff-d2e9-446c-9e6a-814664201a71","system_id":"levelo_inurba_marseille","lat":43.33093,"lon":5.40836,"is_reserved":false,"is_disabled":false,"rental_uris":{"android":"levelo://app?vid=a0eebbff-d2e9-446c-9e6a-814664201a71","ios":"levelo://app?vid=a0eebbff-d2e9-446c-9e6a-814664201a71"},"vehicle_type_id":"4","last_reported":1737932871,"current_range_meters":8400,"station_id":"","pricing_plan_id":"cebpf4jnsgd1na2vs0mg"},{"bike_id":"7b764a37-86ae-4506-bf6b-9f8ff35451d3","system_id":"levelo_inurba_marseille","lat":43.2322,"lon":5.35553,"is_reserved":false,"is_disabled":false,"rental_uris":{"android":"levelo://app?vid=7b764a37-86ae-4506-bf6b-9f8ff35451d3","ios":"levelo://app?vid=7b764a37-86ae-4506-bf6b-9f8ff35451d3"},"vehicle_type_id":"4","last_reported":1737932871,"current_range_meters":10800,"station_id":"ce4bhu92rcd13ifvqi70","pricing_plan_id":"cebpf4jnsgd1na2vs0mg"},{"bike_id":"5de3a2ff-e22b-4d37-a51c-f4f2c9cb3dbc","system_id":"levelo_inurba_marseille","lat":43.32362,"lon":5.38898,"is_reserved":false,"is_disabled":false,"rental_uris":{"android":"levelo://app?vid=5de3a2ff-e22b-4d37-a51c-f4f2c9cb3dbc","ios":"levelo://app?vid=5de3a2ff-e22b-4d37-a51c-f4f2c9cb3dbc"},"vehicle_type_id":"4","last_reported":1737932871,"current_range_meters":18800,"station_id":"ce4bhqp2rcd13ifvqhog","pricing_plan_id":"cebpf4jnsgd1na2vs0mg"},{"bike_id":"707291c0-801f-4378-b622-04349833c400","system_id":"levelo_inurba_marseille","lat":43.28926,"lon":5.36558,"is_reserved":false,"is_disabled":true,"rental_uris":{"android":"levelo://app?vid=707291c0-801f-4378-b622-04349833c400","ios":"levelo://app?vid=707291c0-801f-4378-b622-04349833c400"},"vehicle_type_id":"4","last_reported":1737932871,"current_range_meters":32800,"station_id":"","pricing_plan_id":"cebpf4jnsgd1na2vs0mg"},{"bike_id":"c998a431-fe7c-4694-a808-6e4ab347c702","system_id":"levelo_inurba_marseille","lat":43.24657,"lon":5.38897,"is_reserved":false,"is_disabled":false,"rental_uris":{"android":"levelo://app?vid=c998a431-fe7c-4694-a808-6e4ab347c702","ios":"levelo://app?vid=c998a431-fe7c-4694-a808-6e4ab347c702"},"vehicle_type_id":"4","last_reported":1737932871,"current_range_meters":38800,"station_id":"ce4bhg12rcd13ifvqf60","pricing_plan_id":"cebpf4jnsgd1na2vs0mg"},{"bike_id":"363f654c-f4f7-4562-a14f-7a356471ed3e","system_id":"levelo_inurba_marseille","lat":43.32336,"lon":5.40616,"is_reserved":false,"is_disabled":false,"rental_uris":{"android":"levelo://app?vid=363f654c-f4f7-4562-a14f-7a356471ed3e","ios":"levelo://app?vid=363f654c-f4f7-4562-a14f-7a356471ed3e"},"vehicle_type_id":"4","last_reported":1737932871,"current_range_meters":14400,"station_id":"ce4bhq92rcd13ifvqhjg","pricing_plan_id":"cebpf4jnsgd1na2vs0mg"},{"bike_id":"c2cb7fc3-be16-4b92-b1d5-cf7555bc5e02","system_id":"levelo_inurba_marseille","lat":43.27056,"lon":5.42298,"is_reserved":false,"is_disabled":false,"rental_uris":{"android":"levelo://app?vid=c2cb7fc3-be16-4b92-b1d5-cf7555bc5e02","ios":"levelo://app?vid=c2cb7fc3-be16-4b92-b1d5-cf7555bc5e02"},"vehicle_type_id":"4","last_reported":1737932871,"current_range_meters":38800,"station_id":"ce4bhk92rcd13ifvqgb0","pricing_plan_id":"cebpf4jnsgd1na2vs0mg"},{"bike_id":"b95d0c0b-aacd-420f-8f39-bde219c6b023","system_id":"levelo_inurba_marseille","lat":43.292795,"lon":5.374575,"is_reserved":false,"is_disabled":false,"rental_uris":{"android":"levelo://app?vid=b95d0c0b-aacd-420f-8f39-bde219c6b023","ios":"levelo://app?vid=b95d0c0b-aacd-420f-8f39-bde219c6b023"},"vehicle_type_id":"4","last_reported":1737932871,"current_range_meters":12400,"station_id":"ce4bgi12rcd13ifvqb70","pricing_plan_id":"cebpf4jnsgd1na2vs0mg"},{"bike_id":"70e4f374-e113-4370-b177-871cfd11d473","system_id":"levelo_inurba_marseille","lat":43.30119,"lon":5.3664,"is_reserved":false,"is_disabled":false,"rental_uris":{"android":"levelo://app?vid=70e4f374-e113-4370-b177-871cfd11d473","ios":"levelo://app?vid=70e4f374-e113-4370-b177-871cfd11d473"},"vehicle_type_id":"4","last_reported":1737932871,"current_range_meters":38400,"station_id":"ce4bgrh2rcd13ifvqc8g","pricing_plan_id":"cebpf4jnsgd1na2vs0mg"},{"bike_id":"bf5ea4cd-441e-40b5-86d7-2cfd0ef0507f","system_id":"levelo_inurba_marseille","lat":43.25124,"lon":5.40336,"is_reserved":false,"is_disabled":false,"rental_uris":{"android":"levelo://app?vid=bf5ea4cd-441e-40b5-86d7-2cfd0ef0507f","ios":"levelo://app?vid=bf5ea4cd-441e-40b5-86d7-2cfd0ef0507f"},"vehicle_type_id":"4","last_reported":1737932871,"current_range_meters":19200,"station_id":"ce4bhlh2rcd13ifvqgig","pricing_plan_id":"cebpf4jnsgd1na2vs0mg"},{"bike_id":"5722c23f-9acd-40e8-a6e2-9951288ba187","system_id":"levelo_inurba_marseille","lat":43.25086,"lon":5.3951,"is_reserved":false,"is_disabled":false,"rental_uris":{"android":"levelo://app?vid=5722c23f-9acd-40e8-a6e2-9951288ba187","ios":"levelo://app?vid=5722c23f-9acd-40e8-a6e2-9951288ba187"},"vehicle_type_id":"4","last_reported":1737932871,"current_range_meters":25200,"station_id":"ce4bhm12rcd13ifvqgkg","pricing_plan_id":"cebpf4jnsgd1na2vs0mg"},{"bike_id":"5650391b-e7ea-4dc7-8a52-c26f8b88bc9f","system_id":"levelo_inurba_marseille","lat":43.30655,"lon":5.40069,"is_reserved":false,"is_disabled":false,"rental_uris":{"android":"levelo://app?vid=5650391b-e7ea-4dc7-8a52-c26f8b88bc9f","ios":"levelo://app?vid=5650391b-e7ea-4dc7-8a52-c26f8b88bc9f"},"vehicle_type_id":"4","last_reported":1737932871,"current_range_meters":39200,"station_id":"ce4bh112rcd13ifvqda0","pricing_plan_id":"cebpf4jnsgd1na2vs0mg"},{"bike_id":"5a504fe4-0ab6-4eed-b9ef-e27131441d67","system_id":"levelo_inurba_marseille","lat":43.30331,"lon":5.3789,"is_reserved":false,"is_disabled":false,"rental_uris":{"android":"levelo://app?vid=5a504fe4-0ab6-4eed-b9ef-e27131441d67","ios":"levelo://app?vid=5a504fe4-0ab6-4eed-b9ef-e27131441d67"},"vehicle_type_id":"4","last_reported":1737932871,"current_range_meters":27600,"station_id":"","pricing_plan_id":"cebpf4jnsgd1na2vs0mg"},{"bike_id":"4cf58925-a8ca-4306-9f76-9a472dea598d","system_id":"levelo_inurba_marseille","lat":43.28961,"lon":5.39626,"is_reserved":false,"is_disabled":false,"rental_uris":{"android":"levelo://app?vid=4cf58925-a8ca-4306-9f76-9a472dea598d","ios":"levelo://app?vid=4cf58925-a8ca-4306-9f76-9a472dea598d"},"vehicle_type_id":"4","last_reported":1737932871,"current_range_meters":39200,"station_id":"ce4bh3h2rcd13ifvqdn0","pricing_plan_id":"cebpf4jnsgd1na2vs0mg"},{"bike_id":"45987f10-4a9b-4989-9d38-fcdc197cbb29","system_id":"levelo_inurba_marseille","lat":43.29966,"lon":5.38495,"is_reserved":false,"is_disabled":false,"rental_uris":{"android":"levelo://app?vid=45987f10-4a9b-4989-9d38-fcdc197cbb29","ios":"levelo://app?vid=45987f10-4a9b-4989-9d38-fcdc197cbb29"},"vehicle_type_id":"4","last_reported":1737932871,"current_range_meters":35200,"station_id":"ce4bgj92rcd13ifvqbd0","pricing_plan_id":"cebpf4jnsgd1na2vs0mg"},{"bike_id":"29537b6d-60f6-4053-b601-105bf13a2e3a","system_id":"levelo_inurba_marseille","lat":43.28505,"lon":5.38449,"is_reserved":false,"is_disabled":true,"rental_uris":{"android":"levelo://app?vid=29537b6d-60f6-4053-b601-105bf13a2e3a","ios":"levelo://app?vid=29537b6d-60f6-4053-b601-105bf13a2e3a"},"vehicle_type_id":"4","last_reported":1737932871,"current_range_meters":800,"station_id":"ce4bh512rcd13ifvqe3g","pricing_plan_id":"cebpf4jnsgd1na2vs0mg"},{"bike_id":"b5a217cf-755e-449d-9de4-9c9870d79a8f","system_id":"levelo_inurba_marseille","lat":43.24391,"lon":5.37059,"is_reserved":false,"is_disabled":false,"rental_uris":{"android":"levelo://app?vid=b5a217cf-755e-449d-9de4-9c9870d79a8f","ios":"levelo://app?vid=b5a217cf-755e-449d-9de4-9c9870d79a8f"},"vehicle_type_id":"4","last_reported":1737932871,"current_range_meters":38800,"station_id":"ce4bhhh2rcd13ifvqfk0","pricing_plan_id":"cebpf4jnsgd1na2vs0mg"},{"bike_id":"0675fa87-4ac7-4eaa-af40-1f0bac7f8c27","system_id":"levelo_inurba_marseille","lat":43.315933,"lon":5.419414,"is_reserved":false,"is_disabled":true,"rental_uris":{"android":"levelo://app?vid=0675fa87-4ac7-4eaa-af40-1f0bac7f8c27","ios":"levelo://app?vid=0675fa87-4ac7-4eaa-af40-1f0bac7f8c27"},"vehicle_type_id":"4","last_reported":1737932871,"current_range_meters":0,"station_id":"","pricing_plan_id":"cebpf4jnsgd1na2vs0mg"},{"bike_id":"780ba636-f7f2-456b-b28d-10525ca46b23","system_id":"levelo_inurba_marseille","lat":43.29668,"lon":5.36546,"is_reserved":false,"is_disabled":false,"rental_uris":{"android":"levelo://app?vid=780ba636-f7f2-456b-b28d-10525ca46b23","ios":"levelo://app?vid=780ba636-f7f2-456b-b28d-10525ca46b23"},"vehicle_type_id":"4","last_reported":1737932871,"current_range_meters":38800,"station_id":"ce4bgn12rcd13ifvqbt0","pricing_plan_id":"cebpf4jnsgd1na2vs0mg"},{"bike_id":"04e648e1-7014-47c2-a03e-7d6d34f47e23","system_id":"levelo_inurba_marseille","lat":43.2408,"lon":5.37764,"is_reserved":false,"is_disabled":false,"rental_uris":{"android":"levelo://app?vid=04e648e1-7014-47c2-a03e-7d6d34f47e23","ios":"levelo://app?vid=04e648e1-7014-47c2-a03e-7d6d34f47e23"},"vehicle_type_id":"4","last_reported":1737932871,"current_range_meters":38800,"station_id":"ce4bhnp2rcd13ifvqgvg","pricing_plan_id":"cebpf4jnsgd1na2vs0mg"},{"bike_id":"c54f5b2e-f783-418a-8119-a38c5ea2c0aa","system_id":"levelo_inurba_marseille","lat":43.29009,"lon":5.35621,"is_reserved":false,"is_disabled":true,"rental_uris":{"android":"levelo://app?vid=c54f5b2e-f783-418a-8119-a38c5ea2c0aa","ios":"levelo://app?vid=c54f5b2e-f783-418a-8119-a38c5ea2c0aa"},"vehicle_type_id":"4","last_reported":1737932871,"current_range_meters":3200,"station_id":"ce4bhb92rcd13ifvqen0","pricing_plan_id":"cebpf4jnsgd1na2vs0mg"},{"bike_id":"9838cc78-2b53-49d3-ae13-82df62c4fd64","system_id":"levelo_inurba_marseille","lat":43.28429,"lon":5.40925,"is_reserved":false,"is_disabled":true,"rental_uris":{"android":"levelo://app?vid=9838cc78-2b53-49d3-ae13-82df62c4fd64","ios":"levelo://app?vid=9838cc78-2b53-49d3-ae13-82df62c4fd64"},"vehicle_type_id":"4","last_reported":1737932871,"current_range_meters":0,"station_id":"","pricing_plan_id":"cebpf4jnsgd1na2vs0mg"},{"bike_id":"bee6535d-4697-4984-8a84-7f12fad40f3e","system_id":"levelo_inurba_marseille","lat":43.27368,"lon":5.36253,"is_reserved":false,"is_disabled":false,"rental_uris":{"android":"levelo://app?vid=bee6535d-4697-4984-8a84-7f12fad40f3e","ios":"levelo://app?vid=bee6535d-4697-4984-8a84-7f12fad40f3e"},"vehicle_type_id":"4","last_reported":1737932871,"current_range_meters":38800,"station_id":"ce4bhbh2rcd13ifvqeo0","pricing_plan_id":"cebpf4jnsgd1na2vs0mg"},{"bike_id":"68f99b21-2fbe-41a7-b050-a7f4c140afc1","system_id":"levelo_inurba_marseille","lat":43.29912,"lon":5.40222,"is_reserved":false,"is_disabled":true,"rental_uris":{"android":"levelo://app?vid=68f99b21-2fbe-41a7-b050-a7f4c140afc1","ios":"levelo://app?vid=68f99b21-2fbe-41a7-b050-a7f4c140afc1"},"vehicle_type_id":"4","last_reported":1737932871,"current_range_meters":0,"station_id":"","pricing_plan_id":"cebpf4jnsgd1na2vs0mg"},{"bike_id":"1a12ccc4-119d-4583-9cd0-f3b08fa41a49","system_id":"levelo_inurba_marseille","lat":43.24099,"lon":5.3776,"is_reserved":false,"is_disabled":false,"rental_uris":{"android":"levelo://app?vid=1a12ccc4-119d-4583-9cd0-f3b08fa41a49","ios":"levelo://app?vid=1a12ccc4-119d-4583-9cd0-f3b08fa41a49"},"vehicle_type_id":"4","last_reported":1737932871,"current_range_meters":37600,"station_id":"ce4bhnp2rcd13ifvqgvg","pricing_plan_id":"cebpf4jnsgd1na2vs0mg"},{"bike_id":"c4a421c4-fa0f-4ba6-8525-fb0935c8b20f","system_id":"levelo_inurba_marseille","lat":43.32698,"lon":5.41044,"is_reserved":false,"is_disabled":false,"rental_uris":{"android":"levelo://app?vid=c4a421c4-fa0f-4ba6-8525-fb0935c8b20f","ios":"levelo://app?vid=c4a421c4-fa0f-4ba6-8525-fb0935c8b20f"},"vehicle_type_id":"4","last_reported":1737932871,"current_range_meters":38800,"station_id":"ce4bhpp2rcd13ifvqhgg","pricing_plan_id":"cebpf4jnsgd1na2vs0mg"},{"bike_id":"bf096a89-ee72-4f37-85bd-7b3cf9f0cb41","system_id":"levelo_inurba_marseille","lat":43.33758,"lon":5.39195,"is_reserved":false,"is_disabled":false,"rental_uris":{"android":"levelo://app?vid=bf096a89-ee72-4f37-85bd-7b3cf9f0cb41","ios":"levelo://app?vid=bf096a89-ee72-4f37-85bd-7b3cf9f0cb41"},"vehicle_type_id":"4","last_reported":1737932871,"current_range_meters":27200,"station_id":"ce4bhr92rcd13ifvqhsg","pricing_plan_id":"cebpf4jnsgd1na2vs0mg"},{"bike_id":"5310f7e3-8e77-4d91-a00f-e11a801e0b57","system_id":"levelo_inurba_marseille","lat":43.28536,"lon":5.39445,"is_reserved":false,"is_disabled":false,"rental_uris":{"android":"levelo://app?vid=5310f7e3-8e77-4d91-a00f-e11a801e0b57","ios":"levelo://app?vid=5310f7e3-8e77-4d91-a00f-e11a801e0b57"},"vehicle_type_id":"4","last_reported":1737932871,"current_range_meters":38000,"station_id":"ce4bh292rcd13ifvqdg0","pricing_plan_id":"cebpf4jnsgd1na2vs0mg"},{"bike_id":"c2378bb1-796c-4edf-bf87-198266dfa5e8","system_id":"levelo_inurba_marseille","lat":43.232036,"lon":5.355438,"is_reserved":false,"is_disabled":false,"rental_uris":{"android":"levelo://app?vid=c2378bb1-796c-4edf-bf87-198266dfa5e8","ios":"levelo://app?vid=c2378bb1-796c-4edf-bf87-198266dfa5e8"},"vehicle_type_id":"4","last_reported":1737932871,"current_range_meters":37600,"station_id":"ce4bhu92rcd13ifvqi70","pricing_plan_id":"cebpf4jnsgd1na2vs0mg"},{"bike_id":"80b5e9ba-45aa-4f07-a76d-689c757a3ac7","system_id":"levelo_inurba_marseille","lat":43.240749,"lon":5.377524,"is_reserved":false,"is_disabled":false,"rental_uris":{"android":"levelo://app?vid=80b5e9ba-45aa-4f07-a76d-689c757a3ac7","ios":"levelo://app?vid=80b5e9ba-45aa-4f07-a76d-689c757a3ac7"},"vehicle_type_id":"4","last_reported":1737932871,"current_range_meters":38800,"station_id":"ce4bhnp2rcd13ifvqgvg","pricing_plan_id":"cebpf4jnsgd1na2vs0mg"},{"bike_id":"c72765a6-3cc9-4a6c-ab43-21106e071480","system_id":"levelo_inurba_marseille","lat":43.30608,"lon":5.39344,"is_reserved":false,"is_disabled":false,"rental_uris":{"android":"levelo://app?vid=c72765a6-3cc9-4a6c-ab43-21106e071480","ios":"levelo://app?vid=c72765a6-3cc9-4a6c-ab43-21106e071480"},"vehicle_type_id":"4","last_reported":1737932871,"current_range_meters":20000,"station_id":"ce4bh0p2rcd13ifvqd80","pricing_plan_id":"cebpf4jnsgd1na2vs0mg"},{"bike_id":"eb8e2715-50e8-4f9c-aaa7-763acdecaa89","system_id":"levelo_inurba_marseille","lat":43.29731,"lon":5.36866,"is_reserved":false,"is_disabled":false,"rental_uris":{"android":"levelo://app?vid=eb8e2715-50e8-4f9c-aaa7-763acdecaa89","ios":"levelo://app?vid=eb8e2715-50e8-4f9c-aaa7-763acdecaa89"},"vehicle_type_id":"4","last_reported":1737932871,"current_range_meters":4000,"station_id":"","pricing_plan_id":"cebpf4jnsgd1na2vs0mg"},{"bike_id":"77fb7455-9858-4015-a058-dfc13f608a0f","system_id":"levelo_inurba_marseille","lat":43.29047,"lon":5.38621,"is_reserved":false,"is_disabled":false,"rental_uris":{"android":"levelo://app?vid=77fb7455-9858-4015-a058-dfc13f608a0f","ios":"levelo://app?vid=77fb7455-9858-4015-a058-dfc13f608a0f"},"vehicle_type_id":"4","last_reported":1737932871,"current_range_meters":30000,"station_id":"ce4bh4p2rcd13ifvqe0g","pricing_plan_id":"cebpf4jnsgd1na2vs0mg"},{"bike_id":"2e0a8b86-b457-48a0-8577-213b01080398","system_id":"levelo_inurba_marseille","lat":43.23208,"lon":5.35566,"is_reserved":false,"is_disabled":false,"rental_uris":{"android":"levelo://app?vid=2e0a8b86-b457-48a0-8577-213b01080398","ios":"levelo://app?vid=2e0a8b86-b457-48a0-8577-213b01080398"},"vehicle_type_id":"4","last_reported":1737932871,"current_range_meters":38800,"station_id":"ce4bhu92rcd13ifvqi70","pricing_plan_id":"cebpf4jnsgd1na2vs0mg"},{"bike_id":"a7cf4467-440c-4bb8-a849-e8f193507576","system_id":"levelo_inurba_marseille","lat":43.29718,"lon":5.37638,"is_reserved":false,"is_disabled":false,"rental_uris":{"android":"levelo://app?vid=a7cf4467-440c-4bb8-a849-e8f193507576","ios":"levelo://app?vid=a7cf4467-440c-4bb8-a849-e8f193507576"},"vehicle_type_id":"4","last_reported":1737932871,"current_range_meters":27200,"station_id":"ce4bgkh2rcd13ifvqbl0","pricing_plan_id":"cebpf4jnsgd1na2vs0mg"},{"bike_id":"d979d8d2-ec65-47af-9229-e4270aab279a","system_id":"levelo_inurba_marseille","lat":43.23077,"lon":5.35499,"is_reserved":false,"is_disabled":false,"rental_uris":{"android":"levelo://app?vid=d979d8d2-ec65-47af-9229-e4270aab279a","ios":"levelo://app?vid=d979d8d2-ec65-47af-9229-e4270aab279a"},"vehicle_type_id":"4","last_reported":1737932871,"current_range_meters":30000,"station_id":"cpo3342slgdg3j2ifvpg","pricing_plan_id":"cebpf4jnsgd1na2vs0mg"},{"bike_id":"d2267bec-c224-4d4f-987b-57de86f3767b","system_id":"levelo_inurba_marseille","lat":43.31113,"lon":5.37768,"is_reserved":false,"is_disabled":false,"rental_uris":{"android":"levelo://app?vid=d2267bec-c224-4d4f-987b-57de86f3767b","ios":"levelo://app?vid=d2267bec-c224-4d4f-987b-57de86f3767b"},"vehicle_type_id":"4","last_reported":1737932871,"current_range_meters":28000,"station_id":"ce4bgt92rcd13ifvqcg0","pricing_plan_id":"cebpf4jnsgd1na2vs0mg"},{"bike_id":"501ba811-c1b8-4a79-8abb-19ab732321de","system_id":"levelo_inurba_marseille","lat":43.3133,"lon":5.39691,"is_reserved":false,"is_disabled":false,"rental_uris":{"android":"levelo://app?vid=501ba811-c1b8-4a79-8abb-19ab732321de","ios":"levelo://app?vid=501ba811-c1b8-4a79-8abb-19ab732321de"},"vehicle_type_id":"4","last_reported":1737932871,"current_range_meters":38800,"station_id":"ce4bgvp2rcd13ifvqcu0","pricing_plan_id":"cebpf4jnsgd1na2vs0mg"},{"bike_id":"87a5bed0-aef1-423b-bd85-fe44fdeeb863","system_id":"levelo_inurba_marseille","lat":43.33756,"lon":5.39177,"is_reserved":false,"is_disabled":false,"rental_uris":{"android":"levelo://app?vid=87a5bed0-aef1-423b-bd85-fe44fdeeb863","ios":"levelo://app?vid=87a5bed0-aef1-423b-bd85-fe44fdeeb863"},"vehicle_type_id":"4","last_reported":1737932871,"current_range_meters":33200,"station_id":"ce4bhr92rcd13ifvqhsg","pricing_plan_id":"cebpf4jnsgd1na2vs0mg"},{"bike_id":"fc348ebb-e1ca-4ab0-ac6a-627444c19792","system_id":"levelo_inurba_marseille","lat":43.24385,"lon":5.37055,"is_reserved":false,"is_disabled":false,"rental_uris":{"android":"levelo://app?vid=fc348ebb-e1ca-4ab0-ac6a-627444c19792","ios":"levelo://app?vid=fc348ebb-e1ca-4ab0-ac6a-627444c19792"},"vehicle_type_id":"4","last_reported":1737932871,"current_range_meters":37600,"station_id":"ce4bhhh2rcd13ifvqfk0","pricing_plan_id":"cebpf4jnsgd1na2vs0mg"},{"bike_id":"884ba7e3-cf46-4204-8277-316c51a574fe","system_id":"levelo_inurba_marseille","lat":43.29033,"lon":5.38636,"is_reserved":false,"is_disabled":false,"rental_uris":{"android":"levelo://app?vid=884ba7e3-cf46-4204-8277-316c51a574fe","ios":"levelo://app?vid=884ba7e3-cf46-4204-8277-316c51a574fe"},"vehicle_type_id":"4","last_reported":1737932871,"current_range_meters":32000,"station_id":"ce4bh4p2rcd13ifvqe0g","pricing_plan_id":"cebpf4jnsgd1na2vs0mg"},{"bike_id":"5c15f1a0-f3a9-4acd-b448-15018003ef2e","system_id":"levelo_inurba_marseille","lat":43.32497,"lon":5.41478,"is_reserved":false,"is_disabled":true,"rental_uris":{"android":"levelo://app?vid=5c15f1a0-f3a9-4acd-b448-15018003ef2e","ios":"levelo://app?vid=5c15f1a0-f3a9-4acd-b448-15018003ef2e"},"vehicle_type_id":"4","last_reported":1737932871,"current_range_meters":27600,"station_id":"ce4bhq12rcd13ifvqhhg","pricing_plan_id":"cebpf4jnsgd1na2vs0mg"},{"bike_id":"6e734e15-2ab8-4eec-82a8-7534605f2aec","system_id":"levelo_inurba_marseille","lat":43.29538,"lon":5.39037,"is_reserved":false,"is_disabled":true,"rental_uris":{"android":"levelo://app?vid=6e734e15-2ab8-4eec-82a8-7534605f2aec","ios":"levelo://app?vid=6e734e15-2ab8-4eec-82a8-7534605f2aec"},"vehicle_type_id":"4","last_reported":1737932871,"current_range_meters":18000,"station_id":"ce4bh3p2rcd13ifvqdp0","pricing_plan_id":"cebpf4jnsgd1na2vs0mg"},{"bike_id":"ef932ef8-f472-4e18-ba31-420562c4eeae","system_id":"levelo_inurba_marseille","lat":43.28385,"lon":5.37513,"is_reserved":false,"is_disabled":false,"rental_uris":{"android":"levelo://app?vid=ef932ef8-f472-4e18-ba31-420562c4eeae","ios":"levelo://app?vid=ef932ef8-f472-4e18-ba31-420562c4eeae"},"vehicle_type_id":"4","last_reported":1737932871,"current_range_meters":14000,"station_id":"ce4bh412rcd13ifvqds0","pricing_plan_id":"cebpf4jnsgd1na2vs0mg"},{"bike_id":"7bc2f493-e229-4f12-bbfd-a23f48a35c7b","system_id":"levelo_inurba_marseille","lat":43.30759,"lon":5.37607,"is_reserved":false,"is_disabled":false,"rental_uris":{"android":"levelo://app?vid=7bc2f493-e229-4f12-bbfd-a23f48a35c7b","ios":"levelo://app?vid=7bc2f493-e229-4f12-bbfd-a23f48a35c7b"},"vehicle_type_id":"4","last_reported":1737932871,"current_range_meters":38000,"station_id":"","pricing_plan_id":"cebpf4jnsgd1na2vs0mg"},{"bike_id":"fd076e4e-d0a5-4638-b40a-b894c4983017","system_id":"levelo_inurba_marseille","lat":43.31282,"lon":5.40165,"is_reserved":false,"is_disabled":false,"rental_uris":{"android":"levelo://app?vid=fd076e4e-d0a5-4638-b40a-b894c4983017","ios":"levelo://app?vid=fd076e4e-d0a5-4638-b40a-b894c4983017"},"vehicle_type_id":"4","last_reported":1737932871,"current_range_meters":39200,"station_id":"ce4bh092rcd13ifvqd30","pricing_plan_id":"cebpf4jnsgd1na2vs0mg"},{"bike_id":"b2a6f4ce-e5e6-4b95-91b9-5cf515000dc6","system_id":"levelo_inurba_marseille","lat":43.312765,"lon":5.401701,"is_reserved":false,"is_disabled":true,"rental_uris":{"android":"levelo://app?vid=b2a6f4ce-e5e6-4b95-91b9-5cf515000dc6","ios":"levelo://app?vid=b2a6f4ce-e5e6-4b95-91b9-5cf515000dc6"},"vehicle_type_id":"4","last_reported":1737932871,"current_range_meters":20400,"station_id":"ce4bh092rcd13ifvqd30","pricing_plan_id":"cebpf4jnsgd1na2vs0mg"},{"bike_id":"bf1a07ea-0fc5-4696-a1db-1309679a15aa","system_id":"levelo_inurba_marseille","lat":43.33724,"lon":5.39202,"is_reserved":false,"is_disabled":false,"rental_uris":{"android":"levelo://app?vid=bf1a07ea-0fc5-4696-a1db-1309679a15aa","ios":"levelo://app?vid=bf1a07ea-0fc5-4696-a1db-1309679a15aa"},"vehicle_type_id":"4","last_reported":1737932871,"current_range_meters":38800,"station_id":"ce4bhr92rcd13ifvqhsg","pricing_plan_id":"cebpf4jnsgd1na2vs0mg"},{"bike_id":"3815dc7b-52db-45da-9315-824e1f0ffd14","system_id":"levelo_inurba_marseille","lat":43.31179,"lon":5.38717,"is_reserved":false,"is_disabled":false,"rental_uris":{"android":"levelo://app?vid=3815dc7b-52db-45da-9315-824e1f0ffd14","ios":"levelo://app?vid=3815dc7b-52db-45da-9315-824e1f0ffd14"},"vehicle_type_id":"4","last_reported":1737932871,"current_range_meters":30000,"station_id":"ce4bgv12rcd13ifvqcp0","pricing_plan_id":"cebpf4jnsgd1na2vs0mg"},{"bike_id":"892230f3-5780-4161-b516-93422b4640f6","system_id":"levelo_inurba_marseille","lat":43.3266,"lon":5.40981,"is_reserved":false,"is_disabled":false,"rental_uris":{"android":"levelo://app?vid=892230f3-5780-4161-b516-93422b4640f6","ios":"levelo://app?vid=892230f3-5780-4161-b516-93422b4640f6"},"vehicle_type_id":"4","last_reported":1737932871,"current_range_meters":38800,"station_id":"ce4bhpp2rcd13ifvqhgg","pricing_plan_id":"cebpf4jnsgd1na2vs0mg"},{"bike_id":"6917a016-fa2f-4726-952b-ffe1167166a3","system_id":"levelo_inurba_marseille","lat":43.26072,"lon":5.39383,"is_reserved":false,"is_disabled":true,"rental_uris":{"android":"levelo://app?vid=6917a016-fa2f-4726-952b-ffe1167166a3","ios":"levelo://app?vid=6917a016-fa2f-4726-952b-ffe1167166a3"},"vehicle_type_id":"4","last_reported":1737932871,"current_range_meters":0,"station_id":"ce4bhh92rcd13ifvqfj0","pricing_plan_id":"cebpf4jnsgd1na2vs0mg"},{"bike_id":"8aa9d52e-35f9-4791-bb6c-7435676c3a1d","system_id":"levelo_inurba_marseille","lat":43.29891,"lon":5.38897,"is_reserved":false,"is_disabled":false,"rental_uris":{"android":"levelo://app?vid=8aa9d52e-35f9-4791-bb6c-7435676c3a1d","ios":"levelo://app?vid=8aa9d52e-35f9-4791-bb6c-7435676c3a1d"},"vehicle_type_id":"4","last_reported":1737932871,"current_range_meters":22800,"station_id":"ce4bh392rcd13ifvqdl0","pricing_plan_id":"cebpf4jnsgd1na2vs0mg"},{"bike_id":"4d94131b-b295-4717-b73a-3d3660c7ce50","system_id":"levelo_inurba_marseille","lat":43.27497,"lon":5.42449,"is_reserved":false,"is_disabled":false,"rental_uris":{"android":"levelo://app?vid=4d94131b-b295-4717-b73a-3d3660c7ce50","ios":"levelo://app?vid=4d94131b-b295-4717-b73a-3d3660c7ce50"},"vehicle_type_id":"4","last_reported":1737932871,"current_range_meters":25600,"station_id":"ce4bhn92rcd13ifvqgrg","pricing_plan_id":"cebpf4jnsgd1na2vs0mg"},{"bike_id":"acf4cec9-04b2-432c-83ba-19cc7ebac443","system_id":"levelo_inurba_marseille","lat":43.290235,"lon":5.381377,"is_reserved":false,"is_disabled":true,"rental_uris":{"android":"levelo://app?vid=acf4cec9-04b2-432c-83ba-19cc7ebac443","ios":"levelo://app?vid=acf4cec9-04b2-432c-83ba-19cc7ebac443"},"vehicle_type_id":"4","last_reported":1737932871,"current_range_meters":25600,"station_id":"ce4bh4p2rcd13ifvqe1g","pricing_plan_id":"cebpf4jnsgd1na2vs0mg"},{"bike_id":"95563e80-8bb4-4e9a-a7af-c5a3e6f82efe","system_id":"levelo_inurba_marseille","lat":43.27994,"lon":5.40028,"is_reserved":false,"is_disabled":false,"rental_uris":{"android":"levelo://app?vid=95563e80-8bb4-4e9a-a7af-c5a3e6f82efe","ios":"levelo://app?vid=95563e80-8bb4-4e9a-a7af-c5a3e6f82efe"},"vehicle_type_id":"4","last_reported":1737932871,"current_range_meters":34000,"station_id":"ce4bho92rcd13ifvqh4g","pricing_plan_id":"cebpf4jnsgd1na2vs0mg"},{"bike_id":"8a4fd9c1-126f-44bd-8919-7cf37f162b5e","system_id":"levelo_inurba_marseille","lat":43.28151,"lon":5.42635,"is_reserved":false,"is_disabled":false,"rental_uris":{"android":"levelo://app?vid=8a4fd9c1-126f-44bd-8919-7cf37f162b5e","ios":"levelo://app?vid=8a4fd9c1-126f-44bd-8919-7cf37f162b5e"},"vehicle_type_id":"4","last_reported":1737932871,"current_range_meters":33200,"station_id":"ce4bhnh2rcd13ifvqgug","pricing_plan_id":"cebpf4jnsgd1na2vs0mg"},{"bike_id":"fbb9d0a6-e86f-4e32-8806-2a3f9d350f06","system_id":"levelo_inurba_marseille","lat":43.32668,"lon":5.40969,"is_reserved":false,"is_disabled":false,"rental_uris":{"android":"levelo://app?vid=fbb9d0a6-e86f-4e32-8806-2a3f9d350f06","ios":"levelo://app?vid=fbb9d0a6-e86f-4e32-8806-2a3f9d350f06"},"vehicle_type_id":"4","last_reported":1737932871,"current_range_meters":23200,"station_id":"ce4bhpp2rcd13ifvqhgg","pricing_plan_id":"cebpf4jnsgd1na2vs0mg"},{"bike_id":"02a65308-936d-4187-b4db-c0afc2d3e10c","system_id":"levelo_inurba_marseille","lat":43.25931,"lon":5.40882,"is_reserved":false,"is_disabled":false,"rental_uris":{"android":"levelo://app?vid=02a65308-936d-4187-b4db-c0afc2d3e10c","ios":"levelo://app?vid=02a65308-936d-4187-b4db-c0afc2d3e10c"},"vehicle_type_id":"4","last_reported":1737932871,"current_range_meters":38800,"station_id":"ce4bhm92rcd13ifvqglg","pricing_plan_id":"cebpf4jnsgd1na2vs0mg"},{"bike_id":"1b7156cb-c2ae-4362-bf6a-1375e0cefede","system_id":"levelo_inurba_marseille","lat":43.31708,"lon":5.43703,"is_reserved":false,"is_disabled":false,"rental_uris":{"android":"levelo://app?vid=1b7156cb-c2ae-4362-bf6a-1375e0cefede","ios":"levelo://app?vid=1b7156cb-c2ae-4362-bf6a-1375e0cefede"},"vehicle_type_id":"4","last_reported":1737932871,"current_range_meters":22000,"station_id":"ce4bhp92rcd13ifvqhcg","pricing_plan_id":"cebpf4jnsgd1na2vs0mg"},{"bike_id":"bba1bf49-95a8-45fe-ac4a-91374a0a705d","system_id":"levelo_inurba_marseille","lat":43.3118,"lon":5.38759,"is_reserved":false,"is_disabled":false,"rental_uris":{"android":"levelo://app?vid=bba1bf49-95a8-45fe-ac4a-91374a0a705d","ios":"levelo://app?vid=bba1bf49-95a8-45fe-ac4a-91374a0a705d"},"vehicle_type_id":"4","last_reported":1737932871,"current_range_meters":36800,"station_id":"ce4bgv12rcd13ifvqcp0","pricing_plan_id":"cebpf4jnsgd1na2vs0mg"},{"bike_id":"a8ebf96a-72c6-49a1-9891-ec74b107e794","system_id":"levelo_inurba_marseille","lat":43.23198,"lon":5.35552,"is_reserved":false,"is_disabled":false,"rental_uris":{"android":"levelo://app?vid=a8ebf96a-72c6-49a1-9891-ec74b107e794","ios":"levelo://app?vid=a8ebf96a-72c6-49a1-9891-ec74b107e794"},"vehicle_type_id":"4","last_reported":1737932871,"current_range_meters":14400,"station_id":"ce4bhu92rcd13ifvqi70","pricing_plan_id":"cebpf4jnsgd1na2vs0mg"},{"bike_id":"cd59a0a3-d545-48cd-9f91-fb25e51d138a","system_id":"levelo_inurba_marseille","lat":43.30213,"lon":5.39466,"is_reserved":false,"is_disabled":false,"rental_uris":{"android":"levelo://app?vid=cd59a0a3-d545-48cd-9f91-fb25e51d138a","ios":"levelo://app?vid=cd59a0a3-d545-48cd-9f91-fb25e51d138a"},"vehicle_type_id":"4","last_reported":1737932871,"current_range_meters":30400,"station_id":"ce4bh0p2rcd13ifvqd70","pricing_plan_id":"cebpf4jnsgd1na2vs0mg"},{"bike_id":"32b74d79-3aba-4260-afb4-fe5484579572","system_id":"levelo_inurba_marseille","lat":43.26944,"lon":5.38656,"is_reserved":false,"is_disabled":false,"rental_uris":{"android":"levelo://app?vid=32b74d79-3aba-4260-afb4-fe5484579572","ios":"levelo://app?vid=32b74d79-3aba-4260-afb4-fe5484579572"},"vehicle_type_id":"4","last_reported":1737932871,"current_range_meters":38000,"station_id":"ce4bhh92rcd13ifvqfh0","pricing_plan_id":"cebpf4jnsgd1na2vs0mg"},{"bike_id":"8da84e27-6b60-4ea9-8b12-545ef6ea2d65","system_id":"levelo_inurba_marseille","lat":43.336112,"lon":5.410178,"is_reserved":false,"is_disabled":false,"rental_uris":{"android":"levelo://app?vid=8da84e27-6b60-4ea9-8b12-545ef6ea2d65","ios":"levelo://app?vid=8da84e27-6b60-4ea9-8b12-545ef6ea2d65"},"vehicle_type_id":"4","last_reported":1737932871,"current_range_meters":19600,"station_id":"ce4bhqh2rcd13ifvqhmg","pricing_plan_id":"cebpf4jnsgd1na2vs0mg"},{"bike_id":"e9bc701b-86ce-45d6-bb9e-c295f6ce732c","system_id":"levelo_inurba_marseille","lat":43.30767,"lon":5.39881,"is_reserved":false,"is_disabled":true,"rental_uris":{"android":"levelo://app?vid=e9bc701b-86ce-45d6-bb9e-c295f6ce732c","ios":"levelo://app?vid=e9bc701b-86ce-45d6-bb9e-c295f6ce732c"},"vehicle_type_id":"4","last_reported":1737932871,"current_range_meters":32800,"station_id":"","pricing_plan_id":"cebpf4jnsgd1na2vs0mg"},{"bike_id":"ebbb6dd1-ea2a-4b9e-a0fd-f2fc38df1042","system_id":"levelo_inurba_marseille","lat":43.25006,"lon":5.3894,"is_reserved":false,"is_disabled":true,"rental_uris":{"android":"levelo://app?vid=ebbb6dd1-ea2a-4b9e-a0fd-f2fc38df1042","ios":"levelo://app?vid=ebbb6dd1-ea2a-4b9e-a0fd-f2fc38df1042"},"vehicle_type_id":"4","last_reported":1737932871,"current_range_meters":38400,"station_id":"ce4bhgp2rcd13ifvqfd0","pricing_plan_id":"cebpf4jnsgd1na2vs0mg"},{"bike_id":"bd799b02-fa1c-44f7-832e-72faa2320b4c","system_id":"levelo_inurba_marseille","lat":43.27567,"lon":5.38439,"is_reserved":false,"is_disabled":false,"rental_uris":{"android":"levelo://app?vid=bd799b02-fa1c-44f7-832e-72faa2320b4c","ios":"levelo://app?vid=bd799b02-fa1c-44f7-832e-72faa2320b4c"},"vehicle_type_id":"4","last_reported":1737932871,"current_range_meters":24800,"station_id":"ce4bhh92rcd13ifvqfi0","pricing_plan_id":"cebpf4jnsgd1na2vs0mg"},{"bike_id":"3c700e4a-786d-4c4c-9e0d-dac7746dae56","system_id":"levelo_inurba_marseille","lat":43.28937,"lon":5.38395,"is_reserved":false,"is_disabled":false,"rental_uris":{"android":"levelo://app?vid=3c700e4a-786d-4c4c-9e0d-dac7746dae56","ios":"levelo://app?vid=3c700e4a-786d-4c4c-9e0d-dac7746dae56"},"vehicle_type_id":"4","last_reported":1737932871,"current_range_meters":38800,"station_id":"ce4bh612rcd13ifvqe6g","pricing_plan_id":"cebpf4jnsgd1na2vs0mg"},{"bike_id":"a9b2e7e3-e0cd-44cb-864a-f4882c79a07d","system_id":"levelo_inurba_marseille","lat":43.3166,"lon":5.42388,"is_reserved":false,"is_disabled":false,"rental_uris":{"android":"levelo://app?vid=a9b2e7e3-e0cd-44cb-864a-f4882c79a07d","ios":"levelo://app?vid=a9b2e7e3-e0cd-44cb-864a-f4882c79a07d"},"vehicle_type_id":"4","last_reported":1737932871,"current_range_meters":38000,"station_id":"ce4bhp92rcd13ifvqhbg","pricing_plan_id":"cebpf4jnsgd1na2vs0mg"},{"bike_id":"d01c6070-f2ab-49aa-8d92-8e03deb7c69e","system_id":"levelo_inurba_marseille","lat":43.30253,"lon":5.40062,"is_reserved":false,"is_disabled":false,"rental_uris":{"android":"levelo://app?vid=d01c6070-f2ab-49aa-8d92-8e03deb7c69e","ios":"levelo://app?vid=d01c6070-f2ab-49aa-8d92-8e03deb7c69e"},"vehicle_type_id":"4","last_reported":1737932871,"current_range_meters":38800,"station_id":"ce4bgvh2rcd13ifvqcs0","pricing_plan_id":"cebpf4jnsgd1na2vs0mg"},{"bike_id":"11c0235b-a37f-4514-82d0-bffaa712f68a","system_id":"levelo_inurba_marseille","lat":43.28826,"lon":5.35856,"is_reserved":false,"is_disabled":false,"rental_uris":{"android":"levelo://app?vid=11c0235b-a37f-4514-82d0-bffaa712f68a","ios":"levelo://app?vid=11c0235b-a37f-4514-82d0-bffaa712f68a"},"vehicle_type_id":"4","last_reported":1737932871,"current_range_meters":38400,"station_id":"ce4bhb12rcd13ifvqem0","pricing_plan_id":"cebpf4jnsgd1na2vs0mg"},{"bike_id":"742b075e-5a66-4e2f-9ba1-2d871f2cf5f7","system_id":"levelo_inurba_marseille","lat":43.298078,"lon":5.381084,"is_reserved":false,"is_disabled":true,"rental_uris":{"android":"levelo://app?vid=742b075e-5a66-4e2f-9ba1-2d871f2cf5f7","ios":"levelo://app?vid=742b075e-5a66-4e2f-9ba1-2d871f2cf5f7"},"vehicle_type_id":"4","last_reported":1737932871,"current_range_meters":1600,"station_id":"ce4bgip2rcd13ifvqbb0","pricing_plan_id":"cebpf4jnsgd1na2vs0mg"},{"bike_id":"6f20f9a6-b786-4af4-81af-ba59be1217ef","system_id":"levelo_inurba_marseille","lat":43.3204,"lon":5.38157,"is_reserved":false,"is_disabled":false,"rental_uris":{"android":"levelo://app?vid=6f20f9a6-b786-4af4-81af-ba59be1217ef","ios":"levelo://app?vid=6f20f9a6-b786-4af4-81af-ba59be1217ef"},"vehicle_type_id":"4","last_reported":1737932871,"current_range_meters":36000,"station_id":"ce4bhr12rcd13ifvqhpg","pricing_plan_id":"cebpf4jnsgd1na2vs0mg"},{"bike_id":"2df2f137-64f2-424b-bec1-88d3bf0fc61d","system_id":"levelo_inurba_marseille","lat":43.28364,"lon":5.38107,"is_reserved":false,"is_disabled":false,"rental_uris":{"android":"levelo://app?vid=2df2f137-64f2-424b-bec1-88d3bf0fc61d","ios":"levelo://app?vid=2df2f137-64f2-424b-bec1-88d3bf0fc61d"},"vehicle_type_id":"4","last_reported":1737932871,"current_range_meters":38800,"station_id":"ce4bh412rcd13ifvqdr0","pricing_plan_id":"cebpf4jnsgd1na2vs0mg"},{"bike_id":"0898cf4c-8322-4456-9fd3-7826055795e7","system_id":"levelo_inurba_marseille","lat":43.28568,"lon":5.39494,"is_reserved":false,"is_disabled":false,"rental_uris":{"android":"levelo://app?vid=0898cf4c-8322-4456-9fd3-7826055795e7","ios":"levelo://app?vid=0898cf4c-8322-4456-9fd3-7826055795e7"},"vehicle_type_id":"4","last_reported":1737932871,"current_range_meters":36800,"station_id":"ce4bh292rcd13ifvqdg0","pricing_plan_id":"cebpf4jnsgd1na2vs0mg"},{"bike_id":"a3a6fa22-9b71-4e4d-a4fb-6eb8e6097881","system_id":"levelo_inurba_marseille","lat":43.23196,"lon":5.3555,"is_reserved":false,"is_disabled":false,"rental_uris":{"android":"levelo://app?vid=a3a6fa22-9b71-4e4d-a4fb-6eb8e6097881","ios":"levelo://app?vid=a3a6fa22-9b71-4e4d-a4fb-6eb8e6097881"},"vehicle_type_id":"4","last_reported":1737932871,"current_range_meters":23200,"station_id":"ce4bhu92rcd13ifvqi70","pricing_plan_id":"cebpf4jnsgd1na2vs0mg"},{"bike_id":"e2f8d0a3-a441-476c-9e2e-dab25167de8a","system_id":"levelo_inurba_marseille","lat":43.29518,"lon":5.39407,"is_reserved":false,"is_disabled":false,"rental_uris":{"android":"levelo://app?vid=e2f8d0a3-a441-476c-9e2e-dab25167de8a","ios":"levelo://app?vid=e2f8d0a3-a441-476c-9e2e-dab25167de8a"},"vehicle_type_id":"4","last_reported":1737932871,"current_range_meters":12000,"station_id":"ce4bh292rcd13ifvqdf0","pricing_plan_id":"cebpf4jnsgd1na2vs0mg"},{"bike_id":"85acaf6b-0cba-4e1d-ad92-fc11753d654b","system_id":"levelo_inurba_marseille","lat":43.288955,"lon":5.454543,"is_reserved":false,"is_disabled":false,"rental_uris":{"android":"levelo://app?vid=85acaf6b-0cba-4e1d-ad92-fc11753d654b","ios":"levelo://app?vid=85acaf6b-0cba-4e1d-ad92-fc11753d654b"},"vehicle_type_id":"4","last_reported":1737932871,"current_range_meters":10000,"station_id":"","pricing_plan_id":"cebpf4jnsgd1na2vs0mg"},{"bike_id":"d54e7416-9133-47cb-bc55-3d590b1f98b8","system_id":"levelo_inurba_marseille","lat":43.28651,"lon":5.36363,"is_reserved":false,"is_disabled":true,"rental_uris":{"android":"levelo://app?vid=d54e7416-9133-47cb-bc55-3d590b1f98b8","ios":"levelo://app?vid=d54e7416-9133-47cb-bc55-3d590b1f98b8"},"vehicle_type_id":"4","last_reported":1737932871,"current_range_meters":0,"station_id":"ce4bhah2rcd13ifvqej0","pricing_plan_id":"cebpf4jnsgd1na2vs0mg"},{"bike_id":"f50c99f6-d9ef-4353-96c0-f0ed3401e807","system_id":"levelo_inurba_marseille","lat":43.24642,"lon":5.38895,"is_reserved":false,"is_disabled":false,"rental_uris":{"android":"levelo://app?vid=f50c99f6-d9ef-4353-96c0-f0ed3401e807","ios":"levelo://app?vid=f50c99f6-d9ef-4353-96c0-f0ed3401e807"},"vehicle_type_id":"4","last_reported":1737932871,"current_range_meters":22800,"station_id":"ce4bhg12rcd13ifvqf60","pricing_plan_id":"cebpf4jnsgd1na2vs0mg"},{"bike_id":"0ba01e9c-cd09-4f59-a64b-54e47a500c4d","system_id":"levelo_inurba_marseille","lat":43.31187,"lon":5.38717,"is_reserved":false,"is_disabled":false,"rental_uris":{"android":"levelo://app?vid=0ba01e9c-cd09-4f59-a64b-54e47a500c4d","ios":"levelo://app?vid=0ba01e9c-cd09-4f59-a64b-54e47a500c4d"},"vehicle_type_id":"4","last_reported":1737932871,"current_range_meters":39200,"station_id":"ce4bgv12rcd13ifvqcp0","pricing_plan_id":"cebpf4jnsgd1na2vs0mg"},{"bike_id":"e7b5364d-47e7-45d1-bfb6-e29107864918","system_id":"levelo_inurba_marseille","lat":43.29902,"lon":5.43674,"is_reserved":false,"is_disabled":false,"rental_uris":{"android":"levelo://app?vid=e7b5364d-47e7-45d1-bfb6-e29107864918","ios":"levelo://app?vid=e7b5364d-47e7-45d1-bfb6-e29107864918"},"vehicle_type_id":"4","last_reported":1737932871,"current_range_meters":7200,"station_id":"ce4bhpp2rcd13ifvqhfg","pricing_plan_id":"cebpf4jnsgd1na2vs0mg"},{"bike_id":"0198ddad-2b7a-4621-86bf-80e1abb6da02","system_id":"levelo_inurba_marseille","lat":43.28447,"lon":5.39179,"is_reserved":false,"is_disabled":false,"rental_uris":{"android":"levelo://app?vid=0198ddad-2b7a-4621-86bf-80e1abb6da02","ios":"levelo://app?vid=0198ddad-2b7a-4621-86bf-80e1abb6da02"},"vehicle_type_id":"4","last_reported":1737932871,"current_range_meters":38800,"station_id":"ce4bhoh2rcd13ifvqh5g","pricing_plan_id":"cebpf4jnsgd1na2vs0mg"},{"bike_id":"0f6398ed-45b1-4030-b34c-43f25a722d51","system_id":"levelo_inurba_marseille","lat":43.30584,"lon":5.37177,"is_reserved":false,"is_disabled":false,"rental_uris":{"android":"levelo://app?vid=0f6398ed-45b1-4030-b34c-43f25a722d51","ios":"levelo://app?vid=0f6398ed-45b1-4030-b34c-43f25a722d51"},"vehicle_type_id":"4","last_reported":1737932871,"current_range_meters":33200,"station_id":"ce4bgqh2rcd13ifvqc4g","pricing_plan_id":"cebpf4jnsgd1na2vs0mg"},{"bike_id":"1c35c755-8b1c-439e-8798-f1a001a3969d","system_id":"levelo_inurba_marseille","lat":43.28101,"lon":5.37837,"is_reserved":false,"is_disabled":true,"rental_uris":{"android":"levelo://app?vid=1c35c755-8b1c-439e-8798-f1a001a3969d","ios":"levelo://app?vid=1c35c755-8b1c-439e-8798-f1a001a3969d"},"vehicle_type_id":"4","last_reported":1737932871,"current_range_meters":0,"station_id":"ce4bha12rcd13ifvqee0","pricing_plan_id":"cebpf4jnsgd1na2vs0mg"},{"bike_id":"eb3290f1-06cf-4037-a83f-56aa03ef1a13","system_id":"levelo_inurba_marseille","lat":43.31766,"lon":5.39013,"is_reserved":false,"is_disabled":false,"rental_uris":{"android":"levelo://app?vid=eb3290f1-06cf-4037-a83f-56aa03ef1a13","ios":"levelo://app?vid=eb3290f1-06cf-4037-a83f-56aa03ef1a13"},"vehicle_type_id":"4","last_reported":1737932871,"current_range_meters":38800,"station_id":"ce4bhqp2rcd13ifvqhng","pricing_plan_id":"cebpf4jnsgd1na2vs0mg"},{"bike_id":"b0325b31-6e06-44e4-b7c2-c542d11011f6","system_id":"levelo_inurba_marseille","lat":43.28978,"lon":5.37834,"is_reserved":false,"is_disabled":false,"rental_uris":{"android":"levelo://app?vid=b0325b31-6e06-44e4-b7c2-c542d11011f6","ios":"levelo://app?vid=b0325b31-6e06-44e4-b7c2-c542d11011f6"},"vehicle_type_id":"4","last_reported":1737932871,"current_range_meters":33200,"station_id":"ce4bh9p2rcd13ifvqed0","pricing_plan_id":"cebpf4jnsgd1na2vs0mg"},{"bike_id":"17620cd8-5b2c-4ba0-8b39-165d0c6a9ffe","system_id":"levelo_inurba_marseille","lat":43.31123,"lon":5.37767,"is_reserved":false,"is_disabled":false,"rental_uris":{"android":"levelo://app?vid=17620cd8-5b2c-4ba0-8b39-165d0c6a9ffe","ios":"levelo://app?vid=17620cd8-5b2c-4ba0-8b39-165d0c6a9ffe"},"vehicle_type_id":"4","last_reported":1737932871,"current_range_meters":32400,"station_id":"ce4bgt92rcd13ifvqcg0","pricing_plan_id":"cebpf4jnsgd1na2vs0mg"},{"bike_id":"55862343-4644-4333-b72b-3b4fdd3f2f9d","system_id":"levelo_inurba_marseille","lat":43.26577,"lon":5.39014,"is_reserved":false,"is_disabled":false,"rental_uris":{"android":"levelo://app?vid=55862343-4644-4333-b72b-3b4fdd3f2f9d","ios":"levelo://app?vid=55862343-4644-4333-b72b-3b4fdd3f2f9d"},"vehicle_type_id":"4","last_reported":1737932871,"current_range_meters":24000,"station_id":"ce4bhe12rcd13ifvqf30","pricing_plan_id":"cebpf4jnsgd1na2vs0mg"},{"bike_id":"28c9ab31-4df0-40d2-8c66-62df59ba79f5","system_id":"levelo_inurba_marseille","lat":43.3029,"lon":5.39219,"is_reserved":false,"is_disabled":false,"rental_uris":{"android":"levelo://app?vid=28c9ab31-4df0-40d2-8c66-62df59ba79f5","ios":"levelo://app?vid=28c9ab31-4df0-40d2-8c66-62df59ba79f5"},"vehicle_type_id":"4","last_reported":1737932871,"current_range_meters":38400,"station_id":"ce4bgkh2rcd13ifvqbk0","pricing_plan_id":"cebpf4jnsgd1na2vs0mg"},{"bike_id":"b96c22ba-a4c6-4ca8-b881-a2a2972e9bc2","system_id":"levelo_inurba_marseille","lat":43.26021,"lon":5.37557,"is_reserved":false,"is_disabled":true,"rental_uris":{"android":"levelo://app?vid=b96c22ba-a4c6-4ca8-b881-a2a2972e9bc2","ios":"levelo://app?vid=b96c22ba-a4c6-4ca8-b881-a2a2972e9bc2"},"vehicle_type_id":"4","last_reported":1737932871,"current_range_meters":30000,"station_id":"ce4bhgh2rcd13ifvqfa0","pricing_plan_id":"cebpf4jnsgd1na2vs0mg"},{"bike_id":"ae804f76-4fb7-4fbd-9dcf-21b3a5949db3","system_id":"levelo_inurba_marseille","lat":43.24572,"lon":5.39551,"is_reserved":false,"is_disabled":false,"rental_uris":{"android":"levelo://app?vid=ae804f76-4fb7-4fbd-9dcf-21b3a5949db3","ios":"levelo://app?vid=ae804f76-4fb7-4fbd-9dcf-21b3a5949db3"},"vehicle_type_id":"4","last_reported":1737932871,"current_range_meters":17600,"station_id":"ce4bhlp2rcd13ifvqgjg","pricing_plan_id":"cebpf4jnsgd1na2vs0mg"},{"bike_id":"27e9ed6a-8bc6-4409-a393-30f180d9892b","system_id":"levelo_inurba_marseille","lat":43.25685,"lon":5.41093,"is_reserved":false,"is_disabled":false,"rental_uris":{"android":"levelo://app?vid=27e9ed6a-8bc6-4409-a393-30f180d9892b","ios":"levelo://app?vid=27e9ed6a-8bc6-4409-a393-30f180d9892b"},"vehicle_type_id":"4","last_reported":1737932871,"current_range_meters":38800,"station_id":"ce4bhkp2rcd13ifvqgd0","pricing_plan_id":"cebpf4jnsgd1na2vs0mg"},{"bike_id":"c8f84320-702f-4072-8c4f-7ffe51ba7836","system_id":"levelo_inurba_marseille","lat":43.30249,"lon":5.40088,"is_reserved":false,"is_disabled":false,"rental_uris":{"android":"levelo://app?vid=c8f84320-702f-4072-8c4f-7ffe51ba7836","ios":"levelo://app?vid=c8f84320-702f-4072-8c4f-7ffe51ba7836"},"vehicle_type_id":"4","last_reported":1737932871,"current_range_meters":27600,"station_id":"ce4bgvh2rcd13ifvqcs0","pricing_plan_id":"cebpf4jnsgd1na2vs0mg"},{"bike_id":"dcb50635-0e5e-4da9-b4df-329e73a63f8f","system_id":"levelo_inurba_marseille","lat":43.24179,"lon":5.39748,"is_reserved":false,"is_disabled":false,"rental_uris":{"android":"levelo://app?vid=dcb50635-0e5e-4da9-b4df-329e73a63f8f","ios":"levelo://app?vid=dcb50635-0e5e-4da9-b4df-329e73a63f8f"},"vehicle_type_id":"4","last_reported":1737932871,"current_range_meters":25600,"station_id":"ce4bhn12rcd13ifvqgpg","pricing_plan_id":"cebpf4jnsgd1na2vs0mg"},{"bike_id":"98a2cb10-0f11-4a3f-b5c2-fb63add72da7","system_id":"levelo_inurba_marseille","lat":43.23196,"lon":5.35555,"is_reserved":false,"is_disabled":false,"rental_uris":{"android":"levelo://app?vid=98a2cb10-0f11-4a3f-b5c2-fb63add72da7","ios":"levelo://app?vid=98a2cb10-0f11-4a3f-b5c2-fb63add72da7"},"vehicle_type_id":"4","last_reported":1737932871,"current_range_meters":28000,"station_id":"ce4bhu92rcd13ifvqi70","pricing_plan_id":"cebpf4jnsgd1na2vs0mg"},{"bike_id":"1346ff93-9ddb-4093-aa5d-b6cb09dfef3c","system_id":"levelo_inurba_marseille","lat":43.28641,"lon":5.36872,"is_reserved":false,"is_disabled":true,"rental_uris":{"android":"levelo://app?vid=1346ff93-9ddb-4093-aa5d-b6cb09dfef3c","ios":"levelo://app?vid=1346ff93-9ddb-4093-aa5d-b6cb09dfef3c"},"vehicle_type_id":"4","last_reported":1737932871,"current_range_meters":0,"station_id":"","pricing_plan_id":"cebpf4jnsgd1na2vs0mg"},{"bike_id":"388af01c-d64c-4a37-8a19-812811c76bf1","system_id":"levelo_inurba_marseille","lat":43.32656,"lon":5.4099,"is_reserved":false,"is_disabled":false,"rental_uris":{"android":"levelo://app?vid=388af01c-d64c-4a37-8a19-812811c76bf1","ios":"levelo://app?vid=388af01c-d64c-4a37-8a19-812811c76bf1"},"vehicle_type_id":"4","last_reported":1737932871,"current_range_meters":38000,"station_id":"ce4bhpp2rcd13ifvqhgg","pricing_plan_id":"cebpf4jnsgd1na2vs0mg"},{"bike_id":"31593dbf-1c7f-4006-abaa-0e87fe690d49","system_id":"levelo_inurba_marseille","lat":43.24385,"lon":5.3706,"is_reserved":false,"is_disabled":false,"rental_uris":{"android":"levelo://app?vid=31593dbf-1c7f-4006-abaa-0e87fe690d49","ios":"levelo://app?vid=31593dbf-1c7f-4006-abaa-0e87fe690d49"},"vehicle_type_id":"4","last_reported":1737932871,"current_range_meters":39200,"station_id":"ce4bhhh2rcd13ifvqfk0","pricing_plan_id":"cebpf4jnsgd1na2vs0mg"},{"bike_id":"65e0cc3b-f0ca-4cbc-b377-c8304fb7138c","system_id":"levelo_inurba_marseille","lat":43.28268,"lon":5.35068,"is_reserved":false,"is_disabled":false,"rental_uris":{"android":"levelo://app?vid=65e0cc3b-f0ca-4cbc-b377-c8304fb7138c","ios":"levelo://app?vid=65e0cc3b-f0ca-4cbc-b377-c8304fb7138c"},"vehicle_type_id":"4","last_reported":1737932871,"current_range_meters":34000,"station_id":"ce4bhbp2rcd13ifvqerg","pricing_plan_id":"cebpf4jnsgd1na2vs0mg"},{"bike_id":"f03b412e-affa-4cbf-97fc-3e234bf8cd55","system_id":"levelo_inurba_marseille","lat":43.25566,"lon":5.3823,"is_reserved":false,"is_disabled":false,"rental_uris":{"android":"levelo://app?vid=f03b412e-affa-4cbf-97fc-3e234bf8cd55","ios":"levelo://app?vid=f03b412e-affa-4cbf-97fc-3e234bf8cd55"},"vehicle_type_id":"4","last_reported":1737932871,"current_range_meters":17200,"station_id":"ce4bhih2rcd13ifvqfs0","pricing_plan_id":"cebpf4jnsgd1na2vs0mg"},{"bike_id":"7c3a1add-fa1a-44e9-b210-58865ab9c863","system_id":"levelo_inurba_marseille","lat":43.32098,"lon":5.36785,"is_reserved":false,"is_disabled":false,"rental_uris":{"android":"levelo://app?vid=7c3a1add-fa1a-44e9-b210-58865ab9c863","ios":"levelo://app?vid=7c3a1add-fa1a-44e9-b210-58865ab9c863"},"vehicle_type_id":"4","last_reported":1737932871,"current_range_meters":27600,"station_id":"ce4bhrh2rcd13ifvqhug","pricing_plan_id":"cebpf4jnsgd1na2vs0mg"},{"bike_id":"5658bf19-5e40-4edf-ac7a-3999a5207afd","system_id":"levelo_inurba_marseille","lat":43.23205,"lon":5.35542,"is_reserved":false,"is_disabled":false,"rental_uris":{"android":"levelo://app?vid=5658bf19-5e40-4edf-ac7a-3999a5207afd","ios":"levelo://app?vid=5658bf19-5e40-4edf-ac7a-3999a5207afd"},"vehicle_type_id":"4","last_reported":1737932871,"current_range_meters":38000,"station_id":"ce4bhu92rcd13ifvqi70","pricing_plan_id":"cebpf4jnsgd1na2vs0mg"},{"bike_id":"b01b0706-3a3a-4ff1-ac0d-6b17e48eff7a","system_id":"levelo_inurba_marseille","lat":43.23204,"lon":5.35542,"is_reserved":false,"is_disabled":false,"rental_uris":{"android":"levelo://app?vid=b01b0706-3a3a-4ff1-ac0d-6b17e48eff7a","ios":"levelo://app?vid=b01b0706-3a3a-4ff1-ac0d-6b17e48eff7a"},"vehicle_type_id":"4","last_reported":1737932871,"current_range_meters":38400,"station_id":"ce4bhu92rcd13ifvqi70","pricing_plan_id":"cebpf4jnsgd1na2vs0mg"},{"bike_id":"68bee2d9-0b1d-4393-b8ac-588ed9332d94","system_id":"levelo_inurba_marseille","lat":43.28413,"lon":5.374917,"is_reserved":false,"is_disabled":false,"rental_uris":{"android":"levelo://app?vid=68bee2d9-0b1d-4393-b8ac-588ed9332d94","ios":"levelo://app?vid=68bee2d9-0b1d-4393-b8ac-588ed9332d94"},"vehicle_type_id":"4","last_reported":1737932871,"current_range_meters":33600,"station_id":"ce4bh412rcd13ifvqds0","pricing_plan_id":"cebpf4jnsgd1na2vs0mg"},{"bike_id":"1df39e0a-209d-4620-8399-9d79536882d8","system_id":"levelo_inurba_marseille","lat":43.29538,"lon":5.4224,"is_reserved":false,"is_disabled":false,"rental_uris":{"android":"levelo://app?vid=1df39e0a-209d-4620-8399-9d79536882d8","ios":"levelo://app?vid=1df39e0a-209d-4620-8399-9d79536882d8"},"vehicle_type_id":"4","last_reported":1737932871,"current_range_meters":37600,"station_id":"ce4bhph2rcd13ifvqhdg","pricing_plan_id":"cebpf4jnsgd1na2vs0mg"},{"bike_id":"82268c69-bcd8-49fb-91ea-6277b4711aa7","system_id":"levelo_inurba_marseille","lat":43.255487,"lon":5.397689,"is_reserved":false,"is_disabled":false,"rental_uris":{"android":"levelo://app?vid=82268c69-bcd8-49fb-91ea-6277b4711aa7","ios":"levelo://app?vid=82268c69-bcd8-49fb-91ea-6277b4711aa7"},"vehicle_type_id":"4","last_reported":1737932871,"current_range_meters":28000,"station_id":"","pricing_plan_id":"cebpf4jnsgd1na2vs0mg"},{"bike_id":"6779612f-9bf2-49e4-a64f-fd0404d26e31","system_id":"levelo_inurba_marseille","lat":43.30487,"lon":5.40029,"is_reserved":false,"is_disabled":false,"rental_uris":{"android":"levelo://app?vid=6779612f-9bf2-49e4-a64f-fd0404d26e31","ios":"levelo://app?vid=6779612f-9bf2-49e4-a64f-fd0404d26e31"},"vehicle_type_id":"4","last_reported":1737932871,"current_range_meters":8800,"station_id":"","pricing_plan_id":"cebpf4jnsgd1na2vs0mg"},{"bike_id":"6001893c-8415-487b-bcb1-035bb93ad9c0","system_id":"levelo_inurba_marseille","lat":43.28714,"lon":5.37944,"is_reserved":false,"is_disabled":false,"rental_uris":{"android":"levelo://app?vid=6001893c-8415-487b-bcb1-035bb93ad9c0","ios":"levelo://app?vid=6001893c-8415-487b-bcb1-035bb93ad9c0"},"vehicle_type_id":"4","last_reported":1737932871,"current_range_meters":25600,"station_id":"ce4bh9p2rcd13ifvqec0","pricing_plan_id":"cebpf4jnsgd1na2vs0mg"},{"bike_id":"35acdb32-b9f0-47e6-864f-bd2f2d728b11","system_id":"levelo_inurba_marseille","lat":43.3129,"lon":5.40172,"is_reserved":false,"is_disabled":false,"rental_uris":{"android":"levelo://app?vid=35acdb32-b9f0-47e6-864f-bd2f2d728b11","ios":"levelo://app?vid=35acdb32-b9f0-47e6-864f-bd2f2d728b11"},"vehicle_type_id":"4","last_reported":1737932871,"current_range_meters":37600,"station_id":"ce4bh092rcd13ifvqd30","pricing_plan_id":"cebpf4jnsgd1na2vs0mg"},{"bike_id":"6e203d11-8f28-45a5-ab0c-f65896cc8679","system_id":"levelo_inurba_marseille","lat":43.28676,"lon":5.38653,"is_reserved":false,"is_disabled":false,"rental_uris":{"android":"levelo://app?vid=6e203d11-8f28-45a5-ab0c-f65896cc8679","ios":"levelo://app?vid=6e203d11-8f28-45a5-ab0c-f65896cc8679"},"vehicle_type_id":"4","last_reported":1737932871,"current_range_meters":6800,"station_id":"ce4bh492rcd13ifvqdug","pricing_plan_id":"cebpf4jnsgd1na2vs0mg"},{"bike_id":"79bc66a4-aeed-4eda-a560-099c58d7dbf9","system_id":"levelo_inurba_marseille","lat":43.315006,"lon":5.372975,"is_reserved":false,"is_disabled":true,"rental_uris":{"android":"levelo://app?vid=79bc66a4-aeed-4eda-a560-099c58d7dbf9","ios":"levelo://app?vid=79bc66a4-aeed-4eda-a560-099c58d7dbf9"},"vehicle_type_id":"4","last_reported":1737932871,"current_range_meters":10800,"station_id":"ce4bgt12rcd13ifvqcd0","pricing_plan_id":"cebpf4jnsgd1na2vs0mg"},{"bike_id":"10b1a047-be93-49dc-bba5-67085f222023","system_id":"levelo_inurba_marseille","lat":43.25552,"lon":5.38155,"is_reserved":false,"is_disabled":false,"rental_uris":{"android":"levelo://app?vid=10b1a047-be93-49dc-bba5-67085f222023","ios":"levelo://app?vid=10b1a047-be93-49dc-bba5-67085f222023"},"vehicle_type_id":"4","last_reported":1737932871,"current_range_meters":14400,"station_id":"","pricing_plan_id":"cebpf4jnsgd1na2vs0mg"},{"bike_id":"08500baa-0caa-40a9-b140-615d25788649","system_id":"levelo_inurba_marseille","lat":43.29546,"lon":5.4228,"is_reserved":false,"is_disabled":false,"rental_uris":{"android":"levelo://app?vid=08500baa-0caa-40a9-b140-615d25788649","ios":"levelo://app?vid=08500baa-0caa-40a9-b140-615d25788649"},"vehicle_type_id":"4","last_reported":1737932871,"current_range_meters":33200,"station_id":"ce4bhph2rcd13ifvqhdg","pricing_plan_id":"cebpf4jnsgd1na2vs0mg"},{"bike_id":"07c04308-e576-4379-9337-5d1435519828","system_id":"levelo_inurba_marseille","lat":43.28954,"lon":5.36398,"is_reserved":false,"is_disabled":false,"rental_uris":{"android":"levelo://app?vid=07c04308-e576-4379-9337-5d1435519828","ios":"levelo://app?vid=07c04308-e576-4379-9337-5d1435519828"},"vehicle_type_id":"4","last_reported":1737932871,"current_range_meters":36000,"station_id":"ce4bhc92rcd13ifvqetg","pricing_plan_id":"cebpf4jnsgd1na2vs0mg"},{"bike_id":"8d4a2c03-332c-43fc-94a2-34f34407062a","system_id":"levelo_inurba_marseille","lat":43.31921,"lon":5.36605,"is_reserved":false,"is_disabled":false,"rental_uris":{"android":"levelo://app?vid=8d4a2c03-332c-43fc-94a2-34f34407062a","ios":"levelo://app?vid=8d4a2c03-332c-43fc-94a2-34f34407062a"},"vehicle_type_id":"4","last_reported":1737932871,"current_range_meters":29600,"station_id":"","pricing_plan_id":"cebpf4jnsgd1na2vs0mg"},{"bike_id":"40bda4fd-b97f-4057-9ec2-85fb2dee3907","system_id":"levelo_inurba_marseille","lat":43.2657,"lon":5.39012,"is_reserved":false,"is_disabled":false,"rental_uris":{"android":"levelo://app?vid=40bda4fd-b97f-4057-9ec2-85fb2dee3907","ios":"levelo://app?vid=40bda4fd-b97f-4057-9ec2-85fb2dee3907"},"vehicle_type_id":"4","last_reported":1737932871,"current_range_meters":38800,"station_id":"ce4bhe12rcd13ifvqf30","pricing_plan_id":"cebpf4jnsgd1na2vs0mg"},{"bike_id":"57823e25-308b-4f11-a2b6-a7f52902c1c5","system_id":"levelo_inurba_marseille","lat":43.308178,"lon":5.381614,"is_reserved":false,"is_disabled":true,"rental_uris":{"android":"levelo://app?vid=57823e25-308b-4f11-a2b6-a7f52902c1c5","ios":"levelo://app?vid=57823e25-308b-4f11-a2b6-a7f52902c1c5"},"vehicle_type_id":"4","last_reported":1737932871,"current_range_meters":14800,"station_id":"ce4bgt12rcd13ifvqce0","pricing_plan_id":"cebpf4jnsgd1na2vs0mg"},{"bike_id":"ff68af14-5554-4f8d-a3de-4549d987f602","system_id":"levelo_inurba_marseille","lat":43.29908,"lon":5.43658,"is_reserved":false,"is_disabled":false,"rental_uris":{"android":"levelo://app?vid=ff68af14-5554-4f8d-a3de-4549d987f602","ios":"levelo://app?vid=ff68af14-5554-4f8d-a3de-4549d987f602"},"vehicle_type_id":"4","last_reported":1737932871,"current_range_meters":7200,"station_id":"ce4bhpp2rcd13ifvqhfg","pricing_plan_id":"cebpf4jnsgd1na2vs0mg"},{"bike_id":"6a8f4b05-901b-4ddf-bf6a-601e4ea9f30f","system_id":"levelo_inurba_marseille","lat":43.28929,"lon":5.36399,"is_reserved":false,"is_disabled":false,"rental_uris":{"android":"levelo://app?vid=6a8f4b05-901b-4ddf-bf6a-601e4ea9f30f","ios":"levelo://app?vid=6a8f4b05-901b-4ddf-bf6a-601e4ea9f30f"},"vehicle_type_id":"4","last_reported":1737932871,"current_range_meters":38800,"station_id":"ce4bhc92rcd13ifvqetg","pricing_plan_id":"cebpf4jnsgd1na2vs0mg"},{"bike_id":"de5ed648-7365-4d6a-92ca-97ba72f1df27","system_id":"levelo_inurba_marseille","lat":43.28098,"lon":5.37839,"is_reserved":false,"is_disabled":false,"rental_uris":{"android":"levelo://app?vid=de5ed648-7365-4d6a-92ca-97ba72f1df27","ios":"levelo://app?vid=de5ed648-7365-4d6a-92ca-97ba72f1df27"},"vehicle_type_id":"4","last_reported":1737932871,"current_range_meters":2800,"station_id":"ce4bha12rcd13ifvqee0","pricing_plan_id":"cebpf4jnsgd1na2vs0mg"},{"bike_id":"5aac3362-dc0b-456f-acf1-ae02abd9dbff","system_id":"levelo_inurba_marseille","lat":43.30797,"lon":5.38175,"is_reserved":false,"is_disabled":false,"rental_uris":{"android":"levelo://app?vid=5aac3362-dc0b-456f-acf1-ae02abd9dbff","ios":"levelo://app?vid=5aac3362-dc0b-456f-acf1-ae02abd9dbff"},"vehicle_type_id":"4","last_reported":1737932871,"current_range_meters":25200,"station_id":"ce4bgt12rcd13ifvqce0","pricing_plan_id":"cebpf4jnsgd1na2vs0mg"},{"bike_id":"ee0c9dfc-ca49-4212-ae8e-ae5dd390644c","system_id":"levelo_inurba_marseille","lat":43.29021,"lon":5.38124,"is_reserved":false,"is_disabled":false,"rental_uris":{"android":"levelo://app?vid=ee0c9dfc-ca49-4212-ae8e-ae5dd390644c","ios":"levelo://app?vid=ee0c9dfc-ca49-4212-ae8e-ae5dd390644c"},"vehicle_type_id":"4","last_reported":1737932871,"current_range_meters":36800,"station_id":"ce4bh4p2rcd13ifvqe1g","pricing_plan_id":"cebpf4jnsgd1na2vs0mg"},{"bike_id":"1e328aaf-06e5-4767-a395-a9b21576497f","system_id":"levelo_inurba_marseille","lat":43.29781,"lon":5.37116,"is_reserved":false,"is_disabled":true,"rental_uris":{"android":"levelo://app?vid=1e328aaf-06e5-4767-a395-a9b21576497f","ios":"levelo://app?vid=1e328aaf-06e5-4767-a395-a9b21576497f"},"vehicle_type_id":"4","last_reported":1737932871,"current_range_meters":16400,"station_id":"ce4bgop2rcd13ifvqc1g","pricing_plan_id":"cebpf4jnsgd1na2vs0mg"},{"bike_id":"f7c24e44-41c1-419d-a615-e051b3b900f2","system_id":"levelo_inurba_marseille","lat":43.29841,"lon":5.39734,"is_reserved":false,"is_disabled":false,"rental_uris":{"android":"levelo://app?vid=f7c24e44-41c1-419d-a615-e051b3b900f2","ios":"levelo://app?vid=f7c24e44-41c1-419d-a615-e051b3b900f2"},"vehicle_type_id":"4","last_reported":1737932871,"current_range_meters":38800,"station_id":"ce4bh0h2rcd13ifvqd50","pricing_plan_id":"cebpf4jnsgd1na2vs0mg"},{"bike_id":"105b052f-157b-4e7a-a129-56f35a257489","system_id":"levelo_inurba_marseille","lat":43.32358,"lon":5.36765,"is_reserved":false,"is_disabled":false,"rental_uris":{"android":"levelo://app?vid=105b052f-157b-4e7a-a129-56f35a257489","ios":"levelo://app?vid=105b052f-157b-4e7a-a129-56f35a257489"},"vehicle_type_id":"4","last_reported":1737932871,"current_range_meters":16800,"station_id":"ce4bhsh2rcd13ifvqi2g","pricing_plan_id":"cebpf4jnsgd1na2vs0mg"},{"bike_id":"86b498e3-784c-4315-9910-77930c320efa","system_id":"levelo_inurba_marseille","lat":43.28602,"lon":5.3707,"is_reserved":false,"is_disabled":false,"rental_uris":{"android":"levelo://app?vid=86b498e3-784c-4315-9910-77930c320efa","ios":"levelo://app?vid=86b498e3-784c-4315-9910-77930c320efa"},"vehicle_type_id":"4","last_reported":1737932871,"current_range_meters":38800,"station_id":"ce4bht12rcd13ifvqi60","pricing_plan_id":"cebpf4jnsgd1na2vs0mg"},{"bike_id":"d4b96a79-6fba-47bf-8cf9-899b5e9182b4","system_id":"levelo_inurba_marseille","lat":43.26195,"lon":5.37916,"is_reserved":false,"is_disabled":false,"rental_uris":{"android":"levelo://app?vid=d4b96a79-6fba-47bf-8cf9-899b5e9182b4","ios":"levelo://app?vid=d4b96a79-6fba-47bf-8cf9-899b5e9182b4"},"vehicle_type_id":"4","last_reported":1737932871,"current_range_meters":16400,"station_id":"ce4bhjp2rcd13ifvqg90","pricing_plan_id":"cebpf4jnsgd1na2vs0mg"},{"bike_id":"24d1c4ac-38e7-44fb-b933-7408ac05a786","system_id":"levelo_inurba_marseille","lat":43.3089,"lon":5.39645,"is_reserved":false,"is_disabled":false,"rental_uris":{"android":"levelo://app?vid=24d1c4ac-38e7-44fb-b933-7408ac05a786","ios":"levelo://app?vid=24d1c4ac-38e7-44fb-b933-7408ac05a786"},"vehicle_type_id":"4","last_reported":1737932871,"current_range_meters":7200,"station_id":"ce4bh012rcd13ifvqcv0","pricing_plan_id":"cebpf4jnsgd1na2vs0mg"},{"bike_id":"8c772f1a-bac2-41fc-878f-d0d152dc8c92","system_id":"levelo_inurba_marseille","lat":43.29175,"lon":5.38216,"is_reserved":false,"is_disabled":false,"rental_uris":{"android":"levelo://app?vid=8c772f1a-bac2-41fc-878f-d0d152dc8c92","ios":"levelo://app?vid=8c772f1a-bac2-41fc-878f-d0d152dc8c92"},"vehicle_type_id":"4","last_reported":1737932871,"current_range_meters":8000,"station_id":"","pricing_plan_id":"cebpf4jnsgd1na2vs0mg"},{"bike_id":"00f9a058-c7a6-4b4e-af6e-b0aefd06f32a","system_id":"levelo_inurba_marseille","lat":43.27182,"lon":5.40994,"is_reserved":false,"is_disabled":false,"rental_uris":{"android":"levelo://app?vid=00f9a058-c7a6-4b4e-af6e-b0aefd06f32a","ios":"levelo://app?vid=00f9a058-c7a6-4b4e-af6e-b0aefd06f32a"},"vehicle_type_id":"4","last_reported":1737932871,"current_range_meters":24800,"station_id":"ce4bhl12rcd13ifvqgf0","pricing_plan_id":"cebpf4jnsgd1na2vs0mg"},{"bike_id":"44392ae8-1694-4526-bfb4-626712287388","system_id":"levelo_inurba_marseille","lat":43.28465,"lon":5.35888,"is_reserved":false,"is_disabled":false,"rental_uris":{"android":"levelo://app?vid=44392ae8-1694-4526-bfb4-626712287388","ios":"levelo://app?vid=44392ae8-1694-4526-bfb4-626712287388"},"vehicle_type_id":"4","last_reported":1737932871,"current_range_meters":24000,"station_id":"ce4bhah2rcd13ifvqei0","pricing_plan_id":"cebpf4jnsgd1na2vs0mg"},{"bike_id":"a7fcc53e-6f14-41c5-8b6d-25ab86bedc5f","system_id":"levelo_inurba_marseille","lat":43.29026,"lon":5.38626,"is_reserved":false,"is_disabled":true,"rental_uris":{"android":"levelo://app?vid=a7fcc53e-6f14-41c5-8b6d-25ab86bedc5f","ios":"levelo://app?vid=a7fcc53e-6f14-41c5-8b6d-25ab86bedc5f"},"vehicle_type_id":"4","last_reported":1737932871,"current_range_meters":29600,"station_id":"ce4bh4p2rcd13ifvqe0g","pricing_plan_id":"cebpf4jnsgd1na2vs0mg"},{"bike_id":"574429cf-c091-49bb-bea6-725876d2acf8","system_id":"levelo_inurba_marseille","lat":43.28671,"lon":5.38658,"is_reserved":false,"is_disabled":false,"rental_uris":{"android":"levelo://app?vid=574429cf-c091-49bb-bea6-725876d2acf8","ios":"levelo://app?vid=574429cf-c091-49bb-bea6-725876d2acf8"},"vehicle_type_id":"4","last_reported":1737932871,"current_range_meters":38800,"station_id":"ce4bh492rcd13ifvqdug","pricing_plan_id":"cebpf4jnsgd1na2vs0mg"},{"bike_id":"7feb50cc-9a67-4ccb-9fef-07ede77689cd","system_id":"levelo_inurba_marseille","lat":43.24387,"lon":5.37063,"is_reserved":false,"is_disabled":false,"rental_uris":{"android":"levelo://app?vid=7feb50cc-9a67-4ccb-9fef-07ede77689cd","ios":"levelo://app?vid=7feb50cc-9a67-4ccb-9fef-07ede77689cd"},"vehicle_type_id":"4","last_reported":1737932871,"current_range_meters":11200,"station_id":"ce4bhhh2rcd13ifvqfk0","pricing_plan_id":"cebpf4jnsgd1na2vs0mg"},{"bike_id":"a8470fb7-6f32-4e42-b8d2-18965734b7cb","system_id":"levelo_inurba_marseille","lat":43.28461,"lon":5.35895,"is_reserved":false,"is_disabled":false,"rental_uris":{"android":"levelo://app?vid=a8470fb7-6f32-4e42-b8d2-18965734b7cb","ios":"levelo://app?vid=a8470fb7-6f32-4e42-b8d2-18965734b7cb"},"vehicle_type_id":"4","last_reported":1737932871,"current_range_meters":32000,"station_id":"ce4bhah2rcd13ifvqei0","pricing_plan_id":"cebpf4jnsgd1na2vs0mg"},{"bike_id":"568e6118-46c5-448c-a633-5b28c6408df6","system_id":"levelo_inurba_marseille","lat":43.30952,"lon":5.39061,"is_reserved":false,"is_disabled":true,"rental_uris":{"android":"levelo://app?vid=568e6118-46c5-448c-a633-5b28c6408df6","ios":"levelo://app?vid=568e6118-46c5-448c-a633-5b28c6408df6"},"vehicle_type_id":"4","last_reported":1737932871,"current_range_meters":0,"station_id":"ce4bgup2rcd13ifvqco0","pricing_plan_id":"cebpf4jnsgd1na2vs0mg"},{"bike_id":"a55f6e56-669c-444c-9606-d9b894e036f1","system_id":"levelo_inurba_marseille","lat":43.29814,"lon":5.4044,"is_reserved":false,"is_disabled":false,"rental_uris":{"android":"levelo://app?vid=a55f6e56-669c-444c-9606-d9b894e036f1","ios":"levelo://app?vid=a55f6e56-669c-444c-9606-d9b894e036f1"},"vehicle_type_id":"4","last_reported":1737932871,"current_range_meters":39200,"station_id":"ce4bh112rcd13ifvqd90","pricing_plan_id":"cebpf4jnsgd1na2vs0mg"},{"bike_id":"cab25dd6-7406-4b72-979f-cd0127ff839e","system_id":"levelo_inurba_marseille","lat":43.28941,"lon":5.36613,"is_reserved":false,"is_disabled":false,"rental_uris":{"android":"levelo://app?vid=cab25dd6-7406-4b72-979f-cd0127ff839e","ios":"levelo://app?vid=cab25dd6-7406-4b72-979f-cd0127ff839e"},"vehicle_type_id":"4","last_reported":1737932871,"current_range_meters":10800,"station_id":"ce4bhap2rcd13ifvqek0","pricing_plan_id":"cebpf4jnsgd1na2vs0mg"},{"bike_id":"2e9f9ad8-b960-43c9-8b0a-d9899d6e9774","system_id":"levelo_inurba_marseille","lat":43.30734,"lon":5.3964,"is_reserved":false,"is_disabled":false,"rental_uris":{"android":"levelo://app?vid=2e9f9ad8-b960-43c9-8b0a-d9899d6e9774","ios":"levelo://app?vid=2e9f9ad8-b960-43c9-8b0a-d9899d6e9774"},"vehicle_type_id":"4","last_reported":1737932871,"current_range_meters":33200,"station_id":"","pricing_plan_id":"cebpf4jnsgd1na2vs0mg"},{"bike_id":"cb11c4e4-37a9-44f4-9ccd-767b3b519e30","system_id":"levelo_inurba_marseille","lat":43.28488,"lon":5.38418,"is_reserved":false,"is_disabled":true,"rental_uris":{"android":"levelo://app?vid=cb11c4e4-37a9-44f4-9ccd-767b3b519e30","ios":"levelo://app?vid=cb11c4e4-37a9-44f4-9ccd-767b3b519e30"},"vehicle_type_id":"4","last_reported":1737932871,"current_range_meters":13600,"station_id":"ce4bh512rcd13ifvqe3g","pricing_plan_id":"cebpf4jnsgd1na2vs0mg"},{"bike_id":"7aa87f7e-999b-461a-85f4-92c927f471ed","system_id":"levelo_inurba_marseille","lat":43.32059,"lon":5.41593,"is_reserved":false,"is_disabled":true,"rental_uris":{"android":"levelo://app?vid=7aa87f7e-999b-461a-85f4-92c927f471ed","ios":"levelo://app?vid=7aa87f7e-999b-461a-85f4-92c927f471ed"},"vehicle_type_id":"4","last_reported":1737932871,"current_range_meters":4000,"station_id":"ce4bhq92rcd13ifvqhkg","pricing_plan_id":"cebpf4jnsgd1na2vs0mg"},{"bike_id":"a9397b70-a385-4291-9897-8f0d82cd91b3","system_id":"levelo_inurba_marseille","lat":43.28016,"lon":5.36907,"is_reserved":false,"is_disabled":false,"rental_uris":{"android":"levelo://app?vid=a9397b70-a385-4291-9897-8f0d82cd91b3","ios":"levelo://app?vid=a9397b70-a385-4291-9897-8f0d82cd91b3"},"vehicle_type_id":"4","last_reported":1737932871,"current_range_meters":38400,"station_id":"ce4bha12rcd13ifvqef0","pricing_plan_id":"cebpf4jnsgd1na2vs0mg"},{"bike_id":"7e59e0ad-802e-4703-b159-ac6fc69b64b5","system_id":"levelo_inurba_marseille","lat":43.30569,"lon":5.38422,"is_reserved":false,"is_disabled":true,"rental_uris":{"android":"levelo://app?vid=7e59e0ad-802e-4703-b159-ac6fc69b64b5","ios":"levelo://app?vid=7e59e0ad-802e-4703-b159-ac6fc69b64b5"},"vehicle_type_id":"4","last_reported":1737932871,"current_range_meters":32800,"station_id":"ce4bgg92rcd13ifvqb30","pricing_plan_id":"cebpf4jnsgd1na2vs0mg"},{"bike_id":"944ecfa4-1deb-441b-a89a-e1bce60c6518","system_id":"levelo_inurba_marseille","lat":43.27061,"lon":5.42273,"is_reserved":false,"is_disabled":false,"rental_uris":{"android":"levelo://app?vid=944ecfa4-1deb-441b-a89a-e1bce60c6518","ios":"levelo://app?vid=944ecfa4-1deb-441b-a89a-e1bce60c6518"},"vehicle_type_id":"4","last_reported":1737932871,"current_range_meters":38800,"station_id":"ce4bhk92rcd13ifvqgb0","pricing_plan_id":"cebpf4jnsgd1na2vs0mg"},{"bike_id":"d1c27158-772d-4991-88e9-a7864541f06e","system_id":"levelo_inurba_marseille","lat":43.32347,"lon":5.38876,"is_reserved":false,"is_disabled":false,"rental_uris":{"android":"levelo://app?vid=d1c27158-772d-4991-88e9-a7864541f06e","ios":"levelo://app?vid=d1c27158-772d-4991-88e9-a7864541f06e"},"vehicle_type_id":"4","last_reported":1737932871,"current_range_meters":36000,"station_id":"ce4bhqp2rcd13ifvqhog","pricing_plan_id":"cebpf4jnsgd1na2vs0mg"},{"bike_id":"7372d39a-49a2-4ee4-b72c-8c7c1c34fd2f","system_id":"levelo_inurba_marseille","lat":43.302607,"lon":5.40079,"is_reserved":false,"is_disabled":false,"rental_uris":{"android":"levelo://app?vid=7372d39a-49a2-4ee4-b72c-8c7c1c34fd2f","ios":"levelo://app?vid=7372d39a-49a2-4ee4-b72c-8c7c1c34fd2f"},"vehicle_type_id":"4","last_reported":1737932871,"current_range_meters":6000,"station_id":"ce4bgvh2rcd13ifvqcs0","pricing_plan_id":"cebpf4jnsgd1na2vs0mg"},{"bike_id":"406f3a4e-22c7-4501-a7fe-e475a9f714e4","system_id":"levelo_inurba_marseille","lat":43.23199,"lon":5.35547,"is_reserved":false,"is_disabled":false,"rental_uris":{"android":"levelo://app?vid=406f3a4e-22c7-4501-a7fe-e475a9f714e4","ios":"levelo://app?vid=406f3a4e-22c7-4501-a7fe-e475a9f714e4"},"vehicle_type_id":"4","last_reported":1737932871,"current_range_meters":16800,"station_id":"ce4bhu92rcd13ifvqi70","pricing_plan_id":"cebpf4jnsgd1na2vs0mg"},{"bike_id":"e7965682-cb07-492d-a8dc-957cdc5a4b6e","system_id":"levelo_inurba_marseille","lat":43.29984,"lon":5.38507,"is_reserved":false,"is_disabled":true,"rental_uris":{"android":"levelo://app?vid=e7965682-cb07-492d-a8dc-957cdc5a4b6e","ios":"levelo://app?vid=e7965682-cb07-492d-a8dc-957cdc5a4b6e"},"vehicle_type_id":"4","last_reported":1737932871,"current_range_meters":7200,"station_id":"ce4bgj92rcd13ifvqbd0","pricing_plan_id":"cebpf4jnsgd1na2vs0mg"},{"bike_id":"c299cd09-26b4-4c27-b04d-7549f8615ce8","system_id":"levelo_inurba_marseille","lat":43.30886,"lon":5.39652,"is_reserved":false,"is_disabled":false,"rental_uris":{"android":"levelo://app?vid=c299cd09-26b4-4c27-b04d-7549f8615ce8","ios":"levelo://app?vid=c299cd09-26b4-4c27-b04d-7549f8615ce8"},"vehicle_type_id":"4","last_reported":1737932871,"current_range_meters":29600,"station_id":"ce4bh012rcd13ifvqcv0","pricing_plan_id":"cebpf4jnsgd1na2vs0mg"},{"bike_id":"3db0832d-edfd-4b33-aff4-0ff2ff4ef8be","system_id":"levelo_inurba_marseille","lat":43.26945,"lon":5.38972,"is_reserved":false,"is_disabled":false,"rental_uris":{"android":"levelo://app?vid=3db0832d-edfd-4b33-aff4-0ff2ff4ef8be","ios":"levelo://app?vid=3db0832d-edfd-4b33-aff4-0ff2ff4ef8be"},"vehicle_type_id":"4","last_reported":1737932871,"current_range_meters":21600,"station_id":"ce4bhhh2rcd13ifvqfl0","pricing_plan_id":"cebpf4jnsgd1na2vs0mg"},{"bike_id":"7858616e-de9d-4208-aae8-3dc09dcce25e","system_id":"levelo_inurba_marseille","lat":43.28378,"lon":5.38643,"is_reserved":false,"is_disabled":false,"rental_uris":{"android":"levelo://app?vid=7858616e-de9d-4208-aae8-3dc09dcce25e","ios":"levelo://app?vid=7858616e-de9d-4208-aae8-3dc09dcce25e"},"vehicle_type_id":"4","last_reported":1737932871,"current_range_meters":38800,"station_id":"ce4bh492rcd13ifvqdvg","pricing_plan_id":"cebpf4jnsgd1na2vs0mg"},{"bike_id":"e3e26aee-15e1-425c-a48f-db58aa520742","system_id":"levelo_inurba_marseille","lat":43.22485,"lon":5.35517,"is_reserved":false,"is_disabled":false,"rental_uris":{"android":"levelo://app?vid=e3e26aee-15e1-425c-a48f-db58aa520742","ios":"levelo://app?vid=e3e26aee-15e1-425c-a48f-db58aa520742"},"vehicle_type_id":"4","last_reported":1737932871,"current_range_meters":6400,"station_id":"cpo3342slgdg3j2ifvpg","pricing_plan_id":"cebpf4jnsgd1na2vs0mg"},{"bike_id":"0a8105a0-2c8b-4177-8849-aafb374d328f","system_id":"levelo_inurba_marseille","lat":43.29536,"lon":5.39023,"is_reserved":false,"is_disabled":false,"rental_uris":{"android":"levelo://app?vid=0a8105a0-2c8b-4177-8849-aafb374d328f","ios":"levelo://app?vid=0a8105a0-2c8b-4177-8849-aafb374d328f"},"vehicle_type_id":"4","last_reported":1737932871,"current_range_meters":38800,"station_id":"ce4bh3p2rcd13ifvqdp0","pricing_plan_id":"cebpf4jnsgd1na2vs0mg"},{"bike_id":"f86e0cec-38e4-471d-886e-e4807498a0ca","system_id":"levelo_inurba_marseille","lat":43.28991,"lon":5.3805,"is_reserved":false,"is_disabled":false,"rental_uris":{"android":"levelo://app?vid=f86e0cec-38e4-471d-886e-e4807498a0ca","ios":"levelo://app?vid=f86e0cec-38e4-471d-886e-e4807498a0ca"},"vehicle_type_id":"4","last_reported":1737932871,"current_range_meters":33600,"station_id":"ce4bh4p2rcd13ifvqe1g","pricing_plan_id":"cebpf4jnsgd1na2vs0mg"},{"bike_id":"07162cf2-9520-4954-8d12-669f863694e1","system_id":"levelo_inurba_marseille","lat":43.25573,"lon":5.38228,"is_reserved":false,"is_disabled":false,"rental_uris":{"android":"levelo://app?vid=07162cf2-9520-4954-8d12-669f863694e1","ios":"levelo://app?vid=07162cf2-9520-4954-8d12-669f863694e1"},"vehicle_type_id":"4","last_reported":1737932871,"current_range_meters":34800,"station_id":"ce4bhih2rcd13ifvqfs0","pricing_plan_id":"cebpf4jnsgd1na2vs0mg"},{"bike_id":"7c78a755-c7f5-4f07-a96b-621451d47948","system_id":"levelo_inurba_marseille","lat":43.29906,"lon":5.43703,"is_reserved":false,"is_disabled":false,"rental_uris":{"android":"levelo://app?vid=7c78a755-c7f5-4f07-a96b-621451d47948","ios":"levelo://app?vid=7c78a755-c7f5-4f07-a96b-621451d47948"},"vehicle_type_id":"4","last_reported":1737932871,"current_range_meters":29600,"station_id":"ce4bhpp2rcd13ifvqhfg","pricing_plan_id":"cebpf4jnsgd1na2vs0mg"},{"bike_id":"876a8084-ea9e-4406-a1ab-a36512de3c44","system_id":"levelo_inurba_marseille","lat":43.28751,"lon":5.37968,"is_reserved":false,"is_disabled":false,"rental_uris":{"android":"levelo://app?vid=876a8084-ea9e-4406-a1ab-a36512de3c44","ios":"levelo://app?vid=876a8084-ea9e-4406-a1ab-a36512de3c44"},"vehicle_type_id":"4","last_reported":1737932871,"current_range_meters":37600,"station_id":"ce4bh9p2rcd13ifvqec0","pricing_plan_id":"cebpf4jnsgd1na2vs0mg"},{"bike_id":"d89fcb16-35c8-4d14-901a-82d190bf678c","system_id":"levelo_inurba_marseille","lat":43.27897,"lon":5.38011,"is_reserved":false,"is_disabled":false,"rental_uris":{"android":"levelo://app?vid=d89fcb16-35c8-4d14-901a-82d190bf678c","ios":"levelo://app?vid=d89fcb16-35c8-4d14-901a-82d190bf678c"},"vehicle_type_id":"4","last_reported":1737932871,"current_range_meters":37600,"station_id":"ce4bhf92rcd13ifvqf50","pricing_plan_id":"cebpf4jnsgd1na2vs0mg"},{"bike_id":"a3f32f89-e6e8-4fbf-b11e-7fbea76b62a2","system_id":"levelo_inurba_marseille","lat":43.29999,"lon":5.37141,"is_reserved":false,"is_disabled":true,"rental_uris":{"android":"levelo://app?vid=a3f32f89-e6e8-4fbf-b11e-7fbea76b62a2","ios":"levelo://app?vid=a3f32f89-e6e8-4fbf-b11e-7fbea76b62a2"},"vehicle_type_id":"4","last_reported":1737932871,"current_range_meters":38800,"station_id":"ce4bgr92rcd13ifvqc7g","pricing_plan_id":"cebpf4jnsgd1na2vs0mg"},{"bike_id":"06abd14b-f1d0-466a-9339-9f380abdeb44","system_id":"levelo_inurba_marseille","lat":43.2844,"lon":5.39205,"is_reserved":false,"is_disabled":false,"rental_uris":{"android":"levelo://app?vid=06abd14b-f1d0-466a-9339-9f380abdeb44","ios":"levelo://app?vid=06abd14b-f1d0-466a-9339-9f380abdeb44"},"vehicle_type_id":"4","last_reported":1737932871,"current_range_meters":28000,"station_id":"ce4bhoh2rcd13ifvqh5g","pricing_plan_id":"cebpf4jnsgd1na2vs0mg"},{"bike_id":"684ea44b-b4bc-456a-be59-2cf6bb158b0d","system_id":"levelo_inurba_marseille","lat":43.33284,"lon":5.39152,"is_reserved":false,"is_disabled":false,"rental_uris":{"android":"levelo://app?vid=684ea44b-b4bc-456a-be59-2cf6bb158b0d","ios":"levelo://app?vid=684ea44b-b4bc-456a-be59-2cf6bb158b0d"},"vehicle_type_id":"4","last_reported":1737932871,"current_range_meters":38000,"station_id":"ce4bhr92rcd13ifvqhsg","pricing_plan_id":"cebpf4jnsgd1na2vs0mg"},{"bike_id":"3221b67b-efc2-48e4-9f82-2e0efa0b98a0","system_id":"levelo_inurba_marseille","lat":43.326547,"lon":5.409912,"is_reserved":false,"is_disabled":false,"rental_uris":{"android":"levelo://app?vid=3221b67b-efc2-48e4-9f82-2e0efa0b98a0","ios":"levelo://app?vid=3221b67b-efc2-48e4-9f82-2e0efa0b98a0"},"vehicle_type_id":"4","last_reported":1737932871,"current_range_meters":37600,"station_id":"ce4bhpp2rcd13ifvqhgg","pricing_plan_id":"cebpf4jnsgd1na2vs0mg"},{"bike_id":"a48a4fa8-387b-4ecc-bc7a-c3f07822bf47","system_id":"levelo_inurba_marseille","lat":43.270742,"lon":5.392274,"is_reserved":false,"is_disabled":true,"rental_uris":{"android":"levelo://app?vid=a48a4fa8-387b-4ecc-bc7a-c3f07822bf47","ios":"levelo://app?vid=a48a4fa8-387b-4ecc-bc7a-c3f07822bf47"},"vehicle_type_id":"4","last_reported":1737932871,"current_range_meters":0,"station_id":"","pricing_plan_id":"cebpf4jnsgd1na2vs0mg"},{"bike_id":"afc4d53a-7a00-4e31-ba93-3fdb3be5f28e","system_id":"levelo_inurba_marseille","lat":43.24092,"lon":5.37766,"is_reserved":false,"is_disabled":false,"rental_uris":{"android":"levelo://app?vid=afc4d53a-7a00-4e31-ba93-3fdb3be5f28e","ios":"levelo://app?vid=afc4d53a-7a00-4e31-ba93-3fdb3be5f28e"},"vehicle_type_id":"4","last_reported":1737932871,"current_range_meters":38800,"station_id":"ce4bhnp2rcd13ifvqgvg","pricing_plan_id":"cebpf4jnsgd1na2vs0mg"},{"bike_id":"84a1000f-ae1d-4d88-85bb-c0760d17ffdf","system_id":"levelo_inurba_marseille","lat":43.30795,"lon":5.38176,"is_reserved":false,"is_disabled":false,"rental_uris":{"android":"levelo://app?vid=84a1000f-ae1d-4d88-85bb-c0760d17ffdf","ios":"levelo://app?vid=84a1000f-ae1d-4d88-85bb-c0760d17ffdf"},"vehicle_type_id":"4","last_reported":1737932871,"current_range_meters":9200,"station_id":"ce4bgt12rcd13ifvqce0","pricing_plan_id":"cebpf4jnsgd1na2vs0mg"},{"bike_id":"a8d0380b-0a88-41c3-845f-e00ffb2cbc88","system_id":"levelo_inurba_marseille","lat":43.27989,"lon":5.40006,"is_reserved":false,"is_disabled":true,"rental_uris":{"android":"levelo://app?vid=a8d0380b-0a88-41c3-845f-e00ffb2cbc88","ios":"levelo://app?vid=a8d0380b-0a88-41c3-845f-e00ffb2cbc88"},"vehicle_type_id":"4","last_reported":1737932871,"current_range_meters":33600,"station_id":"ce4bho92rcd13ifvqh4g","pricing_plan_id":"cebpf4jnsgd1na2vs0mg"},{"bike_id":"8fd0082a-8558-471d-bd5c-8f2bb03de120","system_id":"levelo_inurba_marseille","lat":43.28753,"lon":5.40027,"is_reserved":false,"is_disabled":true,"rental_uris":{"android":"levelo://app?vid=8fd0082a-8558-471d-bd5c-8f2bb03de120","ios":"levelo://app?vid=8fd0082a-8558-471d-bd5c-8f2bb03de120"},"vehicle_type_id":"4","last_reported":1737932871,"current_range_meters":25200,"station_id":"ce4bho92rcd13ifvqh3g","pricing_plan_id":"cebpf4jnsgd1na2vs0mg"},{"bike_id":"e6ff0645-6924-4591-be0e-21a26419886f","system_id":"levelo_inurba_marseille","lat":43.30607,"lon":5.37228,"is_reserved":false,"is_disabled":false,"rental_uris":{"android":"levelo://app?vid=e6ff0645-6924-4591-be0e-21a26419886f","ios":"levelo://app?vid=e6ff0645-6924-4591-be0e-21a26419886f"},"vehicle_type_id":"4","last_reported":1737932871,"current_range_meters":27200,"station_id":"ce4bgqh2rcd13ifvqc4g","pricing_plan_id":"cebpf4jnsgd1na2vs0mg"},{"bike_id":"16e218ff-61ca-45e5-b0e8-8291f594dffc","system_id":"levelo_inurba_marseille","lat":43.25026,"lon":5.38934,"is_reserved":false,"is_disabled":false,"rental_uris":{"android":"levelo://app?vid=16e218ff-61ca-45e5-b0e8-8291f594dffc","ios":"levelo://app?vid=16e218ff-61ca-45e5-b0e8-8291f594dffc"},"vehicle_type_id":"4","last_reported":1737932871,"current_range_meters":39200,"station_id":"ce4bhgp2rcd13ifvqfd0","pricing_plan_id":"cebpf4jnsgd1na2vs0mg"},{"bike_id":"9c09af66-30f1-488d-910d-a8a905d02871","system_id":"levelo_inurba_marseille","lat":43.293769,"lon":5.379171,"is_reserved":false,"is_disabled":true,"rental_uris":{"android":"levelo://app?vid=9c09af66-30f1-488d-910d-a8a905d02871","ios":"levelo://app?vid=9c09af66-30f1-488d-910d-a8a905d02871"},"vehicle_type_id":"4","last_reported":1737932871,"current_range_meters":0,"station_id":"","pricing_plan_id":"cebpf4jnsgd1na2vs0mg"},{"bike_id":"0e291e25-7e0f-4c2e-88d1-2389fcd76767","system_id":"levelo_inurba_marseille","lat":43.2838,"lon":5.3811,"is_reserved":false,"is_disabled":false,"rental_uris":{"android":"levelo://app?vid=0e291e25-7e0f-4c2e-88d1-2389fcd76767","ios":"levelo://app?vid=0e291e25-7e0f-4c2e-88d1-2389fcd76767"},"vehicle_type_id":"4","last_reported":1737932871,"current_range_meters":38800,"station_id":"ce4bh412rcd13ifvqdr0","pricing_plan_id":"cebpf4jnsgd1na2vs0mg"},{"bike_id":"f09bb90c-8461-4f4e-962f-d88cb6e5ae33","system_id":"levelo_inurba_marseille","lat":43.30107,"lon":5.37418,"is_reserved":false,"is_disabled":false,"rental_uris":{"android":"levelo://app?vid=f09bb90c-8461-4f4e-962f-d88cb6e5ae33","ios":"levelo://app?vid=f09bb90c-8461-4f4e-962f-d88cb6e5ae33"},"vehicle_type_id":"4","last_reported":1737932871,"current_range_meters":38000,"station_id":"ce4bgs92rcd13ifvqcc0","pricing_plan_id":"cebpf4jnsgd1na2vs0mg"},{"bike_id":"bb379041-3223-4f04-83f9-2a1e2a83d87a","system_id":"levelo_inurba_marseille","lat":43.30238,"lon":5.39456,"is_reserved":false,"is_disabled":false,"rental_uris":{"android":"levelo://app?vid=bb379041-3223-4f04-83f9-2a1e2a83d87a","ios":"levelo://app?vid=bb379041-3223-4f04-83f9-2a1e2a83d87a"},"vehicle_type_id":"4","last_reported":1737932871,"current_range_meters":38800,"station_id":"ce4bh0p2rcd13ifvqd70","pricing_plan_id":"cebpf4jnsgd1na2vs0mg"},{"bike_id":"ac7b1f8b-3c2d-4c14-9633-fa81a725a0a7","system_id":"levelo_inurba_marseille","lat":43.28563,"lon":5.39895,"is_reserved":false,"is_disabled":false,"rental_uris":{"android":"levelo://app?vid=ac7b1f8b-3c2d-4c14-9633-fa81a725a0a7","ios":"levelo://app?vid=ac7b1f8b-3c2d-4c14-9633-fa81a725a0a7"},