{"last_updated":1728940116,"ttl":60,"version":"2.2","data":{"bikes":[{"bike_id":"adc68721-afb0-41b5-969e-fdbb2fbdfdf7","system_id":"levelo_inurba_marseille","lat":43.28345,"lon":5.381,"is_reserved":false,"is_disabled":false,"rental_uris":{"android":"levelo://app?vid=adc68721-afb0-41b5-969e-fdbb2fbdfdf7","ios":"levelo://app?vid=adc68721-afb0-41b5-969e-fdbb2fbdfdf7"},"vehicle_type_id":"4","last_reported":1728940116,"current_range_meters":34800,"station_id":"ce4bh412rcd13ifvqdr0","pricing_plan_id":"cebpf4jnsgd1na2vs0mg"},{"bike_id":"10530386-7ea2-4630-9cfd-fe14c55cdb58","system_id":"levelo_inurba_marseille","lat":43.31757,"lon":5.39019,"is_reserved":false,"is_disabled":false,"rental_uris":{"android":"levelo://app?vid=10530386-7ea2-4630-9cfd-fe14c55cdb58","ios":"levelo://app?vid=10530386-7ea2-4630-9cfd-fe14c55cdb58"},"vehicle_type_id":"4","last_reported":1728940116,"current_range_meters":10000,"station_id":"ce4bhqp2rcd13ifvqhng","pricing_plan_id":"cebpf4jnsgd1na2vs0mg"},{"bike_id":"0e00236d-6c78-40f2-aabc-967513e135d4","system_id":"levelo_inurba_marseille","lat":43.28701,"lon":5.37373,"is_reserved":false,"is_disabled":false,"rental_uris":{"android":"levelo://app?vid=0e00236d-6c78-40f2-aabc-967513e135d4","ios":"levelo://app?vid=0e00236d-6c78-40f2-aabc-967513e135d4"},"vehicle_type_id":"4","last_reported":1728940116,"current_range_meters":38800,"station_id":"ce4bh3p2rcd13ifvqdq0","pricing_plan_id":"cebpf4jnsgd1na2vs0mg"},{"bike_id":"cf4cabc2-1787-4d02-a606-03a61104119e","system_id":"levelo_inurba_marseille","lat":43.313283,"lon":5.397006,"is_reserved":false,"is_disabled":false,"rental_uris":{"android":"levelo://app?vid=cf4cabc2-1787-4d02-a606-03a61104119e","ios":"levelo://app?vid=cf4cabc2-1787-4d02-a606-03a61104119e"},"vehicle_type_id":"4","last_reported":1728940116,"current_range_meters":30400,"station_id":"ce4bgvp2rcd13ifvqcu0","pricing_plan_id":"cebpf4jnsgd1na2vs0mg"},{"bike_id":"ac788206-ab8f-4ef0-a827-047740674c33","system_id":"levelo_inurba_marseille","lat":43.312536,"lon":5.394484,"is_reserved":false,"is_disabled":false,"rental_uris":{"android":"levelo://app?vid=ac788206-ab8f-4ef0-a827-047740674c33","ios":"levelo://app?vid=ac788206-ab8f-4ef0-a827-047740674c33"},"vehicle_type_id":"4","last_reported":1728940116,"current_range_meters":20800,"station_id":"","pricing_plan_id":"cebpf4jnsgd1na2vs0mg"},{"bike_id":"5e412de0-c175-41d4-9e01-bd8b62064c0c","system_id":"levelo_inurba_marseille","lat":43.27373,"lon":5.36259,"is_reserved":false,"is_disabled":false,"rental_uris":{"android":"levelo://app?vid=5e412de0-c175-41d4-9e01-bd8b62064c0c","ios":"levelo://app?vid=5e412de0-c175-41d4-9e01-bd8b62064c0c"},"vehicle_type_id":"4","last_reported":1728940116,"current_range_meters":21600,"station_id":"ce4bhbh2rcd13ifvqeo0","pricing_plan_id":"cebpf4jnsgd1na2vs0mg"},{"bike_id":"ab06f5b3-3c08-4bb2-ab1c-a3aa34c68d36","system_id":"levelo_inurba_marseille","lat":43.25084,"lon":5.39514,"is_reserved":false,"is_disabled":false,"rental_uris":{"android":"levelo://app?vid=ab06f5b3-3c08-4bb2-ab1c-a3aa34c68d36","ios":"levelo://app?vid=ab06f5b3-3c08-4bb2-ab1c-a3aa34c68d36"},"vehicle_type_id":"4","last_reported":1728940116,"current_range_meters":4000,"station_id":"ce4bhm12rcd13ifvqgkg","pricing_plan_id":"cebpf4jnsgd1na2vs0mg"},{"bike_id":"6c769316-75e3-4eba-8bca-7dffbdb7e41c","system_id":"levelo_inurba_marseille","lat":43.284613,"lon":5.358978,"is_reserved":false,"is_disabled":false,"rental_uris":{"android":"levelo://app?vid=6c769316-75e3-4eba-8bca-7dffbdb7e41c","ios":"levelo://app?vid=6c769316-75e3-4eba-8bca-7dffbdb7e41c"},"vehicle_type_id":"4","last_reported":1728940116,"current_range_meters":38800,"station_id":"ce4bhah2rcd13ifvqei0","pricing_plan_id":"cebpf4jnsgd1na2vs0mg"},{"bike_id":"609b9f4a-7b05-4898-b31b-0b23a1bc6908","system_id":"levelo_inurba_marseille","lat":43.2732,"lon":5.39087,"is_reserved":false,"is_disabled":false,"rental_uris":{"android":"levelo://app?vid=609b9f4a-7b05-4898-b31b-0b23a1bc6908","ios":"levelo://app?vid=609b9f4a-7b05-4898-b31b-0b23a1bc6908"},"vehicle_type_id":"4","last_reported":1728940116,"current_range_meters":37600,"station_id":"ce4bhgp2rcd13ifvqfe0","pricing_plan_id":"cebpf4jnsgd1na2vs0mg"},{"bike_id":"9a61ab83-2bc2-4141-ad20-ea777527d108","system_id":"levelo_inurba_marseille","lat":43.27555,"lon":5.38424,"is_reserved":false,"is_disabled":false,"rental_uris":{"android":"levelo://app?vid=9a61ab83-2bc2-4141-ad20-ea777527d108","ios":"levelo://app?vid=9a61ab83-2bc2-4141-ad20-ea777527d108"},"vehicle_type_id":"4","last_reported":1728940116,"current_range_meters":10000,"station_id":"ce4bhh92rcd13ifvqfi0","pricing_plan_id":"cebpf4jnsgd1na2vs0mg"},{"bike_id":"bced8efc-368a-4d8a-981b-084d4cd96d72","system_id":"levelo_inurba_marseille","lat":43.29712,"lon":5.36607,"is_reserved":false,"is_disabled":false,"rental_uris":{"android":"levelo://app?vid=bced8efc-368a-4d8a-981b-084d4cd96d72","ios":"levelo://app?vid=bced8efc-368a-4d8a-981b-084d4cd96d72"},"vehicle_type_id":"4","last_reported":1728940116,"current_range_meters":38000,"station_id":"ce4bgn12rcd13ifvqbt0","pricing_plan_id":"cebpf4jnsgd1na2vs0mg"},{"bike_id":"0e27d2a3-05c1-4ee1-8499-176b54a59476","system_id":"levelo_inurba_marseille","lat":43.29795,"lon":5.39347,"is_reserved":false,"is_disabled":false,"rental_uris":{"android":"levelo://app?vid=0e27d2a3-05c1-4ee1-8499-176b54a59476","ios":"levelo://app?vid=0e27d2a3-05c1-4ee1-8499-176b54a59476"},"vehicle_type_id":"4","last_reported":1728940116,"current_range_meters":38800,"station_id":"chh1huq6cuj3fo74tm60","pricing_plan_id":"cebpf4jnsgd1na2vs0mg"},{"bike_id":"462d97be-2e9e-49fe-bd45-7f5ff0b6b015","system_id":"levelo_inurba_marseille","lat":43.29876,"lon":5.39743,"is_reserved":false,"is_disabled":false,"rental_uris":{"android":"levelo://app?vid=462d97be-2e9e-49fe-bd45-7f5ff0b6b015","ios":"levelo://app?vid=462d97be-2e9e-49fe-bd45-7f5ff0b6b015"},"vehicle_type_id":"4","last_reported":1728940116,"current_range_meters":34800,"station_id":"ce4bh0h2rcd13ifvqd50","pricing_plan_id":"cebpf4jnsgd1na2vs0mg"},{"bike_id":"aedc2950-8b7b-4e89-9368-59c434adb633","system_id":"levelo_inurba_marseille","lat":43.28277,"lon":5.35071,"is_reserved":false,"is_disabled":false,"rental_uris":{"android":"levelo://app?vid=aedc2950-8b7b-4e89-9368-59c434adb633","ios":"levelo://app?vid=aedc2950-8b7b-4e89-9368-59c434adb633"},"vehicle_type_id":"4","last_reported":1728940116,"current_range_meters":38800,"station_id":"ce4bhbp2rcd13ifvqerg","pricing_plan_id":"cebpf4jnsgd1na2vs0mg"},{"bike_id":"59a172f1-e0bf-4188-9d19-523edf222795","system_id":"levelo_inurba_marseille","lat":43.30358,"lon":5.41878,"is_reserved":false,"is_disabled":false,"rental_uris":{"android":"levelo://app?vid=59a172f1-e0bf-4188-9d19-523edf222795","ios":"levelo://app?vid=59a172f1-e0bf-4188-9d19-523edf222795"},"vehicle_type_id":"4","last_reported":1728940116,"current_range_meters":37600,"station_id":"ce4bgk12rcd13ifvqbi0","pricing_plan_id":"cebpf4jnsgd1na2vs0mg"},{"bike_id":"4fb899fb-c7f7-4299-8856-d588065fcc96","system_id":"levelo_inurba_marseille","lat":43.31727,"lon":5.42401,"is_reserved":false,"is_disabled":false,"rental_uris":{"android":"levelo://app?vid=4fb899fb-c7f7-4299-8856-d588065fcc96","ios":"levelo://app?vid=4fb899fb-c7f7-4299-8856-d588065fcc96"},"vehicle_type_id":"4","last_reported":1728940116,"current_range_meters":38800,"station_id":"ce4bhp92rcd13ifvqhbg","pricing_plan_id":"cebpf4jnsgd1na2vs0mg"},{"bike_id":"58f13e0b-f545-4df4-bc1f-4c6e95704afc","system_id":"levelo_inurba_marseille","lat":43.28416,"lon":5.37509,"is_reserved":false,"is_disabled":false,"rental_uris":{"android":"levelo://app?vid=58f13e0b-f545-4df4-bc1f-4c6e95704afc","ios":"levelo://app?vid=58f13e0b-f545-4df4-bc1f-4c6e95704afc"},"vehicle_type_id":"4","last_reported":1728940116,"current_range_meters":38800,"station_id":"ce4bh412rcd13ifvqds0","pricing_plan_id":"cebpf4jnsgd1na2vs0mg"},{"bike_id":"dfe8030c-37d8-4b9c-a9e4-185e78aae511","system_id":"levelo_inurba_marseille","lat":43.31756,"lon":5.39022,"is_reserved":false,"is_disabled":false,"rental_uris":{"android":"levelo://app?vid=dfe8030c-37d8-4b9c-a9e4-185e78aae511","ios":"levelo://app?vid=dfe8030c-37d8-4b9c-a9e4-185e78aae511"},"vehicle_type_id":"4","last_reported":1728940116,"current_range_meters":38800,"station_id":"ce4bhqp2rcd13ifvqhng","pricing_plan_id":"cebpf4jnsgd1na2vs0mg"},{"bike_id":"1c5b8ae7-786d-445b-b9e1-97874f67f0a3","system_id":"levelo_inurba_marseille","lat":43.30778,"lon":5.37648,"is_reserved":false,"is_disabled":false,"rental_uris":{"android":"levelo://app?vid=1c5b8ae7-786d-445b-b9e1-97874f67f0a3","ios":"levelo://app?vid=1c5b8ae7-786d-445b-b9e1-97874f67f0a3"},"vehicle_type_id":"4","last_reported":1728940116,"current_range_meters":38400,"station_id":"ce4bgv92rcd13ifvqcq0","pricing_plan_id":"cebpf4jnsgd1na2vs0mg"},{"bike_id":"5d12803c-19db-45e4-a857-1fff9be49f25","system_id":"levelo_inurba_marseille","lat":43.25932,"lon":5.40911,"is_reserved":false,"is_disabled":false,"rental_uris":{"android":"levelo://app?vid=5d12803c-19db-45e4-a857-1fff9be49f25","ios":"levelo://app?vid=5d12803c-19db-45e4-a857-1fff9be49f25"},"vehicle_type_id":"4","last_reported":1728940116,"current_range_meters":38800,"station_id":"ce4bhm92rcd13ifvqglg","pricing_plan_id":"cebpf4jnsgd1na2vs0mg"},{"bike_id":"009e1944-5320-46ff-a5bd-7f170a6cc59c","system_id":"levelo_inurba_marseille","lat":43.31061,"lon":5.38337,"is_reserved":false,"is_disabled":false,"rental_uris":{"android":"levelo://app?vid=009e1944-5320-46ff-a5bd-7f170a6cc59c","ios":"levelo://app?vid=009e1944-5320-46ff-a5bd-7f170a6cc59c"},"vehicle_type_id":"4","last_reported":1728940116,"current_range_meters":38800,"station_id":"ce4bgv92rcd13ifvqcr0","pricing_plan_id":"cebpf4jnsgd1na2vs0mg"},{"bike_id":"73f9a39c-7690-4438-b647-f6ccb95b7ed4","system_id":"levelo_inurba_marseille","lat":43.32491,"lon":5.36563,"is_reserved":false,"is_disabled":false,"rental_uris":{"android":"levelo://app?vid=73f9a39c-7690-4438-b647-f6ccb95b7ed4","ios":"levelo://app?vid=73f9a39c-7690-4438-b647-f6ccb95b7ed4"},"vehicle_type_id":"4","last_reported":1728940116,"current_range_meters":19600,"station_id":"ce4bhs12rcd13ifvqhvg","pricing_plan_id":"cebpf4jnsgd1na2vs0mg"},{"bike_id":"2c9ed3c2-8f06-4c6d-9374-4d34c0d3ad6b","system_id":"levelo_inurba_marseille","lat":43.32351,"lon":5.38179,"is_reserved":false,"is_disabled":false,"rental_uris":{"android":"levelo://app?vid=2c9ed3c2-8f06-4c6d-9374-4d34c0d3ad6b","ios":"levelo://app?vid=2c9ed3c2-8f06-4c6d-9374-4d34c0d3ad6b"},"vehicle_type_id":"4","last_reported":1728940116,"current_range_meters":25200,"station_id":"","pricing_plan_id":"cebpf4jnsgd1na2vs0mg"},{"bike_id":"26e58b0d-5aef-4b47-aa68-e5886d6ed6bc","system_id":"levelo_inurba_marseille","lat":43.28936,"lon":5.39627,"is_reserved":false,"is_disabled":false,"rental_uris":{"android":"levelo://app?vid=26e58b0d-5aef-4b47-aa68-e5886d6ed6bc","ios":"levelo://app?vid=26e58b0d-5aef-4b47-aa68-e5886d6ed6bc"},"vehicle_type_id":"4","last_reported":1728940116,"current_range_meters":37600,"station_id":"ce4bh3h2rcd13ifvqdn0","pricing_plan_id":"cebpf4jnsgd1na2vs0mg"},{"bike_id":"0d127f74-006a-44b7-8b7b-0d49793b8cdc","system_id":"levelo_inurba_marseille","lat":43.305249,"lon":5.367145,"is_reserved":false,"is_disabled":false,"rental_uris":{"android":"levelo://app?vid=0d127f74-006a-44b7-8b7b-0d49793b8cdc","ios":"levelo://app?vid=0d127f74-006a-44b7-8b7b-0d49793b8cdc"},"vehicle_type_id":"4","last_reported":1728940116,"current_range_meters":400,"station_id":"ce4bgrp2rcd13ifvqc9g","pricing_plan_id":"cebpf4jnsgd1na2vs0mg"},{"bike_id":"645b3288-6894-4d73-a299-7aade8581933","system_id":"levelo_inurba_marseille","lat":43.29276,"lon":5.38442,"is_reserved":false,"is_disabled":false,"rental_uris":{"android":"levelo://app?vid=645b3288-6894-4d73-a299-7aade8581933","ios":"levelo://app?vid=645b3288-6894-4d73-a299-7aade8581933"},"vehicle_type_id":"4","last_reported":1728940116,"current_range_meters":38800,"station_id":"ce4bh692rcd13ifvqea0","pricing_plan_id":"cebpf4jnsgd1na2vs0mg"},{"bike_id":"5292987e-66b0-490b-9008-873f9af3c4a1","system_id":"levelo_inurba_marseille","lat":43.25872,"lon":5.39904,"is_reserved":false,"is_disabled":false,"rental_uris":{"android":"levelo://app?vid=5292987e-66b0-490b-9008-873f9af3c4a1","ios":"levelo://app?vid=5292987e-66b0-490b-9008-873f9af3c4a1"},"vehicle_type_id":"4","last_reported":1728940116,"current_range_meters":38800,"station_id":"ce4bhl92rcd13ifvqghg","pricing_plan_id":"cebpf4jnsgd1na2vs0mg"},{"bike_id":"1c9343e4-7b78-402e-b1fe-6599c269887e","system_id":"levelo_inurba_marseille","lat":43.314515,"lon":5.37384,"is_reserved":false,"is_disabled":false,"rental_uris":{"android":"levelo://app?vid=1c9343e4-7b78-402e-b1fe-6599c269887e","ios":"levelo://app?vid=1c9343e4-7b78-402e-b1fe-6599c269887e"},"vehicle_type_id":"4","last_reported":1728940116,"current_range_meters":26000,"station_id":"","pricing_plan_id":"cebpf4jnsgd1na2vs0mg"},{"bike_id":"23830525-4172-48f3-a885-385ff0eba2f3","system_id":"levelo_inurba_marseille","lat":43.301386,"lon":5.387777,"is_reserved":false,"is_disabled":false,"rental_uris":{"android":"levelo://app?vid=23830525-4172-48f3-a885-385ff0eba2f3","ios":"levelo://app?vid=23830525-4172-48f3-a885-385ff0eba2f3"},"vehicle_type_id":"4","last_reported":1728940116,"current_range_meters":9200,"station_id":"ce4bghh2rcd13ifvqb60","pricing_plan_id":"cebpf4jnsgd1na2vs0mg"},{"bike_id":"0f436496-4da5-49a1-8b18-624ffd1d6246","system_id":"levelo_inurba_marseille","lat":43.28463,"lon":5.35884,"is_reserved":false,"is_disabled":false,"rental_uris":{"android":"levelo://app?vid=0f436496-4da5-49a1-8b18-624ffd1d6246","ios":"levelo://app?vid=0f436496-4da5-49a1-8b18-624ffd1d6246"},"vehicle_type_id":"4","last_reported":1728940116,"current_range_meters":35600,"station_id":"ce4bhah2rcd13ifvqei0","pricing_plan_id":"cebpf4jnsgd1na2vs0mg"},{"bike_id":"a1fadbf3-9314-4264-9d24-d4ec99f0e426","system_id":"levelo_inurba_marseille","lat":43.29028,"lon":5.38627,"is_reserved":false,"is_disabled":false,"rental_uris":{"android":"levelo://app?vid=a1fadbf3-9314-4264-9d24-d4ec99f0e426","ios":"levelo://app?vid=a1fadbf3-9314-4264-9d24-d4ec99f0e426"},"vehicle_type_id":"4","last_reported":1728940116,"current_range_meters":38800,"station_id":"ce4bh4p2rcd13ifvqe0g","pricing_plan_id":"cebpf4jnsgd1na2vs0mg"},{"bike_id":"96c6b352-e415-4334-95ac-118d4329f451","system_id":"levelo_inurba_marseille","lat":43.30601,"lon":5.3723,"is_reserved":false,"is_disabled":false,"rental_uris":{"android":"levelo://app?vid=96c6b352-e415-4334-95ac-118d4329f451","ios":"levelo://app?vid=96c6b352-e415-4334-95ac-118d4329f451"},"vehicle_type_id":"4","last_reported":1728940116,"current_range_meters":37600,"station_id":"ce4bgqh2rcd13ifvqc4g","pricing_plan_id":"cebpf4jnsgd1na2vs0mg"},{"bike_id":"b35fcd0d-0b0b-4c33-b438-02cf58ed0ee3","system_id":"levelo_inurba_marseille","lat":43.27557,"lon":5.38406,"is_reserved":false,"is_disabled":false,"rental_uris":{"android":"levelo://app?vid=b35fcd0d-0b0b-4c33-b438-02cf58ed0ee3","ios":"levelo://app?vid=b35fcd0d-0b0b-4c33-b438-02cf58ed0ee3"},"vehicle_type_id":"4","last_reported":1728940116,"current_range_meters":38800,"station_id":"ce4bhh92rcd13ifvqfi0","pricing_plan_id":"cebpf4jnsgd1na2vs0mg"},{"bike_id":"2b6e12fe-4c4d-42ab-a8ff-87cb4bcb51c4","system_id":"levelo_inurba_marseille","lat":43.2896,"lon":5.36453,"is_reserved":false,"is_disabled":false,"rental_uris":{"android":"levelo://app?vid=2b6e12fe-4c4d-42ab-a8ff-87cb4bcb51c4","ios":"levelo://app?vid=2b6e12fe-4c4d-42ab-a8ff-87cb4bcb51c4"},"vehicle_type_id":"4","last_reported":1728940116,"current_range_meters":38400,"station_id":"ce4bgl92rcd13ifvqbq0","pricing_plan_id":"cebpf4jnsgd1na2vs0mg"},{"bike_id":"0aa0a823-4192-4039-a41f-8b7be20c611d","system_id":"levelo_inurba_marseille","lat":43.31502,"lon":5.37309,"is_reserved":false,"is_disabled":false,"rental_uris":{"android":"levelo://app?vid=0aa0a823-4192-4039-a41f-8b7be20c611d","ios":"levelo://app?vid=0aa0a823-4192-4039-a41f-8b7be20c611d"},"vehicle_type_id":"4","last_reported":1728940116,"current_range_meters":10800,"station_id":"ce4bgt12rcd13ifvqcd0","pricing_plan_id":"cebpf4jnsgd1na2vs0mg"},{"bike_id":"2b85a6e0-def7-4a19-ab1f-dffd44eebd82","system_id":"levelo_inurba_marseille","lat":43.32373,"lon":5.38878,"is_reserved":false,"is_disabled":false,"rental_uris":{"android":"levelo://app?vid=2b85a6e0-def7-4a19-ab1f-dffd44eebd82","ios":"levelo://app?vid=2b85a6e0-def7-4a19-ab1f-dffd44eebd82"},"vehicle_type_id":"4","last_reported":1728940116,"current_range_meters":13600,"station_id":"ce4bhqp2rcd13ifvqhog","pricing_plan_id":"cebpf4jnsgd1na2vs0mg"},{"bike_id":"b33fb764-46a4-49bb-8826-da12c1c9f740","system_id":"levelo_inurba_marseille","lat":43.2869,"lon":5.37389,"is_reserved":false,"is_disabled":false,"rental_uris":{"android":"levelo://app?vid=b33fb764-46a4-49bb-8826-da12c1c9f740","ios":"levelo://app?vid=b33fb764-46a4-49bb-8826-da12c1c9f740"},"vehicle_type_id":"4","last_reported":1728940116,"current_range_meters":27200,"station_id":"ce4bh3p2rcd13ifvqdq0","pricing_plan_id":"cebpf4jnsgd1na2vs0mg"},{"bike_id":"9212eb05-896b-452a-8023-968a3a350064","system_id":"levelo_inurba_marseille","lat":43.268052,"lon":5.402629,"is_reserved":false,"is_disabled":false,"rental_uris":{"android":"levelo://app?vid=9212eb05-896b-452a-8023-968a3a350064","ios":"levelo://app?vid=9212eb05-896b-452a-8023-968a3a350064"},"vehicle_type_id":"4","last_reported":1728940116,"current_range_meters":4400,"station_id":"ce501612rcd8frsf0b60","pricing_plan_id":"cebpf4jnsgd1na2vs0mg"},{"bike_id":"02d20c80-1832-49a8-b20c-d886b909e3b2","system_id":"levelo_inurba_marseille","lat":43.29249,"lon":5.40917,"is_reserved":false,"is_disabled":false,"rental_uris":{"android":"levelo://app?vid=02d20c80-1832-49a8-b20c-d886b909e3b2","ios":"levelo://app?vid=02d20c80-1832-49a8-b20c-d886b909e3b2"},"vehicle_type_id":"4","last_reported":1728940116,"current_range_meters":35600,"station_id":"ce4bh192rcd13ifvqdc0","pricing_plan_id":"cebpf4jnsgd1na2vs0mg"},{"bike_id":"1eb0d291-c980-43c3-897c-b678fe3f7bcf","system_id":"levelo_inurba_marseille","lat":43.32343,"lon":5.40624,"is_reserved":false,"is_disabled":false,"rental_uris":{"android":"levelo://app?vid=1eb0d291-c980-43c3-897c-b678fe3f7bcf","ios":"levelo://app?vid=1eb0d291-c980-43c3-897c-b678fe3f7bcf"},"vehicle_type_id":"4","last_reported":1728940116,"current_range_meters":33600,"station_id":"ce4bhq92rcd13ifvqhjg","pricing_plan_id":"cebpf4jnsgd1na2vs0mg"},{"bike_id":"16108f92-6bb6-4625-8e86-043bb5e3efc3","system_id":"levelo_inurba_marseille","lat":43.33605,"lon":5.41025,"is_reserved":false,"is_disabled":false,"rental_uris":{"android":"levelo://app?vid=16108f92-6bb6-4625-8e86-043bb5e3efc3","ios":"levelo://app?vid=16108f92-6bb6-4625-8e86-043bb5e3efc3"},"vehicle_type_id":"4","last_reported":1728940116,"current_range_meters":15200,"station_id":"ce4bhqh2rcd13ifvqhmg","pricing_plan_id":"cebpf4jnsgd1na2vs0mg"},{"bike_id":"38f8e82f-b32d-4209-9f63-50ee9fadf9e5","system_id":"levelo_inurba_marseille","lat":43.27073,"lon":5.42284,"is_reserved":false,"is_disabled":false,"rental_uris":{"android":"levelo://app?vid=38f8e82f-b32d-4209-9f63-50ee9fadf9e5","ios":"levelo://app?vid=38f8e82f-b32d-4209-9f63-50ee9fadf9e5"},"vehicle_type_id":"4","last_reported":1728940116,"current_range_meters":11600,"station_id":"ce4bhk92rcd13ifvqgb0","pricing_plan_id":"cebpf4jnsgd1na2vs0mg"},{"bike_id":"fdfebcf8-fb17-4b40-8a78-d74a03d62b1a","system_id":"levelo_inurba_marseille","lat":43.23177,"lon":5.39985,"is_reserved":false,"is_disabled":false,"rental_uris":{"android":"levelo://app?vid=fdfebcf8-fb17-4b40-8a78-d74a03d62b1a","ios":"levelo://app?vid=fdfebcf8-fb17-4b40-8a78-d74a03d62b1a"},"vehicle_type_id":"4","last_reported":1728940116,"current_range_meters":29600,"station_id":"ce4bhn12rcd13ifvqgqg","pricing_plan_id":"cebpf4jnsgd1na2vs0mg"},{"bike_id":"06841b70-b5e4-460e-841a-12ab90e231d7","system_id":"levelo_inurba_marseille","lat":43.28712,"lon":5.37936,"is_reserved":false,"is_disabled":false,"rental_uris":{"android":"levelo://app?vid=06841b70-b5e4-460e-841a-12ab90e231d7","ios":"levelo://app?vid=06841b70-b5e4-460e-841a-12ab90e231d7"},"vehicle_type_id":"4","last_reported":1728940116,"current_range_meters":17200,"station_id":"ce4bh9p2rcd13ifvqec0","pricing_plan_id":"cebpf4jnsgd1na2vs0mg"},{"bike_id":"4acaa12a-59a0-401c-a35a-9d542ce22a01","system_id":"levelo_inurba_marseille","lat":43.29895,"lon":5.43667,"is_reserved":false,"is_disabled":false,"rental_uris":{"android":"levelo://app?vid=4acaa12a-59a0-401c-a35a-9d542ce22a01","ios":"levelo://app?vid=4acaa12a-59a0-401c-a35a-9d542ce22a01"},"vehicle_type_id":"4","last_reported":1728940116,"current_range_meters":16800,"station_id":"ce4bhpp2rcd13ifvqhfg","pricing_plan_id":"cebpf4jnsgd1na2vs0mg"},{"bike_id":"27521189-a10b-488a-82b8-973812fa95e1","system_id":"levelo_inurba_marseille","lat":43.32494,"lon":5.36594,"is_reserved":false,"is_disabled":false,"rental_uris":{"android":"levelo://app?vid=27521189-a10b-488a-82b8-973812fa95e1","ios":"levelo://app?vid=27521189-a10b-488a-82b8-973812fa95e1"},"vehicle_type_id":"4","last_reported":1728940116,"current_range_meters":38800,"station_id":"ce4bhs12rcd13ifvqhvg","pricing_plan_id":"cebpf4jnsgd1na2vs0mg"},{"bike_id":"814895ca-277e-4570-97a9-3aa7448ac8e9","system_id":"levelo_inurba_marseille","lat":43.2987,"lon":5.39729,"is_reserved":false,"is_disabled":false,"rental_uris":{"android":"levelo://app?vid=814895ca-277e-4570-97a9-3aa7448ac8e9","ios":"levelo://app?vid=814895ca-277e-4570-97a9-3aa7448ac8e9"},"vehicle_type_id":"4","last_reported":1728940116,"current_range_meters":6800,"station_id":"ce4bh0h2rcd13ifvqd50","pricing_plan_id":"cebpf4jnsgd1na2vs0mg"},{"bike_id":"e581f6d3-14ea-4c5b-a54e-de5866a1660a","system_id":"levelo_inurba_marseille","lat":43.2871,"lon":5.37918,"is_reserved":false,"is_disabled":false,"rental_uris":{"android":"levelo://app?vid=e581f6d3-14ea-4c5b-a54e-de5866a1660a","ios":"levelo://app?vid=e581f6d3-14ea-4c5b-a54e-de5866a1660a"},"vehicle_type_id":"4","last_reported":1728940116,"current_range_meters":12400,"station_id":"ce4bh9p2rcd13ifvqec0","pricing_plan_id":"cebpf4jnsgd1na2vs0mg"},{"bike_id":"340002eb-f659-433d-885b-50b16d2bf94c","system_id":"levelo_inurba_marseille","lat":43.28616,"lon":5.3511,"is_reserved":false,"is_disabled":false,"rental_uris":{"android":"levelo://app?vid=340002eb-f659-433d-885b-50b16d2bf94c","ios":"levelo://app?vid=340002eb-f659-433d-885b-50b16d2bf94c"},"vehicle_type_id":"4","last_reported":1728940116,"current_range_meters":38800,"station_id":"ce4bhch2rcd13ifvqeug","pricing_plan_id":"cebpf4jnsgd1na2vs0mg"},{"bike_id":"ec60b8aa-794d-41bc-b6da-9d6f8437a1a8","system_id":"levelo_inurba_marseille","lat":43.28045,"lon":5.36945,"is_reserved":false,"is_disabled":false,"rental_uris":{"android":"levelo://app?vid=ec60b8aa-794d-41bc-b6da-9d6f8437a1a8","ios":"levelo://app?vid=ec60b8aa-794d-41bc-b6da-9d6f8437a1a8"},"vehicle_type_id":"4","last_reported":1728940116,"current_range_meters":2000,"station_id":"ce4bha12rcd13ifvqef0","pricing_plan_id":"cebpf4jnsgd1na2vs0mg"},{"bike_id":"09a2e575-ef21-47f1-afdd-66b4617de5a0","system_id":"levelo_inurba_marseille","lat":43.28074,"lon":5.39658,"is_reserved":false,"is_disabled":false,"rental_uris":{"android":"levelo://app?vid=09a2e575-ef21-47f1-afdd-66b4617de5a0","ios":"levelo://app?vid=09a2e575-ef21-47f1-afdd-66b4617de5a0"},"vehicle_type_id":"4","last_reported":1728940116,"current_range_meters":38800,"station_id":"ce4bho12rcd13ifvqh2g","pricing_plan_id":"cebpf4jnsgd1na2vs0mg"},{"bike_id":"4e72beeb-d36b-4bf1-8fa9-9fdf347764a5","system_id":"levelo_inurba_marseille","lat":43.28437,"lon":5.39196,"is_reserved":false,"is_disabled":false,"rental_uris":{"android":"levelo://app?vid=4e72beeb-d36b-4bf1-8fa9-9fdf347764a5","ios":"levelo://app?vid=4e72beeb-d36b-4bf1-8fa9-9fdf347764a5"},"vehicle_type_id":"4","last_reported":1728940116,"current_range_meters":5600,"station_id":"ce4bhoh2rcd13ifvqh5g","pricing_plan_id":"cebpf4jnsgd1na2vs0mg"},{"bike_id":"4482dbd3-0d31-4b43-bbd3-5cfbb130291d","system_id":"levelo_inurba_marseille","lat":43.23191,"lon":5.35547,"is_reserved":false,"is_disabled":false,"rental_uris":{"android":"levelo://app?vid=4482dbd3-0d31-4b43-bbd3-5cfbb130291d","ios":"levelo://app?vid=4482dbd3-0d31-4b43-bbd3-5cfbb130291d"},"vehicle_type_id":"4","last_reported":1728940116,"current_range_meters":3200,"station_id":"ce4bhu92rcd13ifvqi70","pricing_plan_id":"cebpf4jnsgd1na2vs0mg"},{"bike_id":"7321d13f-3acd-4930-bb0a-cec99f4b323e","system_id":"levelo_inurba_marseille","lat":43.29904,"lon":5.38148,"is_reserved":false,"is_disabled":false,"rental_uris":{"android":"levelo://app?vid=7321d13f-3acd-4930-bb0a-cec99f4b323e","ios":"levelo://app?vid=7321d13f-3acd-4930-bb0a-cec99f4b323e"},"vehicle_type_id":"4","last_reported":1728940116,"current_range_meters":38800,"station_id":"ce4bgj12rcd13ifvqbc0","pricing_plan_id":"cebpf4jnsgd1na2vs0mg"},{"bike_id":"c3d7c0eb-3d86-4cb2-9661-09e5ae2b8029","system_id":"levelo_inurba_marseille","lat":43.279,"lon":5.38,"is_reserved":false,"is_disabled":false,"rental_uris":{"android":"levelo://app?vid=c3d7c0eb-3d86-4cb2-9661-09e5ae2b8029","ios":"levelo://app?vid=c3d7c0eb-3d86-4cb2-9661-09e5ae2b8029"},"vehicle_type_id":"4","last_reported":1728940116,"current_range_meters":20000,"station_id":"ce4bhf92rcd13ifvqf50","pricing_plan_id":"cebpf4jnsgd1na2vs0mg"},{"bike_id":"d68a13a4-a346-4048-9044-ed61653ff321","system_id":"levelo_inurba_marseille","lat":43.32661,"lon":5.40992,"is_reserved":false,"is_disabled":false,"rental_uris":{"android":"levelo://app?vid=d68a13a4-a346-4048-9044-ed61653ff321","ios":"levelo://app?vid=d68a13a4-a346-4048-9044-ed61653ff321"},"vehicle_type_id":"4","last_reported":1728940116,"current_range_meters":2000,"station_id":"ce4bhpp2rcd13ifvqhgg","pricing_plan_id":"cebpf4jnsgd1na2vs0mg"},{"bike_id":"dbaf8835-7f44-4909-87a4-bceca8ad21af","system_id":"levelo_inurba_marseille","lat":43.26486,"lon":5.3954,"is_reserved":false,"is_disabled":false,"rental_uris":{"android":"levelo://app?vid=dbaf8835-7f44-4909-87a4-bceca8ad21af","ios":"levelo://app?vid=dbaf8835-7f44-4909-87a4-bceca8ad21af"},"vehicle_type_id":"4","last_reported":1728940116,"current_range_meters":32000,"station_id":"ce4bhi12rcd13ifvqfq0","pricing_plan_id":"cebpf4jnsgd1na2vs0mg"},{"bike_id":"7788dc4b-4f54-41ed-a1d3-a1984d58b388","system_id":"levelo_inurba_marseille","lat":43.28617,"lon":5.35106,"is_reserved":false,"is_disabled":false,"rental_uris":{"android":"levelo://app?vid=7788dc4b-4f54-41ed-a1d3-a1984d58b388","ios":"levelo://app?vid=7788dc4b-4f54-41ed-a1d3-a1984d58b388"},"vehicle_type_id":"4","last_reported":1728940116,"current_range_meters":38800,"station_id":"ce4bhch2rcd13ifvqeug","pricing_plan_id":"cebpf4jnsgd1na2vs0mg"},{"bike_id":"995213a4-b0e8-4737-b0b6-5f59e564978e","system_id":"levelo_inurba_marseille","lat":43.33603,"lon":5.41025,"is_reserved":false,"is_disabled":false,"rental_uris":{"android":"levelo://app?vid=995213a4-b0e8-4737-b0b6-5f59e564978e","ios":"levelo://app?vid=995213a4-b0e8-4737-b0b6-5f59e564978e"},"vehicle_type_id":"4","last_reported":1728940116,"current_range_meters":12800,"station_id":"ce4bhqh2rcd13ifvqhmg","pricing_plan_id":"cebpf4jnsgd1na2vs0mg"},{"bike_id":"b178b062-35cd-4f92-91db-f4ae171fe0ea","system_id":"levelo_inurba_marseille","lat":43.292851,"lon":5.368404,"is_reserved":false,"is_disabled":false,"rental_uris":{"android":"levelo://app?vid=b178b062-35cd-4f92-91db-f4ae171fe0ea","ios":"levelo://app?vid=b178b062-35cd-4f92-91db-f4ae171fe0ea"},"vehicle_type_id":"4","last_reported":1728940116,"current_range_meters":12800,"station_id":"","pricing_plan_id":"cebpf4jnsgd1na2vs0mg"},{"bike_id":"252d1b20-655d-4314-9684-3fb736d1a505","system_id":"levelo_inurba_marseille","lat":43.30881,"lon":5.39632,"is_reserved":false,"is_disabled":false,"rental_uris":{"android":"levelo://app?vid=252d1b20-655d-4314-9684-3fb736d1a505","ios":"levelo://app?vid=252d1b20-655d-4314-9684-3fb736d1a505"},"vehicle_type_id":"4","last_reported":1728940116,"current_range_meters":38800,"station_id":"ce4bh012rcd13ifvqcv0","pricing_plan_id":"cebpf4jnsgd1na2vs0mg"},{"bike_id":"d302fb41-2c47-4a95-b7f9-3d90b4fa95cf","system_id":"levelo_inurba_marseille","lat":43.26558,"lon":5.37287,"is_reserved":false,"is_disabled":false,"rental_uris":{"android":"levelo://app?vid=d302fb41-2c47-4a95-b7f9-3d90b4fa95cf","ios":"levelo://app?vid=d302fb41-2c47-4a95-b7f9-3d90b4fa95cf"},"vehicle_type_id":"4","last_reported":1728940116,"current_range_meters":18800,"station_id":"ce4bhg12rcd13ifvqf70","pricing_plan_id":"cebpf4jnsgd1na2vs0mg"},{"bike_id":"b17bd6a0-4c14-4c8c-96d0-fdc1bec84ba5","system_id":"levelo_inurba_marseille","lat":43.31062,"lon":5.38348,"is_reserved":false,"is_disabled":false,"rental_uris":{"android":"levelo://app?vid=b17bd6a0-4c14-4c8c-96d0-fdc1bec84ba5","ios":"levelo://app?vid=b17bd6a0-4c14-4c8c-96d0-fdc1bec84ba5"},"vehicle_type_id":"4","last_reported":1728940116,"current_range_meters":11200,"station_id":"ce4bgv92rcd13ifvqcr0","pricing_plan_id":"cebpf4jnsgd1na2vs0mg"},{"bike_id":"a0004b86-0108-4a59-8420-8474f739e195","system_id":"levelo_inurba_marseille","lat":43.31765,"lon":5.39015,"is_reserved":false,"is_disabled":false,"rental_uris":{"android":"levelo://app?vid=a0004b86-0108-4a59-8420-8474f739e195","ios":"levelo://app?vid=a0004b86-0108-4a59-8420-8474f739e195"},"vehicle_type_id":"4","last_reported":1728940116,"current_range_meters":38400,"station_id":"ce4bhqp2rcd13ifvqhng","pricing_plan_id":"cebpf4jnsgd1na2vs0mg"},{"bike_id":"c0670d96-b06e-446b-a07e-6b5eeebc59d7","system_id":"levelo_inurba_marseille","lat":43.274948,"lon":5.424466,"is_reserved":false,"is_disabled":false,"rental_uris":{"android":"levelo://app?vid=c0670d96-b06e-446b-a07e-6b5eeebc59d7","ios":"levelo://app?vid=c0670d96-b06e-446b-a07e-6b5eeebc59d7"},"vehicle_type_id":"4","last_reported":1728940116,"current_range_meters":15200,"station_id":"ce4bhn92rcd13ifvqgrg","pricing_plan_id":"cebpf4jnsgd1na2vs0mg"},{"bike_id":"fc75fa28-69db-4cb3-85fb-3c7ea9927cfe","system_id":"levelo_inurba_marseille","lat":43.24667,"lon":5.38157,"is_reserved":false,"is_disabled":false,"rental_uris":{"android":"levelo://app?vid=fc75fa28-69db-4cb3-85fb-3c7ea9927cfe","ios":"levelo://app?vid=fc75fa28-69db-4cb3-85fb-3c7ea9927cfe"},"vehicle_type_id":"4","last_reported":1728940116,"current_range_meters":19600,"station_id":"ce4bhih2rcd13ifvqfr0","pricing_plan_id":"cebpf4jnsgd1na2vs0mg"},{"bike_id":"66f19c86-2913-454e-ad63-aada6244fa0f","system_id":"levelo_inurba_marseille","lat":43.30963,"lon":5.39029,"is_reserved":false,"is_disabled":false,"rental_uris":{"android":"levelo://app?vid=66f19c86-2913-454e-ad63-aada6244fa0f","ios":"levelo://app?vid=66f19c86-2913-454e-ad63-aada6244fa0f"},"vehicle_type_id":"4","last_reported":1728940116,"current_range_meters":38000,"station_id":"ce4bgup2rcd13ifvqco0","pricing_plan_id":"cebpf4jnsgd1na2vs0mg"},{"bike_id":"a0d3d324-fa7e-4417-aee7-85012ecab44e","system_id":"levelo_inurba_marseille","lat":43.3421,"lon":5.4455,"is_reserved":false,"is_disabled":false,"rental_uris":{"android":"levelo://app?vid=a0d3d324-fa7e-4417-aee7-85012ecab44e","ios":"levelo://app?vid=a0d3d324-fa7e-4417-aee7-85012ecab44e"},"vehicle_type_id":"4","last_reported":1728940116,"current_range_meters":26800,"station_id":"","pricing_plan_id":"cebpf4jnsgd1na2vs0mg"},{"bike_id":"724c8533-6c2a-4d58-9645-9dc7cc8cde49","system_id":"levelo_inurba_marseille","lat":43.27179,"lon":5.40996,"is_reserved":false,"is_disabled":false,"rental_uris":{"android":"levelo://app?vid=724c8533-6c2a-4d58-9645-9dc7cc8cde49","ios":"levelo://app?vid=724c8533-6c2a-4d58-9645-9dc7cc8cde49"},"vehicle_type_id":"4","last_reported":1728940116,"current_range_meters":38800,"station_id":"ce4bhl12rcd13ifvqgf0","pricing_plan_id":"cebpf4jnsgd1na2vs0mg"},{"bike_id":"0053ed98-247c-4d86-a59f-3e79846d9de5","system_id":"levelo_inurba_marseille","lat":43.29519,"lon":5.39042,"is_reserved":false,"is_disabled":false,"rental_uris":{"android":"levelo://app?vid=0053ed98-247c-4d86-a59f-3e79846d9de5","ios":"levelo://app?vid=0053ed98-247c-4d86-a59f-3e79846d9de5"},"vehicle_type_id":"4","last_reported":1728940116,"current_range_meters":38800,"station_id":"ce4bh3p2rcd13ifvqdp0","pricing_plan_id":"cebpf4jnsgd1na2vs0mg"},{"bike_id":"16b07e6e-ae2a-4eb8-8bb1-c71380449afb","system_id":"levelo_inurba_marseille","lat":43.29232,"lon":5.36494,"is_reserved":false,"is_disabled":false,"rental_uris":{"android":"levelo://app?vid=16b07e6e-ae2a-4eb8-8bb1-c71380449afb","ios":"levelo://app?vid=16b07e6e-ae2a-4eb8-8bb1-c71380449afb"},"vehicle_type_id":"4","last_reported":1728940116,"current_range_meters":6000,"station_id":"ce4bgg92rcd13ifvqb30","pricing_plan_id":"cebpf4jnsgd1na2vs0mg"},{"bike_id":"9b4cc07a-8e06-4f52-bccc-0f5b961a7294","system_id":"levelo_inurba_marseille","lat":43.24189,"lon":5.39729,"is_reserved":false,"is_disabled":false,"rental_uris":{"android":"levelo://app?vid=9b4cc07a-8e06-4f52-bccc-0f5b961a7294","ios":"levelo://app?vid=9b4cc07a-8e06-4f52-bccc-0f5b961a7294"},"vehicle_type_id":"4","last_reported":1728940116,"current_range_meters":27200,"station_id":"ce4bhn12rcd13ifvqgpg","pricing_plan_id":"cebpf4jnsgd1na2vs0mg"},{"bike_id":"6a6e8901-7cf8-4ec1-b6aa-3e523137d174","system_id":"levelo_inurba_marseille","lat":43.31176,"lon":5.38712,"is_reserved":false,"is_disabled":false,"rental_uris":{"android":"levelo://app?vid=6a6e8901-7cf8-4ec1-b6aa-3e523137d174","ios":"levelo://app?vid=6a6e8901-7cf8-4ec1-b6aa-3e523137d174"},"vehicle_type_id":"4","last_reported":1728940116,"current_range_meters":9200,"station_id":"ce4bgv12rcd13ifvqcp0","pricing_plan_id":"cebpf4jnsgd1na2vs0mg"},{"bike_id":"2d7cf1ad-53de-4462-afdb-f01ce0f18902","system_id":"levelo_inurba_marseille","lat":43.30301,"lon":5.39209,"is_reserved":false,"is_disabled":false,"rental_uris":{"android":"levelo://app?vid=2d7cf1ad-53de-4462-afdb-f01ce0f18902","ios":"levelo://app?vid=2d7cf1ad-53de-4462-afdb-f01ce0f18902"},"vehicle_type_id":"4","last_reported":1728940116,"current_range_meters":38000,"station_id":"ce4bgkh2rcd13ifvqbk0","pricing_plan_id":"cebpf4jnsgd1na2vs0mg"},{"bike_id":"9cbbe67b-d607-4d6c-8ade-aa1c5d82f4ea","system_id":"levelo_inurba_marseille","lat":43.25111,"lon":5.4033,"is_reserved":false,"is_disabled":false,"rental_uris":{"android":"levelo://app?vid=9cbbe67b-d607-4d6c-8ade-aa1c5d82f4ea","ios":"levelo://app?vid=9cbbe67b-d607-4d6c-8ade-aa1c5d82f4ea"},"vehicle_type_id":"4","last_reported":1728940116,"current_range_meters":38800,"station_id":"ce4bhlh2rcd13ifvqgig","pricing_plan_id":"cebpf4jnsgd1na2vs0mg"},{"bike_id":"d3e7b90d-b6d9-4822-af46-f8fcdffef043","system_id":"levelo_inurba_marseille","lat":43.29525,"lon":5.39402,"is_reserved":false,"is_disabled":false,"rental_uris":{"android":"levelo://app?vid=d3e7b90d-b6d9-4822-af46-f8fcdffef043","ios":"levelo://app?vid=d3e7b90d-b6d9-4822-af46-f8fcdffef043"},"vehicle_type_id":"4","last_reported":1728940116,"current_range_meters":38400,"station_id":"ce4bh292rcd13ifvqdf0","pricing_plan_id":"cebpf4jnsgd1na2vs0mg"},{"bike_id":"ca9222a6-108d-4b8a-89d7-5995e078e5a5","system_id":"levelo_inurba_marseille","lat":43.29284,"lon":5.40127,"is_reserved":false,"is_disabled":false,"rental_uris":{"android":"levelo://app?vid=ca9222a6-108d-4b8a-89d7-5995e078e5a5","ios":"levelo://app?vid=ca9222a6-108d-4b8a-89d7-5995e078e5a5"},"vehicle_type_id":"4","last_reported":1728940116,"current_range_meters":9200,"station_id":"ce4bh312rcd13ifvqdk0","pricing_plan_id":"cebpf4jnsgd1na2vs0mg"},{"bike_id":"725778a0-0ed4-4bc0-918b-3b4879d33cad","system_id":"levelo_inurba_marseille","lat":43.31323,"lon":5.39687,"is_reserved":false,"is_disabled":false,"rental_uris":{"android":"levelo://app?vid=725778a0-0ed4-4bc0-918b-3b4879d33cad","ios":"levelo://app?vid=725778a0-0ed4-4bc0-918b-3b4879d33cad"},"vehicle_type_id":"4","last_reported":1728940116,"current_range_meters":27600,"station_id":"ce4bgvp2rcd13ifvqcu0","pricing_plan_id":"cebpf4jnsgd1na2vs0mg"},{"bike_id":"3afb0681-8fbd-47fe-8917-e12bc3cf488b","system_id":"levelo_inurba_marseille","lat":43.3372,"lon":5.391865,"is_reserved":false,"is_disabled":false,"rental_uris":{"android":"levelo://app?vid=3afb0681-8fbd-47fe-8917-e12bc3cf488b","ios":"levelo://app?vid=3afb0681-8fbd-47fe-8917-e12bc3cf488b"},"vehicle_type_id":"4","last_reported":1728940116,"current_range_meters":38800,"station_id":"ce4bhr92rcd13ifvqhsg","pricing_plan_id":"cebpf4jnsgd1na2vs0mg"},{"bike_id":"f25b9087-5c61-492d-8a81-c981d671dc2b","system_id":"levelo_inurba_marseille","lat":43.28273,"lon":5.35069,"is_reserved":false,"is_disabled":false,"rental_uris":{"android":"levelo://app?vid=f25b9087-5c61-492d-8a81-c981d671dc2b","ios":"levelo://app?vid=f25b9087-5c61-492d-8a81-c981d671dc2b"},"vehicle_type_id":"4","last_reported":1728940116,"current_range_meters":10000,"station_id":"ce4bhbp2rcd13ifvqerg","pricing_plan_id":"cebpf4jnsgd1na2vs0mg"},{"bike_id":"a732941c-85bc-42aa-bd93-04ae552d110c","system_id":"levelo_inurba_marseille","lat":43.30802,"lon":5.43523,"is_reserved":false,"is_disabled":false,"rental_uris":{"android":"levelo://app?vid=a732941c-85bc-42aa-bd93-04ae552d110c","ios":"levelo://app?vid=a732941c-85bc-42aa-bd93-04ae552d110c"},"vehicle_type_id":"4","last_reported":1728940116,"current_range_meters":7200,"station_id":"ce4bhph2rcd13ifvqheg","pricing_plan_id":"cebpf4jnsgd1na2vs0mg"},{"bike_id":"5f9bbca4-c275-4b1d-bb90-de4434b02e5b","system_id":"levelo_inurba_marseille","lat":43.27498,"lon":5.42452,"is_reserved":false,"is_disabled":false,"rental_uris":{"android":"levelo://app?vid=5f9bbca4-c275-4b1d-bb90-de4434b02e5b","ios":"levelo://app?vid=5f9bbca4-c275-4b1d-bb90-de4434b02e5b"},"vehicle_type_id":"4","last_reported":1728940116,"current_range_meters":26000,"station_id":"ce4bhn92rcd13ifvqgrg","pricing_plan_id":"cebpf4jnsgd1na2vs0mg"},{"bike_id":"71cdb9e1-5075-490f-bf25-59e6d36abd3d","system_id":"levelo_inurba_marseille","lat":43.31367,"lon":5.38501,"is_reserved":false,"is_disabled":false,"rental_uris":{"android":"levelo://app?vid=71cdb9e1-5075-490f-bf25-59e6d36abd3d","ios":"levelo://app?vid=71cdb9e1-5075-490f-bf25-59e6d36abd3d"},"vehicle_type_id":"4","last_reported":1728940116,"current_range_meters":38800,"station_id":"ce4bgt92rcd13ifvqcf0","pricing_plan_id":"cebpf4jnsgd1na2vs0mg"},{"bike_id":"4b4feea4-adf8-4321-b775-d698396c36e9","system_id":"levelo_inurba_marseille","lat":43.31225,"lon":5.36824,"is_reserved":false,"is_disabled":false,"rental_uris":{"android":"levelo://app?vid=4b4feea4-adf8-4321-b775-d698396c36e9","ios":"levelo://app?vid=4b4feea4-adf8-4321-b775-d698396c36e9"},"vehicle_type_id":"4","last_reported":1728940116,"current_range_meters":25200,"station_id":"ce4bgl92rcd13ifvqbq0","pricing_plan_id":"cebpf4jnsgd1na2vs0mg"},{"bike_id":"80353c3e-1b6d-42f7-a7b6-4c3ffb8a063e","system_id":"levelo_inurba_marseille","lat":43.30311,"lon":5.369,"is_reserved":false,"is_disabled":false,"rental_uris":{"android":"levelo://app?vid=80353c3e-1b6d-42f7-a7b6-4c3ffb8a063e","ios":"levelo://app?vid=80353c3e-1b6d-42f7-a7b6-4c3ffb8a063e"},"vehicle_type_id":"4","last_reported":1728940116,"current_range_meters":38800,"station_id":"ce4bgqh2rcd13ifvqc5g","pricing_plan_id":"cebpf4jnsgd1na2vs0mg"},{"bike_id":"a32ac163-48ce-4b32-900d-2f39da2712bd","system_id":"levelo_inurba_marseille","lat":43.31757,"lon":5.39014,"is_reserved":false,"is_disabled":false,"rental_uris":{"android":"levelo://app?vid=a32ac163-48ce-4b32-900d-2f39da2712bd","ios":"levelo://app?vid=a32ac163-48ce-4b32-900d-2f39da2712bd"},"vehicle_type_id":"4","last_reported":1728940116,"current_range_meters":18800,"station_id":"ce4bhqp2rcd13ifvqhng","pricing_plan_id":"cebpf4jnsgd1na2vs0mg"},{"bike_id":"7509c6f2-a27f-48e3-98e4-3995d3d4f318","system_id":"levelo_inurba_marseille","lat":43.31064,"lon":5.38347,"is_reserved":false,"is_disabled":false,"rental_uris":{"android":"levelo://app?vid=7509c6f2-a27f-48e3-98e4-3995d3d4f318","ios":"levelo://app?vid=7509c6f2-a27f-48e3-98e4-3995d3d4f318"},"vehicle_type_id":"4","last_reported":1728940116,"current_range_meters":26800,"station_id":"ce4bgv92rcd13ifvqcr0","pricing_plan_id":"cebpf4jnsgd1na2vs0mg"},{"bike_id":"b97ac990-8c0e-4aa6-a428-6bf3d623b8ab","system_id":"levelo_inurba_marseille","lat":43.24547,"lon":5.39523,"is_reserved":false,"is_disabled":false,"rental_uris":{"android":"levelo://app?vid=b97ac990-8c0e-4aa6-a428-6bf3d623b8ab","ios":"levelo://app?vid=b97ac990-8c0e-4aa6-a428-6bf3d623b8ab"},"vehicle_type_id":"4","last_reported":1728940116,"current_range_meters":4000,"station_id":"ce4bhlp2rcd13ifvqgjg","pricing_plan_id":"cebpf4jnsgd1na2vs0mg"},{"bike_id":"d2ae8d7f-7b3a-472e-9aef-617bbb91fe40","system_id":"levelo_inurba_marseille","lat":43.30091,"lon":5.39084,"is_reserved":false,"is_disabled":false,"rental_uris":{"android":"levelo://app?vid=d2ae8d7f-7b3a-472e-9aef-617bbb91fe40","ios":"levelo://app?vid=d2ae8d7f-7b3a-472e-9aef-617bbb91fe40"},"vehicle_type_id":"4","last_reported":1728940116,"current_range_meters":15200,"station_id":"ce4bh192rcd13ifvqdb0","pricing_plan_id":"cebpf4jnsgd1na2vs0mg"},{"bike_id":"c3859e9b-f515-430b-a811-8bbd3362718f","system_id":"levelo_inurba_marseille","lat":43.32337,"lon":5.40619,"is_reserved":false,"is_disabled":false,"rental_uris":{"android":"levelo://app?vid=c3859e9b-f515-430b-a811-8bbd3362718f","ios":"levelo://app?vid=c3859e9b-f515-430b-a811-8bbd3362718f"},"vehicle_type_id":"4","last_reported":1728940116,"current_range_meters":5600,"station_id":"ce4bhq92rcd13ifvqhjg","pricing_plan_id":"cebpf4jnsgd1na2vs0mg"},{"bike_id":"07538918-d507-49c7-b40a-4119b7a280f9","system_id":"levelo_inurba_marseille","lat":43.25868,"lon":5.39898,"is_reserved":false,"is_disabled":false,"rental_uris":{"android":"levelo://app?vid=07538918-d507-49c7-b40a-4119b7a280f9","ios":"levelo://app?vid=07538918-d507-49c7-b40a-4119b7a280f9"},"vehicle_type_id":"4","last_reported":1728940116,"current_range_meters":32400,"station_id":"ce4bhl92rcd13ifvqghg","pricing_plan_id":"cebpf4jnsgd1na2vs0mg"},{"bike_id":"b80c714b-6a66-4d5c-832e-bd487c535a72","system_id":"levelo_inurba_marseille","lat":43.31109,"lon":5.38064,"is_reserved":false,"is_disabled":false,"rental_uris":{"android":"levelo://app?vid=b80c714b-6a66-4d5c-832e-bd487c535a72","ios":"levelo://app?vid=b80c714b-6a66-4d5c-832e-bd487c535a72"},"vehicle_type_id":"4","last_reported":1728940116,"current_range_meters":18000,"station_id":"ce4bgt92rcd13ifvqcf0","pricing_plan_id":"cebpf4jnsgd1na2vs0mg"},{"bike_id":"2140b6a3-5118-4150-823e-9225aeb56201","system_id":"levelo_inurba_marseille","lat":43.23193,"lon":5.355488,"is_reserved":false,"is_disabled":false,"rental_uris":{"android":"levelo://app?vid=2140b6a3-5118-4150-823e-9225aeb56201","ios":"levelo://app?vid=2140b6a3-5118-4150-823e-9225aeb56201"},"vehicle_type_id":"4","last_reported":1728940116,"current_range_meters":10000,"station_id":"ce4bhu92rcd13ifvqi70","pricing_plan_id":"cebpf4jnsgd1na2vs0mg"},{"bike_id":"2f8faa3c-4069-4865-affa-126f6c4d8ffa","system_id":"levelo_inurba_marseille","lat":43.29877,"lon":5.39732,"is_reserved":false,"is_disabled":false,"rental_uris":{"android":"levelo://app?vid=2f8faa3c-4069-4865-affa-126f6c4d8ffa","ios":"levelo://app?vid=2f8faa3c-4069-4865-affa-126f6c4d8ffa"},"vehicle_type_id":"4","last_reported":1728940116,"current_range_meters":8400,"station_id":"ce4bh0h2rcd13ifvqd50","pricing_plan_id":"cebpf4jnsgd1na2vs0mg"},{"bike_id":"478f5959-9690-4265-aea1-95006faa579d","system_id":"levelo_inurba_marseille","lat":43.27174,"lon":5.41,"is_reserved":false,"is_disabled":false,"rental_uris":{"android":"levelo://app?vid=478f5959-9690-4265-aea1-95006faa579d","ios":"levelo://app?vid=478f5959-9690-4265-aea1-95006faa579d"},"vehicle_type_id":"4","last_reported":1728940116,"current_range_meters":38800,"station_id":"ce4bhl12rcd13ifvqgf0","pricing_plan_id":"cebpf4jnsgd1na2vs0mg"},{"bike_id":"79e9e570-a13a-4836-affc-e20102298a8c","system_id":"levelo_inurba_marseille","lat":43.28714,"lon":5.37937,"is_reserved":false,"is_disabled":false,"rental_uris":{"android":"levelo://app?vid=79e9e570-a13a-4836-affc-e20102298a8c","ios":"levelo://app?vid=79e9e570-a13a-4836-affc-e20102298a8c"},"vehicle_type_id":"4","last_reported":1728940116,"current_range_meters":38800,"station_id":"ce4bh9p2rcd13ifvqec0","pricing_plan_id":"cebpf4jnsgd1na2vs0mg"},{"bike_id":"ff95bce6-e120-4f46-8f08-7e007a8609a8","system_id":"levelo_inurba_marseille","lat":43.316132,"lon":5.394503,"is_reserved":false,"is_disabled":false,"rental_uris":{"android":"levelo://app?vid=ff95bce6-e120-4f46-8f08-7e007a8609a8","ios":"levelo://app?vid=ff95bce6-e120-4f46-8f08-7e007a8609a8"},"vehicle_type_id":"4","last_reported":1728940116,"current_range_meters":16800,"station_id":"ce4bhpp2rcd13ifvqhfg","pricing_plan_id":"cebpf4jnsgd1na2vs0mg"},{"bike_id":"982be6c0-e2a4-43ec-b318-18332fe02ad7","system_id":"levelo_inurba_marseille","lat":43.2867,"lon":5.36338,"is_reserved":false,"is_disabled":false,"rental_uris":{"android":"levelo://app?vid=982be6c0-e2a4-43ec-b318-18332fe02ad7","ios":"levelo://app?vid=982be6c0-e2a4-43ec-b318-18332fe02ad7"},"vehicle_type_id":"4","last_reported":1728940116,"current_range_meters":38800,"station_id":"ce4bhah2rcd13ifvqej0","pricing_plan_id":"cebpf4jnsgd1na2vs0mg"},{"bike_id":"02edf250-0bdc-44d6-9936-04b527fbc30e","system_id":"levelo_inurba_marseille","lat":43.24387,"lon":5.37054,"is_reserved":false,"is_disabled":false,"rental_uris":{"android":"levelo://app?vid=02edf250-0bdc-44d6-9936-04b527fbc30e","ios":"levelo://app?vid=02edf250-0bdc-44d6-9936-04b527fbc30e"},"vehicle_type_id":"4","last_reported":1728940116,"current_range_meters":14000,"station_id":"ce4bhhh2rcd13ifvqfk0","pricing_plan_id":"cebpf4jnsgd1na2vs0mg"},{"bike_id":"de5fb6c9-1629-41d4-994d-0b513290afbf","system_id":"levelo_inurba_marseille","lat":43.30326,"lon":5.40437,"is_reserved":false,"is_disabled":false,"rental_uris":{"android":"levelo://app?vid=de5fb6c9-1629-41d4-994d-0b513290afbf","ios":"levelo://app?vid=de5fb6c9-1629-41d4-994d-0b513290afbf"},"vehicle_type_id":"4","last_reported":1728940116,"current_range_meters":38800,"station_id":"ce4bh012rcd13ifvqd10","pricing_plan_id":"cebpf4jnsgd1na2vs0mg"},{"bike_id":"8208a166-bcf1-4d0b-b25f-f093f677c6a0","system_id":"levelo_inurba_marseille","lat":43.25498,"lon":5.37651,"is_reserved":false,"is_disabled":false,"rental_uris":{"android":"levelo://app?vid=8208a166-bcf1-4d0b-b25f-f093f677c6a0","ios":"levelo://app?vid=8208a166-bcf1-4d0b-b25f-f093f677c6a0"},"vehicle_type_id":"4","last_reported":1728940116,"current_range_meters":38000,"station_id":"ce4bhh12rcd13ifvqff0","pricing_plan_id":"cebpf4jnsgd1na2vs0mg"},{"bike_id":"24b8f755-783e-465a-9142-3f026928300a","system_id":"levelo_inurba_marseille","lat":43.29032,"lon":5.38637,"is_reserved":false,"is_disabled":false,"rental_uris":{"android":"levelo://app?vid=24b8f755-783e-465a-9142-3f026928300a","ios":"levelo://app?vid=24b8f755-783e-465a-9142-3f026928300a"},"vehicle_type_id":"4","last_reported":1728940116,"current_range_meters":38800,"station_id":"ce4bh4p2rcd13ifvqe0g","pricing_plan_id":"cebpf4jnsgd1na2vs0mg"},{"bike_id":"cda1b611-cb93-422a-8b06-efbe92015dbe","system_id":"levelo_inurba_marseille","lat":43.284323,"lon":5.391798,"is_reserved":false,"is_disabled":false,"rental_uris":{"android":"levelo://app?vid=cda1b611-cb93-422a-8b06-efbe92015dbe","ios":"levelo://app?vid=cda1b611-cb93-422a-8b06-efbe92015dbe"},"vehicle_type_id":"4","last_reported":1728940116,"current_range_meters":25600,"station_id":"ce4bhoh2rcd13ifvqh5g","pricing_plan_id":"cebpf4jnsgd1na2vs0mg"},{"bike_id":"a210394c-e316-4bed-81bd-3697504c3a30","system_id":"levelo_inurba_marseille","lat":43.29253,"lon":5.40911,"is_reserved":false,"is_disabled":false,"rental_uris":{"android":"levelo://app?vid=a210394c-e316-4bed-81bd-3697504c3a30","ios":"levelo://app?vid=a210394c-e316-4bed-81bd-3697504c3a30"},"vehicle_type_id":"4","last_reported":1728940116,"current_range_meters":32800,"station_id":"ce4bh192rcd13ifvqdc0","pricing_plan_id":"cebpf4jnsgd1na2vs0mg"},{"bike_id":"7fce2c73-d1e6-4aac-a3a0-51a5db68c843","system_id":"levelo_inurba_marseille","lat":43.26946,"lon":5.40254,"is_reserved":false,"is_disabled":false,"rental_uris":{"android":"levelo://app?vid=7fce2c73-d1e6-4aac-a3a0-51a5db68c843","ios":"levelo://app?vid=7fce2c73-d1e6-4aac-a3a0-51a5db68c843"},"vehicle_type_id":"4","last_reported":1728940116,"current_range_meters":38800,"station_id":"cjm6bp8fraef2m0cb0m0","pricing_plan_id":"cebpf4jnsgd1na2vs0mg"},{"bike_id":"f58f149f-b875-46f4-8e89-bf507efd1bb8","system_id":"levelo_inurba_marseille","lat":43.2679,"lon":5.39408,"is_reserved":false,"is_disabled":false,"rental_uris":{"android":"levelo://app?vid=f58f149f-b875-46f4-8e89-bf507efd1bb8","ios":"levelo://app?vid=f58f149f-b875-46f4-8e89-bf507efd1bb8"},"vehicle_type_id":"4","last_reported":1728940116,"current_range_meters":10800,"station_id":"ce4bhh12rcd13ifvqfg0","pricing_plan_id":"cebpf4jnsgd1na2vs0mg"},{"bike_id":"c130d266-11e3-484c-bccd-9f7041e77c51","system_id":"levelo_inurba_marseille","lat":43.28075,"lon":5.39657,"is_reserved":false,"is_disabled":false,"rental_uris":{"android":"levelo://app?vid=c130d266-11e3-484c-bccd-9f7041e77c51","ios":"levelo://app?vid=c130d266-11e3-484c-bccd-9f7041e77c51"},"vehicle_type_id":"4","last_reported":1728940116,"current_range_meters":6400,"station_id":"ce4bho12rcd13ifvqh2g","pricing_plan_id":"cebpf4jnsgd1na2vs0mg"},{"bike_id":"1183d7b5-9c89-4b9a-87ff-0ccc49010bcd","system_id":"levelo_inurba_marseille","lat":43.31268,"lon":5.40169,"is_reserved":false,"is_disabled":false,"rental_uris":{"android":"levelo://app?vid=1183d7b5-9c89-4b9a-87ff-0ccc49010bcd","ios":"levelo://app?vid=1183d7b5-9c89-4b9a-87ff-0ccc49010bcd"},"vehicle_type_id":"4","last_reported":1728940116,"current_range_meters":14400,"station_id":"ce4bh092rcd13ifvqd30","pricing_plan_id":"cebpf4jnsgd1na2vs0mg"},{"bike_id":"00e5c71a-1933-4298-b02f-08f784b2909c","system_id":"levelo_inurba_marseille","lat":43.24387,"lon":5.37056,"is_reserved":false,"is_disabled":false,"rental_uris":{"android":"levelo://app?vid=00e5c71a-1933-4298-b02f-08f784b2909c","ios":"levelo://app?vid=00e5c71a-1933-4298-b02f-08f784b2909c"},"vehicle_type_id":"4","last_reported":1728940116,"current_range_meters":38800,"station_id":"ce4bhhh2rcd13ifvqfk0","pricing_plan_id":"cebpf4jnsgd1na2vs0mg"},{"bike_id":"e01e41b6-906b-4d38-bd47-8409331ef9cb","system_id":"levelo_inurba_marseille","lat":43.24165,"lon":5.36397,"is_reserved":false,"is_disabled":false,"rental_uris":{"android":"levelo://app?vid=e01e41b6-906b-4d38-bd47-8409331ef9cb","ios":"levelo://app?vid=e01e41b6-906b-4d38-bd47-8409331ef9cb"},"vehicle_type_id":"4","last_reported":1728940116,"current_range_meters":36400,"station_id":"cpo36qri1sfpv3e86is0","pricing_plan_id":"cebpf4jnsgd1na2vs0mg"},{"bike_id":"0eafdba6-2b03-4430-88b8-4e60c6aa4b07","system_id":"levelo_inurba_marseille","lat":43.30423,"lon":5.41278,"is_reserved":false,"is_disabled":false,"rental_uris":{"android":"levelo://app?vid=0eafdba6-2b03-4430-88b8-4e60c6aa4b07","ios":"levelo://app?vid=0eafdba6-2b03-4430-88b8-4e60c6aa4b07"},"vehicle_type_id":"4","last_reported":1728940116,"current_range_meters":28000,"station_id":"ce4bhop2rcd13ifvqh8g","pricing_plan_id":"cebpf4jnsgd1na2vs0mg"},{"bike_id":"93abdbdf-1438-45e5-8756-442e7e3c29f1","system_id":"levelo_inurba_marseille","lat":43.31172,"lon":5.38708,"is_reserved":false,"is_disabled":false,"rental_uris":{"android":"levelo://app?vid=93abdbdf-1438-45e5-8756-442e7e3c29f1","ios":"levelo://app?vid=93abdbdf-1438-45e5-8756-442e7e3c29f1"},"vehicle_type_id":"4","last_reported":1728940116,"current_range_meters":39200,"station_id":"ce4bgv12rcd13ifvqcp0","pricing_plan_id":"cebpf4jnsgd1na2vs0mg"},{"bike_id":"4d3da2c7-a256-4b90-980c-9a92764f835f","system_id":"levelo_inurba_marseille","lat":43.31237,"lon":5.36823,"is_reserved":false,"is_disabled":false,"rental_uris":{"android":"levelo://app?vid=4d3da2c7-a256-4b90-980c-9a92764f835f","ios":"levelo://app?vid=4d3da2c7-a256-4b90-980c-9a92764f835f"},"vehicle_type_id":"4","last_reported":1728940116,"current_range_meters":22400,"station_id":"ce4bgl92rcd13ifvqbq0","pricing_plan_id":"cebpf4jnsgd1na2vs0mg"},{"bike_id":"89211ee2-076f-4df3-92bd-cd8885f2e76d","system_id":"levelo_inurba_marseille","lat":43.232,"lon":5.35561,"is_reserved":false,"is_disabled":false,"rental_uris":{"android":"levelo://app?vid=89211ee2-076f-4df3-92bd-cd8885f2e76d","ios":"levelo://app?vid=89211ee2-076f-4df3-92bd-cd8885f2e76d"},"vehicle_type_id":"4","last_reported":1728940116,"current_range_meters":38800,"station_id":"ce4bhu92rcd13ifvqi70","pricing_plan_id":"cebpf4jnsgd1na2vs0mg"},{"bike_id":"7bf1eecb-1a7e-434b-817c-59dd1d46440c","system_id":"levelo_inurba_marseille","lat":43.28699,"lon":5.39986,"is_reserved":false,"is_disabled":false,"rental_uris":{"android":"levelo://app?vid=7bf1eecb-1a7e-434b-817c-59dd1d46440c","ios":"levelo://app?vid=7bf1eecb-1a7e-434b-817c-59dd1d46440c"},"vehicle_type_id":"4","last_reported":1728940116,"current_range_meters":7200,"station_id":"ce4bho92rcd13ifvqh3g","pricing_plan_id":"cebpf4jnsgd1na2vs0mg"},{"bike_id":"6f108c79-169f-46fd-b08b-6b93e5050ee6","system_id":"levelo_inurba_marseille","lat":43.33725,"lon":5.39203,"is_reserved":false,"is_disabled":false,"rental_uris":{"android":"levelo://app?vid=6f108c79-169f-46fd-b08b-6b93e5050ee6","ios":"levelo://app?vid=6f108c79-169f-46fd-b08b-6b93e5050ee6"},"vehicle_type_id":"4","last_reported":1728940116,"current_range_meters":38800,"station_id":"ce4bhr92rcd13ifvqhsg","pricing_plan_id":"cebpf4jnsgd1na2vs0mg"},{"bike_id":"d9486349-c332-407f-893d-bef322644bb8","system_id":"levelo_inurba_marseille","lat":43.30925,"lon":5.40149,"is_reserved":false,"is_disabled":false,"rental_uris":{"android":"levelo://app?vid=d9486349-c332-407f-893d-bef322644bb8","ios":"levelo://app?vid=d9486349-c332-407f-893d-bef322644bb8"},"vehicle_type_id":"4","last_reported":1728940116,"current_range_meters":24800,"station_id":"ce4bgvp2rcd13ifvqct0","pricing_plan_id":"cebpf4jnsgd1na2vs0mg"},{"bike_id":"4401e9fe-8fae-4df0-be02-0119e3aeedbd","system_id":"levelo_inurba_marseille","lat":43.33752,"lon":5.37446,"is_reserved":false,"is_disabled":false,"rental_uris":{"android":"levelo://app?vid=4401e9fe-8fae-4df0-be02-0119e3aeedbd","ios":"levelo://app?vid=4401e9fe-8fae-4df0-be02-0119e3aeedbd"},"vehicle_type_id":"4","last_reported":1728940116,"current_range_meters":35200,"station_id":"","pricing_plan_id":"cebpf4jnsgd1na2vs0mg"},{"bike_id":"c26c9bb1-b28c-40c1-a76c-f35d2916c182","system_id":"levelo_inurba_marseille","lat":43.24813,"lon":5.37464,"is_reserved":false,"is_disabled":false,"rental_uris":{"android":"levelo://app?vid=c26c9bb1-b28c-40c1-a76c-f35d2916c182","ios":"levelo://app?vid=c26c9bb1-b28c-40c1-a76c-f35d2916c182"},"vehicle_type_id":"4","last_reported":1728940116,"current_range_meters":18800,"station_id":"ce4bhgh2rcd13ifvqfb0","pricing_plan_id":"cebpf4jnsgd1na2vs0mg"},{"bike_id":"7407b431-bff5-4398-a903-ce772c985ca2","system_id":"levelo_inurba_marseille","lat":43.24394,"lon":5.37065,"is_reserved":false,"is_disabled":false,"rental_uris":{"android":"levelo://app?vid=7407b431-bff5-4398-a903-ce772c985ca2","ios":"levelo://app?vid=7407b431-bff5-4398-a903-ce772c985ca2"},"vehicle_type_id":"4","last_reported":1728940116,"current_range_meters":22000,"station_id":"ce4bhhh2rcd13ifvqfk0","pricing_plan_id":"cebpf4jnsgd1na2vs0mg"},{"bike_id":"1ffa878e-7475-4e16-bedf-e1edad73f932","system_id":"levelo_inurba_marseille","lat":43.26803,"lon":5.40266,"is_reserved":false,"is_disabled":false,"rental_uris":{"android":"levelo://app?vid=1ffa878e-7475-4e16-bedf-e1edad73f932","ios":"levelo://app?vid=1ffa878e-7475-4e16-bedf-e1edad73f932"},"vehicle_type_id":"4","last_reported":1728940116,"current_range_meters":26000,"station_id":"ce501612rcd8frsf0b60","pricing_plan_id":"cebpf4jnsgd1na2vs0mg"},{"bike_id":"8afc2d11-5f30-4024-8dd1-bcca6caac62e","system_id":"levelo_inurba_marseille","lat":43.31889,"lon":5.40728,"is_reserved":false,"is_disabled":false,"rental_uris":{"android":"levelo://app?vid=8afc2d11-5f30-4024-8dd1-bcca6caac62e","ios":"levelo://app?vid=8afc2d11-5f30-4024-8dd1-bcca6caac62e"},"vehicle_type_id":"4","last_reported":1728940116,"current_range_meters":38000,"station_id":"ce4bhq12rcd13ifvqhig","pricing_plan_id":"cebpf4jnsgd1na2vs0mg"},{"bike_id":"f86c0e4c-e675-4813-89ef-9c087542fa2b","system_id":"levelo_inurba_marseille","lat":43.28462,"lon":5.35884,"is_reserved":false,"is_disabled":false,"rental_uris":{"android":"levelo://app?vid=f86c0e4c-e675-4813-89ef-9c087542fa2b","ios":"levelo://app?vid=f86c0e4c-e675-4813-89ef-9c087542fa2b"},"vehicle_type_id":"4","last_reported":1728940116,"current_range_meters":4400,"station_id":"ce4bhah2rcd13ifvqei0","pricing_plan_id":"cebpf4jnsgd1na2vs0mg"},{"bike_id":"3f0d3248-e783-4468-83c3-58a8e361f6f2","system_id":"levelo_inurba_marseille","lat":43.29251,"lon":5.40901,"is_reserved":false,"is_disabled":false,"rental_uris":{"android":"levelo://app?vid=3f0d3248-e783-4468-83c3-58a8e361f6f2","ios":"levelo://app?vid=3f0d3248-e783-4468-83c3-58a8e361f6f2"},"vehicle_type_id":"4","last_reported":1728940116,"current_range_meters":19200,"station_id":"ce4bh192rcd13ifvqdc0","pricing_plan_id":"cebpf4jnsgd1na2vs0mg"},{"bike_id":"de9fce36-42d5-4f27-b0a2-d390f9b6b1c9","system_id":"levelo_inurba_marseille","lat":43.25117,"lon":5.40325,"is_reserved":false,"is_disabled":false,"rental_uris":{"android":"levelo://app?vid=de9fce36-42d5-4f27-b0a2-d390f9b6b1c9","ios":"levelo://app?vid=de9fce36-42d5-4f27-b0a2-d390f9b6b1c9"},"vehicle_type_id":"4","last_reported":1728940116,"current_range_meters":14400,"station_id":"ce4bhlh2rcd13ifvqgig","pricing_plan_id":"cebpf4jnsgd1na2vs0mg"},{"bike_id":"4dc1d225-5761-4879-8f1a-044daee9054f","system_id":"levelo_inurba_marseille","lat":43.30895,"lon":5.37177,"is_reserved":false,"is_disabled":false,"rental_uris":{"android":"levelo://app?vid=4dc1d225-5761-4879-8f1a-044daee9054f","ios":"levelo://app?vid=4dc1d225-5761-4879-8f1a-044daee9054f"},"vehicle_type_id":"4","last_reported":1728940116,"current_range_meters":22400,"station_id":"ce4bguh2rcd13ifvqckg","pricing_plan_id":"cebpf4jnsgd1na2vs0mg"},{"bike_id":"544b8d64-8bbe-4ff8-b401-1ae6d24b3eb1","system_id":"levelo_inurba_marseille","lat":43.30932,"lon":5.40145,"is_reserved":false,"is_disabled":false,"rental_uris":{"android":"levelo://app?vid=544b8d64-8bbe-4ff8-b401-1ae6d24b3eb1","ios":"levelo://app?vid=544b8d64-8bbe-4ff8-b401-1ae6d24b3eb1"},"vehicle_type_id":"4","last_reported":1728940116,"current_range_meters":22800,"station_id":"ce4bgvp2rcd13ifvqct0","pricing_plan_id":"cebpf4jnsgd1na2vs0mg"},{"bike_id":"8eca1db8-c7a5-4c55-a530-7e36502bac8b","system_id":"levelo_inurba_marseille","lat":43.33024,"lon":5.39036,"is_reserved":false,"is_disabled":false,"rental_uris":{"android":"levelo://app?vid=8eca1db8-c7a5-4c55-a530-7e36502bac8b","ios":"levelo://app?vid=8eca1db8-c7a5-4c55-a530-7e36502bac8b"},"vehicle_type_id":"4","last_reported":1728940116,"current_range_meters":30400,"station_id":"ce4bhr92rcd13ifvqhrg","pricing_plan_id":"cebpf4jnsgd1na2vs0mg"},{"bike_id":"86e20734-e0ea-4267-99ec-799693df539a","system_id":"levelo_inurba_marseille","lat":43.28272,"lon":5.35074,"is_reserved":false,"is_disabled":false,"rental_uris":{"android":"levelo://app?vid=86e20734-e0ea-4267-99ec-799693df539a","ios":"levelo://app?vid=86e20734-e0ea-4267-99ec-799693df539a"},"vehicle_type_id":"4","last_reported":1728940116,"current_range_meters":4800,"station_id":"ce4bgg92rcd13ifvqb30","pricing_plan_id":"cebpf4jnsgd1na2vs0mg"},{"bike_id":"30b4bf45-9d0a-48ce-a59a-d864b0506a25","system_id":"levelo_inurba_marseille","lat":43.25865,"lon":5.39902,"is_reserved":false,"is_disabled":false,"rental_uris":{"android":"levelo://app?vid=30b4bf45-9d0a-48ce-a59a-d864b0506a25","ios":"levelo://app?vid=30b4bf45-9d0a-48ce-a59a-d864b0506a25"},"vehicle_type_id":"4","last_reported":1728940116,"current_range_meters":38800,"station_id":"ce4bhl92rcd13ifvqghg","pricing_plan_id":"cebpf4jnsgd1na2vs0mg"},{"bike_id":"4e51498e-b23c-4766-a7cd-a664ec40ad0e","system_id":"levelo_inurba_marseille","lat":43.28407,"lon":5.37521,"is_reserved":false,"is_disabled":false,"rental_uris":{"android":"levelo://app?vid=4e51498e-b23c-4766-a7cd-a664ec40ad0e","ios":"levelo://app?vid=4e51498e-b23c-4766-a7cd-a664ec40ad0e"},"vehicle_type_id":"4","last_reported":1728940116,"current_range_meters":2800,"station_id":"ce4bh412rcd13ifvqds0","pricing_plan_id":"cebpf4jnsgd1na2vs0mg"},{"bike_id":"3c9a80a7-6d68-4bb8-9474-fe0e2b009cb0","system_id":"levelo_inurba_marseille","lat":43.3176,"lon":5.39022,"is_reserved":false,"is_disabled":false,"rental_uris":{"android":"levelo://app?vid=3c9a80a7-6d68-4bb8-9474-fe0e2b009cb0","ios":"levelo://app?vid=3c9a80a7-6d68-4bb8-9474-fe0e2b009cb0"},"vehicle_type_id":"4","last_reported":1728940116,"current_range_meters":8800,"station_id":"ce4bhqp2rcd13ifvqhng","pricing_plan_id":"cebpf4jnsgd1na2vs0mg"},{"bike_id":"fb7882f2-e1f5-44f3-9e70-beca0518866a","system_id":"levelo_inurba_marseille","lat":43.27312,"lon":5.39063,"is_reserved":false,"is_disabled":false,"rental_uris":{"android":"levelo://app?vid=fb7882f2-e1f5-44f3-9e70-beca0518866a","ios":"levelo://app?vid=fb7882f2-e1f5-44f3-9e70-beca0518866a"},"vehicle_type_id":"4","last_reported":1728940116,"current_range_meters":37600,"station_id":"ce4bhgp2rcd13ifvqfe0","pricing_plan_id":"cebpf4jnsgd1na2vs0mg"},{"bike_id":"ff96eee3-1ac8-4888-9ae7-e4b6cc8154af","system_id":"levelo_inurba_marseille","lat":43.33739,"lon":5.3746,"is_reserved":false,"is_disabled":false,"rental_uris":{"android":"levelo://app?vid=ff96eee3-1ac8-4888-9ae7-e4b6cc8154af","ios":"levelo://app?vid=ff96eee3-1ac8-4888-9ae7-e4b6cc8154af"},"vehicle_type_id":"4","last_reported":1728940116,"current_range_meters":36800,"station_id":"","pricing_plan_id":"cebpf4jnsgd1na2vs0mg"},{"bike_id":"65db621b-9174-49d3-b495-3e4388747a6c","system_id":"levelo_inurba_marseille","lat":43.29145,"lon":5.40414,"is_reserved":false,"is_disabled":false,"rental_uris":{"android":"levelo://app?vid=65db621b-9174-49d3-b495-3e4388747a6c","ios":"levelo://app?vid=65db621b-9174-49d3-b495-3e4388747a6c"},"vehicle_type_id":"4","last_reported":1728940116,"current_range_meters":28400,"station_id":"","pricing_plan_id":"cebpf4jnsgd1na2vs0mg"},{"bike_id":"87070b4b-67ca-46ca-bb7f-d5a97d044803","system_id":"levelo_inurba_marseille","lat":43.31124,"lon":5.37768,"is_reserved":false,"is_disabled":false,"rental_uris":{"android":"levelo://app?vid=87070b4b-67ca-46ca-bb7f-d5a97d044803","ios":"levelo://app?vid=87070b4b-67ca-46ca-bb7f-d5a97d044803"},"vehicle_type_id":"4","last_reported":1728940116,"current_range_meters":12000,"station_id":"ce4bgt92rcd13ifvqcg0","pricing_plan_id":"cebpf4jnsgd1na2vs0mg"},{"bike_id":"c50c599b-7eb4-4ae0-bc1f-a366e21ec0ac","system_id":"levelo_inurba_marseille","lat":43.33026,"lon":5.3904,"is_reserved":false,"is_disabled":false,"rental_uris":{"android":"levelo://app?vid=c50c599b-7eb4-4ae0-bc1f-a366e21ec0ac","ios":"levelo://app?vid=c50c599b-7eb4-4ae0-bc1f-a366e21ec0ac"},"vehicle_type_id":"4","last_reported":1728940116,"current_range_meters":37600,"station_id":"ce4bhr92rcd13ifvqhrg","pricing_plan_id":"cebpf4jnsgd1na2vs0mg"},{"bike_id":"1be10ba7-ce7b-40f9-908c-945769db4f80","system_id":"levelo_inurba_marseille","lat":43.29528,"lon":5.3855,"is_reserved":false,"is_disabled":false,"rental_uris":{"android":"levelo://app?vid=1be10ba7-ce7b-40f9-908c-945769db4f80","ios":"levelo://app?vid=1be10ba7-ce7b-40f9-908c-945769db4f80"},"vehicle_type_id":"4","last_reported":1728940116,"current_range_meters":8400,"station_id":"ce4bgih2rcd13ifvqba0","pricing_plan_id":"cebpf4jnsgd1na2vs0mg"},{"bike_id":"affbb959-d301-4244-bb79-4c72a90d3c33","system_id":"levelo_inurba_marseille","lat":43.28291,"lon":5.409,"is_reserved":false,"is_disabled":false,"rental_uris":{"android":"levelo://app?vid=affbb959-d301-4244-bb79-4c72a90d3c33","ios":"levelo://app?vid=affbb959-d301-4244-bb79-4c72a90d3c33"},"vehicle_type_id":"4","last_reported":1728940116,"current_range_meters":33200,"station_id":"","pricing_plan_id":"cebpf4jnsgd1na2vs0mg"},{"bike_id":"9824d324-d859-48cc-9cb5-90b3cf898ef8","system_id":"levelo_inurba_marseille","lat":43.28458,"lon":5.35884,"is_reserved":false,"is_disabled":false,"rental_uris":{"android":"levelo://app?vid=9824d324-d859-48cc-9cb5-90b3cf898ef8","ios":"levelo://app?vid=9824d324-d859-48cc-9cb5-90b3cf898ef8"},"vehicle_type_id":"4","last_reported":1728940116,"current_range_meters":28000,"station_id":"ce4bhah2rcd13ifvqei0","pricing_plan_id":"cebpf4jnsgd1na2vs0mg"},{"bike_id":"124fe4c8-d877-453b-88bd-af8d62d24653","system_id":"levelo_inurba_marseille","lat":43.2465,"lon":5.389,"is_reserved":false,"is_disabled":false,"rental_uris":{"android":"levelo://app?vid=124fe4c8-d877-453b-88bd-af8d62d24653","ios":"levelo://app?vid=124fe4c8-d877-453b-88bd-af8d62d24653"},"vehicle_type_id":"4","last_reported":1728940116,"current_range_meters":9200,"station_id":"ce4bhg12rcd13ifvqf60","pricing_plan_id":"cebpf4jnsgd1na2vs0mg"},{"bike_id":"d6fed98b-6f3d-4ee9-b77c-30a41d4f3bbb","system_id":"levelo_inurba_marseille","lat":43.28463,"lon":5.35885,"is_reserved":false,"is_disabled":false,"rental_uris":{"android":"levelo://app?vid=d6fed98b-6f3d-4ee9-b77c-30a41d4f3bbb","ios":"levelo://app?vid=d6fed98b-6f3d-4ee9-b77c-30a41d4f3bbb"},"vehicle_type_id":"4","last_reported":1728940116,"current_range_meters":36800,"station_id":"ce4bhah2rcd13ifvqei0","pricing_plan_id":"cebpf4jnsgd1na2vs0mg"},{"bike_id":"8baf3ed0-85e9-466a-a670-790e9cbe4c4a","system_id":"levelo_inurba_marseille","lat":43.29274,"lon":5.40121,"is_reserved":false,"is_disabled":false,"rental_uris":{"android":"levelo://app?vid=8baf3ed0-85e9-466a-a670-790e9cbe4c4a","ios":"levelo://app?vid=8baf3ed0-85e9-466a-a670-790e9cbe4c4a"},"vehicle_type_id":"4","last_reported":1728940116,"current_range_meters":33200,"station_id":"ce4bh312rcd13ifvqdk0","pricing_plan_id":"cebpf4jnsgd1na2vs0mg"},{"bike_id":"f57f4d6f-75e3-40c2-8b37-fd35a15bf7ea","system_id":"levelo_inurba_marseille","lat":43.28102,"lon":5.37842,"is_reserved":false,"is_disabled":false,"rental_uris":{"android":"levelo://app?vid=f57f4d6f-75e3-40c2-8b37-fd35a15bf7ea","ios":"levelo://app?vid=f57f4d6f-75e3-40c2-8b37-fd35a15bf7ea"},"vehicle_type_id":"4","last_reported":1728940116,"current_range_meters":37600,"station_id":"ce4bha12rcd13ifvqee0","pricing_plan_id":"cebpf4jnsgd1na2vs0mg"},{"bike_id":"8bf5b36e-884a-4ead-a687-4aeaa5d33435","system_id":"levelo_inurba_marseille","lat":43.25873,"lon":5.39902,"is_reserved":false,"is_disabled":false,"rental_uris":{"android":"levelo://app?vid=8bf5b36e-884a-4ead-a687-4aeaa5d33435","ios":"levelo://app?vid=8bf5b36e-884a-4ead-a687-4aeaa5d33435"},"vehicle_type_id":"4","last_reported":1728940116,"current_range_meters":38800,"station_id":"ce4bhl92rcd13ifvqghg","pricing_plan_id":"cebpf4jnsgd1na2vs0mg"},{"bike_id":"a45020b6-6c16-41bf-adef-73c6d102b810","system_id":"levelo_inurba_marseille","lat":43.28705,"lon":5.39983,"is_reserved":false,"is_disabled":false,"rental_uris":{"android":"levelo://app?vid=a45020b6-6c16-41bf-adef-73c6d102b810","ios":"levelo://app?vid=a45020b6-6c16-41bf-adef-73c6d102b810"},"vehicle_type_id":"4","last_reported":1728940116,"current_range_meters":38800,"station_id":"ce4bho92rcd13ifvqh3g","pricing_plan_id":"cebpf4jnsgd1na2vs0mg"},{"bike_id":"e55ce7e2-8e60-47b5-844e-977029bd08ba","system_id":"levelo_inurba_marseille","lat":43.29557,"lon":5.42273,"is_reserved":false,"is_disabled":false,"rental_uris":{"android":"levelo://app?vid=e55ce7e2-8e60-47b5-844e-977029bd08ba","ios":"levelo://app?vid=e55ce7e2-8e60-47b5-844e-977029bd08ba"},"vehicle_type_id":"4","last_reported":1728940116,"current_range_meters":39200,"station_id":"ce4bhph2rcd13ifvqhdg","pricing_plan_id":"cebpf4jnsgd1na2vs0mg"},{"bike_id":"07d70820-54c8-485a-b04b-017096cc6e14","system_id":"levelo_inurba_marseille","lat":43.33023,"lon":5.39041,"is_reserved":false,"is_disabled":false,"rental_uris":{"android":"levelo://app?vid=07d70820-54c8-485a-b04b-017096cc6e14","ios":"levelo://app?vid=07d70820-54c8-485a-b04b-017096cc6e14"},"vehicle_type_id":"4","last_reported":1728940116,"current_range_meters":38800,"station_id":"ce4bhr92rcd13ifvqhrg","pricing_plan_id":"cebpf4jnsgd1na2vs0mg"},{"bike_id":"292b9425-1372-40d4-bf0a-fe57aa779a41","system_id":"levelo_inurba_marseille","lat":43.23058,"lon":5.35495,"is_reserved":false,"is_disabled":false,"rental_uris":{"android":"levelo://app?vid=292b9425-1372-40d4-bf0a-fe57aa779a41","ios":"levelo://app?vid=292b9425-1372-40d4-bf0a-fe57aa779a41"},"vehicle_type_id":"4","last_reported":1728940116,"current_range_meters":36800,"station_id":"cpo3342slgdg3j2ifvpg","pricing_plan_id":"cebpf4jnsgd1na2vs0mg"},{"bike_id":"4fbf2fbd-a2ae-483f-80e9-346906bb2da9","system_id":"levelo_inurba_marseille","lat":43.3013,"lon":5.39856,"is_reserved":false,"is_disabled":false,"rental_uris":{"android":"levelo://app?vid=4fbf2fbd-a2ae-483f-80e9-346906bb2da9","ios":"levelo://app?vid=4fbf2fbd-a2ae-483f-80e9-346906bb2da9"},"vehicle_type_id":"4","last_reported":1728940116,"current_range_meters":38800,"station_id":"ce4bh0h2rcd13ifvqd40","pricing_plan_id":"cebpf4jnsgd1na2vs0mg"},{"bike_id":"a0e94a62-92b9-4aee-841c-76cf95b5fb0a","system_id":"levelo_inurba_marseille","lat":43.25086,"lon":5.39519,"is_reserved":false,"is_disabled":false,"rental_uris":{"android":"levelo://app?vid=a0e94a62-92b9-4aee-841c-76cf95b5fb0a","ios":"levelo://app?vid=a0e94a62-92b9-4aee-841c-76cf95b5fb0a"},"vehicle_type_id":"4","last_reported":1728940116,"current_range_meters":29600,"station_id":"ce4bhm12rcd13ifvqgkg","pricing_plan_id":"cebpf4jnsgd1na2vs0mg"},{"bike_id":"47fba287-234a-473a-861a-19e3fa341875","system_id":"levelo_inurba_marseille","lat":43.28267,"lon":5.35067,"is_reserved":false,"is_disabled":false,"rental_uris":{"android":"levelo://app?vid=47fba287-234a-473a-861a-19e3fa341875","ios":"levelo://app?vid=47fba287-234a-473a-861a-19e3fa341875"},"vehicle_type_id":"4","last_reported":1728940116,"current_range_meters":8400,"station_id":"ce4bhbp2rcd13ifvqerg","pricing_plan_id":"cebpf4jnsgd1na2vs0mg"},{"bike_id":"92864da1-a397-4a3b-bd33-8b556867fd8f","system_id":"levelo_inurba_marseille","lat":43.24542,"lon":5.39537,"is_reserved":false,"is_disabled":false,"rental_uris":{"android":"levelo://app?vid=92864da1-a397-4a3b-bd33-8b556867fd8f","ios":"levelo://app?vid=92864da1-a397-4a3b-bd33-8b556867fd8f"},"vehicle_type_id":"4","last_reported":1728940116,"current_range_meters":25200,"station_id":"ce4bhlp2rcd13ifvqgjg","pricing_plan_id":"cebpf4jnsgd1na2vs0mg"},{"bike_id":"2f856bfb-366d-4a8a-afe7-c16bc64e24e9","system_id":"levelo_inurba_marseille","lat":43.292591,"lon":5.366824,"is_reserved":false,"is_disabled":false,"rental_uris":{"android":"levelo://app?vid=2f856bfb-366d-4a8a-afe7-c16bc64e24e9","ios":"levelo://app?vid=2f856bfb-366d-4a8a-afe7-c16bc64e24e9"},"vehicle_type_id":"4","last_reported":1728940116,"current_range_meters":23200,"station_id":"ce4bhbp2rcd13ifvqesg","pricing_plan_id":"cebpf4jnsgd1na2vs0mg"},{"bike_id":"f9431acc-4158-4e63-bbe0-7544277cc35e","system_id":"levelo_inurba_marseille","lat":43.29032,"lon":5.37567,"is_reserved":false,"is_disabled":false,"rental_uris":{"android":"levelo://app?vid=f9431acc-4158-4e63-bbe0-7544277cc35e","ios":"levelo://app?vid=f9431acc-4158-4e63-bbe0-7544277cc35e"},"vehicle_type_id":"4","last_reported":1728940116,"current_range_meters":28800,"station_id":"ce4bh692rcd13ifvqe90","pricing_plan_id":"cebpf4jnsgd1na2vs0mg"},{"bike_id":"e42a5c5b-19d2-48bc-8dfc-c8514ef28621","system_id":"levelo_inurba_marseille","lat":43.24174,"lon":5.36399,"is_reserved":false,"is_disabled":false,"rental_uris":{"android":"levelo://app?vid=e42a5c5b-19d2-48bc-8dfc-c8514ef28621","ios":"levelo://app?vid=e42a5c5b-19d2-48bc-8dfc-c8514ef28621"},"vehicle_type_id":"4","last_reported":1728940116,"current_range_meters":28400,"station_id":"cpo36qri1sfpv3e86is0","pricing_plan_id":"cebpf4jnsgd1na2vs0mg"},{"bike_id":"24a43979-b432-43c7-83da-543a83415270","system_id":"levelo_inurba_marseille","lat":43.27054,"lon":5.40262,"is_reserved":false,"is_disabled":false,"rental_uris":{"android":"levelo://app?vid=24a43979-b432-43c7-83da-543a83415270","ios":"levelo://app?vid=24a43979-b432-43c7-83da-543a83415270"},"vehicle_type_id":"4","last_reported":1728940116,"current_range_meters":38400,"station_id":"ce4bhk92rcd13ifvqgc0","pricing_plan_id":"cebpf4jnsgd1na2vs0mg"},{"bike_id":"a8e051ed-6aea-47ae-a855-1de69c426089","system_id":"levelo_inurba_marseille","lat":43.25104,"lon":5.40329,"is_reserved":false,"is_disabled":false,"rental_uris":{"android":"levelo://app?vid=a8e051ed-6aea-47ae-a855-1de69c426089","ios":"levelo://app?vid=a8e051ed-6aea-47ae-a855-1de69c426089"},"vehicle_type_id":"4","last_reported":1728940116,"current_range_meters":38800,"station_id":"ce4bhlh2rcd13ifvqgig","pricing_plan_id":"cebpf4jnsgd1na2vs0mg"},{"bike_id":"96312f5f-0242-4af5-8904-5da6da457ea0","system_id":"levelo_inurba_marseille","lat":43.288535,"lon":5.358395,"is_reserved":false,"is_disabled":false,"rental_uris":{"android":"levelo://app?vid=96312f5f-0242-4af5-8904-5da6da457ea0","ios":"levelo://app?vid=96312f5f-0242-4af5-8904-5da6da457ea0"},"vehicle_type_id":"4","last_reported":1728940116,"current_range_meters":38800,"station_id":"ce4bhb12rcd13ifvqem0","pricing_plan_id":"cebpf4jnsgd1na2vs0mg"},{"bike_id":"1e9462cf-eb62-40fa-b817-ae3905be444d","system_id":"levelo_inurba_marseille","lat":43.30194,"lon":5.36618,"is_reserved":false,"is_disabled":false,"rental_uris":{"android":"levelo://app?vid=1e9462cf-eb62-40fa-b817-ae3905be444d","ios":"levelo://app?vid=1e9462cf-eb62-40fa-b817-ae3905be444d"},"vehicle_type_id":"4","last_reported":1728940116,"current_range_meters":38800,"station_id":"ce4bgrh2rcd13ifvqc8g","pricing_plan_id":"cebpf4jnsgd1na2vs0mg"},{"bike_id":"0262a9fe-feca-45d9-bcc5-0db5cd20149e","system_id":"levelo_inurba_marseille","lat":43.31261,"lon":5.40165,"is_reserved":false,"is_disabled":false,"rental_uris":{"android":"levelo://app?vid=0262a9fe-feca-45d9-bcc5-0db5cd20149e","ios":"levelo://app?vid=0262a9fe-feca-45d9-bcc5-0db5cd20149e"},"vehicle_type_id":"4","last_reported":1728940116,"current_range_meters":38800,"station_id":"ce4bh092rcd13ifvqd30","pricing_plan_id":"cebpf4jnsgd1na2vs0mg"},{"bike_id":"c33238aa-1247-4c16-bdb1-0c68942c7f08","system_id":"levelo_inurba_marseille","lat":43.30773,"lon":5.37658,"is_reserved":false,"is_disabled":false,"rental_uris":{"android":"levelo://app?vid=c33238aa-1247-4c16-bdb1-0c68942c7f08","ios":"levelo://app?vid=c33238aa-1247-4c16-bdb1-0c68942c7f08"},"vehicle_type_id":"4","last_reported":1728940116,"current_range_meters":17200,"station_id":"ce4bgv92rcd13ifvqcq0","pricing_plan_id":"cebpf4jnsgd1na2vs0mg"},{"bike_id":"2b96cbe4-21b5-46e6-b030-6a3f82e183ef","system_id":"levelo_inurba_marseille","lat":43.29295,"lon":5.37163,"is_reserved":false,"is_disabled":false,"rental_uris":{"android":"levelo://app?vid=2b96cbe4-21b5-46e6-b030-6a3f82e183ef","ios":"levelo://app?vid=2b96cbe4-21b5-46e6-b030-6a3f82e183ef"},"vehicle_type_id":"4","last_reported":1728940116,"current_range_meters":36800,"station_id":"ce4bgh92rcd13ifvqb40","pricing_plan_id":"cebpf4jnsgd1na2vs0mg"},{"bike_id":"d06f24f3-1961-4c39-8b26-c72733863fe9","system_id":"levelo_inurba_marseille","lat":43.33781,"lon":5.37443,"is_reserved":false,"is_disabled":false,"rental_uris":{"android":"levelo://app?vid=d06f24f3-1961-4c39-8b26-c72733863fe9","ios":"levelo://app?vid=d06f24f3-1961-4c39-8b26-c72733863fe9"},"vehicle_type_id":"4","last_reported":1728940116,"current_range_meters":27600,"station_id":"","pricing_plan_id":"cebpf4jnsgd1na2vs0mg"},{"bike_id":"5d0ca1a8-2664-46ab-b038-f25dc8573e1a","system_id":"levelo_inurba_marseille","lat":43.27996,"lon":5.40014,"is_reserved":false,"is_disabled":false,"rental_uris":{"android":"levelo://app?vid=5d0ca1a8-2664-46ab-b038-f25dc8573e1a","ios":"levelo://app?vid=5d0ca1a8-2664-46ab-b038-f25dc8573e1a"},"vehicle_type_id":"4","last_reported":1728940116,"current_range_meters":37600,"station_id":"ce4bho92rcd13ifvqh4g","pricing_plan_id":"cebpf4jnsgd1na2vs0mg"},{"bike_id":"2da6aa54-ad0c-484f-8279-5aac8ad1d94b","system_id":"levelo_inurba_marseille","lat":43.31715,"lon":5.4241,"is_reserved":false,"is_disabled":false,"rental_uris":{"android":"levelo://app?vid=2da6aa54-ad0c-484f-8279-5aac8ad1d94b","ios":"levelo://app?vid=2da6aa54-ad0c-484f-8279-5aac8ad1d94b"},"vehicle_type_id":"4","last_reported":1728940116,"current_range_meters":38400,"station_id":"ce4bhp92rcd13ifvqhbg","pricing_plan_id":"cebpf4jnsgd1na2vs0mg"},{"bike_id":"59801407-972f-4a36-807e-85d5772337bc","system_id":"levelo_inurba_marseille","lat":43.28076,"lon":5.39653,"is_reserved":false,"is_disabled":false,"rental_uris":{"android":"levelo://app?vid=59801407-972f-4a36-807e-85d5772337bc","ios":"levelo://app?vid=59801407-972f-4a36-807e-85d5772337bc"},"vehicle_type_id":"4","last_reported":1728940116,"current_range_meters":18800,"station_id":"ce4bho12rcd13ifvqh2g","pricing_plan_id":"cebpf4jnsgd1na2vs0mg"},{"bike_id":"537e77d6-1c8a-47f0-9964-2253af554a01","system_id":"levelo_inurba_marseille","lat":43.28663,"lon":5.36357,"is_reserved":false,"is_disabled":false,"rental_uris":{"android":"levelo://app?vid=537e77d6-1c8a-47f0-9964-2253af554a01","ios":"levelo://app?vid=537e77d6-1c8a-47f0-9964-2253af554a01"},"vehicle_type_id":"4","last_reported":1728940116,"current_range_meters":38800,"station_id":"ce4bhah2rcd13ifvqej0","pricing_plan_id":"cebpf4jnsgd1na2vs0mg"},{"bike_id":"de55ef64-fd38-455a-b0e1-1ae601486694","system_id":"levelo_inurba_marseille","lat":43.28465,"lon":5.35886,"is_reserved":false,"is_disabled":false,"rental_uris":{"android":"levelo://app?vid=de55ef64-fd38-455a-b0e1-1ae601486694","ios":"levelo://app?vid=de55ef64-fd38-455a-b0e1-1ae601486694"},"vehicle_type_id":"4","last_reported":1728940116,"current_range_meters":29600,"station_id":"ce4bhah2rcd13ifvqei0","pricing_plan_id":"cebpf4jnsgd1na2vs0mg"},{"bike_id":"d41309ab-1a1f-4395-acaa-455483c3f8e1","system_id":"levelo_inurba_marseille","lat":43.23192,"lon":5.35556,"is_reserved":false,"is_disabled":false,"rental_uris":{"android":"levelo://app?vid=d41309ab-1a1f-4395-acaa-455483c3f8e1","ios":"levelo://app?vid=d41309ab-1a1f-4395-acaa-455483c3f8e1"},"vehicle_type_id":"4","last_reported":1728940116,"current_range_meters":36400,"station_id":"ce4bhu92rcd13ifvqi70","pricing_plan_id":"cebpf4jnsgd1na2vs0mg"},{"bike_id":"b6c39945-7fde-45ca-a309-2c86ade80641","system_id":"levelo_inurba_marseille","lat":43.27961,"lon":5.38691,"is_reserved":false,"is_disabled":false,"rental_uris":{"android":"levelo://app?vid=b6c39945-7fde-45ca-a309-2c86ade80641","ios":"levelo://app?vid=b6c39945-7fde-45ca-a309-2c86ade80641"},"vehicle_type_id":"4","last_reported":1728940116,"current_range_meters":38800,"station_id":"ce4bhg12rcd13ifvqf80","pricing_plan_id":"cebpf4jnsgd1na2vs0mg"},{"bike_id":"4d61dae6-15fa-4e8d-92b6-002cd41e2abc","system_id":"levelo_inurba_marseille","lat":43.28269,"lon":5.3506,"is_reserved":false,"is_disabled":false,"rental_uris":{"android":"levelo://app?vid=4d61dae6-15fa-4e8d-92b6-002cd41e2abc","ios":"levelo://app?vid=4d61dae6-15fa-4e8d-92b6-002cd41e2abc"},"vehicle_type_id":"4","last_reported":1728940116,"current_range_meters":16400,"station_id":"ce4bhbp2rcd13ifvqerg","pricing_plan_id":"cebpf4jnsgd1na2vs0mg"},{"bike_id":"710523a7-e306-4ecb-ab43-7eb6b3a30162","system_id":"levelo_inurba_marseille","lat":43.30461,"lon":5.40184,"is_reserved":false,"is_disabled":false,"rental_uris":{"android":"levelo://app?vid=710523a7-e306-4ecb-ab43-7eb6b3a30162","ios":"levelo://app?vid=710523a7-e306-4ecb-ab43-7eb6b3a30162"},"vehicle_type_id":"4","last_reported":1728940116,"current_range_meters":26000,"station_id":"","pricing_plan_id":"cebpf4jnsgd1na2vs0mg"},{"bike_id":"fca53f66-742d-44ee-956a-20e7ae576730","system_id":"levelo_inurba_marseille","lat":43.3128,"lon":5.40168,"is_reserved":false,"is_disabled":false,"rental_uris":{"android":"levelo://app?vid=fca53f66-742d-44ee-956a-20e7ae576730","ios":"levelo://app?vid=fca53f66-742d-44ee-956a-20e7ae576730"},"vehicle_type_id":"4","last_reported":1728940116,"current_range_meters":10800,"station_id":"ce4bh092rcd13ifvqd30","pricing_plan_id":"cebpf4jnsgd1na2vs0mg"},{"bike_id":"eaedc49c-645c-4444-a4d2-8456bbc17d70","system_id":"levelo_inurba_marseille","lat":43.29896,"lon":5.43653,"is_reserved":false,"is_disabled":false,"rental_uris":{"android":"levelo://app?vid=eaedc49c-645c-4444-a4d2-8456bbc17d70","ios":"levelo://app?vid=eaedc49c-645c-4444-a4d2-8456bbc17d70"},"vehicle_type_id":"4","last_reported":1728940116,"current_range_meters":16400,"station_id":"ce4bhpp2rcd13ifvqhfg","pricing_plan_id":"cebpf4jnsgd1na2vs0mg"},{"bike_id":"20cf49f9-1944-454b-98be-038481d3426a","system_id":"levelo_inurba_marseille","lat":43.32486,"lon":5.36568,"is_reserved":false,"is_disabled":false,"rental_uris":{"android":"levelo://app?vid=20cf49f9-1944-454b-98be-038481d3426a","ios":"levelo://app?vid=20cf49f9-1944-454b-98be-038481d3426a"},"vehicle_type_id":"4","last_reported":1728940116,"current_range_meters":39200,"station_id":"ce4bhs12rcd13ifvqhvg","pricing_plan_id":"cebpf4jnsgd1na2vs0mg"},{"bike_id":"841fb6f8-2296-487b-9f27-17f776d3e1ac","system_id":"levelo_inurba_marseille","lat":43.24185,"lon":5.39734,"is_reserved":false,"is_disabled":false,"rental_uris":{"android":"levelo://app?vid=841fb6f8-2296-487b-9f27-17f776d3e1ac","ios":"levelo://app?vid=841fb6f8-2296-487b-9f27-17f776d3e1ac"},"vehicle_type_id":"4","last_reported":1728940116,"current_range_meters":29600,"station_id":"ce4bhn12rcd13ifvqgpg","pricing_plan_id":"cebpf4jnsgd1na2vs0mg"},{"bike_id":"70c95378-a25a-4142-a216-c8b3cf7fb134","system_id":"levelo_inurba_marseille","lat":43.26056,"lon":5.39398,"is_reserved":false,"is_disabled":false,"rental_uris":{"android":"levelo://app?vid=70c95378-a25a-4142-a216-c8b3cf7fb134","ios":"levelo://app?vid=70c95378-a25a-4142-a216-c8b3cf7fb134"},"vehicle_type_id":"4","last_reported":1728940116,"current_range_meters":38000,"station_id":"ce4bhh92rcd13ifvqfj0","pricing_plan_id":"cebpf4jnsgd1na2vs0mg"},{"bike_id":"69b09ac4-905b-4dfb-80eb-2afebc7708ea","system_id":"levelo_inurba_marseille","lat":43.27827,"lon":5.39199,"is_reserved":false,"is_disabled":false,"rental_uris":{"android":"levelo://app?vid=69b09ac4-905b-4dfb-80eb-2afebc7708ea","ios":"levelo://app?vid=69b09ac4-905b-4dfb-80eb-2afebc7708ea"},"vehicle_type_id":"4","last_reported":1728940116,"current_range_meters":30400,"station_id":"ce4bhjp2rcd13ifvqga0","pricing_plan_id":"cebpf4jnsgd1na2vs0mg"},{"bike_id":"f33ca04e-0fdd-4816-b4fc-80bcd342b78a","system_id":"levelo_inurba_marseille","lat":43.29551,"lon":5.42277,"is_reserved":false,"is_disabled":false,"rental_uris":{"android":"levelo://app?vid=f33ca04e-0fdd-4816-b4fc-80bcd342b78a","ios":"levelo://app?vid=f33ca04e-0fdd-4816-b4fc-80bcd342b78a"},"vehicle_type_id":"4","last_reported":1728940116,"current_range_meters":6400,"station_id":"ce4bhph2rcd13ifvqhdg","pricing_plan_id":"cebpf4jnsgd1na2vs0mg"},{"bike_id":"032379fd-e95c-4e2e-b627-930ca9fb0184","system_id":"levelo_inurba_marseille","lat":43.27808,"lon":5.40711,"is_reserved":false,"is_disabled":false,"rental_uris":{"android":"levelo://app?vid=032379fd-e95c-4e2e-b627-930ca9fb0184","ios":"levelo://app?vid=032379fd-e95c-4e2e-b627-930ca9fb0184"},"vehicle_type_id":"4","last_reported":1728940116,"current_range_meters":32000,"station_id":"ce4bhnh2rcd13ifvqgtg","pricing_plan_id":"cebpf4jnsgd1na2vs0mg"},{"bike_id":"eeeaf89a-2451-4a2b-8e6b-5ef5e62ca9bc","system_id":"levelo_inurba_marseille","lat":43.28435,"lon":5.3918,"is_reserved":false,"is_disabled":false,"rental_uris":{"android":"levelo://app?vid=eeeaf89a-2451-4a2b-8e6b-5ef5e62ca9bc","ios":"levelo://app?vid=eeeaf89a-2451-4a2b-8e6b-5ef5e62ca9bc"},"vehicle_type_id":"4","last_reported":1728940116,"current_range_meters":22000,"station_id":"ce4bhoh2rcd13ifvqh5g","pricing_plan_id":"cebpf4jnsgd1na2vs0mg"},{"bike_id":"ab4b5dd5-7da7-49ec-b6b1-7716be5592e7","system_id":"levelo_inurba_marseille","lat":43.30887,"lon":5.39642,"is_reserved":false,"is_disabled":false,"rental_uris":{"android":"levelo://app?vid=ab4b5dd5-7da7-49ec-b6b1-7716be5592e7","ios":"levelo://app?vid=ab4b5dd5-7da7-49ec-b6b1-7716be5592e7"},"vehicle_type_id":"4","last_reported":1728940116,"current_range_meters":38000,"station_id":"ce4bh012rcd13ifvqcv0","pricing_plan_id":"cebpf4jnsgd1na2vs0mg"},{"bike_id":"006ce50b-1d1b-4781-a031-2d7cf4fe67be","system_id":"levelo_inurba_marseille","lat":43.24545,"lon":5.39526,"is_reserved":false,"is_disabled":false,"rental_uris":{"android":"levelo://app?vid=006ce50b-1d1b-4781-a031-2d7cf4fe67be","ios":"levelo://app?vid=006ce50b-1d1b-4781-a031-2d7cf4fe67be"},"vehicle_type_id":"4","last_reported":1728940116,"current_range_meters":14400,"station_id":"ce4bhlp2rcd13ifvqgjg","pricing_plan_id":"cebpf4jnsgd1na2vs0mg"},{"bike_id":"00f7f99a-d45a-43de-905c-50f86815ff55","system_id":"levelo_inurba_marseille","lat":43.30955,"lon":5.39044,"is_reserved":false,"is_disabled":false,"rental_uris":{"android":"levelo://app?vid=00f7f99a-d45a-43de-905c-50f86815ff55","ios":"levelo://app?vid=00f7f99a-d45a-43de-905c-50f86815ff55"},"vehicle_type_id":"4","last_reported":1728940116,"current_range_meters":38000,"station_id":"ce4bgup2rcd13ifvqco0","pricing_plan_id":"cebpf4jnsgd1na2vs0mg"},{"bike_id":"851d95b9-311b-4a9b-9406-5dbe2a7d862e","system_id":"levelo_inurba_marseille","lat":43.28706,"lon":5.37378,"is_reserved":false,"is_disabled":false,"rental_uris":{"android":"levelo://app?vid=851d95b9-311b-4a9b-9406-5dbe2a7d862e","ios":"levelo://app?vid=851d95b9-311b-4a9b-9406-5dbe2a7d862e"},"vehicle_type_id":"4","last_reported":1728940116,"current_range_meters":38000,"station_id":"ce4bh3p2rcd13ifvqdq0","pricing_plan_id":"cebpf4jnsgd1na2vs0mg"},{"bike_id":"1af2813b-98a0-4b62-aaf8-89652b30f639","system_id":"levelo_inurba_marseille","lat":43.22936,"lon":5.35378,"is_reserved":false,"is_disabled":false,"rental_uris":{"android":"levelo://app?vid=1af2813b-98a0-4b62-aaf8-89652b30f639","ios":"levelo://app?vid=1af2813b-98a0-4b62-aaf8-89652b30f639"},"vehicle_type_id":"4","last_reported":1728940116,"current_range_meters":34000,"station_id":"cpo3532slgdg3j2ikp40","pricing_plan_id":"cebpf4jnsgd1na2vs0mg"},{"bike_id":"56cbfb1f-f972-4d3b-b678-bc439a517218","system_id":"levelo_inurba_marseille","lat":43.24545,"lon":5.3952,"is_reserved":false,"is_disabled":false,"rental_uris":{"android":"levelo://app?vid=56cbfb1f-f972-4d3b-b678-bc439a517218","ios":"levelo://app?vid=56cbfb1f-f972-4d3b-b678-bc439a517218"},"vehicle_type_id":"4","last_reported":1728940116,"current_range_meters":19600,"station_id":"ce4bhlp2rcd13ifvqgjg","pricing_plan_id":"cebpf4jnsgd1na2vs0mg"},{"bike_id":"cdff0018-74fc-4ff1-8c39-032611a0d384","system_id":"levelo_inurba_marseille","lat":43.28444,"lon":5.39185,"is_reserved":false,"is_disabled":false,"rental_uris":{"android":"levelo://app?vid=cdff0018-74fc-4ff1-8c39-032611a0d384","ios":"levelo://app?vid=cdff0018-74fc-4ff1-8c39-032611a0d384"},"vehicle_type_id":"4","last_reported":1728940116,"current_range_meters":38000,"station_id":"ce4bhoh2rcd13ifvqh5g","pricing_plan_id":"cebpf4jnsgd1na2vs0mg"},{"bike_id":"f93454e1-a669-4c63-a4ca-b572042c7971","system_id":"levelo_inurba_marseille","lat":43.23198,"lon":5.3555,"is_reserved":false,"is_disabled":false,"rental_uris":{"android":"levelo://app?vid=f93454e1-a669-4c63-a4ca-b572042c7971","ios":"levelo://app?vid=f93454e1-a669-4c63-a4ca-b572042c7971"},"vehicle_type_id":"4","last_reported":1728940116,"current_range_meters":28400,"station_id":"ce4bhu92rcd13ifvqi70","pricing_plan_id":"cebpf4jnsgd1na2vs0mg"},{"bike_id":"fee5316d-4b75-4d34-b8e6-8aa7856f957f","system_id":"levelo_inurba_marseille","lat":43.28345,"lon":5.38101,"is_reserved":false,"is_disabled":false,"rental_uris":{"android":"levelo://app?vid=fee5316d-4b75-4d34-b8e6-8aa7856f957f","ios":"levelo://app?vid=fee5316d-4b75-4d34-b8e6-8aa7856f957f"},"vehicle_type_id":"4","last_reported":1728940116,"current_range_meters":22000,"station_id":"ce4bh412rcd13ifvqdr0","pricing_plan_id":"cebpf4jnsgd1na2vs0mg"},{"bike_id":"b29b8739-7b8e-43f9-a215-d5ca7f770e17","system_id":"levelo_inurba_marseille","lat":43.28569,"lon":5.39497,"is_reserved":false,"is_disabled":false,"rental_uris":{"android":"levelo://app?vid=b29b8739-7b8e-43f9-a215-d5ca7f770e17","ios":"levelo://app?vid=b29b8739-7b8e-43f9-a215-d5ca7f770e17"},"vehicle_type_id":"4","last_reported":1728940116,"current_range_meters":9200,"station_id":"ce4bh292rcd13ifvqdg0","pricing_plan_id":"cebpf4jnsgd1na2vs0mg"},{"bike_id":"93facf5b-31f4-420f-ab00-d15967580d37","system_id":"levelo_inurba_marseille","lat":43.29805,"lon":5.39342,"is_reserved":false,"is_disabled":false,"rental_uris":{"android":"levelo://app?vid=93facf5b-31f4-420f-ab00-d15967580d37","ios":"levelo://app?vid=93facf5b-31f4-420f-ab00-d15967580d37"},"vehicle_type_id":"4","last_reported":1728940116,"current_range_meters":33200,"station_id":"chh1huq6cuj3fo74tm60","pricing_plan_id":"cebpf4jnsgd1na2vs0mg"},{"bike_id":"74a40d75-a7ee-49cb-81d0-703868e5b7ab","system_id":"levelo_inurba_marseille","lat":43.28566,"lon":5.39496,"is_reserved":false,"is_disabled":false,"rental_uris":{"android":"levelo://app?vid=74a40d75-a7ee-49cb-81d0-703868e5b7ab","ios":"levelo://app?vid=74a40d75-a7ee-49cb-81d0-703868e5b7ab"},"vehicle_type_id":"4","last_reported":1728940116,"current_range_meters":14800,"station_id":"ce4bh292rcd13ifvqdg0","pricing_plan_id":"cebpf4jnsgd1na2vs0mg"},{"bike_id":"1c4360e4-6aca-4a49-a72b-026589aa10d7","system_id":"levelo_inurba_marseille","lat":43.24808,"lon":5.37459,"is_reserved":false,"is_disabled":false,"rental_uris":{"android":"levelo://app?vid=1c4360e4-6aca-4a49-a72b-026589aa10d7","ios":"levelo://app?vid=1c4360e4-6aca-4a49-a72b-026589aa10d7"},"vehicle_type_id":"4","last_reported":1728940116,"current_range_meters":22400,"station_id":"ce4bhgh2rcd13ifvqfb0","pricing_plan_id":"cebpf4jnsgd1na2vs0mg"},{"bike_id":"30ab4df8-a84b-4610-8861-5b0fefec2fc8","system_id":"levelo_inurba_marseille","lat":43.26692,"lon":5.39558,"is_reserved":false,"is_disabled":false,"rental_uris":{"android":"levelo://app?vid=30ab4df8-a84b-4610-8861-5b0fefec2fc8","ios":"levelo://app?vid=30ab4df8-a84b-4610-8861-5b0fefec2fc8"},"vehicle_type_id":"4","last_reported":1728940116,"current_range_meters":2000,"station_id":"","pricing_plan_id":"cebpf4jnsgd1na2vs0mg"},{"bike_id":"8df94bb5-9315-45f7-aecb-13efe2780616","system_id":"levelo_inurba_marseille","lat":43.31327,"lon":5.39696,"is_reserved":false,"is_disabled":false,"rental_uris":{"android":"levelo://app?vid=8df94bb5-9315-45f7-aecb-13efe2780616","ios":"levelo://app?vid=8df94bb5-9315-45f7-aecb-13efe2780616"},"vehicle_type_id":"4","last_reported":1728940116,"current_range_meters":36800,"station_id":"ce4bgvp2rcd13ifvqcu0","pricing_plan_id":"cebpf4jnsgd1na2vs0mg"},{"bike_id":"476ab3bb-9455-4401-9423-faa80f6c98d8","system_id":"levelo_inurba_marseille","lat":43.29201,"lon":5.39316,"is_reserved":false,"is_disabled":false,"rental_uris":{"android":"levelo://app?vid=476ab3bb-9455-4401-9423-faa80f6c98d8","ios":"levelo://app?vid=476ab3bb-9455-4401-9423-faa80f6c98d8"},"vehicle_type_id":"4","last_reported":1728940116,"current_range_meters":38800,"station_id":"ce4bh192rcd13ifvqdd0","pricing_plan_id":"cebpf4jnsgd1na2vs0mg"},{"bike_id":"6a344486-14e7-432e-98bf-b8beed8e06c6","system_id":"levelo_inurba_marseille","lat":43.32336,"lon":5.38328,"is_reserved":false,"is_disabled":false,"rental_uris":{"android":"levelo://app?vid=6a344486-14e7-432e-98bf-b8beed8e06c6","ios":"levelo://app?vid=6a344486-14e7-432e-98bf-b8beed8e06c6"},"vehicle_type_id":"4","last_reported":1728940116,"current_range_meters":33600,"station_id":"","pricing_plan_id":"cebpf4jnsgd1na2vs0mg"},{"bike_id":"1c29ea6a-d424-450d-9c36-6b427ab42330","system_id":"levelo_inurba_marseille","lat":43.34143,"lon":5.40908,"is_reserved":false,"is_disabled":false,"rental_uris":{"android":"levelo://app?vid=1c29ea6a-d424-450d-9c36-6b427ab42330","ios":"levelo://app?vid=1c29ea6a-d424-450d-9c36-6b427ab42330"},"vehicle_type_id":"4","last_reported":1728940116,"current_range_meters":38800,"station_id":"ce4bhqh2rcd13ifvqhlg","pricing_plan_id":"cebpf4jnsgd1na2vs0mg"},{"bike_id":"0a16d4c2-3eeb-4b94-b061-da2cb44cc965","system_id":"levelo_inurba_marseille","lat":43.29573,"lon":5.39971,"is_reserved":false,"is_disabled":false,"rental_uris":{"android":"levelo://app?vid=0a16d4c2-3eeb-4b94-b061-da2cb44cc965","ios":"levelo://app?vid=0a16d4c2-3eeb-4b94-b061-da2cb44cc965"},"vehicle_type_id":"4","last_reported":1728940116,"current_range_meters":8000,"station_id":"ce4bh312rcd13ifvqdj0","pricing_plan_id":"cebpf4jnsgd1na2vs0mg"},{"bike_id":"88ab7c56-a46a-4ac9-82a2-824ffab5eb39","system_id":"levelo_inurba_marseille","lat":43.30094,"lon":5.39066,"is_reserved":false,"is_disabled":false,"rental_uris":{"android":"levelo://app?vid=88ab7c56-a46a-4ac9-82a2-824ffab5eb39","ios":"levelo://app?vid=88ab7c56-a46a-4ac9-82a2-824ffab5eb39"},"vehicle_type_id":"4","last_reported":1728940116,"current_range_meters":7200,"station_id":"ce4bh192rcd13ifvqdb0","pricing_plan_id":"cebpf4jnsgd1na2vs0mg"},{"bike_id":"72a79d72-22a5-45d1-9521-3624cd089d7a","system_id":"levelo_inurba_marseille","lat":43.24811,"lon":5.37463,"is_reserved":false,"is_disabled":false,"rental_uris":{"android":"levelo://app?vid=72a79d72-22a5-45d1-9521-3624cd089d7a","ios":"levelo://app?vid=72a79d72-22a5-45d1-9521-3624cd089d7a"},"vehicle_type_id":"4","last_reported":1728940116,"current_range_meters":3600,"station_id":"ce4bhgh2rcd13ifvqfb0","pricing_plan_id":"cebpf4jnsgd1na2vs0mg"},{"bike_id":"b4d0a1b2-5852-4f5d-8381-109c817e2ebf","system_id":"levelo_inurba_marseille","lat":43.30611,"lon":5.39366,"is_reserved":false,"is_disabled":false,"rental_uris":{"android":"levelo://app?vid=b4d0a1b2-5852-4f5d-8381-109c817e2ebf","ios":"levelo://app?vid=b4d0a1b2-5852-4f5d-8381-109c817e2ebf"},"vehicle_type_id":"4","last_reported":1728940116,"current_range_meters":25600,"station_id":"ce4bh0p2rcd13ifvqd80","pricing_plan_id":"cebpf4jnsgd1na2vs0mg"},{"bike_id":"f992be3a-c03c-44cb-8c33-d163e9939c4d","system_id":"levelo_inurba_marseille","lat":43.28486,"lon":5.38423,"is_reserved":false,"is_disabled":false,"rental_uris":{"android":"levelo://app?vid=f992be3a-c03c-44cb-8c33-d163e9939c4d","ios":"levelo://app?vid=f992be3a-c03c-44cb-8c33-d163e9939c4d"},"vehicle_type_id":"4","last_reported":1728940116,"current_range_meters":38400,"station_id":"ce4bh512rcd13ifvqe3g","pricing_plan_id":"cebpf4jnsgd1na2vs0mg"},{"bike_id":"2e07a8df-120a-4d4d-a13d-096832a100c6","system_id":"levelo_inurba_marseille","lat":43.30188,"lon":5.36621,"is_reserved":false,"is_disabled":false,"rental_uris":{"android":"levelo://app?vid=2e07a8df-120a-4d4d-a13d-096832a100c6","ios":"levelo://app?vid=2e07a8df-120a-4d4d-a13d-096832a100c6"},"vehicle_type_id":"4","last_reported":1728940116,"current_range_meters":17600,"station_id":"ce4bgrh2rcd13ifvqc8g","pricing_plan_id":"cebpf4jnsgd1na2vs0mg"},{"bike_id":"826e67a1-1f1b-48d5-9965-734aa482296d","system_id":"levelo_inurba_marseille","lat":43.30797,"lon":5.43521,"is_reserved":false,"is_disabled":false,"rental_uris":{"android":"levelo://app?vid=826e67a1-1f1b-48d5-9965-734aa482296d","ios":"levelo://app?vid=826e67a1-1f1b-48d5-9965-734aa482296d"},"vehicle_type_id":"4","last_reported":1728940116,"current_range_meters":9600,"station_id":"ce4bhph2rcd13ifvqheg","pricing_plan_id":"cebpf4jnsgd1na2vs0mg"},{"bike_id":"879b010f-a05b-441e-b4db-8bee165e430f","system_id":"levelo_inurba_marseille","lat":43.3137,"lon":5.38494,"is_reserved":false,"is_disabled":false,"rental_uris":{"android":"levelo://app?vid=879b010f-a05b-441e-b4db-8bee165e430f","ios":"levelo://app?vid=879b010f-a05b-441e-b4db-8bee165e430f"},"vehicle_type_id":"4","last_reported":1728940116,"current_range_meters":24000,"station_id":"ce4bgt92rcd13ifvqcf0","pricing_plan_id":"cebpf4jnsgd1na2vs0mg"},{"bike_id":"754da881-cbc9-4b35-beb2-51d368048841","system_id":"levelo_inurba_marseille","lat":43.33738,"lon":5.37456,"is_reserved":false,"is_disabled":false,"rental_uris":{"android":"levelo://app?vid=754da881-cbc9-4b35-beb2-51d368048841","ios":"levelo://app?vid=754da881-cbc9-4b35-beb2-51d368048841"},"vehicle_type_id":"4","last_reported":1728940116,"current_range_meters":36800,"station_id":"","pricing_plan_id":"cebpf4jnsgd1na2vs0mg"},{"bike_id":"f8b4901e-7e03-471a-9d79-3c3b7466264b","system_id":"levelo_inurba_marseille","lat":43.25864,"lon":5.39908,"is_reserved":false,"is_disabled":false,"rental_uris":{"android":"levelo://app?vid=f8b4901e-7e03-471a-9d79-3c3b7466264b","ios":"levelo://app?vid=f8b4901e-7e03-471a-9d79-3c3b7466264b"},"vehicle_type_id":"4","last_reported":1728940116,"current_range_meters":38800,"station_id":"ce4bhl92rcd13ifvqghg","pricing_plan_id":"cebpf4jnsgd1na2vs0mg"},{"bike_id":"568c26d9-ec54-4cb3-b3fb-7c6fb70a2b67","system_id":"levelo_inurba_marseille","lat":43.22929,"lon":5.35376,"is_reserved":false,"is_disabled":false,"rental_uris":{"android":"levelo://app?vid=568c26d9-ec54-4cb3-b3fb-7c6fb70a2b67","ios":"levelo://app?vid=568c26d9-ec54-4cb3-b3fb-7c6fb70a2b67"},"vehicle_type_id":"4","last_reported":1728940116,"current_range_meters":20800,"station_id":"cpo3532slgdg3j2ikp40","pricing_plan_id":"cebpf4jnsgd1na2vs0mg"},{"bike_id":"80004c0b-1888-4bc4-861c-1bb18fe1efd7","system_id":"levelo_inurba_marseille","lat":43.29551,"lon":5.42271,"is_reserved":false,"is_disabled":false,"rental_uris":{"android":"levelo://app?vid=80004c0b-1888-4bc4-861c-1bb18fe1efd7","ios":"levelo://app?vid=80004c0b-1888-4bc4-861c-1bb18fe1efd7"},"vehicle_type_id":"4","last_reported":1728940116,"current_range_meters":38800,"station_id":"ce4bhph2rcd13ifvqhdg","pricing_plan_id":"cebpf4jnsgd1na2vs0mg"},{"bike_id":"ed91b75d-87ba-4ddb-b18e-1d38ed5eb074","system_id":"levelo_inurba_marseille","lat":43.337444,"lon":5.374475,"is_reserved":false,"is_disabled":false,"rental_uris":{"android":"levelo://app?vid=ed91b75d-87ba-4ddb-b18e-1d38ed5eb074","ios":"levelo://app?vid=ed91b75d-87ba-4ddb-b18e-1d38ed5eb074"},"vehicle_type_id":"4","last_reported":1728940116,"current_range_meters":34000,"station_id":"","pricing_plan_id":"cebpf4jnsgd1na2vs0mg"},{"bike_id":"9356e6fe-b3a7-4603-98a0-f9160a0efc02","system_id":"levelo_inurba_marseille","lat":43.27842,"lon":5.39212,"is_reserved":false,"is_disabled":false,"rental_uris":{"android":"levelo://app?vid=9356e6fe-b3a7-4603-98a0-f9160a0efc02","ios":"levelo://app?vid=9356e6fe-b3a7-4603-98a0-f9160a0efc02"},"vehicle_type_id":"4","last_reported":1728940116,"current_range_meters":37600,"station_id":"ce4bhjp2rcd13ifvqga0","pricing_plan_id":"cebpf4jnsgd1na2vs0mg"},{"bike_id":"1fb7a0ce-7273-4298-9046-691a2796121e","system_id":"levelo_inurba_marseille","lat":43.31692,"lon":5.40462,"is_reserved":false,"is_disabled":false,"rental_uris":{"android":"levelo://app?vid=1fb7a0ce-7273-4298-9046-691a2796121e","ios":"levelo://app?vid=1fb7a0ce-7273-4298-9046-691a2796121e"},"vehicle_type_id":"4","last_reported":1728940116,"current_range_meters":12000,"station_id":"ce4bh012rcd13ifvqd00","pricing_plan_id":"cebpf4jnsgd1na2vs0mg"},{"bike_id":"6514b9a6-8e99-464e-be55-93af0d95018a","system_id":"levelo_inurba_marseille","lat":43.2586,"lon":5.39903,"is_reserved":false,"is_disabled":false,"rental_uris":{"android":"levelo://app?vid=6514b9a6-8e99-464e-be55-93af0d95018a","ios":"levelo://app?vid=6514b9a6-8e99-464e-be55-93af0d95018a"},"vehicle_type_id":"4","last_reported":1728940116,"current_range_meters":24400,"station_id":"ce4bhl92rcd13ifvqghg","pricing_plan_id":"cebpf4jnsgd1na2vs0mg"},{"bike_id":"ee298404-ccd1-4732-8550-ee5818cb3d34","system_id":"levelo_inurba_marseille","lat":43.30328,"lon":5.40436,"is_reserved":false,"is_disabled":false,"rental_uris":{"android":"levelo://app?vid=ee298404-ccd1-4732-8550-ee5818cb3d34","ios":"levelo://app?vid=ee298404-ccd1-4732-8550-ee5818cb3d34"},"vehicle_type_id":"4","last_reported":1728940116,"current_range_meters":20000,"station_id":"ce4bh012rcd13ifvqd10","pricing_plan_id":"cebpf4jnsgd1na2vs0mg"},{"bike_id":"ae9b16fd-48f0-4328-a0f5-df7780625e01","system_id":"levelo_inurba_marseille","lat":43.2706,"lon":5.40264,"is_reserved":false,"is_disabled":false,"rental_uris":{"android":"levelo://app?vid=ae9b16fd-48f0-4328-a0f5-df7780625e01","ios":"levelo://app?vid=ae9b16fd-48f0-4328-a0f5-df7780625e01"},"vehicle_type_id":"4","last_reported":1728940116,"current_range_meters":22400,"station_id":"ce4bhk92rcd13ifvqgc0","pricing_plan_id":"cebpf4jnsgd1na2vs0mg"},{"bike_id":"30ae922e-9319-4d8b-b672-b0e0ae28bede","system_id":"levelo_inurba_marseille","lat":43.304779,"lon":5.401121,"is_reserved":false,"is_disabled":false,"rental_uris":{"android":"levelo://app?vid=30ae922e-9319-4d8b-b672-b0e0ae28bede","ios":"levelo://app?vid=30ae922e-9319-4d8b-b672-b0e0ae28bede"},"vehicle_type_id":"4","last_reported":1728940116,"current_range_meters":32400,"station_id":"ce4bh112rcd13ifvqda0","pricing_plan_id":"cebpf4jnsgd1na2vs0mg"},