{"last_updated":1744657662,"ttl":60,"version":"2.2","data":{"bikes":[{"bike_id":"7d8b4857-84ca-46b5-a5a9-345269830171","system_id":"levelo_inurba_marseille","lat":43.28562,"lon":5.39497,"is_reserved":false,"is_disabled":false,"rental_uris":{"android":"levelo://app?vid=7d8b4857-84ca-46b5-a5a9-345269830171","ios":"levelo://app?vid=7d8b4857-84ca-46b5-a5a9-345269830171"},"vehicle_type_id":"4","last_reported":1744657662,"current_range_meters":2800,"station_id":"ce4bh292rcd13ifvqdg0","pricing_plan_id":"cebpf4jnsgd1na2vs0mg"},{"bike_id":"e914ccdb-80a0-4ea0-bc19-3385a95b7428","system_id":"levelo_inurba_marseille","lat":43.27664,"lon":5.38891,"is_reserved":false,"is_disabled":false,"rental_uris":{"android":"levelo://app?vid=e914ccdb-80a0-4ea0-bc19-3385a95b7428","ios":"levelo://app?vid=e914ccdb-80a0-4ea0-bc19-3385a95b7428"},"vehicle_type_id":"4","last_reported":1744657662,"current_range_meters":3200,"station_id":"ce4bhi12rcd13ifvqfo0","pricing_plan_id":"cebpf4jnsgd1na2vs0mg"},{"bike_id":"40a8d0e0-d59d-4895-9f22-da5bd9b27bd8","system_id":"levelo_inurba_marseille","lat":43.29866,"lon":5.3974,"is_reserved":false,"is_disabled":false,"rental_uris":{"android":"levelo://app?vid=40a8d0e0-d59d-4895-9f22-da5bd9b27bd8","ios":"levelo://app?vid=40a8d0e0-d59d-4895-9f22-da5bd9b27bd8"},"vehicle_type_id":"4","last_reported":1744657662,"current_range_meters":3200,"station_id":"ce4bh0h2rcd13ifvqd50","pricing_plan_id":"cebpf4jnsgd1na2vs0mg"},{"bike_id":"944bddab-9f41-4da7-80e2-b3e803e6b9a5","system_id":"levelo_inurba_marseille","lat":43.212001,"lon":5.35072,"is_reserved":false,"is_disabled":false,"rental_uris":{"android":"levelo://app?vid=944bddab-9f41-4da7-80e2-b3e803e6b9a5","ios":"levelo://app?vid=944bddab-9f41-4da7-80e2-b3e803e6b9a5"},"vehicle_type_id":"4","last_reported":1744657662,"current_range_meters":3200,"station_id":"st_cvj6sg6p6f1abm77japg","pricing_plan_id":"cebpf4jnsgd1na2vs0mg"},{"bike_id":"bf0615b2-4590-4cd3-ac39-eb0d1daa551d","system_id":"levelo_inurba_marseille","lat":43.29028,"lon":5.38652,"is_reserved":false,"is_disabled":false,"rental_uris":{"android":"levelo://app?vid=bf0615b2-4590-4cd3-ac39-eb0d1daa551d","ios":"levelo://app?vid=bf0615b2-4590-4cd3-ac39-eb0d1daa551d"},"vehicle_type_id":"4","last_reported":1744657662,"current_range_meters":3600,"station_id":"ce4bh4p2rcd13ifvqe0g","pricing_plan_id":"cebpf4jnsgd1na2vs0mg"},{"bike_id":"6db93bc8-c7a5-430b-85c6-1725072957c9","system_id":"levelo_inurba_marseille","lat":43.30021,"lon":5.37754,"is_reserved":false,"is_disabled":false,"rental_uris":{"android":"levelo://app?vid=6db93bc8-c7a5-430b-85c6-1725072957c9","ios":"levelo://app?vid=6db93bc8-c7a5-430b-85c6-1725072957c9"},"vehicle_type_id":"4","last_reported":1744657662,"current_range_meters":3600,"station_id":"","pricing_plan_id":"cebpf4jnsgd1na2vs0mg"},{"bike_id":"6b8e50ab-3273-40b2-8397-90918d2143d8","system_id":"levelo_inurba_marseille","lat":43.28849,"lon":5.39316,"is_reserved":false,"is_disabled":false,"rental_uris":{"android":"levelo://app?vid=6b8e50ab-3273-40b2-8397-90918d2143d8","ios":"levelo://app?vid=6b8e50ab-3273-40b2-8397-90918d2143d8"},"vehicle_type_id":"4","last_reported":1744657662,"current_range_meters":3600,"station_id":"ce4bh2p2rcd13ifvqdi0","pricing_plan_id":"cebpf4jnsgd1na2vs0mg"},{"bike_id":"527905aa-c975-4236-bb21-bf2113433bbd","system_id":"levelo_inurba_marseille","lat":43.28569,"lon":5.395,"is_reserved":false,"is_disabled":false,"rental_uris":{"android":"levelo://app?vid=527905aa-c975-4236-bb21-bf2113433bbd","ios":"levelo://app?vid=527905aa-c975-4236-bb21-bf2113433bbd"},"vehicle_type_id":"4","last_reported":1744657662,"current_range_meters":3600,"station_id":"ce4bh292rcd13ifvqdg0","pricing_plan_id":"cebpf4jnsgd1na2vs0mg"},{"bike_id":"e0806936-c881-40df-a297-d95116e49342","system_id":"levelo_inurba_marseille","lat":43.295233,"lon":5.390394,"is_reserved":false,"is_disabled":false,"rental_uris":{"android":"levelo://app?vid=e0806936-c881-40df-a297-d95116e49342","ios":"levelo://app?vid=e0806936-c881-40df-a297-d95116e49342"},"vehicle_type_id":"4","last_reported":1744657662,"current_range_meters":4000,"station_id":"ce4bh3p2rcd13ifvqdp0","pricing_plan_id":"cebpf4jnsgd1na2vs0mg"},{"bike_id":"e927d476-1a02-486f-9d26-19367b0fa220","system_id":"levelo_inurba_marseille","lat":43.29268,"lon":5.38451,"is_reserved":false,"is_disabled":false,"rental_uris":{"android":"levelo://app?vid=e927d476-1a02-486f-9d26-19367b0fa220","ios":"levelo://app?vid=e927d476-1a02-486f-9d26-19367b0fa220"},"vehicle_type_id":"4","last_reported":1744657662,"current_range_meters":4000,"station_id":"ce4bh692rcd13ifvqea0","pricing_plan_id":"cebpf4jnsgd1na2vs0mg"},{"bike_id":"128e37b1-0cb4-4b51-8779-c5fac30f906e","system_id":"levelo_inurba_marseille","lat":43.29515,"lon":5.39403,"is_reserved":false,"is_disabled":false,"rental_uris":{"android":"levelo://app?vid=128e37b1-0cb4-4b51-8779-c5fac30f906e","ios":"levelo://app?vid=128e37b1-0cb4-4b51-8779-c5fac30f906e"},"vehicle_type_id":"4","last_reported":1744657662,"current_range_meters":4000,"station_id":"ce4bh292rcd13ifvqdf0","pricing_plan_id":"cebpf4jnsgd1na2vs0mg"},{"bike_id":"dc375f91-c49e-4fe1-abeb-a13f9c28f87e","system_id":"levelo_inurba_marseille","lat":43.287,"lon":5.37389,"is_reserved":false,"is_disabled":false,"rental_uris":{"android":"levelo://app?vid=dc375f91-c49e-4fe1-abeb-a13f9c28f87e","ios":"levelo://app?vid=dc375f91-c49e-4fe1-abeb-a13f9c28f87e"},"vehicle_type_id":"4","last_reported":1744657662,"current_range_meters":4400,"station_id":"ce4bh3p2rcd13ifvqdq0","pricing_plan_id":"cebpf4jnsgd1na2vs0mg"},{"bike_id":"caffca0f-4aa3-4aaf-a020-b7190befb739","system_id":"levelo_inurba_marseille","lat":43.30181,"lon":5.38768,"is_reserved":false,"is_disabled":true,"rental_uris":{"android":"levelo://app?vid=caffca0f-4aa3-4aaf-a020-b7190befb739","ios":"levelo://app?vid=caffca0f-4aa3-4aaf-a020-b7190befb739"},"vehicle_type_id":"4","last_reported":1744657662,"current_range_meters":4400,"station_id":"ce4bghh2rcd13ifvqb60","pricing_plan_id":"cebpf4jnsgd1na2vs0mg"},{"bike_id":"ae8e1f29-85bc-4c3c-997b-fc33f33f029f","system_id":"levelo_inurba_marseille","lat":43.284617,"lon":5.358893,"is_reserved":false,"is_disabled":false,"rental_uris":{"android":"levelo://app?vid=ae8e1f29-85bc-4c3c-997b-fc33f33f029f","ios":"levelo://app?vid=ae8e1f29-85bc-4c3c-997b-fc33f33f029f"},"vehicle_type_id":"4","last_reported":1744657662,"current_range_meters":4400,"station_id":"ce4bhah2rcd13ifvqei0","pricing_plan_id":"cebpf4jnsgd1na2vs0mg"},{"bike_id":"c63ed2ec-8177-467b-8581-8cb5a65609fb","system_id":"levelo_inurba_marseille","lat":43.24395,"lon":5.37047,"is_reserved":false,"is_disabled":true,"rental_uris":{"android":"levelo://app?vid=c63ed2ec-8177-467b-8581-8cb5a65609fb","ios":"levelo://app?vid=c63ed2ec-8177-467b-8581-8cb5a65609fb"},"vehicle_type_id":"4","last_reported":1744657662,"current_range_meters":4400,"station_id":"ce4bhhh2rcd13ifvqfk0","pricing_plan_id":"cebpf4jnsgd1na2vs0mg"},{"bike_id":"c96309e5-314b-45a4-9b05-878ae29c3672","system_id":"levelo_inurba_marseille","lat":43.29783,"lon":5.38126,"is_reserved":false,"is_disabled":false,"rental_uris":{"android":"levelo://app?vid=c96309e5-314b-45a4-9b05-878ae29c3672","ios":"levelo://app?vid=c96309e5-314b-45a4-9b05-878ae29c3672"},"vehicle_type_id":"4","last_reported":1744657662,"current_range_meters":4400,"station_id":"ce4bgip2rcd13ifvqbb0","pricing_plan_id":"cebpf4jnsgd1na2vs0mg"},{"bike_id":"fd92a10d-7168-4351-9213-dab10bdbe7b9","system_id":"levelo_inurba_marseille","lat":43.24804,"lon":5.37457,"is_reserved":false,"is_disabled":false,"rental_uris":{"android":"levelo://app?vid=fd92a10d-7168-4351-9213-dab10bdbe7b9","ios":"levelo://app?vid=fd92a10d-7168-4351-9213-dab10bdbe7b9"},"vehicle_type_id":"4","last_reported":1744657662,"current_range_meters":4400,"station_id":"ce4bhgh2rcd13ifvqfb0","pricing_plan_id":"cebpf4jnsgd1na2vs0mg"},{"bike_id":"2987e5a3-b373-4553-b157-9309e399027b","system_id":"levelo_inurba_marseille","lat":43.28404,"lon":5.37515,"is_reserved":false,"is_disabled":false,"rental_uris":{"android":"levelo://app?vid=2987e5a3-b373-4553-b157-9309e399027b","ios":"levelo://app?vid=2987e5a3-b373-4553-b157-9309e399027b"},"vehicle_type_id":"4","last_reported":1744657662,"current_range_meters":4400,"station_id":"ce4bh412rcd13ifvqds0","pricing_plan_id":"cebpf4jnsgd1na2vs0mg"},{"bike_id":"2f47e1e9-c8a5-4f1d-954e-ccb95f739537","system_id":"levelo_inurba_marseille","lat":43.255815,"lon":5.382365,"is_reserved":false,"is_disabled":false,"rental_uris":{"android":"levelo://app?vid=2f47e1e9-c8a5-4f1d-954e-ccb95f739537","ios":"levelo://app?vid=2f47e1e9-c8a5-4f1d-954e-ccb95f739537"},"vehicle_type_id":"4","last_reported":1744657662,"current_range_meters":4800,"station_id":"ce4bhnp2rcd13ifvqgvg","pricing_plan_id":"cebpf4jnsgd1na2vs0mg"},{"bike_id":"c83810a8-e51a-4124-b3eb-ddba8eacd3a7","system_id":"levelo_inurba_marseille","lat":43.24073,"lon":5.37758,"is_reserved":false,"is_disabled":false,"rental_uris":{"android":"levelo://app?vid=c83810a8-e51a-4124-b3eb-ddba8eacd3a7","ios":"levelo://app?vid=c83810a8-e51a-4124-b3eb-ddba8eacd3a7"},"vehicle_type_id":"4","last_reported":1744657662,"current_range_meters":4800,"station_id":"ce4bhnp2rcd13ifvqgvg","pricing_plan_id":"cebpf4jnsgd1na2vs0mg"},{"bike_id":"b202c1a6-2281-4a37-b2b9-569cb6187265","system_id":"levelo_inurba_marseille","lat":43.26568,"lon":5.39017,"is_reserved":false,"is_disabled":false,"rental_uris":{"android":"levelo://app?vid=b202c1a6-2281-4a37-b2b9-569cb6187265","ios":"levelo://app?vid=b202c1a6-2281-4a37-b2b9-569cb6187265"},"vehicle_type_id":"4","last_reported":1744657662,"current_range_meters":4800,"station_id":"ce4bhe12rcd13ifvqf30","pricing_plan_id":"cebpf4jnsgd1na2vs0mg"},{"bike_id":"76450c2c-888f-4d08-a5c0-d825237615aa","system_id":"levelo_inurba_marseille","lat":43.27228,"lon":5.42316,"is_reserved":false,"is_disabled":false,"rental_uris":{"android":"levelo://app?vid=76450c2c-888f-4d08-a5c0-d825237615aa","ios":"levelo://app?vid=76450c2c-888f-4d08-a5c0-d825237615aa"},"vehicle_type_id":"4","last_reported":1744657662,"current_range_meters":5600,"station_id":"","pricing_plan_id":"cebpf4jnsgd1na2vs0mg"},{"bike_id":"17637803-ed28-487c-b796-1f9bd7ef5a65","system_id":"levelo_inurba_marseille","lat":43.23075,"lon":5.35509,"is_reserved":false,"is_disabled":false,"rental_uris":{"android":"levelo://app?vid=17637803-ed28-487c-b796-1f9bd7ef5a65","ios":"levelo://app?vid=17637803-ed28-487c-b796-1f9bd7ef5a65"},"vehicle_type_id":"4","last_reported":1744657662,"current_range_meters":5600,"station_id":"cpo3342slgdg3j2ifvpg","pricing_plan_id":"cebpf4jnsgd1na2vs0mg"},{"bike_id":"78e5e9fc-0fc5-41fa-a1b1-617b5e4db10c","system_id":"levelo_inurba_marseille","lat":43.21764,"lon":5.34564,"is_reserved":false,"is_disabled":false,"rental_uris":{"android":"levelo://app?vid=78e5e9fc-0fc5-41fa-a1b1-617b5e4db10c","ios":"levelo://app?vid=78e5e9fc-0fc5-41fa-a1b1-617b5e4db10c"},"vehicle_type_id":"4","last_reported":1744657662,"current_range_meters":5600,"station_id":"st_cvj6r9ubvosntc0bgbag","pricing_plan_id":"cebpf4jnsgd1na2vs0mg"},{"bike_id":"14cb738e-7d81-4c7c-b7dd-1db7c87b9a42","system_id":"levelo_inurba_marseille","lat":43.27058,"lon":5.40257,"is_reserved":false,"is_disabled":false,"rental_uris":{"android":"levelo://app?vid=14cb738e-7d81-4c7c-b7dd-1db7c87b9a42","ios":"levelo://app?vid=14cb738e-7d81-4c7c-b7dd-1db7c87b9a42"},"vehicle_type_id":"4","last_reported":1744657662,"current_range_meters":5600,"station_id":"ce4bhk92rcd13ifvqgc0","pricing_plan_id":"cebpf4jnsgd1na2vs0mg"},{"bike_id":"b9087548-4565-45ad-af2d-acfba56f2023","system_id":"levelo_inurba_marseille","lat":43.28729,"lon":5.36078,"is_reserved":false,"is_disabled":false,"rental_uris":{"android":"levelo://app?vid=b9087548-4565-45ad-af2d-acfba56f2023","ios":"levelo://app?vid=b9087548-4565-45ad-af2d-acfba56f2023"},"vehicle_type_id":"4","last_reported":1744657662,"current_range_meters":6000,"station_id":"cki0cbj6b192h4jlfktg","pricing_plan_id":"cebpf4jnsgd1na2vs0mg"},{"bike_id":"2323ce21-7b17-4fb3-8905-5ecaee1e0880","system_id":"levelo_inurba_marseille","lat":43.24177,"lon":5.39737,"is_reserved":false,"is_disabled":false,"rental_uris":{"android":"levelo://app?vid=2323ce21-7b17-4fb3-8905-5ecaee1e0880","ios":"levelo://app?vid=2323ce21-7b17-4fb3-8905-5ecaee1e0880"},"vehicle_type_id":"4","last_reported":1744657662,"current_range_meters":6000,"station_id":"ce4bhn12rcd13ifvqgpg","pricing_plan_id":"cebpf4jnsgd1na2vs0mg"},{"bike_id":"bbdfbb30-9c1e-450d-a87c-a2dc0a92b366","system_id":"levelo_inurba_marseille","lat":43.307992,"lon":5.435302,"is_reserved":false,"is_disabled":false,"rental_uris":{"android":"levelo://app?vid=bbdfbb30-9c1e-450d-a87c-a2dc0a92b366","ios":"levelo://app?vid=bbdfbb30-9c1e-450d-a87c-a2dc0a92b366"},"vehicle_type_id":"4","last_reported":1744657662,"current_range_meters":6000,"station_id":"ce4bhph2rcd13ifvqheg","pricing_plan_id":"cebpf4jnsgd1na2vs0mg"},{"bike_id":"2aab1e85-e44c-46f7-8a6a-1308e9210129","system_id":"levelo_inurba_marseille","lat":43.3009,"lon":5.39079,"is_reserved":false,"is_disabled":false,"rental_uris":{"android":"levelo://app?vid=2aab1e85-e44c-46f7-8a6a-1308e9210129","ios":"levelo://app?vid=2aab1e85-e44c-46f7-8a6a-1308e9210129"},"vehicle_type_id":"4","last_reported":1744657662,"current_range_meters":6000,"station_id":"ce4bh192rcd13ifvqdb0","pricing_plan_id":"cebpf4jnsgd1na2vs0mg"},{"bike_id":"776559f7-deca-449b-a4e0-b81b3e31d260","system_id":"levelo_inurba_marseille","lat":43.29191,"lon":5.39332,"is_reserved":false,"is_disabled":false,"rental_uris":{"android":"levelo://app?vid=776559f7-deca-449b-a4e0-b81b3e31d260","ios":"levelo://app?vid=776559f7-deca-449b-a4e0-b81b3e31d260"},"vehicle_type_id":"4","last_reported":1744657662,"current_range_meters":6000,"station_id":"ce4bh192rcd13ifvqdd0","pricing_plan_id":"cebpf4jnsgd1na2vs0mg"},{"bike_id":"103a0598-bcdb-4ecd-93d5-9a88a653e8eb","system_id":"levelo_inurba_marseille","lat":43.2862,"lon":5.35112,"is_reserved":false,"is_disabled":false,"rental_uris":{"android":"levelo://app?vid=103a0598-bcdb-4ecd-93d5-9a88a653e8eb","ios":"levelo://app?vid=103a0598-bcdb-4ecd-93d5-9a88a653e8eb"},"vehicle_type_id":"4","last_reported":1744657662,"current_range_meters":6000,"station_id":"ce4bhch2rcd13ifvqeug","pricing_plan_id":"cebpf4jnsgd1na2vs0mg"},{"bike_id":"bb9bb216-fb17-455b-abed-0af845bc5cb1","system_id":"levelo_inurba_marseille","lat":43.29316,"lon":5.37165,"is_reserved":false,"is_disabled":false,"rental_uris":{"android":"levelo://app?vid=bb9bb216-fb17-455b-abed-0af845bc5cb1","ios":"levelo://app?vid=bb9bb216-fb17-455b-abed-0af845bc5cb1"},"vehicle_type_id":"4","last_reported":1744657662,"current_range_meters":6000,"station_id":"ce4bgh92rcd13ifvqb40","pricing_plan_id":"cebpf4jnsgd1na2vs0mg"},{"bike_id":"256d6ad0-59f8-4af1-ba19-28d47b7244f7","system_id":"levelo_inurba_marseille","lat":43.30793,"lon":5.38166,"is_reserved":false,"is_disabled":false,"rental_uris":{"android":"levelo://app?vid=256d6ad0-59f8-4af1-ba19-28d47b7244f7","ios":"levelo://app?vid=256d6ad0-59f8-4af1-ba19-28d47b7244f7"},"vehicle_type_id":"4","last_reported":1744657662,"current_range_meters":6400,"station_id":"ce4bgt12rcd13ifvqce0","pricing_plan_id":"cebpf4jnsgd1na2vs0mg"},{"bike_id":"ad2cb50d-d4f1-4fca-923d-df97062387a9","system_id":"levelo_inurba_marseille","lat":43.25496,"lon":5.37646,"is_reserved":false,"is_disabled":false,"rental_uris":{"android":"levelo://app?vid=ad2cb50d-d4f1-4fca-923d-df97062387a9","ios":"levelo://app?vid=ad2cb50d-d4f1-4fca-923d-df97062387a9"},"vehicle_type_id":"4","last_reported":1744657662,"current_range_meters":6400,"station_id":"ce4bhh12rcd13ifvqff0","pricing_plan_id":"cebpf4jnsgd1na2vs0mg"},{"bike_id":"0e6973d7-2ebc-47e3-ad7d-a41496c6ad8b","system_id":"levelo_inurba_marseille","lat":43.27974,"lon":5.38744,"is_reserved":false,"is_disabled":false,"rental_uris":{"android":"levelo://app?vid=0e6973d7-2ebc-47e3-ad7d-a41496c6ad8b","ios":"levelo://app?vid=0e6973d7-2ebc-47e3-ad7d-a41496c6ad8b"},"vehicle_type_id":"4","last_reported":1744657662,"current_range_meters":6400,"station_id":"ce4bhg12rcd13ifvqf80","pricing_plan_id":"cebpf4jnsgd1na2vs0mg"},{"bike_id":"b55dd5e7-54b2-4035-b945-7b626dd7afc7","system_id":"levelo_inurba_marseille","lat":43.27971,"lon":5.40582,"is_reserved":false,"is_disabled":false,"rental_uris":{"android":"levelo://app?vid=b55dd5e7-54b2-4035-b945-7b626dd7afc7","ios":"levelo://app?vid=b55dd5e7-54b2-4035-b945-7b626dd7afc7"},"vehicle_type_id":"4","last_reported":1744657662,"current_range_meters":6400,"station_id":"","pricing_plan_id":"cebpf4jnsgd1na2vs0mg"},{"bike_id":"8e89f110-a7d4-475f-aa63-049e04cf7a2a","system_id":"levelo_inurba_marseille","lat":43.28846,"lon":5.35838,"is_reserved":false,"is_disabled":false,"rental_uris":{"android":"levelo://app?vid=8e89f110-a7d4-475f-aa63-049e04cf7a2a","ios":"levelo://app?vid=8e89f110-a7d4-475f-aa63-049e04cf7a2a"},"vehicle_type_id":"4","last_reported":1744657662,"current_range_meters":6400,"station_id":"ce4bhb12rcd13ifvqem0","pricing_plan_id":"cebpf4jnsgd1na2vs0mg"},{"bike_id":"79b76c7b-f4d0-49bb-9528-e1f29a6862b6","system_id":"levelo_inurba_marseille","lat":43.28615,"lon":5.35103,"is_reserved":false,"is_disabled":false,"rental_uris":{"android":"levelo://app?vid=79b76c7b-f4d0-49bb-9528-e1f29a6862b6","ios":"levelo://app?vid=79b76c7b-f4d0-49bb-9528-e1f29a6862b6"},"vehicle_type_id":"4","last_reported":1744657662,"current_range_meters":6400,"station_id":"ce4bhch2rcd13ifvqeug","pricing_plan_id":"cebpf4jnsgd1na2vs0mg"},{"bike_id":"b8e27718-a768-4db1-b4db-4a904067afe9","system_id":"levelo_inurba_marseille","lat":43.29525,"lon":5.38552,"is_reserved":false,"is_disabled":false,"rental_uris":{"android":"levelo://app?vid=b8e27718-a768-4db1-b4db-4a904067afe9","ios":"levelo://app?vid=b8e27718-a768-4db1-b4db-4a904067afe9"},"vehicle_type_id":"4","last_reported":1744657662,"current_range_meters":6400,"station_id":"ce4bgih2rcd13ifvqba0","pricing_plan_id":"cebpf4jnsgd1na2vs0mg"},{"bike_id":"515271b0-9b96-43f1-9b62-f663213b7c02","system_id":"levelo_inurba_marseille","lat":43.29046,"lon":5.35685,"is_reserved":false,"is_disabled":false,"rental_uris":{"android":"levelo://app?vid=515271b0-9b96-43f1-9b62-f663213b7c02","ios":"levelo://app?vid=515271b0-9b96-43f1-9b62-f663213b7c02"},"vehicle_type_id":"4","last_reported":1744657662,"current_range_meters":6400,"station_id":"","pricing_plan_id":"cebpf4jnsgd1na2vs0mg"},{"bike_id":"58760ace-ce77-41d1-8fff-13adfe6644fd","system_id":"levelo_inurba_marseille","lat":43.25577,"lon":5.38249,"is_reserved":false,"is_disabled":false,"rental_uris":{"android":"levelo://app?vid=58760ace-ce77-41d1-8fff-13adfe6644fd","ios":"levelo://app?vid=58760ace-ce77-41d1-8fff-13adfe6644fd"},"vehicle_type_id":"4","last_reported":1744657662,"current_range_meters":6400,"station_id":"ce4bhih2rcd13ifvqfs0","pricing_plan_id":"cebpf4jnsgd1na2vs0mg"},{"bike_id":"f9f2b206-16c7-49fc-8541-64ebe6f247b4","system_id":"levelo_inurba_marseille","lat":43.29572,"lon":5.39979,"is_reserved":false,"is_disabled":false,"rental_uris":{"android":"levelo://app?vid=f9f2b206-16c7-49fc-8541-64ebe6f247b4","ios":"levelo://app?vid=f9f2b206-16c7-49fc-8541-64ebe6f247b4"},"vehicle_type_id":"4","last_reported":1744657662,"current_range_meters":6400,"station_id":"ce4bh312rcd13ifvqdj0","pricing_plan_id":"cebpf4jnsgd1na2vs0mg"},{"bike_id":"2f7c83e8-c28e-49f8-9393-775130069462","system_id":"levelo_inurba_marseille","lat":43.27204,"lon":5.39195,"is_reserved":false,"is_disabled":true,"rental_uris":{"android":"levelo://app?vid=2f7c83e8-c28e-49f8-9393-775130069462","ios":"levelo://app?vid=2f7c83e8-c28e-49f8-9393-775130069462"},"vehicle_type_id":"4","last_reported":1744657662,"current_range_meters":6800,"station_id":"ce4bhhp2rcd13ifvqfm0","pricing_plan_id":"cebpf4jnsgd1na2vs0mg"},{"bike_id":"a82afaeb-23b1-45ad-b116-a2f06f189cc5","system_id":"levelo_inurba_marseille","lat":43.2989,"lon":5.38889,"is_reserved":false,"is_disabled":false,"rental_uris":{"android":"levelo://app?vid=a82afaeb-23b1-45ad-b116-a2f06f189cc5","ios":"levelo://app?vid=a82afaeb-23b1-45ad-b116-a2f06f189cc5"},"vehicle_type_id":"4","last_reported":1744657662,"current_range_meters":6800,"station_id":"ce4bh392rcd13ifvqdl0","pricing_plan_id":"cebpf4jnsgd1na2vs0mg"},{"bike_id":"6c03a2b0-68d5-4baf-879f-313cf53eb4bb","system_id":"levelo_inurba_marseille","lat":43.28721,"lon":5.37941,"is_reserved":false,"is_disabled":false,"rental_uris":{"android":"levelo://app?vid=6c03a2b0-68d5-4baf-879f-313cf53eb4bb","ios":"levelo://app?vid=6c03a2b0-68d5-4baf-879f-313cf53eb4bb"},"vehicle_type_id":"4","last_reported":1744657662,"current_range_meters":6800,"station_id":"ce4bh9p2rcd13ifvqec0","pricing_plan_id":"cebpf4jnsgd1na2vs0mg"},{"bike_id":"0df50e72-8e77-494a-9904-08eb029a04a2","system_id":"levelo_inurba_marseille","lat":43.283905,"lon":5.385108,"is_reserved":false,"is_disabled":false,"rental_uris":{"android":"levelo://app?vid=0df50e72-8e77-494a-9904-08eb029a04a2","ios":"levelo://app?vid=0df50e72-8e77-494a-9904-08eb029a04a2"},"vehicle_type_id":"4","last_reported":1744657662,"current_range_meters":6800,"station_id":"ce4bh512rcd13ifvqe3g","pricing_plan_id":"cebpf4jnsgd1na2vs0mg"},{"bike_id":"8103a265-04ac-47ce-97f6-9150e490ae38","system_id":"levelo_inurba_marseille","lat":43.30917,"lon":5.40149,"is_reserved":false,"is_disabled":false,"rental_uris":{"android":"levelo://app?vid=8103a265-04ac-47ce-97f6-9150e490ae38","ios":"levelo://app?vid=8103a265-04ac-47ce-97f6-9150e490ae38"},"vehicle_type_id":"4","last_reported":1744657662,"current_range_meters":6800,"station_id":"ce4bgvp2rcd13ifvqct0","pricing_plan_id":"cebpf4jnsgd1na2vs0mg"},{"bike_id":"3bf57d48-471c-4876-b3bc-a33cba567ece","system_id":"levelo_inurba_marseille","lat":43.31481,"lon":5.37309,"is_reserved":false,"is_disabled":false,"rental_uris":{"android":"levelo://app?vid=3bf57d48-471c-4876-b3bc-a33cba567ece","ios":"levelo://app?vid=3bf57d48-471c-4876-b3bc-a33cba567ece"},"vehicle_type_id":"4","last_reported":1744657662,"current_range_meters":6800,"station_id":"ce4bgt12rcd13ifvqcd0","pricing_plan_id":"cebpf4jnsgd1na2vs0mg"},{"bike_id":"aba0471a-6d5a-4ace-add4-2c37cf78cc14","system_id":"levelo_inurba_marseille","lat":43.28697,"lon":5.37394,"is_reserved":false,"is_disabled":false,"rental_uris":{"android":"levelo://app?vid=aba0471a-6d5a-4ace-add4-2c37cf78cc14","ios":"levelo://app?vid=aba0471a-6d5a-4ace-add4-2c37cf78cc14"},"vehicle_type_id":"4","last_reported":1744657662,"current_range_meters":6800,"station_id":"ce4bh3p2rcd13ifvqdq0","pricing_plan_id":"cebpf4jnsgd1na2vs0mg"},{"bike_id":"d373ed4c-aba0-4974-b8ad-53c5cbe85936","system_id":"levelo_inurba_marseille","lat":43.29444,"lon":5.39759,"is_reserved":false,"is_disabled":true,"rental_uris":{"android":"levelo://app?vid=d373ed4c-aba0-4974-b8ad-53c5cbe85936","ios":"levelo://app?vid=d373ed4c-aba0-4974-b8ad-53c5cbe85936"},"vehicle_type_id":"4","last_reported":1744657662,"current_range_meters":6800,"station_id":"ce4bh3h2rcd13ifvqdo0","pricing_plan_id":"cebpf4jnsgd1na2vs0mg"},{"bike_id":"ad590656-5665-4c60-886d-622c7b00d99c","system_id":"levelo_inurba_marseille","lat":43.29517,"lon":5.39406,"is_reserved":false,"is_disabled":false,"rental_uris":{"android":"levelo://app?vid=ad590656-5665-4c60-886d-622c7b00d99c","ios":"levelo://app?vid=ad590656-5665-4c60-886d-622c7b00d99c"},"vehicle_type_id":"4","last_reported":1744657662,"current_range_meters":6800,"station_id":"ce4bh292rcd13ifvqdf0","pricing_plan_id":"cebpf4jnsgd1na2vs0mg"},{"bike_id":"ffd9a623-0631-4899-8f41-7f2e09483ce4","system_id":"levelo_inurba_marseille","lat":43.2849,"lon":5.35875,"is_reserved":false,"is_disabled":false,"rental_uris":{"android":"levelo://app?vid=ffd9a623-0631-4899-8f41-7f2e09483ce4","ios":"levelo://app?vid=ffd9a623-0631-4899-8f41-7f2e09483ce4"},"vehicle_type_id":"4","last_reported":1744657662,"current_range_meters":6800,"station_id":"ce4bhah2rcd13ifvqei0","pricing_plan_id":"cebpf4jnsgd1na2vs0mg"},{"bike_id":"1db06f83-e2df-4c88-abff-fe3fd63cf02f","system_id":"levelo_inurba_marseille","lat":43.24543,"lon":5.39533,"is_reserved":false,"is_disabled":false,"rental_uris":{"android":"levelo://app?vid=1db06f83-e2df-4c88-abff-fe3fd63cf02f","ios":"levelo://app?vid=1db06f83-e2df-4c88-abff-fe3fd63cf02f"},"vehicle_type_id":"4","last_reported":1744657662,"current_range_meters":6800,"station_id":"ce4bhlp2rcd13ifvqgjg","pricing_plan_id":"cebpf4jnsgd1na2vs0mg"},{"bike_id":"cdefaf23-b564-4f66-ad44-d79e40a15561","system_id":"levelo_inurba_marseille","lat":43.30428,"lon":5.41275,"is_reserved":false,"is_disabled":false,"rental_uris":{"android":"levelo://app?vid=cdefaf23-b564-4f66-ad44-d79e40a15561","ios":"levelo://app?vid=cdefaf23-b564-4f66-ad44-d79e40a15561"},"vehicle_type_id":"4","last_reported":1744657662,"current_range_meters":6800,"station_id":"ce4bhop2rcd13ifvqh8g","pricing_plan_id":"cebpf4jnsgd1na2vs0mg"},{"bike_id":"c5580f3d-6b09-4084-8588-68795fad4968","system_id":"levelo_inurba_marseille","lat":43.30125,"lon":5.39879,"is_reserved":false,"is_disabled":false,"rental_uris":{"android":"levelo://app?vid=c5580f3d-6b09-4084-8588-68795fad4968","ios":"levelo://app?vid=c5580f3d-6b09-4084-8588-68795fad4968"},"vehicle_type_id":"4","last_reported":1744657662,"current_range_meters":6800,"station_id":"ce4bh0h2rcd13ifvqd40","pricing_plan_id":"cebpf4jnsgd1na2vs0mg"},{"bike_id":"3b65cfe3-8ea2-4757-8d5a-011f2681a6b6","system_id":"levelo_inurba_marseille","lat":43.25582,"lon":5.38234,"is_reserved":false,"is_disabled":false,"rental_uris":{"android":"levelo://app?vid=3b65cfe3-8ea2-4757-8d5a-011f2681a6b6","ios":"levelo://app?vid=3b65cfe3-8ea2-4757-8d5a-011f2681a6b6"},"vehicle_type_id":"4","last_reported":1744657662,"current_range_meters":7200,"station_id":"ce4bhih2rcd13ifvqfs0","pricing_plan_id":"cebpf4jnsgd1na2vs0mg"},{"bike_id":"49312242-09f6-4270-8df9-a649b1accedf","system_id":"levelo_inurba_marseille","lat":43.29595,"lon":5.38099,"is_reserved":false,"is_disabled":false,"rental_uris":{"android":"levelo://app?vid=49312242-09f6-4270-8df9-a649b1accedf","ios":"levelo://app?vid=49312242-09f6-4270-8df9-a649b1accedf"},"vehicle_type_id":"4","last_reported":1744657662,"current_range_meters":7200,"station_id":"ce4bgl12rcd13ifvqbo0","pricing_plan_id":"cebpf4jnsgd1na2vs0mg"},{"bike_id":"e164f831-c423-4a4c-ab46-aaa381e5dd7d","system_id":"levelo_inurba_marseille","lat":43.31117,"lon":5.37759,"is_reserved":false,"is_disabled":false,"rental_uris":{"android":"levelo://app?vid=e164f831-c423-4a4c-ab46-aaa381e5dd7d","ios":"levelo://app?vid=e164f831-c423-4a4c-ab46-aaa381e5dd7d"},"vehicle_type_id":"4","last_reported":1744657662,"current_range_meters":7200,"station_id":"ce4bgt92rcd13ifvqcg0","pricing_plan_id":"cebpf4jnsgd1na2vs0mg"},{"bike_id":"f503adc4-877c-4a7d-924f-cc189df0a4a9","system_id":"levelo_inurba_marseille","lat":43.27827,"lon":5.40693,"is_reserved":false,"is_disabled":false,"rental_uris":{"android":"levelo://app?vid=f503adc4-877c-4a7d-924f-cc189df0a4a9","ios":"levelo://app?vid=f503adc4-877c-4a7d-924f-cc189df0a4a9"},"vehicle_type_id":"4","last_reported":1744657662,"current_range_meters":7200,"station_id":"ce4bhnh2rcd13ifvqgtg","pricing_plan_id":"cebpf4jnsgd1na2vs0mg"},{"bike_id":"993c3ed3-acdf-45b6-9d06-d4244a60fb18","system_id":"levelo_inurba_marseille","lat":43.28939,"lon":5.36646,"is_reserved":false,"is_disabled":false,"rental_uris":{"android":"levelo://app?vid=993c3ed3-acdf-45b6-9d06-d4244a60fb18","ios":"levelo://app?vid=993c3ed3-acdf-45b6-9d06-d4244a60fb18"},"vehicle_type_id":"4","last_reported":1744657662,"current_range_meters":7200,"station_id":"ce4bhap2rcd13ifvqek0","pricing_plan_id":"cebpf4jnsgd1na2vs0mg"},{"bike_id":"0c1b4847-3846-4aea-a451-4a28d9b7c6fc","system_id":"levelo_inurba_marseille","lat":43.2988,"lon":5.38909,"is_reserved":false,"is_disabled":false,"rental_uris":{"android":"levelo://app?vid=0c1b4847-3846-4aea-a451-4a28d9b7c6fc","ios":"levelo://app?vid=0c1b4847-3846-4aea-a451-4a28d9b7c6fc"},"vehicle_type_id":"4","last_reported":1744657662,"current_range_meters":7200,"station_id":"ce4bh392rcd13ifvqdl0","pricing_plan_id":"cebpf4jnsgd1na2vs0mg"},{"bike_id":"a98a0159-c1be-483e-b0a5-a6a6974ddd4d","system_id":"levelo_inurba_marseille","lat":43.24183,"lon":5.39736,"is_reserved":false,"is_disabled":false,"rental_uris":{"android":"levelo://app?vid=a98a0159-c1be-483e-b0a5-a6a6974ddd4d","ios":"levelo://app?vid=a98a0159-c1be-483e-b0a5-a6a6974ddd4d"},"vehicle_type_id":"4","last_reported":1744657662,"current_range_meters":7200,"station_id":"ce4bhn12rcd13ifvqgpg","pricing_plan_id":"cebpf4jnsgd1na2vs0mg"},{"bike_id":"487dc05c-067b-48e2-8004-9d9377708f61","system_id":"levelo_inurba_marseille","lat":43.2885,"lon":5.39306,"is_reserved":false,"is_disabled":false,"rental_uris":{"android":"levelo://app?vid=487dc05c-067b-48e2-8004-9d9377708f61","ios":"levelo://app?vid=487dc05c-067b-48e2-8004-9d9377708f61"},"vehicle_type_id":"4","last_reported":1744657662,"current_range_meters":8000,"station_id":"ce4bh2p2rcd13ifvqdi0","pricing_plan_id":"cebpf4jnsgd1na2vs0mg"},{"bike_id":"bc1e941d-5514-4193-a637-cfb6de114bfa","system_id":"levelo_inurba_marseille","lat":43.25589,"lon":5.38234,"is_reserved":false,"is_disabled":false,"rental_uris":{"android":"levelo://app?vid=bc1e941d-5514-4193-a637-cfb6de114bfa","ios":"levelo://app?vid=bc1e941d-5514-4193-a637-cfb6de114bfa"},"vehicle_type_id":"4","last_reported":1744657662,"current_range_meters":8000,"station_id":"ce4bhih2rcd13ifvqfs0","pricing_plan_id":"cebpf4jnsgd1na2vs0mg"},{"bike_id":"2ace7cfc-a1c0-439a-8643-5ba535d4a22e","system_id":"levelo_inurba_marseille","lat":43.30217,"lon":5.39471,"is_reserved":false,"is_disabled":false,"rental_uris":{"android":"levelo://app?vid=2ace7cfc-a1c0-439a-8643-5ba535d4a22e","ios":"levelo://app?vid=2ace7cfc-a1c0-439a-8643-5ba535d4a22e"},"vehicle_type_id":"4","last_reported":1744657662,"current_range_meters":8000,"station_id":"ce4bh0p2rcd13ifvqd70","pricing_plan_id":"cebpf4jnsgd1na2vs0mg"},{"bike_id":"9223b507-aba7-461a-999b-d11be6e79643","system_id":"levelo_inurba_marseille","lat":43.31691,"lon":5.40475,"is_reserved":false,"is_disabled":false,"rental_uris":{"android":"levelo://app?vid=9223b507-aba7-461a-999b-d11be6e79643","ios":"levelo://app?vid=9223b507-aba7-461a-999b-d11be6e79643"},"vehicle_type_id":"4","last_reported":1744657662,"current_range_meters":8000,"station_id":"ce4bh012rcd13ifvqd00","pricing_plan_id":"cebpf4jnsgd1na2vs0mg"},{"bike_id":"77f29589-fdae-4886-8022-2155a978ed5b","system_id":"levelo_inurba_marseille","lat":43.30798,"lon":5.43532,"is_reserved":false,"is_disabled":false,"rental_uris":{"android":"levelo://app?vid=77f29589-fdae-4886-8022-2155a978ed5b","ios":"levelo://app?vid=77f29589-fdae-4886-8022-2155a978ed5b"},"vehicle_type_id":"4","last_reported":1744657662,"current_range_meters":8400,"station_id":"ce4bhph2rcd13ifvqheg","pricing_plan_id":"cebpf4jnsgd1na2vs0mg"},{"bike_id":"3aed7779-c504-4c59-9bc4-147dd8f7f6c5","system_id":"levelo_inurba_marseille","lat":43.30329,"lon":5.40444,"is_reserved":false,"is_disabled":false,"rental_uris":{"android":"levelo://app?vid=3aed7779-c504-4c59-9bc4-147dd8f7f6c5","ios":"levelo://app?vid=3aed7779-c504-4c59-9bc4-147dd8f7f6c5"},"vehicle_type_id":"4","last_reported":1744657662,"current_range_meters":8400,"station_id":"ce4bh012rcd13ifvqd10","pricing_plan_id":"cebpf4jnsgd1na2vs0mg"},{"bike_id":"f9d00231-f179-4724-a005-d01cce993033","system_id":"levelo_inurba_marseille","lat":43.27833,"lon":5.39217,"is_reserved":false,"is_disabled":false,"rental_uris":{"android":"levelo://app?vid=f9d00231-f179-4724-a005-d01cce993033","ios":"levelo://app?vid=f9d00231-f179-4724-a005-d01cce993033"},"vehicle_type_id":"4","last_reported":1744657662,"current_range_meters":8400,"station_id":"ce4bhjp2rcd13ifvqga0","pricing_plan_id":"cebpf4jnsgd1na2vs0mg"},{"bike_id":"22f11d89-3f5d-4cb0-a32b-6ef4f9cd8448","system_id":"levelo_inurba_marseille","lat":43.2957,"lon":5.39981,"is_reserved":false,"is_disabled":false,"rental_uris":{"android":"levelo://app?vid=22f11d89-3f5d-4cb0-a32b-6ef4f9cd8448","ios":"levelo://app?vid=22f11d89-3f5d-4cb0-a32b-6ef4f9cd8448"},"vehicle_type_id":"4","last_reported":1744657662,"current_range_meters":8400,"station_id":"ce4bh312rcd13ifvqdj0","pricing_plan_id":"cebpf4jnsgd1na2vs0mg"},{"bike_id":"ea57a632-faf4-41db-ad02-90c8174c7665","system_id":"levelo_inurba_marseille","lat":43.28273,"lon":5.35084,"is_reserved":false,"is_disabled":false,"rental_uris":{"android":"levelo://app?vid=ea57a632-faf4-41db-ad02-90c8174c7665","ios":"levelo://app?vid=ea57a632-faf4-41db-ad02-90c8174c7665"},"vehicle_type_id":"4","last_reported":1744657662,"current_range_meters":8400,"station_id":"ce4bhbp2rcd13ifvqerg","pricing_plan_id":"cebpf4jnsgd1na2vs0mg"},{"bike_id":"11da79f8-f2d6-41fe-b0c4-dc24936dcfd4","system_id":"levelo_inurba_marseille","lat":43.287306,"lon":5.361105,"is_reserved":false,"is_disabled":false,"rental_uris":{"android":"levelo://app?vid=11da79f8-f2d6-41fe-b0c4-dc24936dcfd4","ios":"levelo://app?vid=11da79f8-f2d6-41fe-b0c4-dc24936dcfd4"},"vehicle_type_id":"4","last_reported":1744657662,"current_range_meters":8400,"station_id":"cki0cbj6b192h4jlfktg","pricing_plan_id":"cebpf4jnsgd1na2vs0mg"},{"bike_id":"8d24a072-21ed-41cd-b0aa-05b3f1373b74","system_id":"levelo_inurba_marseille","lat":43.31059,"lon":5.3833,"is_reserved":false,"is_disabled":true,"rental_uris":{"android":"levelo://app?vid=8d24a072-21ed-41cd-b0aa-05b3f1373b74","ios":"levelo://app?vid=8d24a072-21ed-41cd-b0aa-05b3f1373b74"},"vehicle_type_id":"4","last_reported":1744657662,"current_range_meters":8800,"station_id":"ce4bgv92rcd13ifvqcr0","pricing_plan_id":"cebpf4jnsgd1na2vs0mg"},{"bike_id":"6e481bd0-79fb-4af6-a151-724e992843b2","system_id":"levelo_inurba_marseille","lat":43.293092,"lon":5.371787,"is_reserved":false,"is_disabled":false,"rental_uris":{"android":"levelo://app?vid=6e481bd0-79fb-4af6-a151-724e992843b2","ios":"levelo://app?vid=6e481bd0-79fb-4af6-a151-724e992843b2"},"vehicle_type_id":"4","last_reported":1744657662,"current_range_meters":8800,"station_id":"ce4bhb92rcd13ifvqen0","pricing_plan_id":"cebpf4jnsgd1na2vs0mg"},{"bike_id":"e1cfb2db-9308-45d0-913f-899415789267","system_id":"levelo_inurba_marseille","lat":43.25835,"lon":5.39432,"is_reserved":false,"is_disabled":false,"rental_uris":{"android":"levelo://app?vid=e1cfb2db-9308-45d0-913f-899415789267","ios":"levelo://app?vid=e1cfb2db-9308-45d0-913f-899415789267"},"vehicle_type_id":"4","last_reported":1744657662,"current_range_meters":8800,"station_id":"ce4bhip2rcd13ifvqft0","pricing_plan_id":"cebpf4jnsgd1na2vs0mg"},{"bike_id":"f54621ed-18a4-407d-b2a5-fca9dc05a814","system_id":"levelo_inurba_marseille","lat":43.29291,"lon":5.37176,"is_reserved":false,"is_disabled":false,"rental_uris":{"android":"levelo://app?vid=f54621ed-18a4-407d-b2a5-fca9dc05a814","ios":"levelo://app?vid=f54621ed-18a4-407d-b2a5-fca9dc05a814"},"vehicle_type_id":"4","last_reported":1744657662,"current_range_meters":8800,"station_id":"ce4bgh92rcd13ifvqb40","pricing_plan_id":"cebpf4jnsgd1na2vs0mg"},{"bike_id":"15613681-3a44-45b7-8b93-a3177f0e1766","system_id":"levelo_inurba_marseille","lat":43.31704,"lon":5.37751,"is_reserved":false,"is_disabled":false,"rental_uris":{"android":"levelo://app?vid=15613681-3a44-45b7-8b93-a3177f0e1766","ios":"levelo://app?vid=15613681-3a44-45b7-8b93-a3177f0e1766"},"vehicle_type_id":"4","last_reported":1744657662,"current_range_meters":8800,"station_id":"ce4bgth2rcd13ifvqch0","pricing_plan_id":"cebpf4jnsgd1na2vs0mg"},{"bike_id":"e8f703a1-eb3b-45ed-827d-ca43a8842bf7","system_id":"levelo_inurba_marseille","lat":43.29971,"lon":5.38489,"is_reserved":false,"is_disabled":true,"rental_uris":{"android":"levelo://app?vid=e8f703a1-eb3b-45ed-827d-ca43a8842bf7","ios":"levelo://app?vid=e8f703a1-eb3b-45ed-827d-ca43a8842bf7"},"vehicle_type_id":"4","last_reported":1744657662,"current_range_meters":8800,"station_id":"ce4bgj92rcd13ifvqbd0","pricing_plan_id":"cebpf4jnsgd1na2vs0mg"},{"bike_id":"19a89524-a9e5-411c-9a2d-95c0f553dcf9","system_id":"levelo_inurba_marseille","lat":43.3199,"lon":5.38152,"is_reserved":false,"is_disabled":false,"rental_uris":{"android":"levelo://app?vid=19a89524-a9e5-411c-9a2d-95c0f553dcf9","ios":"levelo://app?vid=19a89524-a9e5-411c-9a2d-95c0f553dcf9"},"vehicle_type_id":"4","last_reported":1744657662,"current_range_meters":8800,"station_id":"ce4bhr12rcd13ifvqhpg","pricing_plan_id":"cebpf4jnsgd1na2vs0mg"},{"bike_id":"729563a6-41a3-4ff3-a068-44e58651bb98","system_id":"levelo_inurba_marseille","lat":43.25902,"lon":5.39885,"is_reserved":false,"is_disabled":false,"rental_uris":{"android":"levelo://app?vid=729563a6-41a3-4ff3-a068-44e58651bb98","ios":"levelo://app?vid=729563a6-41a3-4ff3-a068-44e58651bb98"},"vehicle_type_id":"4","last_reported":1744657662,"current_range_meters":8800,"station_id":"ce4bhl92rcd13ifvqghg","pricing_plan_id":"cebpf4jnsgd1na2vs0mg"},{"bike_id":"2adaa2cb-c0d5-4f18-b8a6-1467f9548961","system_id":"levelo_inurba_marseille","lat":43.29635,"lon":5.38102,"is_reserved":false,"is_disabled":false,"rental_uris":{"android":"levelo://app?vid=2adaa2cb-c0d5-4f18-b8a6-1467f9548961","ios":"levelo://app?vid=2adaa2cb-c0d5-4f18-b8a6-1467f9548961"},"vehicle_type_id":"4","last_reported":1744657662,"current_range_meters":8800,"station_id":"ce4bgl12rcd13ifvqbo0","pricing_plan_id":"cebpf4jnsgd1na2vs0mg"},{"bike_id":"5cacdac6-936a-44c6-9e06-3d5924e24ab3","system_id":"levelo_inurba_marseille","lat":43.284192,"lon":5.349864,"is_reserved":false,"is_disabled":false,"rental_uris":{"android":"levelo://app?vid=5cacdac6-936a-44c6-9e06-3d5924e24ab3","ios":"levelo://app?vid=5cacdac6-936a-44c6-9e06-3d5924e24ab3"},"vehicle_type_id":"4","last_reported":1744657662,"current_range_meters":9200,"station_id":"ce4bhbh2rcd13ifvqepg","pricing_plan_id":"cebpf4jnsgd1na2vs0mg"},{"bike_id":"c3a32f8a-9407-4ddd-9e73-bccb9215daad","system_id":"levelo_inurba_marseille","lat":43.28934,"lon":5.3664,"is_reserved":false,"is_disabled":false,"rental_uris":{"android":"levelo://app?vid=c3a32f8a-9407-4ddd-9e73-bccb9215daad","ios":"levelo://app?vid=c3a32f8a-9407-4ddd-9e73-bccb9215daad"},"vehicle_type_id":"4","last_reported":1744657662,"current_range_meters":9200,"station_id":"ce4bhap2rcd13ifvqek0","pricing_plan_id":"cebpf4jnsgd1na2vs0mg"},{"bike_id":"910fb47a-9c95-4dea-9d3a-d3ba03131734","system_id":"levelo_inurba_marseille","lat":43.29439,"lon":5.39742,"is_reserved":false,"is_disabled":false,"rental_uris":{"android":"levelo://app?vid=910fb47a-9c95-4dea-9d3a-d3ba03131734","ios":"levelo://app?vid=910fb47a-9c95-4dea-9d3a-d3ba03131734"},"vehicle_type_id":"4","last_reported":1744657662,"current_range_meters":9200,"station_id":"ce4bh3h2rcd13ifvqdo0","pricing_plan_id":"cebpf4jnsgd1na2vs0mg"},{"bike_id":"5dbf5b92-8b4a-4ef8-a554-c3bbd05907a7","system_id":"levelo_inurba_marseille","lat":43.29004,"lon":5.3561,"is_reserved":false,"is_disabled":false,"rental_uris":{"android":"levelo://app?vid=5dbf5b92-8b4a-4ef8-a554-c3bbd05907a7","ios":"levelo://app?vid=5dbf5b92-8b4a-4ef8-a554-c3bbd05907a7"},"vehicle_type_id":"4","last_reported":1744657662,"current_range_meters":9200,"station_id":"ce4bhb92rcd13ifvqen0","pricing_plan_id":"cebpf4jnsgd1na2vs0mg"},{"bike_id":"1923198b-0436-4bd8-972d-1bc17fd7d33d","system_id":"levelo_inurba_marseille","lat":43.27912,"lon":5.39577,"is_reserved":false,"is_disabled":false,"rental_uris":{"android":"levelo://app?vid=1923198b-0436-4bd8-972d-1bc17fd7d33d","ios":"levelo://app?vid=1923198b-0436-4bd8-972d-1bc17fd7d33d"},"vehicle_type_id":"4","last_reported":1744657662,"current_range_meters":9200,"station_id":"ce4bhf92rcd13ifvqf40","pricing_plan_id":"cebpf4jnsgd1na2vs0mg"},{"bike_id":"52467ef2-bb23-4d5a-aebd-2782338dc161","system_id":"levelo_inurba_marseille","lat":43.21195,"lon":5.35079,"is_reserved":false,"is_disabled":false,"rental_uris":{"android":"levelo://app?vid=52467ef2-bb23-4d5a-aebd-2782338dc161","ios":"levelo://app?vid=52467ef2-bb23-4d5a-aebd-2782338dc161"},"vehicle_type_id":"4","last_reported":1744657662,"current_range_meters":9200,"station_id":"st_cvj6sg6p6f1abm77japg","pricing_plan_id":"cebpf4jnsgd1na2vs0mg"},{"bike_id":"88f894bb-59b1-4a36-879a-be2d8520ef7a","system_id":"levelo_inurba_marseille","lat":43.30647,"lon":5.40101,"is_reserved":false,"is_disabled":false,"rental_uris":{"android":"levelo://app?vid=88f894bb-59b1-4a36-879a-be2d8520ef7a","ios":"levelo://app?vid=88f894bb-59b1-4a36-879a-be2d8520ef7a"},"vehicle_type_id":"4","last_reported":1744657662,"current_range_meters":9200,"station_id":"ce4bh112rcd13ifvqda0","pricing_plan_id":"cebpf4jnsgd1na2vs0mg"},{"bike_id":"e5fec748-d40e-4920-9754-2970802f80fb","system_id":"levelo_inurba_marseille","lat":43.30323,"lon":5.4044,"is_reserved":false,"is_disabled":false,"rental_uris":{"android":"levelo://app?vid=e5fec748-d40e-4920-9754-2970802f80fb","ios":"levelo://app?vid=e5fec748-d40e-4920-9754-2970802f80fb"},"vehicle_type_id":"4","last_reported":1744657662,"current_range_meters":9200,"station_id":"ce4bh012rcd13ifvqd10","pricing_plan_id":"cebpf4jnsgd1na2vs0mg"},{"bike_id":"700fa022-5fcf-47a4-83fe-8efec575de4f","system_id":"levelo_inurba_marseille","lat":43.29009,"lon":5.35617,"is_reserved":false,"is_disabled":false,"rental_uris":{"android":"levelo://app?vid=700fa022-5fcf-47a4-83fe-8efec575de4f","ios":"levelo://app?vid=700fa022-5fcf-47a4-83fe-8efec575de4f"},"vehicle_type_id":"4","last_reported":1744657662,"current_range_meters":9200,"station_id":"ce4bhb92rcd13ifvqen0","pricing_plan_id":"cebpf4jnsgd1na2vs0mg"},{"bike_id":"df24e887-fe82-46f8-ad88-3f9e2f7268c0","system_id":"levelo_inurba_marseille","lat":43.28406,"lon":5.37515,"is_reserved":false,"is_disabled":false,"rental_uris":{"android":"levelo://app?vid=df24e887-fe82-46f8-ad88-3f9e2f7268c0","ios":"levelo://app?vid=df24e887-fe82-46f8-ad88-3f9e2f7268c0"},"vehicle_type_id":"4","last_reported":1744657662,"current_range_meters":9600,"station_id":"ce4bh412rcd13ifvqds0","pricing_plan_id":"cebpf4jnsgd1na2vs0mg"},{"bike_id":"b4a19ddd-ec2c-4178-96c7-9e5bf749190e","system_id":"levelo_inurba_marseille","lat":43.29901,"lon":5.43653,"is_reserved":false,"is_disabled":false,"rental_uris":{"android":"levelo://app?vid=b4a19ddd-ec2c-4178-96c7-9e5bf749190e","ios":"levelo://app?vid=b4a19ddd-ec2c-4178-96c7-9e5bf749190e"},"vehicle_type_id":"4","last_reported":1744657662,"current_range_meters":9600,"station_id":"ce4bhpp2rcd13ifvqhfg","pricing_plan_id":"cebpf4jnsgd1na2vs0mg"},{"bike_id":"0a12b0d3-e386-4b5f-b86a-2d0ef8901903","system_id":"levelo_inurba_marseille","lat":43.29416,"lon":5.38624,"is_reserved":false,"is_disabled":false,"rental_uris":{"android":"levelo://app?vid=0a12b0d3-e386-4b5f-b86a-2d0ef8901903","ios":"levelo://app?vid=0a12b0d3-e386-4b5f-b86a-2d0ef8901903"},"vehicle_type_id":"4","last_reported":1744657662,"current_range_meters":9600,"station_id":"ce4bh2h2rcd13ifvqdh0","pricing_plan_id":"cebpf4jnsgd1na2vs0mg"},{"bike_id":"ef734429-5e24-498b-98db-95ee16873a56","system_id":"levelo_inurba_marseille","lat":43.27068,"lon":5.42281,"is_reserved":false,"is_disabled":false,"rental_uris":{"android":"levelo://app?vid=ef734429-5e24-498b-98db-95ee16873a56","ios":"levelo://app?vid=ef734429-5e24-498b-98db-95ee16873a56"},"vehicle_type_id":"4","last_reported":1744657662,"current_range_meters":9600,"station_id":"ce4bhk92rcd13ifvqgb0","pricing_plan_id":"cebpf4jnsgd1na2vs0mg"},{"bike_id":"63fa6274-f5a7-4ac5-803d-1a0fec34bba0","system_id":"levelo_inurba_marseille","lat":43.28361,"lon":5.3811,"is_reserved":false,"is_disabled":false,"rental_uris":{"android":"levelo://app?vid=63fa6274-f5a7-4ac5-803d-1a0fec34bba0","ios":"levelo://app?vid=63fa6274-f5a7-4ac5-803d-1a0fec34bba0"},"vehicle_type_id":"4","last_reported":1744657662,"current_range_meters":9600,"station_id":"ce4bh412rcd13ifvqdr0","pricing_plan_id":"cebpf4jnsgd1na2vs0mg"},{"bike_id":"35652074-a189-4dda-9948-248bda899afb","system_id":"levelo_inurba_marseille","lat":43.29599,"lon":5.38107,"is_reserved":false,"is_disabled":false,"rental_uris":{"android":"levelo://app?vid=35652074-a189-4dda-9948-248bda899afb","ios":"levelo://app?vid=35652074-a189-4dda-9948-248bda899afb"},"vehicle_type_id":"4","last_reported":1744657662,"current_range_meters":9600,"station_id":"ce4bgl12rcd13ifvqbo0","pricing_plan_id":"cebpf4jnsgd1na2vs0mg"},{"bike_id":"b62d1434-c42b-4d2d-977d-d90a2291da9b","system_id":"levelo_inurba_marseille","lat":43.26927,"lon":5.40278,"is_reserved":false,"is_disabled":true,"rental_uris":{"android":"levelo://app?vid=b62d1434-c42b-4d2d-977d-d90a2291da9b","ios":"levelo://app?vid=b62d1434-c42b-4d2d-977d-d90a2291da9b"},"vehicle_type_id":"4","last_reported":1744657662,"current_range_meters":9600,"station_id":"cjm6bp8fraef2m0cb0m0","pricing_plan_id":"cebpf4jnsgd1na2vs0mg"},{"bike_id":"49ec7595-df47-47ed-8cc1-49807b4ee80d","system_id":"levelo_inurba_marseille","lat":43.312203,"lon":5.368518,"is_reserved":false,"is_disabled":false,"rental_uris":{"android":"levelo://app?vid=49ec7595-df47-47ed-8cc1-49807b4ee80d","ios":"levelo://app?vid=49ec7595-df47-47ed-8cc1-49807b4ee80d"},"vehicle_type_id":"4","last_reported":1744657662,"current_range_meters":9600,"station_id":"ce4bgl92rcd13ifvqbq0","pricing_plan_id":"cebpf4jnsgd1na2vs0mg"},{"bike_id":"a805b716-d3f2-41f8-8ac2-43d02ff2936a","system_id":"levelo_inurba_marseille","lat":43.28381,"lon":5.38114,"is_reserved":false,"is_disabled":false,"rental_uris":{"android":"levelo://app?vid=a805b716-d3f2-41f8-8ac2-43d02ff2936a","ios":"levelo://app?vid=a805b716-d3f2-41f8-8ac2-43d02ff2936a"},"vehicle_type_id":"4","last_reported":1744657662,"current_range_meters":9600,"station_id":"ce4bh412rcd13ifvqdr0","pricing_plan_id":"cebpf4jnsgd1na2vs0mg"},{"bike_id":"000cce46-0aba-4c03-8967-d18cf441ccd3","system_id":"levelo_inurba_marseille","lat":43.30325,"lon":5.40429,"is_reserved":false,"is_disabled":false,"rental_uris":{"android":"levelo://app?vid=000cce46-0aba-4c03-8967-d18cf441ccd3","ios":"levelo://app?vid=000cce46-0aba-4c03-8967-d18cf441ccd3"},"vehicle_type_id":"4","last_reported":1744657662,"current_range_meters":9600,"station_id":"ce4bh012rcd13ifvqd10","pricing_plan_id":"cebpf4jnsgd1na2vs0mg"},{"bike_id":"e2b0293e-9cc0-4d7f-87ef-f2880e7c8264","system_id":"levelo_inurba_marseille","lat":43.28045,"lon":5.36931,"is_reserved":false,"is_disabled":false,"rental_uris":{"android":"levelo://app?vid=e2b0293e-9cc0-4d7f-87ef-f2880e7c8264","ios":"levelo://app?vid=e2b0293e-9cc0-4d7f-87ef-f2880e7c8264"},"vehicle_type_id":"4","last_reported":1744657662,"current_range_meters":10000,"station_id":"ce4bha12rcd13ifvqef0","pricing_plan_id":"cebpf4jnsgd1na2vs0mg"},{"bike_id":"fe1a207e-0368-4df6-8e3d-aa5766bd2a70","system_id":"levelo_inurba_marseille","lat":43.27912,"lon":5.39581,"is_reserved":false,"is_disabled":false,"rental_uris":{"android":"levelo://app?vid=fe1a207e-0368-4df6-8e3d-aa5766bd2a70","ios":"levelo://app?vid=fe1a207e-0368-4df6-8e3d-aa5766bd2a70"},"vehicle_type_id":"4","last_reported":1744657662,"current_range_meters":10000,"station_id":"ce4bhf92rcd13ifvqf40","pricing_plan_id":"cebpf4jnsgd1na2vs0mg"},{"bike_id":"3f9cca5d-310d-4c78-9203-87e1b62a0bed","system_id":"levelo_inurba_marseille","lat":43.28845,"lon":5.35843,"is_reserved":false,"is_disabled":false,"rental_uris":{"android":"levelo://app?vid=3f9cca5d-310d-4c78-9203-87e1b62a0bed","ios":"levelo://app?vid=3f9cca5d-310d-4c78-9203-87e1b62a0bed"},"vehicle_type_id":"4","last_reported":1744657662,"current_range_meters":10000,"station_id":"ce4bhb12rcd13ifvqem0","pricing_plan_id":"cebpf4jnsgd1na2vs0mg"},{"bike_id":"8f2adbcd-b044-4ad0-b1eb-0aa42ca31983","system_id":"levelo_inurba_marseille","lat":43.31058,"lon":5.38346,"is_reserved":false,"is_disabled":false,"rental_uris":{"android":"levelo://app?vid=8f2adbcd-b044-4ad0-b1eb-0aa42ca31983","ios":"levelo://app?vid=8f2adbcd-b044-4ad0-b1eb-0aa42ca31983"},"vehicle_type_id":"4","last_reported":1744657662,"current_range_meters":10000,"station_id":"ce4bgv92rcd13ifvqcr0","pricing_plan_id":"cebpf4jnsgd1na2vs0mg"},{"bike_id":"8a58a04e-f069-487b-905a-c2f308a407cd","system_id":"levelo_inurba_marseille","lat":43.33038,"lon":5.39066,"is_reserved":false,"is_disabled":false,"rental_uris":{"android":"levelo://app?vid=8a58a04e-f069-487b-905a-c2f308a407cd","ios":"levelo://app?vid=8a58a04e-f069-487b-905a-c2f308a407cd"},"vehicle_type_id":"4","last_reported":1744657662,"current_range_meters":10000,"station_id":"ce4bhr92rcd13ifvqhrg","pricing_plan_id":"cebpf4jnsgd1na2vs0mg"},{"bike_id":"80589066-0399-4cc0-bc38-2a742e14cd9b","system_id":"levelo_inurba_marseille","lat":43.28356,"lon":5.38102,"is_reserved":false,"is_disabled":false,"rental_uris":{"android":"levelo://app?vid=80589066-0399-4cc0-bc38-2a742e14cd9b","ios":"levelo://app?vid=80589066-0399-4cc0-bc38-2a742e14cd9b"},"vehicle_type_id":"4","last_reported":1744657662,"current_range_meters":10000,"station_id":"ce4bh412rcd13ifvqdr0","pricing_plan_id":"cebpf4jnsgd1na2vs0mg"},{"bike_id":"f4d0523c-f7eb-4944-bb84-72a1dacaa200","system_id":"levelo_inurba_marseille","lat":43.27914,"lon":5.39586,"is_reserved":false,"is_disabled":false,"rental_uris":{"android":"levelo://app?vid=f4d0523c-f7eb-4944-bb84-72a1dacaa200","ios":"levelo://app?vid=f4d0523c-f7eb-4944-bb84-72a1dacaa200"},"vehicle_type_id":"4","last_reported":1744657662,"current_range_meters":10000,"station_id":"ce4bhf92rcd13ifvqf40","pricing_plan_id":"cebpf4jnsgd1na2vs0mg"},{"bike_id":"6691a9ef-c28d-459c-8a6a-6ee9403bebe3","system_id":"levelo_inurba_marseille","lat":43.30357,"lon":5.41877,"is_reserved":false,"is_disabled":false,"rental_uris":{"android":"levelo://app?vid=6691a9ef-c28d-459c-8a6a-6ee9403bebe3","ios":"levelo://app?vid=6691a9ef-c28d-459c-8a6a-6ee9403bebe3"},"vehicle_type_id":"4","last_reported":1744657662,"current_range_meters":11600,"station_id":"ce4bhop2rcd13ifvqh7g","pricing_plan_id":"cebpf4jnsgd1na2vs0mg"},{"bike_id":"f77c0807-b2f7-4d0c-bf81-2209fa6e64cd","system_id":"levelo_inurba_marseille","lat":43.27812,"lon":5.40719,"is_reserved":false,"is_disabled":false,"rental_uris":{"android":"levelo://app?vid=f77c0807-b2f7-4d0c-bf81-2209fa6e64cd","ios":"levelo://app?vid=f77c0807-b2f7-4d0c-bf81-2209fa6e64cd"},"vehicle_type_id":"4","last_reported":1744657662,"current_range_meters":10800,"station_id":"ce4bhnh2rcd13ifvqgtg","pricing_plan_id":"cebpf4jnsgd1na2vs0mg"},{"bike_id":"f808232a-1cb6-4774-9e2c-ee0efd43e1b6","system_id":"levelo_inurba_marseille","lat":43.30145,"lon":5.37427,"is_reserved":false,"is_disabled":false,"rental_uris":{"android":"levelo://app?vid=f808232a-1cb6-4774-9e2c-ee0efd43e1b6","ios":"levelo://app?vid=f808232a-1cb6-4774-9e2c-ee0efd43e1b6"},"vehicle_type_id":"4","last_reported":1744657662,"current_range_meters":10800,"station_id":"ce4bgs92rcd13ifvqcc0","pricing_plan_id":"cebpf4jnsgd1na2vs0mg"},{"bike_id":"16a2b383-68c4-40a9-8f59-77dc12518cf4","system_id":"levelo_inurba_marseille","lat":43.28707,"lon":5.37402,"is_reserved":false,"is_disabled":false,"rental_uris":{"android":"levelo://app?vid=16a2b383-68c4-40a9-8f59-77dc12518cf4","ios":"levelo://app?vid=16a2b383-68c4-40a9-8f59-77dc12518cf4"},"vehicle_type_id":"4","last_reported":1744657662,"current_range_meters":10800,"station_id":"ce4bh3p2rcd13ifvqdq0","pricing_plan_id":"cebpf4jnsgd1na2vs0mg"},{"bike_id":"6c41ce82-3ce7-4d83-af6d-6eb0fdf49328","system_id":"levelo_inurba_marseille","lat":43.28037,"lon":5.36957,"is_reserved":false,"is_disabled":false,"rental_uris":{"android":"levelo://app?vid=6c41ce82-3ce7-4d83-af6d-6eb0fdf49328","ios":"levelo://app?vid=6c41ce82-3ce7-4d83-af6d-6eb0fdf49328"},"vehicle_type_id":"4","last_reported":1744657662,"current_range_meters":10800,"station_id":"ce4bha12rcd13ifvqef0","pricing_plan_id":"cebpf4jnsgd1na2vs0mg"},{"bike_id":"2f93173f-d02c-4e29-ab59-1fff882697d7","system_id":"levelo_inurba_marseille","lat":43.24064,"lon":5.37761,"is_reserved":false,"is_disabled":false,"rental_uris":{"android":"levelo://app?vid=2f93173f-d02c-4e29-ab59-1fff882697d7","ios":"levelo://app?vid=2f93173f-d02c-4e29-ab59-1fff882697d7"},"vehicle_type_id":"4","last_reported":1744657662,"current_range_meters":10800,"station_id":"ce4bhnp2rcd13ifvqgvg","pricing_plan_id":"cebpf4jnsgd1na2vs0mg"},{"bike_id":"303bb363-25a7-4764-a095-c72c9a0d609f","system_id":"levelo_inurba_marseille","lat":43.28147,"lon":5.42651,"is_reserved":false,"is_disabled":false,"rental_uris":{"android":"levelo://app?vid=303bb363-25a7-4764-a095-c72c9a0d609f","ios":"levelo://app?vid=303bb363-25a7-4764-a095-c72c9a0d609f"},"vehicle_type_id":"4","last_reported":1744657662,"current_range_meters":11200,"station_id":"ce4bhnh2rcd13ifvqgug","pricing_plan_id":"cebpf4jnsgd1na2vs0mg"},{"bike_id":"a36095ab-c9cc-4b59-aa54-528a6d4cc3c2","system_id":"levelo_inurba_marseille","lat":43.29571,"lon":5.37522,"is_reserved":false,"is_disabled":false,"rental_uris":{"android":"levelo://app?vid=a36095ab-c9cc-4b59-aa54-528a6d4cc3c2","ios":"levelo://app?vid=a36095ab-c9cc-4b59-aa54-528a6d4cc3c2"},"vehicle_type_id":"4","last_reported":1744657662,"current_range_meters":11200,"station_id":"ce4bgh92rcd13ifvqb50","pricing_plan_id":"cebpf4jnsgd1na2vs0mg"},{"bike_id":"46981278-4d15-4719-a7d7-fef9d5bfc801","system_id":"levelo_inurba_marseille","lat":43.23148,"lon":5.43711,"is_reserved":false,"is_disabled":false,"rental_uris":{"android":"levelo://app?vid=46981278-4d15-4719-a7d7-fef9d5bfc801","ios":"levelo://app?vid=46981278-4d15-4719-a7d7-fef9d5bfc801"},"vehicle_type_id":"4","last_reported":1744657662,"current_range_meters":11200,"station_id":"ce4bhmp2rcd13ifvqgog","pricing_plan_id":"cebpf4jnsgd1na2vs0mg"},{"bike_id":"0b778726-0e75-429f-8f7d-a09346ee2a59","system_id":"levelo_inurba_marseille","lat":43.287057,"lon":5.373746,"is_reserved":false,"is_disabled":false,"rental_uris":{"android":"levelo://app?vid=0b778726-0e75-429f-8f7d-a09346ee2a59","ios":"levelo://app?vid=0b778726-0e75-429f-8f7d-a09346ee2a59"},"vehicle_type_id":"4","last_reported":1744657662,"current_range_meters":11200,"station_id":"ce4bh3p2rcd13ifvqdq0","pricing_plan_id":"cebpf4jnsgd1na2vs0mg"},{"bike_id":"fb13c941-1858-46a4-86ad-2a5e302996c3","system_id":"levelo_inurba_marseille","lat":43.2586,"lon":5.39915,"is_reserved":false,"is_disabled":true,"rental_uris":{"android":"levelo://app?vid=fb13c941-1858-46a4-86ad-2a5e302996c3","ios":"levelo://app?vid=fb13c941-1858-46a4-86ad-2a5e302996c3"},"vehicle_type_id":"4","last_reported":1744657662,"current_range_meters":11600,"station_id":"ce4bhl92rcd13ifvqghg","pricing_plan_id":"cebpf4jnsgd1na2vs0mg"},{"bike_id":"e0c49b4e-20fa-4104-917d-fcb54a76eaa0","system_id":"levelo_inurba_marseille","lat":43.28357,"lon":5.38089,"is_reserved":false,"is_disabled":false,"rental_uris":{"android":"levelo://app?vid=e0c49b4e-20fa-4104-917d-fcb54a76eaa0","ios":"levelo://app?vid=e0c49b4e-20fa-4104-917d-fcb54a76eaa0"},"vehicle_type_id":"4","last_reported":1744657662,"current_range_meters":11600,"station_id":"ce4bh412rcd13ifvqdr0","pricing_plan_id":"cebpf4jnsgd1na2vs0mg"},{"bike_id":"49b5f6ea-a059-43a6-855a-f3b024f97555","system_id":"levelo_inurba_marseille","lat":43.27679,"lon":5.38878,"is_reserved":false,"is_disabled":false,"rental_uris":{"android":"levelo://app?vid=49b5f6ea-a059-43a6-855a-f3b024f97555","ios":"levelo://app?vid=49b5f6ea-a059-43a6-855a-f3b024f97555"},"vehicle_type_id":"4","last_reported":1744657662,"current_range_meters":12000,"station_id":"ce4bhi12rcd13ifvqfo0","pricing_plan_id":"cebpf4jnsgd1na2vs0mg"},{"bike_id":"b7f2ab3e-7333-4a50-9375-1a8103e49920","system_id":"levelo_inurba_marseille","lat":43.25859,"lon":5.3945,"is_reserved":false,"is_disabled":false,"rental_uris":{"android":"levelo://app?vid=b7f2ab3e-7333-4a50-9375-1a8103e49920","ios":"levelo://app?vid=b7f2ab3e-7333-4a50-9375-1a8103e49920"},"vehicle_type_id":"4","last_reported":1744657662,"current_range_meters":12000,"station_id":"ce4bhip2rcd13ifvqft0","pricing_plan_id":"cebpf4jnsgd1na2vs0mg"},{"bike_id":"b6ed0a66-3ddf-4db3-97da-b5c4b0ebe94b","system_id":"levelo_inurba_marseille","lat":43.31166,"lon":5.38714,"is_reserved":false,"is_disabled":false,"rental_uris":{"android":"levelo://app?vid=b6ed0a66-3ddf-4db3-97da-b5c4b0ebe94b","ios":"levelo://app?vid=b6ed0a66-3ddf-4db3-97da-b5c4b0ebe94b"},"vehicle_type_id":"4","last_reported":1744657662,"current_range_meters":12000,"station_id":"ce4bgv12rcd13ifvqcp0","pricing_plan_id":"cebpf4jnsgd1na2vs0mg"},{"bike_id":"7e721af5-4572-4950-ac49-a2c164cdd75a","system_id":"levelo_inurba_marseille","lat":43.29803,"lon":5.40401,"is_reserved":false,"is_disabled":false,"rental_uris":{"android":"levelo://app?vid=7e721af5-4572-4950-ac49-a2c164cdd75a","ios":"levelo://app?vid=7e721af5-4572-4950-ac49-a2c164cdd75a"},"vehicle_type_id":"4","last_reported":1744657662,"current_range_meters":12000,"station_id":"ce4bh112rcd13ifvqd90","pricing_plan_id":"cebpf4jnsgd1na2vs0mg"},{"bike_id":"843838ea-15ea-4750-a740-a6a4d52b3162","system_id":"levelo_inurba_marseille","lat":43.27984,"lon":5.41658,"is_reserved":false,"is_disabled":false,"rental_uris":{"android":"levelo://app?vid=843838ea-15ea-4750-a740-a6a4d52b3162","ios":"levelo://app?vid=843838ea-15ea-4750-a740-a6a4d52b3162"},"vehicle_type_id":"4","last_reported":1744657662,"current_range_meters":12400,"station_id":"ce4bho12rcd13ifvqh1g","pricing_plan_id":"cebpf4jnsgd1na2vs0mg"},{"bike_id":"d496ab78-138b-4af0-96a4-b13f91c2f4dd","system_id":"levelo_inurba_marseille","lat":43.29162,"lon":5.37146,"is_reserved":false,"is_disabled":false,"rental_uris":{"android":"levelo://app?vid=d496ab78-138b-4af0-96a4-b13f91c2f4dd","ios":"levelo://app?vid=d496ab78-138b-4af0-96a4-b13f91c2f4dd"},"vehicle_type_id":"4","last_reported":1744657662,"current_range_meters":12400,"station_id":"ce4bha92rcd13ifvqeh0","pricing_plan_id":"cebpf4jnsgd1na2vs0mg"},{"bike_id":"677b30b3-8594-46cc-a68a-9743c3dc2167","system_id":"levelo_inurba_marseille","lat":43.28853,"lon":5.35844,"is_reserved":false,"is_disabled":false,"rental_uris":{"android":"levelo://app?vid=677b30b3-8594-46cc-a68a-9743c3dc2167","ios":"levelo://app?vid=677b30b3-8594-46cc-a68a-9743c3dc2167"},"vehicle_type_id":"4","last_reported":1744657662,"current_range_meters":12400,"station_id":"ce4bhb12rcd13ifvqem0","pricing_plan_id":"cebpf4jnsgd1na2vs0mg"},{"bike_id":"9032fd9f-8258-4b06-828f-3216c8110290","system_id":"levelo_inurba_marseille","lat":43.31005,"lon":5.41758,"is_reserved":false,"is_disabled":false,"rental_uris":{"android":"levelo://app?vid=9032fd9f-8258-4b06-828f-3216c8110290","ios":"levelo://app?vid=9032fd9f-8258-4b06-828f-3216c8110290"},"vehicle_type_id":"4","last_reported":1744657662,"current_range_meters":12400,"station_id":"","pricing_plan_id":"cebpf4jnsgd1na2vs0mg"},{"bike_id":"9150690c-4dbe-4c60-a177-af8ea973e079","system_id":"levelo_inurba_marseille","lat":43.2894,"lon":5.36632,"is_reserved":false,"is_disabled":false,"rental_uris":{"android":"levelo://app?vid=9150690c-4dbe-4c60-a177-af8ea973e079","ios":"levelo://app?vid=9150690c-4dbe-4c60-a177-af8ea973e079"},"vehicle_type_id":"4","last_reported":1744657662,"current_range_meters":12800,"station_id":"ce4bhap2rcd13ifvqek0","pricing_plan_id":"cebpf4jnsgd1na2vs0mg"},{"bike_id":"4efa9b1a-2c61-4810-bd94-95471dcb9600","system_id":"levelo_inurba_marseille","lat":43.30304,"lon":5.39212,"is_reserved":false,"is_disabled":false,"rental_uris":{"android":"levelo://app?vid=4efa9b1a-2c61-4810-bd94-95471dcb9600","ios":"levelo://app?vid=4efa9b1a-2c61-4810-bd94-95471dcb9600"},"vehicle_type_id":"4","last_reported":1744657662,"current_range_meters":12800,"station_id":"ce4bgkh2rcd13ifvqbk0","pricing_plan_id":"cebpf4jnsgd1na2vs0mg"},{"bike_id":"18ce97ee-5b2d-4b31-91fd-cf30957da029","system_id":"levelo_inurba_marseille","lat":43.330197,"lon":5.390387,"is_reserved":false,"is_disabled":false,"rental_uris":{"android":"levelo://app?vid=18ce97ee-5b2d-4b31-91fd-cf30957da029","ios":"levelo://app?vid=18ce97ee-5b2d-4b31-91fd-cf30957da029"},"vehicle_type_id":"4","last_reported":1744657662,"current_range_meters":12800,"station_id":"ce4bhr92rcd13ifvqhrg","pricing_plan_id":"cebpf4jnsgd1na2vs0mg"},{"bike_id":"0148179d-2ec4-4e4f-b2d0-b8b1883ee941","system_id":"levelo_inurba_marseille","lat":43.29178,"lon":5.37141,"is_reserved":false,"is_disabled":false,"rental_uris":{"android":"levelo://app?vid=0148179d-2ec4-4e4f-b2d0-b8b1883ee941","ios":"levelo://app?vid=0148179d-2ec4-4e4f-b2d0-b8b1883ee941"},"vehicle_type_id":"4","last_reported":1744657662,"current_range_meters":12800,"station_id":"ce4bha92rcd13ifvqeh0","pricing_plan_id":"cebpf4jnsgd1na2vs0mg"},{"bike_id":"d974283f-b87f-448e-af4e-0b9749a8d4b6","system_id":"levelo_inurba_marseille","lat":43.24165,"lon":5.36387,"is_reserved":false,"is_disabled":false,"rental_uris":{"android":"levelo://app?vid=d974283f-b87f-448e-af4e-0b9749a8d4b6","ios":"levelo://app?vid=d974283f-b87f-448e-af4e-0b9749a8d4b6"},"vehicle_type_id":"4","last_reported":1744657662,"current_range_meters":12800,"station_id":"cpo36qri1sfpv3e86is0","pricing_plan_id":"cebpf4jnsgd1na2vs0mg"},{"bike_id":"209a0192-0fdc-4e02-9c79-b42f732cc1f7","system_id":"levelo_inurba_marseille","lat":43.23966,"lon":5.36628,"is_reserved":false,"is_disabled":false,"rental_uris":{"android":"levelo://app?vid=209a0192-0fdc-4e02-9c79-b42f732cc1f7","ios":"levelo://app?vid=209a0192-0fdc-4e02-9c79-b42f732cc1f7"},"vehicle_type_id":"4","last_reported":1744657662,"current_range_meters":12800,"station_id":"ce4bhi12rcd13ifvqfp0","pricing_plan_id":"cebpf4jnsgd1na2vs0mg"},{"bike_id":"0e8e0d85-2932-4765-902a-4c3b14a3eac4","system_id":"levelo_inurba_marseille","lat":43.25639,"lon":5.37654,"is_reserved":false,"is_disabled":false,"rental_uris":{"android":"levelo://app?vid=0e8e0d85-2932-4765-902a-4c3b14a3eac4","ios":"levelo://app?vid=0e8e0d85-2932-4765-902a-4c3b14a3eac4"},"vehicle_type_id":"4","last_reported":1744657662,"current_range_meters":12800,"station_id":"","pricing_plan_id":"cebpf4jnsgd1na2vs0mg"},{"bike_id":"c38438a6-89fc-4ea5-81a8-a1bd45e3f04c","system_id":"levelo_inurba_marseille","lat":43.303171,"lon":5.392035,"is_reserved":false,"is_disabled":false,"rental_uris":{"android":"levelo://app?vid=c38438a6-89fc-4ea5-81a8-a1bd45e3f04c","ios":"levelo://app?vid=c38438a6-89fc-4ea5-81a8-a1bd45e3f04c"},"vehicle_type_id":"4","last_reported":1744657662,"current_range_meters":12800,"station_id":"ce4bgkh2rcd13ifvqbk0","pricing_plan_id":"cebpf4jnsgd1na2vs0mg"},{"bike_id":"27a55245-8dd2-4f1a-af63-95a9d7b71690","system_id":"levelo_inurba_marseille","lat":43.31071,"lon":5.37855,"is_reserved":false,"is_disabled":true,"rental_uris":{"android":"levelo://app?vid=27a55245-8dd2-4f1a-af63-95a9d7b71690","ios":"levelo://app?vid=27a55245-8dd2-4f1a-af63-95a9d7b71690"},"vehicle_type_id":"4","last_reported":1744657662,"current_range_meters":12800,"station_id":"","pricing_plan_id":"cebpf4jnsgd1na2vs0mg"},{"bike_id":"5bac84e2-3c94-4fdd-a5a6-3f7db5002922","system_id":"levelo_inurba_marseille","lat":43.26811,"lon":5.40263,"is_reserved":false,"is_disabled":false,"rental_uris":{"android":"levelo://app?vid=5bac84e2-3c94-4fdd-a5a6-3f7db5002922","ios":"levelo://app?vid=5bac84e2-3c94-4fdd-a5a6-3f7db5002922"},"vehicle_type_id":"4","last_reported":1744657662,"current_range_meters":13600,"station_id":"ce501612rcd8frsf0b60","pricing_plan_id":"cebpf4jnsgd1na2vs0mg"},{"bike_id":"7a49c188-0f3a-4b16-82e8-69e181021e4a","system_id":"levelo_inurba_marseille","lat":43.294943,"lon":5.375202,"is_reserved":false,"is_disabled":false,"rental_uris":{"android":"levelo://app?vid=7a49c188-0f3a-4b16-82e8-69e181021e4a","ios":"levelo://app?vid=7a49c188-0f3a-4b16-82e8-69e181021e4a"},"vehicle_type_id":"4","last_reported":1744657662,"current_range_meters":13600,"station_id":"ce4bgkp2rcd13ifvqbmg","pricing_plan_id":"cebpf4jnsgd1na2vs0mg"},{"bike_id":"61f247c8-8777-4bcc-862d-441ae99dcd93","system_id":"levelo_inurba_marseille","lat":43.27063,"lon":5.40264,"is_reserved":false,"is_disabled":false,"rental_uris":{"android":"levelo://app?vid=61f247c8-8777-4bcc-862d-441ae99dcd93","ios":"levelo://app?vid=61f247c8-8777-4bcc-862d-441ae99dcd93"},"vehicle_type_id":"4","last_reported":1744657662,"current_range_meters":13600,"station_id":"ce4bhk92rcd13ifvqgc0","pricing_plan_id":"cebpf4jnsgd1na2vs0mg"},{"bike_id":"dd55a95c-84ae-4f2d-9924-3ca8c1853af4","system_id":"levelo_inurba_marseille","lat":43.26794,"lon":5.40263,"is_reserved":false,"is_disabled":false,"rental_uris":{"android":"levelo://app?vid=dd55a95c-84ae-4f2d-9924-3ca8c1853af4","ios":"levelo://app?vid=dd55a95c-84ae-4f2d-9924-3ca8c1853af4"},"vehicle_type_id":"4","last_reported":1744657662,"current_range_meters":13600,"station_id":"ce501612rcd8frsf0b60","pricing_plan_id":"cebpf4jnsgd1na2vs0mg"},{"bike_id":"e3b29c86-a5aa-40cb-a450-01d079ca4748","system_id":"levelo_inurba_marseille","lat":43.29593,"lon":5.38111,"is_reserved":false,"is_disabled":false,"rental_uris":{"android":"levelo://app?vid=e3b29c86-a5aa-40cb-a450-01d079ca4748","ios":"levelo://app?vid=e3b29c86-a5aa-40cb-a450-01d079ca4748"},"vehicle_type_id":"4","last_reported":1744657662,"current_range_meters":13600,"station_id":"ce4bgl12rcd13ifvqbo0","pricing_plan_id":"cebpf4jnsgd1na2vs0mg"},{"bike_id":"530c3a77-8687-42de-9506-afa42ad52b44","system_id":"levelo_inurba_marseille","lat":43.28569,"lon":5.39501,"is_reserved":false,"is_disabled":false,"rental_uris":{"android":"levelo://app?vid=530c3a77-8687-42de-9506-afa42ad52b44","ios":"levelo://app?vid=530c3a77-8687-42de-9506-afa42ad52b44"},"vehicle_type_id":"4","last_reported":1744657662,"current_range_meters":13600,"station_id":"ce4bh292rcd13ifvqdg0","pricing_plan_id":"cebpf4jnsgd1na2vs0mg"},{"bike_id":"9b16db0d-7528-47ae-9eb1-e206b11d00ad","system_id":"levelo_inurba_marseille","lat":43.28931,"lon":5.36634,"is_reserved":false,"is_disabled":false,"rental_uris":{"android":"levelo://app?vid=9b16db0d-7528-47ae-9eb1-e206b11d00ad","ios":"levelo://app?vid=9b16db0d-7528-47ae-9eb1-e206b11d00ad"},"vehicle_type_id":"4","last_reported":1744657662,"current_range_meters":13600,"station_id":"ce4bhap2rcd13ifvqek0","pricing_plan_id":"cebpf4jnsgd1na2vs0mg"},{"bike_id":"aaeab5e2-1426-4054-aa04-9dfb87f37424","system_id":"levelo_inurba_marseille","lat":43.26056,"lon":5.39409,"is_reserved":false,"is_disabled":false,"rental_uris":{"android":"levelo://app?vid=aaeab5e2-1426-4054-aa04-9dfb87f37424","ios":"levelo://app?vid=aaeab5e2-1426-4054-aa04-9dfb87f37424"},"vehicle_type_id":"4","last_reported":1744657662,"current_range_meters":14000,"station_id":"ce4bhh92rcd13ifvqfj0","pricing_plan_id":"cebpf4jnsgd1na2vs0mg"},{"bike_id":"9357e327-cb00-4fd9-852c-698a42e274fa","system_id":"levelo_inurba_marseille","lat":43.29909,"lon":5.43684,"is_reserved":false,"is_disabled":false,"rental_uris":{"android":"levelo://app?vid=9357e327-cb00-4fd9-852c-698a42e274fa","ios":"levelo://app?vid=9357e327-cb00-4fd9-852c-698a42e274fa"},"vehicle_type_id":"4","last_reported":1744657662,"current_range_meters":14000,"station_id":"ce4bhpp2rcd13ifvqhfg","pricing_plan_id":"cebpf4jnsgd1na2vs0mg"},{"bike_id":"52e340c3-039a-4c47-97af-26d5c54a9440","system_id":"levelo_inurba_marseille","lat":43.28938,"lon":5.39622,"is_reserved":false,"is_disabled":false,"rental_uris":{"android":"levelo://app?vid=52e340c3-039a-4c47-97af-26d5c54a9440","ios":"levelo://app?vid=52e340c3-039a-4c47-97af-26d5c54a9440"},"vehicle_type_id":"4","last_reported":1744657662,"current_range_meters":14400,"station_id":"ce4bh3h2rcd13ifvqdn0","pricing_plan_id":"cebpf4jnsgd1na2vs0mg"},{"bike_id":"37f54b3c-e904-4a73-b375-4004b8c0068b","system_id":"levelo_inurba_marseille","lat":43.32285,"lon":5.38291,"is_reserved":false,"is_disabled":false,"rental_uris":{"android":"levelo://app?vid=37f54b3c-e904-4a73-b375-4004b8c0068b","ios":"levelo://app?vid=37f54b3c-e904-4a73-b375-4004b8c0068b"},"vehicle_type_id":"4","last_reported":1744657662,"current_range_meters":14400,"station_id":"ce4bhr12rcd13ifvqhqg","pricing_plan_id":"cebpf4jnsgd1na2vs0mg"},{"bike_id":"69e5c5ac-279f-4b30-97fa-7569ba84bed8","system_id":"levelo_inurba_marseille","lat":43.24385,"lon":5.37065,"is_reserved":false,"is_disabled":false,"rental_uris":{"android":"levelo://app?vid=69e5c5ac-279f-4b30-97fa-7569ba84bed8","ios":"levelo://app?vid=69e5c5ac-279f-4b30-97fa-7569ba84bed8"},"vehicle_type_id":"4","last_reported":1744657662,"current_range_meters":14400,"station_id":"ce4bhhh2rcd13ifvqfk0","pricing_plan_id":"cebpf4jnsgd1na2vs0mg"},{"bike_id":"baa23e22-ce77-4f53-8f78-bf2a72d6df76","system_id":"levelo_inurba_marseille","lat":43.29804,"lon":5.38103,"is_reserved":false,"is_disabled":false,"rental_uris":{"android":"levelo://app?vid=baa23e22-ce77-4f53-8f78-bf2a72d6df76","ios":"levelo://app?vid=baa23e22-ce77-4f53-8f78-bf2a72d6df76"},"vehicle_type_id":"4","last_reported":1744657662,"current_range_meters":14400,"station_id":"ce4bgip2rcd13ifvqbb0","pricing_plan_id":"cebpf4jnsgd1na2vs0mg"},{"bike_id":"89f65334-67ac-4f70-8f15-3231848b2642","system_id":"levelo_inurba_marseille","lat":43.28942,"lon":5.36406,"is_reserved":false,"is_disabled":false,"rental_uris":{"android":"levelo://app?vid=89f65334-67ac-4f70-8f15-3231848b2642","ios":"levelo://app?vid=89f65334-67ac-4f70-8f15-3231848b2642"},"vehicle_type_id":"4","last_reported":1744657662,"current_range_meters":14800,"station_id":"ce4bhc92rcd13ifvqetg","pricing_plan_id":"cebpf4jnsgd1na2vs0mg"},{"bike_id":"9050bcb2-4fea-4bae-b3fe-93394c76bda1","system_id":"levelo_inurba_marseille","lat":43.31692,"lon":5.40477,"is_reserved":false,"is_disabled":false,"rental_uris":{"android":"levelo://app?vid=9050bcb2-4fea-4bae-b3fe-93394c76bda1","ios":"levelo://app?vid=9050bcb2-4fea-4bae-b3fe-93394c76bda1"},"vehicle_type_id":"4","last_reported":1744657662,"current_range_meters":14800,"station_id":"ce4bh012rcd13ifvqd00","pricing_plan_id":"cebpf4jnsgd1na2vs0mg"},{"bike_id":"9481a4d4-998c-4242-822b-0b8fa3017440","system_id":"levelo_inurba_marseille","lat":43.28874,"lon":5.39303,"is_reserved":false,"is_disabled":true,"rental_uris":{"android":"levelo://app?vid=9481a4d4-998c-4242-822b-0b8fa3017440","ios":"levelo://app?vid=9481a4d4-998c-4242-822b-0b8fa3017440"},"vehicle_type_id":"4","last_reported":1744657662,"current_range_meters":14800,"station_id":"ce4bh2p2rcd13ifvqdi0","pricing_plan_id":"cebpf4jnsgd1na2vs0mg"},{"bike_id":"56135a82-d19f-45ea-a72c-58b1131d0fcb","system_id":"levelo_inurba_marseille","lat":43.280874,"lon":5.396554,"is_reserved":false,"is_disabled":true,"rental_uris":{"android":"levelo://app?vid=56135a82-d19f-45ea-a72c-58b1131d0fcb","ios":"levelo://app?vid=56135a82-d19f-45ea-a72c-58b1131d0fcb"},"vehicle_type_id":"4","last_reported":1744657662,"current_range_meters":14800,"station_id":"ce4bho12rcd13ifvqh2g","pricing_plan_id":"cebpf4jnsgd1na2vs0mg"},{"bike_id":"adc57c37-ce55-4115-a740-875a9e1ac006","system_id":"levelo_inurba_marseille","lat":43.28461,"lon":5.35883,"is_reserved":false,"is_disabled":false,"rental_uris":{"android":"levelo://app?vid=adc57c37-ce55-4115-a740-875a9e1ac006","ios":"levelo://app?vid=adc57c37-ce55-4115-a740-875a9e1ac006"},"vehicle_type_id":"4","last_reported":1744657662,"current_range_meters":14800,"station_id":"ce4bhah2rcd13ifvqei0","pricing_plan_id":"cebpf4jnsgd1na2vs0mg"},{"bike_id":"93b02a0f-e2f5-49ef-90ae-4a058707e43d","system_id":"levelo_inurba_marseille","lat":43.29717,"lon":5.37278,"is_reserved":false,"is_disabled":true,"rental_uris":{"android":"levelo://app?vid=93b02a0f-e2f5-49ef-90ae-4a058707e43d","ios":"levelo://app?vid=93b02a0f-e2f5-49ef-90ae-4a058707e43d"},"vehicle_type_id":"4","last_reported":1744657662,"current_range_meters":14800,"station_id":"ce4bgk12rcd13ifvqbj0","pricing_plan_id":"cebpf4jnsgd1na2vs0mg"},{"bike_id":"a8b7558d-02ab-44aa-a996-e61104638d6a","system_id":"levelo_inurba_marseille","lat":43.28921,"lon":5.36641,"is_reserved":false,"is_disabled":false,"rental_uris":{"android":"levelo://app?vid=a8b7558d-02ab-44aa-a996-e61104638d6a","ios":"levelo://app?vid=a8b7558d-02ab-44aa-a996-e61104638d6a"},"vehicle_type_id":"4","last_reported":1744657662,"current_range_meters":15200,"station_id":"ce4bhap2rcd13ifvqek0","pricing_plan_id":"cebpf4jnsgd1na2vs0mg"},{"bike_id":"2ae98cdd-94c8-4fa1-abd9-34e107b2d479","system_id":"levelo_inurba_marseille","lat":43.27427,"lon":5.39422,"is_reserved":false,"is_disabled":false,"rental_uris":{"android":"levelo://app?vid=2ae98cdd-94c8-4fa1-abd9-34e107b2d479","ios":"levelo://app?vid=2ae98cdd-94c8-4fa1-abd9-34e107b2d479"},"vehicle_type_id":"4","last_reported":1744657662,"current_range_meters":15200,"station_id":"ce4bhdp2rcd13ifvqf20","pricing_plan_id":"cebpf4jnsgd1na2vs0mg"},{"bike_id":"eee1ae19-0a4d-4fb6-8b87-1e6d20ca2059","system_id":"levelo_inurba_marseille","lat":43.26808,"lon":5.40269,"is_reserved":false,"is_disabled":false,"rental_uris":{"android":"levelo://app?vid=eee1ae19-0a4d-4fb6-8b87-1e6d20ca2059","ios":"levelo://app?vid=eee1ae19-0a4d-4fb6-8b87-1e6d20ca2059"},"vehicle_type_id":"4","last_reported":1744657662,"current_range_meters":15200,"station_id":"ce501612rcd8frsf0b60","pricing_plan_id":"cebpf4jnsgd1na2vs0mg"},{"bike_id":"038f24e5-d8e3-47c1-a2bf-21ad4ab92bed","system_id":"levelo_inurba_marseille","lat":43.31075,"lon":5.38348,"is_reserved":false,"is_disabled":false,"rental_uris":{"android":"levelo://app?vid=038f24e5-d8e3-47c1-a2bf-21ad4ab92bed","ios":"levelo://app?vid=038f24e5-d8e3-47c1-a2bf-21ad4ab92bed"},"vehicle_type_id":"4","last_reported":1744657662,"current_range_meters":15200,"station_id":"ce4bgv92rcd13ifvqcr0","pricing_plan_id":"cebpf4jnsgd1na2vs0mg"},{"bike_id":"c982b9d5-0af8-4516-bb15-2e04fca48a52","system_id":"levelo_inurba_marseille","lat":43.28679,"lon":5.37392,"is_reserved":false,"is_disabled":false,"rental_uris":{"android":"levelo://app?vid=c982b9d5-0af8-4516-bb15-2e04fca48a52","ios":"levelo://app?vid=c982b9d5-0af8-4516-bb15-2e04fca48a52"},"vehicle_type_id":"4","last_reported":1744657662,"current_range_meters":15200,"station_id":"ce4bh3p2rcd13ifvqdq0","pricing_plan_id":"cebpf4jnsgd1na2vs0mg"},{"bike_id":"876a4082-3758-44b8-a7b1-d4a64cba7a6e","system_id":"levelo_inurba_marseille","lat":43.28441,"lon":5.39177,"is_reserved":false,"is_disabled":false,"rental_uris":{"android":"levelo://app?vid=876a4082-3758-44b8-a7b1-d4a64cba7a6e","ios":"levelo://app?vid=876a4082-3758-44b8-a7b1-d4a64cba7a6e"},"vehicle_type_id":"4","last_reported":1744657662,"current_range_meters":15200,"station_id":"ce4bhoh2rcd13ifvqh5g","pricing_plan_id":"cebpf4jnsgd1na2vs0mg"},{"bike_id":"02dc5853-d17c-47ac-a646-82ded7ba5800","system_id":"levelo_inurba_marseille","lat":43.30222,"lon":5.40056,"is_reserved":false,"is_disabled":true,"rental_uris":{"android":"levelo://app?vid=02dc5853-d17c-47ac-a646-82ded7ba5800","ios":"levelo://app?vid=02dc5853-d17c-47ac-a646-82ded7ba5800"},"vehicle_type_id":"4","last_reported":1744657662,"current_range_meters":16000,"station_id":"ce4bgvh2rcd13ifvqcs0","pricing_plan_id":"cebpf4jnsgd1na2vs0mg"},{"bike_id":"9fc301a4-cfe4-46d0-9b07-89eb173ef9fa","system_id":"levelo_inurba_marseille","lat":43.29766,"lon":5.37141,"is_reserved":false,"is_disabled":false,"rental_uris":{"android":"levelo://app?vid=9fc301a4-cfe4-46d0-9b07-89eb173ef9fa","ios":"levelo://app?vid=9fc301a4-cfe4-46d0-9b07-89eb173ef9fa"},"vehicle_type_id":"4","last_reported":1744657662,"current_range_meters":16000,"station_id":"ce4bgop2rcd13ifvqc1g","pricing_plan_id":"cebpf4jnsgd1na2vs0mg"},{"bike_id":"05c71861-3894-4762-b830-fdaba06f8660","system_id":"levelo_inurba_marseille","lat":43.28161,"lon":5.42645,"is_reserved":false,"is_disabled":false,"rental_uris":{"android":"levelo://app?vid=05c71861-3894-4762-b830-fdaba06f8660","ios":"levelo://app?vid=05c71861-3894-4762-b830-fdaba06f8660"},"vehicle_type_id":"4","last_reported":1744657662,"current_range_meters":16000,"station_id":"ce4bhnh2rcd13ifvqgug","pricing_plan_id":"cebpf4jnsgd1na2vs0mg"},{"bike_id":"715e2e47-b6ca-4c0e-bae2-c1e8bfceaa61","system_id":"levelo_inurba_marseille","lat":43.294179,"lon":5.386276,"is_reserved":false,"is_disabled":false,"rental_uris":{"android":"levelo://app?vid=715e2e47-b6ca-4c0e-bae2-c1e8bfceaa61","ios":"levelo://app?vid=715e2e47-b6ca-4c0e-bae2-c1e8bfceaa61"},"vehicle_type_id":"4","last_reported":1744657662,"current_range_meters":16000,"station_id":"ce4bh2p2rcd13ifvqdi0","pricing_plan_id":"cebpf4jnsgd1na2vs0mg"},{"bike_id":"8b96af38-dffa-4188-8b57-3b8c5db8e9ab","system_id":"levelo_inurba_marseille","lat":43.25805,"lon":5.39423,"is_reserved":false,"is_disabled":false,"rental_uris":{"android":"levelo://app?vid=8b96af38-dffa-4188-8b57-3b8c5db8e9ab","ios":"levelo://app?vid=8b96af38-dffa-4188-8b57-3b8c5db8e9ab"},"vehicle_type_id":"4","last_reported":1744657662,"current_range_meters":16000,"station_id":"ce4bhip2rcd13ifvqft0","pricing_plan_id":"cebpf4jnsgd1na2vs0mg"},{"bike_id":"c711ec7d-4d18-4748-b3ab-a531308862b2","system_id":"levelo_inurba_marseille","lat":43.30412,"lon":5.41287,"is_reserved":false,"is_disabled":false,"rental_uris":{"android":"levelo://app?vid=c711ec7d-4d18-4748-b3ab-a531308862b2","ios":"levelo://app?vid=c711ec7d-4d18-4748-b3ab-a531308862b2"},"vehicle_type_id":"4","last_reported":1744657662,"current_range_meters":16000,"station_id":"ce4bhop2rcd13ifvqh8g","pricing_plan_id":"cebpf4jnsgd1na2vs0mg"},{"bike_id":"32ef499e-ccb6-4e90-bac0-d4a1b914c43c","system_id":"levelo_inurba_marseille","lat":43.28731,"lon":5.36082,"is_reserved":false,"is_disabled":false,"rental_uris":{"android":"levelo://app?vid=32ef499e-ccb6-4e90-bac0-d4a1b914c43c","ios":"levelo://app?vid=32ef499e-ccb6-4e90-bac0-d4a1b914c43c"},"vehicle_type_id":"4","last_reported":1744657662,"current_range_meters":16000,"station_id":"cki0cbj6b192h4jlfktg","pricing_plan_id":"cebpf4jnsgd1na2vs0mg"},{"bike_id":"64c1abe5-0c83-4ab9-82e7-3203d1ae585d","system_id":"levelo_inurba_marseille","lat":43.28926,"lon":5.38383,"is_reserved":false,"is_disabled":false,"rental_uris":{"android":"levelo://app?vid=64c1abe5-0c83-4ab9-82e7-3203d1ae585d","ios":"levelo://app?vid=64c1abe5-0c83-4ab9-82e7-3203d1ae585d"},"vehicle_type_id":"4","last_reported":1744657662,"current_range_meters":16000,"station_id":"ce4bh612rcd13ifvqe6g","pricing_plan_id":"cebpf4jnsgd1na2vs0mg"},{"bike_id":"45152fd8-c07c-4d52-b7a7-6670add35e00","system_id":"levelo_inurba_marseille","lat":43.26099,"lon":5.42076,"is_reserved":false,"is_disabled":false,"rental_uris":{"android":"levelo://app?vid=45152fd8-c07c-4d52-b7a7-6670add35e00","ios":"levelo://app?vid=45152fd8-c07c-4d52-b7a7-6670add35e00"},"vehicle_type_id":"4","last_reported":1744657662,"current_range_meters":16000,"station_id":"","pricing_plan_id":"cebpf4jnsgd1na2vs0mg"},{"bike_id":"13a2aba7-d449-4fbe-87f8-b3450bef67ca","system_id":"levelo_inurba_marseille","lat":43.28931,"lon":5.36636,"is_reserved":false,"is_disabled":false,"rental_uris":{"android":"levelo://app?vid=13a2aba7-d449-4fbe-87f8-b3450bef67ca","ios":"levelo://app?vid=13a2aba7-d449-4fbe-87f8-b3450bef67ca"},"vehicle_type_id":"4","last_reported":1744657662,"current_range_meters":16000,"station_id":"ce4bhap2rcd13ifvqek0","pricing_plan_id":"cebpf4jnsgd1na2vs0mg"},{"bike_id":"a6df17eb-3570-436e-862c-fc5ce65d2e7e","system_id":"levelo_inurba_marseille","lat":43.28621,"lon":5.351,"is_reserved":false,"is_disabled":false,"rental_uris":{"android":"levelo://app?vid=a6df17eb-3570-436e-862c-fc5ce65d2e7e","ios":"levelo://app?vid=a6df17eb-3570-436e-862c-fc5ce65d2e7e"},"vehicle_type_id":"4","last_reported":1744657662,"current_range_meters":16400,"station_id":"ce4bhch2rcd13ifvqeug","pricing_plan_id":"cebpf4jnsgd1na2vs0mg"},{"bike_id":"b95de8e4-03d9-4ad4-8af7-acc68965f084","system_id":"levelo_inurba_marseille","lat":43.2894,"lon":5.36642,"is_reserved":false,"is_disabled":false,"rental_uris":{"android":"levelo://app?vid=b95de8e4-03d9-4ad4-8af7-acc68965f084","ios":"levelo://app?vid=b95de8e4-03d9-4ad4-8af7-acc68965f084"},"vehicle_type_id":"4","last_reported":1744657662,"current_range_meters":16400,"station_id":"ce4bhap2rcd13ifvqek0","pricing_plan_id":"cebpf4jnsgd1na2vs0mg"},{"bike_id":"b3f3917b-babe-4e57-b21e-9f79ef1e3bdd","system_id":"levelo_inurba_marseille","lat":43.29531,"lon":5.39409,"is_reserved":false,"is_disabled":false,"rental_uris":{"android":"levelo://app?vid=b3f3917b-babe-4e57-b21e-9f79ef1e3bdd","ios":"levelo://app?vid=b3f3917b-babe-4e57-b21e-9f79ef1e3bdd"},"vehicle_type_id":"4","last_reported":1744657662,"current_range_meters":16400,"station_id":"ce4bh292rcd13ifvqdf0","pricing_plan_id":"cebpf4jnsgd1na2vs0mg"},{"bike_id":"37342bdf-d586-43ba-a25b-da22b3393da6","system_id":"levelo_inurba_marseille","lat":43.291704,"lon":5.375139,"is_reserved":false,"is_disabled":false,"rental_uris":{"android":"levelo://app?vid=37342bdf-d586-43ba-a25b-da22b3393da6","ios":"levelo://app?vid=37342bdf-d586-43ba-a25b-da22b3393da6"},"vehicle_type_id":"4","last_reported":1744657662,"current_range_meters":16400,"station_id":"","pricing_plan_id":"cebpf4jnsgd1na2vs0mg"},{"bike_id":"86507adb-43c1-4a89-acc7-c74cd80a099f","system_id":"levelo_inurba_marseille","lat":43.23129,"lon":5.36663,"is_reserved":false,"is_disabled":false,"rental_uris":{"android":"levelo://app?vid=86507adb-43c1-4a89-acc7-c74cd80a099f","ios":"levelo://app?vid=86507adb-43c1-4a89-acc7-c74cd80a099f"},"vehicle_type_id":"4","last_reported":1744657662,"current_range_meters":16400,"station_id":"","pricing_plan_id":"cebpf4jnsgd1na2vs0mg"},{"bike_id":"5e12335f-850c-4e07-86ab-12d1dc594606","system_id":"levelo_inurba_marseille","lat":43.28035,"lon":5.36946,"is_reserved":false,"is_disabled":false,"rental_uris":{"android":"levelo://app?vid=5e12335f-850c-4e07-86ab-12d1dc594606","ios":"levelo://app?vid=5e12335f-850c-4e07-86ab-12d1dc594606"},"vehicle_type_id":"4","last_reported":1744657662,"current_range_meters":16400,"station_id":"ce4bha12rcd13ifvqef0","pricing_plan_id":"cebpf4jnsgd1na2vs0mg"},{"bike_id":"5c0cc5dd-7c03-4f8b-838c-65a8bfb31b5b","system_id":"levelo_inurba_marseille","lat":43.24683,"lon":5.38142,"is_reserved":false,"is_disabled":false,"rental_uris":{"android":"levelo://app?vid=5c0cc5dd-7c03-4f8b-838c-65a8bfb31b5b","ios":"levelo://app?vid=5c0cc5dd-7c03-4f8b-838c-65a8bfb31b5b"},"vehicle_type_id":"4","last_reported":1744657662,"current_range_meters":16800,"station_id":"ce4bhih2rcd13ifvqfr0","pricing_plan_id":"cebpf4jnsgd1na2vs0mg"},{"bike_id":"41da61f5-9ea1-4677-b0c9-d7df20f4d79b","system_id":"levelo_inurba_marseille","lat":43.29267,"lon":5.38433,"is_reserved":false,"is_disabled":false,"rental_uris":{"android":"levelo://app?vid=41da61f5-9ea1-4677-b0c9-d7df20f4d79b","ios":"levelo://app?vid=41da61f5-9ea1-4677-b0c9-d7df20f4d79b"},"vehicle_type_id":"4","last_reported":1744657662,"current_range_meters":16800,"station_id":"ce4bh692rcd13ifvqea0","pricing_plan_id":"cebpf4jnsgd1na2vs0mg"},{"bike_id":"d689cbad-a946-466d-842f-d28ff6a74140","system_id":"levelo_inurba_marseille","lat":43.31169,"lon":5.38719,"is_reserved":false,"is_disabled":false,"rental_uris":{"android":"levelo://app?vid=d689cbad-a946-466d-842f-d28ff6a74140","ios":"levelo://app?vid=d689cbad-a946-466d-842f-d28ff6a74140"},"vehicle_type_id":"4","last_reported":1744657662,"current_range_meters":16800,"station_id":"ce4bgv12rcd13ifvqcp0","pricing_plan_id":"cebpf4jnsgd1na2vs0mg"},{"bike_id":"fedb9457-c408-43a0-8b5e-ccdff25947f5","system_id":"levelo_inurba_marseille","lat":43.26216,"lon":5.4035,"is_reserved":false,"is_disabled":true,"rental_uris":{"android":"levelo://app?vid=fedb9457-c408-43a0-8b5e-ccdff25947f5","ios":"levelo://app?vid=fedb9457-c408-43a0-8b5e-ccdff25947f5"},"vehicle_type_id":"4","last_reported":1744657662,"current_range_meters":16800,"station_id":"ce4bhlh2rcd13ifvqgig","pricing_plan_id":"cebpf4jnsgd1na2vs0mg"},{"bike_id":"60dcad6e-0bf0-43ed-8c17-3d1b1e91ba96","system_id":"levelo_inurba_marseille","lat":43.29535,"lon":5.38537,"is_reserved":false,"is_disabled":false,"rental_uris":{"android":"levelo://app?vid=60dcad6e-0bf0-43ed-8c17-3d1b1e91ba96","ios":"levelo://app?vid=60dcad6e-0bf0-43ed-8c17-3d1b1e91ba96"},"vehicle_type_id":"4","last_reported":1744657662,"current_range_meters":16800,"station_id":"ce4bgih2rcd13ifvqba0","pricing_plan_id":"cebpf4jnsgd1na2vs0mg"},{"bike_id":"697b7861-0b83-4f96-b026-a8e7a961eef4","system_id":"levelo_inurba_marseille","lat":43.24645,"lon":5.38911,"is_reserved":false,"is_disabled":false,"rental_uris":{"android":"levelo://app?vid=697b7861-0b83-4f96-b026-a8e7a961eef4","ios":"levelo://app?vid=697b7861-0b83-4f96-b026-a8e7a961eef4"},"vehicle_type_id":"4","last_reported":1744657662,"current_range_meters":16800,"station_id":"ce4bhg12rcd13ifvqf60","pricing_plan_id":"cebpf4jnsgd1na2vs0mg"},{"bike_id":"382a1a40-cce5-4bcf-8677-ad51fb5a2457","system_id":"levelo_inurba_marseille","lat":43.28863,"lon":5.39311,"is_reserved":false,"is_disabled":true,"rental_uris":{"android":"levelo://app?vid=382a1a40-cce5-4bcf-8677-ad51fb5a2457","ios":"levelo://app?vid=382a1a40-cce5-4bcf-8677-ad51fb5a2457"},"vehicle_type_id":"4","last_reported":1744657662,"current_range_meters":16800,"station_id":"ce4bh2p2rcd13ifvqdi0","pricing_plan_id":"cebpf4jnsgd1na2vs0mg"},{"bike_id":"e86762db-5c2b-4423-974d-0f832f6a132b","system_id":"levelo_inurba_marseille","lat":43.297614,"lon":5.369383,"is_reserved":false,"is_disabled":false,"rental_uris":{"android":"levelo://app?vid=e86762db-5c2b-4423-974d-0f832f6a132b","ios":"levelo://app?vid=e86762db-5c2b-4423-974d-0f832f6a132b"},"vehicle_type_id":"4","last_reported":1744657662,"current_range_meters":17200,"station_id":"ce4bgn12rcd13ifvqbt0","pricing_plan_id":"cebpf4jnsgd1na2vs0mg"},{"bike_id":"5e2af133-40aa-4c3c-a4e9-1dadd9bc9ab0","system_id":"levelo_inurba_marseille","lat":43.29418,"lon":5.38625,"is_reserved":false,"is_disabled":false,"rental_uris":{"android":"levelo://app?vid=5e2af133-40aa-4c3c-a4e9-1dadd9bc9ab0","ios":"levelo://app?vid=5e2af133-40aa-4c3c-a4e9-1dadd9bc9ab0"},"vehicle_type_id":"4","last_reported":1744657662,"current_range_meters":17200,"station_id":"ce4bh2h2rcd13ifvqdh0","pricing_plan_id":"cebpf4jnsgd1na2vs0mg"},{"bike_id":"8300a52c-971f-43fc-b5ec-33d22e852aa6","system_id":"levelo_inurba_marseille","lat":43.312653,"lon":5.401691,"is_reserved":false,"is_disabled":false,"rental_uris":{"android":"levelo://app?vid=8300a52c-971f-43fc-b5ec-33d22e852aa6","ios":"levelo://app?vid=8300a52c-971f-43fc-b5ec-33d22e852aa6"},"vehicle_type_id":"4","last_reported":1744657662,"current_range_meters":17200,"station_id":"ce4bh092rcd13ifvqd30","pricing_plan_id":"cebpf4jnsgd1na2vs0mg"},{"bike_id":"dc0f4190-322f-4bfc-ae2a-ff6b1966dd8d","system_id":"levelo_inurba_marseille","lat":43.29607,"lon":5.38106,"is_reserved":false,"is_disabled":false,"rental_uris":{"android":"levelo://app?vid=dc0f4190-322f-4bfc-ae2a-ff6b1966dd8d","ios":"levelo://app?vid=dc0f4190-322f-4bfc-ae2a-ff6b1966dd8d"},"vehicle_type_id":"4","last_reported":1744657662,"current_range_meters":17200,"station_id":"ce4bgl12rcd13ifvqbo0","pricing_plan_id":"cebpf4jnsgd1na2vs0mg"},{"bike_id":"150c92f3-516d-41fe-89f9-fa7bb41a1f80","system_id":"levelo_inurba_marseille","lat":43.30321,"lon":5.40444,"is_reserved":false,"is_disabled":false,"rental_uris":{"android":"levelo://app?vid=150c92f3-516d-41fe-89f9-fa7bb41a1f80","ios":"levelo://app?vid=150c92f3-516d-41fe-89f9-fa7bb41a1f80"},"vehicle_type_id":"4","last_reported":1744657662,"current_range_meters":17200,"station_id":"ce4bh012rcd13ifvqd10","pricing_plan_id":"cebpf4jnsgd1na2vs0mg"},{"bike_id":"216c0a2c-fab0-4352-94a0-14b77c387959","system_id":"levelo_inurba_marseille","lat":43.24648,"lon":5.38172,"is_reserved":false,"is_disabled":false,"rental_uris":{"android":"levelo://app?vid=216c0a2c-fab0-4352-94a0-14b77c387959","ios":"levelo://app?vid=216c0a2c-fab0-4352-94a0-14b77c387959"},"vehicle_type_id":"4","last_reported":1744657662,"current_range_meters":17200,"station_id":"ce4bhih2rcd13ifvqfr0","pricing_plan_id":"cebpf4jnsgd1na2vs0mg"},{"bike_id":"d2d37f01-fa46-4fbc-a721-7789f4003663","system_id":"levelo_inurba_marseille","lat":43.24976,"lon":5.38969,"is_reserved":false,"is_disabled":false,"rental_uris":{"android":"levelo://app?vid=d2d37f01-fa46-4fbc-a721-7789f4003663","ios":"levelo://app?vid=d2d37f01-fa46-4fbc-a721-7789f4003663"},"vehicle_type_id":"4","last_reported":1744657662,"current_range_meters":17200,"station_id":"","pricing_plan_id":"cebpf4jnsgd1na2vs0mg"},{"bike_id":"933d9cba-402c-407f-91c6-60a8db9746fa","system_id":"levelo_inurba_marseille","lat":43.27376,"lon":5.36261,"is_reserved":false,"is_disabled":false,"rental_uris":{"android":"levelo://app?vid=933d9cba-402c-407f-91c6-60a8db9746fa","ios":"levelo://app?vid=933d9cba-402c-407f-91c6-60a8db9746fa"},"vehicle_type_id":"4","last_reported":1744657662,"current_range_meters":17200,"station_id":"ce4bhbh2rcd13ifvqeo0","pricing_plan_id":"cebpf4jnsgd1na2vs0mg"},{"bike_id":"55d1d2e0-4662-4ec1-a856-567b21b7c83f","system_id":"levelo_inurba_marseille","lat":43.310835,"lon":5.388885,"is_reserved":false,"is_disabled":false,"rental_uris":{"android":"levelo://app?vid=55d1d2e0-4662-4ec1-a856-567b21b7c83f","ios":"levelo://app?vid=55d1d2e0-4662-4ec1-a856-567b21b7c83f"},"vehicle_type_id":"4","last_reported":1744657662,"current_range_meters":17200,"station_id":"ce4bgt12rcd13ifvqcd0","pricing_plan_id":"cebpf4jnsgd1na2vs0mg"},{"bike_id":"205a676e-388e-4b5d-b5d4-92bca6b76c07","system_id":"levelo_inurba_marseille","lat":43.31155,"lon":5.38016,"is_reserved":false,"is_disabled":true,"rental_uris":{"android":"levelo://app?vid=205a676e-388e-4b5d-b5d4-92bca6b76c07","ios":"levelo://app?vid=205a676e-388e-4b5d-b5d4-92bca6b76c07"},"vehicle_type_id":"4","last_reported":1744657662,"current_range_meters":17200,"station_id":"","pricing_plan_id":"cebpf4jnsgd1na2vs0mg"},{"bike_id":"47a85634-40b2-4bd1-8409-1d1cf2f06bdc","system_id":"levelo_inurba_marseille","lat":43.240647,"lon":5.3777,"is_reserved":false,"is_disabled":false,"rental_uris":{"android":"levelo://app?vid=47a85634-40b2-4bd1-8409-1d1cf2f06bdc","ios":"levelo://app?vid=47a85634-40b2-4bd1-8409-1d1cf2f06bdc"},"vehicle_type_id":"4","last_reported":1744657662,"current_range_meters":17600,"station_id":"ce4bhnp2rcd13ifvqgvg","pricing_plan_id":"cebpf4jnsgd1na2vs0mg"},{"bike_id":"80dcdbb4-df1d-42b0-9b04-d3646089ba95","system_id":"levelo_inurba_marseille","lat":43.27916,"lon":5.39579,"is_reserved":false,"is_disabled":false,"rental_uris":{"android":"levelo://app?vid=80dcdbb4-df1d-42b0-9b04-d3646089ba95","ios":"levelo://app?vid=80dcdbb4-df1d-42b0-9b04-d3646089ba95"},"vehicle_type_id":"4","last_reported":1744657662,"current_range_meters":17600,"station_id":"ce4bhf92rcd13ifvqf40","pricing_plan_id":"cebpf4jnsgd1na2vs0mg"},{"bike_id":"d5effc4d-0d3e-47fb-9541-22ae979e6774","system_id":"levelo_inurba_marseille","lat":43.27968,"lon":5.3874,"is_reserved":false,"is_disabled":false,"rental_uris":{"android":"levelo://app?vid=d5effc4d-0d3e-47fb-9541-22ae979e6774","ios":"levelo://app?vid=d5effc4d-0d3e-47fb-9541-22ae979e6774"},"vehicle_type_id":"4","last_reported":1744657662,"current_range_meters":17600,"station_id":"ce4bhg12rcd13ifvqf80","pricing_plan_id":"cebpf4jnsgd1na2vs0mg"},{"bike_id":"dadb8a94-c00e-418b-b75b-7a32cb55bfeb","system_id":"levelo_inurba_marseille","lat":43.3301,"lon":5.39042,"is_reserved":false,"is_disabled":false,"rental_uris":{"android":"levelo://app?vid=dadb8a94-c00e-418b-b75b-7a32cb55bfeb","ios":"levelo://app?vid=dadb8a94-c00e-418b-b75b-7a32cb55bfeb"},"vehicle_type_id":"4","last_reported":1744657662,"current_range_meters":17600,"station_id":"ce4bhr92rcd13ifvqhrg","pricing_plan_id":"cebpf4jnsgd1na2vs0mg"},{"bike_id":"690344b0-9f80-484a-9c0a-0cb50bc24e58","system_id":"levelo_inurba_marseille","lat":43.31477,"lon":5.37304,"is_reserved":false,"is_disabled":false,"rental_uris":{"android":"levelo://app?vid=690344b0-9f80-484a-9c0a-0cb50bc24e58","ios":"levelo://app?vid=690344b0-9f80-484a-9c0a-0cb50bc24e58"},"vehicle_type_id":"4","last_reported":1744657662,"current_range_meters":17600,"station_id":"ce4bgt12rcd13ifvqcd0","pricing_plan_id":"cebpf4jnsgd1na2vs0mg"},{"bike_id":"f7719bba-a73f-48cd-93fa-ffe58e476c22","system_id":"levelo_inurba_marseille","lat":43.2902,"lon":5.38138,"is_reserved":false,"is_disabled":false,"rental_uris":{"android":"levelo://app?vid=f7719bba-a73f-48cd-93fa-ffe58e476c22","ios":"levelo://app?vid=f7719bba-a73f-48cd-93fa-ffe58e476c22"},"vehicle_type_id":"4","last_reported":1744657662,"current_range_meters":17600,"station_id":"ce4bh4p2rcd13ifvqe1g","pricing_plan_id":"cebpf4jnsgd1na2vs0mg"},{"bike_id":"da90772e-673b-48e1-9c97-282d5c4ebfeb","system_id":"levelo_inurba_marseille","lat":43.31756,"lon":5.39021,"is_reserved":false,"is_disabled":false,"rental_uris":{"android":"levelo://app?vid=da90772e-673b-48e1-9c97-282d5c4ebfeb","ios":"levelo://app?vid=da90772e-673b-48e1-9c97-282d5c4ebfeb"},"vehicle_type_id":"4","last_reported":1744657662,"current_range_meters":18000,"station_id":"ce4bhqp2rcd13ifvqhng","pricing_plan_id":"cebpf4jnsgd1na2vs0mg"},{"bike_id":"3ab9c95d-7500-4a1b-8add-6e9d58866300","system_id":"levelo_inurba_marseille","lat":43.24663,"lon":5.38168,"is_reserved":false,"is_disabled":false,"rental_uris":{"android":"levelo://app?vid=3ab9c95d-7500-4a1b-8add-6e9d58866300","ios":"levelo://app?vid=3ab9c95d-7500-4a1b-8add-6e9d58866300"},"vehicle_type_id":"4","last_reported":1744657662,"current_range_meters":18000,"station_id":"ce4bhih2rcd13ifvqfr0","pricing_plan_id":"cebpf4jnsgd1na2vs0mg"},{"bike_id":"17b543ad-6f08-496d-bdd2-6337f67f5fc8","system_id":"levelo_inurba_marseille","lat":43.28405,"lon":5.37527,"is_reserved":false,"is_disabled":false,"rental_uris":{"android":"levelo://app?vid=17b543ad-6f08-496d-bdd2-6337f67f5fc8","ios":"levelo://app?vid=17b543ad-6f08-496d-bdd2-6337f67f5fc8"},"vehicle_type_id":"4","last_reported":1744657662,"current_range_meters":18000,"station_id":"ce4bh412rcd13ifvqds0","pricing_plan_id":"cebpf4jnsgd1na2vs0mg"},{"bike_id":"ff4dc9d9-fc5e-474b-8508-f82823c91a5f","system_id":"levelo_inurba_marseille","lat":43.243304,"lon":5.39676,"is_reserved":false,"is_disabled":false,"rental_uris":{"android":"levelo://app?vid=ff4dc9d9-fc5e-474b-8508-f82823c91a5f","ios":"levelo://app?vid=ff4dc9d9-fc5e-474b-8508-f82823c91a5f"},"vehicle_type_id":"4","last_reported":1744657662,"current_range_meters":20400,"station_id":"ce4bh3h2rcd13ifvqdo0","pricing_plan_id":"cebpf4jnsgd1na2vs0mg"},{"bike_id":"7ba3577b-f14a-47b3-8ecb-35158daf49ef","system_id":"levelo_inurba_marseille","lat":43.30131,"lon":5.39866,"is_reserved":false,"is_disabled":false,"rental_uris":{"android":"levelo://app?vid=7ba3577b-f14a-47b3-8ecb-35158daf49ef","ios":"levelo://app?vid=7ba3577b-f14a-47b3-8ecb-35158daf49ef"},"vehicle_type_id":"4","last_reported":1744657662,"current_range_meters":18000,"station_id":"ce4bh0h2rcd13ifvqd40","pricing_plan_id":"cebpf4jnsgd1na2vs0mg"},{"bike_id":"f1b839f0-df0c-49df-902e-37aaf18dc0e0","system_id":"levelo_inurba_marseille","lat":43.30887,"lon":5.39659,"is_reserved":false,"is_disabled":false,"rental_uris":{"android":"levelo://app?vid=f1b839f0-df0c-49df-902e-37aaf18dc0e0","ios":"levelo://app?vid=f1b839f0-df0c-49df-902e-37aaf18dc0e0"},"vehicle_type_id":"4","last_reported":1744657662,"current_range_meters":19200,"station_id":"ce4bh012rcd13ifvqcv0","pricing_plan_id":"cebpf4jnsgd1na2vs0mg"},{"bike_id":"5447dc62-fd60-4585-9283-08e72056710b","system_id":"levelo_inurba_marseille","lat":43.24808,"lon":5.37468,"is_reserved":false,"is_disabled":false,"rental_uris":{"android":"levelo://app?vid=5447dc62-fd60-4585-9283-08e72056710b","ios":"levelo://app?vid=5447dc62-fd60-4585-9283-08e72056710b"},"vehicle_type_id":"4","last_reported":1744657662,"current_range_meters":18000,"station_id":"ce4bhgh2rcd13ifvqfb0","pricing_plan_id":"cebpf4jnsgd1na2vs0mg"},{"bike_id":"08ca8e63-35b8-4bc6-809a-f02ef51474bb","system_id":"levelo_inurba_marseille","lat":43.28697,"lon":5.37414,"is_reserved":false,"is_disabled":false,"rental_uris":{"android":"levelo://app?vid=08ca8e63-35b8-4bc6-809a-f02ef51474bb","ios":"levelo://app?vid=08ca8e63-35b8-4bc6-809a-f02ef51474bb"},"vehicle_type_id":"4","last_reported":1744657662,"current_range_meters":18800,"station_id":"ce4bh3p2rcd13ifvqdq0","pricing_plan_id":"cebpf4jnsgd1na2vs0mg"},{"bike_id":"f09921b0-f950-4152-8b35-4360e33e930e","system_id":"levelo_inurba_marseille","lat":43.30141,"lon":5.39884,"is_reserved":false,"is_disabled":false,"rental_uris":{"android":"levelo://app?vid=f09921b0-f950-4152-8b35-4360e33e930e","ios":"levelo://app?vid=f09921b0-f950-4152-8b35-4360e33e930e"},"vehicle_type_id":"4","last_reported":1744657662,"current_range_meters":18800,"station_id":"ce4bh0h2rcd13ifvqd40","pricing_plan_id":"cebpf4jnsgd1na2vs0mg"},{"bike_id":"c417c17e-b147-4f7d-a26a-1f902d139095","system_id":"levelo_inurba_marseille","lat":43.28145,"lon":5.42638,"is_reserved":false,"is_disabled":false,"rental_uris":{"android":"levelo://app?vid=c417c17e-b147-4f7d-a26a-1f902d139095","ios":"levelo://app?vid=c417c17e-b147-4f7d-a26a-1f902d139095"},"vehicle_type_id":"4","last_reported":1744657662,"current_range_meters":18800,"station_id":"ce4bhnh2rcd13ifvqgug","pricing_plan_id":"cebpf4jnsgd1na2vs0mg"},{"bike_id":"686d071e-6131-4f0b-bcc4-ab3418cac800","system_id":"levelo_inurba_marseille","lat":43.28099,"lon":5.37846,"is_reserved":false,"is_disabled":false,"rental_uris":{"android":"levelo://app?vid=686d071e-6131-4f0b-bcc4-ab3418cac800","ios":"levelo://app?vid=686d071e-6131-4f0b-bcc4-ab3418cac800"},"vehicle_type_id":"4","last_reported":1744657662,"current_range_meters":18800,"station_id":"ce4bha12rcd13ifvqee0","pricing_plan_id":"cebpf4jnsgd1na2vs0mg"},{"bike_id":"07142980-3ce3-43fd-9a0d-cabe7390f945","system_id":"levelo_inurba_marseille","lat":43.28272,"lon":5.35061,"is_reserved":false,"is_disabled":false,"rental_uris":{"android":"levelo://app?vid=07142980-3ce3-43fd-9a0d-cabe7390f945","ios":"levelo://app?vid=07142980-3ce3-43fd-9a0d-cabe7390f945"},"vehicle_type_id":"4","last_reported":1744657662,"current_range_meters":18800,"station_id":"ce4bhbp2rcd13ifvqerg","pricing_plan_id":"cebpf4jnsgd1na2vs0mg"},{"bike_id":"7282ea70-0923-45fc-a703-28d7b3244700","system_id":"levelo_inurba_marseille","lat":43.29798,"lon":5.40414,"is_reserved":false,"is_disabled":false,"rental_uris":{"android":"levelo://app?vid=7282ea70-0923-45fc-a703-28d7b3244700","ios":"levelo://app?vid=7282ea70-0923-45fc-a703-28d7b3244700"},"vehicle_type_id":"4","last_reported":1744657662,"current_range_meters":18800,"station_id":"ce4bh112rcd13ifvqd90","pricing_plan_id":"cebpf4jnsgd1na2vs0mg"},{"bike_id":"3f46731a-86fd-4c09-a12e-f63245fbbc75","system_id":"levelo_inurba_marseille","lat":43.27908,"lon":5.38018,"is_reserved":false,"is_disabled":false,"rental_uris":{"android":"levelo://app?vid=3f46731a-86fd-4c09-a12e-f63245fbbc75","ios":"levelo://app?vid=3f46731a-86fd-4c09-a12e-f63245fbbc75"},"vehicle_type_id":"4","last_reported":1744657662,"current_range_meters":18800,"station_id":"ce4bhf92rcd13ifvqf50","pricing_plan_id":"cebpf4jnsgd1na2vs0mg"},{"bike_id":"b37e9ae2-5902-4756-845e-f76f5bc22770","system_id":"levelo_inurba_marseille","lat":43.24075,"lon":5.37757,"is_reserved":false,"is_disabled":false,"rental_uris":{"android":"levelo://app?vid=b37e9ae2-5902-4756-845e-f76f5bc22770","ios":"levelo://app?vid=b37e9ae2-5902-4756-845e-f76f5bc22770"},"vehicle_type_id":"4","last_reported":1744657662,"current_range_meters":18800,"station_id":"ce4bhnp2rcd13ifvqgvg","pricing_plan_id":"cebpf4jnsgd1na2vs0mg"},{"bike_id":"69ab595a-0d38-4c64-acbf-de2deb74927e","system_id":"levelo_inurba_marseille","lat":43.27924,"lon":5.39615,"is_reserved":false,"is_disabled":false,"rental_uris":{"android":"levelo://app?vid=69ab595a-0d38-4c64-acbf-de2deb74927e","ios":"levelo://app?vid=69ab595a-0d38-4c64-acbf-de2deb74927e"},"vehicle_type_id":"4","last_reported":1744657662,"current_range_meters":19200,"station_id":"ce4bhf92rcd13ifvqf40","pricing_plan_id":"cebpf4jnsgd1na2vs0mg"},{"bike_id":"43404185-5dce-4f44-880f-44117f5acebe","system_id":"levelo_inurba_marseille","lat":43.29291,"lon":5.37462,"is_reserved":false,"is_disabled":false,"rental_uris":{"android":"levelo://app?vid=43404185-5dce-4f44-880f-44117f5acebe","ios":"levelo://app?vid=43404185-5dce-4f44-880f-44117f5acebe"},"vehicle_type_id":"4","last_reported":1744657662,"current_range_meters":19200,"station_id":"ce4bgi12rcd13ifvqb70","pricing_plan_id":"cebpf4jnsgd1na2vs0mg"},{"bike_id":"9fa0d21c-b8ba-4bad-a7a6-abea3e2d8fd2","system_id":"levelo_inurba_marseille","lat":43.29525,"lon":5.3855,"is_reserved":false,"is_disabled":false,"rental_uris":{"android":"levelo://app?vid=9fa0d21c-b8ba-4bad-a7a6-abea3e2d8fd2","ios":"levelo://app?vid=9fa0d21c-b8ba-4bad-a7a6-abea3e2d8fd2"},"vehicle_type_id":"4","last_reported":1744657662,"current_range_meters":19200,"station_id":"ce4bgih2rcd13ifvqba0","pricing_plan_id":"cebpf4jnsgd1na2vs0mg"},{"bike_id":"da9e29fd-3dd0-4083-b38d-51915259891a","system_id":"levelo_inurba_marseille","lat":43.24387,"lon":5.37069,"is_reserved":false,"is_disabled":false,"rental_uris":{"android":"levelo://app?vid=da9e29fd-3dd0-4083-b38d-51915259891a","ios":"levelo://app?vid=da9e29fd-3dd0-4083-b38d-51915259891a"},"vehicle_type_id":"4","last_reported":1744657662,"current_range_meters":19200,"station_id":"ce4bhhh2rcd13ifvqfk0","pricing_plan_id":"cebpf4jnsgd1na2vs0mg"},