{"last_updated":1741619465,"ttl":60,"version":"2.2","data":{"bikes":[{"bike_id":"133a8c83-74f8-4349-97e8-85b6b367c69c","system_id":"levelo_inurba_marseille","lat":43.29964,"lon":5.37163,"is_reserved":false,"is_disabled":false,"rental_uris":{"android":"levelo://app?vid=133a8c83-74f8-4349-97e8-85b6b367c69c","ios":"levelo://app?vid=133a8c83-74f8-4349-97e8-85b6b367c69c"},"vehicle_type_id":"4","last_reported":1741619465,"current_range_meters":2800,"station_id":"ce4bgr92rcd13ifvqc7g","pricing_plan_id":"cebpf4jnsgd1na2vs0mg"},{"bike_id":"b104001a-10f7-4c93-b613-2b76cb885027","system_id":"levelo_inurba_marseille","lat":43.3116,"lon":5.371,"is_reserved":false,"is_disabled":false,"rental_uris":{"android":"levelo://app?vid=b104001a-10f7-4c93-b613-2b76cb885027","ios":"levelo://app?vid=b104001a-10f7-4c93-b613-2b76cb885027"},"vehicle_type_id":"4","last_reported":1741619465,"current_range_meters":3200,"station_id":"","pricing_plan_id":"cebpf4jnsgd1na2vs0mg"},{"bike_id":"adfcccd3-e499-47c8-b947-d7f05d66f4ef","system_id":"levelo_inurba_marseille","lat":43.29893,"lon":5.43674,"is_reserved":false,"is_disabled":false,"rental_uris":{"android":"levelo://app?vid=adfcccd3-e499-47c8-b947-d7f05d66f4ef","ios":"levelo://app?vid=adfcccd3-e499-47c8-b947-d7f05d66f4ef"},"vehicle_type_id":"4","last_reported":1741619465,"current_range_meters":3200,"station_id":"ce4bhpp2rcd13ifvqhfg","pricing_plan_id":"cebpf4jnsgd1na2vs0mg"},{"bike_id":"b74aee41-da99-446a-abe1-4b25ed7ab403","system_id":"levelo_inurba_marseille","lat":43.320424,"lon":5.415722,"is_reserved":false,"is_disabled":false,"rental_uris":{"android":"levelo://app?vid=b74aee41-da99-446a-abe1-4b25ed7ab403","ios":"levelo://app?vid=b74aee41-da99-446a-abe1-4b25ed7ab403"},"vehicle_type_id":"4","last_reported":1741619465,"current_range_meters":4000,"station_id":"ce4bhq92rcd13ifvqhkg","pricing_plan_id":"cebpf4jnsgd1na2vs0mg"},{"bike_id":"3ed4d0a4-f884-4c88-a314-b41233bbb652","system_id":"levelo_inurba_marseille","lat":43.26232,"lon":5.40456,"is_reserved":false,"is_disabled":false,"rental_uris":{"android":"levelo://app?vid=3ed4d0a4-f884-4c88-a314-b41233bbb652","ios":"levelo://app?vid=3ed4d0a4-f884-4c88-a314-b41233bbb652"},"vehicle_type_id":"4","last_reported":1741619465,"current_range_meters":4000,"station_id":"ce4bhmh2rcd13ifvqgmg","pricing_plan_id":"cebpf4jnsgd1na2vs0mg"},{"bike_id":"1597f21b-0506-400f-a56a-d062c83f3ea5","system_id":"levelo_inurba_marseille","lat":43.2903,"lon":5.3864,"is_reserved":false,"is_disabled":false,"rental_uris":{"android":"levelo://app?vid=1597f21b-0506-400f-a56a-d062c83f3ea5","ios":"levelo://app?vid=1597f21b-0506-400f-a56a-d062c83f3ea5"},"vehicle_type_id":"4","last_reported":1741619465,"current_range_meters":4400,"station_id":"ce4bh4p2rcd13ifvqe0g","pricing_plan_id":"cebpf4jnsgd1na2vs0mg"},{"bike_id":"19bbe8da-d7df-496e-a677-cbaab925cf5e","system_id":"levelo_inurba_marseille","lat":43.24885,"lon":5.42507,"is_reserved":false,"is_disabled":false,"rental_uris":{"android":"levelo://app?vid=19bbe8da-d7df-496e-a677-cbaab925cf5e","ios":"levelo://app?vid=19bbe8da-d7df-496e-a677-cbaab925cf5e"},"vehicle_type_id":"4","last_reported":1741619465,"current_range_meters":4800,"station_id":"","pricing_plan_id":"cebpf4jnsgd1na2vs0mg"},{"bike_id":"2daf1def-9d66-4fe4-a943-060afa8e2217","system_id":"levelo_inurba_marseille","lat":43.26221,"lon":5.40477,"is_reserved":false,"is_disabled":false,"rental_uris":{"android":"levelo://app?vid=2daf1def-9d66-4fe4-a943-060afa8e2217","ios":"levelo://app?vid=2daf1def-9d66-4fe4-a943-060afa8e2217"},"vehicle_type_id":"4","last_reported":1741619465,"current_range_meters":4800,"station_id":"ce4bhmh2rcd13ifvqgmg","pricing_plan_id":"cebpf4jnsgd1na2vs0mg"},{"bike_id":"c2309335-af79-4267-886b-cf11af772657","system_id":"levelo_inurba_marseille","lat":43.27953,"lon":5.41052,"is_reserved":false,"is_disabled":true,"rental_uris":{"android":"levelo://app?vid=c2309335-af79-4267-886b-cf11af772657","ios":"levelo://app?vid=c2309335-af79-4267-886b-cf11af772657"},"vehicle_type_id":"4","last_reported":1741619465,"current_range_meters":4800,"station_id":"ce4bhnp2rcd13ifvqh0g","pricing_plan_id":"cebpf4jnsgd1na2vs0mg"},{"bike_id":"1c427250-17e1-4518-bc21-dadd7d9ed0b9","system_id":"levelo_inurba_marseille","lat":43.23962,"lon":5.36631,"is_reserved":false,"is_disabled":false,"rental_uris":{"android":"levelo://app?vid=1c427250-17e1-4518-bc21-dadd7d9ed0b9","ios":"levelo://app?vid=1c427250-17e1-4518-bc21-dadd7d9ed0b9"},"vehicle_type_id":"4","last_reported":1741619465,"current_range_meters":6000,"station_id":"ce4bhi12rcd13ifvqfp0","pricing_plan_id":"cebpf4jnsgd1na2vs0mg"},{"bike_id":"343ffbce-5a4c-4914-a6ee-f118bafd8cab","system_id":"levelo_inurba_marseille","lat":43.31097,"lon":5.38378,"is_reserved":false,"is_disabled":false,"rental_uris":{"android":"levelo://app?vid=343ffbce-5a4c-4914-a6ee-f118bafd8cab","ios":"levelo://app?vid=343ffbce-5a4c-4914-a6ee-f118bafd8cab"},"vehicle_type_id":"4","last_reported":1741619465,"current_range_meters":5600,"station_id":"ce4bgv92rcd13ifvqcr0","pricing_plan_id":"cebpf4jnsgd1na2vs0mg"},{"bike_id":"74c06b91-20bc-4f13-a9e0-0f01f75391a0","system_id":"levelo_inurba_marseille","lat":43.30461,"lon":5.37909,"is_reserved":false,"is_disabled":true,"rental_uris":{"android":"levelo://app?vid=74c06b91-20bc-4f13-a9e0-0f01f75391a0","ios":"levelo://app?vid=74c06b91-20bc-4f13-a9e0-0f01f75391a0"},"vehicle_type_id":"4","last_reported":1741619465,"current_range_meters":6400,"station_id":"ce4bgup2rcd13ifvqcn0","pricing_plan_id":"cebpf4jnsgd1na2vs0mg"},{"bike_id":"d9395f0b-f59e-438e-a2a7-b5eee31b0ba9","system_id":"levelo_inurba_marseille","lat":43.25015,"lon":5.38914,"is_reserved":false,"is_disabled":false,"rental_uris":{"android":"levelo://app?vid=d9395f0b-f59e-438e-a2a7-b5eee31b0ba9","ios":"levelo://app?vid=d9395f0b-f59e-438e-a2a7-b5eee31b0ba9"},"vehicle_type_id":"4","last_reported":1741619465,"current_range_meters":6400,"station_id":"ce4bhgp2rcd13ifvqfd0","pricing_plan_id":"cebpf4jnsgd1na2vs0mg"},{"bike_id":"29afd229-1498-4ab7-b3ef-c62bd56b5609","system_id":"levelo_inurba_marseille","lat":43.24065,"lon":5.37754,"is_reserved":false,"is_disabled":false,"rental_uris":{"android":"levelo://app?vid=29afd229-1498-4ab7-b3ef-c62bd56b5609","ios":"levelo://app?vid=29afd229-1498-4ab7-b3ef-c62bd56b5609"},"vehicle_type_id":"4","last_reported":1741619465,"current_range_meters":6400,"station_id":"ce4bhnp2rcd13ifvqgvg","pricing_plan_id":"cebpf4jnsgd1na2vs0mg"},{"bike_id":"e374535e-2a0d-4878-b24a-be8c2963daa8","system_id":"levelo_inurba_marseille","lat":43.26932,"lon":5.38942,"is_reserved":false,"is_disabled":false,"rental_uris":{"android":"levelo://app?vid=e374535e-2a0d-4878-b24a-be8c2963daa8","ios":"levelo://app?vid=e374535e-2a0d-4878-b24a-be8c2963daa8"},"vehicle_type_id":"4","last_reported":1741619465,"current_range_meters":6400,"station_id":"ce4bhhh2rcd13ifvqfl0","pricing_plan_id":"cebpf4jnsgd1na2vs0mg"},{"bike_id":"290b9f18-8e19-4bc0-881f-cc5aed508b85","system_id":"levelo_inurba_marseille","lat":43.28845,"lon":5.35887,"is_reserved":false,"is_disabled":false,"rental_uris":{"android":"levelo://app?vid=290b9f18-8e19-4bc0-881f-cc5aed508b85","ios":"levelo://app?vid=290b9f18-8e19-4bc0-881f-cc5aed508b85"},"vehicle_type_id":"4","last_reported":1741619465,"current_range_meters":6800,"station_id":"ce4bhb12rcd13ifvqem0","pricing_plan_id":"cebpf4jnsgd1na2vs0mg"},{"bike_id":"65ebf940-f6f1-4ba2-8b75-2b2127dd3199","system_id":"levelo_inurba_marseille","lat":43.25029,"lon":5.38058,"is_reserved":false,"is_disabled":false,"rental_uris":{"android":"levelo://app?vid=65ebf940-f6f1-4ba2-8b75-2b2127dd3199","ios":"levelo://app?vid=65ebf940-f6f1-4ba2-8b75-2b2127dd3199"},"vehicle_type_id":"4","last_reported":1741619465,"current_range_meters":6800,"station_id":"","pricing_plan_id":"cebpf4jnsgd1na2vs0mg"},{"bike_id":"4711a0d3-184b-4ba2-86aa-fea8964a4a5c","system_id":"levelo_inurba_marseille","lat":43.31081,"lon":5.42434,"is_reserved":false,"is_disabled":false,"rental_uris":{"android":"levelo://app?vid=4711a0d3-184b-4ba2-86aa-fea8964a4a5c","ios":"levelo://app?vid=4711a0d3-184b-4ba2-86aa-fea8964a4a5c"},"vehicle_type_id":"4","last_reported":1741619465,"current_range_meters":6800,"station_id":"ce4bhp92rcd13ifvqhag","pricing_plan_id":"cebpf4jnsgd1na2vs0mg"},{"bike_id":"05a471dd-7e4d-44a6-9116-709bf72ec62b","system_id":"levelo_inurba_marseille","lat":43.33242,"lon":5.39895,"is_reserved":false,"is_disabled":false,"rental_uris":{"android":"levelo://app?vid=05a471dd-7e4d-44a6-9116-709bf72ec62b","ios":"levelo://app?vid=05a471dd-7e4d-44a6-9116-709bf72ec62b"},"vehicle_type_id":"4","last_reported":1741619465,"current_range_meters":7200,"station_id":"","pricing_plan_id":"cebpf4jnsgd1na2vs0mg"},{"bike_id":"69c9dbe0-7e8f-4dfe-b273-abe4f02fce43","system_id":"levelo_inurba_marseille","lat":43.30881,"lon":5.39657,"is_reserved":false,"is_disabled":false,"rental_uris":{"android":"levelo://app?vid=69c9dbe0-7e8f-4dfe-b273-abe4f02fce43","ios":"levelo://app?vid=69c9dbe0-7e8f-4dfe-b273-abe4f02fce43"},"vehicle_type_id":"4","last_reported":1741619465,"current_range_meters":7200,"station_id":"ce4bh012rcd13ifvqcv0","pricing_plan_id":"cebpf4jnsgd1na2vs0mg"},{"bike_id":"6d30fa00-fa73-4a2d-aac6-368b08cd61f0","system_id":"levelo_inurba_marseille","lat":43.31188,"lon":5.3796,"is_reserved":false,"is_disabled":false,"rental_uris":{"android":"levelo://app?vid=6d30fa00-fa73-4a2d-aac6-368b08cd61f0","ios":"levelo://app?vid=6d30fa00-fa73-4a2d-aac6-368b08cd61f0"},"vehicle_type_id":"4","last_reported":1741619465,"current_range_meters":7200,"station_id":"","pricing_plan_id":"cebpf4jnsgd1na2vs0mg"},{"bike_id":"65b2b67f-a719-48aa-8114-4e55c3c4e366","system_id":"levelo_inurba_marseille","lat":43.28713,"lon":5.37915,"is_reserved":false,"is_disabled":false,"rental_uris":{"android":"levelo://app?vid=65b2b67f-a719-48aa-8114-4e55c3c4e366","ios":"levelo://app?vid=65b2b67f-a719-48aa-8114-4e55c3c4e366"},"vehicle_type_id":"4","last_reported":1741619465,"current_range_meters":8000,"station_id":"ce4bh9p2rcd13ifvqec0","pricing_plan_id":"cebpf4jnsgd1na2vs0mg"},{"bike_id":"8ffc53a4-792e-4520-8399-ca78a3a19092","system_id":"levelo_inurba_marseille","lat":43.31062,"lon":5.38362,"is_reserved":false,"is_disabled":false,"rental_uris":{"android":"levelo://app?vid=8ffc53a4-792e-4520-8399-ca78a3a19092","ios":"levelo://app?vid=8ffc53a4-792e-4520-8399-ca78a3a19092"},"vehicle_type_id":"4","last_reported":1741619465,"current_range_meters":8000,"station_id":"ce4bgv92rcd13ifvqcr0","pricing_plan_id":"cebpf4jnsgd1na2vs0mg"},{"bike_id":"ebb2d58b-982f-41cd-b65c-668035c69ec1","system_id":"levelo_inurba_marseille","lat":43.30501,"lon":5.37174,"is_reserved":false,"is_disabled":false,"rental_uris":{"android":"levelo://app?vid=ebb2d58b-982f-41cd-b65c-668035c69ec1","ios":"levelo://app?vid=ebb2d58b-982f-41cd-b65c-668035c69ec1"},"vehicle_type_id":"4","last_reported":1741619465,"current_range_meters":8000,"station_id":"","pricing_plan_id":"cebpf4jnsgd1na2vs0mg"},{"bike_id":"dff46c56-4d93-41bc-8468-a48e8097d9cb","system_id":"levelo_inurba_marseille","lat":43.24174,"lon":5.39729,"is_reserved":false,"is_disabled":false,"rental_uris":{"android":"levelo://app?vid=dff46c56-4d93-41bc-8468-a48e8097d9cb","ios":"levelo://app?vid=dff46c56-4d93-41bc-8468-a48e8097d9cb"},"vehicle_type_id":"4","last_reported":1741619465,"current_range_meters":8000,"station_id":"ce4bhn12rcd13ifvqgpg","pricing_plan_id":"cebpf4jnsgd1na2vs0mg"},{"bike_id":"85858945-288d-4d7b-aac5-8cf9d060c580","system_id":"levelo_inurba_marseille","lat":43.32308,"lon":5.36657,"is_reserved":false,"is_disabled":false,"rental_uris":{"android":"levelo://app?vid=85858945-288d-4d7b-aac5-8cf9d060c580","ios":"levelo://app?vid=85858945-288d-4d7b-aac5-8cf9d060c580"},"vehicle_type_id":"4","last_reported":1741619465,"current_range_meters":8000,"station_id":"","pricing_plan_id":"cebpf4jnsgd1na2vs0mg"},{"bike_id":"61193e8a-8e60-4220-8577-846bbeba5e58","system_id":"levelo_inurba_marseille","lat":43.31396,"lon":5.38608,"is_reserved":false,"is_disabled":false,"rental_uris":{"android":"levelo://app?vid=61193e8a-8e60-4220-8577-846bbeba5e58","ios":"levelo://app?vid=61193e8a-8e60-4220-8577-846bbeba5e58"},"vehicle_type_id":"4","last_reported":1741619465,"current_range_meters":8000,"station_id":"","pricing_plan_id":"cebpf4jnsgd1na2vs0mg"},{"bike_id":"bdb11683-f5f8-4c4f-9a13-5cbb4f50b560","system_id":"levelo_inurba_marseille","lat":43.27059,"lon":5.40255,"is_reserved":false,"is_disabled":false,"rental_uris":{"android":"levelo://app?vid=bdb11683-f5f8-4c4f-9a13-5cbb4f50b560","ios":"levelo://app?vid=bdb11683-f5f8-4c4f-9a13-5cbb4f50b560"},"vehicle_type_id":"4","last_reported":1741619465,"current_range_meters":8400,"station_id":"ce4bhk92rcd13ifvqgc0","pricing_plan_id":"cebpf4jnsgd1na2vs0mg"},{"bike_id":"a33ff287-61ba-4c62-8253-cbd9b33a13c6","system_id":"levelo_inurba_marseille","lat":43.24069,"lon":5.37722,"is_reserved":false,"is_disabled":true,"rental_uris":{"android":"levelo://app?vid=a33ff287-61ba-4c62-8253-cbd9b33a13c6","ios":"levelo://app?vid=a33ff287-61ba-4c62-8253-cbd9b33a13c6"},"vehicle_type_id":"4","last_reported":1741619465,"current_range_meters":8400,"station_id":"ce4bhnp2rcd13ifvqgvg","pricing_plan_id":"cebpf4jnsgd1na2vs0mg"},{"bike_id":"217e6fac-312f-4d34-9f0a-9208688bb967","system_id":"levelo_inurba_marseille","lat":43.24179,"lon":5.39733,"is_reserved":false,"is_disabled":false,"rental_uris":{"android":"levelo://app?vid=217e6fac-312f-4d34-9f0a-9208688bb967","ios":"levelo://app?vid=217e6fac-312f-4d34-9f0a-9208688bb967"},"vehicle_type_id":"4","last_reported":1741619465,"current_range_meters":8400,"station_id":"ce4bhn12rcd13ifvqgpg","pricing_plan_id":"cebpf4jnsgd1na2vs0mg"},{"bike_id":"7f08542c-3622-4bee-8852-d0974c0ec085","system_id":"levelo_inurba_marseille","lat":43.24143,"lon":5.36343,"is_reserved":false,"is_disabled":false,"rental_uris":{"android":"levelo://app?vid=7f08542c-3622-4bee-8852-d0974c0ec085","ios":"levelo://app?vid=7f08542c-3622-4bee-8852-d0974c0ec085"},"vehicle_type_id":"4","last_reported":1741619465,"current_range_meters":8400,"station_id":"cpo36qri1sfpv3e86is0","pricing_plan_id":"cebpf4jnsgd1na2vs0mg"},{"bike_id":"089fa96c-06f0-4a31-aa59-e3a83d994d6c","system_id":"levelo_inurba_marseille","lat":43.2817,"lon":5.42622,"is_reserved":false,"is_disabled":false,"rental_uris":{"android":"levelo://app?vid=089fa96c-06f0-4a31-aa59-e3a83d994d6c","ios":"levelo://app?vid=089fa96c-06f0-4a31-aa59-e3a83d994d6c"},"vehicle_type_id":"4","last_reported":1741619465,"current_range_meters":8400,"station_id":"ce4bhnh2rcd13ifvqgug","pricing_plan_id":"cebpf4jnsgd1na2vs0mg"},{"bike_id":"3dbd7750-ff14-4780-8d79-b5c3ab040cc9","system_id":"levelo_inurba_marseille","lat":43.30884,"lon":5.39631,"is_reserved":false,"is_disabled":false,"rental_uris":{"android":"levelo://app?vid=3dbd7750-ff14-4780-8d79-b5c3ab040cc9","ios":"levelo://app?vid=3dbd7750-ff14-4780-8d79-b5c3ab040cc9"},"vehicle_type_id":"4","last_reported":1741619465,"current_range_meters":8400,"station_id":"ce4bh012rcd13ifvqcv0","pricing_plan_id":"cebpf4jnsgd1na2vs0mg"},{"bike_id":"60f4da96-da64-488c-98f7-c9a61709620a","system_id":"levelo_inurba_marseille","lat":43.2557,"lon":5.38219,"is_reserved":false,"is_disabled":false,"rental_uris":{"android":"levelo://app?vid=60f4da96-da64-488c-98f7-c9a61709620a","ios":"levelo://app?vid=60f4da96-da64-488c-98f7-c9a61709620a"},"vehicle_type_id":"4","last_reported":1741619465,"current_range_meters":8400,"station_id":"ce4bhih2rcd13ifvqfs0","pricing_plan_id":"cebpf4jnsgd1na2vs0mg"},{"bike_id":"c06ad801-423c-4a58-bb11-182336cebef0","system_id":"levelo_inurba_marseille","lat":43.28157,"lon":5.42633,"is_reserved":false,"is_disabled":false,"rental_uris":{"android":"levelo://app?vid=c06ad801-423c-4a58-bb11-182336cebef0","ios":"levelo://app?vid=c06ad801-423c-4a58-bb11-182336cebef0"},"vehicle_type_id":"4","last_reported":1741619465,"current_range_meters":8400,"station_id":"ce4bhnh2rcd13ifvqgug","pricing_plan_id":"cebpf4jnsgd1na2vs0mg"},{"bike_id":"87c40d47-5266-4f6a-9a89-01987f8bf62c","system_id":"levelo_inurba_marseille","lat":43.26216,"lon":5.40431,"is_reserved":false,"is_disabled":false,"rental_uris":{"android":"levelo://app?vid=87c40d47-5266-4f6a-9a89-01987f8bf62c","ios":"levelo://app?vid=87c40d47-5266-4f6a-9a89-01987f8bf62c"},"vehicle_type_id":"4","last_reported":1741619465,"current_range_meters":8400,"station_id":"ce4bhmh2rcd13ifvqgmg","pricing_plan_id":"cebpf4jnsgd1na2vs0mg"},{"bike_id":"5d44eec5-0f76-4d9d-87c9-f425c19e364b","system_id":"levelo_inurba_marseille","lat":43.25085,"lon":5.39505,"is_reserved":false,"is_disabled":false,"rental_uris":{"android":"levelo://app?vid=5d44eec5-0f76-4d9d-87c9-f425c19e364b","ios":"levelo://app?vid=5d44eec5-0f76-4d9d-87c9-f425c19e364b"},"vehicle_type_id":"4","last_reported":1741619465,"current_range_meters":8400,"station_id":"ce4bhm12rcd13ifvqgkg","pricing_plan_id":"cebpf4jnsgd1na2vs0mg"},{"bike_id":"57d491f8-4706-4b00-ad57-f6b6c494e279","system_id":"levelo_inurba_marseille","lat":43.27049,"lon":5.40256,"is_reserved":false,"is_disabled":false,"rental_uris":{"android":"levelo://app?vid=57d491f8-4706-4b00-ad57-f6b6c494e279","ios":"levelo://app?vid=57d491f8-4706-4b00-ad57-f6b6c494e279"},"vehicle_type_id":"4","last_reported":1741619465,"current_range_meters":8400,"station_id":"ce4bhk92rcd13ifvqgc0","pricing_plan_id":"cebpf4jnsgd1na2vs0mg"},{"bike_id":"38dc15ea-830e-4d52-b9b0-52db72dac316","system_id":"levelo_inurba_marseille","lat":43.24072,"lon":5.37724,"is_reserved":false,"is_disabled":false,"rental_uris":{"android":"levelo://app?vid=38dc15ea-830e-4d52-b9b0-52db72dac316","ios":"levelo://app?vid=38dc15ea-830e-4d52-b9b0-52db72dac316"},"vehicle_type_id":"4","last_reported":1741619465,"current_range_meters":8400,"station_id":"ce4bhnp2rcd13ifvqgvg","pricing_plan_id":"cebpf4jnsgd1na2vs0mg"},{"bike_id":"d59f2830-18d6-4a7c-9ef9-96a9581c1db2","system_id":"levelo_inurba_marseille","lat":43.24649,"lon":5.38897,"is_reserved":false,"is_disabled":false,"rental_uris":{"android":"levelo://app?vid=d59f2830-18d6-4a7c-9ef9-96a9581c1db2","ios":"levelo://app?vid=d59f2830-18d6-4a7c-9ef9-96a9581c1db2"},"vehicle_type_id":"4","last_reported":1741619465,"current_range_meters":8400,"station_id":"ce4bhg12rcd13ifvqf60","pricing_plan_id":"cebpf4jnsgd1na2vs0mg"},{"bike_id":"a6574b9a-09ef-419d-a719-bc1d2e24b9e1","system_id":"levelo_inurba_marseille","lat":43.3043,"lon":5.38886,"is_reserved":false,"is_disabled":false,"rental_uris":{"android":"levelo://app?vid=a6574b9a-09ef-419d-a719-bc1d2e24b9e1","ios":"levelo://app?vid=a6574b9a-09ef-419d-a719-bc1d2e24b9e1"},"vehicle_type_id":"4","last_reported":1741619465,"current_range_meters":8800,"station_id":"ce4bgk12rcd13ifvqbi0","pricing_plan_id":"cebpf4jnsgd1na2vs0mg"},{"bike_id":"22f9e9cd-d0bb-4168-8d9a-7ffec36f634d","system_id":"levelo_inurba_marseille","lat":43.25226,"lon":5.3915,"is_reserved":false,"is_disabled":false,"rental_uris":{"android":"levelo://app?vid=22f9e9cd-d0bb-4168-8d9a-7ffec36f634d","ios":"levelo://app?vid=22f9e9cd-d0bb-4168-8d9a-7ffec36f634d"},"vehicle_type_id":"4","last_reported":1741619465,"current_range_meters":8800,"station_id":"ce4bhg12rcd13ifvqf60","pricing_plan_id":"cebpf4jnsgd1na2vs0mg"},{"bike_id":"b810bfc0-7072-4e0d-b226-90a4bd831653","system_id":"levelo_inurba_marseille","lat":43.2397,"lon":5.36641,"is_reserved":false,"is_disabled":false,"rental_uris":{"android":"levelo://app?vid=b810bfc0-7072-4e0d-b226-90a4bd831653","ios":"levelo://app?vid=b810bfc0-7072-4e0d-b226-90a4bd831653"},"vehicle_type_id":"4","last_reported":1741619465,"current_range_meters":8800,"station_id":"ce4bhi12rcd13ifvqfp0","pricing_plan_id":"cebpf4jnsgd1na2vs0mg"},{"bike_id":"1f72adc6-3d1a-4fad-a905-cb9dcd596e26","system_id":"levelo_inurba_marseille","lat":43.23847,"lon":5.4357,"is_reserved":false,"is_disabled":false,"rental_uris":{"android":"levelo://app?vid=1f72adc6-3d1a-4fad-a905-cb9dcd596e26","ios":"levelo://app?vid=1f72adc6-3d1a-4fad-a905-cb9dcd596e26"},"vehicle_type_id":"4","last_reported":1741619465,"current_range_meters":8800,"station_id":"","pricing_plan_id":"cebpf4jnsgd1na2vs0mg"},{"bike_id":"9b920de8-53a2-40ac-a3a1-24c4a4fc9e51","system_id":"levelo_inurba_marseille","lat":43.289301,"lon":5.38396,"is_reserved":false,"is_disabled":false,"rental_uris":{"android":"levelo://app?vid=9b920de8-53a2-40ac-a3a1-24c4a4fc9e51","ios":"levelo://app?vid=9b920de8-53a2-40ac-a3a1-24c4a4fc9e51"},"vehicle_type_id":"4","last_reported":1741619465,"current_range_meters":8400,"station_id":"ce4bh612rcd13ifvqe6g","pricing_plan_id":"cebpf4jnsgd1na2vs0mg"},{"bike_id":"ef6303de-f84a-4b1f-9060-2a8d28e015bb","system_id":"levelo_inurba_marseille","lat":43.24073,"lon":5.37733,"is_reserved":false,"is_disabled":false,"rental_uris":{"android":"levelo://app?vid=ef6303de-f84a-4b1f-9060-2a8d28e015bb","ios":"levelo://app?vid=ef6303de-f84a-4b1f-9060-2a8d28e015bb"},"vehicle_type_id":"4","last_reported":1741619465,"current_range_meters":9200,"station_id":"ce4bhnp2rcd13ifvqgvg","pricing_plan_id":"cebpf4jnsgd1na2vs0mg"},{"bike_id":"74595c1c-458a-4f7d-bd2f-ece778c27654","system_id":"levelo_inurba_marseille","lat":43.30648,"lon":5.40103,"is_reserved":false,"is_disabled":false,"rental_uris":{"android":"levelo://app?vid=74595c1c-458a-4f7d-bd2f-ece778c27654","ios":"levelo://app?vid=74595c1c-458a-4f7d-bd2f-ece778c27654"},"vehicle_type_id":"4","last_reported":1741619465,"current_range_meters":8800,"station_id":"ce4bh112rcd13ifvqda0","pricing_plan_id":"cebpf4jnsgd1na2vs0mg"},{"bike_id":"169b38ad-d958-40d3-89a3-ded19f11a319","system_id":"levelo_inurba_marseille","lat":43.33723,"lon":5.39189,"is_reserved":false,"is_disabled":false,"rental_uris":{"android":"levelo://app?vid=169b38ad-d958-40d3-89a3-ded19f11a319","ios":"levelo://app?vid=169b38ad-d958-40d3-89a3-ded19f11a319"},"vehicle_type_id":"4","last_reported":1741619465,"current_range_meters":9200,"station_id":"ce4bhr92rcd13ifvqhsg","pricing_plan_id":"cebpf4jnsgd1na2vs0mg"},{"bike_id":"565245af-1098-4207-83d1-fdf36ab786b5","system_id":"levelo_inurba_marseille","lat":43.28081,"lon":5.4419,"is_reserved":false,"is_disabled":true,"rental_uris":{"android":"levelo://app?vid=565245af-1098-4207-83d1-fdf36ab786b5","ios":"levelo://app?vid=565245af-1098-4207-83d1-fdf36ab786b5"},"vehicle_type_id":"4","last_reported":1741619465,"current_range_meters":9200,"station_id":"","pricing_plan_id":"cebpf4jnsgd1na2vs0mg"},{"bike_id":"41344d00-ae8b-4b61-8ffb-e8d61cd4bea1","system_id":"levelo_inurba_marseille","lat":43.30879,"lon":5.39653,"is_reserved":false,"is_disabled":false,"rental_uris":{"android":"levelo://app?vid=41344d00-ae8b-4b61-8ffb-e8d61cd4bea1","ios":"levelo://app?vid=41344d00-ae8b-4b61-8ffb-e8d61cd4bea1"},"vehicle_type_id":"4","last_reported":1741619465,"current_range_meters":9600,"station_id":"ce4bh012rcd13ifvqcv0","pricing_plan_id":"cebpf4jnsgd1na2vs0mg"},{"bike_id":"199cb7b2-857a-4db4-b08b-30cc2dc0c4f3","system_id":"levelo_inurba_marseille","lat":43.31706,"lon":5.43697,"is_reserved":false,"is_disabled":false,"rental_uris":{"android":"levelo://app?vid=199cb7b2-857a-4db4-b08b-30cc2dc0c4f3","ios":"levelo://app?vid=199cb7b2-857a-4db4-b08b-30cc2dc0c4f3"},"vehicle_type_id":"4","last_reported":1741619465,"current_range_meters":9600,"station_id":"ce4bhp92rcd13ifvqhcg","pricing_plan_id":"cebpf4jnsgd1na2vs0mg"},{"bike_id":"a37d42aa-085d-4a56-8e08-eaf93bfe5e2b","system_id":"levelo_inurba_marseille","lat":43.31206,"lon":5.3869,"is_reserved":false,"is_disabled":true,"rental_uris":{"android":"levelo://app?vid=a37d42aa-085d-4a56-8e08-eaf93bfe5e2b","ios":"levelo://app?vid=a37d42aa-085d-4a56-8e08-eaf93bfe5e2b"},"vehicle_type_id":"4","last_reported":1741619465,"current_range_meters":9600,"station_id":"ce4bgv12rcd13ifvqcp0","pricing_plan_id":"cebpf4jnsgd1na2vs0mg"},{"bike_id":"10e37082-3828-4527-b7a6-be2f7fe822f3","system_id":"levelo_inurba_marseille","lat":43.32481,"lon":5.36564,"is_reserved":false,"is_disabled":false,"rental_uris":{"android":"levelo://app?vid=10e37082-3828-4527-b7a6-be2f7fe822f3","ios":"levelo://app?vid=10e37082-3828-4527-b7a6-be2f7fe822f3"},"vehicle_type_id":"4","last_reported":1741619465,"current_range_meters":10000,"station_id":"ce4bhs12rcd13ifvqhvg","pricing_plan_id":"cebpf4jnsgd1na2vs0mg"},{"bike_id":"ebaa6d4a-9416-4e19-89ad-fd0f0df82cb1","system_id":"levelo_inurba_marseille","lat":43.30802,"lon":5.38147,"is_reserved":false,"is_disabled":false,"rental_uris":{"android":"levelo://app?vid=ebaa6d4a-9416-4e19-89ad-fd0f0df82cb1","ios":"levelo://app?vid=ebaa6d4a-9416-4e19-89ad-fd0f0df82cb1"},"vehicle_type_id":"4","last_reported":1741619465,"current_range_meters":10000,"station_id":"ce4bgt12rcd13ifvqce0","pricing_plan_id":"cebpf4jnsgd1na2vs0mg"},{"bike_id":"7211d1ee-ef4f-4f06-8ab6-d1cefb601774","system_id":"levelo_inurba_marseille","lat":43.272,"lon":5.39183,"is_reserved":false,"is_disabled":false,"rental_uris":{"android":"levelo://app?vid=7211d1ee-ef4f-4f06-8ab6-d1cefb601774","ios":"levelo://app?vid=7211d1ee-ef4f-4f06-8ab6-d1cefb601774"},"vehicle_type_id":"4","last_reported":1741619465,"current_range_meters":10000,"station_id":"ce4bhhp2rcd13ifvqfm0","pricing_plan_id":"cebpf4jnsgd1na2vs0mg"},{"bike_id":"37f1ec16-60c8-4a98-8b8d-8e040f02d91c","system_id":"levelo_inurba_marseille","lat":43.30645,"lon":5.40079,"is_reserved":false,"is_disabled":false,"rental_uris":{"android":"levelo://app?vid=37f1ec16-60c8-4a98-8b8d-8e040f02d91c","ios":"levelo://app?vid=37f1ec16-60c8-4a98-8b8d-8e040f02d91c"},"vehicle_type_id":"4","last_reported":1741619465,"current_range_meters":10000,"station_id":"ce4bh112rcd13ifvqda0","pricing_plan_id":"cebpf4jnsgd1na2vs0mg"},{"bike_id":"a0921746-6f8d-459b-8669-0a718946b91f","system_id":"levelo_inurba_marseille","lat":43.29233,"lon":5.36068,"is_reserved":false,"is_disabled":false,"rental_uris":{"android":"levelo://app?vid=a0921746-6f8d-459b-8669-0a718946b91f","ios":"levelo://app?vid=a0921746-6f8d-459b-8669-0a718946b91f"},"vehicle_type_id":"4","last_reported":1741619465,"current_range_meters":10000,"station_id":"ce4bhbh2rcd13ifvqeqg","pricing_plan_id":"cebpf4jnsgd1na2vs0mg"},{"bike_id":"5bf1fd3d-106c-4b23-b455-ae5552f33fa7","system_id":"levelo_inurba_marseille","lat":43.25081,"lon":5.39519,"is_reserved":false,"is_disabled":false,"rental_uris":{"android":"levelo://app?vid=5bf1fd3d-106c-4b23-b455-ae5552f33fa7","ios":"levelo://app?vid=5bf1fd3d-106c-4b23-b455-ae5552f33fa7"},"vehicle_type_id":"4","last_reported":1741619465,"current_range_meters":10000,"station_id":"ce4bhm12rcd13ifvqgkg","pricing_plan_id":"cebpf4jnsgd1na2vs0mg"},{"bike_id":"73f9f9bf-ca91-4919-86a8-56282a96bc45","system_id":"levelo_inurba_marseille","lat":43.29531,"lon":5.38535,"is_reserved":false,"is_disabled":false,"rental_uris":{"android":"levelo://app?vid=73f9f9bf-ca91-4919-86a8-56282a96bc45","ios":"levelo://app?vid=73f9f9bf-ca91-4919-86a8-56282a96bc45"},"vehicle_type_id":"4","last_reported":1741619465,"current_range_meters":10800,"station_id":"ce4bgih2rcd13ifvqba0","pricing_plan_id":"cebpf4jnsgd1na2vs0mg"},{"bike_id":"075be894-d272-4532-a157-af4f02ee78bd","system_id":"levelo_inurba_marseille","lat":43.24075,"lon":5.3775,"is_reserved":false,"is_disabled":false,"rental_uris":{"android":"levelo://app?vid=075be894-d272-4532-a157-af4f02ee78bd","ios":"levelo://app?vid=075be894-d272-4532-a157-af4f02ee78bd"},"vehicle_type_id":"4","last_reported":1741619465,"current_range_meters":10800,"station_id":"ce4bhnp2rcd13ifvqgvg","pricing_plan_id":"cebpf4jnsgd1na2vs0mg"},{"bike_id":"40973ab5-d7df-4d42-b633-aac9d8a7fef3","system_id":"levelo_inurba_marseille","lat":43.30439,"lon":5.38878,"is_reserved":false,"is_disabled":false,"rental_uris":{"android":"levelo://app?vid=40973ab5-d7df-4d42-b633-aac9d8a7fef3","ios":"levelo://app?vid=40973ab5-d7df-4d42-b633-aac9d8a7fef3"},"vehicle_type_id":"4","last_reported":1741619465,"current_range_meters":10800,"station_id":"ce4bgk12rcd13ifvqbi0","pricing_plan_id":"cebpf4jnsgd1na2vs0mg"},{"bike_id":"3d78b594-3d44-45a3-a9cc-f8ea9d219d77","system_id":"levelo_inurba_marseille","lat":43.29255,"lon":5.37617,"is_reserved":false,"is_disabled":false,"rental_uris":{"android":"levelo://app?vid=3d78b594-3d44-45a3-a9cc-f8ea9d219d77","ios":"levelo://app?vid=3d78b594-3d44-45a3-a9cc-f8ea9d219d77"},"vehicle_type_id":"4","last_reported":1741619465,"current_range_meters":10800,"station_id":"ce4bgi12rcd13ifvqb80","pricing_plan_id":"cebpf4jnsgd1na2vs0mg"},{"bike_id":"ae4913d3-c7b3-4e3b-8b0e-9eedefc8bcf1","system_id":"levelo_inurba_marseille","lat":43.31314,"lon":5.38833,"is_reserved":false,"is_disabled":false,"rental_uris":{"android":"levelo://app?vid=ae4913d3-c7b3-4e3b-8b0e-9eedefc8bcf1","ios":"levelo://app?vid=ae4913d3-c7b3-4e3b-8b0e-9eedefc8bcf1"},"vehicle_type_id":"4","last_reported":1741619465,"current_range_meters":11200,"station_id":"","pricing_plan_id":"cebpf4jnsgd1na2vs0mg"},{"bike_id":"402bf1cc-6d70-430d-a9aa-ba32fd6ef626","system_id":"levelo_inurba_marseille","lat":43.25819,"lon":5.39439,"is_reserved":false,"is_disabled":false,"rental_uris":{"android":"levelo://app?vid=402bf1cc-6d70-430d-a9aa-ba32fd6ef626","ios":"levelo://app?vid=402bf1cc-6d70-430d-a9aa-ba32fd6ef626"},"vehicle_type_id":"4","last_reported":1741619465,"current_range_meters":10800,"station_id":"ce4bhip2rcd13ifvqft0","pricing_plan_id":"cebpf4jnsgd1na2vs0mg"},{"bike_id":"41ac3081-7c2d-477e-85ec-9a95ad6338e4","system_id":"levelo_inurba_marseille","lat":43.30426,"lon":5.38905,"is_reserved":false,"is_disabled":false,"rental_uris":{"android":"levelo://app?vid=41ac3081-7c2d-477e-85ec-9a95ad6338e4","ios":"levelo://app?vid=41ac3081-7c2d-477e-85ec-9a95ad6338e4"},"vehicle_type_id":"4","last_reported":1741619465,"current_range_meters":11200,"station_id":"ce4bgk12rcd13ifvqbi0","pricing_plan_id":"cebpf4jnsgd1na2vs0mg"},{"bike_id":"a497321a-3eea-4aec-9572-4fd41f50d123","system_id":"levelo_inurba_marseille","lat":43.28002,"lon":5.40024,"is_reserved":false,"is_disabled":false,"rental_uris":{"android":"levelo://app?vid=a497321a-3eea-4aec-9572-4fd41f50d123","ios":"levelo://app?vid=a497321a-3eea-4aec-9572-4fd41f50d123"},"vehicle_type_id":"4","last_reported":1741619465,"current_range_meters":11200,"station_id":"ce4bho92rcd13ifvqh4g","pricing_plan_id":"cebpf4jnsgd1na2vs0mg"},{"bike_id":"b10f2370-2bf8-4150-9f97-aa6396744d6d","system_id":"levelo_inurba_marseille","lat":43.27044,"lon":5.40274,"is_reserved":false,"is_disabled":false,"rental_uris":{"android":"levelo://app?vid=b10f2370-2bf8-4150-9f97-aa6396744d6d","ios":"levelo://app?vid=b10f2370-2bf8-4150-9f97-aa6396744d6d"},"vehicle_type_id":"4","last_reported":1741619465,"current_range_meters":11200,"station_id":"ce4bhk92rcd13ifvqgc0","pricing_plan_id":"cebpf4jnsgd1na2vs0mg"},{"bike_id":"5168a913-5224-4ddf-8293-e2c5484c5bf7","system_id":"levelo_inurba_marseille","lat":43.25583,"lon":5.38229,"is_reserved":false,"is_disabled":false,"rental_uris":{"android":"levelo://app?vid=5168a913-5224-4ddf-8293-e2c5484c5bf7","ios":"levelo://app?vid=5168a913-5224-4ddf-8293-e2c5484c5bf7"},"vehicle_type_id":"4","last_reported":1741619465,"current_range_meters":11200,"station_id":"ce4bhih2rcd13ifvqfs0","pricing_plan_id":"cebpf4jnsgd1na2vs0mg"},{"bike_id":"4491a1e2-eb06-49d1-bf0c-ffab94d6b1ae","system_id":"levelo_inurba_marseille","lat":43.24183,"lon":5.39718,"is_reserved":false,"is_disabled":true,"rental_uris":{"android":"levelo://app?vid=4491a1e2-eb06-49d1-bf0c-ffab94d6b1ae","ios":"levelo://app?vid=4491a1e2-eb06-49d1-bf0c-ffab94d6b1ae"},"vehicle_type_id":"4","last_reported":1741619465,"current_range_meters":11600,"station_id":"ce4bhn12rcd13ifvqgpg","pricing_plan_id":"cebpf4jnsgd1na2vs0mg"},{"bike_id":"49ba811c-3ebc-4370-a7d8-19f7194e3066","system_id":"levelo_inurba_marseille","lat":43.27062,"lon":5.40269,"is_reserved":false,"is_disabled":false,"rental_uris":{"android":"levelo://app?vid=49ba811c-3ebc-4370-a7d8-19f7194e3066","ios":"levelo://app?vid=49ba811c-3ebc-4370-a7d8-19f7194e3066"},"vehicle_type_id":"4","last_reported":1741619465,"current_range_meters":11600,"station_id":"ce4bhk92rcd13ifvqgc0","pricing_plan_id":"cebpf4jnsgd1na2vs0mg"},{"bike_id":"eb47db7d-a126-4436-9aad-27bc82558fc2","system_id":"levelo_inurba_marseille","lat":43.2408,"lon":5.37757,"is_reserved":false,"is_disabled":false,"rental_uris":{"android":"levelo://app?vid=eb47db7d-a126-4436-9aad-27bc82558fc2","ios":"levelo://app?vid=eb47db7d-a126-4436-9aad-27bc82558fc2"},"vehicle_type_id":"4","last_reported":1741619465,"current_range_meters":11600,"station_id":"ce4bhnp2rcd13ifvqgvg","pricing_plan_id":"cebpf4jnsgd1na2vs0mg"},{"bike_id":"a1ead446-4d12-485e-8d3f-be37910d2195","system_id":"levelo_inurba_marseille","lat":43.28463,"lon":5.35887,"is_reserved":false,"is_disabled":false,"rental_uris":{"android":"levelo://app?vid=a1ead446-4d12-485e-8d3f-be37910d2195","ios":"levelo://app?vid=a1ead446-4d12-485e-8d3f-be37910d2195"},"vehicle_type_id":"4","last_reported":1741619465,"current_range_meters":12000,"station_id":"ce4bhah2rcd13ifvqei0","pricing_plan_id":"cebpf4jnsgd1na2vs0mg"},{"bike_id":"34bf3210-6234-4988-bf0f-d86d1f8f21cd","system_id":"levelo_inurba_marseille","lat":43.281599,"lon":5.427985,"is_reserved":false,"is_disabled":false,"rental_uris":{"android":"levelo://app?vid=34bf3210-6234-4988-bf0f-d86d1f8f21cd","ios":"levelo://app?vid=34bf3210-6234-4988-bf0f-d86d1f8f21cd"},"vehicle_type_id":"4","last_reported":1741619465,"current_range_meters":12800,"station_id":"ce4bho12rcd13ifvqh2g","pricing_plan_id":"cebpf4jnsgd1na2vs0mg"},{"bike_id":"8dc2c2dc-de0f-4fd2-b739-faf253fff5e5","system_id":"levelo_inurba_marseille","lat":43.23148,"lon":5.43721,"is_reserved":false,"is_disabled":false,"rental_uris":{"android":"levelo://app?vid=8dc2c2dc-de0f-4fd2-b739-faf253fff5e5","ios":"levelo://app?vid=8dc2c2dc-de0f-4fd2-b739-faf253fff5e5"},"vehicle_type_id":"4","last_reported":1741619465,"current_range_meters":12000,"station_id":"ce4bhmp2rcd13ifvqgog","pricing_plan_id":"cebpf4jnsgd1na2vs0mg"},{"bike_id":"36af9385-62c9-4efa-8c91-37c0e49b34c4","system_id":"levelo_inurba_marseille","lat":43.25924,"lon":5.40883,"is_reserved":false,"is_disabled":false,"rental_uris":{"android":"levelo://app?vid=36af9385-62c9-4efa-8c91-37c0e49b34c4","ios":"levelo://app?vid=36af9385-62c9-4efa-8c91-37c0e49b34c4"},"vehicle_type_id":"4","last_reported":1741619465,"current_range_meters":12000,"station_id":"ce4bhm92rcd13ifvqglg","pricing_plan_id":"cebpf4jnsgd1na2vs0mg"},{"bike_id":"787941c7-68e4-4a9e-b1f1-d3bf469258e1","system_id":"levelo_inurba_marseille","lat":43.2419,"lon":5.39759,"is_reserved":false,"is_disabled":false,"rental_uris":{"android":"levelo://app?vid=787941c7-68e4-4a9e-b1f1-d3bf469258e1","ios":"levelo://app?vid=787941c7-68e4-4a9e-b1f1-d3bf469258e1"},"vehicle_type_id":"4","last_reported":1741619465,"current_range_meters":12000,"station_id":"ce4bhn12rcd13ifvqgpg","pricing_plan_id":"cebpf4jnsgd1na2vs0mg"},{"bike_id":"a03dce96-515f-4eb5-84e3-5b02ed8d061f","system_id":"levelo_inurba_marseille","lat":43.30613,"lon":5.37197,"is_reserved":false,"is_disabled":false,"rental_uris":{"android":"levelo://app?vid=a03dce96-515f-4eb5-84e3-5b02ed8d061f","ios":"levelo://app?vid=a03dce96-515f-4eb5-84e3-5b02ed8d061f"},"vehicle_type_id":"4","last_reported":1741619465,"current_range_meters":12000,"station_id":"ce4bgqh2rcd13ifvqc4g","pricing_plan_id":"cebpf4jnsgd1na2vs0mg"},{"bike_id":"de103c8d-9182-40be-a89c-6b15da7b487c","system_id":"levelo_inurba_marseille","lat":43.30093,"lon":5.39069,"is_reserved":false,"is_disabled":false,"rental_uris":{"android":"levelo://app?vid=de103c8d-9182-40be-a89c-6b15da7b487c","ios":"levelo://app?vid=de103c8d-9182-40be-a89c-6b15da7b487c"},"vehicle_type_id":"4","last_reported":1741619465,"current_range_meters":12000,"station_id":"ce4bh192rcd13ifvqdb0","pricing_plan_id":"cebpf4jnsgd1na2vs0mg"},{"bike_id":"c426bc72-6764-4b6c-af01-e2dc0850e0cf","system_id":"levelo_inurba_marseille","lat":43.26956,"lon":5.38634,"is_reserved":false,"is_disabled":false,"rental_uris":{"android":"levelo://app?vid=c426bc72-6764-4b6c-af01-e2dc0850e0cf","ios":"levelo://app?vid=c426bc72-6764-4b6c-af01-e2dc0850e0cf"},"vehicle_type_id":"4","last_reported":1741619465,"current_range_meters":12000,"station_id":"ce4bhh92rcd13ifvqfh0","pricing_plan_id":"cebpf4jnsgd1na2vs0mg"},{"bike_id":"09bbb690-af86-458c-bbad-70d10e2033ee","system_id":"levelo_inurba_marseille","lat":43.23051,"lon":5.35488,"is_reserved":false,"is_disabled":false,"rental_uris":{"android":"levelo://app?vid=09bbb690-af86-458c-bbad-70d10e2033ee","ios":"levelo://app?vid=09bbb690-af86-458c-bbad-70d10e2033ee"},"vehicle_type_id":"4","last_reported":1741619465,"current_range_meters":12000,"station_id":"cpo3342slgdg3j2ifvpg","pricing_plan_id":"cebpf4jnsgd1na2vs0mg"},{"bike_id":"80771939-f406-42f7-81c5-33180fd8a338","system_id":"levelo_inurba_marseille","lat":43.23193,"lon":5.35556,"is_reserved":false,"is_disabled":false,"rental_uris":{"android":"levelo://app?vid=80771939-f406-42f7-81c5-33180fd8a338","ios":"levelo://app?vid=80771939-f406-42f7-81c5-33180fd8a338"},"vehicle_type_id":"4","last_reported":1741619465,"current_range_meters":12000,"station_id":"ce4bhu92rcd13ifvqi70","pricing_plan_id":"cebpf4jnsgd1na2vs0mg"},{"bike_id":"39a544a4-9cda-43e2-be22-212a764912e7","system_id":"levelo_inurba_marseille","lat":43.24081,"lon":5.3774,"is_reserved":false,"is_disabled":false,"rental_uris":{"android":"levelo://app?vid=39a544a4-9cda-43e2-be22-212a764912e7","ios":"levelo://app?vid=39a544a4-9cda-43e2-be22-212a764912e7"},"vehicle_type_id":"4","last_reported":1741619465,"current_range_meters":12000,"station_id":"ce4bhnp2rcd13ifvqgvg","pricing_plan_id":"cebpf4jnsgd1na2vs0mg"},{"bike_id":"9545d01a-324a-4ea1-a3dd-53533eac28ad","system_id":"levelo_inurba_marseille","lat":43.2418,"lon":5.39724,"is_reserved":false,"is_disabled":false,"rental_uris":{"android":"levelo://app?vid=9545d01a-324a-4ea1-a3dd-53533eac28ad","ios":"levelo://app?vid=9545d01a-324a-4ea1-a3dd-53533eac28ad"},"vehicle_type_id":"4","last_reported":1741619465,"current_range_meters":12400,"station_id":"ce4bhn12rcd13ifvqgpg","pricing_plan_id":"cebpf4jnsgd1na2vs0mg"},{"bike_id":"244e24ec-5230-4970-a424-40a2cfa035f7","system_id":"levelo_inurba_marseille","lat":43.24079,"lon":5.37749,"is_reserved":false,"is_disabled":false,"rental_uris":{"android":"levelo://app?vid=244e24ec-5230-4970-a424-40a2cfa035f7","ios":"levelo://app?vid=244e24ec-5230-4970-a424-40a2cfa035f7"},"vehicle_type_id":"4","last_reported":1741619465,"current_range_meters":12400,"station_id":"ce4bhnp2rcd13ifvqgvg","pricing_plan_id":"cebpf4jnsgd1na2vs0mg"},{"bike_id":"51772d6c-c0b3-48d9-81cb-ae5466e6f822","system_id":"levelo_inurba_marseille","lat":43.23149,"lon":5.43727,"is_reserved":false,"is_disabled":false,"rental_uris":{"android":"levelo://app?vid=51772d6c-c0b3-48d9-81cb-ae5466e6f822","ios":"levelo://app?vid=51772d6c-c0b3-48d9-81cb-ae5466e6f822"},"vehicle_type_id":"4","last_reported":1741619465,"current_range_meters":12400,"station_id":"ce4bhmp2rcd13ifvqgog","pricing_plan_id":"cebpf4jnsgd1na2vs0mg"},{"bike_id":"d5f1c481-e740-4324-a774-551d1f271388","system_id":"levelo_inurba_marseille","lat":43.30783,"lon":5.37009,"is_reserved":false,"is_disabled":false,"rental_uris":{"android":"levelo://app?vid=d5f1c481-e740-4324-a774-551d1f271388","ios":"levelo://app?vid=d5f1c481-e740-4324-a774-551d1f271388"},"vehicle_type_id":"4","last_reported":1741619465,"current_range_meters":12800,"station_id":"","pricing_plan_id":"cebpf4jnsgd1na2vs0mg"},{"bike_id":"c41e3247-520d-4edc-8030-5306b79badd5","system_id":"levelo_inurba_marseille","lat":43.24656,"lon":5.38886,"is_reserved":false,"is_disabled":false,"rental_uris":{"android":"levelo://app?vid=c41e3247-520d-4edc-8030-5306b79badd5","ios":"levelo://app?vid=c41e3247-520d-4edc-8030-5306b79badd5"},"vehicle_type_id":"4","last_reported":1741619465,"current_range_meters":12800,"station_id":"ce4bhg12rcd13ifvqf60","pricing_plan_id":"cebpf4jnsgd1na2vs0mg"},{"bike_id":"2338626f-0565-48b6-9fa4-dab8eb33618f","system_id":"levelo_inurba_marseille","lat":43.25737,"lon":5.41083,"is_reserved":false,"is_disabled":false,"rental_uris":{"android":"levelo://app?vid=2338626f-0565-48b6-9fa4-dab8eb33618f","ios":"levelo://app?vid=2338626f-0565-48b6-9fa4-dab8eb33618f"},"vehicle_type_id":"4","last_reported":1741619465,"current_range_meters":12800,"station_id":"ce4bhkp2rcd13ifvqgd0","pricing_plan_id":"cebpf4jnsgd1na2vs0mg"},{"bike_id":"50ff1ab3-8001-4c74-81e6-1365fba69178","system_id":"levelo_inurba_marseille","lat":43.25933,"lon":5.40905,"is_reserved":false,"is_disabled":false,"rental_uris":{"android":"levelo://app?vid=50ff1ab3-8001-4c74-81e6-1365fba69178","ios":"levelo://app?vid=50ff1ab3-8001-4c74-81e6-1365fba69178"},"vehicle_type_id":"4","last_reported":1741619465,"current_range_meters":12800,"station_id":"ce4bhm92rcd13ifvqglg","pricing_plan_id":"cebpf4jnsgd1na2vs0mg"},{"bike_id":"2cf7dbf3-5b0a-4692-9c40-f3c61bad91b6","system_id":"levelo_inurba_marseille","lat":43.28459,"lon":5.35884,"is_reserved":false,"is_disabled":false,"rental_uris":{"android":"levelo://app?vid=2cf7dbf3-5b0a-4692-9c40-f3c61bad91b6","ios":"levelo://app?vid=2cf7dbf3-5b0a-4692-9c40-f3c61bad91b6"},"vehicle_type_id":"4","last_reported":1741619465,"current_range_meters":12800,"station_id":"ce4bhah2rcd13ifvqei0","pricing_plan_id":"cebpf4jnsgd1na2vs0mg"},{"bike_id":"acc1658b-7ea3-44a5-a65b-40f1faa0438d","system_id":"levelo_inurba_marseille","lat":43.32533,"lon":5.41451,"is_reserved":false,"is_disabled":false,"rental_uris":{"android":"levelo://app?vid=acc1658b-7ea3-44a5-a65b-40f1faa0438d","ios":"levelo://app?vid=acc1658b-7ea3-44a5-a65b-40f1faa0438d"},"vehicle_type_id":"4","last_reported":1741619465,"current_range_meters":13600,"station_id":"ce4bhq12rcd13ifvqhhg","pricing_plan_id":"cebpf4jnsgd1na2vs0mg"},{"bike_id":"255dcc06-d25f-452c-bfe4-93b316b4e020","system_id":"levelo_inurba_marseille","lat":43.25582,"lon":5.38234,"is_reserved":false,"is_disabled":false,"rental_uris":{"android":"levelo://app?vid=255dcc06-d25f-452c-bfe4-93b316b4e020","ios":"levelo://app?vid=255dcc06-d25f-452c-bfe4-93b316b4e020"},"vehicle_type_id":"4","last_reported":1741619465,"current_range_meters":13600,"station_id":"ce4bhih2rcd13ifvqfs0","pricing_plan_id":"cebpf4jnsgd1na2vs0mg"},{"bike_id":"c9ac5b6c-1a9d-43eb-ba45-4e29cb59e453","system_id":"levelo_inurba_marseille","lat":43.287042,"lon":5.379312,"is_reserved":false,"is_disabled":false,"rental_uris":{"android":"levelo://app?vid=c9ac5b6c-1a9d-43eb-ba45-4e29cb59e453","ios":"levelo://app?vid=c9ac5b6c-1a9d-43eb-ba45-4e29cb59e453"},"vehicle_type_id":"4","last_reported":1741619465,"current_range_meters":13600,"station_id":"ce4bh9p2rcd13ifvqec0","pricing_plan_id":"cebpf4jnsgd1na2vs0mg"},{"bike_id":"2d5f21dd-fbb7-44ec-9ac9-f240b8e338b9","system_id":"levelo_inurba_marseille","lat":43.2721,"lon":5.39191,"is_reserved":false,"is_disabled":false,"rental_uris":{"android":"levelo://app?vid=2d5f21dd-fbb7-44ec-9ac9-f240b8e338b9","ios":"levelo://app?vid=2d5f21dd-fbb7-44ec-9ac9-f240b8e338b9"},"vehicle_type_id":"4","last_reported":1741619465,"current_range_meters":13600,"station_id":"ce4bhhp2rcd13ifvqfm0","pricing_plan_id":"cebpf4jnsgd1na2vs0mg"},{"bike_id":"d0c7d6b5-2253-4943-b128-4baf3a465417","system_id":"levelo_inurba_marseille","lat":43.31119,"lon":5.37789,"is_reserved":false,"is_disabled":false,"rental_uris":{"android":"levelo://app?vid=d0c7d6b5-2253-4943-b128-4baf3a465417","ios":"levelo://app?vid=d0c7d6b5-2253-4943-b128-4baf3a465417"},"vehicle_type_id":"4","last_reported":1741619465,"current_range_meters":13600,"station_id":"ce4bgt92rcd13ifvqcg0","pricing_plan_id":"cebpf4jnsgd1na2vs0mg"},{"bike_id":"27459785-4edf-4f27-b842-1984a62c6dde","system_id":"levelo_inurba_marseille","lat":43.25082,"lon":5.39525,"is_reserved":false,"is_disabled":false,"rental_uris":{"android":"levelo://app?vid=27459785-4edf-4f27-b842-1984a62c6dde","ios":"levelo://app?vid=27459785-4edf-4f27-b842-1984a62c6dde"},"vehicle_type_id":"4","last_reported":1741619465,"current_range_meters":13600,"station_id":"ce4bhm12rcd13ifvqgkg","pricing_plan_id":"cebpf4jnsgd1na2vs0mg"},{"bike_id":"9ec52ed9-9c0e-4e61-a378-5327e3711632","system_id":"levelo_inurba_marseille","lat":43.2473,"lon":5.4114,"is_reserved":false,"is_disabled":false,"rental_uris":{"android":"levelo://app?vid=9ec52ed9-9c0e-4e61-a378-5327e3711632","ios":"levelo://app?vid=9ec52ed9-9c0e-4e61-a378-5327e3711632"},"vehicle_type_id":"4","last_reported":1741619465,"current_range_meters":13600,"station_id":"","pricing_plan_id":"cebpf4jnsgd1na2vs0mg"},{"bike_id":"28cb9fbd-1657-4349-b639-2ffe6df4c649","system_id":"levelo_inurba_marseille","lat":43.30153,"lon":5.38096,"is_reserved":false,"is_disabled":false,"rental_uris":{"android":"levelo://app?vid=28cb9fbd-1657-4349-b639-2ffe6df4c649","ios":"levelo://app?vid=28cb9fbd-1657-4349-b639-2ffe6df4c649"},"vehicle_type_id":"4","last_reported":1741619465,"current_range_meters":13600,"station_id":"ce4bgjp2rcd13ifvqbh0","pricing_plan_id":"cebpf4jnsgd1na2vs0mg"},{"bike_id":"eada942f-beac-45e9-945e-1acd9446ec72","system_id":"levelo_inurba_marseille","lat":43.28414,"lon":5.34993,"is_reserved":false,"is_disabled":false,"rental_uris":{"android":"levelo://app?vid=eada942f-beac-45e9-945e-1acd9446ec72","ios":"levelo://app?vid=eada942f-beac-45e9-945e-1acd9446ec72"},"vehicle_type_id":"4","last_reported":1741619465,"current_range_meters":14000,"station_id":"ce4bhbh2rcd13ifvqepg","pricing_plan_id":"cebpf4jnsgd1na2vs0mg"},{"bike_id":"e3b9964e-5c42-4877-b6ff-0d8e691e026e","system_id":"levelo_inurba_marseille","lat":43.27068,"lon":5.40265,"is_reserved":false,"is_disabled":false,"rental_uris":{"android":"levelo://app?vid=e3b9964e-5c42-4877-b6ff-0d8e691e026e","ios":"levelo://app?vid=e3b9964e-5c42-4877-b6ff-0d8e691e026e"},"vehicle_type_id":"4","last_reported":1741619465,"current_range_meters":14000,"station_id":"ce4bhk92rcd13ifvqgc0","pricing_plan_id":"cebpf4jnsgd1na2vs0mg"},{"bike_id":"ccbf617d-c92c-4154-ad70-fcdbe832004f","system_id":"levelo_inurba_marseille","lat":43.28138,"lon":5.42647,"is_reserved":false,"is_disabled":false,"rental_uris":{"android":"levelo://app?vid=ccbf617d-c92c-4154-ad70-fcdbe832004f","ios":"levelo://app?vid=ccbf617d-c92c-4154-ad70-fcdbe832004f"},"vehicle_type_id":"4","last_reported":1741619465,"current_range_meters":14000,"station_id":"ce4bhnh2rcd13ifvqgug","pricing_plan_id":"cebpf4jnsgd1na2vs0mg"},{"bike_id":"b56cf960-9c27-45f8-af0a-7c584f0dc22e","system_id":"levelo_inurba_marseille","lat":43.28004,"lon":5.41653,"is_reserved":false,"is_disabled":false,"rental_uris":{"android":"levelo://app?vid=b56cf960-9c27-45f8-af0a-7c584f0dc22e","ios":"levelo://app?vid=b56cf960-9c27-45f8-af0a-7c584f0dc22e"},"vehicle_type_id":"4","last_reported":1741619465,"current_range_meters":14000,"station_id":"ce4bho12rcd13ifvqh1g","pricing_plan_id":"cebpf4jnsgd1na2vs0mg"},{"bike_id":"89bf0ec5-70bf-40f4-a2b6-925d5813b8a9","system_id":"levelo_inurba_marseille","lat":43.25938,"lon":5.40901,"is_reserved":false,"is_disabled":false,"rental_uris":{"android":"levelo://app?vid=89bf0ec5-70bf-40f4-a2b6-925d5813b8a9","ios":"levelo://app?vid=89bf0ec5-70bf-40f4-a2b6-925d5813b8a9"},"vehicle_type_id":"4","last_reported":1741619465,"current_range_meters":14000,"station_id":"ce4bhm92rcd13ifvqglg","pricing_plan_id":"cebpf4jnsgd1na2vs0mg"},{"bike_id":"7c9e34ca-22b4-48c7-91cd-1614c3a40320","system_id":"levelo_inurba_marseille","lat":43.33025,"lon":5.3904,"is_reserved":false,"is_disabled":false,"rental_uris":{"android":"levelo://app?vid=7c9e34ca-22b4-48c7-91cd-1614c3a40320","ios":"levelo://app?vid=7c9e34ca-22b4-48c7-91cd-1614c3a40320"},"vehicle_type_id":"4","last_reported":1741619465,"current_range_meters":14400,"station_id":"ce4bhr92rcd13ifvqhrg","pricing_plan_id":"cebpf4jnsgd1na2vs0mg"},{"bike_id":"b140181c-8176-4b80-84bb-d89ae942b14b","system_id":"levelo_inurba_marseille","lat":43.2842,"lon":5.34986,"is_reserved":false,"is_disabled":false,"rental_uris":{"android":"levelo://app?vid=b140181c-8176-4b80-84bb-d89ae942b14b","ios":"levelo://app?vid=b140181c-8176-4b80-84bb-d89ae942b14b"},"vehicle_type_id":"4","last_reported":1741619465,"current_range_meters":14400,"station_id":"ce4bhbh2rcd13ifvqepg","pricing_plan_id":"cebpf4jnsgd1na2vs0mg"},{"bike_id":"58d1b5b3-d322-4418-97d0-3066ec3d9afc","system_id":"levelo_inurba_marseille","lat":43.23191,"lon":5.35544,"is_reserved":false,"is_disabled":false,"rental_uris":{"android":"levelo://app?vid=58d1b5b3-d322-4418-97d0-3066ec3d9afc","ios":"levelo://app?vid=58d1b5b3-d322-4418-97d0-3066ec3d9afc"},"vehicle_type_id":"4","last_reported":1741619465,"current_range_meters":14400,"station_id":"ce4bhu92rcd13ifvqi70","pricing_plan_id":"cebpf4jnsgd1na2vs0mg"},{"bike_id":"56ad839d-8ae9-4646-98ac-e9383930e0a2","system_id":"levelo_inurba_marseille","lat":43.29533,"lon":5.38549,"is_reserved":false,"is_disabled":false,"rental_uris":{"android":"levelo://app?vid=56ad839d-8ae9-4646-98ac-e9383930e0a2","ios":"levelo://app?vid=56ad839d-8ae9-4646-98ac-e9383930e0a2"},"vehicle_type_id":"4","last_reported":1741619465,"current_range_meters":14400,"station_id":"ce4bgih2rcd13ifvqba0","pricing_plan_id":"cebpf4jnsgd1na2vs0mg"},{"bike_id":"d9727cb7-cc47-4b1a-91b9-ad335edebf09","system_id":"levelo_inurba_marseille","lat":43.29422,"lon":5.38624,"is_reserved":false,"is_disabled":false,"rental_uris":{"android":"levelo://app?vid=d9727cb7-cc47-4b1a-91b9-ad335edebf09","ios":"levelo://app?vid=d9727cb7-cc47-4b1a-91b9-ad335edebf09"},"vehicle_type_id":"4","last_reported":1741619465,"current_range_meters":16000,"station_id":"ce4bh2h2rcd13ifvqdh0","pricing_plan_id":"cebpf4jnsgd1na2vs0mg"},{"bike_id":"78190250-d19d-48d2-8a31-9c85ef595bd4","system_id":"levelo_inurba_marseille","lat":43.29276,"lon":5.40124,"is_reserved":false,"is_disabled":false,"rental_uris":{"android":"levelo://app?vid=78190250-d19d-48d2-8a31-9c85ef595bd4","ios":"levelo://app?vid=78190250-d19d-48d2-8a31-9c85ef595bd4"},"vehicle_type_id":"4","last_reported":1741619465,"current_range_meters":14800,"station_id":"ce4bh312rcd13ifvqdk0","pricing_plan_id":"cebpf4jnsgd1na2vs0mg"},{"bike_id":"f640465e-8c9e-425a-8e36-08d8d5201bf6","system_id":"levelo_inurba_marseille","lat":43.23193,"lon":5.35549,"is_reserved":false,"is_disabled":false,"rental_uris":{"android":"levelo://app?vid=f640465e-8c9e-425a-8e36-08d8d5201bf6","ios":"levelo://app?vid=f640465e-8c9e-425a-8e36-08d8d5201bf6"},"vehicle_type_id":"4","last_reported":1741619465,"current_range_meters":14800,"station_id":"ce4bhu92rcd13ifvqi70","pricing_plan_id":"cebpf4jnsgd1na2vs0mg"},{"bike_id":"844894c7-065d-427a-9941-8626b05204ed","system_id":"levelo_inurba_marseille","lat":43.3254,"lon":5.41471,"is_reserved":false,"is_disabled":false,"rental_uris":{"android":"levelo://app?vid=844894c7-065d-427a-9941-8626b05204ed","ios":"levelo://app?vid=844894c7-065d-427a-9941-8626b05204ed"},"vehicle_type_id":"4","last_reported":1741619465,"current_range_meters":15200,"station_id":"ce4bhq12rcd13ifvqhhg","pricing_plan_id":"cebpf4jnsgd1na2vs0mg"},{"bike_id":"fdaf9944-3312-4c8d-98e7-9a4b180dab96","system_id":"levelo_inurba_marseille","lat":43.27816,"lon":5.4072,"is_reserved":false,"is_disabled":false,"rental_uris":{"android":"levelo://app?vid=fdaf9944-3312-4c8d-98e7-9a4b180dab96","ios":"levelo://app?vid=fdaf9944-3312-4c8d-98e7-9a4b180dab96"},"vehicle_type_id":"4","last_reported":1741619465,"current_range_meters":15200,"station_id":"ce4bhnh2rcd13ifvqgtg","pricing_plan_id":"cebpf4jnsgd1na2vs0mg"},{"bike_id":"24ea9c03-0afd-4100-ad62-62865e3edce9","system_id":"levelo_inurba_marseille","lat":43.23163,"lon":5.43716,"is_reserved":false,"is_disabled":false,"rental_uris":{"android":"levelo://app?vid=24ea9c03-0afd-4100-ad62-62865e3edce9","ios":"levelo://app?vid=24ea9c03-0afd-4100-ad62-62865e3edce9"},"vehicle_type_id":"4","last_reported":1741619465,"current_range_meters":15200,"station_id":"ce4bhmp2rcd13ifvqgog","pricing_plan_id":"cebpf4jnsgd1na2vs0mg"},{"bike_id":"714996a6-64f6-41af-a68f-e639f119975d","system_id":"levelo_inurba_marseille","lat":43.25083,"lon":5.39505,"is_reserved":false,"is_disabled":true,"rental_uris":{"android":"levelo://app?vid=714996a6-64f6-41af-a68f-e639f119975d","ios":"levelo://app?vid=714996a6-64f6-41af-a68f-e639f119975d"},"vehicle_type_id":"4","last_reported":1741619465,"current_range_meters":16000,"station_id":"ce4bhm12rcd13ifvqgkg","pricing_plan_id":"cebpf4jnsgd1na2vs0mg"},{"bike_id":"72bd1307-1fea-422f-8f97-1a06d8655942","system_id":"levelo_inurba_marseille","lat":43.31987,"lon":5.38143,"is_reserved":false,"is_disabled":false,"rental_uris":{"android":"levelo://app?vid=72bd1307-1fea-422f-8f97-1a06d8655942","ios":"levelo://app?vid=72bd1307-1fea-422f-8f97-1a06d8655942"},"vehicle_type_id":"4","last_reported":1741619465,"current_range_meters":16000,"station_id":"ce4bhr12rcd13ifvqhpg","pricing_plan_id":"cebpf4jnsgd1na2vs0mg"},{"bike_id":"2c4f8266-6883-4264-b7b5-1b16368aa856","system_id":"levelo_inurba_marseille","lat":43.25939,"lon":5.40916,"is_reserved":false,"is_disabled":false,"rental_uris":{"android":"levelo://app?vid=2c4f8266-6883-4264-b7b5-1b16368aa856","ios":"levelo://app?vid=2c4f8266-6883-4264-b7b5-1b16368aa856"},"vehicle_type_id":"4","last_reported":1741619465,"current_range_meters":16000,"station_id":"ce4bhm92rcd13ifvqglg","pricing_plan_id":"cebpf4jnsgd1na2vs0mg"},{"bike_id":"3aee4555-e162-441c-844d-d4ee5f41ed4f","system_id":"levelo_inurba_marseille","lat":43.30209,"lon":5.39462,"is_reserved":false,"is_disabled":false,"rental_uris":{"android":"levelo://app?vid=3aee4555-e162-441c-844d-d4ee5f41ed4f","ios":"levelo://app?vid=3aee4555-e162-441c-844d-d4ee5f41ed4f"},"vehicle_type_id":"4","last_reported":1741619465,"current_range_meters":16400,"station_id":"ce4bh0p2rcd13ifvqd70","pricing_plan_id":"cebpf4jnsgd1na2vs0mg"},{"bike_id":"93001d9f-28f9-4448-9534-87e9d48a32a3","system_id":"levelo_inurba_marseille","lat":43.30142,"lon":5.37415,"is_reserved":false,"is_disabled":false,"rental_uris":{"android":"levelo://app?vid=93001d9f-28f9-4448-9534-87e9d48a32a3","ios":"levelo://app?vid=93001d9f-28f9-4448-9534-87e9d48a32a3"},"vehicle_type_id":"4","last_reported":1741619465,"current_range_meters":16000,"station_id":"ce4bgs92rcd13ifvqcc0","pricing_plan_id":"cebpf4jnsgd1na2vs0mg"},{"bike_id":"c2480a4b-4922-4c7d-bf5c-8aa1a0eca8de","system_id":"levelo_inurba_marseille","lat":43.2418,"lon":5.39732,"is_reserved":false,"is_disabled":false,"rental_uris":{"android":"levelo://app?vid=c2480a4b-4922-4c7d-bf5c-8aa1a0eca8de","ios":"levelo://app?vid=c2480a4b-4922-4c7d-bf5c-8aa1a0eca8de"},"vehicle_type_id":"4","last_reported":1741619465,"current_range_meters":16000,"station_id":"ce4bhn12rcd13ifvqgpg","pricing_plan_id":"cebpf4jnsgd1na2vs0mg"},{"bike_id":"3efe3609-66d6-4ceb-834c-a7a7fe01e5cf","system_id":"levelo_inurba_marseille","lat":43.29417,"lon":5.38625,"is_reserved":false,"is_disabled":false,"rental_uris":{"android":"levelo://app?vid=3efe3609-66d6-4ceb-834c-a7a7fe01e5cf","ios":"levelo://app?vid=3efe3609-66d6-4ceb-834c-a7a7fe01e5cf"},"vehicle_type_id":"4","last_reported":1741619465,"current_range_meters":16000,"station_id":"ce4bh2h2rcd13ifvqdh0","pricing_plan_id":"cebpf4jnsgd1na2vs0mg"},{"bike_id":"42660c97-a58f-492b-889a-6c594584328f","system_id":"levelo_inurba_marseille","lat":43.33728,"lon":5.3919,"is_reserved":false,"is_disabled":false,"rental_uris":{"android":"levelo://app?vid=42660c97-a58f-492b-889a-6c594584328f","ios":"levelo://app?vid=42660c97-a58f-492b-889a-6c594584328f"},"vehicle_type_id":"4","last_reported":1741619465,"current_range_meters":16000,"station_id":"ce4bhr92rcd13ifvqhsg","pricing_plan_id":"cebpf4jnsgd1na2vs0mg"},{"bike_id":"aaa6117f-695a-4870-93d8-ce1ed03dac44","system_id":"levelo_inurba_marseille","lat":43.30549,"lon":5.36539,"is_reserved":false,"is_disabled":true,"rental_uris":{"android":"levelo://app?vid=aaa6117f-695a-4870-93d8-ce1ed03dac44","ios":"levelo://app?vid=aaa6117f-695a-4870-93d8-ce1ed03dac44"},"vehicle_type_id":"4","last_reported":1741619465,"current_range_meters":16400,"station_id":"ce4bgs12rcd13ifvqcag","pricing_plan_id":"cebpf4jnsgd1na2vs0mg"},{"bike_id":"415e7a31-245d-4ead-9f33-dad092a04302","system_id":"levelo_inurba_marseille","lat":43.23069,"lon":5.35498,"is_reserved":false,"is_disabled":false,"rental_uris":{"android":"levelo://app?vid=415e7a31-245d-4ead-9f33-dad092a04302","ios":"levelo://app?vid=415e7a31-245d-4ead-9f33-dad092a04302"},"vehicle_type_id":"4","last_reported":1741619465,"current_range_meters":16400,"station_id":"cpo3342slgdg3j2ifvpg","pricing_plan_id":"cebpf4jnsgd1na2vs0mg"},{"bike_id":"63829e98-5491-4aaf-8868-cfa8c984e570","system_id":"levelo_inurba_marseille","lat":43.29847,"lon":5.36286,"is_reserved":false,"is_disabled":false,"rental_uris":{"android":"levelo://app?vid=63829e98-5491-4aaf-8868-cfa8c984e570","ios":"levelo://app?vid=63829e98-5491-4aaf-8868-cfa8c984e570"},"vehicle_type_id":"4","last_reported":1741619465,"current_range_meters":16400,"station_id":"ce4bgpp2rcd13ifvqc3g","pricing_plan_id":"cebpf4jnsgd1na2vs0mg"},{"bike_id":"259dde30-071d-4e72-9e93-2afe0e28cbba","system_id":"levelo_inurba_marseille","lat":43.306356,"lon":5.373236,"is_reserved":false,"is_disabled":false,"rental_uris":{"android":"levelo://app?vid=259dde30-071d-4e72-9e93-2afe0e28cbba","ios":"levelo://app?vid=259dde30-071d-4e72-9e93-2afe0e28cbba"},"vehicle_type_id":"4","last_reported":1741619465,"current_range_meters":16400,"station_id":"","pricing_plan_id":"cebpf4jnsgd1na2vs0mg"},{"bike_id":"509b88b1-7f82-48ed-bdf3-beba3c88df3f","system_id":"levelo_inurba_marseille","lat":43.29852,"lon":5.3629,"is_reserved":false,"is_disabled":false,"rental_uris":{"android":"levelo://app?vid=509b88b1-7f82-48ed-bdf3-beba3c88df3f","ios":"levelo://app?vid=509b88b1-7f82-48ed-bdf3-beba3c88df3f"},"vehicle_type_id":"4","last_reported":1741619465,"current_range_meters":16400,"station_id":"ce4bgpp2rcd13ifvqc3g","pricing_plan_id":"cebpf4jnsgd1na2vs0mg"},{"bike_id":"7b66e0d2-60fc-4baa-b134-64c6a900f5e4","system_id":"levelo_inurba_marseille","lat":43.2417,"lon":5.3973,"is_reserved":false,"is_disabled":false,"rental_uris":{"android":"levelo://app?vid=7b66e0d2-60fc-4baa-b134-64c6a900f5e4","ios":"levelo://app?vid=7b66e0d2-60fc-4baa-b134-64c6a900f5e4"},"vehicle_type_id":"4","last_reported":1741619465,"current_range_meters":16400,"station_id":"ce4bhn12rcd13ifvqgpg","pricing_plan_id":"cebpf4jnsgd1na2vs0mg"},{"bike_id":"bdc418e9-828a-481d-83c0-099de2c7411c","system_id":"levelo_inurba_marseille","lat":43.23195,"lon":5.35554,"is_reserved":false,"is_disabled":false,"rental_uris":{"android":"levelo://app?vid=bdc418e9-828a-481d-83c0-099de2c7411c","ios":"levelo://app?vid=bdc418e9-828a-481d-83c0-099de2c7411c"},"vehicle_type_id":"4","last_reported":1741619465,"current_range_meters":16400,"station_id":"ce4bhu92rcd13ifvqi70","pricing_plan_id":"cebpf4jnsgd1na2vs0mg"},{"bike_id":"d67856d6-5d96-44b2-b8a0-63d0f08bdf8d","system_id":"levelo_inurba_marseille","lat":43.26061,"lon":5.39404,"is_reserved":false,"is_disabled":false,"rental_uris":{"android":"levelo://app?vid=d67856d6-5d96-44b2-b8a0-63d0f08bdf8d","ios":"levelo://app?vid=d67856d6-5d96-44b2-b8a0-63d0f08bdf8d"},"vehicle_type_id":"4","last_reported":1741619465,"current_range_meters":16400,"station_id":"ce4bhh92rcd13ifvqfj0","pricing_plan_id":"cebpf4jnsgd1na2vs0mg"},{"bike_id":"4ac46dc3-8a8c-4dfb-85b1-751044e9d5b7","system_id":"levelo_inurba_marseille","lat":43.25718,"lon":5.41117,"is_reserved":false,"is_disabled":false,"rental_uris":{"android":"levelo://app?vid=4ac46dc3-8a8c-4dfb-85b1-751044e9d5b7","ios":"levelo://app?vid=4ac46dc3-8a8c-4dfb-85b1-751044e9d5b7"},"vehicle_type_id":"4","last_reported":1741619465,"current_range_meters":16400,"station_id":"ce4bhkp2rcd13ifvqgd0","pricing_plan_id":"cebpf4jnsgd1na2vs0mg"},{"bike_id":"6cfc34a3-c5b2-4d38-b5f2-4467b62fdba0","system_id":"levelo_inurba_marseille","lat":43.27942,"lon":5.41043,"is_reserved":false,"is_disabled":false,"rental_uris":{"android":"levelo://app?vid=6cfc34a3-c5b2-4d38-b5f2-4467b62fdba0","ios":"levelo://app?vid=6cfc34a3-c5b2-4d38-b5f2-4467b62fdba0"},"vehicle_type_id":"4","last_reported":1741619465,"current_range_meters":16400,"station_id":"ce4bhnp2rcd13ifvqh0g","pricing_plan_id":"cebpf4jnsgd1na2vs0mg"},{"bike_id":"11d8e867-88f8-4e72-81aa-2b0f7e036b0c","system_id":"levelo_inurba_marseille","lat":43.304715,"lon":5.372758,"is_reserved":false,"is_disabled":false,"rental_uris":{"android":"levelo://app?vid=11d8e867-88f8-4e72-81aa-2b0f7e036b0c","ios":"levelo://app?vid=11d8e867-88f8-4e72-81aa-2b0f7e036b0c"},"vehicle_type_id":"4","last_reported":1741619465,"current_range_meters":16400,"station_id":"","pricing_plan_id":"cebpf4jnsgd1na2vs0mg"},{"bike_id":"6a735c5c-86e8-4507-8a37-e73b122c72a9","system_id":"levelo_inurba_marseille","lat":43.30155,"lon":5.38117,"is_reserved":false,"is_disabled":false,"rental_uris":{"android":"levelo://app?vid=6a735c5c-86e8-4507-8a37-e73b122c72a9","ios":"levelo://app?vid=6a735c5c-86e8-4507-8a37-e73b122c72a9"},"vehicle_type_id":"4","last_reported":1741619465,"current_range_meters":16800,"station_id":"ce4bgjp2rcd13ifvqbh0","pricing_plan_id":"cebpf4jnsgd1na2vs0mg"},{"bike_id":"8fa4824d-39b9-4334-9a9e-473b08d65a5e","system_id":"levelo_inurba_marseille","lat":43.28703,"lon":5.4001,"is_reserved":false,"is_disabled":false,"rental_uris":{"android":"levelo://app?vid=8fa4824d-39b9-4334-9a9e-473b08d65a5e","ios":"levelo://app?vid=8fa4824d-39b9-4334-9a9e-473b08d65a5e"},"vehicle_type_id":"4","last_reported":1741619465,"current_range_meters":16800,"station_id":"ce4bho92rcd13ifvqh3g","pricing_plan_id":"cebpf4jnsgd1na2vs0mg"},{"bike_id":"02ccda15-ca98-4f66-a5ee-609c485d624e","system_id":"levelo_inurba_marseille","lat":43.23967,"lon":5.36625,"is_reserved":false,"is_disabled":false,"rental_uris":{"android":"levelo://app?vid=02ccda15-ca98-4f66-a5ee-609c485d624e","ios":"levelo://app?vid=02ccda15-ca98-4f66-a5ee-609c485d624e"},"vehicle_type_id":"4","last_reported":1741619465,"current_range_meters":16800,"station_id":"ce4bhi12rcd13ifvqfp0","pricing_plan_id":"cebpf4jnsgd1na2vs0mg"},{"bike_id":"ac8e6b48-e483-4aef-bede-c5576834d55a","system_id":"levelo_inurba_marseille","lat":43.29838,"lon":5.36283,"is_reserved":false,"is_disabled":false,"rental_uris":{"android":"levelo://app?vid=ac8e6b48-e483-4aef-bede-c5576834d55a","ios":"levelo://app?vid=ac8e6b48-e483-4aef-bede-c5576834d55a"},"vehicle_type_id":"4","last_reported":1741619465,"current_range_meters":16800,"station_id":"ce4bgpp2rcd13ifvqc3g","pricing_plan_id":"cebpf4jnsgd1na2vs0mg"},{"bike_id":"1a26001d-d49a-47a3-a711-f7ff22c1c811","system_id":"levelo_inurba_marseille","lat":43.28874,"lon":5.37146,"is_reserved":false,"is_disabled":false,"rental_uris":{"android":"levelo://app?vid=1a26001d-d49a-47a3-a711-f7ff22c1c811","ios":"levelo://app?vid=1a26001d-d49a-47a3-a711-f7ff22c1c811"},"vehicle_type_id":"4","last_reported":1741619465,"current_range_meters":16800,"station_id":"","pricing_plan_id":"cebpf4jnsgd1na2vs0mg"},{"bike_id":"fdd23d44-4f31-4c3b-8e9d-3ff47e277395","system_id":"levelo_inurba_marseille","lat":43.29596,"lon":5.38111,"is_reserved":false,"is_disabled":false,"rental_uris":{"android":"levelo://app?vid=fdd23d44-4f31-4c3b-8e9d-3ff47e277395","ios":"levelo://app?vid=fdd23d44-4f31-4c3b-8e9d-3ff47e277395"},"vehicle_type_id":"4","last_reported":1741619465,"current_range_meters":16800,"station_id":"ce4bgl12rcd13ifvqbo0","pricing_plan_id":"cebpf4jnsgd1na2vs0mg"},{"bike_id":"7d34c987-73ce-4ca4-a4f8-fc2f3288cfda","system_id":"levelo_inurba_marseille","lat":43.24157,"lon":5.3969,"is_reserved":false,"is_disabled":false,"rental_uris":{"android":"levelo://app?vid=7d34c987-73ce-4ca4-a4f8-fc2f3288cfda","ios":"levelo://app?vid=7d34c987-73ce-4ca4-a4f8-fc2f3288cfda"},"vehicle_type_id":"4","last_reported":1741619465,"current_range_meters":16800,"station_id":"ce4bhn12rcd13ifvqgpg","pricing_plan_id":"cebpf4jnsgd1na2vs0mg"},{"bike_id":"3e37f03c-e5a4-4e97-951f-7786bb1c3928","system_id":"levelo_inurba_marseille","lat":43.23148,"lon":5.43726,"is_reserved":false,"is_disabled":false,"rental_uris":{"android":"levelo://app?vid=3e37f03c-e5a4-4e97-951f-7786bb1c3928","ios":"levelo://app?vid=3e37f03c-e5a4-4e97-951f-7786bb1c3928"},"vehicle_type_id":"4","last_reported":1741619465,"current_range_meters":16800,"station_id":"ce4bhmp2rcd13ifvqgog","pricing_plan_id":"cebpf4jnsgd1na2vs0mg"},{"bike_id":"01a2ee94-94b0-4962-8885-bde3f63a84a8","system_id":"levelo_inurba_marseille","lat":43.28863,"lon":5.382291,"is_reserved":false,"is_disabled":false,"rental_uris":{"android":"levelo://app?vid=01a2ee94-94b0-4962-8885-bde3f63a84a8","ios":"levelo://app?vid=01a2ee94-94b0-4962-8885-bde3f63a84a8"},"vehicle_type_id":"4","last_reported":1741619465,"current_range_meters":16800,"station_id":"ce4bhhh2rcd13ifvqfl0","pricing_plan_id":"cebpf4jnsgd1na2vs0mg"},{"bike_id":"d0b0de0e-bd0d-4c38-b39a-57410a6dfbf5","system_id":"levelo_inurba_marseille","lat":43.3083,"lon":5.38114,"is_reserved":false,"is_disabled":false,"rental_uris":{"android":"levelo://app?vid=d0b0de0e-bd0d-4c38-b39a-57410a6dfbf5","ios":"levelo://app?vid=d0b0de0e-bd0d-4c38-b39a-57410a6dfbf5"},"vehicle_type_id":"4","last_reported":1741619465,"current_range_meters":17200,"station_id":"ce4bgt12rcd13ifvqce0","pricing_plan_id":"cebpf4jnsgd1na2vs0mg"},{"bike_id":"71825c8e-b4b2-4f97-82dc-f8493654fe20","system_id":"levelo_inurba_marseille","lat":43.28366,"lon":5.38613,"is_reserved":false,"is_disabled":false,"rental_uris":{"android":"levelo://app?vid=71825c8e-b4b2-4f97-82dc-f8493654fe20","ios":"levelo://app?vid=71825c8e-b4b2-4f97-82dc-f8493654fe20"},"vehicle_type_id":"4","last_reported":1741619465,"current_range_meters":17200,"station_id":"ce4bh492rcd13ifvqdvg","pricing_plan_id":"cebpf4jnsgd1na2vs0mg"},{"bike_id":"77ed1b4e-cc50-44f3-928f-d16f3ea9475f","system_id":"levelo_inurba_marseille","lat":43.29038,"lon":5.39961,"is_reserved":false,"is_disabled":false,"rental_uris":{"android":"levelo://app?vid=77ed1b4e-cc50-44f3-928f-d16f3ea9475f","ios":"levelo://app?vid=77ed1b4e-cc50-44f3-928f-d16f3ea9475f"},"vehicle_type_id":"4","last_reported":1741619465,"current_range_meters":17200,"station_id":"ce4bh392rcd13ifvqdm0","pricing_plan_id":"cebpf4jnsgd1na2vs0mg"},{"bike_id":"f6dc7e9d-be33-4c3d-b28e-234510ea7980","system_id":"levelo_inurba_marseille","lat":43.29052,"lon":5.38126,"is_reserved":false,"is_disabled":false,"rental_uris":{"android":"levelo://app?vid=f6dc7e9d-be33-4c3d-b28e-234510ea7980","ios":"levelo://app?vid=f6dc7e9d-be33-4c3d-b28e-234510ea7980"},"vehicle_type_id":"4","last_reported":1741619465,"current_range_meters":17200,"station_id":"ce4bh4p2rcd13ifvqe1g","pricing_plan_id":"cebpf4jnsgd1na2vs0mg"},{"bike_id":"1617cee3-cdfd-4818-b8d5-0b6b5b838d97","system_id":"levelo_inurba_marseille","lat":43.2408,"lon":5.37752,"is_reserved":false,"is_disabled":false,"rental_uris":{"android":"levelo://app?vid=1617cee3-cdfd-4818-b8d5-0b6b5b838d97","ios":"levelo://app?vid=1617cee3-cdfd-4818-b8d5-0b6b5b838d97"},"vehicle_type_id":"4","last_reported":1741619465,"current_range_meters":17200,"station_id":"ce4bhnp2rcd13ifvqgvg","pricing_plan_id":"cebpf4jnsgd1na2vs0mg"},{"bike_id":"8409aa61-8211-4a9c-bcad-5cb99585fc4f","system_id":"levelo_inurba_marseille","lat":43.3015,"lon":5.38095,"is_reserved":false,"is_disabled":false,"rental_uris":{"android":"levelo://app?vid=8409aa61-8211-4a9c-bcad-5cb99585fc4f","ios":"levelo://app?vid=8409aa61-8211-4a9c-bcad-5cb99585fc4f"},"vehicle_type_id":"4","last_reported":1741619465,"current_range_meters":17200,"station_id":"ce4bgjp2rcd13ifvqbh0","pricing_plan_id":"cebpf4jnsgd1na2vs0mg"},{"bike_id":"2cdec81d-2593-4153-a426-2f527f1b29e2","system_id":"levelo_inurba_marseille","lat":43.23595,"lon":5.391,"is_reserved":false,"is_disabled":false,"rental_uris":{"android":"levelo://app?vid=2cdec81d-2593-4153-a426-2f527f1b29e2","ios":"levelo://app?vid=2cdec81d-2593-4153-a426-2f527f1b29e2"},"vehicle_type_id":"4","last_reported":1741619465,"current_range_meters":17600,"station_id":"","pricing_plan_id":"cebpf4jnsgd1na2vs0mg"},{"bike_id":"9cae0839-d43a-455f-a7e4-0d003d49add7","system_id":"levelo_inurba_marseille","lat":43.30428,"lon":5.38884,"is_reserved":false,"is_disabled":false,"rental_uris":{"android":"levelo://app?vid=9cae0839-d43a-455f-a7e4-0d003d49add7","ios":"levelo://app?vid=9cae0839-d43a-455f-a7e4-0d003d49add7"},"vehicle_type_id":"4","last_reported":1741619465,"current_range_meters":17600,"station_id":"ce4bgk12rcd13ifvqbi0","pricing_plan_id":"cebpf4jnsgd1na2vs0mg"},{"bike_id":"303473d0-c71d-4532-867e-1af4d571971a","system_id":"levelo_inurba_marseille","lat":43.31084,"lon":5.42445,"is_reserved":false,"is_disabled":false,"rental_uris":{"android":"levelo://app?vid=303473d0-c71d-4532-867e-1af4d571971a","ios":"levelo://app?vid=303473d0-c71d-4532-867e-1af4d571971a"},"vehicle_type_id":"4","last_reported":1741619465,"current_range_meters":17600,"station_id":"ce4bhp92rcd13ifvqhag","pricing_plan_id":"cebpf4jnsgd1na2vs0mg"},{"bike_id":"30ee6129-b957-4889-bf4e-793713a34969","system_id":"levelo_inurba_marseille","lat":43.30814,"lon":5.38149,"is_reserved":false,"is_disabled":false,"rental_uris":{"android":"levelo://app?vid=30ee6129-b957-4889-bf4e-793713a34969","ios":"levelo://app?vid=30ee6129-b957-4889-bf4e-793713a34969"},"vehicle_type_id":"4","last_reported":1741619465,"current_range_meters":17600,"station_id":"ce4bgt12rcd13ifvqce0","pricing_plan_id":"cebpf4jnsgd1na2vs0mg"},{"bike_id":"5bdb40ba-3e54-4990-89fd-56ecb836491e","system_id":"levelo_inurba_marseille","lat":43.23152,"lon":5.43708,"is_reserved":false,"is_disabled":false,"rental_uris":{"android":"levelo://app?vid=5bdb40ba-3e54-4990-89fd-56ecb836491e","ios":"levelo://app?vid=5bdb40ba-3e54-4990-89fd-56ecb836491e"},"vehicle_type_id":"4","last_reported":1741619465,"current_range_meters":18000,"station_id":"ce4bhmp2rcd13ifvqgog","pricing_plan_id":"cebpf4jnsgd1na2vs0mg"},{"bike_id":"e5d0597b-09ff-4ff8-871b-3cb1204f0c3e","system_id":"levelo_inurba_marseille","lat":43.29553,"lon":5.42291,"is_reserved":false,"is_disabled":false,"rental_uris":{"android":"levelo://app?vid=e5d0597b-09ff-4ff8-871b-3cb1204f0c3e","ios":"levelo://app?vid=e5d0597b-09ff-4ff8-871b-3cb1204f0c3e"},"vehicle_type_id":"4","last_reported":1741619465,"current_range_meters":18000,"station_id":"ce4bhph2rcd13ifvqhdg","pricing_plan_id":"cebpf4jnsgd1na2vs0mg"},{"bike_id":"e9f0ddf6-c638-4a12-8ca0-d2f9784b891b","system_id":"levelo_inurba_marseille","lat":43.278211,"lon":5.407241,"is_reserved":false,"is_disabled":false,"rental_uris":{"android":"levelo://app?vid=e9f0ddf6-c638-4a12-8ca0-d2f9784b891b","ios":"levelo://app?vid=e9f0ddf6-c638-4a12-8ca0-d2f9784b891b"},"vehicle_type_id":"4","last_reported":1741619465,"current_range_meters":18000,"station_id":"ce4bhnh2rcd13ifvqgtg","pricing_plan_id":"cebpf4jnsgd1na2vs0mg"},{"bike_id":"9776d519-3376-4f51-aaa3-2da63911d7cc","system_id":"levelo_inurba_marseille","lat":43.25088,"lon":5.39524,"is_reserved":false,"is_disabled":false,"rental_uris":{"android":"levelo://app?vid=9776d519-3376-4f51-aaa3-2da63911d7cc","ios":"levelo://app?vid=9776d519-3376-4f51-aaa3-2da63911d7cc"},"vehicle_type_id":"4","last_reported":1741619465,"current_range_meters":18000,"station_id":"ce4bhm12rcd13ifvqgkg","pricing_plan_id":"cebpf4jnsgd1na2vs0mg"},{"bike_id":"2d93c67e-330c-4c7b-8517-c03567315b70","system_id":"levelo_inurba_marseille","lat":43.28152,"lon":5.42651,"is_reserved":false,"is_disabled":false,"rental_uris":{"android":"levelo://app?vid=2d93c67e-330c-4c7b-8517-c03567315b70","ios":"levelo://app?vid=2d93c67e-330c-4c7b-8517-c03567315b70"},"vehicle_type_id":"4","last_reported":1741619465,"current_range_meters":18000,"station_id":"ce4bhnh2rcd13ifvqgug","pricing_plan_id":"cebpf4jnsgd1na2vs0mg"},{"bike_id":"f0b5f6b7-161e-4c72-8f30-8d8e8d5c374f","system_id":"levelo_inurba_marseille","lat":43.245816,"lon":5.404921,"is_reserved":false,"is_disabled":false,"rental_uris":{"android":"levelo://app?vid=f0b5f6b7-161e-4c72-8f30-8d8e8d5c374f","ios":"levelo://app?vid=f0b5f6b7-161e-4c72-8f30-8d8e8d5c374f"},"vehicle_type_id":"4","last_reported":1741619465,"current_range_meters":18000,"station_id":"","pricing_plan_id":"cebpf4jnsgd1na2vs0mg"},{"bike_id":"1379d2e7-c153-4a42-87f1-8ff30298dd76","system_id":"levelo_inurba_marseille","lat":43.275635,"lon":5.38417,"is_reserved":false,"is_disabled":true,"rental_uris":{"android":"levelo://app?vid=1379d2e7-c153-4a42-87f1-8ff30298dd76","ios":"levelo://app?vid=1379d2e7-c153-4a42-87f1-8ff30298dd76"},"vehicle_type_id":"4","last_reported":1741619465,"current_range_meters":18000,"station_id":"","pricing_plan_id":"cebpf4jnsgd1na2vs0mg"},{"bike_id":"565febc3-3424-4d4c-95ca-5705a262f891","system_id":"levelo_inurba_marseille","lat":43.28156,"lon":5.42647,"is_reserved":false,"is_disabled":false,"rental_uris":{"android":"levelo://app?vid=565febc3-3424-4d4c-95ca-5705a262f891","ios":"levelo://app?vid=565febc3-3424-4d4c-95ca-5705a262f891"},"vehicle_type_id":"4","last_reported":1741619465,"current_range_meters":18000,"station_id":"ce4bhnh2rcd13ifvqgug","pricing_plan_id":"cebpf4jnsgd1na2vs0mg"},{"bike_id":"080b3e92-a85d-42ef-a83a-1ffc3d9be0e9","system_id":"levelo_inurba_marseille","lat":43.29789,"lon":5.38088,"is_reserved":false,"is_disabled":false,"rental_uris":{"android":"levelo://app?vid=080b3e92-a85d-42ef-a83a-1ffc3d9be0e9","ios":"levelo://app?vid=080b3e92-a85d-42ef-a83a-1ffc3d9be0e9"},"vehicle_type_id":"4","last_reported":1741619465,"current_range_meters":18000,"station_id":"ce4bgip2rcd13ifvqbb0","pricing_plan_id":"cebpf4jnsgd1na2vs0mg"},{"bike_id":"3eac22db-c164-4a95-bf19-b88a6b3ac00d","system_id":"levelo_inurba_marseille","lat":43.29268,"lon":5.37601,"is_reserved":false,"is_disabled":false,"rental_uris":{"android":"levelo://app?vid=3eac22db-c164-4a95-bf19-b88a6b3ac00d","ios":"levelo://app?vid=3eac22db-c164-4a95-bf19-b88a6b3ac00d"},"vehicle_type_id":"4","last_reported":1741619465,"current_range_meters":18000,"station_id":"ce4bgi12rcd13ifvqb80","pricing_plan_id":"cebpf4jnsgd1na2vs0mg"},{"bike_id":"ec486c81-73bd-4def-b0db-380f36119f1f","system_id":"levelo_inurba_marseille","lat":43.299564,"lon":5.397158,"is_reserved":false,"is_disabled":false,"rental_uris":{"android":"levelo://app?vid=ec486c81-73bd-4def-b0db-380f36119f1f","ios":"levelo://app?vid=ec486c81-73bd-4def-b0db-380f36119f1f"},"vehicle_type_id":"4","last_reported":1741619465,"current_range_meters":18000,"station_id":"ce4bh0h2rcd13ifvqd50","pricing_plan_id":"cebpf4jnsgd1na2vs0mg"},{"bike_id":"ade86942-1b4e-4eeb-a0b9-aab18e14cfd0","system_id":"levelo_inurba_marseille","lat":43.312778,"lon":5.385765,"is_reserved":false,"is_disabled":false,"rental_uris":{"android":"levelo://app?vid=ade86942-1b4e-4eeb-a0b9-aab18e14cfd0","ios":"levelo://app?vid=ade86942-1b4e-4eeb-a0b9-aab18e14cfd0"},"vehicle_type_id":"4","last_reported":1741619465,"current_range_meters":18800,"station_id":"ce4bgs12rcd13ifvqcag","pricing_plan_id":"cebpf4jnsgd1na2vs0mg"},{"bike_id":"a229cff8-046b-4716-bcbe-2ffd21b8f14e","system_id":"levelo_inurba_marseille","lat":43.31759,"lon":5.39023,"is_reserved":false,"is_disabled":false,"rental_uris":{"android":"levelo://app?vid=a229cff8-046b-4716-bcbe-2ffd21b8f14e","ios":"levelo://app?vid=a229cff8-046b-4716-bcbe-2ffd21b8f14e"},"vehicle_type_id":"4","last_reported":1741619465,"current_range_meters":18800,"station_id":"ce4bhqp2rcd13ifvqhng","pricing_plan_id":"cebpf4jnsgd1na2vs0mg"},{"bike_id":"2bbfc1dc-382a-426d-814d-d24a23157160","system_id":"levelo_inurba_marseille","lat":43.28465,"lon":5.35884,"is_reserved":false,"is_disabled":false,"rental_uris":{"android":"levelo://app?vid=2bbfc1dc-382a-426d-814d-d24a23157160","ios":"levelo://app?vid=2bbfc1dc-382a-426d-814d-d24a23157160"},"vehicle_type_id":"4","last_reported":1741619465,"current_range_meters":19200,"station_id":"ce4bhah2rcd13ifvqei0","pricing_plan_id":"cebpf4jnsgd1na2vs0mg"},{"bike_id":"df1c8548-1142-43f2-98f6-07bdc5d2723a","system_id":"levelo_inurba_marseille","lat":43.32336,"lon":5.40624,"is_reserved":false,"is_disabled":false,"rental_uris":{"android":"levelo://app?vid=df1c8548-1142-43f2-98f6-07bdc5d2723a","ios":"levelo://app?vid=df1c8548-1142-43f2-98f6-07bdc5d2723a"},"vehicle_type_id":"4","last_reported":1741619465,"current_range_meters":19200,"station_id":"ce4bhq92rcd13ifvqhjg","pricing_plan_id":"cebpf4jnsgd1na2vs0mg"},{"bike_id":"c9a225b8-7f3b-4d83-8942-383e9bbe0c7f","system_id":"levelo_inurba_marseille","lat":43.23138,"lon":5.43697,"is_reserved":false,"is_disabled":false,"rental_uris":{"android":"levelo://app?vid=c9a225b8-7f3b-4d83-8942-383e9bbe0c7f","ios":"levelo://app?vid=c9a225b8-7f3b-4d83-8942-383e9bbe0c7f"},"vehicle_type_id":"4","last_reported":1741619465,"current_range_meters":19200,"station_id":"ce4bhmp2rcd13ifvqgog","pricing_plan_id":"cebpf4jnsgd1na2vs0mg"},{"bike_id":"150f062f-be39-4055-b5d9-510faf10520d","system_id":"levelo_inurba_marseille","lat":43.30146,"lon":5.37415,"is_reserved":false,"is_disabled":false,"rental_uris":{"android":"levelo://app?vid=150f062f-be39-4055-b5d9-510faf10520d","ios":"levelo://app?vid=150f062f-be39-4055-b5d9-510faf10520d"},"vehicle_type_id":"4","last_reported":1741619465,"current_range_meters":19200,"station_id":"ce4bgs92rcd13ifvqcc0","pricing_plan_id":"cebpf4jnsgd1na2vs0mg"},{"bike_id":"3ab6b222-f1aa-411e-aeaf-de3ba6f3711e","system_id":"levelo_inurba_marseille","lat":43.301368,"lon":5.374097,"is_reserved":false,"is_disabled":false,"rental_uris":{"android":"levelo://app?vid=3ab6b222-f1aa-411e-aeaf-de3ba6f3711e","ios":"levelo://app?vid=3ab6b222-f1aa-411e-aeaf-de3ba6f3711e"},"vehicle_type_id":"4","last_reported":1741619465,"current_range_meters":19200,"station_id":"ce4bgs92rcd13ifvqcc0","pricing_plan_id":"cebpf4jnsgd1na2vs0mg"},{"bike_id":"6c31a35a-7564-4c61-9de1-fcd90c44eff8","system_id":"levelo_inurba_marseille","lat":43.28154,"lon":5.42652,"is_reserved":false,"is_disabled":false,"rental_uris":{"android":"levelo://app?vid=6c31a35a-7564-4c61-9de1-fcd90c44eff8","ios":"levelo://app?vid=6c31a35a-7564-4c61-9de1-fcd90c44eff8"},"vehicle_type_id":"4","last_reported":1741619465,"current_range_meters":19200,"station_id":"ce4bhnh2rcd13ifvqgug","pricing_plan_id":"cebpf4jnsgd1na2vs0mg"},{"bike_id":"8c6334d6-afff-488c-a083-c62efb426e8d","system_id":"levelo_inurba_marseille","lat":43.29105,"lon":5.38167,"is_reserved":false,"is_disabled":false,"rental_uris":{"android":"levelo://app?vid=8c6334d6-afff-488c-a083-c62efb426e8d","ios":"levelo://app?vid=8c6334d6-afff-488c-a083-c62efb426e8d"},"vehicle_type_id":"4","last_reported":1741619465,"current_range_meters":19200,"station_id":"ce4bh512rcd13ifvqe2g","pricing_plan_id":"cebpf4jnsgd1na2vs0mg"},{"bike_id":"adc75c13-38f6-4cd5-a0b9-13a8ecab8833","system_id":"levelo_inurba_marseille","lat":43.29134,"lon":5.37962,"is_reserved":false,"is_disabled":false,"rental_uris":{"android":"levelo://app?vid=adc75c13-38f6-4cd5-a0b9-13a8ecab8833","ios":"levelo://app?vid=adc75c13-38f6-4cd5-a0b9-13a8ecab8833"},"vehicle_type_id":"4","last_reported":1741619465,"current_range_meters":19200,"station_id":"ce4bhqp2rcd13ifvqhng","pricing_plan_id":"cebpf4jnsgd1na2vs0mg"},{"bike_id":"c5b912b8-12c2-47f2-9424-96ef28c6922f","system_id":"levelo_inurba_marseille","lat":43.27823,"lon":5.39208,"is_reserved":false,"is_disabled":false,"rental_uris":{"android":"levelo://app?vid=c5b912b8-12c2-47f2-9424-96ef28c6922f","ios":"levelo://app?vid=c5b912b8-12c2-47f2-9424-96ef28c6922f"},"vehicle_type_id":"4","last_reported":1741619465,"current_range_meters":18800,"station_id":"ce4bhjp2rcd13ifvqga0","pricing_plan_id":"cebpf4jnsgd1na2vs0mg"},{"bike_id":"0f510880-ee02-4a41-8112-6b52575f8be9","system_id":"levelo_inurba_marseille","lat":43.30099,"lon":5.39081,"is_reserved":false,"is_disabled":false,"rental_uris":{"android":"levelo://app?vid=0f510880-ee02-4a41-8112-6b52575f8be9","ios":"levelo://app?vid=0f510880-ee02-4a41-8112-6b52575f8be9"},"vehicle_type_id":"4","last_reported":1741619465,"current_range_meters":19200,"station_id":"ce4bh192rcd13ifvqdb0","pricing_plan_id":"cebpf4jnsgd1na2vs0mg"},{"bike_id":"94b14264-0b6b-4134-ad79-0aa869f64753","system_id":"levelo_inurba_marseille","lat":43.32358,"lon":5.38918,"is_reserved":false,"is_disabled":true,"rental_uris":{"android":"levelo://app?vid=94b14264-0b6b-4134-ad79-0aa869f64753","ios":"levelo://app?vid=94b14264-0b6b-4134-ad79-0aa869f64753"},"vehicle_type_id":"4","last_reported":1741619465,"current_range_meters":19600,"station_id":"ce4bhqp2rcd13ifvqhog","pricing_plan_id":"cebpf4jnsgd1na2vs0mg"},{"bike_id":"90e4636f-5acf-4803-a3ed-f0ba6d29d559","system_id":"levelo_inurba_marseille","lat":43.30424,"lon":5.38895,"is_reserved":false,"is_disabled":true,"rental_uris":{"android":"levelo://app?vid=90e4636f-5acf-4803-a3ed-f0ba6d29d559","ios":"levelo://app?vid=90e4636f-5acf-4803-a3ed-f0ba6d29d559"},"vehicle_type_id":"4","last_reported":1741619465,"current_range_meters":19600,"station_id":"ce4bgk12rcd13ifvqbi0","pricing_plan_id":"cebpf4jnsgd1na2vs0mg"},{"bike_id":"17b872eb-086c-460e-bcad-782a4a781cf9","system_id":"levelo_inurba_marseille","lat":43.25148,"lon":5.42542,"is_reserved":false,"is_disabled":false,"rental_uris":{"android":"levelo://app?vid=17b872eb-086c-460e-bcad-782a4a781cf9","ios":"levelo://app?vid=17b872eb-086c-460e-bcad-782a4a781cf9"},"vehicle_type_id":"4","last_reported":1741619465,"current_range_meters":19600,"station_id":"","pricing_plan_id":"cebpf4jnsgd1na2vs0mg"},{"bike_id":"193986f8-92c3-4c0e-b74b-57f20da2175f","system_id":"levelo_inurba_marseille","lat":43.2706,"lon":5.4027,"is_reserved":false,"is_disabled":false,"rental_uris":{"android":"levelo://app?vid=193986f8-92c3-4c0e-b74b-57f20da2175f","ios":"levelo://app?vid=193986f8-92c3-4c0e-b74b-57f20da2175f"},"vehicle_type_id":"4","last_reported":1741619465,"current_range_meters":19600,"station_id":"ce4bhk92rcd13ifvqgc0","pricing_plan_id":"cebpf4jnsgd1na2vs0mg"},{"bike_id":"db47b8a9-457a-433a-b761-1e80514884d9","system_id":"levelo_inurba_marseille","lat":43.291,"lon":5.3816,"is_reserved":false,"is_disabled":false,"rental_uris":{"android":"levelo://app?vid=db47b8a9-457a-433a-b761-1e80514884d9","ios":"levelo://app?vid=db47b8a9-457a-433a-b761-1e80514884d9"},"vehicle_type_id":"4","last_reported":1741619465,"current_range_meters":19600,"station_id":"ce4bh512rcd13ifvqe2g","pricing_plan_id":"cebpf4jnsgd1na2vs0mg"},{"bike_id":"98abb632-e704-4d76-b282-59be888ae42b","system_id":"levelo_inurba_marseille","lat":43.24176,"lon":5.39714,"is_reserved":false,"is_disabled":false,"rental_uris":{"android":"levelo://app?vid=98abb632-e704-4d76-b282-59be888ae42b","ios":"levelo://app?vid=98abb632-e704-4d76-b282-59be888ae42b"},"vehicle_type_id":"4","last_reported":1741619465,"current_range_meters":19600,"station_id":"ce4bhn12rcd13ifvqgpg","pricing_plan_id":"cebpf4jnsgd1na2vs0mg"},{"bike_id":"93c4c763-ac26-4dd5-8c64-a5a5ab4422a7","system_id":"levelo_inurba_marseille","lat":43.28157,"lon":5.42648,"is_reserved":false,"is_disabled":false,"rental_uris":{"android":"levelo://app?vid=93c4c763-ac26-4dd5-8c64-a5a5ab4422a7","ios":"levelo://app?vid=93c4c763-ac26-4dd5-8c64-a5a5ab4422a7"},"vehicle_type_id":"4","last_reported":1741619465,"current_range_meters":19600,"station_id":"ce4bhnh2rcd13ifvqgug","pricing_plan_id":"cebpf4jnsgd1na2vs0mg"},{"bike_id":"803ea8dd-d180-4e7f-8cac-6164ca1b88ff","system_id":"levelo_inurba_marseille","lat":43.27811,"lon":5.4073,"is_reserved":false,"is_disabled":false,"rental_uris":{"android":"levelo://app?vid=803ea8dd-d180-4e7f-8cac-6164ca1b88ff","ios":"levelo://app?vid=803ea8dd-d180-4e7f-8cac-6164ca1b88ff"},"vehicle_type_id":"4","last_reported":1741619465,"current_range_meters":19600,"station_id":"ce4bhnh2rcd13ifvqgtg","pricing_plan_id":"cebpf4jnsgd1na2vs0mg"},{"bike_id":"03fcef79-f017-4d15-a10d-891c5cd96db2","system_id":"levelo_inurba_marseille","lat":43.23065,"lon":5.35495,"is_reserved":false,"is_disabled":false,"rental_uris":{"android":"levelo://app?vid=03fcef79-f017-4d15-a10d-891c5cd96db2","ios":"levelo://app?vid=03fcef79-f017-4d15-a10d-891c5cd96db2"},"vehicle_type_id":"4","last_reported":1741619465,"current_range_meters":19600,"station_id":"cpo3342slgdg3j2ifvpg","pricing_plan_id":"cebpf4jnsgd1na2vs0mg"},{"bike_id":"f829a819-671e-4b71-9c22-56c5f8047725","system_id":"levelo_inurba_marseille","lat":43.32228,"lon":5.36509,"is_reserved":false,"is_disabled":false,"rental_uris":{"android":"levelo://app?vid=f829a819-671e-4b71-9c22-56c5f8047725","ios":"levelo://app?vid=f829a819-671e-4b71-9c22-56c5f8047725"},"vehicle_type_id":"4","last_reported":1741619465,"current_range_meters":19600,"station_id":"","pricing_plan_id":"cebpf4jnsgd1na2vs0mg"},{"bike_id":"1ae442b6-375e-4bc1-933d-07d11abd7ac2","system_id":"levelo_inurba_marseille","lat":43.30213,"lon":5.39469,"is_reserved":false,"is_disabled":false,"rental_uris":{"android":"levelo://app?vid=1ae442b6-375e-4bc1-933d-07d11abd7ac2","ios":"levelo://app?vid=1ae442b6-375e-4bc1-933d-07d11abd7ac2"},"vehicle_type_id":"4","last_reported":1741619465,"current_range_meters":19600,"station_id":"ce4bh0p2rcd13ifvqd70","pricing_plan_id":"cebpf4jnsgd1na2vs0mg"},{"bike_id":"d8f8b9d4-699d-4feb-9a45-c202cb90c6f0","system_id":"levelo_inurba_marseille","lat":43.25097,"lon":5.39523,"is_reserved":false,"is_disabled":false,"rental_uris":{"android":"levelo://app?vid=d8f8b9d4-699d-4feb-9a45-c202cb90c6f0","ios":"levelo://app?vid=d8f8b9d4-699d-4feb-9a45-c202cb90c6f0"},"vehicle_type_id":"4","last_reported":1741619465,"current_range_meters":19600,"station_id":"ce4bhm12rcd13ifvqgkg","pricing_plan_id":"cebpf4jnsgd1na2vs0mg"},{"bike_id":"042e8d88-219b-4742-948b-b999b4fcd75e","system_id":"levelo_inurba_marseille","lat":43.29603,"lon":5.381,"is_reserved":false,"is_disabled":false,"rental_uris":{"android":"levelo://app?vid=042e8d88-219b-4742-948b-b999b4fcd75e","ios":"levelo://app?vid=042e8d88-219b-4742-948b-b999b4fcd75e"},"vehicle_type_id":"4","last_reported":1741619465,"current_range_meters":19600,"station_id":"ce4bgl12rcd13ifvqbo0","pricing_plan_id":"cebpf4jnsgd1na2vs0mg"},{"bike_id":"bfda710b-9435-41cd-a236-648efc1d1eed","system_id":"levelo_inurba_marseille","lat":43.27185,"lon":5.39143,"is_reserved":false,"is_disabled":false,"rental_uris":{"android":"levelo://app?vid=bfda710b-9435-41cd-a236-648efc1d1eed","ios":"levelo://app?vid=bfda710b-9435-41cd-a236-648efc1d1eed"},"vehicle_type_id":"4","last_reported":1741619465,"current_range_meters":20000,"station_id":"ce4bhhp2rcd13ifvqfm0","pricing_plan_id":"cebpf4jnsgd1na2vs0mg"},{"bike_id":"0c65e6ca-7494-49e4-9cfc-2bac04035b1d","system_id":"levelo_inurba_marseille","lat":43.28716,"lon":5.40002,"is_reserved":false,"is_disabled":true,"rental_uris":{"android":"levelo://app?vid=0c65e6ca-7494-49e4-9cfc-2bac04035b1d","ios":"levelo://app?vid=0c65e6ca-7494-49e4-9cfc-2bac04035b1d"},"vehicle_type_id":"4","last_reported":1741619465,"current_range_meters":20000,"station_id":"ce4bho92rcd13ifvqh3g","pricing_plan_id":"cebpf4jnsgd1na2vs0mg"},{"bike_id":"f10ecf3e-b80d-45bd-85a3-6518618d6243","system_id":"levelo_inurba_marseille","lat":43.28971,"lon":5.3783,"is_reserved":false,"is_disabled":false,"rental_uris":{"android":"levelo://app?vid=f10ecf3e-b80d-45bd-85a3-6518618d6243","ios":"levelo://app?vid=f10ecf3e-b80d-45bd-85a3-6518618d6243"},"vehicle_type_id":"4","last_reported":1741619465,"current_range_meters":19600,"station_id":"ce4bh9p2rcd13ifvqed0","pricing_plan_id":"cebpf4jnsgd1na2vs0mg"},{"bike_id":"cd6d3c44-d596-4592-881a-aede2db35f8a","system_id":"levelo_inurba_marseille","lat":43.25824,"lon":5.39438,"is_reserved":false,"is_disabled":false,"rental_uris":{"android":"levelo://app?vid=cd6d3c44-d596-4592-881a-aede2db35f8a","ios":"levelo://app?vid=cd6d3c44-d596-4592-881a-aede2db35f8a"},"vehicle_type_id":"4","last_reported":1741619465,"current_range_meters":20000,"station_id":"ce4bhip2rcd13ifvqft0","pricing_plan_id":"cebpf4jnsgd1na2vs0mg"},{"bike_id":"e53c1fac-81ee-4116-a438-316d82771202","system_id":"levelo_inurba_marseille","lat":43.30442,"lon":5.3677,"is_reserved":false,"is_disabled":false,"rental_uris":{"android":"levelo://app?vid=e53c1fac-81ee-4116-a438-316d82771202","ios":"levelo://app?vid=e53c1fac-81ee-4116-a438-316d82771202"},"vehicle_type_id":"4","last_reported":1741619465,"current_range_meters":20000,"station_id":"","pricing_plan_id":"cebpf4jnsgd1na2vs0mg"},{"bike_id":"e2e914de-b11b-48bc-a7ef-33b49edcfeaa","system_id":"levelo_inurba_marseille","lat":43.29037,"lon":5.3758,"is_reserved":false,"is_disabled":false,"rental_uris":{"android":"levelo://app?vid=e2e914de-b11b-48bc-a7ef-33b49edcfeaa","ios":"levelo://app?vid=e2e914de-b11b-48bc-a7ef-33b49edcfeaa"},"vehicle_type_id":"4","last_reported":1741619465,"current_range_meters":20000,"station_id":"ce4bh692rcd13ifvqe90","pricing_plan_id":"cebpf4jnsgd1na2vs0mg"},{"bike_id":"23ad98ab-6b27-4edb-b022-29dcaf90649b","system_id":"levelo_inurba_marseille","lat":43.28159,"lon":5.42632,"is_reserved":false,"is_disabled":false,"rental_uris":{"android":"levelo://app?vid=23ad98ab-6b27-4edb-b022-29dcaf90649b","ios":"levelo://app?vid=23ad98ab-6b27-4edb-b022-29dcaf90649b"},"vehicle_type_id":"4","last_reported":1741619465,"current_range_meters":20000,"station_id":"ce4bhnh2rcd13ifvqgug","pricing_plan_id":"cebpf4jnsgd1na2vs0mg"},{"bike_id":"01449fbe-a10e-41df-87cb-48ca4160caa3","system_id":"levelo_inurba_marseille","lat":43.27228,"lon":5.39155,"is_reserved":false,"is_disabled":false,"rental_uris":{"android":"levelo://app?vid=01449fbe-a10e-41df-87cb-48ca4160caa3","ios":"levelo://app?vid=01449fbe-a10e-41df-87cb-48ca4160caa3"},"vehicle_type_id":"4","last_reported":1741619465,"current_range_meters":20000,"station_id":"ce4bhhp2rcd13ifvqfm0","pricing_plan_id":"cebpf4jnsgd1na2vs0mg"},{"bike_id":"dde417f6-1c48-4daa-bb13-11f2404bbaa0","system_id":"levelo_inurba_marseille","lat":43.30145,"lon":5.38105,"is_reserved":false,"is_disabled":false,"rental_uris":{"android":"levelo://app?vid=dde417f6-1c48-4daa-bb13-11f2404bbaa0","ios":"levelo://app?vid=dde417f6-1c48-4daa-bb13-11f2404bbaa0"},"vehicle_type_id":"4","last_reported":1741619465,"current_range_meters":20000,"station_id":"ce4bgjp2rcd13ifvqbh0","pricing_plan_id":"cebpf4jnsgd1na2vs0mg"},{"bike_id":"cd8b7479-9073-4b65-9eb1-6bf5921d437b","system_id":"levelo_inurba_marseille","lat":43.31116,"lon":5.37769,"is_reserved":false,"is_disabled":false,"rental_uris":{"android":"levelo://app?vid=cd8b7479-9073-4b65-9eb1-6bf5921d437b","ios":"levelo://app?vid=cd8b7479-9073-4b65-9eb1-6bf5921d437b"},"vehicle_type_id":"4","last_reported":1741619465,"current_range_meters":20000,"station_id":"ce4bgt92rcd13ifvqcg0","pricing_plan_id":"cebpf4jnsgd1na2vs0mg"},{"bike_id":"786493d4-a3a1-4331-b134-817eff23499e","system_id":"levelo_inurba_marseille","lat":43.30152,"lon":5.39532,"is_reserved":false,"is_disabled":false,"rental_uris":{"android":"levelo://app?vid=786493d4-a3a1-4331-b134-817eff23499e","ios":"levelo://app?vid=786493d4-a3a1-4331-b134-817eff23499e"},"vehicle_type_id":"4","last_reported":1741619465,"current_range_meters":20400,"station_id":"","pricing_plan_id":"cebpf4jnsgd1na2vs0mg"},{"bike_id":"e166916b-fc8a-4068-a2c2-f6eab84b3c65","system_id":"levelo_inurba_marseille","lat":43.28152,"lon":5.42656,"is_reserved":false,"is_disabled":false,"rental_uris":{"android":"levelo://app?vid=e166916b-fc8a-4068-a2c2-f6eab84b3c65","ios":"levelo://app?vid=e166916b-fc8a-4068-a2c2-f6eab84b3c65"},"vehicle_type_id":"4","last_reported":1741619465,"current_range_meters":20400,"station_id":"ce4bhnh2rcd13ifvqgug","pricing_plan_id":"cebpf4jnsgd1na2vs0mg"},{"bike_id":"a4a79baa-3ca9-4639-83c4-4094bebd4dc7","system_id":"levelo_inurba_marseille","lat":43.28972,"lon":5.37837,"is_reserved":false,"is_disabled":false,"rental_uris":{"android":"levelo://app?vid=a4a79baa-3ca9-4639-83c4-4094bebd4dc7","ios":"levelo://app?vid=a4a79baa-3ca9-4639-83c4-4094bebd4dc7"},"vehicle_type_id":"4","last_reported":1741619465,"current_range_meters":20000,"station_id":"ce4bh9p2rcd13ifvqed0","pricing_plan_id":"cebpf4jnsgd1na2vs0mg"},{"bike_id":"47646030-6fe7-4d16-84a7-1bbfae6035d7","system_id":"levelo_inurba_marseille","lat":43.29397,"lon":5.37479,"is_reserved":false,"is_disabled":false,"rental_uris":{"android":"levelo://app?vid=47646030-6fe7-4d16-84a7-1bbfae6035d7","ios":"levelo://app?vid=47646030-6fe7-4d16-84a7-1bbfae6035d7"},"vehicle_type_id":"4","last_reported":1741619465,"current_range_meters":20400,"station_id":"","pricing_plan_id":"cebpf4jnsgd1na2vs0mg"},{"bike_id":"461d923c-b594-438c-a6df-2f7464a45083","system_id":"levelo_inurba_marseille","lat":43.30531,"lon":5.36522,"is_reserved":false,"is_disabled":false,"rental_uris":{"android":"levelo://app?vid=461d923c-b594-438c-a6df-2f7464a45083","ios":"levelo://app?vid=461d923c-b594-438c-a6df-2f7464a45083"},"vehicle_type_id":"4","last_reported":1741619465,"current_range_meters":20400,"station_id":"ce4bgs12rcd13ifvqcag","pricing_plan_id":"cebpf4jnsgd1na2vs0mg"},{"bike_id":"a770b3f8-e8b5-4b84-90d4-ec174ec9d43e","system_id":"levelo_inurba_marseille","lat":43.27328,"lon":5.39078,"is_reserved":false,"is_disabled":false,"rental_uris":{"android":"levelo://app?vid=a770b3f8-e8b5-4b84-90d4-ec174ec9d43e","ios":"levelo://app?vid=a770b3f8-e8b5-4b84-90d4-ec174ec9d43e"},"vehicle_type_id":"4","last_reported":1741619465,"current_range_meters":20400,"station_id":"ce4bhgp2rcd13ifvqfe0","pricing_plan_id":"cebpf4jnsgd1na2vs0mg"},{"bike_id":"222f7d1c-e06a-4e29-9463-667f587dfe8d","system_id":"levelo_inurba_marseille","lat":43.2953,"lon":5.38539,"is_reserved":false,"is_disabled":false,"rental_uris":{"android":"levelo://app?vid=222f7d1c-e06a-4e29-9463-667f587dfe8d","ios":"levelo://app?vid=222f7d1c-e06a-4e29-9463-667f587dfe8d"},"vehicle_type_id":"4","last_reported":1741619465,"current_range_meters":20400,"station_id":"ce4bgih2rcd13ifvqba0","pricing_plan_id":"cebpf4jnsgd1na2vs0mg"},{"bike_id":"8fb6fa60-9f0c-48af-bd20-4c1d9e66c77b","system_id":"levelo_inurba_marseille","lat":43.241177,"lon":5.397234,"is_reserved":false,"is_disabled":false,"rental_uris":{"android":"levelo://app?vid=8fb6fa60-9f0c-48af-bd20-4c1d9e66c77b","ios":"levelo://app?vid=8fb6fa60-9f0c-48af-bd20-4c1d9e66c77b"},"vehicle_type_id":"4","last_reported":1741619465,"current_range_meters":20400,"station_id":"ce4bhn12rcd13ifvqgqg","pricing_plan_id":"cebpf4jnsgd1na2vs0mg"},{"bike_id":"0a69afb0-890b-4b64-959f-198dcf607e0f","system_id":"levelo_inurba_marseille","lat":43.24179,"lon":5.39732,"is_reserved":false,"is_disabled":false,"rental_uris":{"android":"levelo://app?vid=0a69afb0-890b-4b64-959f-198dcf607e0f","ios":"levelo://app?vid=0a69afb0-890b-4b64-959f-198dcf607e0f"},"vehicle_type_id":"4","last_reported":1741619465,"current_range_meters":20400,"station_id":"ce4bhn12rcd13ifvqgpg","pricing_plan_id":"cebpf4jnsgd1na2vs0mg"},{"bike_id":"4f23cdcb-4a0c-482b-92b2-ae01477750dd","system_id":"levelo_inurba_marseille","lat":43.29631,"lon":5.37555,"is_reserved":false,"is_disabled":false,"rental_uris":{"android":"levelo://app?vid=4f23cdcb-4a0c-482b-92b2-ae01477750dd","ios":"levelo://app?vid=4f23cdcb-4a0c-482b-92b2-ae01477750dd"},"vehicle_type_id":"4","last_reported":1741619465,"current_range_meters":20800,"station_id":"","pricing_plan_id":"cebpf4jnsgd1na2vs0mg"},{"bike_id":"beb92608-2fdf-422f-8c16-1fbfe4e7a912","system_id":"levelo_inurba_marseille","lat":43.287017,"lon":5.373993,"is_reserved":false,"is_disabled":false,"rental_uris":{"android":"levelo://app?vid=beb92608-2fdf-422f-8c16-1fbfe4e7a912","ios":"levelo://app?vid=beb92608-2fdf-422f-8c16-1fbfe4e7a912"},"vehicle_type_id":"4","last_reported":1741619465,"current_range_meters":20800,"station_id":"ce4bh3p2rcd13ifvqdq0","pricing_plan_id":"cebpf4jnsgd1na2vs0mg"},{"bike_id":"bb6388ec-21b2-40d4-86e4-837e36c85c50","system_id":"levelo_inurba_marseille","lat":43.24169,"lon":5.36405,"is_reserved":false,"is_disabled":false,"rental_uris":{"android":"levelo://app?vid=bb6388ec-21b2-40d4-86e4-837e36c85c50","ios":"levelo://app?vid=bb6388ec-21b2-40d4-86e4-837e36c85c50"},"vehicle_type_id":"4","last_reported":1741619465,"current_range_meters":20800,"station_id":"cpo36qri1sfpv3e86is0","pricing_plan_id":"cebpf4jnsgd1na2vs0mg"},{"bike_id":"a7b6ac05-6af3-44a0-8d14-80658f4a55b8","system_id":"levelo_inurba_marseille","lat":43.27049,"lon":5.40265,"is_reserved":false,"is_disabled":false,"rental_uris":{"android":"levelo://app?vid=a7b6ac05-6af3-44a0-8d14-80658f4a55b8","ios":"levelo://app?vid=a7b6ac05-6af3-44a0-8d14-80658f4a55b8"},"vehicle_type_id":"4","last_reported":1741619465,"current_range_meters":20800,"station_id":"ce4bhk92rcd13ifvqgc0","pricing_plan_id":"cebpf4jnsgd1na2vs0mg"},{"bike_id":"3a60cfb3-93b1-4822-9a55-4b1a2da36578","system_id":"levelo_inurba_marseille","lat":43.27953,"lon":5.40517,"is_reserved":false,"is_disabled":false,"rental_uris":{"android":"levelo://app?vid=3a60cfb3-93b1-4822-9a55-4b1a2da36578","ios":"levelo://app?vid=3a60cfb3-93b1-4822-9a55-4b1a2da36578"},"vehicle_type_id":"4","last_reported":1741619465,"current_range_meters":20800,"station_id":"","pricing_plan_id":"cebpf4jnsgd1na2vs0mg"},{"bike_id":"2761c21f-2d84-4854-be79-ee2b2607814e","system_id":"levelo_inurba_marseille","lat":43.31118,"lon":5.3798,"is_reserved":false,"is_disabled":false,"rental_uris":{"android":"levelo://app?vid=2761c21f-2d84-4854-be79-ee2b2607814e","ios":"levelo://app?vid=2761c21f-2d84-4854-be79-ee2b2607814e"},"vehicle_type_id":"4","last_reported":1741619465,"current_range_meters":20800,"station_id":"","pricing_plan_id":"cebpf4jnsgd1na2vs0mg"},{"bike_id":"a15d3cd7-e9f2-4d04-8fbe-2e0dec8cbdcf","system_id":"levelo_inurba_marseille","lat":43.28036,"lon":5.387209,"is_reserved":false,"is_disabled":false,"rental_uris":{"android":"levelo://app?vid=a15d3cd7-e9f2-4d04-8fbe-2e0dec8cbdcf","ios":"levelo://app?vid=a15d3cd7-e9f2-4d04-8fbe-2e0dec8cbdcf"},"vehicle_type_id":"4","last_reported":1741619465,"current_range_meters":20800,"station_id":"ce4bh2p2rcd13ifvqdi0","pricing_plan_id":"cebpf4jnsgd1na2vs0mg"},{"bike_id":"b3dcc57a-668f-4405-a8f8-0246924d9223","system_id":"levelo_inurba_marseille","lat":43.309,"lon":5.37307,"is_reserved":false,"is_disabled":false,"rental_uris":{"android":"levelo://app?vid=b3dcc57a-668f-4405-a8f8-0246924d9223","ios":"levelo://app?vid=b3dcc57a-668f-4405-a8f8-0246924d9223"},"vehicle_type_id":"4","last_reported":1741619465,"current_range_meters":20800,"station_id":"","pricing_plan_id":"cebpf4jnsgd1na2vs0mg"},{"bike_id":"deddcb28-a811-41c6-8001-8bd8c380029b","system_id":"levelo_inurba_marseille","lat":43.31263,"lon":5.36893,"is_reserved":false,"is_disabled":false,"rental_uris":{"android":"levelo://app?vid=deddcb28-a811-41c6-8001-8bd8c380029b","ios":"levelo://app?vid=deddcb28-a811-41c6-8001-8bd8c380029b"},"vehicle_type_id":"4","last_reported":1741619465,"current_range_meters":20800,"station_id":"","pricing_plan_id":"cebpf4jnsgd1na2vs0mg"},{"bike_id":"0a995a9a-6122-4f4b-b298-a8b06cbca7e2","system_id":"levelo_inurba_marseille","lat":43.250105,"lon":5.38917,"is_reserved":false,"is_disabled":false,"rental_uris":{"android":"levelo://app?vid=0a995a9a-6122-4f4b-b298-a8b06cbca7e2","ios":"levelo://app?vid=0a995a9a-6122-4f4b-b298-a8b06cbca7e2"},"vehicle_type_id":"4","last_reported":1741619465,"current_range_meters":21600,"station_id":"ce4bhgp2rcd13ifvqfd0","pricing_plan_id":"cebpf4jnsgd1na2vs0mg"},{"bike_id":"3c24308d-48e0-4883-919d-701edeb85f01","system_id":"levelo_inurba_marseille","lat":43.3029,"lon":5.36655,"is_reserved":false,"is_disabled":false,"rental_uris":{"android":"levelo://app?vid=3c24308d-48e0-4883-919d-701edeb85f01","ios":"levelo://app?vid=3c24308d-48e0-4883-919d-701edeb85f01"},"vehicle_type_id":"4","last_reported":1741619465,"current_range_meters":21600,"station_id":"ce4bgup2rcd13ifvqcn0","pricing_plan_id":"cebpf4jnsgd1na2vs0mg"},{"bike_id":"2e82c64b-f641-4612-9be7-811295fd4caa","system_id":"levelo_inurba_marseille","lat":43.29256,"lon":5.36845,"is_reserved":false,"is_disabled":false,"rental_uris":{"android":"levelo://app?vid=2e82c64b-f641-4612-9be7-811295fd4caa","ios":"levelo://app?vid=2e82c64b-f641-4612-9be7-811295fd4caa"},"vehicle_type_id":"4","last_reported":1741619465,"current_range_meters":21600,"station_id":"ce4bhbp2rcd13ifvqesg","pricing_plan_id":"cebpf4jnsgd1na2vs0mg"},{"bike_id":"533c0e69-5714-4d71-b01c-a11d659c0801","system_id":"levelo_inurba_marseille","lat":43.28039,"lon":5.3695,"is_reserved":false,"is_disabled":false,"rental_uris":{"android":"levelo://app?vid=533c0e69-5714-4d71-b01c-a11d659c0801","ios":"levelo://app?vid=533c0e69-5714-4d71-b01c-a11d659c0801"},"vehicle_type_id":"4","last_reported":1741619465,"current_range_meters":21600,"station_id":"ce4bha12rcd13ifvqef0","pricing_plan_id":"cebpf4jnsgd1na2vs0mg"},{"bike_id":"d10a073d-292f-450a-812d-0877d97cb2eb","system_id":"levelo_inurba_marseille","lat":43.31291,"lon":5.36812,"is_reserved":false,"is_disabled":false,"rental_uris":{"android":"levelo://app?vid=d10a073d-292f-450a-812d-0877d97cb2eb","ios":"levelo://app?vid=d10a073d-292f-450a-812d-0877d97cb2eb"},"vehicle_type_id":"4","last_reported":1741619465,"current_range_meters":21600,"station_id":"","pricing_plan_id":"cebpf4jnsgd1na2vs0mg"},