{"last_updated":1686536386,"ttl":30,"version":"2.2","data":{"bikes":[{"bike_id":"da2a6d95-af2c-4acc-abe2-27bc5e56a873","system_id":"levelo_inurba_marseille","lat":43.31229,"lon":5.36867,"is_reserved":false,"is_disabled":false,"rental_uris":{"android":"levelo://app?vid=da2a6d95-af2c-4acc-abe2-27bc5e56a873","ios":"levelo://app?vid=da2a6d95-af2c-4acc-abe2-27bc5e56a873"},"vehicle_type_id":"4","last_reported":1686536386,"current_range_meters":8400,"station_id":"ce4bgl92rcd13ifvqbq0","pricing_plan_id":"free"},{"bike_id":"e652f318-b240-41eb-9839-dfeca40698cc","system_id":"levelo_inurba_marseille","lat":43.31238,"lon":5.36887,"is_reserved":false,"is_disabled":false,"rental_uris":{"android":"levelo://app?vid=e652f318-b240-41eb-9839-dfeca40698cc","ios":"levelo://app?vid=e652f318-b240-41eb-9839-dfeca40698cc"},"vehicle_type_id":"4","last_reported":1686536386,"current_range_meters":22400,"station_id":"","pricing_plan_id":"free"},{"bike_id":"42fd72e3-e676-494b-a841-ac0e9fa36a2a","system_id":"levelo_inurba_marseille","lat":43.312239,"lon":5.368562,"is_reserved":false,"is_disabled":false,"rental_uris":{"android":"levelo://app?vid=42fd72e3-e676-494b-a841-ac0e9fa36a2a","ios":"levelo://app?vid=42fd72e3-e676-494b-a841-ac0e9fa36a2a"},"vehicle_type_id":"4","last_reported":1686536386,"current_range_meters":29600,"station_id":"ce4bgl92rcd13ifvqbq0","pricing_plan_id":"free"},{"bike_id":"e215e44b-264e-4626-ae88-2d3a12aefe09","system_id":"levelo_inurba_marseille","lat":43.309076,"lon":5.368465,"is_reserved":false,"is_disabled":false,"rental_uris":{"android":"levelo://app?vid=e215e44b-264e-4626-ae88-2d3a12aefe09","ios":"levelo://app?vid=e215e44b-264e-4626-ae88-2d3a12aefe09"},"vehicle_type_id":"4","last_reported":1686536386,"current_range_meters":7600,"station_id":"ce4bgn92rcd13ifvqbvg","pricing_plan_id":"free"},{"bike_id":"d5f1b9d5-1902-40d2-8e05-b8be5cec445d","system_id":"levelo_inurba_marseille","lat":43.314811,"lon":5.373103,"is_reserved":false,"is_disabled":false,"rental_uris":{"android":"levelo://app?vid=d5f1b9d5-1902-40d2-8e05-b8be5cec445d","ios":"levelo://app?vid=d5f1b9d5-1902-40d2-8e05-b8be5cec445d"},"vehicle_type_id":"4","last_reported":1686536386,"current_range_meters":26800,"station_id":"ce4bgt12rcd13ifvqcd0","pricing_plan_id":"free"},{"bike_id":"7d658a7e-496f-4f88-8dbd-c494f53f928b","system_id":"levelo_inurba_marseille","lat":43.31394,"lon":5.3754,"is_reserved":false,"is_disabled":false,"rental_uris":{"android":"levelo://app?vid=7d658a7e-496f-4f88-8dbd-c494f53f928b","ios":"levelo://app?vid=7d658a7e-496f-4f88-8dbd-c494f53f928b"},"vehicle_type_id":"4","last_reported":1686536386,"current_range_meters":0,"station_id":"","pricing_plan_id":"free"},{"bike_id":"726e69fe-0789-44cc-8872-aafade0684ce","system_id":"levelo_inurba_marseille","lat":43.306,"lon":5.36574,"is_reserved":false,"is_disabled":false,"rental_uris":{"android":"levelo://app?vid=726e69fe-0789-44cc-8872-aafade0684ce","ios":"levelo://app?vid=726e69fe-0789-44cc-8872-aafade0684ce"},"vehicle_type_id":"4","last_reported":1686536386,"current_range_meters":2000,"station_id":"","pricing_plan_id":"free"},{"bike_id":"3b927f62-09f1-4390-87ee-7017de9a0e82","system_id":"levelo_inurba_marseille","lat":43.30538,"lon":5.36549,"is_reserved":false,"is_disabled":false,"rental_uris":{"android":"levelo://app?vid=3b927f62-09f1-4390-87ee-7017de9a0e82","ios":"levelo://app?vid=3b927f62-09f1-4390-87ee-7017de9a0e82"},"vehicle_type_id":"4","last_reported":1686536386,"current_range_meters":26800,"station_id":"","pricing_plan_id":"free"},{"bike_id":"41ff9936-6c65-4ab9-bcb8-199baba10c15","system_id":"levelo_inurba_marseille","lat":43.305714,"lon":5.365633,"is_reserved":false,"is_disabled":false,"rental_uris":{"android":"levelo://app?vid=41ff9936-6c65-4ab9-bcb8-199baba10c15","ios":"levelo://app?vid=41ff9936-6c65-4ab9-bcb8-199baba10c15"},"vehicle_type_id":"4","last_reported":1686536386,"current_range_meters":28000,"station_id":"ce4bgs12rcd13ifvqcag","pricing_plan_id":"free"},{"bike_id":"674a446b-ba12-4539-b2fb-dd7d98698c75","system_id":"levelo_inurba_marseille","lat":43.305989,"lon":5.37225,"is_reserved":false,"is_disabled":false,"rental_uris":{"android":"levelo://app?vid=674a446b-ba12-4539-b2fb-dd7d98698c75","ios":"levelo://app?vid=674a446b-ba12-4539-b2fb-dd7d98698c75"},"vehicle_type_id":"4","last_reported":1686536386,"current_range_meters":29600,"station_id":"ce4bgqh2rcd13ifvqc4g","pricing_plan_id":"free"},{"bike_id":"4ab2c41a-7c46-451b-8572-cc290d1304f5","system_id":"levelo_inurba_marseille","lat":43.305989,"lon":5.37225,"is_reserved":false,"is_disabled":false,"rental_uris":{"android":"levelo://app?vid=4ab2c41a-7c46-451b-8572-cc290d1304f5","ios":"levelo://app?vid=4ab2c41a-7c46-451b-8572-cc290d1304f5"},"vehicle_type_id":"4","last_reported":1686536386,"current_range_meters":7600,"station_id":"ce4bgqh2rcd13ifvqc4g","pricing_plan_id":"free"},{"bike_id":"24cbb53e-e044-4f3e-8b3b-2f74e1aeb6fe","system_id":"levelo_inurba_marseille","lat":43.305989,"lon":5.37225,"is_reserved":false,"is_disabled":false,"rental_uris":{"android":"levelo://app?vid=24cbb53e-e044-4f3e-8b3b-2f74e1aeb6fe","ios":"levelo://app?vid=24cbb53e-e044-4f3e-8b3b-2f74e1aeb6fe"},"vehicle_type_id":"4","last_reported":1686536386,"current_range_meters":31600,"station_id":"ce4bgqh2rcd13ifvqc4g","pricing_plan_id":"free"},{"bike_id":"54ed6818-2b35-4ee8-9c21-bc2f7be5f36c","system_id":"levelo_inurba_marseille","lat":43.305989,"lon":5.37225,"is_reserved":false,"is_disabled":false,"rental_uris":{"android":"levelo://app?vid=54ed6818-2b35-4ee8-9c21-bc2f7be5f36c","ios":"levelo://app?vid=54ed6818-2b35-4ee8-9c21-bc2f7be5f36c"},"vehicle_type_id":"4","last_reported":1686536386,"current_range_meters":31600,"station_id":"ce4bgqh2rcd13ifvqc4g","pricing_plan_id":"free"},{"bike_id":"f2e41842-f7d4-4518-9f95-7230cc4b42dd","system_id":"levelo_inurba_marseille","lat":43.311125,"lon":5.377624,"is_reserved":false,"is_disabled":false,"rental_uris":{"android":"levelo://app?vid=f2e41842-f7d4-4518-9f95-7230cc4b42dd","ios":"levelo://app?vid=f2e41842-f7d4-4518-9f95-7230cc4b42dd"},"vehicle_type_id":"4","last_reported":1686536386,"current_range_meters":29200,"station_id":"ce4bgt92rcd13ifvqcg0","pricing_plan_id":"free"},{"bike_id":"7f21b4cf-0e1b-4264-9415-95acf6ab2fd3","system_id":"levelo_inurba_marseille","lat":43.305989,"lon":5.37225,"is_reserved":false,"is_disabled":false,"rental_uris":{"android":"levelo://app?vid=7f21b4cf-0e1b-4264-9415-95acf6ab2fd3","ios":"levelo://app?vid=7f21b4cf-0e1b-4264-9415-95acf6ab2fd3"},"vehicle_type_id":"4","last_reported":1686536386,"current_range_meters":24000,"station_id":"ce4bgqh2rcd13ifvqc4g","pricing_plan_id":"free"},{"bike_id":"db56fcab-46c5-4217-ae8f-fb3d20c4f2a3","system_id":"levelo_inurba_marseille","lat":43.311131,"lon":5.377651,"is_reserved":false,"is_disabled":false,"rental_uris":{"android":"levelo://app?vid=db56fcab-46c5-4217-ae8f-fb3d20c4f2a3","ios":"levelo://app?vid=db56fcab-46c5-4217-ae8f-fb3d20c4f2a3"},"vehicle_type_id":"4","last_reported":1686536386,"current_range_meters":26400,"station_id":"ce4bgt92rcd13ifvqcg0","pricing_plan_id":"free"},{"bike_id":"097902a8-0037-4946-8a16-04b965a46541","system_id":"levelo_inurba_marseille","lat":43.31111,"lon":5.3778,"is_reserved":false,"is_disabled":false,"rental_uris":{"android":"levelo://app?vid=097902a8-0037-4946-8a16-04b965a46541","ios":"levelo://app?vid=097902a8-0037-4946-8a16-04b965a46541"},"vehicle_type_id":"4","last_reported":1686536386,"current_range_meters":24800,"station_id":"ce4bgt92rcd13ifvqcg0","pricing_plan_id":"free"},{"bike_id":"491967b5-23e1-4d2a-99da-803dafb3fad7","system_id":"levelo_inurba_marseille","lat":43.30308,"lon":5.36919,"is_reserved":false,"is_disabled":false,"rental_uris":{"android":"levelo://app?vid=491967b5-23e1-4d2a-99da-803dafb3fad7","ios":"levelo://app?vid=491967b5-23e1-4d2a-99da-803dafb3fad7"},"vehicle_type_id":"4","last_reported":1686536386,"current_range_meters":30800,"station_id":"ce4bgqh2rcd13ifvqc5g","pricing_plan_id":"free"},{"bike_id":"bbd000e0-de5b-48f6-b16f-87983caa0253","system_id":"levelo_inurba_marseille","lat":43.315289,"lon":5.380349,"is_reserved":false,"is_disabled":false,"rental_uris":{"android":"levelo://app?vid=bbd000e0-de5b-48f6-b16f-87983caa0253","ios":"levelo://app?vid=bbd000e0-de5b-48f6-b16f-87983caa0253"},"vehicle_type_id":"4","last_reported":1686536386,"current_range_meters":6400,"station_id":"ce4bhsp2rcd13ifvqi50","pricing_plan_id":"free"},{"bike_id":"10faf9eb-8636-4a2a-a7a9-de6d14861f2a","system_id":"levelo_inurba_marseille","lat":43.301939,"lon":5.366286,"is_reserved":false,"is_disabled":false,"rental_uris":{"android":"levelo://app?vid=10faf9eb-8636-4a2a-a7a9-de6d14861f2a","ios":"levelo://app?vid=10faf9eb-8636-4a2a-a7a9-de6d14861f2a"},"vehicle_type_id":"4","last_reported":1686536386,"current_range_meters":27200,"station_id":"ce4bgrh2rcd13ifvqc8g","pricing_plan_id":"free"},{"bike_id":"e4e96743-ee1b-42ec-a020-e4ca88c1d37e","system_id":"levelo_inurba_marseille","lat":43.301939,"lon":5.366286,"is_reserved":false,"is_disabled":false,"rental_uris":{"android":"levelo://app?vid=e4e96743-ee1b-42ec-a020-e4ca88c1d37e","ios":"levelo://app?vid=e4e96743-ee1b-42ec-a020-e4ca88c1d37e"},"vehicle_type_id":"4","last_reported":1686536386,"current_range_meters":4000,"station_id":"ce4bgrh2rcd13ifvqc8g","pricing_plan_id":"free"},{"bike_id":"94270bb2-bf1a-4865-9052-7a0030ee904d","system_id":"levelo_inurba_marseille","lat":43.31613,"lon":5.38203,"is_reserved":false,"is_disabled":false,"rental_uris":{"android":"levelo://app?vid=94270bb2-bf1a-4865-9052-7a0030ee904d","ios":"levelo://app?vid=94270bb2-bf1a-4865-9052-7a0030ee904d"},"vehicle_type_id":"4","last_reported":1686536386,"current_range_meters":0,"station_id":"","pricing_plan_id":"free"},{"bike_id":"3f066401-821f-44b2-9ca8-372f28ff851b","system_id":"levelo_inurba_marseille","lat":43.308012,"lon":5.381511,"is_reserved":false,"is_disabled":false,"rental_uris":{"android":"levelo://app?vid=3f066401-821f-44b2-9ca8-372f28ff851b","ios":"levelo://app?vid=3f066401-821f-44b2-9ca8-372f28ff851b"},"vehicle_type_id":"4","last_reported":1686536386,"current_range_meters":29200,"station_id":"ce4bgt12rcd13ifvqce0","pricing_plan_id":"free"},{"bike_id":"01a5ec9d-3e1e-4d93-931c-acbfc33ec19d","system_id":"levelo_inurba_marseille","lat":43.30803,"lon":5.38165,"is_reserved":false,"is_disabled":false,"rental_uris":{"android":"levelo://app?vid=01a5ec9d-3e1e-4d93-931c-acbfc33ec19d","ios":"levelo://app?vid=01a5ec9d-3e1e-4d93-931c-acbfc33ec19d"},"vehicle_type_id":"4","last_reported":1686536386,"current_range_meters":28800,"station_id":"ce4bgt12rcd13ifvqce0","pricing_plan_id":"free"},{"bike_id":"7653499c-06dc-46a7-9a2e-aa9d66fd7531","system_id":"levelo_inurba_marseille","lat":43.304606,"lon":5.379026,"is_reserved":false,"is_disabled":false,"rental_uris":{"android":"levelo://app?vid=7653499c-06dc-46a7-9a2e-aa9d66fd7531","ios":"levelo://app?vid=7653499c-06dc-46a7-9a2e-aa9d66fd7531"},"vehicle_type_id":"4","last_reported":1686536386,"current_range_meters":30000,"station_id":"ce4bgup2rcd13ifvqcn0","pricing_plan_id":"free"},{"bike_id":"01cd71bf-bb77-4fb8-985d-a0725dfcdfdd","system_id":"levelo_inurba_marseille","lat":43.304606,"lon":5.379026,"is_reserved":false,"is_disabled":false,"rental_uris":{"android":"levelo://app?vid=01cd71bf-bb77-4fb8-985d-a0725dfcdfdd","ios":"levelo://app?vid=01cd71bf-bb77-4fb8-985d-a0725dfcdfdd"},"vehicle_type_id":"4","last_reported":1686536386,"current_range_meters":10000,"station_id":"ce4bgup2rcd13ifvqcn0","pricing_plan_id":"free"},{"bike_id":"9e74e532-4217-4529-a967-3a56862c9034","system_id":"levelo_inurba_marseille","lat":43.30143,"lon":5.37413,"is_reserved":false,"is_disabled":false,"rental_uris":{"android":"levelo://app?vid=9e74e532-4217-4529-a967-3a56862c9034","ios":"levelo://app?vid=9e74e532-4217-4529-a967-3a56862c9034"},"vehicle_type_id":"4","last_reported":1686536386,"current_range_meters":28400,"station_id":"ce4bgs92rcd13ifvqcc0","pricing_plan_id":"free"},{"bike_id":"49297577-8021-4e87-b941-3e1b3aca19e6","system_id":"levelo_inurba_marseille","lat":43.30143,"lon":5.37413,"is_reserved":false,"is_disabled":false,"rental_uris":{"android":"levelo://app?vid=49297577-8021-4e87-b941-3e1b3aca19e6","ios":"levelo://app?vid=49297577-8021-4e87-b941-3e1b3aca19e6"},"vehicle_type_id":"4","last_reported":1686536386,"current_range_meters":23600,"station_id":"ce4bgs92rcd13ifvqcc0","pricing_plan_id":"free"},{"bike_id":"cdf29e79-1bd3-4ea0-bb6d-cdb334ba031b","system_id":"levelo_inurba_marseille","lat":43.30143,"lon":5.37413,"is_reserved":false,"is_disabled":false,"rental_uris":{"android":"levelo://app?vid=cdf29e79-1bd3-4ea0-bb6d-cdb334ba031b","ios":"levelo://app?vid=cdf29e79-1bd3-4ea0-bb6d-cdb334ba031b"},"vehicle_type_id":"4","last_reported":1686536386,"current_range_meters":29200,"station_id":"ce4bgs92rcd13ifvqcc0","pricing_plan_id":"free"},{"bike_id":"148976dd-ee39-48ff-b28f-cd1ba32427ce","system_id":"levelo_inurba_marseille","lat":43.319935,"lon":5.381699,"is_reserved":false,"is_disabled":false,"rental_uris":{"android":"levelo://app?vid=148976dd-ee39-48ff-b28f-cd1ba32427ce","ios":"levelo://app?vid=148976dd-ee39-48ff-b28f-cd1ba32427ce"},"vehicle_type_id":"4","last_reported":1686536386,"current_range_meters":31200,"station_id":"ce4bhr12rcd13ifvqhpg","pricing_plan_id":"free"},{"bike_id":"8bfc4f83-0eb1-499a-97e0-9c15c4a9de22","system_id":"levelo_inurba_marseille","lat":43.319935,"lon":5.381699,"is_reserved":false,"is_disabled":false,"rental_uris":{"android":"levelo://app?vid=8bfc4f83-0eb1-499a-97e0-9c15c4a9de22","ios":"levelo://app?vid=8bfc4f83-0eb1-499a-97e0-9c15c4a9de22"},"vehicle_type_id":"4","last_reported":1686536386,"current_range_meters":31200,"station_id":"ce4bhr12rcd13ifvqhpg","pricing_plan_id":"free"},{"bike_id":"4d029df3-8b8a-4106-8c7d-b4dc86062849","system_id":"levelo_inurba_marseille","lat":43.319935,"lon":5.381699,"is_reserved":false,"is_disabled":false,"rental_uris":{"android":"levelo://app?vid=4d029df3-8b8a-4106-8c7d-b4dc86062849","ios":"levelo://app?vid=4d029df3-8b8a-4106-8c7d-b4dc86062849"},"vehicle_type_id":"4","last_reported":1686536386,"current_range_meters":31200,"station_id":"ce4bhr12rcd13ifvqhpg","pricing_plan_id":"free"},{"bike_id":"36da0b6c-ec51-4841-8fb7-b8224118af45","system_id":"levelo_inurba_marseille","lat":43.31999,"lon":5.38153,"is_reserved":false,"is_disabled":false,"rental_uris":{"android":"levelo://app?vid=36da0b6c-ec51-4841-8fb7-b8224118af45","ios":"levelo://app?vid=36da0b6c-ec51-4841-8fb7-b8224118af45"},"vehicle_type_id":"4","last_reported":1686536386,"current_range_meters":31200,"station_id":"ce4bhr12rcd13ifvqhpg","pricing_plan_id":"free"},{"bike_id":"aba2d0df-609b-4f03-b512-147287a6bb6a","system_id":"levelo_inurba_marseille","lat":43.319935,"lon":5.381699,"is_reserved":false,"is_disabled":false,"rental_uris":{"android":"levelo://app?vid=aba2d0df-609b-4f03-b512-147287a6bb6a","ios":"levelo://app?vid=aba2d0df-609b-4f03-b512-147287a6bb6a"},"vehicle_type_id":"4","last_reported":1686536386,"current_range_meters":31200,"station_id":"ce4bhr12rcd13ifvqhpg","pricing_plan_id":"free"},{"bike_id":"5168a86d-cb7b-4891-9c87-2d4d17a6d6df","system_id":"levelo_inurba_marseille","lat":43.319935,"lon":5.381699,"is_reserved":false,"is_disabled":false,"rental_uris":{"android":"levelo://app?vid=5168a86d-cb7b-4891-9c87-2d4d17a6d6df","ios":"levelo://app?vid=5168a86d-cb7b-4891-9c87-2d4d17a6d6df"},"vehicle_type_id":"4","last_reported":1686536386,"current_range_meters":31200,"station_id":"ce4bhr12rcd13ifvqhpg","pricing_plan_id":"free"},{"bike_id":"0a7e2abe-c4fc-44a9-ac07-899f9a130755","system_id":"levelo_inurba_marseille","lat":43.32121,"lon":5.38052,"is_reserved":false,"is_disabled":false,"rental_uris":{"android":"levelo://app?vid=0a7e2abe-c4fc-44a9-ac07-899f9a130755","ios":"levelo://app?vid=0a7e2abe-c4fc-44a9-ac07-899f9a130755"},"vehicle_type_id":"4","last_reported":1686536386,"current_range_meters":7200,"station_id":"","pricing_plan_id":"free"},{"bike_id":"e53edf61-2c97-47eb-8b5f-251197a038c0","system_id":"levelo_inurba_marseille","lat":43.319935,"lon":5.381699,"is_reserved":false,"is_disabled":false,"rental_uris":{"android":"levelo://app?vid=e53edf61-2c97-47eb-8b5f-251197a038c0","ios":"levelo://app?vid=e53edf61-2c97-47eb-8b5f-251197a038c0"},"vehicle_type_id":"4","last_reported":1686536386,"current_range_meters":14800,"station_id":"ce4bhr12rcd13ifvqhpg","pricing_plan_id":"free"},{"bike_id":"b658ef23-719b-4f21-8497-7436af155cb9","system_id":"levelo_inurba_marseille","lat":43.313571,"lon":5.384829,"is_reserved":false,"is_disabled":false,"rental_uris":{"android":"levelo://app?vid=b658ef23-719b-4f21-8497-7436af155cb9","ios":"levelo://app?vid=b658ef23-719b-4f21-8497-7436af155cb9"},"vehicle_type_id":"4","last_reported":1686536386,"current_range_meters":28800,"station_id":"ce4bgt92rcd13ifvqcf0","pricing_plan_id":"free"},{"bike_id":"56736415-e4e8-4dae-8dc0-41008353cd28","system_id":"levelo_inurba_marseille","lat":43.313571,"lon":5.384829,"is_reserved":false,"is_disabled":false,"rental_uris":{"android":"levelo://app?vid=56736415-e4e8-4dae-8dc0-41008353cd28","ios":"levelo://app?vid=56736415-e4e8-4dae-8dc0-41008353cd28"},"vehicle_type_id":"4","last_reported":1686536386,"current_range_meters":31200,"station_id":"ce4bgt92rcd13ifvqcf0","pricing_plan_id":"free"},{"bike_id":"096d50e9-3805-4169-a4ad-ed7420a634fe","system_id":"levelo_inurba_marseille","lat":43.299222,"lon":5.365554,"is_reserved":false,"is_disabled":false,"rental_uris":{"android":"levelo://app?vid=096d50e9-3805-4169-a4ad-ed7420a634fe","ios":"levelo://app?vid=096d50e9-3805-4169-a4ad-ed7420a634fe"},"vehicle_type_id":"4","last_reported":1686536386,"current_range_meters":0,"station_id":"ce4bgm92rcd13ifvqbr0","pricing_plan_id":"free"},{"bike_id":"37d70dbf-5532-4603-84ae-56a81805ff66","system_id":"levelo_inurba_marseille","lat":43.29852,"lon":5.36287,"is_reserved":false,"is_disabled":false,"rental_uris":{"android":"levelo://app?vid=37d70dbf-5532-4603-84ae-56a81805ff66","ios":"levelo://app?vid=37d70dbf-5532-4603-84ae-56a81805ff66"},"vehicle_type_id":"4","last_reported":1686536386,"current_range_meters":0,"station_id":"ce4bgpp2rcd13ifvqc3g","pricing_plan_id":"free"},{"bike_id":"c971f06e-b6a3-4dc2-b719-830a74d124f6","system_id":"levelo_inurba_marseille","lat":43.299243,"lon":5.37481,"is_reserved":false,"is_disabled":false,"rental_uris":{"android":"levelo://app?vid=c971f06e-b6a3-4dc2-b719-830a74d124f6","ios":"levelo://app?vid=c971f06e-b6a3-4dc2-b719-830a74d124f6"},"vehicle_type_id":"4","last_reported":1686536386,"current_range_meters":22800,"station_id":"ce4bgjh2rcd13ifvqbg0","pricing_plan_id":"free"},{"bike_id":"e8f5f004-d0de-42aa-bd88-8e58e7fd2099","system_id":"levelo_inurba_marseille","lat":43.299243,"lon":5.37481,"is_reserved":false,"is_disabled":false,"rental_uris":{"android":"levelo://app?vid=e8f5f004-d0de-42aa-bd88-8e58e7fd2099","ios":"levelo://app?vid=e8f5f004-d0de-42aa-bd88-8e58e7fd2099"},"vehicle_type_id":"4","last_reported":1686536386,"current_range_meters":31600,"station_id":"ce4bgjh2rcd13ifvqbg0","pricing_plan_id":"free"},{"bike_id":"69afd390-2420-4dd8-95ef-f21ac0a5cff2","system_id":"levelo_inurba_marseille","lat":43.311722,"lon":5.387247,"is_reserved":false,"is_disabled":false,"rental_uris":{"android":"levelo://app?vid=69afd390-2420-4dd8-95ef-f21ac0a5cff2","ios":"levelo://app?vid=69afd390-2420-4dd8-95ef-f21ac0a5cff2"},"vehicle_type_id":"4","last_reported":1686536386,"current_range_meters":30000,"station_id":"ce4bgv12rcd13ifvqcp0","pricing_plan_id":"free"},{"bike_id":"2300d2a0-1fc1-4791-a8dc-f0219ab6d855","system_id":"levelo_inurba_marseille","lat":43.311722,"lon":5.387247,"is_reserved":false,"is_disabled":false,"rental_uris":{"android":"levelo://app?vid=2300d2a0-1fc1-4791-a8dc-f0219ab6d855","ios":"levelo://app?vid=2300d2a0-1fc1-4791-a8dc-f0219ab6d855"},"vehicle_type_id":"4","last_reported":1686536386,"current_range_meters":29200,"station_id":"ce4bgv12rcd13ifvqcp0","pricing_plan_id":"free"},{"bike_id":"42f8c916-419b-403f-ae1a-48a65800cd59","system_id":"levelo_inurba_marseille","lat":43.299243,"lon":5.37481,"is_reserved":false,"is_disabled":false,"rental_uris":{"android":"levelo://app?vid=42f8c916-419b-403f-ae1a-48a65800cd59","ios":"levelo://app?vid=42f8c916-419b-403f-ae1a-48a65800cd59"},"vehicle_type_id":"4","last_reported":1686536386,"current_range_meters":31600,"station_id":"ce4bgjh2rcd13ifvqbg0","pricing_plan_id":"free"},{"bike_id":"04578a74-2c31-428f-a3a9-d1aac61494db","system_id":"levelo_inurba_marseille","lat":43.311722,"lon":5.387247,"is_reserved":false,"is_disabled":false,"rental_uris":{"android":"levelo://app?vid=04578a74-2c31-428f-a3a9-d1aac61494db","ios":"levelo://app?vid=04578a74-2c31-428f-a3a9-d1aac61494db"},"vehicle_type_id":"4","last_reported":1686536386,"current_range_meters":28000,"station_id":"ce4bgv12rcd13ifvqcp0","pricing_plan_id":"free"},{"bike_id":"4a6c7cc7-7253-4e2a-b188-c3fc33bbc279","system_id":"levelo_inurba_marseille","lat":43.297774,"lon":5.370875,"is_reserved":false,"is_disabled":false,"rental_uris":{"android":"levelo://app?vid=4a6c7cc7-7253-4e2a-b188-c3fc33bbc279","ios":"levelo://app?vid=4a6c7cc7-7253-4e2a-b188-c3fc33bbc279"},"vehicle_type_id":"4","last_reported":1686536386,"current_range_meters":3200,"station_id":"ce4bgop2rcd13ifvqc1g","pricing_plan_id":"free"},{"bike_id":"af434387-c696-4711-bbb6-68d793cd7c40","system_id":"levelo_inurba_marseille","lat":43.328371,"lon":5.366912,"is_reserved":false,"is_disabled":false,"rental_uris":{"android":"levelo://app?vid=af434387-c696-4711-bbb6-68d793cd7c40","ios":"levelo://app?vid=af434387-c696-4711-bbb6-68d793cd7c40"},"vehicle_type_id":"4","last_reported":1686536386,"current_range_meters":17200,"station_id":"ce4bhs92rcd13ifvqi0g","pricing_plan_id":"free"},{"bike_id":"9cb98a96-fa45-4a3a-a507-aa7513f04871","system_id":"levelo_inurba_marseille","lat":43.2971,"lon":5.36592,"is_reserved":false,"is_disabled":false,"rental_uris":{"android":"levelo://app?vid=9cb98a96-fa45-4a3a-a507-aa7513f04871","ios":"levelo://app?vid=9cb98a96-fa45-4a3a-a507-aa7513f04871"},"vehicle_type_id":"4","last_reported":1686536386,"current_range_meters":22000,"station_id":"","pricing_plan_id":"free"},{"bike_id":"6e030adf-b716-4354-8b83-08c9110b5b95","system_id":"levelo_inurba_marseille","lat":43.29708,"lon":5.36598,"is_reserved":false,"is_disabled":false,"rental_uris":{"android":"levelo://app?vid=6e030adf-b716-4354-8b83-08c9110b5b95","ios":"levelo://app?vid=6e030adf-b716-4354-8b83-08c9110b5b95"},"vehicle_type_id":"4","last_reported":1686536386,"current_range_meters":2800,"station_id":"","pricing_plan_id":"free"},{"bike_id":"306ef242-830f-4446-b0d3-634a187d06f8","system_id":"levelo_inurba_marseille","lat":43.29703,"lon":5.36612,"is_reserved":false,"is_disabled":false,"rental_uris":{"android":"levelo://app?vid=306ef242-830f-4446-b0d3-634a187d06f8","ios":"levelo://app?vid=306ef242-830f-4446-b0d3-634a187d06f8"},"vehicle_type_id":"4","last_reported":1686536386,"current_range_meters":21200,"station_id":"","pricing_plan_id":"free"},{"bike_id":"67997e51-406a-4ce8-a896-b4f9bb318142","system_id":"levelo_inurba_marseille","lat":43.29702,"lon":5.36608,"is_reserved":false,"is_disabled":false,"rental_uris":{"android":"levelo://app?vid=67997e51-406a-4ce8-a896-b4f9bb318142","ios":"levelo://app?vid=67997e51-406a-4ce8-a896-b4f9bb318142"},"vehicle_type_id":"4","last_reported":1686536386,"current_range_meters":29600,"station_id":"","pricing_plan_id":"free"},{"bike_id":"2c886502-9380-405e-b314-163955f3076f","system_id":"levelo_inurba_marseille","lat":43.296921,"lon":5.376579,"is_reserved":false,"is_disabled":false,"rental_uris":{"android":"levelo://app?vid=2c886502-9380-405e-b314-163955f3076f","ios":"levelo://app?vid=2c886502-9380-405e-b314-163955f3076f"},"vehicle_type_id":"4","last_reported":1686536386,"current_range_meters":31600,"station_id":"ce4bgkh2rcd13ifvqbl0","pricing_plan_id":"free"},{"bike_id":"206d1d96-3e12-462f-b258-f91ae81b585a","system_id":"levelo_inurba_marseille","lat":43.296921,"lon":5.376579,"is_reserved":false,"is_disabled":false,"rental_uris":{"android":"levelo://app?vid=206d1d96-3e12-462f-b258-f91ae81b585a","ios":"levelo://app?vid=206d1d96-3e12-462f-b258-f91ae81b585a"},"vehicle_type_id":"4","last_reported":1686536386,"current_range_meters":28800,"station_id":"ce4bgkh2rcd13ifvqbl0","pricing_plan_id":"free"},{"bike_id":"1182932a-98c1-4693-b15f-1326dbf0e872","system_id":"levelo_inurba_marseille","lat":43.2972,"lon":5.37693,"is_reserved":false,"is_disabled":false,"rental_uris":{"android":"levelo://app?vid=1182932a-98c1-4693-b15f-1326dbf0e872","ios":"levelo://app?vid=1182932a-98c1-4693-b15f-1326dbf0e872"},"vehicle_type_id":"4","last_reported":1686536386,"current_range_meters":27200,"station_id":"","pricing_plan_id":"free"},{"bike_id":"c0dcb1e0-8b83-485b-991c-dbf28d68dc91","system_id":"levelo_inurba_marseille","lat":43.299028,"lon":5.381509,"is_reserved":false,"is_disabled":false,"rental_uris":{"android":"levelo://app?vid=c0dcb1e0-8b83-485b-991c-dbf28d68dc91","ios":"levelo://app?vid=c0dcb1e0-8b83-485b-991c-dbf28d68dc91"},"vehicle_type_id":"4","last_reported":1686536386,"current_range_meters":28800,"station_id":"ce4bgj12rcd13ifvqbc0","pricing_plan_id":"free"},{"bike_id":"2216c754-b7f1-43e7-99bb-f284fd856551","system_id":"levelo_inurba_marseille","lat":43.29901,"lon":5.38144,"is_reserved":false,"is_disabled":false,"rental_uris":{"android":"levelo://app?vid=2216c754-b7f1-43e7-99bb-f284fd856551","ios":"levelo://app?vid=2216c754-b7f1-43e7-99bb-f284fd856551"},"vehicle_type_id":"4","last_reported":1686536386,"current_range_meters":30000,"station_id":"ce4bgj12rcd13ifvqbc0","pricing_plan_id":"free"},{"bike_id":"20f5a1d0-ac9d-454e-9f19-4ff4a2cafa7d","system_id":"levelo_inurba_marseille","lat":43.309589,"lon":5.390258,"is_reserved":false,"is_disabled":false,"rental_uris":{"android":"levelo://app?vid=20f5a1d0-ac9d-454e-9f19-4ff4a2cafa7d","ios":"levelo://app?vid=20f5a1d0-ac9d-454e-9f19-4ff4a2cafa7d"},"vehicle_type_id":"4","last_reported":1686536386,"current_range_meters":21600,"station_id":"ce4bgup2rcd13ifvqco0","pricing_plan_id":"free"},{"bike_id":"a5b1438c-a8fa-4b64-82f0-cc465f815c91","system_id":"levelo_inurba_marseille","lat":43.317557,"lon":5.390173,"is_reserved":false,"is_disabled":false,"rental_uris":{"android":"levelo://app?vid=a5b1438c-a8fa-4b64-82f0-cc465f815c91","ios":"levelo://app?vid=a5b1438c-a8fa-4b64-82f0-cc465f815c91"},"vehicle_type_id":"4","last_reported":1686536386,"current_range_meters":31200,"station_id":"ce4bhqp2rcd13ifvqhng","pricing_plan_id":"free"},{"bike_id":"de24aaf4-c082-498c-8ba7-982165dc1f55","system_id":"levelo_inurba_marseille","lat":43.317557,"lon":5.390173,"is_reserved":false,"is_disabled":false,"rental_uris":{"android":"levelo://app?vid=de24aaf4-c082-498c-8ba7-982165dc1f55","ios":"levelo://app?vid=de24aaf4-c082-498c-8ba7-982165dc1f55"},"vehicle_type_id":"4","last_reported":1686536386,"current_range_meters":31200,"station_id":"ce4bhqp2rcd13ifvqhng","pricing_plan_id":"free"},{"bike_id":"df74f08d-5910-4568-aefd-ffccd050319c","system_id":"levelo_inurba_marseille","lat":43.304274,"lon":5.388873,"is_reserved":false,"is_disabled":false,"rental_uris":{"android":"levelo://app?vid=df74f08d-5910-4568-aefd-ffccd050319c","ios":"levelo://app?vid=df74f08d-5910-4568-aefd-ffccd050319c"},"vehicle_type_id":"4","last_reported":1686536386,"current_range_meters":14400,"station_id":"ce4bgk12rcd13ifvqbi0","pricing_plan_id":"free"},{"bike_id":"a6dd81e3-0ae7-4056-a766-d92127a14999","system_id":"levelo_inurba_marseille","lat":43.29955,"lon":5.38497,"is_reserved":false,"is_disabled":false,"rental_uris":{"android":"levelo://app?vid=a6dd81e3-0ae7-4056-a766-d92127a14999","ios":"levelo://app?vid=a6dd81e3-0ae7-4056-a766-d92127a14999"},"vehicle_type_id":"4","last_reported":1686536386,"current_range_meters":0,"station_id":"ce4bgj92rcd13ifvqbd0","pricing_plan_id":"free"},{"bike_id":"13e09108-f76b-4db4-a479-7107c8a07973","system_id":"levelo_inurba_marseille","lat":43.29643,"lon":5.37945,"is_reserved":false,"is_disabled":false,"rental_uris":{"android":"levelo://app?vid=13e09108-f76b-4db4-a479-7107c8a07973","ios":"levelo://app?vid=13e09108-f76b-4db4-a479-7107c8a07973"},"vehicle_type_id":"4","last_reported":1686536386,"current_range_meters":26400,"station_id":"","pricing_plan_id":"free"},{"bike_id":"1a10afdd-816f-4230-96ad-e07afc80891a","system_id":"levelo_inurba_marseille","lat":43.29425,"lon":5.37401,"is_reserved":false,"is_disabled":false,"rental_uris":{"android":"levelo://app?vid=1a10afdd-816f-4230-96ad-e07afc80891a","ios":"levelo://app?vid=1a10afdd-816f-4230-96ad-e07afc80891a"},"vehicle_type_id":"4","last_reported":1686536386,"current_range_meters":14000,"station_id":"","pricing_plan_id":"free"},{"bike_id":"4d59d3e2-3e86-4cc5-8791-b409e05014fe","system_id":"levelo_inurba_marseille","lat":43.32362,"lon":5.38883,"is_reserved":false,"is_disabled":false,"rental_uris":{"android":"levelo://app?vid=4d59d3e2-3e86-4cc5-8791-b409e05014fe","ios":"levelo://app?vid=4d59d3e2-3e86-4cc5-8791-b409e05014fe"},"vehicle_type_id":"4","last_reported":1686536386,"current_range_meters":28000,"station_id":"ce4bhqp2rcd13ifvqhog","pricing_plan_id":"free"},{"bike_id":"0c602125-8ff7-46a9-b462-bdbd1fc5c7a4","system_id":"levelo_inurba_marseille","lat":43.32361,"lon":5.38886,"is_reserved":false,"is_disabled":false,"rental_uris":{"android":"levelo://app?vid=0c602125-8ff7-46a9-b462-bdbd1fc5c7a4","ios":"levelo://app?vid=0c602125-8ff7-46a9-b462-bdbd1fc5c7a4"},"vehicle_type_id":"4","last_reported":1686536386,"current_range_meters":11200,"station_id":"ce4bhqp2rcd13ifvqhog","pricing_plan_id":"free"},{"bike_id":"9ecf5d6d-25b8-45ea-a6a0-82f183a95922","system_id":"levelo_inurba_marseille","lat":43.32364,"lon":5.38886,"is_reserved":false,"is_disabled":false,"rental_uris":{"android":"levelo://app?vid=9ecf5d6d-25b8-45ea-a6a0-82f183a95922","ios":"levelo://app?vid=9ecf5d6d-25b8-45ea-a6a0-82f183a95922"},"vehicle_type_id":"4","last_reported":1686536386,"current_range_meters":31200,"station_id":"ce4bhqp2rcd13ifvqhog","pricing_plan_id":"free"},{"bike_id":"424b1910-887e-47c5-b69b-4b7b4eea4aaf","system_id":"levelo_inurba_marseille","lat":43.32369,"lon":5.38883,"is_reserved":false,"is_disabled":false,"rental_uris":{"android":"levelo://app?vid=424b1910-887e-47c5-b69b-4b7b4eea4aaf","ios":"levelo://app?vid=424b1910-887e-47c5-b69b-4b7b4eea4aaf"},"vehicle_type_id":"4","last_reported":1686536386,"current_range_meters":10000,"station_id":"ce4bhqp2rcd13ifvqhog","pricing_plan_id":"free"},{"bike_id":"d324b201-5668-4364-af86-36b42f4cfaf9","system_id":"levelo_inurba_marseille","lat":43.29595,"lon":5.38106,"is_reserved":false,"is_disabled":false,"rental_uris":{"android":"levelo://app?vid=d324b201-5668-4364-af86-36b42f4cfaf9","ios":"levelo://app?vid=d324b201-5668-4364-af86-36b42f4cfaf9"},"vehicle_type_id":"4","last_reported":1686536386,"current_range_meters":26800,"station_id":"ce4bgl12rcd13ifvqbo0","pricing_plan_id":"free"},{"bike_id":"a32327c3-8488-41ce-be67-8f24a4ab0df5","system_id":"levelo_inurba_marseille","lat":43.29602,"lon":5.381084,"is_reserved":false,"is_disabled":false,"rental_uris":{"android":"levelo://app?vid=a32327c3-8488-41ce-be67-8f24a4ab0df5","ios":"levelo://app?vid=a32327c3-8488-41ce-be67-8f24a4ab0df5"},"vehicle_type_id":"4","last_reported":1686536386,"current_range_meters":27600,"station_id":"ce4bgl12rcd13ifvqbo0","pricing_plan_id":"free"},{"bike_id":"843dcd7a-5fe6-42ca-815a-1a4b56f3db20","system_id":"levelo_inurba_marseille","lat":43.292749,"lon":5.368402,"is_reserved":false,"is_disabled":false,"rental_uris":{"android":"levelo://app?vid=843dcd7a-5fe6-42ca-815a-1a4b56f3db20","ios":"levelo://app?vid=843dcd7a-5fe6-42ca-815a-1a4b56f3db20"},"vehicle_type_id":"4","last_reported":1686536386,"current_range_meters":31600,"station_id":"ce4bhbp2rcd13ifvqesg","pricing_plan_id":"free"},{"bike_id":"44bb6a43-f340-41ae-a835-f292f390872d","system_id":"levelo_inurba_marseille","lat":43.302992,"lon":5.392136,"is_reserved":false,"is_disabled":false,"rental_uris":{"android":"levelo://app?vid=44bb6a43-f340-41ae-a835-f292f390872d","ios":"levelo://app?vid=44bb6a43-f340-41ae-a835-f292f390872d"},"vehicle_type_id":"4","last_reported":1686536386,"current_range_meters":31600,"station_id":"ce4bgkh2rcd13ifvqbk0","pricing_plan_id":"free"},{"bike_id":"c84627b0-9c46-4ea1-84dd-3e24a81ba6b4","system_id":"levelo_inurba_marseille","lat":43.302992,"lon":5.392136,"is_reserved":false,"is_disabled":false,"rental_uris":{"android":"levelo://app?vid=c84627b0-9c46-4ea1-84dd-3e24a81ba6b4","ios":"levelo://app?vid=c84627b0-9c46-4ea1-84dd-3e24a81ba6b4"},"vehicle_type_id":"4","last_reported":1686536386,"current_range_meters":30800,"station_id":"ce4bgkh2rcd13ifvqbk0","pricing_plan_id":"free"},{"bike_id":"8b5a7b39-e06f-4db4-ad30-d5d920fb4a7c","system_id":"levelo_inurba_marseille","lat":43.302992,"lon":5.392136,"is_reserved":false,"is_disabled":false,"rental_uris":{"android":"levelo://app?vid=8b5a7b39-e06f-4db4-ad30-d5d920fb4a7c","ios":"levelo://app?vid=8b5a7b39-e06f-4db4-ad30-d5d920fb4a7c"},"vehicle_type_id":"4","last_reported":1686536386,"current_range_meters":31600,"station_id":"ce4bgkh2rcd13ifvqbk0","pricing_plan_id":"free"},{"bike_id":"3a9e926b-e2cc-41b8-9b76-007f9b80afe8","system_id":"levelo_inurba_marseille","lat":43.302992,"lon":5.392136,"is_reserved":false,"is_disabled":false,"rental_uris":{"android":"levelo://app?vid=3a9e926b-e2cc-41b8-9b76-007f9b80afe8","ios":"levelo://app?vid=3a9e926b-e2cc-41b8-9b76-007f9b80afe8"},"vehicle_type_id":"4","last_reported":1686536386,"current_range_meters":8400,"station_id":"ce4bgkh2rcd13ifvqbk0","pricing_plan_id":"free"},{"bike_id":"f5b63f48-50c8-47a0-8201-2f419119a32b","system_id":"levelo_inurba_marseille","lat":43.2936,"lon":5.37835,"is_reserved":false,"is_disabled":false,"rental_uris":{"android":"levelo://app?vid=f5b63f48-50c8-47a0-8201-2f419119a32b","ios":"levelo://app?vid=f5b63f48-50c8-47a0-8201-2f419119a32b"},"vehicle_type_id":"4","last_reported":1686536386,"current_range_meters":31600,"station_id":"ce4bgjh2rcd13ifvqbf0","pricing_plan_id":"free"},{"bike_id":"14ebf329-42ac-486b-9a9c-373dbd8128f8","system_id":"levelo_inurba_marseille","lat":43.292311,"lon":5.360731,"is_reserved":false,"is_disabled":false,"rental_uris":{"android":"levelo://app?vid=14ebf329-42ac-486b-9a9c-373dbd8128f8","ios":"levelo://app?vid=14ebf329-42ac-486b-9a9c-373dbd8128f8"},"vehicle_type_id":"4","last_reported":1686536386,"current_range_meters":31200,"station_id":"ce4bhbh2rcd13ifvqeqg","pricing_plan_id":"free"},{"bike_id":"48b75b93-6f55-47ab-91ce-49b357ea3d26","system_id":"levelo_inurba_marseille","lat":43.300852,"lon":5.390859,"is_reserved":false,"is_disabled":false,"rental_uris":{"android":"levelo://app?vid=48b75b93-6f55-47ab-91ce-49b357ea3d26","ios":"levelo://app?vid=48b75b93-6f55-47ab-91ce-49b357ea3d26"},"vehicle_type_id":"4","last_reported":1686536386,"current_range_meters":26400,"station_id":"ce4bh192rcd13ifvqdb0","pricing_plan_id":"free"},{"bike_id":"85932d7f-6955-4d52-959c-8583171beed7","system_id":"levelo_inurba_marseille","lat":43.309038,"lon":5.396546,"is_reserved":false,"is_disabled":false,"rental_uris":{"android":"levelo://app?vid=85932d7f-6955-4d52-959c-8583171beed7","ios":"levelo://app?vid=85932d7f-6955-4d52-959c-8583171beed7"},"vehicle_type_id":"4","last_reported":1686536386,"current_range_meters":22800,"station_id":"ce4bh012rcd13ifvqcv0","pricing_plan_id":"free"},{"bike_id":"fff87942-1739-4f26-9201-db8fe6dc54c8","system_id":"levelo_inurba_marseille","lat":43.309038,"lon":5.396546,"is_reserved":false,"is_disabled":false,"rental_uris":{"android":"levelo://app?vid=fff87942-1739-4f26-9201-db8fe6dc54c8","ios":"levelo://app?vid=fff87942-1739-4f26-9201-db8fe6dc54c8"},"vehicle_type_id":"4","last_reported":1686536386,"current_range_meters":15600,"station_id":"ce4bh012rcd13ifvqcv0","pricing_plan_id":"free"},{"bike_id":"77c52f61-ba9f-4358-9c52-b7b70cdc0151","system_id":"levelo_inurba_marseille","lat":43.309038,"lon":5.396546,"is_reserved":false,"is_disabled":false,"rental_uris":{"android":"levelo://app?vid=77c52f61-ba9f-4358-9c52-b7b70cdc0151","ios":"levelo://app?vid=77c52f61-ba9f-4358-9c52-b7b70cdc0151"},"vehicle_type_id":"4","last_reported":1686536386,"current_range_meters":9200,"station_id":"ce4bh012rcd13ifvqcv0","pricing_plan_id":"free"},{"bike_id":"324b84e4-563b-4688-a735-0613a795f3c9","system_id":"levelo_inurba_marseille","lat":43.309038,"lon":5.396546,"is_reserved":false,"is_disabled":false,"rental_uris":{"android":"levelo://app?vid=324b84e4-563b-4688-a735-0613a795f3c9","ios":"levelo://app?vid=324b84e4-563b-4688-a735-0613a795f3c9"},"vehicle_type_id":"4","last_reported":1686536386,"current_range_meters":18000,"station_id":"ce4bh012rcd13ifvqcv0","pricing_plan_id":"free"},{"bike_id":"65bd4cc9-991e-4d4e-83dc-b1e043274974","system_id":"levelo_inurba_marseille","lat":43.309038,"lon":5.396546,"is_reserved":false,"is_disabled":false,"rental_uris":{"android":"levelo://app?vid=65bd4cc9-991e-4d4e-83dc-b1e043274974","ios":"levelo://app?vid=65bd4cc9-991e-4d4e-83dc-b1e043274974"},"vehicle_type_id":"4","last_reported":1686536386,"current_range_meters":31200,"station_id":"ce4bh012rcd13ifvqcv0","pricing_plan_id":"free"},{"bike_id":"548da05a-8b69-490f-8557-5fe03bb9fe77","system_id":"levelo_inurba_marseille","lat":43.309038,"lon":5.396546,"is_reserved":false,"is_disabled":false,"rental_uris":{"android":"levelo://app?vid=548da05a-8b69-490f-8557-5fe03bb9fe77","ios":"levelo://app?vid=548da05a-8b69-490f-8557-5fe03bb9fe77"},"vehicle_type_id":"4","last_reported":1686536386,"current_range_meters":8000,"station_id":"ce4bh012rcd13ifvqcv0","pricing_plan_id":"free"},{"bike_id":"2a73c63c-cab5-49c7-9db5-235313d5ef72","system_id":"levelo_inurba_marseille","lat":43.31323,"lon":5.39688,"is_reserved":false,"is_disabled":false,"rental_uris":{"android":"levelo://app?vid=2a73c63c-cab5-49c7-9db5-235313d5ef72","ios":"levelo://app?vid=2a73c63c-cab5-49c7-9db5-235313d5ef72"},"vehicle_type_id":"4","last_reported":1686536386,"current_range_meters":28800,"station_id":"ce4bgvp2rcd13ifvqcu0","pricing_plan_id":"free"},{"bike_id":"e13c97b2-3d2f-4591-bf46-eaf5e3eaefac","system_id":"levelo_inurba_marseille","lat":43.313291,"lon":5.396838,"is_reserved":false,"is_disabled":false,"rental_uris":{"android":"levelo://app?vid=e13c97b2-3d2f-4591-bf46-eaf5e3eaefac","ios":"levelo://app?vid=e13c97b2-3d2f-4591-bf46-eaf5e3eaefac"},"vehicle_type_id":"4","last_reported":1686536386,"current_range_meters":7200,"station_id":"ce4bgvp2rcd13ifvqcu0","pricing_plan_id":"free"},{"bike_id":"b738b30a-3a87-443c-90d2-c7762d4715c4","system_id":"levelo_inurba_marseille","lat":43.313291,"lon":5.396838,"is_reserved":false,"is_disabled":false,"rental_uris":{"android":"levelo://app?vid=b738b30a-3a87-443c-90d2-c7762d4715c4","ios":"levelo://app?vid=b738b30a-3a87-443c-90d2-c7762d4715c4"},"vehicle_type_id":"4","last_reported":1686536386,"current_range_meters":31200,"station_id":"ce4bgvp2rcd13ifvqcu0","pricing_plan_id":"free"},{"bike_id":"5fe1ece1-1420-4a55-aa3d-2761ffcfd2ef","system_id":"levelo_inurba_marseille","lat":43.313291,"lon":5.396838,"is_reserved":false,"is_disabled":false,"rental_uris":{"android":"levelo://app?vid=5fe1ece1-1420-4a55-aa3d-2761ffcfd2ef","ios":"levelo://app?vid=5fe1ece1-1420-4a55-aa3d-2761ffcfd2ef"},"vehicle_type_id":"4","last_reported":1686536386,"current_range_meters":30400,"station_id":"ce4bgvp2rcd13ifvqcu0","pricing_plan_id":"free"},{"bike_id":"0b56d290-ddc4-49ff-9f40-f2efdef72d42","system_id":"levelo_inurba_marseille","lat":43.291994,"lon":5.357886,"is_reserved":false,"is_disabled":false,"rental_uris":{"android":"levelo://app?vid=0b56d290-ddc4-49ff-9f40-f2efdef72d42","ios":"levelo://app?vid=0b56d290-ddc4-49ff-9f40-f2efdef72d42"},"vehicle_type_id":"4","last_reported":1686536386,"current_range_meters":29600,"station_id":"ce4bhb12rcd13ifvqel0","pricing_plan_id":"free"},{"bike_id":"1d8f70bc-729b-4a51-80a5-70c6b0c92a5c","system_id":"levelo_inurba_marseille","lat":43.31324,"lon":5.39695,"is_reserved":false,"is_disabled":false,"rental_uris":{"android":"levelo://app?vid=1d8f70bc-729b-4a51-80a5-70c6b0c92a5c","ios":"levelo://app?vid=1d8f70bc-729b-4a51-80a5-70c6b0c92a5c"},"vehicle_type_id":"4","last_reported":1686536386,"current_range_meters":21200,"station_id":"ce4bgvp2rcd13ifvqcu0","pricing_plan_id":"free"},{"bike_id":"0fc64a7f-4d12-4263-a9c0-f55ff398d5d2","system_id":"levelo_inurba_marseille","lat":43.309038,"lon":5.396546,"is_reserved":false,"is_disabled":false,"rental_uris":{"android":"levelo://app?vid=0fc64a7f-4d12-4263-a9c0-f55ff398d5d2","ios":"levelo://app?vid=0fc64a7f-4d12-4263-a9c0-f55ff398d5d2"},"vehicle_type_id":"4","last_reported":1686536386,"current_range_meters":25200,"station_id":"ce4bh012rcd13ifvqcv0","pricing_plan_id":"free"},{"bike_id":"e987764b-a620-4b25-a740-02dbead47660","system_id":"levelo_inurba_marseille","lat":43.31329,"lon":5.39701,"is_reserved":false,"is_disabled":false,"rental_uris":{"android":"levelo://app?vid=e987764b-a620-4b25-a740-02dbead47660","ios":"levelo://app?vid=e987764b-a620-4b25-a740-02dbead47660"},"vehicle_type_id":"4","last_reported":1686536386,"current_range_meters":11200,"station_id":"ce4bgvp2rcd13ifvqcu0","pricing_plan_id":"free"},{"bike_id":"ec5e0823-5eb0-43c0-9a3c-f5f95280afd0","system_id":"levelo_inurba_marseille","lat":43.309038,"lon":5.396546,"is_reserved":false,"is_disabled":false,"rental_uris":{"android":"levelo://app?vid=ec5e0823-5eb0-43c0-9a3c-f5f95280afd0","ios":"levelo://app?vid=ec5e0823-5eb0-43c0-9a3c-f5f95280afd0"},"vehicle_type_id":"4","last_reported":1686536386,"current_range_meters":0,"station_id":"ce4bh012rcd13ifvqcv0","pricing_plan_id":"free"},{"bike_id":"8624ef43-f8b9-4a47-b4aa-462550cd9414","system_id":"levelo_inurba_marseille","lat":43.309038,"lon":5.396546,"is_reserved":false,"is_disabled":false,"rental_uris":{"android":"levelo://app?vid=8624ef43-f8b9-4a47-b4aa-462550cd9414","ios":"levelo://app?vid=8624ef43-f8b9-4a47-b4aa-462550cd9414"},"vehicle_type_id":"4","last_reported":1686536386,"current_range_meters":30800,"station_id":"ce4bh012rcd13ifvqcv0","pricing_plan_id":"free"},{"bike_id":"c5c1243b-2c44-46cc-bc2d-e2b057f292e9","system_id":"levelo_inurba_marseille","lat":43.309038,"lon":5.396546,"is_reserved":false,"is_disabled":false,"rental_uris":{"android":"levelo://app?vid=c5c1243b-2c44-46cc-bc2d-e2b057f292e9","ios":"levelo://app?vid=c5c1243b-2c44-46cc-bc2d-e2b057f292e9"},"vehicle_type_id":"4","last_reported":1686536386,"current_range_meters":18400,"station_id":"ce4bh012rcd13ifvqcv0","pricing_plan_id":"free"},{"bike_id":"c0c2bfca-88b0-4526-94c5-1e6fd750741b","system_id":"levelo_inurba_marseille","lat":43.309038,"lon":5.396546,"is_reserved":false,"is_disabled":false,"rental_uris":{"android":"levelo://app?vid=c0c2bfca-88b0-4526-94c5-1e6fd750741b","ios":"levelo://app?vid=c0c2bfca-88b0-4526-94c5-1e6fd750741b"},"vehicle_type_id":"4","last_reported":1686536386,"current_range_meters":6800,"station_id":"ce4bh012rcd13ifvqcv0","pricing_plan_id":"free"},{"bike_id":"a2426796-ea4c-4707-9539-220d9b86d451","system_id":"levelo_inurba_marseille","lat":43.309038,"lon":5.396546,"is_reserved":false,"is_disabled":false,"rental_uris":{"android":"levelo://app?vid=a2426796-ea4c-4707-9539-220d9b86d451","ios":"levelo://app?vid=a2426796-ea4c-4707-9539-220d9b86d451"},"vehicle_type_id":"4","last_reported":1686536386,"current_range_meters":22400,"station_id":"ce4bh012rcd13ifvqcv0","pricing_plan_id":"free"},{"bike_id":"1c395332-c165-46ed-80a7-244a2b5be450","system_id":"levelo_inurba_marseille","lat":43.309038,"lon":5.396546,"is_reserved":false,"is_disabled":false,"rental_uris":{"android":"levelo://app?vid=1c395332-c165-46ed-80a7-244a2b5be450","ios":"levelo://app?vid=1c395332-c165-46ed-80a7-244a2b5be450"},"vehicle_type_id":"4","last_reported":1686536386,"current_range_meters":26800,"station_id":"ce4bh012rcd13ifvqcv0","pricing_plan_id":"free"},{"bike_id":"ffd61cfd-9851-4840-9644-ba75780c0de6","system_id":"levelo_inurba_marseille","lat":43.31331,"lon":5.39706,"is_reserved":false,"is_disabled":false,"rental_uris":{"android":"levelo://app?vid=ffd61cfd-9851-4840-9644-ba75780c0de6","ios":"levelo://app?vid=ffd61cfd-9851-4840-9644-ba75780c0de6"},"vehicle_type_id":"4","last_reported":1686536386,"current_range_meters":26000,"station_id":"ce4bgvp2rcd13ifvqcu0","pricing_plan_id":"free"},{"bike_id":"8679b7bb-512a-4ac3-ba9d-71e0aef027c2","system_id":"levelo_inurba_marseille","lat":43.29529,"lon":5.385581,"is_reserved":false,"is_disabled":false,"rental_uris":{"android":"levelo://app?vid=8679b7bb-512a-4ac3-ba9d-71e0aef027c2","ios":"levelo://app?vid=8679b7bb-512a-4ac3-ba9d-71e0aef027c2"},"vehicle_type_id":"4","last_reported":1686536386,"current_range_meters":30400,"station_id":"ce4bgih2rcd13ifvqba0","pricing_plan_id":"free"},{"bike_id":"894f2fc9-5a96-4349-899b-cc3d1effb72d","system_id":"levelo_inurba_marseille","lat":43.30199,"lon":5.39451,"is_reserved":false,"is_disabled":false,"rental_uris":{"android":"levelo://app?vid=894f2fc9-5a96-4349-899b-cc3d1effb72d","ios":"levelo://app?vid=894f2fc9-5a96-4349-899b-cc3d1effb72d"},"vehicle_type_id":"4","last_reported":1686536386,"current_range_meters":26800,"station_id":"ce4bh0p2rcd13ifvqd70","pricing_plan_id":"free"},{"bike_id":"36537fb5-a404-4f00-80aa-0a74aced68e7","system_id":"levelo_inurba_marseille","lat":43.302008,"lon":5.394694,"is_reserved":false,"is_disabled":false,"rental_uris":{"android":"levelo://app?vid=36537fb5-a404-4f00-80aa-0a74aced68e7","ios":"levelo://app?vid=36537fb5-a404-4f00-80aa-0a74aced68e7"},"vehicle_type_id":"4","last_reported":1686536386,"current_range_meters":25600,"station_id":"ce4bh0p2rcd13ifvqd70","pricing_plan_id":"free"},{"bike_id":"06d65d13-0a34-46a7-b676-bf6293616d7b","system_id":"levelo_inurba_marseille","lat":43.302008,"lon":5.394694,"is_reserved":false,"is_disabled":false,"rental_uris":{"android":"levelo://app?vid=06d65d13-0a34-46a7-b676-bf6293616d7b","ios":"levelo://app?vid=06d65d13-0a34-46a7-b676-bf6293616d7b"},"vehicle_type_id":"4","last_reported":1686536386,"current_range_meters":31200,"station_id":"ce4bh0p2rcd13ifvqd70","pricing_plan_id":"free"},{"bike_id":"b7d7edd7-f013-4390-a348-d04c488c3a05","system_id":"levelo_inurba_marseille","lat":43.290631,"lon":5.359244,"is_reserved":false,"is_disabled":false,"rental_uris":{"android":"levelo://app?vid=b7d7edd7-f013-4390-a348-d04c488c3a05","ios":"levelo://app?vid=b7d7edd7-f013-4390-a348-d04c488c3a05"},"vehicle_type_id":"4","last_reported":1686536386,"current_range_meters":29600,"station_id":"ce4bha92rcd13ifvqeg0","pricing_plan_id":"free"},{"bike_id":"f84fa678-bcb8-4e49-8892-94b88e98e69b","system_id":"levelo_inurba_marseille","lat":43.290327,"lon":5.375711,"is_reserved":false,"is_disabled":false,"rental_uris":{"android":"levelo://app?vid=f84fa678-bcb8-4e49-8892-94b88e98e69b","ios":"levelo://app?vid=f84fa678-bcb8-4e49-8892-94b88e98e69b"},"vehicle_type_id":"4","last_reported":1686536386,"current_range_meters":0,"station_id":"ce4bh692rcd13ifvqe90","pricing_plan_id":"free"},{"bike_id":"09cf85bf-ccb9-4e76-8459-4a03a62540a7","system_id":"levelo_inurba_marseille","lat":43.289184,"lon":5.366408,"is_reserved":false,"is_disabled":false,"rental_uris":{"android":"levelo://app?vid=09cf85bf-ccb9-4e76-8459-4a03a62540a7","ios":"levelo://app?vid=09cf85bf-ccb9-4e76-8459-4a03a62540a7"},"vehicle_type_id":"4","last_reported":1686536386,"current_range_meters":28800,"station_id":"ce4bhap2rcd13ifvqek0","pricing_plan_id":"free"},{"bike_id":"22f9ec1b-994b-48c7-9006-1c8fdd53431e","system_id":"levelo_inurba_marseille","lat":43.289184,"lon":5.366408,"is_reserved":false,"is_disabled":false,"rental_uris":{"android":"levelo://app?vid=22f9ec1b-994b-48c7-9006-1c8fdd53431e","ios":"levelo://app?vid=22f9ec1b-994b-48c7-9006-1c8fdd53431e"},"vehicle_type_id":"4","last_reported":1686536386,"current_range_meters":31600,"station_id":"ce4bhap2rcd13ifvqek0","pricing_plan_id":"free"},{"bike_id":"9692f3e4-f602-4784-8a32-5ebe41439108","system_id":"levelo_inurba_marseille","lat":43.289468,"lon":5.363719,"is_reserved":false,"is_disabled":false,"rental_uris":{"android":"levelo://app?vid=9692f3e4-f602-4784-8a32-5ebe41439108","ios":"levelo://app?vid=9692f3e4-f602-4784-8a32-5ebe41439108"},"vehicle_type_id":"4","last_reported":1686536386,"current_range_meters":31600,"station_id":"ce4bhc92rcd13ifvqetg","pricing_plan_id":"free"},{"bike_id":"752888ce-6995-44c0-85c2-592a62f66379","system_id":"levelo_inurba_marseille","lat":43.289468,"lon":5.363719,"is_reserved":false,"is_disabled":false,"rental_uris":{"android":"levelo://app?vid=752888ce-6995-44c0-85c2-592a62f66379","ios":"levelo://app?vid=752888ce-6995-44c0-85c2-592a62f66379"},"vehicle_type_id":"4","last_reported":1686536386,"current_range_meters":31600,"station_id":"ce4bhc92rcd13ifvqetg","pricing_plan_id":"free"},{"bike_id":"c9ed2382-d98c-4db1-a85f-1e095076b8a6","system_id":"levelo_inurba_marseille","lat":43.294032,"lon":5.386342,"is_reserved":false,"is_disabled":false,"rental_uris":{"android":"levelo://app?vid=c9ed2382-d98c-4db1-a85f-1e095076b8a6","ios":"levelo://app?vid=c9ed2382-d98c-4db1-a85f-1e095076b8a6"},"vehicle_type_id":"4","last_reported":1686536386,"current_range_meters":17600,"station_id":"","pricing_plan_id":"free"},{"bike_id":"eddf0473-4b52-43f0-a471-10969edfb37e","system_id":"levelo_inurba_marseille","lat":43.289468,"lon":5.363719,"is_reserved":false,"is_disabled":false,"rental_uris":{"android":"levelo://app?vid=eddf0473-4b52-43f0-a471-10969edfb37e","ios":"levelo://app?vid=eddf0473-4b52-43f0-a471-10969edfb37e"},"vehicle_type_id":"4","last_reported":1686536386,"current_range_meters":30400,"station_id":"ce4bhc92rcd13ifvqetg","pricing_plan_id":"free"},{"bike_id":"ab986923-5f6c-4c88-acca-4c71d1886d47","system_id":"levelo_inurba_marseille","lat":43.289184,"lon":5.366408,"is_reserved":false,"is_disabled":false,"rental_uris":{"android":"levelo://app?vid=ab986923-5f6c-4c88-acca-4c71d1886d47","ios":"levelo://app?vid=ab986923-5f6c-4c88-acca-4c71d1886d47"},"vehicle_type_id":"4","last_reported":1686536386,"current_range_meters":6400,"station_id":"ce4bhap2rcd13ifvqek0","pricing_plan_id":"free"},{"bike_id":"286009f0-cd0c-4c26-821d-a389ec25962b","system_id":"levelo_inurba_marseille","lat":43.289468,"lon":5.363719,"is_reserved":false,"is_disabled":false,"rental_uris":{"android":"levelo://app?vid=286009f0-cd0c-4c26-821d-a389ec25962b","ios":"levelo://app?vid=286009f0-cd0c-4c26-821d-a389ec25962b"},"vehicle_type_id":"4","last_reported":1686536386,"current_range_meters":29600,"station_id":"ce4bhc92rcd13ifvqetg","pricing_plan_id":"free"},{"bike_id":"fa0e872e-c495-466d-8fdf-4907ac0c68fd","system_id":"levelo_inurba_marseille","lat":43.289468,"lon":5.363719,"is_reserved":false,"is_disabled":false,"rental_uris":{"android":"levelo://app?vid=fa0e872e-c495-466d-8fdf-4907ac0c68fd","ios":"levelo://app?vid=fa0e872e-c495-466d-8fdf-4907ac0c68fd"},"vehicle_type_id":"4","last_reported":1686536386,"current_range_meters":28800,"station_id":"ce4bhc92rcd13ifvqetg","pricing_plan_id":"free"},{"bike_id":"3759ef98-8698-4c69-8399-645be5be3b76","system_id":"levelo_inurba_marseille","lat":43.289468,"lon":5.363719,"is_reserved":false,"is_disabled":false,"rental_uris":{"android":"levelo://app?vid=3759ef98-8698-4c69-8399-645be5be3b76","ios":"levelo://app?vid=3759ef98-8698-4c69-8399-645be5be3b76"},"vehicle_type_id":"4","last_reported":1686536386,"current_range_meters":31600,"station_id":"ce4bhc92rcd13ifvqetg","pricing_plan_id":"free"},{"bike_id":"eda47157-03ce-47cf-92d6-601bbdee36f5","system_id":"levelo_inurba_marseille","lat":43.292644,"lon":5.384257,"is_reserved":false,"is_disabled":false,"rental_uris":{"android":"levelo://app?vid=eda47157-03ce-47cf-92d6-601bbdee36f5","ios":"levelo://app?vid=eda47157-03ce-47cf-92d6-601bbdee36f5"},"vehicle_type_id":"4","last_reported":1686536386,"current_range_meters":28400,"station_id":"ce4bh692rcd13ifvqea0","pricing_plan_id":"free"},{"bike_id":"2ef26e96-df7f-49af-ad86-443130d8c6f5","system_id":"levelo_inurba_marseille","lat":43.304296,"lon":5.397513,"is_reserved":false,"is_disabled":false,"rental_uris":{"android":"levelo://app?vid=2ef26e96-df7f-49af-ad86-443130d8c6f5","ios":"levelo://app?vid=2ef26e96-df7f-49af-ad86-443130d8c6f5"},"vehicle_type_id":"4","last_reported":1686536386,"current_range_meters":28000,"station_id":"ce4bh092rcd13ifvqd20","pricing_plan_id":"free"},{"bike_id":"cfd98eb6-b38a-444d-90c6-8ce286e7bb26","system_id":"levelo_inurba_marseille","lat":43.290995,"lon":5.381361,"is_reserved":false,"is_disabled":false,"rental_uris":{"android":"levelo://app?vid=cfd98eb6-b38a-444d-90c6-8ce286e7bb26","ios":"levelo://app?vid=cfd98eb6-b38a-444d-90c6-8ce286e7bb26"},"vehicle_type_id":"4","last_reported":1686536386,"current_range_meters":23200,"station_id":"ce4bh512rcd13ifvqe2g","pricing_plan_id":"free"},{"bike_id":"e877c975-006f-4c52-8766-3a6459d0e7a7","system_id":"levelo_inurba_marseille","lat":43.297814,"lon":5.393513,"is_reserved":false,"is_disabled":false,"rental_uris":{"android":"levelo://app?vid=e877c975-006f-4c52-8766-3a6459d0e7a7","ios":"levelo://app?vid=e877c975-006f-4c52-8766-3a6459d0e7a7"},"vehicle_type_id":"4","last_reported":1686536386,"current_range_meters":31200,"station_id":"chh1huq6cuj3fo74tm60","pricing_plan_id":"free"},{"bike_id":"d77fbbb4-e939-47e4-a2af-1ab9b58cd302","system_id":"levelo_inurba_marseille","lat":43.295169,"lon":5.390426,"is_reserved":false,"is_disabled":false,"rental_uris":{"android":"levelo://app?vid=d77fbbb4-e939-47e4-a2af-1ab9b58cd302","ios":"levelo://app?vid=d77fbbb4-e939-47e4-a2af-1ab9b58cd302"},"vehicle_type_id":"4","last_reported":1686536386,"current_range_meters":29600,"station_id":"ce4bh3p2rcd13ifvqdp0","pricing_plan_id":"free"},{"bike_id":"32593779-b513-41bf-8125-db7116725c28","system_id":"levelo_inurba_marseille","lat":43.295169,"lon":5.390426,"is_reserved":false,"is_disabled":false,"rental_uris":{"android":"levelo://app?vid=32593779-b513-41bf-8125-db7116725c28","ios":"levelo://app?vid=32593779-b513-41bf-8125-db7116725c28"},"vehicle_type_id":"4","last_reported":1686536386,"current_range_meters":26000,"station_id":"ce4bh3p2rcd13ifvqdp0","pricing_plan_id":"free"},{"bike_id":"9d38a950-d414-4ffd-bb8a-63beb6da4ef9","system_id":"levelo_inurba_marseille","lat":43.295169,"lon":5.390426,"is_reserved":false,"is_disabled":false,"rental_uris":{"android":"levelo://app?vid=9d38a950-d414-4ffd-bb8a-63beb6da4ef9","ios":"levelo://app?vid=9d38a950-d414-4ffd-bb8a-63beb6da4ef9"},"vehicle_type_id":"4","last_reported":1686536386,"current_range_meters":31200,"station_id":"ce4bh3p2rcd13ifvqdp0","pricing_plan_id":"free"},{"bike_id":"a1765e51-35f0-4b83-9bbd-5a49f57dc14e","system_id":"levelo_inurba_marseille","lat":43.295169,"lon":5.390426,"is_reserved":false,"is_disabled":false,"rental_uris":{"android":"levelo://app?vid=a1765e51-35f0-4b83-9bbd-5a49f57dc14e","ios":"levelo://app?vid=a1765e51-35f0-4b83-9bbd-5a49f57dc14e"},"vehicle_type_id":"4","last_reported":1686536386,"current_range_meters":31600,"station_id":"ce4bh3p2rcd13ifvqdp0","pricing_plan_id":"free"},{"bike_id":"ff4bc481-a7e4-4b0d-a7b3-f4df358c54b7","system_id":"levelo_inurba_marseille","lat":43.295169,"lon":5.390426,"is_reserved":false,"is_disabled":false,"rental_uris":{"android":"levelo://app?vid=ff4bc481-a7e4-4b0d-a7b3-f4df358c54b7","ios":"levelo://app?vid=ff4bc481-a7e4-4b0d-a7b3-f4df358c54b7"},"vehicle_type_id":"4","last_reported":1686536386,"current_range_meters":29200,"station_id":"ce4bh3p2rcd13ifvqdp0","pricing_plan_id":"free"},{"bike_id":"8056a26b-26f1-4612-9b7b-d784042774c7","system_id":"levelo_inurba_marseille","lat":43.28959,"lon":5.37837,"is_reserved":false,"is_disabled":false,"rental_uris":{"android":"levelo://app?vid=8056a26b-26f1-4612-9b7b-d784042774c7","ios":"levelo://app?vid=8056a26b-26f1-4612-9b7b-d784042774c7"},"vehicle_type_id":"4","last_reported":1686536386,"current_range_meters":0,"station_id":"ce4bh9p2rcd13ifvqed0","pricing_plan_id":"free"},{"bike_id":"4bf3107e-b36b-4aa9-8ab1-f436cf31d24a","system_id":"levelo_inurba_marseille","lat":43.28856,"lon":5.358371,"is_reserved":false,"is_disabled":false,"rental_uris":{"android":"levelo://app?vid=4bf3107e-b36b-4aa9-8ab1-f436cf31d24a","ios":"levelo://app?vid=4bf3107e-b36b-4aa9-8ab1-f436cf31d24a"},"vehicle_type_id":"4","last_reported":1686536386,"current_range_meters":29600,"station_id":"ce4bhb12rcd13ifvqem0","pricing_plan_id":"free"},{"bike_id":"18ff8142-abed-4c34-bcd2-e1174687abe6","system_id":"levelo_inurba_marseille","lat":43.28856,"lon":5.358371,"is_reserved":false,"is_disabled":false,"rental_uris":{"android":"levelo://app?vid=18ff8142-abed-4c34-bcd2-e1174687abe6","ios":"levelo://app?vid=18ff8142-abed-4c34-bcd2-e1174687abe6"},"vehicle_type_id":"4","last_reported":1686536386,"current_range_meters":29600,"station_id":"ce4bhb12rcd13ifvqem0","pricing_plan_id":"free"},{"bike_id":"f2f1b969-4fa5-447d-b4ee-a03d738b9c73","system_id":"levelo_inurba_marseille","lat":43.28856,"lon":5.358371,"is_reserved":false,"is_disabled":false,"rental_uris":{"android":"levelo://app?vid=f2f1b969-4fa5-447d-b4ee-a03d738b9c73","ios":"levelo://app?vid=f2f1b969-4fa5-447d-b4ee-a03d738b9c73"},"vehicle_type_id":"4","last_reported":1686536386,"current_range_meters":31600,"station_id":"ce4bhb12rcd13ifvqem0","pricing_plan_id":"free"},{"bike_id":"95f42a37-bed6-4272-832f-97b2163f4d67","system_id":"levelo_inurba_marseille","lat":43.28856,"lon":5.358371,"is_reserved":false,"is_disabled":false,"rental_uris":{"android":"levelo://app?vid=95f42a37-bed6-4272-832f-97b2163f4d67","ios":"levelo://app?vid=95f42a37-bed6-4272-832f-97b2163f4d67"},"vehicle_type_id":"4","last_reported":1686536386,"current_range_meters":29600,"station_id":"ce4bhb12rcd13ifvqem0","pricing_plan_id":"free"},{"bike_id":"61226208-50b8-400f-824b-f51381de7bb0","system_id":"levelo_inurba_marseille","lat":43.28856,"lon":5.358371,"is_reserved":false,"is_disabled":false,"rental_uris":{"android":"levelo://app?vid=61226208-50b8-400f-824b-f51381de7bb0","ios":"levelo://app?vid=61226208-50b8-400f-824b-f51381de7bb0"},"vehicle_type_id":"4","last_reported":1686536386,"current_range_meters":30000,"station_id":"ce4bhb12rcd13ifvqem0","pricing_plan_id":"free"},{"bike_id":"325662ae-f1ab-4bae-8e2e-d70aa4c546fc","system_id":"levelo_inurba_marseille","lat":43.28856,"lon":5.358371,"is_reserved":false,"is_disabled":false,"rental_uris":{"android":"levelo://app?vid=325662ae-f1ab-4bae-8e2e-d70aa4c546fc","ios":"levelo://app?vid=325662ae-f1ab-4bae-8e2e-d70aa4c546fc"},"vehicle_type_id":"4","last_reported":1686536386,"current_range_meters":24800,"station_id":"ce4bhb12rcd13ifvqem0","pricing_plan_id":"free"},{"bike_id":"7b92bb4e-c37f-408a-b8c5-8d9651549545","system_id":"levelo_inurba_marseille","lat":43.33739,"lon":5.37426,"is_reserved":false,"is_disabled":false,"rental_uris":{"android":"levelo://app?vid=7b92bb4e-c37f-408a-b8c5-8d9651549545","ios":"levelo://app?vid=7b92bb4e-c37f-408a-b8c5-8d9651549545"},"vehicle_type_id":"4","last_reported":1686536386,"current_range_meters":20400,"station_id":"","pricing_plan_id":"free"},{"bike_id":"e3ad1319-1301-4b25-ac78-88989b1fb0f6","system_id":"levelo_inurba_marseille","lat":43.309371,"lon":5.401449,"is_reserved":false,"is_disabled":false,"rental_uris":{"android":"levelo://app?vid=e3ad1319-1301-4b25-ac78-88989b1fb0f6","ios":"levelo://app?vid=e3ad1319-1301-4b25-ac78-88989b1fb0f6"},"vehicle_type_id":"4","last_reported":1686536386,"current_range_meters":23600,"station_id":"ce4bgvp2rcd13ifvqct0","pricing_plan_id":"free"},{"bike_id":"a95bd8db-aa61-4e09-8501-7825ea0f3a86","system_id":"levelo_inurba_marseille","lat":43.309371,"lon":5.401449,"is_reserved":false,"is_disabled":false,"rental_uris":{"android":"levelo://app?vid=a95bd8db-aa61-4e09-8501-7825ea0f3a86","ios":"levelo://app?vid=a95bd8db-aa61-4e09-8501-7825ea0f3a86"},"vehicle_type_id":"4","last_reported":1686536386,"current_range_meters":24400,"station_id":"ce4bgvp2rcd13ifvqct0","pricing_plan_id":"free"},{"bike_id":"5839f2c1-7e36-4dad-8357-bdc3de9aa136","system_id":"levelo_inurba_marseille","lat":43.30642,"lon":5.401031,"is_reserved":false,"is_disabled":false,"rental_uris":{"android":"levelo://app?vid=5839f2c1-7e36-4dad-8357-bdc3de9aa136","ios":"levelo://app?vid=5839f2c1-7e36-4dad-8357-bdc3de9aa136"},"vehicle_type_id":"4","last_reported":1686536386,"current_range_meters":24400,"station_id":"ce4bh112rcd13ifvqda0","pricing_plan_id":"free"},{"bike_id":"265c0905-166c-408b-8d33-95a8e86424e1","system_id":"levelo_inurba_marseille","lat":43.337582,"lon":5.374483,"is_reserved":false,"is_disabled":false,"rental_uris":{"android":"levelo://app?vid=265c0905-166c-408b-8d33-95a8e86424e1","ios":"levelo://app?vid=265c0905-166c-408b-8d33-95a8e86424e1"},"vehicle_type_id":"4","last_reported":1686536386,"current_range_meters":10400,"station_id":"","pricing_plan_id":"free"},{"bike_id":"dc03ba51-5d22-4ed9-b3ed-9499a80f6bd0","system_id":"levelo_inurba_marseille","lat":43.3376,"lon":5.37452,"is_reserved":false,"is_disabled":false,"rental_uris":{"android":"levelo://app?vid=dc03ba51-5d22-4ed9-b3ed-9499a80f6bd0","ios":"levelo://app?vid=dc03ba51-5d22-4ed9-b3ed-9499a80f6bd0"},"vehicle_type_id":"4","last_reported":1686536386,"current_range_meters":31200,"station_id":"","pricing_plan_id":"free"},{"bike_id":"f221bd9e-dec8-4a21-b50e-a2100fe7358d","system_id":"levelo_inurba_marseille","lat":43.30642,"lon":5.401031,"is_reserved":false,"is_disabled":false,"rental_uris":{"android":"levelo://app?vid=f221bd9e-dec8-4a21-b50e-a2100fe7358d","ios":"levelo://app?vid=f221bd9e-dec8-4a21-b50e-a2100fe7358d"},"vehicle_type_id":"4","last_reported":1686536386,"current_range_meters":22800,"station_id":"ce4bh112rcd13ifvqda0","pricing_plan_id":"free"},{"bike_id":"fb041ec1-b611-46eb-9d8b-3229cfb3396a","system_id":"levelo_inurba_marseille","lat":43.33768,"lon":5.37459,"is_reserved":false,"is_disabled":false,"rental_uris":{"android":"levelo://app?vid=fb041ec1-b611-46eb-9d8b-3229cfb3396a","ios":"levelo://app?vid=fb041ec1-b611-46eb-9d8b-3229cfb3396a"},"vehicle_type_id":"4","last_reported":1686536386,"current_range_meters":17600,"station_id":"","pricing_plan_id":"free"},{"bike_id":"911e4f72-202f-4141-8d96-d45f405d801a","system_id":"levelo_inurba_marseille","lat":43.298681,"lon":5.397225,"is_reserved":false,"is_disabled":false,"rental_uris":{"android":"levelo://app?vid=911e4f72-202f-4141-8d96-d45f405d801a","ios":"levelo://app?vid=911e4f72-202f-4141-8d96-d45f405d801a"},"vehicle_type_id":"4","last_reported":1686536386,"current_range_meters":30000,"station_id":"ce4bh0h2rcd13ifvqd50","pricing_plan_id":"free"},{"bike_id":"d71fb954-4215-4045-a08d-82511da891c1","system_id":"levelo_inurba_marseille","lat":43.298681,"lon":5.397225,"is_reserved":false,"is_disabled":false,"rental_uris":{"android":"levelo://app?vid=d71fb954-4215-4045-a08d-82511da891c1","ios":"levelo://app?vid=d71fb954-4215-4045-a08d-82511da891c1"},"vehicle_type_id":"4","last_reported":1686536386,"current_range_meters":31600,"station_id":"ce4bh0h2rcd13ifvqd50","pricing_plan_id":"free"},{"bike_id":"196f0f7c-1658-4549-876a-8972e262512c","system_id":"levelo_inurba_marseille","lat":43.298681,"lon":5.397225,"is_reserved":false,"is_disabled":false,"rental_uris":{"android":"levelo://app?vid=196f0f7c-1658-4549-876a-8972e262512c","ios":"levelo://app?vid=196f0f7c-1658-4549-876a-8972e262512c"},"vehicle_type_id":"4","last_reported":1686536386,"current_range_meters":28000,"station_id":"ce4bh0h2rcd13ifvqd50","pricing_plan_id":"free"},{"bike_id":"f23087f2-af1c-4684-b4e5-1ed856e5fff5","system_id":"levelo_inurba_marseille","lat":43.286593,"lon":5.363346,"is_reserved":false,"is_disabled":false,"rental_uris":{"android":"levelo://app?vid=f23087f2-af1c-4684-b4e5-1ed856e5fff5","ios":"levelo://app?vid=f23087f2-af1c-4684-b4e5-1ed856e5fff5"},"vehicle_type_id":"4","last_reported":1686536386,"current_range_meters":17600,"station_id":"ce4bhah2rcd13ifvqej0","pricing_plan_id":"free"},{"bike_id":"e3705edb-eadc-470d-9ddd-cabeadb6b13f","system_id":"levelo_inurba_marseille","lat":43.286591,"lon":5.363346,"is_reserved":false,"is_disabled":false,"rental_uris":{"android":"levelo://app?vid=e3705edb-eadc-470d-9ddd-cabeadb6b13f","ios":"levelo://app?vid=e3705edb-eadc-470d-9ddd-cabeadb6b13f"},"vehicle_type_id":"4","last_reported":1686536386,"current_range_meters":28800,"station_id":"ce4bhah2rcd13ifvqej0","pricing_plan_id":"free"},{"bike_id":"b946f61a-496e-415e-8e50-898e0391452a","system_id":"levelo_inurba_marseille","lat":43.286591,"lon":5.363346,"is_reserved":false,"is_disabled":false,"rental_uris":{"android":"levelo://app?vid=b946f61a-496e-415e-8e50-898e0391452a","ios":"levelo://app?vid=b946f61a-496e-415e-8e50-898e0391452a"},"vehicle_type_id":"4","last_reported":1686536386,"current_range_meters":31600,"station_id":"ce4bhah2rcd13ifvqej0","pricing_plan_id":"free"},{"bike_id":"0117cb92-da03-4422-8048-c1a94fb29d5a","system_id":"levelo_inurba_marseille","lat":43.286591,"lon":5.363346,"is_reserved":false,"is_disabled":false,"rental_uris":{"android":"levelo://app?vid=0117cb92-da03-4422-8048-c1a94fb29d5a","ios":"levelo://app?vid=0117cb92-da03-4422-8048-c1a94fb29d5a"},"vehicle_type_id":"4","last_reported":1686536386,"current_range_meters":31600,"station_id":"ce4bhah2rcd13ifvqej0","pricing_plan_id":"free"},{"bike_id":"32b3d98a-6005-4764-bc3d-c7d8f33e2219","system_id":"levelo_inurba_marseille","lat":43.286591,"lon":5.363346,"is_reserved":false,"is_disabled":false,"rental_uris":{"android":"levelo://app?vid=32b3d98a-6005-4764-bc3d-c7d8f33e2219","ios":"levelo://app?vid=32b3d98a-6005-4764-bc3d-c7d8f33e2219"},"vehicle_type_id":"4","last_reported":1686536386,"current_range_meters":0,"station_id":"ce4bhah2rcd13ifvqej0","pricing_plan_id":"free"},{"bike_id":"0822e6cf-0c7f-46ce-b207-f3cd6d3dc93e","system_id":"levelo_inurba_marseille","lat":43.286593,"lon":5.363346,"is_reserved":false,"is_disabled":false,"rental_uris":{"android":"levelo://app?vid=0822e6cf-0c7f-46ce-b207-f3cd6d3dc93e","ios":"levelo://app?vid=0822e6cf-0c7f-46ce-b207-f3cd6d3dc93e"},"vehicle_type_id":"4","last_reported":1686536386,"current_range_meters":19600,"station_id":"ce4bhah2rcd13ifvqej0","pricing_plan_id":"free"},{"bike_id":"38997c24-6544-495c-a8e8-c803c4eb0275","system_id":"levelo_inurba_marseille","lat":43.286591,"lon":5.363346,"is_reserved":false,"is_disabled":false,"rental_uris":{"android":"levelo://app?vid=38997c24-6544-495c-a8e8-c803c4eb0275","ios":"levelo://app?vid=38997c24-6544-495c-a8e8-c803c4eb0275"},"vehicle_type_id":"4","last_reported":1686536386,"current_range_meters":31600,"station_id":"ce4bhah2rcd13ifvqej0","pricing_plan_id":"free"},{"bike_id":"2a1ff51e-63df-4259-941a-2e54da31b77d","system_id":"levelo_inurba_marseille","lat":43.286593,"lon":5.363346,"is_reserved":false,"is_disabled":false,"rental_uris":{"android":"levelo://app?vid=2a1ff51e-63df-4259-941a-2e54da31b77d","ios":"levelo://app?vid=2a1ff51e-63df-4259-941a-2e54da31b77d"},"vehicle_type_id":"4","last_reported":1686536386,"current_range_meters":18800,"station_id":"ce4bhah2rcd13ifvqej0","pricing_plan_id":"free"},{"bike_id":"e1bd7675-6035-41a4-858b-46d0140259b5","system_id":"levelo_inurba_marseille","lat":43.298681,"lon":5.397225,"is_reserved":false,"is_disabled":false,"rental_uris":{"android":"levelo://app?vid=e1bd7675-6035-41a4-858b-46d0140259b5","ios":"levelo://app?vid=e1bd7675-6035-41a4-858b-46d0140259b5"},"vehicle_type_id":"4","last_reported":1686536386,"current_range_meters":22800,"station_id":"ce4bh0h2rcd13ifvqd50","pricing_plan_id":"free"},{"bike_id":"beaec097-b72d-453a-9fdf-5554777042c4","system_id":"levelo_inurba_marseille","lat":43.298681,"lon":5.397225,"is_reserved":false,"is_disabled":false,"rental_uris":{"android":"levelo://app?vid=beaec097-b72d-453a-9fdf-5554777042c4","ios":"levelo://app?vid=beaec097-b72d-453a-9fdf-5554777042c4"},"vehicle_type_id":"4","last_reported":1686536386,"current_range_meters":31600,"station_id":"ce4bh0h2rcd13ifvqd50","pricing_plan_id":"free"},{"bike_id":"8cbf3ba5-fca2-4799-a69a-212af1120239","system_id":"levelo_inurba_marseille","lat":43.29518,"lon":5.39396,"is_reserved":false,"is_disabled":false,"rental_uris":{"android":"levelo://app?vid=8cbf3ba5-fca2-4799-a69a-212af1120239","ios":"levelo://app?vid=8cbf3ba5-fca2-4799-a69a-212af1120239"},"vehicle_type_id":"4","last_reported":1686536386,"current_range_meters":26800,"station_id":"ce4bh292rcd13ifvqdf0","pricing_plan_id":"free"},{"bike_id":"ba14619a-4444-4984-88fb-41a94bb769d2","system_id":"levelo_inurba_marseille","lat":43.295196,"lon":5.39397,"is_reserved":false,"is_disabled":false,"rental_uris":{"android":"levelo://app?vid=ba14619a-4444-4984-88fb-41a94bb769d2","ios":"levelo://app?vid=ba14619a-4444-4984-88fb-41a94bb769d2"},"vehicle_type_id":"4","last_reported":1686536386,"current_range_meters":30400,"station_id":"ce4bh292rcd13ifvqdf0","pricing_plan_id":"free"},{"bike_id":"cee6a2b6-2bdb-403c-afa4-51f4988d76ac","system_id":"levelo_inurba_marseille","lat":43.298681,"lon":5.397225,"is_reserved":false,"is_disabled":false,"rental_uris":{"android":"levelo://app?vid=cee6a2b6-2bdb-403c-afa4-51f4988d76ac","ios":"levelo://app?vid=cee6a2b6-2bdb-403c-afa4-51f4988d76ac"},"vehicle_type_id":"4","last_reported":1686536386,"current_range_meters":30000,"station_id":"ce4bh0h2rcd13ifvqd50","pricing_plan_id":"free"},{"bike_id":"57a2849c-f847-4a82-aba5-7b39b1202348","system_id":"levelo_inurba_marseille","lat":43.295196,"lon":5.39397,"is_reserved":false,"is_disabled":false,"rental_uris":{"android":"levelo://app?vid=57a2849c-f847-4a82-aba5-7b39b1202348","ios":"levelo://app?vid=57a2849c-f847-4a82-aba5-7b39b1202348"},"vehicle_type_id":"4","last_reported":1686536386,"current_range_meters":24400,"station_id":"ce4bh292rcd13ifvqdf0","pricing_plan_id":"free"},{"bike_id":"e72c255a-3e0d-461b-83ac-3a433a8f846c","system_id":"levelo_inurba_marseille","lat":43.295196,"lon":5.39397,"is_reserved":false,"is_disabled":false,"rental_uris":{"android":"levelo://app?vid=e72c255a-3e0d-461b-83ac-3a433a8f846c","ios":"levelo://app?vid=e72c255a-3e0d-461b-83ac-3a433a8f846c"},"vehicle_type_id":"4","last_reported":1686536386,"current_range_meters":26000,"station_id":"ce4bh292rcd13ifvqdf0","pricing_plan_id":"free"},{"bike_id":"f05ce419-04a0-459a-8f90-fe65c72fa6b4","system_id":"levelo_inurba_marseille","lat":43.29511,"lon":5.39403,"is_reserved":false,"is_disabled":false,"rental_uris":{"android":"levelo://app?vid=f05ce419-04a0-459a-8f90-fe65c72fa6b4","ios":"levelo://app?vid=f05ce419-04a0-459a-8f90-fe65c72fa6b4"},"vehicle_type_id":"4","last_reported":1686536386,"current_range_meters":30000,"station_id":"ce4bh292rcd13ifvqdf0","pricing_plan_id":"free"},{"bike_id":"622ba544-b47b-4158-ae05-fa04c8dc0d6b","system_id":"levelo_inurba_marseille","lat":43.295194,"lon":5.39397,"is_reserved":false,"is_disabled":false,"rental_uris":{"android":"levelo://app?vid=622ba544-b47b-4158-ae05-fa04c8dc0d6b","ios":"levelo://app?vid=622ba544-b47b-4158-ae05-fa04c8dc0d6b"},"vehicle_type_id":"4","last_reported":1686536386,"current_range_meters":23600,"station_id":"ce4bh292rcd13ifvqdf0","pricing_plan_id":"free"},{"bike_id":"3b375c5e-84e0-4a61-b254-ab219ebe5ae0","system_id":"levelo_inurba_marseille","lat":43.30257,"lon":5.40055,"is_reserved":false,"is_disabled":false,"rental_uris":{"android":"levelo://app?vid=3b375c5e-84e0-4a61-b254-ab219ebe5ae0","ios":"levelo://app?vid=3b375c5e-84e0-4a61-b254-ab219ebe5ae0"},"vehicle_type_id":"4","last_reported":1686536386,"current_range_meters":25600,"station_id":"ce4bgvh2rcd13ifvqcs0","pricing_plan_id":"free"},{"bike_id":"1b0cccc0-f394-4bf7-b788-019fb1a658d5","system_id":"levelo_inurba_marseille","lat":43.30238,"lon":5.40046,"is_reserved":false,"is_disabled":false,"rental_uris":{"android":"levelo://app?vid=1b0cccc0-f394-4bf7-b788-019fb1a658d5","ios":"levelo://app?vid=1b0cccc0-f394-4bf7-b788-019fb1a658d5"},"vehicle_type_id":"4","last_reported":1686536386,"current_range_meters":31200,"station_id":"","pricing_plan_id":"free"},{"bike_id":"ec18723a-3bf3-4e8d-9647-e206f6766b97","system_id":"levelo_inurba_marseille","lat":43.290345,"lon":5.38646,"is_reserved":false,"is_disabled":false,"rental_uris":{"android":"levelo://app?vid=ec18723a-3bf3-4e8d-9647-e206f6766b97","ios":"levelo://app?vid=ec18723a-3bf3-4e8d-9647-e206f6766b97"},"vehicle_type_id":"4","last_reported":1686536386,"current_range_meters":31600,"station_id":"ce4bh4p2rcd13ifvqe0g","pricing_plan_id":"free"},{"bike_id":"04c84d5c-1206-4177-bbfd-6613d95989b1","system_id":"levelo_inurba_marseille","lat":43.295196,"lon":5.39397,"is_reserved":false,"is_disabled":false,"rental_uris":{"android":"levelo://app?vid=04c84d5c-1206-4177-bbfd-6613d95989b1","ios":"levelo://app?vid=04c84d5c-1206-4177-bbfd-6613d95989b1"},"vehicle_type_id":"4","last_reported":1686536386,"current_range_meters":3200,"station_id":"ce4bh292rcd13ifvqdf0","pricing_plan_id":"free"},{"bike_id":"2da90a36-322f-40d6-83df-1e0c1dc97fc1","system_id":"levelo_inurba_marseille","lat":43.302759,"lon":5.400793,"is_reserved":false,"is_disabled":false,"rental_uris":{"android":"levelo://app?vid=2da90a36-322f-40d6-83df-1e0c1dc97fc1","ios":"levelo://app?vid=2da90a36-322f-40d6-83df-1e0c1dc97fc1"},"vehicle_type_id":"4","last_reported":1686536386,"current_range_meters":29200,"station_id":"ce4bgvh2rcd13ifvqcs0","pricing_plan_id":"free"},{"bike_id":"69d46377-eae1-4684-a11a-1325b99d8430","system_id":"levelo_inurba_marseille","lat":43.30247,"lon":5.4006,"is_reserved":false,"is_disabled":false,"rental_uris":{"android":"levelo://app?vid=69d46377-eae1-4684-a11a-1325b99d8430","ios":"levelo://app?vid=69d46377-eae1-4684-a11a-1325b99d8430"},"vehicle_type_id":"4","last_reported":1686536386,"current_range_meters":31200,"station_id":"","pricing_plan_id":"free"},{"bike_id":"94dabbc2-ef3a-4b4d-b318-1086417d66fe","system_id":"levelo_inurba_marseille","lat":43.30249,"lon":5.40062,"is_reserved":false,"is_disabled":false,"rental_uris":{"android":"levelo://app?vid=94dabbc2-ef3a-4b4d-b318-1086417d66fe","ios":"levelo://app?vid=94dabbc2-ef3a-4b4d-b318-1086417d66fe"},"vehicle_type_id":"4","last_reported":1686536386,"current_range_meters":24800,"station_id":"","pricing_plan_id":"free"},{"bike_id":"d6fed1e4-c402-4a80-a991-623f525247ec","system_id":"levelo_inurba_marseille","lat":43.290345,"lon":5.38646,"is_reserved":false,"is_disabled":false,"rental_uris":{"android":"levelo://app?vid=d6fed1e4-c402-4a80-a991-623f525247ec","ios":"levelo://app?vid=d6fed1e4-c402-4a80-a991-623f525247ec"},"vehicle_type_id":"4","last_reported":1686536386,"current_range_meters":30400,"station_id":"ce4bh4p2rcd13ifvqe0g","pricing_plan_id":"free"},{"bike_id":"e8eb823b-4b5a-4cb7-9e9d-f199167b2fc0","system_id":"levelo_inurba_marseille","lat":43.290345,"lon":5.38646,"is_reserved":false,"is_disabled":false,"rental_uris":{"android":"levelo://app?vid=e8eb823b-4b5a-4cb7-9e9d-f199167b2fc0","ios":"levelo://app?vid=e8eb823b-4b5a-4cb7-9e9d-f199167b2fc0"},"vehicle_type_id":"4","last_reported":1686536386,"current_range_meters":31600,"station_id":"ce4bh4p2rcd13ifvqe0g","pricing_plan_id":"free"},{"bike_id":"d0f27625-20de-443e-b951-94e2fc5c1508","system_id":"levelo_inurba_marseille","lat":43.290336,"lon":5.386425,"is_reserved":false,"is_disabled":false,"rental_uris":{"android":"levelo://app?vid=d0f27625-20de-443e-b951-94e2fc5c1508","ios":"levelo://app?vid=d0f27625-20de-443e-b951-94e2fc5c1508"},"vehicle_type_id":"4","last_reported":1686536386,"current_range_meters":23600,"station_id":"ce4bh4p2rcd13ifvqe0g","pricing_plan_id":"free"},{"bike_id":"321d5476-d79d-4a64-8243-6845b8bf765d","system_id":"levelo_inurba_marseille","lat":43.30246,"lon":5.40064,"is_reserved":false,"is_disabled":false,"rental_uris":{"android":"levelo://app?vid=321d5476-d79d-4a64-8243-6845b8bf765d","ios":"levelo://app?vid=321d5476-d79d-4a64-8243-6845b8bf765d"},"vehicle_type_id":"4","last_reported":1686536386,"current_range_meters":12800,"station_id":"ce4bgvh2rcd13ifvqcs0","pricing_plan_id":"free"},{"bike_id":"fd1637d2-7295-4e7d-aa3e-8d834fd6f4dd","system_id":"levelo_inurba_marseille","lat":43.30246,"lon":5.40065,"is_reserved":false,"is_disabled":false,"rental_uris":{"android":"levelo://app?vid=fd1637d2-7295-4e7d-aa3e-8d834fd6f4dd","ios":"levelo://app?vid=fd1637d2-7295-4e7d-aa3e-8d834fd6f4dd"},"vehicle_type_id":"4","last_reported":1686536386,"current_range_meters":31200,"station_id":"ce4bgvh2rcd13ifvqcs0","pricing_plan_id":"free"},{"bike_id":"ebb9f39e-a894-4764-a1bc-157dff7805ea","system_id":"levelo_inurba_marseille","lat":43.302759,"lon":5.400793,"is_reserved":false,"is_disabled":false,"rental_uris":{"android":"levelo://app?vid=ebb9f39e-a894-4764-a1bc-157dff7805ea","ios":"levelo://app?vid=ebb9f39e-a894-4764-a1bc-157dff7805ea"},"vehicle_type_id":"4","last_reported":1686536386,"current_range_meters":30800,"station_id":"ce4bgvh2rcd13ifvqcs0","pricing_plan_id":"free"},{"bike_id":"5f7ee111-d0d7-4c6b-b1f5-21bd7faefa50","system_id":"levelo_inurba_marseille","lat":43.286039,"lon":5.370681,"is_reserved":false,"is_disabled":false,"rental_uris":{"android":"levelo://app?vid=5f7ee111-d0d7-4c6b-b1f5-21bd7faefa50","ios":"levelo://app?vid=5f7ee111-d0d7-4c6b-b1f5-21bd7faefa50"},"vehicle_type_id":"4","last_reported":1686536386,"current_range_meters":16400,"station_id":"ce4bht12rcd13ifvqi60","pricing_plan_id":"free"},{"bike_id":"a0cc65f0-9002-4abe-9019-a3cda17b7779","system_id":"levelo_inurba_marseille","lat":43.286039,"lon":5.370681,"is_reserved":false,"is_disabled":false,"rental_uris":{"android":"levelo://app?vid=a0cc65f0-9002-4abe-9019-a3cda17b7779","ios":"levelo://app?vid=a0cc65f0-9002-4abe-9019-a3cda17b7779"},"vehicle_type_id":"4","last_reported":1686536386,"current_range_meters":31600,"station_id":"ce4bht12rcd13ifvqi60","pricing_plan_id":"free"},{"bike_id":"a574fcbd-1757-4422-93a0-104d0e941443","system_id":"levelo_inurba_marseille","lat":43.287185,"lon":5.379373,"is_reserved":false,"is_disabled":false,"rental_uris":{"android":"levelo://app?vid=a574fcbd-1757-4422-93a0-104d0e941443","ios":"levelo://app?vid=a574fcbd-1757-4422-93a0-104d0e941443"},"vehicle_type_id":"4","last_reported":1686536386,"current_range_meters":28400,"station_id":"ce4bh9p2rcd13ifvqec0","pricing_plan_id":"free"},{"bike_id":"7adba4a7-558d-4694-87b2-cfc6eb5ff71e","system_id":"levelo_inurba_marseille","lat":43.316517,"lon":5.404375,"is_reserved":false,"is_disabled":false,"rental_uris":{"android":"levelo://app?vid=7adba4a7-558d-4694-87b2-cfc6eb5ff71e","ios":"levelo://app?vid=7adba4a7-558d-4694-87b2-cfc6eb5ff71e"},"vehicle_type_id":"4","last_reported":1686536386,"current_range_meters":4800,"station_id":"ce4bh012rcd13ifvqd00","pricing_plan_id":"free"},{"bike_id":"eff298ea-3fe5-4d73-a93f-7384cf88b79d","system_id":"levelo_inurba_marseille","lat":43.316517,"lon":5.404375,"is_reserved":false,"is_disabled":false,"rental_uris":{"android":"levelo://app?vid=eff298ea-3fe5-4d73-a93f-7384cf88b79d","ios":"levelo://app?vid=eff298ea-3fe5-4d73-a93f-7384cf88b79d"},"vehicle_type_id":"4","last_reported":1686536386,"current_range_meters":27600,"station_id":"ce4bh012rcd13ifvqd00","pricing_plan_id":"free"},{"bike_id":"d3dcc0e1-e53d-45d5-8081-038b013c4a09","system_id":"levelo_inurba_marseille","lat":43.316517,"lon":5.404375,"is_reserved":false,"is_disabled":false,"rental_uris":{"android":"levelo://app?vid=d3dcc0e1-e53d-45d5-8081-038b013c4a09","ios":"levelo://app?vid=d3dcc0e1-e53d-45d5-8081-038b013c4a09"},"vehicle_type_id":"4","last_reported":1686536386,"current_range_meters":17600,"station_id":"ce4bh012rcd13ifvqd00","pricing_plan_id":"free"},{"bike_id":"da29ea43-fe0a-4ba3-bf9b-0ae1ed77235c","system_id":"levelo_inurba_marseille","lat":43.316517,"lon":5.404375,"is_reserved":false,"is_disabled":false,"rental_uris":{"android":"levelo://app?vid=da29ea43-fe0a-4ba3-bf9b-0ae1ed77235c","ios":"levelo://app?vid=da29ea43-fe0a-4ba3-bf9b-0ae1ed77235c"},"vehicle_type_id":"4","last_reported":1686536386,"current_range_meters":15200,"station_id":"ce4bh012rcd13ifvqd00","pricing_plan_id":"free"},{"bike_id":"063ecac0-9b1b-481e-9d17-de6dff892e6e","system_id":"levelo_inurba_marseille","lat":43.291994,"lon":5.392907,"is_reserved":false,"is_disabled":false,"rental_uris":{"android":"levelo://app?vid=063ecac0-9b1b-481e-9d17-de6dff892e6e","ios":"levelo://app?vid=063ecac0-9b1b-481e-9d17-de6dff892e6e"},"vehicle_type_id":"4","last_reported":1686536386,"current_range_meters":30400,"station_id":"ce4bh192rcd13ifvqdd0","pricing_plan_id":"free"},{"bike_id":"92034b9e-4af3-4ded-9442-7a3640101bcd","system_id":"levelo_inurba_marseille","lat":43.291994,"lon":5.392907,"is_reserved":false,"is_disabled":false,"rental_uris":{"android":"levelo://app?vid=92034b9e-4af3-4ded-9442-7a3640101bcd","ios":"levelo://app?vid=92034b9e-4af3-4ded-9442-7a3640101bcd"},"vehicle_type_id":"4","last_reported":1686536386,"current_range_meters":26400,"station_id":"ce4bh192rcd13ifvqdd0","pricing_plan_id":"free"},{"bike_id":"a722970c-540f-4d8f-b495-8171d0e6902b","system_id":"levelo_inurba_marseille","lat":43.291994,"lon":5.392907,"is_reserved":false,"is_disabled":false,"rental_uris":{"android":"levelo://app?vid=a722970c-540f-4d8f-b495-8171d0e6902b","ios":"levelo://app?vid=a722970c-540f-4d8f-b495-8171d0e6902b"},"vehicle_type_id":"4","last_reported":1686536386,"current_range_meters":28800,"station_id":"ce4bh192rcd13ifvqdd0","pricing_plan_id":"free"},{"bike_id":"5fef70ac-fec2-4de4-af00-27344f77db02","system_id":"levelo_inurba_marseille","lat":43.291994,"lon":5.392907,"is_reserved":false,"is_disabled":false,"rental_uris":{"android":"levelo://app?vid=5fef70ac-fec2-4de4-af00-27344f77db02","ios":"levelo://app?vid=5fef70ac-fec2-4de4-af00-27344f77db02"},"vehicle_type_id":"4","last_reported":1686536386,"current_range_meters":28400,"station_id":"ce4bh192rcd13ifvqdd0","pricing_plan_id":"free"},{"bike_id":"c9f07ace-c0a6-4e06-8f15-0d012c06f426","system_id":"levelo_inurba_marseille","lat":43.291994,"lon":5.392907,"is_reserved":false,"is_disabled":false,"rental_uris":{"android":"levelo://app?vid=c9f07ace-c0a6-4e06-8f15-0d012c06f426","ios":"levelo://app?vid=c9f07ace-c0a6-4e06-8f15-0d012c06f426"},"vehicle_type_id":"4","last_reported":1686536386,"current_range_meters":29600,"station_id":"ce4bh192rcd13ifvqdd0","pricing_plan_id":"free"},{"bike_id":"fdc3ce31-78de-4df8-b1e0-8eb11dd7809c","system_id":"levelo_inurba_marseille","lat":43.28464,"lon":5.35884,"is_reserved":false,"is_disabled":false,"rental_uris":{"android":"levelo://app?vid=fdc3ce31-78de-4df8-b1e0-8eb11dd7809c","ios":"levelo://app?vid=fdc3ce31-78de-4df8-b1e0-8eb11dd7809c"},"vehicle_type_id":"4","last_reported":1686536386,"current_range_meters":24000,"station_id":"ce4bhah2rcd13ifvqei0","pricing_plan_id":"free"},{"bike_id":"e79f235c-d111-46de-b9b1-d31aa12b8f8a","system_id":"levelo_inurba_marseille","lat":43.284534,"lon":5.358662,"is_reserved":false,"is_disabled":false,"rental_uris":{"android":"levelo://app?vid=e79f235c-d111-46de-b9b1-d31aa12b8f8a","ios":"levelo://app?vid=e79f235c-d111-46de-b9b1-d31aa12b8f8a"},"vehicle_type_id":"4","last_reported":1686536386,"current_range_meters":18800,"station_id":"ce4bhah2rcd13ifvqei0","pricing_plan_id":"free"},{"bike_id":"1b2912e9-bcb1-4ed6-a679-2d830383d5f3","system_id":"levelo_inurba_marseille","lat":43.284534,"lon":5.358662,"is_reserved":false,"is_disabled":false,"rental_uris":{"android":"levelo://app?vid=1b2912e9-bcb1-4ed6-a679-2d830383d5f3","ios":"levelo://app?vid=1b2912e9-bcb1-4ed6-a679-2d830383d5f3"},"vehicle_type_id":"4","last_reported":1686536386,"current_range_meters":3600,"station_id":"ce4bhah2rcd13ifvqei0","pricing_plan_id":"free"},{"bike_id":"73de8a19-36ed-4e80-a96b-f4da98e8ea11","system_id":"levelo_inurba_marseille","lat":43.284534,"lon":5.358662,"is_reserved":false,"is_disabled":false,"rental_uris":{"android":"levelo://app?vid=73de8a19-36ed-4e80-a96b-f4da98e8ea11","ios":"levelo://app?vid=73de8a19-36ed-4e80-a96b-f4da98e8ea11"},"vehicle_type_id":"4","last_reported":1686536386,"current_range_meters":31200,"station_id":"ce4bhah2rcd13ifvqei0","pricing_plan_id":"free"},{"bike_id":"ed415f97-b9c1-41e1-9702-54478e94155a","system_id":"levelo_inurba_marseille","lat":43.285856,"lon":5.350771,"is_reserved":false,"is_disabled":false,"rental_uris":{"android":"levelo://app?vid=ed415f97-b9c1-41e1-9702-54478e94155a","ios":"levelo://app?vid=ed415f97-b9c1-41e1-9702-54478e94155a"},"vehicle_type_id":"4","last_reported":1686536386,"current_range_meters":29200,"station_id":"ce4bhch2rcd13ifvqeug","pricing_plan_id":"free"},{"bike_id":"ec836736-d07b-4a15-987c-bbc5703eb19b","system_id":"levelo_inurba_marseille","lat":43.285856,"lon":5.350771,"is_reserved":false,"is_disabled":false,"rental_uris":{"android":"levelo://app?vid=ec836736-d07b-4a15-987c-bbc5703eb19b","ios":"levelo://app?vid=ec836736-d07b-4a15-987c-bbc5703eb19b"},"vehicle_type_id":"4","last_reported":1686536386,"current_range_meters":31200,"station_id":"ce4bhch2rcd13ifvqeug","pricing_plan_id":"free"},{"bike_id":"38a13962-5d35-4761-bf98-38f2cfe0cfd0","system_id":"levelo_inurba_marseille","lat":43.285856,"lon":5.350771,"is_reserved":false,"is_disabled":false,"rental_uris":{"android":"levelo://app?vid=38a13962-5d35-4761-bf98-38f2cfe0cfd0","ios":"levelo://app?vid=38a13962-5d35-4761-bf98-38f2cfe0cfd0"},"vehicle_type_id":"4","last_reported":1686536386,"current_range_meters":30400,"station_id":"ce4bhch2rcd13ifvqeug","pricing_plan_id":"free"},{"bike_id":"7e1ed17b-80bc-4679-acc1-1f5284d0a4f4","system_id":"levelo_inurba_marseille","lat":43.2842,"lon":5.37512,"is_reserved":false,"is_disabled":false,"rental_uris":{"android":"levelo://app?vid=7e1ed17b-80bc-4679-acc1-1f5284d0a4f4","ios":"levelo://app?vid=7e1ed17b-80bc-4679-acc1-1f5284d0a4f4"},"vehicle_type_id":"4","last_reported":1686536386,"current_range_meters":30800,"station_id":"","pricing_plan_id":"free"},{"bike_id":"b95f81e1-5592-4270-b090-6699a81784ec","system_id":"levelo_inurba_marseille","lat":43.2957,"lon":5.39974,"is_reserved":false,"is_disabled":false,"rental_uris":{"android":"levelo://app?vid=b95f81e1-5592-4270-b090-6699a81784ec","ios":"levelo://app?vid=b95f81e1-5592-4270-b090-6699a81784ec"},"vehicle_type_id":"4","last_reported":1686536386,"current_range_meters":6400,"station_id":"ce4bh312rcd13ifvqdj0","pricing_plan_id":"free"},{"bike_id":"0b89d82f-c3cd-41c8-885b-31bdcd9d1d0d","system_id":"levelo_inurba_marseille","lat":43.295713,"lon":5.399639,"is_reserved":false,"is_disabled":false,"rental_uris":{"android":"levelo://app?vid=0b89d82f-c3cd-41c8-885b-31bdcd9d1d0d","ios":"levelo://app?vid=0b89d82f-c3cd-41c8-885b-31bdcd9d1d0d"},"vehicle_type_id":"4","last_reported":1686536386,"current_range_meters":30000,"station_id":"ce4bh312rcd13ifvqdj0","pricing_plan_id":"free"},{"bike_id":"5893e170-f305-4319-a239-bd209ab7e36d","system_id":"levelo_inurba_marseille","lat":43.295713,"lon":5.399639,"is_reserved":false,"is_disabled":false,"rental_uris":{"android":"levelo://app?vid=5893e170-f305-4319-a239-bd209ab7e36d","ios":"levelo://app?vid=5893e170-f305-4319-a239-bd209ab7e36d"},"vehicle_type_id":"4","last_reported":1686536386,"current_range_meters":31600,"station_id":"ce4bh312rcd13ifvqdj0","pricing_plan_id":"free"},{"bike_id":"a01757e3-df67-4b12-9ed1-b716c2fa2a4c","system_id":"levelo_inurba_marseille","lat":43.296263,"lon":5.40601,"is_reserved":false,"is_disabled":false,"rental_uris":{"android":"levelo://app?vid=a01757e3-df67-4b12-9ed1-b716c2fa2a4c","ios":"levelo://app?vid=a01757e3-df67-4b12-9ed1-b716c2fa2a4c"},"vehicle_type_id":"4","last_reported":1686536386,"current_range_meters":18800,"station_id":"ce4bh0h2rcd13ifvqd60","pricing_plan_id":"free"},{"bike_id":"eb164eb0-ffe0-48dc-a063-5ce42829981b","system_id":"levelo_inurba_marseille","lat":43.28378,"lon":5.37527,"is_reserved":false,"is_disabled":false,"rental_uris":{"android":"levelo://app?vid=eb164eb0-ffe0-48dc-a063-5ce42829981b","ios":"levelo://app?vid=eb164eb0-ffe0-48dc-a063-5ce42829981b"},"vehicle_type_id":"4","last_reported":1686536386,"current_range_meters":20400,"station_id":"","pricing_plan_id":"free"},{"bike_id":"c3f83837-eecc-46c0-9a15-80a5cdbe31b5","system_id":"levelo_inurba_marseille","lat":43.286595,"lon":5.386795,"is_reserved":false,"is_disabled":false,"rental_uris":{"android":"levelo://app?vid=c3f83837-eecc-46c0-9a15-80a5cdbe31b5","ios":"levelo://app?vid=c3f83837-eecc-46c0-9a15-80a5cdbe31b5"},"vehicle_type_id":"4","last_reported":1686536386,"current_range_meters":25600,"station_id":"ce4bh492rcd13ifvqdug","pricing_plan_id":"free"},{"bike_id":"94783ff9-d63f-4314-a42f-617e764a1b17","system_id":"levelo_inurba_marseille","lat":43.28519,"lon":5.3504,"is_reserved":false,"is_disabled":false,"rental_uris":{"android":"levelo://app?vid=94783ff9-d63f-4314-a42f-617e764a1b17","ios":"levelo://app?vid=94783ff9-d63f-4314-a42f-617e764a1b17"},"vehicle_type_id":"4","last_reported":1686536386,"current_range_meters":7200,"station_id":"ce4bhbh2rcd13ifvqepg","pricing_plan_id":"free"},{"bike_id":"5d501cb1-669d-44db-8610-1e2383559f92","system_id":"levelo_inurba_marseille","lat":43.323464,"lon":5.406297,"is_reserved":false,"is_disabled":false,"rental_uris":{"android":"levelo://app?vid=5d501cb1-669d-44db-8610-1e2383559f92","ios":"levelo://app?vid=5d501cb1-669d-44db-8610-1e2383559f92"},"vehicle_type_id":"4","last_reported":1686536386,"current_range_meters":31600,"station_id":"ce4bhq92rcd13ifvqhjg","pricing_plan_id":"free"},{"bike_id":"ba019977-f266-49f9-b8c0-4ba8e8943bc1","system_id":"levelo_inurba_marseille","lat":43.323464,"lon":5.406297,"is_reserved":false,"is_disabled":false,"rental_uris":{"android":"levelo://app?vid=ba019977-f266-49f9-b8c0-4ba8e8943bc1","ios":"levelo://app?vid=ba019977-f266-49f9-b8c0-4ba8e8943bc1"},"vehicle_type_id":"4","last_reported":1686536386,"current_range_meters":31600,"station_id":"ce4bhq92rcd13ifvqhjg","pricing_plan_id":"free"},{"bike_id":"27534a1e-2306-4f0f-ae01-c0f1f95acd1f","system_id":"levelo_inurba_marseille","lat":43.323464,"lon":5.406297,"is_reserved":false,"is_disabled":false,"rental_uris":{"android":"levelo://app?vid=27534a1e-2306-4f0f-ae01-c0f1f95acd1f","ios":"levelo://app?vid=27534a1e-2306-4f0f-ae01-c0f1f95acd1f"},"vehicle_type_id":"4","last_reported":1686536386,"current_range_meters":30000,"station_id":"ce4bhq92rcd13ifvqhjg","pricing_plan_id":"free"},{"bike_id":"7d89e3b5-958d-47f6-80fa-adc2175a1ff9","system_id":"levelo_inurba_marseille","lat":43.323464,"lon":5.406297,"is_reserved":false,"is_disabled":false,"rental_uris":{"android":"levelo://app?vid=7d89e3b5-958d-47f6-80fa-adc2175a1ff9","ios":"levelo://app?vid=7d89e3b5-958d-47f6-80fa-adc2175a1ff9"},"vehicle_type_id":"4","last_reported":1686536386,"current_range_meters":31600,"station_id":"ce4bhq92rcd13ifvqhjg","pricing_plan_id":"free"},{"bike_id":"7ce54775-a13d-4bd6-b44d-c8db752878bb","system_id":"levelo_inurba_marseille","lat":43.323464,"lon":5.406297,"is_reserved":false,"is_disabled":false,"rental_uris":{"android":"levelo://app?vid=7ce54775-a13d-4bd6-b44d-c8db752878bb","ios":"levelo://app?vid=7ce54775-a13d-4bd6-b44d-c8db752878bb"},"vehicle_type_id":"4","last_reported":1686536386,"current_range_meters":30400,"station_id":"ce4bhq92rcd13ifvqhjg","pricing_plan_id":"free"},{"bike_id":"ce7d7d16-8e17-44ee-b931-cc7720d1709d","system_id":"levelo_inurba_marseille","lat":43.288501,"lon":5.393087,"is_reserved":false,"is_disabled":false,"rental_uris":{"android":"levelo://app?vid=ce7d7d16-8e17-44ee-b931-cc7720d1709d","ios":"levelo://app?vid=ce7d7d16-8e17-44ee-b931-cc7720d1709d"},"vehicle_type_id":"4","last_reported":1686536386,"current_range_meters":29200,"station_id":"ce4bh2p2rcd13ifvqdi0","pricing_plan_id":"free"},{"bike_id":"d2175c82-3625-4e77-bcb4-9232bbadefb5","system_id":"levelo_inurba_marseille","lat":43.288497,"lon":5.393089,"is_reserved":false,"is_disabled":false,"rental_uris":{"android":"levelo://app?vid=d2175c82-3625-4e77-bcb4-9232bbadefb5","ios":"levelo://app?vid=d2175c82-3625-4e77-bcb4-9232bbadefb5"},"vehicle_type_id":"4","last_reported":1686536386,"current_range_meters":29200,"station_id":"ce4bh2p2rcd13ifvqdi0","pricing_plan_id":"free"},{"bike_id":"53c1b286-daad-4a02-937a-5f113bdb8ed4","system_id":"levelo_inurba_marseille","lat":43.2894,"lon":5.39623,"is_reserved":false,"is_disabled":false,"rental_uris":{"android":"levelo://app?vid=53c1b286-daad-4a02-937a-5f113bdb8ed4","ios":"levelo://app?vid=53c1b286-daad-4a02-937a-5f113bdb8ed4"},"vehicle_type_id":"4","last_reported":1686536386,"current_range_meters":18400,"station_id":"ce4bh3h2rcd13ifvqdn0","pricing_plan_id":"free"},{"bike_id":"23f1916c-c279-4ac9-8afe-a6aa8ad20518","system_id":"levelo_inurba_marseille","lat":43.292724,"lon":5.401131,"is_reserved":false,"is_disabled":false,"rental_uris":{"android":"levelo://app?vid=23f1916c-c279-4ac9-8afe-a6aa8ad20518","ios":"levelo://app?vid=23f1916c-c279-4ac9-8afe-a6aa8ad20518"},"vehicle_type_id":"4","last_reported":1686536386,"current_range_meters":32000,"station_id":"ce4bh312rcd13ifvqdk0","pricing_plan_id":"free"},{"bike_id":"da47344a-e152-4477-a45a-400aab0f7a97","system_id":"levelo_inurba_marseille","lat":43.292724,"lon":5.401131,"is_reserved":false,"is_disabled":false,"rental_uris":{"android":"levelo://app?vid=da47344a-e152-4477-a45a-400aab0f7a97","ios":"levelo://app?vid=da47344a-e152-4477-a45a-400aab0f7a97"},"vehicle_type_id":"4","last_reported":1686536386,"current_range_meters":31600,"station_id":"ce4bh312rcd13ifvqdk0","pricing_plan_id":"free"},{"bike_id":"d726e740-6d55-42ca-a827-80aa271b2d7f","system_id":"levelo_inurba_marseille","lat":43.292724,"lon":5.401131,"is_reserved":false,"is_disabled":false,"rental_uris":{"android":"levelo://app?vid=d726e740-6d55-42ca-a827-80aa271b2d7f","ios":"levelo://app?vid=d726e740-6d55-42ca-a827-80aa271b2d7f"},"vehicle_type_id":"4","last_reported":1686536386,"current_range_meters":30800,"station_id":"ce4bh312rcd13ifvqdk0","pricing_plan_id":"free"},{"bike_id":"d67845e2-7248-4469-bba5-9b309eb0e87d","system_id":"levelo_inurba_marseille","lat":43.292724,"lon":5.401131,"is_reserved":false,"is_disabled":false,"rental_uris":{"android":"levelo://app?vid=d67845e2-7248-4469-bba5-9b309eb0e87d","ios":"levelo://app?vid=d67845e2-7248-4469-bba5-9b309eb0e87d"},"vehicle_type_id":"4","last_reported":1686536386,"current_range_meters":30400,"station_id":"ce4bh312rcd13ifvqdk0","pricing_plan_id":"free"},{"bike_id":"767cf9d4-02f4-410f-9c0b-7727d4062bda","system_id":"levelo_inurba_marseille","lat":43.292724,"lon":5.401131,"is_reserved":false,"is_disabled":false,"rental_uris":{"android":"levelo://app?vid=767cf9d4-02f4-410f-9c0b-7727d4062bda","ios":"levelo://app?vid=767cf9d4-02f4-410f-9c0b-7727d4062bda"},"vehicle_type_id":"4","last_reported":1686536386,"current_range_meters":31600,"station_id":"ce4bh312rcd13ifvqdk0","pricing_plan_id":"free"},{"bike_id":"dd6de90c-dcbc-4061-a37c-17b991d23ac5","system_id":"levelo_inurba_marseille","lat":43.292724,"lon":5.401131,"is_reserved":false,"is_disabled":false,"rental_uris":{"android":"levelo://app?vid=dd6de90c-dcbc-4061-a37c-17b991d23ac5","ios":"levelo://app?vid=dd6de90c-dcbc-4061-a37c-17b991d23ac5"},"vehicle_type_id":"4","last_reported":1686536386,"current_range_meters":6000,"station_id":"ce4bh312rcd13ifvqdk0","pricing_plan_id":"free"},{"bike_id":"21c36edc-8fe8-42f9-ba2f-f3e93f013406","system_id":"levelo_inurba_marseille","lat":43.283502,"lon":5.386471,"is_reserved":false,"is_disabled":false,"rental_uris":{"android":"levelo://app?vid=21c36edc-8fe8-42f9-ba2f-f3e93f013406","ios":"levelo://app?vid=21c36edc-8fe8-42f9-ba2f-f3e93f013406"},"vehicle_type_id":"4","last_reported":1686536386,"current_range_meters":30400,"station_id":"ce4bh492rcd13ifvqdvg","pricing_plan_id":"free"},{"bike_id":"a740ff53-c5fd-42ea-b42f-035b288943a5","system_id":"levelo_inurba_marseille","lat":43.28271,"lon":5.35082,"is_reserved":false,"is_disabled":false,"rental_uris":{"android":"levelo://app?vid=a740ff53-c5fd-42ea-b42f-035b288943a5","ios":"levelo://app?vid=a740ff53-c5fd-42ea-b42f-035b288943a5"},"vehicle_type_id":"4","last_reported":1686536386,"current_range_meters":23600,"station_id":"ce4bhbp2rcd13ifvqerg","pricing_plan_id":"free"},{"bike_id":"33a23075-b184-467a-ab45-f4ae7362bce2","system_id":"levelo_inurba_marseille","lat":43.282754,"lon":5.350519,"is_reserved":false,"is_disabled":false,"rental_uris":{"android":"levelo://app?vid=33a23075-b184-467a-ab45-f4ae7362bce2","ios":"levelo://app?vid=33a23075-b184-467a-ab45-f4ae7362bce2"},"vehicle_type_id":"4","last_reported":1686536386,"current_range_meters":9200,"station_id":"ce4bhbp2rcd13ifvqerg","pricing_plan_id":"free"},{"bike_id":"2aa3d018-74ba-443c-9de1-a05abb9b542f","system_id":"levelo_inurba_marseille","lat":43.28354,"lon":5.38643,"is_reserved":false,"is_disabled":false,"rental_uris":{"android":"levelo://app?vid=2aa3d018-74ba-443c-9de1-a05abb9b542f","ios":"levelo://app?vid=2aa3d018-74ba-443c-9de1-a05abb9b542f"},"vehicle_type_id":"4","last_reported":1686536386,"current_range_meters":0,"station_id":"ce4bh492rcd13ifvqdvg","pricing_plan_id":"free"},{"bike_id":"3f4a77d5-f85f-4d6f-8059-b6574c2817c8","system_id":"levelo_inurba_marseille","lat":43.29041,"lon":5.399634,"is_reserved":false,"is_disabled":false,"rental_uris":{"android":"levelo://app?vid=3f4a77d5-f85f-4d6f-8059-b6574c2817c8","ios":"levelo://app?vid=3f4a77d5-f85f-4d6f-8059-b6574c2817c8"},"vehicle_type_id":"4","last_reported":1686536386,"current_range_meters":29200,"station_id":"ce4bh392rcd13ifvqdm0","pricing_plan_id":"free"},{"bike_id":"81047856-11c0-4c6f-ad77-7976b131903e","system_id":"levelo_inurba_marseille","lat":43.296263,"lon":5.40601,"is_reserved":false,"is_disabled":false,"rental_uris":{"android":"levelo://app?vid=81047856-11c0-4c6f-ad77-7976b131903e","ios":"levelo://app?vid=81047856-11c0-4c6f-ad77-7976b131903e"},"vehicle_type_id":"4","last_reported":1686536386,"current_range_meters":29600,"station_id":"ce4bh0h2rcd13ifvqd60","pricing_plan_id":"free"},{"bike_id":"73ffb8a5-c817-412b-8335-998a682b23c0","system_id":"levelo_inurba_marseille","lat":43.281044,"lon":5.378308,"is_reserved":false,"is_disabled":false,"rental_uris":{"android":"levelo://app?vid=73ffb8a5-c817-412b-8335-998a682b23c0","ios":"levelo://app?vid=73ffb8a5-c817-412b-8335-998a682b23c0"},"vehicle_type_id":"4","last_reported":1686536386,"current_range_meters":0,"station_id":"ce4bha12rcd13ifvqee0","pricing_plan_id":"free"},{"bike_id":"8d956d6f-e46a-49a5-ae67-ae2ef943bab9","system_id":"levelo_inurba_marseille","lat":43.28098,"lon":5.3784,"is_reserved":false,"is_disabled":false,"rental_uris":{"android":"levelo://app?vid=8d956d6f-e46a-49a5-ae67-ae2ef943bab9","ios":"levelo://app?vid=8d956d6f-e46a-49a5-ae67-ae2ef943bab9"},"vehicle_type_id":"4","last_reported":1686536386,"current_range_meters":30800,"station_id":"ce4bha12rcd13ifvqee0","pricing_plan_id":"free"},{"bike_id":"b794685a-62b0-44cd-809b-656559932189","system_id":"levelo_inurba_marseille","lat":43.281044,"lon":5.378308,"is_reserved":false,"is_disabled":false,"rental_uris":{"android":"levelo://app?vid=b794685a-62b0-44cd-809b-656559932189","ios":"levelo://app?vid=b794685a-62b0-44cd-809b-656559932189"},"vehicle_type_id":"4","last_reported":1686536386,"current_range_meters":19600,"station_id":"ce4bha12rcd13ifvqee0","pricing_plan_id":"free"},{"bike_id":"91c9a015-da13-4e7c-830e-7f5b1a4a4ef9","system_id":"levelo_inurba_marseille","lat":43.28436,"lon":5.39192,"is_reserved":false,"is_disabled":false,"rental_uris":{"android":"levelo://app?vid=91c9a015-da13-4e7c-830e-7f5b1a4a4ef9","ios":"levelo://app?vid=91c9a015-da13-4e7c-830e-7f5b1a4a4ef9"},"vehicle_type_id":"4","last_reported":1686536386,"current_range_meters":31200,"station_id":"ce4bhoh2rcd13ifvqh5g","pricing_plan_id":"free"},{"bike_id":"f94b4f0c-0181-45fd-88df-e9679c450236","system_id":"levelo_inurba_marseille","lat":43.28424,"lon":5.39188,"is_reserved":false,"is_disabled":false,"rental_uris":{"android":"levelo://app?vid=f94b4f0c-0181-45fd-88df-e9679c450236","ios":"levelo://app?vid=f94b4f0c-0181-45fd-88df-e9679c450236"},"vehicle_type_id":"4","last_reported":1686536386,"current_range_meters":29200,"station_id":"ce4bhoh2rcd13ifvqh5g","pricing_plan_id":"free"},{"bike_id":"d91b867b-3e21-4aee-a1fe-fabc387d2101","system_id":"levelo_inurba_marseille","lat":43.28573,"lon":5.394992,"is_reserved":false,"is_disabled":false,"rental_uris":{"android":"levelo://app?vid=d91b867b-3e21-4aee-a1fe-fabc387d2101","ios":"levelo://app?vid=d91b867b-3e21-4aee-a1fe-fabc387d2101"},"vehicle_type_id":"4","last_reported":1686536386,"current_range_meters":30400,"station_id":"ce4bh292rcd13ifvqdg0","pricing_plan_id":"free"},{"bike_id":"bdcf492a-57ef-4c5b-8bd3-c41d9e6341cf","system_id":"levelo_inurba_marseille","lat":43.285742,"lon":5.395004,"is_reserved":false,"is_disabled":false,"rental_uris":{"android":"levelo://app?vid=bdcf492a-57ef-4c5b-8bd3-c41d9e6341cf","ios":"levelo://app?vid=bdcf492a-57ef-4c5b-8bd3-c41d9e6341cf"},"vehicle_type_id":"4","last_reported":1686536386,"current_range_meters":27600,"station_id":"ce4bh292rcd13ifvqdg0","pricing_plan_id":"free"},