{"last_updated":1712963113,"ttl":30,"version":"2.2","data":{"bikes":[{"bike_id":"babdc7bd-50ef-41ab-b073-151a457b3406","system_id":"levelo_inurba_marseille","lat":43.31351,"lon":5.36724,"is_reserved":false,"is_disabled":false,"rental_uris":{"android":"levelo://app?vid=babdc7bd-50ef-41ab-b073-151a457b3406","ios":"levelo://app?vid=babdc7bd-50ef-41ab-b073-151a457b3406"},"vehicle_type_id":"4","last_reported":1712963113,"current_range_meters":29600,"station_id":"ce4bgr92rcd13ifvqc6g","pricing_plan_id":"cebpf4jnsgd1na2vs0mg"},{"bike_id":"4f2cb617-2eae-4bdc-9a66-53c201731508","system_id":"levelo_inurba_marseille","lat":43.312239,"lon":5.368562,"is_reserved":false,"is_disabled":false,"rental_uris":{"android":"levelo://app?vid=4f2cb617-2eae-4bdc-9a66-53c201731508","ios":"levelo://app?vid=4f2cb617-2eae-4bdc-9a66-53c201731508"},"vehicle_type_id":"4","last_reported":1712963113,"current_range_meters":16800,"station_id":"ce4bgl92rcd13ifvqbq0","pricing_plan_id":"cebpf4jnsgd1na2vs0mg"},{"bike_id":"91379bab-1df1-4cc1-b25d-7242bd44210b","system_id":"levelo_inurba_marseille","lat":43.30896,"lon":5.36852,"is_reserved":false,"is_disabled":false,"rental_uris":{"android":"levelo://app?vid=91379bab-1df1-4cc1-b25d-7242bd44210b","ios":"levelo://app?vid=91379bab-1df1-4cc1-b25d-7242bd44210b"},"vehicle_type_id":"4","last_reported":1712963113,"current_range_meters":24000,"station_id":"ce4bgn92rcd13ifvqbvg","pricing_plan_id":"cebpf4jnsgd1na2vs0mg"},{"bike_id":"04fc95c0-a701-4c07-975c-b178e3e22661","system_id":"levelo_inurba_marseille","lat":43.314811,"lon":5.373103,"is_reserved":false,"is_disabled":false,"rental_uris":{"android":"levelo://app?vid=04fc95c0-a701-4c07-975c-b178e3e22661","ios":"levelo://app?vid=04fc95c0-a701-4c07-975c-b178e3e22661"},"vehicle_type_id":"4","last_reported":1712963113,"current_range_meters":2800,"station_id":"ce4bgt12rcd13ifvqcd0","pricing_plan_id":"cebpf4jnsgd1na2vs0mg"},{"bike_id":"f41da1cf-4e47-4578-9b7f-4fa45d14e459","system_id":"levelo_inurba_marseille","lat":43.314893,"lon":5.37308,"is_reserved":false,"is_disabled":false,"rental_uris":{"android":"levelo://app?vid=f41da1cf-4e47-4578-9b7f-4fa45d14e459","ios":"levelo://app?vid=f41da1cf-4e47-4578-9b7f-4fa45d14e459"},"vehicle_type_id":"4","last_reported":1712963113,"current_range_meters":20000,"station_id":"ce4bgt12rcd13ifvqcd0","pricing_plan_id":"cebpf4jnsgd1na2vs0mg"},{"bike_id":"fa018c7e-6b1e-40cb-9f57-6014ae29dbbb","system_id":"levelo_inurba_marseille","lat":43.31498,"lon":5.37305,"is_reserved":false,"is_disabled":false,"rental_uris":{"android":"levelo://app?vid=fa018c7e-6b1e-40cb-9f57-6014ae29dbbb","ios":"levelo://app?vid=fa018c7e-6b1e-40cb-9f57-6014ae29dbbb"},"vehicle_type_id":"4","last_reported":1712963113,"current_range_meters":22000,"station_id":"ce4bgt12rcd13ifvqcd0","pricing_plan_id":"cebpf4jnsgd1na2vs0mg"},{"bike_id":"098c2bb8-6acc-4a07-9f44-a2a8a882e529","system_id":"levelo_inurba_marseille","lat":43.314811,"lon":5.373104,"is_reserved":false,"is_disabled":false,"rental_uris":{"android":"levelo://app?vid=098c2bb8-6acc-4a07-9f44-a2a8a882e529","ios":"levelo://app?vid=098c2bb8-6acc-4a07-9f44-a2a8a882e529"},"vehicle_type_id":"4","last_reported":1712963113,"current_range_meters":21600,"station_id":"ce4bgt12rcd13ifvqcd0","pricing_plan_id":"cebpf4jnsgd1na2vs0mg"},{"bike_id":"f9488a60-9b71-4f49-b094-f1994feecbce","system_id":"levelo_inurba_marseille","lat":43.314811,"lon":5.373104,"is_reserved":false,"is_disabled":false,"rental_uris":{"android":"levelo://app?vid=f9488a60-9b71-4f49-b094-f1994feecbce","ios":"levelo://app?vid=f9488a60-9b71-4f49-b094-f1994feecbce"},"vehicle_type_id":"4","last_reported":1712963113,"current_range_meters":25600,"station_id":"ce4bgt12rcd13ifvqcd0","pricing_plan_id":"cebpf4jnsgd1na2vs0mg"},{"bike_id":"899920dc-48a6-4985-a629-42a8251c9d5e","system_id":"levelo_inurba_marseille","lat":43.314811,"lon":5.373104,"is_reserved":false,"is_disabled":false,"rental_uris":{"android":"levelo://app?vid=899920dc-48a6-4985-a629-42a8251c9d5e","ios":"levelo://app?vid=899920dc-48a6-4985-a629-42a8251c9d5e"},"vehicle_type_id":"4","last_reported":1712963113,"current_range_meters":9600,"station_id":"ce4bgt12rcd13ifvqcd0","pricing_plan_id":"cebpf4jnsgd1na2vs0mg"},{"bike_id":"f6731212-9df8-481d-b6ed-a88751dab5e3","system_id":"levelo_inurba_marseille","lat":43.30892,"lon":5.37198,"is_reserved":false,"is_disabled":false,"rental_uris":{"android":"levelo://app?vid=f6731212-9df8-481d-b6ed-a88751dab5e3","ios":"levelo://app?vid=f6731212-9df8-481d-b6ed-a88751dab5e3"},"vehicle_type_id":"4","last_reported":1712963113,"current_range_meters":0,"station_id":"ce4bguh2rcd13ifvqckg","pricing_plan_id":"cebpf4jnsgd1na2vs0mg"},{"bike_id":"b9755523-3470-4ede-abf3-86d31535626e","system_id":"levelo_inurba_marseille","lat":43.309039,"lon":5.371797,"is_reserved":false,"is_disabled":false,"rental_uris":{"android":"levelo://app?vid=b9755523-3470-4ede-abf3-86d31535626e","ios":"levelo://app?vid=b9755523-3470-4ede-abf3-86d31535626e"},"vehicle_type_id":"4","last_reported":1712963113,"current_range_meters":20000,"station_id":"ce4bguh2rcd13ifvqckg","pricing_plan_id":"cebpf4jnsgd1na2vs0mg"},{"bike_id":"196dbcf4-7bd4-4f6d-9d34-5e3a1c647b0a","system_id":"levelo_inurba_marseille","lat":43.305712,"lon":5.365641,"is_reserved":false,"is_disabled":false,"rental_uris":{"android":"levelo://app?vid=196dbcf4-7bd4-4f6d-9d34-5e3a1c647b0a","ios":"levelo://app?vid=196dbcf4-7bd4-4f6d-9d34-5e3a1c647b0a"},"vehicle_type_id":"4","last_reported":1712963113,"current_range_meters":0,"station_id":"ce4bgs12rcd13ifvqcag","pricing_plan_id":"cebpf4jnsgd1na2vs0mg"},{"bike_id":"791520fc-0a3c-4c5f-9a7c-5c44b51f224c","system_id":"levelo_inurba_marseille","lat":43.305989,"lon":5.37225,"is_reserved":false,"is_disabled":false,"rental_uris":{"android":"levelo://app?vid=791520fc-0a3c-4c5f-9a7c-5c44b51f224c","ios":"levelo://app?vid=791520fc-0a3c-4c5f-9a7c-5c44b51f224c"},"vehicle_type_id":"4","last_reported":1712963113,"current_range_meters":24000,"station_id":"ce4bgqh2rcd13ifvqc4g","pricing_plan_id":"cebpf4jnsgd1na2vs0mg"},{"bike_id":"033930e2-f9d4-4363-80d4-775ecfcc1e92","system_id":"levelo_inurba_marseille","lat":43.305989,"lon":5.37225,"is_reserved":false,"is_disabled":false,"rental_uris":{"android":"levelo://app?vid=033930e2-f9d4-4363-80d4-775ecfcc1e92","ios":"levelo://app?vid=033930e2-f9d4-4363-80d4-775ecfcc1e92"},"vehicle_type_id":"4","last_reported":1712963113,"current_range_meters":17600,"station_id":"ce4bgqh2rcd13ifvqc4g","pricing_plan_id":"cebpf4jnsgd1na2vs0mg"},{"bike_id":"7eec3c79-0cf6-4dff-b4d6-7f4a5d0b6b99","system_id":"levelo_inurba_marseille","lat":43.305989,"lon":5.37225,"is_reserved":false,"is_disabled":false,"rental_uris":{"android":"levelo://app?vid=7eec3c79-0cf6-4dff-b4d6-7f4a5d0b6b99","ios":"levelo://app?vid=7eec3c79-0cf6-4dff-b4d6-7f4a5d0b6b99"},"vehicle_type_id":"4","last_reported":1712963113,"current_range_meters":11200,"station_id":"ce4bgqh2rcd13ifvqc4g","pricing_plan_id":"cebpf4jnsgd1na2vs0mg"},{"bike_id":"0224b34f-10d0-4eb5-be26-1e92a9d4cd24","system_id":"levelo_inurba_marseille","lat":43.305989,"lon":5.37225,"is_reserved":false,"is_disabled":false,"rental_uris":{"android":"levelo://app?vid=0224b34f-10d0-4eb5-be26-1e92a9d4cd24","ios":"levelo://app?vid=0224b34f-10d0-4eb5-be26-1e92a9d4cd24"},"vehicle_type_id":"4","last_reported":1712963113,"current_range_meters":23200,"station_id":"ce4bgqh2rcd13ifvqc4g","pricing_plan_id":"cebpf4jnsgd1na2vs0mg"},{"bike_id":"0f5431f2-108a-44aa-ab51-04c11fa2afe3","system_id":"levelo_inurba_marseille","lat":43.305989,"lon":5.37225,"is_reserved":false,"is_disabled":false,"rental_uris":{"android":"levelo://app?vid=0f5431f2-108a-44aa-ab51-04c11fa2afe3","ios":"levelo://app?vid=0f5431f2-108a-44aa-ab51-04c11fa2afe3"},"vehicle_type_id":"4","last_reported":1712963113,"current_range_meters":29600,"station_id":"ce4bgqh2rcd13ifvqc4g","pricing_plan_id":"cebpf4jnsgd1na2vs0mg"},{"bike_id":"83bd4b76-ae7a-4d8f-a788-184c903b601b","system_id":"levelo_inurba_marseille","lat":43.311125,"lon":5.377624,"is_reserved":false,"is_disabled":false,"rental_uris":{"android":"levelo://app?vid=83bd4b76-ae7a-4d8f-a788-184c903b601b","ios":"levelo://app?vid=83bd4b76-ae7a-4d8f-a788-184c903b601b"},"vehicle_type_id":"4","last_reported":1712963113,"current_range_meters":2000,"station_id":"ce4bgt92rcd13ifvqcg0","pricing_plan_id":"cebpf4jnsgd1na2vs0mg"},{"bike_id":"736c031f-4477-4398-b761-2fd3672cda41","system_id":"levelo_inurba_marseille","lat":43.311131,"lon":5.377651,"is_reserved":false,"is_disabled":false,"rental_uris":{"android":"levelo://app?vid=736c031f-4477-4398-b761-2fd3672cda41","ios":"levelo://app?vid=736c031f-4477-4398-b761-2fd3672cda41"},"vehicle_type_id":"4","last_reported":1712963113,"current_range_meters":18400,"station_id":"ce4bgt92rcd13ifvqcg0","pricing_plan_id":"cebpf4jnsgd1na2vs0mg"},{"bike_id":"f795130d-5737-4e20-966b-5784e051c180","system_id":"levelo_inurba_marseille","lat":43.311125,"lon":5.377624,"is_reserved":false,"is_disabled":false,"rental_uris":{"android":"levelo://app?vid=f795130d-5737-4e20-966b-5784e051c180","ios":"levelo://app?vid=f795130d-5737-4e20-966b-5784e051c180"},"vehicle_type_id":"4","last_reported":1712963113,"current_range_meters":17200,"station_id":"ce4bgt92rcd13ifvqcg0","pricing_plan_id":"cebpf4jnsgd1na2vs0mg"},{"bike_id":"7547659d-542c-425c-a1b7-57f62eb87b3d","system_id":"levelo_inurba_marseille","lat":43.311125,"lon":5.377624,"is_reserved":false,"is_disabled":false,"rental_uris":{"android":"levelo://app?vid=7547659d-542c-425c-a1b7-57f62eb87b3d","ios":"levelo://app?vid=7547659d-542c-425c-a1b7-57f62eb87b3d"},"vehicle_type_id":"4","last_reported":1712963113,"current_range_meters":11200,"station_id":"ce4bgt92rcd13ifvqcg0","pricing_plan_id":"cebpf4jnsgd1na2vs0mg"},{"bike_id":"e9f76c46-65ff-4215-aa15-29253cdc5af6","system_id":"levelo_inurba_marseille","lat":43.307945,"lon":5.376487,"is_reserved":false,"is_disabled":false,"rental_uris":{"android":"levelo://app?vid=e9f76c46-65ff-4215-aa15-29253cdc5af6","ios":"levelo://app?vid=e9f76c46-65ff-4215-aa15-29253cdc5af6"},"vehicle_type_id":"4","last_reported":1712963113,"current_range_meters":20400,"station_id":"ce4bgv92rcd13ifvqcq0","pricing_plan_id":"cebpf4jnsgd1na2vs0mg"},{"bike_id":"1b951b7f-976e-4873-8b7a-af2520037e2f","system_id":"levelo_inurba_marseille","lat":43.307945,"lon":5.376487,"is_reserved":false,"is_disabled":false,"rental_uris":{"android":"levelo://app?vid=1b951b7f-976e-4873-8b7a-af2520037e2f","ios":"levelo://app?vid=1b951b7f-976e-4873-8b7a-af2520037e2f"},"vehicle_type_id":"4","last_reported":1712963113,"current_range_meters":12000,"station_id":"ce4bgv92rcd13ifvqcq0","pricing_plan_id":"cebpf4jnsgd1na2vs0mg"},{"bike_id":"30e30dd9-e7b0-4f63-b4cc-e0c7cdffc092","system_id":"levelo_inurba_marseille","lat":43.307945,"lon":5.376487,"is_reserved":false,"is_disabled":false,"rental_uris":{"android":"levelo://app?vid=30e30dd9-e7b0-4f63-b4cc-e0c7cdffc092","ios":"levelo://app?vid=30e30dd9-e7b0-4f63-b4cc-e0c7cdffc092"},"vehicle_type_id":"4","last_reported":1712963113,"current_range_meters":8000,"station_id":"ce4bgv92rcd13ifvqcq0","pricing_plan_id":"cebpf4jnsgd1na2vs0mg"},{"bike_id":"2fb173af-21d6-4aa4-8408-170fd4a5fc6e","system_id":"levelo_inurba_marseille","lat":43.317098,"lon":5.377397,"is_reserved":false,"is_disabled":false,"rental_uris":{"android":"levelo://app?vid=2fb173af-21d6-4aa4-8408-170fd4a5fc6e","ios":"levelo://app?vid=2fb173af-21d6-4aa4-8408-170fd4a5fc6e"},"vehicle_type_id":"4","last_reported":1712963113,"current_range_meters":400,"station_id":"ce4bgth2rcd13ifvqch0","pricing_plan_id":"cebpf4jnsgd1na2vs0mg"},{"bike_id":"5c2c0f73-b33e-4a14-b954-291dad653009","system_id":"levelo_inurba_marseille","lat":43.303128,"lon":5.369014,"is_reserved":false,"is_disabled":false,"rental_uris":{"android":"levelo://app?vid=5c2c0f73-b33e-4a14-b954-291dad653009","ios":"levelo://app?vid=5c2c0f73-b33e-4a14-b954-291dad653009"},"vehicle_type_id":"4","last_reported":1712963113,"current_range_meters":5600,"station_id":"ce4bgqh2rcd13ifvqc5g","pricing_plan_id":"cebpf4jnsgd1na2vs0mg"},{"bike_id":"1891bf6d-5c7b-4b2d-a248-2274907f203f","system_id":"levelo_inurba_marseille","lat":43.30304,"lon":5.368987,"is_reserved":false,"is_disabled":false,"rental_uris":{"android":"levelo://app?vid=1891bf6d-5c7b-4b2d-a248-2274907f203f","ios":"levelo://app?vid=1891bf6d-5c7b-4b2d-a248-2274907f203f"},"vehicle_type_id":"4","last_reported":1712963113,"current_range_meters":400,"station_id":"ce4bgqh2rcd13ifvqc5g","pricing_plan_id":"cebpf4jnsgd1na2vs0mg"},{"bike_id":"ee33f0e5-d53a-427e-a1e3-370af0cb7b5e","system_id":"levelo_inurba_marseille","lat":43.315289,"lon":5.380349,"is_reserved":false,"is_disabled":false,"rental_uris":{"android":"levelo://app?vid=ee33f0e5-d53a-427e-a1e3-370af0cb7b5e","ios":"levelo://app?vid=ee33f0e5-d53a-427e-a1e3-370af0cb7b5e"},"vehicle_type_id":"4","last_reported":1712963113,"current_range_meters":29200,"station_id":"ce4bhsp2rcd13ifvqi50","pricing_plan_id":"cebpf4jnsgd1na2vs0mg"},{"bike_id":"d6cdb64f-8c12-489b-bb97-8998b5f5a15e","system_id":"levelo_inurba_marseille","lat":43.315289,"lon":5.380349,"is_reserved":false,"is_disabled":false,"rental_uris":{"android":"levelo://app?vid=d6cdb64f-8c12-489b-bb97-8998b5f5a15e","ios":"levelo://app?vid=d6cdb64f-8c12-489b-bb97-8998b5f5a15e"},"vehicle_type_id":"4","last_reported":1712963113,"current_range_meters":22800,"station_id":"ce4bhsp2rcd13ifvqi50","pricing_plan_id":"cebpf4jnsgd1na2vs0mg"},{"bike_id":"e696077d-353f-4097-ba68-132fb342d4ab","system_id":"levelo_inurba_marseille","lat":43.315293,"lon":5.380349,"is_reserved":false,"is_disabled":false,"rental_uris":{"android":"levelo://app?vid=e696077d-353f-4097-ba68-132fb342d4ab","ios":"levelo://app?vid=e696077d-353f-4097-ba68-132fb342d4ab"},"vehicle_type_id":"4","last_reported":1712963113,"current_range_meters":22800,"station_id":"ce4bhsp2rcd13ifvqi50","pricing_plan_id":"cebpf4jnsgd1na2vs0mg"},{"bike_id":"24ef1fe3-0400-430b-94e4-d78598a86091","system_id":"levelo_inurba_marseille","lat":43.315289,"lon":5.380349,"is_reserved":false,"is_disabled":false,"rental_uris":{"android":"levelo://app?vid=24ef1fe3-0400-430b-94e4-d78598a86091","ios":"levelo://app?vid=24ef1fe3-0400-430b-94e4-d78598a86091"},"vehicle_type_id":"4","last_reported":1712963113,"current_range_meters":0,"station_id":"ce4bhsp2rcd13ifvqi50","pricing_plan_id":"cebpf4jnsgd1na2vs0mg"},{"bike_id":"ee7d43e3-45f1-4b3f-a000-d09ea3d6050d","system_id":"levelo_inurba_marseille","lat":43.315293,"lon":5.380349,"is_reserved":false,"is_disabled":false,"rental_uris":{"android":"levelo://app?vid=ee7d43e3-45f1-4b3f-a000-d09ea3d6050d","ios":"levelo://app?vid=ee7d43e3-45f1-4b3f-a000-d09ea3d6050d"},"vehicle_type_id":"4","last_reported":1712963113,"current_range_meters":31200,"station_id":"ce4bhsp2rcd13ifvqi50","pricing_plan_id":"cebpf4jnsgd1na2vs0mg"},{"bike_id":"02d09d37-9f70-4c56-8502-9d573e3ca560","system_id":"levelo_inurba_marseille","lat":43.315293,"lon":5.380349,"is_reserved":false,"is_disabled":false,"rental_uris":{"android":"levelo://app?vid=02d09d37-9f70-4c56-8502-9d573e3ca560","ios":"levelo://app?vid=02d09d37-9f70-4c56-8502-9d573e3ca560"},"vehicle_type_id":"4","last_reported":1712963113,"current_range_meters":18400,"station_id":"ce4bhsp2rcd13ifvqi50","pricing_plan_id":"cebpf4jnsgd1na2vs0mg"},{"bike_id":"c973c696-6cf3-4ef6-9922-20142626237f","system_id":"levelo_inurba_marseille","lat":43.30282,"lon":5.37259,"is_reserved":false,"is_disabled":false,"rental_uris":{"android":"levelo://app?vid=c973c696-6cf3-4ef6-9922-20142626237f","ios":"levelo://app?vid=c973c696-6cf3-4ef6-9922-20142626237f"},"vehicle_type_id":"4","last_reported":1712963113,"current_range_meters":17200,"station_id":"","pricing_plan_id":"cebpf4jnsgd1na2vs0mg"},{"bike_id":"14cff2a4-44ca-4200-8cba-60dab4baed32","system_id":"levelo_inurba_marseille","lat":43.308012,"lon":5.381511,"is_reserved":false,"is_disabled":false,"rental_uris":{"android":"levelo://app?vid=14cff2a4-44ca-4200-8cba-60dab4baed32","ios":"levelo://app?vid=14cff2a4-44ca-4200-8cba-60dab4baed32"},"vehicle_type_id":"4","last_reported":1712963113,"current_range_meters":27200,"station_id":"ce4bgt12rcd13ifvqce0","pricing_plan_id":"cebpf4jnsgd1na2vs0mg"},{"bike_id":"046c142b-9895-44f6-9cf2-4a5af3bac296","system_id":"levelo_inurba_marseille","lat":43.3081,"lon":5.381533,"is_reserved":false,"is_disabled":false,"rental_uris":{"android":"levelo://app?vid=046c142b-9895-44f6-9cf2-4a5af3bac296","ios":"levelo://app?vid=046c142b-9895-44f6-9cf2-4a5af3bac296"},"vehicle_type_id":"4","last_reported":1712963113,"current_range_meters":21200,"station_id":"ce4bgt12rcd13ifvqce0","pricing_plan_id":"cebpf4jnsgd1na2vs0mg"},{"bike_id":"a6199b73-4eb8-4240-a822-557ad7a4dd13","system_id":"levelo_inurba_marseille","lat":43.30801,"lon":5.3815,"is_reserved":false,"is_disabled":false,"rental_uris":{"android":"levelo://app?vid=a6199b73-4eb8-4240-a822-557ad7a4dd13","ios":"levelo://app?vid=a6199b73-4eb8-4240-a822-557ad7a4dd13"},"vehicle_type_id":"4","last_reported":1712963113,"current_range_meters":0,"station_id":"ce4bgt12rcd13ifvqce0","pricing_plan_id":"cebpf4jnsgd1na2vs0mg"},{"bike_id":"4fbdb66d-27ca-4198-9994-a60c8ef949d9","system_id":"levelo_inurba_marseille","lat":43.308012,"lon":5.381511,"is_reserved":false,"is_disabled":false,"rental_uris":{"android":"levelo://app?vid=4fbdb66d-27ca-4198-9994-a60c8ef949d9","ios":"levelo://app?vid=4fbdb66d-27ca-4198-9994-a60c8ef949d9"},"vehicle_type_id":"4","last_reported":1712963113,"current_range_meters":9200,"station_id":"ce4bgt12rcd13ifvqce0","pricing_plan_id":"cebpf4jnsgd1na2vs0mg"},{"bike_id":"db9aa382-b08a-440a-9a3a-9984bf072423","system_id":"levelo_inurba_marseille","lat":43.308012,"lon":5.381511,"is_reserved":false,"is_disabled":false,"rental_uris":{"android":"levelo://app?vid=db9aa382-b08a-440a-9a3a-9984bf072423","ios":"levelo://app?vid=db9aa382-b08a-440a-9a3a-9984bf072423"},"vehicle_type_id":"4","last_reported":1712963113,"current_range_meters":400,"station_id":"ce4bgt12rcd13ifvqce0","pricing_plan_id":"cebpf4jnsgd1na2vs0mg"},{"bike_id":"aa0e8224-39e4-4253-94dc-52fd17bbbb0b","system_id":"levelo_inurba_marseille","lat":43.309034,"lon":5.371783,"is_reserved":false,"is_disabled":false,"rental_uris":{"android":"levelo://app?vid=aa0e8224-39e4-4253-94dc-52fd17bbbb0b","ios":"levelo://app?vid=aa0e8224-39e4-4253-94dc-52fd17bbbb0b"},"vehicle_type_id":"4","last_reported":1712963113,"current_range_meters":15600,"station_id":"ce4bguh2rcd13ifvqckg","pricing_plan_id":"cebpf4jnsgd1na2vs0mg"},{"bike_id":"1ff350b9-f3d2-4489-9aeb-f4ad8e4fea0a","system_id":"levelo_inurba_marseille","lat":43.304606,"lon":5.379026,"is_reserved":false,"is_disabled":false,"rental_uris":{"android":"levelo://app?vid=1ff350b9-f3d2-4489-9aeb-f4ad8e4fea0a","ios":"levelo://app?vid=1ff350b9-f3d2-4489-9aeb-f4ad8e4fea0a"},"vehicle_type_id":"4","last_reported":1712963113,"current_range_meters":22400,"station_id":"ce4bgup2rcd13ifvqcn0","pricing_plan_id":"cebpf4jnsgd1na2vs0mg"},{"bike_id":"454050bd-6f81-402e-a993-15003895d986","system_id":"levelo_inurba_marseille","lat":43.304606,"lon":5.379026,"is_reserved":false,"is_disabled":false,"rental_uris":{"android":"levelo://app?vid=454050bd-6f81-402e-a993-15003895d986","ios":"levelo://app?vid=454050bd-6f81-402e-a993-15003895d986"},"vehicle_type_id":"4","last_reported":1712963113,"current_range_meters":6000,"station_id":"ce4bgup2rcd13ifvqcn0","pricing_plan_id":"cebpf4jnsgd1na2vs0mg"},{"bike_id":"1eb69a65-b0a8-4ce5-a14f-f8a08c966a6f","system_id":"levelo_inurba_marseille","lat":43.324771,"lon":5.36557,"is_reserved":false,"is_disabled":false,"rental_uris":{"android":"levelo://app?vid=1eb69a65-b0a8-4ce5-a14f-f8a08c966a6f","ios":"levelo://app?vid=1eb69a65-b0a8-4ce5-a14f-f8a08c966a6f"},"vehicle_type_id":"4","last_reported":1712963113,"current_range_meters":22000,"station_id":"ce4bhs12rcd13ifvqhvg","pricing_plan_id":"cebpf4jnsgd1na2vs0mg"},{"bike_id":"d76a8133-3a11-40a9-ae53-d93daf637390","system_id":"levelo_inurba_marseille","lat":43.324771,"lon":5.36557,"is_reserved":false,"is_disabled":false,"rental_uris":{"android":"levelo://app?vid=d76a8133-3a11-40a9-ae53-d93daf637390","ios":"levelo://app?vid=d76a8133-3a11-40a9-ae53-d93daf637390"},"vehicle_type_id":"4","last_reported":1712963113,"current_range_meters":22800,"station_id":"ce4bhs12rcd13ifvqhvg","pricing_plan_id":"cebpf4jnsgd1na2vs0mg"},{"bike_id":"23ea49f5-6e03-4060-bafc-9cb17e6972b5","system_id":"levelo_inurba_marseille","lat":43.324771,"lon":5.36557,"is_reserved":false,"is_disabled":false,"rental_uris":{"android":"levelo://app?vid=23ea49f5-6e03-4060-bafc-9cb17e6972b5","ios":"levelo://app?vid=23ea49f5-6e03-4060-bafc-9cb17e6972b5"},"vehicle_type_id":"4","last_reported":1712963113,"current_range_meters":22400,"station_id":"ce4bhs12rcd13ifvqhvg","pricing_plan_id":"cebpf4jnsgd1na2vs0mg"},{"bike_id":"307082cd-38ec-4e2f-958c-a7ba81ca511b","system_id":"levelo_inurba_marseille","lat":43.324771,"lon":5.36557,"is_reserved":false,"is_disabled":false,"rental_uris":{"android":"levelo://app?vid=307082cd-38ec-4e2f-958c-a7ba81ca511b","ios":"levelo://app?vid=307082cd-38ec-4e2f-958c-a7ba81ca511b"},"vehicle_type_id":"4","last_reported":1712963113,"current_range_meters":4800,"station_id":"ce4bhs12rcd13ifvqhvg","pricing_plan_id":"cebpf4jnsgd1na2vs0mg"},{"bike_id":"79dd9bb3-f3e0-4123-95b1-2c96af192671","system_id":"levelo_inurba_marseille","lat":43.324771,"lon":5.36557,"is_reserved":false,"is_disabled":false,"rental_uris":{"android":"levelo://app?vid=79dd9bb3-f3e0-4123-95b1-2c96af192671","ios":"levelo://app?vid=79dd9bb3-f3e0-4123-95b1-2c96af192671"},"vehicle_type_id":"4","last_reported":1712963113,"current_range_meters":15200,"station_id":"ce4bhs12rcd13ifvqhvg","pricing_plan_id":"cebpf4jnsgd1na2vs0mg"},{"bike_id":"185b12c5-9c03-47ce-9930-85ed07b286e4","system_id":"levelo_inurba_marseille","lat":43.324771,"lon":5.36557,"is_reserved":false,"is_disabled":false,"rental_uris":{"android":"levelo://app?vid=185b12c5-9c03-47ce-9930-85ed07b286e4","ios":"levelo://app?vid=185b12c5-9c03-47ce-9930-85ed07b286e4"},"vehicle_type_id":"4","last_reported":1712963113,"current_range_meters":2800,"station_id":"ce4bhs12rcd13ifvqhvg","pricing_plan_id":"cebpf4jnsgd1na2vs0mg"},{"bike_id":"342b1a87-efe3-4691-a702-219fd4edfacb","system_id":"levelo_inurba_marseille","lat":43.324771,"lon":5.36557,"is_reserved":false,"is_disabled":false,"rental_uris":{"android":"levelo://app?vid=342b1a87-efe3-4691-a702-219fd4edfacb","ios":"levelo://app?vid=342b1a87-efe3-4691-a702-219fd4edfacb"},"vehicle_type_id":"4","last_reported":1712963113,"current_range_meters":0,"station_id":"ce4bhs12rcd13ifvqhvg","pricing_plan_id":"cebpf4jnsgd1na2vs0mg"},{"bike_id":"87dca84b-0cb4-478f-b488-590b97d2ee57","system_id":"levelo_inurba_marseille","lat":43.310804,"lon":5.38359,"is_reserved":false,"is_disabled":false,"rental_uris":{"android":"levelo://app?vid=87dca84b-0cb4-478f-b488-590b97d2ee57","ios":"levelo://app?vid=87dca84b-0cb4-478f-b488-590b97d2ee57"},"vehicle_type_id":"4","last_reported":1712963113,"current_range_meters":27200,"station_id":"ce4bgv92rcd13ifvqcr0","pricing_plan_id":"cebpf4jnsgd1na2vs0mg"},{"bike_id":"aab8218e-5ae5-4259-8cfc-82eea594431c","system_id":"levelo_inurba_marseille","lat":43.324771,"lon":5.36557,"is_reserved":false,"is_disabled":false,"rental_uris":{"android":"levelo://app?vid=aab8218e-5ae5-4259-8cfc-82eea594431c","ios":"levelo://app?vid=aab8218e-5ae5-4259-8cfc-82eea594431c"},"vehicle_type_id":"4","last_reported":1712963113,"current_range_meters":12000,"station_id":"ce4bhs12rcd13ifvqhvg","pricing_plan_id":"cebpf4jnsgd1na2vs0mg"},{"bike_id":"4667e2df-5039-43b3-a7a7-4d50245b1760","system_id":"levelo_inurba_marseille","lat":43.32487,"lon":5.365675,"is_reserved":false,"is_disabled":false,"rental_uris":{"android":"levelo://app?vid=4667e2df-5039-43b3-a7a7-4d50245b1760","ios":"levelo://app?vid=4667e2df-5039-43b3-a7a7-4d50245b1760"},"vehicle_type_id":"4","last_reported":1712963113,"current_range_meters":22800,"station_id":"","pricing_plan_id":"cebpf4jnsgd1na2vs0mg"},{"bike_id":"8233e652-c11d-4da5-8d18-f06b3c5caa11","system_id":"levelo_inurba_marseille","lat":43.324771,"lon":5.36557,"is_reserved":false,"is_disabled":false,"rental_uris":{"android":"levelo://app?vid=8233e652-c11d-4da5-8d18-f06b3c5caa11","ios":"levelo://app?vid=8233e652-c11d-4da5-8d18-f06b3c5caa11"},"vehicle_type_id":"4","last_reported":1712963113,"current_range_meters":10000,"station_id":"ce4bhs12rcd13ifvqhvg","pricing_plan_id":"cebpf4jnsgd1na2vs0mg"},{"bike_id":"2a113697-1780-4128-94ad-5b4e9830689c","system_id":"levelo_inurba_marseille","lat":43.310804,"lon":5.38359,"is_reserved":false,"is_disabled":false,"rental_uris":{"android":"levelo://app?vid=2a113697-1780-4128-94ad-5b4e9830689c","ios":"levelo://app?vid=2a113697-1780-4128-94ad-5b4e9830689c"},"vehicle_type_id":"4","last_reported":1712963113,"current_range_meters":16400,"station_id":"ce4bgv92rcd13ifvqcr0","pricing_plan_id":"cebpf4jnsgd1na2vs0mg"},{"bike_id":"6fcac34d-4b8b-4ea1-8b39-2196ca6d95b7","system_id":"levelo_inurba_marseille","lat":43.324771,"lon":5.36557,"is_reserved":false,"is_disabled":false,"rental_uris":{"android":"levelo://app?vid=6fcac34d-4b8b-4ea1-8b39-2196ca6d95b7","ios":"levelo://app?vid=6fcac34d-4b8b-4ea1-8b39-2196ca6d95b7"},"vehicle_type_id":"4","last_reported":1712963113,"current_range_meters":5200,"station_id":"ce4bhs12rcd13ifvqhvg","pricing_plan_id":"cebpf4jnsgd1na2vs0mg"},{"bike_id":"d6ab4ce5-10f5-447a-b384-f93b0d045482","system_id":"levelo_inurba_marseille","lat":43.310804,"lon":5.38359,"is_reserved":false,"is_disabled":false,"rental_uris":{"android":"levelo://app?vid=d6ab4ce5-10f5-447a-b384-f93b0d045482","ios":"levelo://app?vid=d6ab4ce5-10f5-447a-b384-f93b0d045482"},"vehicle_type_id":"4","last_reported":1712963113,"current_range_meters":10000,"station_id":"ce4bgv92rcd13ifvqcr0","pricing_plan_id":"cebpf4jnsgd1na2vs0mg"},{"bike_id":"e74e65ab-904f-49ac-870a-0073fcc4b6cf","system_id":"levelo_inurba_marseille","lat":43.31069,"lon":5.38349,"is_reserved":false,"is_disabled":false,"rental_uris":{"android":"levelo://app?vid=e74e65ab-904f-49ac-870a-0073fcc4b6cf","ios":"levelo://app?vid=e74e65ab-904f-49ac-870a-0073fcc4b6cf"},"vehicle_type_id":"4","last_reported":1712963113,"current_range_meters":0,"station_id":"ce4bgv92rcd13ifvqcr0","pricing_plan_id":"cebpf4jnsgd1na2vs0mg"},{"bike_id":"53b5ac87-077f-4097-830d-24ecc1bb3498","system_id":"levelo_inurba_marseille","lat":43.310804,"lon":5.38359,"is_reserved":false,"is_disabled":false,"rental_uris":{"android":"levelo://app?vid=53b5ac87-077f-4097-830d-24ecc1bb3498","ios":"levelo://app?vid=53b5ac87-077f-4097-830d-24ecc1bb3498"},"vehicle_type_id":"4","last_reported":1712963113,"current_range_meters":20800,"station_id":"ce4bgv92rcd13ifvqcr0","pricing_plan_id":"cebpf4jnsgd1na2vs0mg"},{"bike_id":"a5c7d92a-31f4-40d7-8720-41d84efe8baf","system_id":"levelo_inurba_marseille","lat":43.319935,"lon":5.381699,"is_reserved":false,"is_disabled":false,"rental_uris":{"android":"levelo://app?vid=a5c7d92a-31f4-40d7-8720-41d84efe8baf","ios":"levelo://app?vid=a5c7d92a-31f4-40d7-8720-41d84efe8baf"},"vehicle_type_id":"4","last_reported":1712963113,"current_range_meters":7200,"station_id":"ce4bhr12rcd13ifvqhpg","pricing_plan_id":"cebpf4jnsgd1na2vs0mg"},{"bike_id":"387b7c6f-c287-4395-823a-85058889ede8","system_id":"levelo_inurba_marseille","lat":43.319935,"lon":5.381699,"is_reserved":false,"is_disabled":false,"rental_uris":{"android":"levelo://app?vid=387b7c6f-c287-4395-823a-85058889ede8","ios":"levelo://app?vid=387b7c6f-c287-4395-823a-85058889ede8"},"vehicle_type_id":"4","last_reported":1712963113,"current_range_meters":0,"station_id":"ce4bhr12rcd13ifvqhpg","pricing_plan_id":"cebpf4jnsgd1na2vs0mg"},{"bike_id":"9165843a-1710-47f6-acc2-8ac6b465822d","system_id":"levelo_inurba_marseille","lat":43.319935,"lon":5.381699,"is_reserved":false,"is_disabled":false,"rental_uris":{"android":"levelo://app?vid=9165843a-1710-47f6-acc2-8ac6b465822d","ios":"levelo://app?vid=9165843a-1710-47f6-acc2-8ac6b465822d"},"vehicle_type_id":"4","last_reported":1712963113,"current_range_meters":0,"station_id":"ce4bhr12rcd13ifvqhpg","pricing_plan_id":"cebpf4jnsgd1na2vs0mg"},{"bike_id":"365ffdde-5dcc-4389-ae6e-5446925bfa81","system_id":"levelo_inurba_marseille","lat":43.319935,"lon":5.381699,"is_reserved":false,"is_disabled":false,"rental_uris":{"android":"levelo://app?vid=365ffdde-5dcc-4389-ae6e-5446925bfa81","ios":"levelo://app?vid=365ffdde-5dcc-4389-ae6e-5446925bfa81"},"vehicle_type_id":"4","last_reported":1712963113,"current_range_meters":8800,"station_id":"ce4bhr12rcd13ifvqhpg","pricing_plan_id":"cebpf4jnsgd1na2vs0mg"},{"bike_id":"040fe1e7-78d3-4d84-b369-f81c31655017","system_id":"levelo_inurba_marseille","lat":43.319935,"lon":5.381699,"is_reserved":false,"is_disabled":false,"rental_uris":{"android":"levelo://app?vid=040fe1e7-78d3-4d84-b369-f81c31655017","ios":"levelo://app?vid=040fe1e7-78d3-4d84-b369-f81c31655017"},"vehicle_type_id":"4","last_reported":1712963113,"current_range_meters":1600,"station_id":"ce4bhr12rcd13ifvqhpg","pricing_plan_id":"cebpf4jnsgd1na2vs0mg"},{"bike_id":"4e55ca64-fe78-48a2-9719-7902d95f15e6","system_id":"levelo_inurba_marseille","lat":43.319935,"lon":5.381699,"is_reserved":false,"is_disabled":false,"rental_uris":{"android":"levelo://app?vid=4e55ca64-fe78-48a2-9719-7902d95f15e6","ios":"levelo://app?vid=4e55ca64-fe78-48a2-9719-7902d95f15e6"},"vehicle_type_id":"4","last_reported":1712963113,"current_range_meters":2800,"station_id":"ce4bhr12rcd13ifvqhpg","pricing_plan_id":"cebpf4jnsgd1na2vs0mg"},{"bike_id":"06e2b00d-8932-4356-9214-2a9e57395088","system_id":"levelo_inurba_marseille","lat":43.319935,"lon":5.381699,"is_reserved":false,"is_disabled":false,"rental_uris":{"android":"levelo://app?vid=06e2b00d-8932-4356-9214-2a9e57395088","ios":"levelo://app?vid=06e2b00d-8932-4356-9214-2a9e57395088"},"vehicle_type_id":"4","last_reported":1712963113,"current_range_meters":18000,"station_id":"ce4bhr12rcd13ifvqhpg","pricing_plan_id":"cebpf4jnsgd1na2vs0mg"},{"bike_id":"afb78cb4-71b4-4594-a1f1-9ba7b02b5aee","system_id":"levelo_inurba_marseille","lat":43.319935,"lon":5.381699,"is_reserved":false,"is_disabled":false,"rental_uris":{"android":"levelo://app?vid=afb78cb4-71b4-4594-a1f1-9ba7b02b5aee","ios":"levelo://app?vid=afb78cb4-71b4-4594-a1f1-9ba7b02b5aee"},"vehicle_type_id":"4","last_reported":1712963113,"current_range_meters":2800,"station_id":"ce4bhr12rcd13ifvqhpg","pricing_plan_id":"cebpf4jnsgd1na2vs0mg"},{"bike_id":"1afbaa79-8dce-49b3-86ba-6f2a9f381b25","system_id":"levelo_inurba_marseille","lat":43.319935,"lon":5.381699,"is_reserved":false,"is_disabled":false,"rental_uris":{"android":"levelo://app?vid=1afbaa79-8dce-49b3-86ba-6f2a9f381b25","ios":"levelo://app?vid=1afbaa79-8dce-49b3-86ba-6f2a9f381b25"},"vehicle_type_id":"4","last_reported":1712963113,"current_range_meters":0,"station_id":"ce4bhr12rcd13ifvqhpg","pricing_plan_id":"cebpf4jnsgd1na2vs0mg"},{"bike_id":"c2df71dc-f20c-4a6a-80d9-4f42ef3bf709","system_id":"levelo_inurba_marseille","lat":43.319935,"lon":5.381699,"is_reserved":false,"is_disabled":false,"rental_uris":{"android":"levelo://app?vid=c2df71dc-f20c-4a6a-80d9-4f42ef3bf709","ios":"levelo://app?vid=c2df71dc-f20c-4a6a-80d9-4f42ef3bf709"},"vehicle_type_id":"4","last_reported":1712963113,"current_range_meters":20800,"station_id":"ce4bhr12rcd13ifvqhpg","pricing_plan_id":"cebpf4jnsgd1na2vs0mg"},{"bike_id":"31d436d2-22f4-444b-92ad-c36128c84b47","system_id":"levelo_inurba_marseille","lat":43.319935,"lon":5.381699,"is_reserved":false,"is_disabled":false,"rental_uris":{"android":"levelo://app?vid=31d436d2-22f4-444b-92ad-c36128c84b47","ios":"levelo://app?vid=31d436d2-22f4-444b-92ad-c36128c84b47"},"vehicle_type_id":"4","last_reported":1712963113,"current_range_meters":0,"station_id":"ce4bhr12rcd13ifvqhpg","pricing_plan_id":"cebpf4jnsgd1na2vs0mg"},{"bike_id":"e2468eed-aa0b-4865-9d54-79680762995a","system_id":"levelo_inurba_marseille","lat":43.319935,"lon":5.381699,"is_reserved":false,"is_disabled":false,"rental_uris":{"android":"levelo://app?vid=e2468eed-aa0b-4865-9d54-79680762995a","ios":"levelo://app?vid=e2468eed-aa0b-4865-9d54-79680762995a"},"vehicle_type_id":"4","last_reported":1712963113,"current_range_meters":0,"station_id":"ce4bhr12rcd13ifvqhpg","pricing_plan_id":"cebpf4jnsgd1na2vs0mg"},{"bike_id":"227c6e40-757d-4473-a226-5ace5928de0e","system_id":"levelo_inurba_marseille","lat":43.319935,"lon":5.381699,"is_reserved":false,"is_disabled":false,"rental_uris":{"android":"levelo://app?vid=227c6e40-757d-4473-a226-5ace5928de0e","ios":"levelo://app?vid=227c6e40-757d-4473-a226-5ace5928de0e"},"vehicle_type_id":"4","last_reported":1712963113,"current_range_meters":4800,"station_id":"ce4bhr12rcd13ifvqhpg","pricing_plan_id":"cebpf4jnsgd1na2vs0mg"},{"bike_id":"264f64a1-1098-431c-a7d8-43f1485a4139","system_id":"levelo_inurba_marseille","lat":43.319935,"lon":5.381699,"is_reserved":false,"is_disabled":false,"rental_uris":{"android":"levelo://app?vid=264f64a1-1098-431c-a7d8-43f1485a4139","ios":"levelo://app?vid=264f64a1-1098-431c-a7d8-43f1485a4139"},"vehicle_type_id":"4","last_reported":1712963113,"current_range_meters":10400,"station_id":"ce4bhr12rcd13ifvqhpg","pricing_plan_id":"cebpf4jnsgd1na2vs0mg"},{"bike_id":"9595800c-a7bc-4c3d-963a-5172690235d1","system_id":"levelo_inurba_marseille","lat":43.31365,"lon":5.38486,"is_reserved":false,"is_disabled":false,"rental_uris":{"android":"levelo://app?vid=9595800c-a7bc-4c3d-963a-5172690235d1","ios":"levelo://app?vid=9595800c-a7bc-4c3d-963a-5172690235d1"},"vehicle_type_id":"4","last_reported":1712963113,"current_range_meters":15600,"station_id":"ce4bgt92rcd13ifvqcf0","pricing_plan_id":"cebpf4jnsgd1na2vs0mg"},{"bike_id":"6eba097a-afc7-4b1a-9434-003367f81a31","system_id":"levelo_inurba_marseille","lat":43.313571,"lon":5.384829,"is_reserved":false,"is_disabled":false,"rental_uris":{"android":"levelo://app?vid=6eba097a-afc7-4b1a-9434-003367f81a31","ios":"levelo://app?vid=6eba097a-afc7-4b1a-9434-003367f81a31"},"vehicle_type_id":"4","last_reported":1712963113,"current_range_meters":17200,"station_id":"ce4bgt92rcd13ifvqcf0","pricing_plan_id":"cebpf4jnsgd1na2vs0mg"},{"bike_id":"1f2c793a-16ea-4a83-b0ad-f0fcef9a1ee3","system_id":"levelo_inurba_marseille","lat":43.31367,"lon":5.38494,"is_reserved":false,"is_disabled":false,"rental_uris":{"android":"levelo://app?vid=1f2c793a-16ea-4a83-b0ad-f0fcef9a1ee3","ios":"levelo://app?vid=1f2c793a-16ea-4a83-b0ad-f0fcef9a1ee3"},"vehicle_type_id":"4","last_reported":1712963113,"current_range_meters":22400,"station_id":"ce4bgt92rcd13ifvqcf0","pricing_plan_id":"cebpf4jnsgd1na2vs0mg"},{"bike_id":"6fbd2f3e-811c-4943-a320-ccf04bc37f50","system_id":"levelo_inurba_marseille","lat":43.313571,"lon":5.384829,"is_reserved":false,"is_disabled":false,"rental_uris":{"android":"levelo://app?vid=6fbd2f3e-811c-4943-a320-ccf04bc37f50","ios":"levelo://app?vid=6fbd2f3e-811c-4943-a320-ccf04bc37f50"},"vehicle_type_id":"4","last_reported":1712963113,"current_range_meters":14800,"station_id":"ce4bgt92rcd13ifvqcf0","pricing_plan_id":"cebpf4jnsgd1na2vs0mg"},{"bike_id":"8cb3d3b3-4055-4e9c-9b50-f86e6cef6e16","system_id":"levelo_inurba_marseille","lat":43.313571,"lon":5.384829,"is_reserved":false,"is_disabled":false,"rental_uris":{"android":"levelo://app?vid=8cb3d3b3-4055-4e9c-9b50-f86e6cef6e16","ios":"levelo://app?vid=8cb3d3b3-4055-4e9c-9b50-f86e6cef6e16"},"vehicle_type_id":"4","last_reported":1712963113,"current_range_meters":0,"station_id":"ce4bgt92rcd13ifvqcf0","pricing_plan_id":"cebpf4jnsgd1na2vs0mg"},{"bike_id":"34cc3b8a-cf84-4b95-99ea-c75155fd776d","system_id":"levelo_inurba_marseille","lat":43.313628,"lon":5.384975,"is_reserved":false,"is_disabled":false,"rental_uris":{"android":"levelo://app?vid=34cc3b8a-cf84-4b95-99ea-c75155fd776d","ios":"levelo://app?vid=34cc3b8a-cf84-4b95-99ea-c75155fd776d"},"vehicle_type_id":"4","last_reported":1712963113,"current_range_meters":13200,"station_id":"ce4bgt92rcd13ifvqcf0","pricing_plan_id":"cebpf4jnsgd1na2vs0mg"},{"bike_id":"95c3be9b-032e-42c9-a658-63a3e281c9a5","system_id":"levelo_inurba_marseille","lat":43.313571,"lon":5.384829,"is_reserved":false,"is_disabled":false,"rental_uris":{"android":"levelo://app?vid=95c3be9b-032e-42c9-a658-63a3e281c9a5","ios":"levelo://app?vid=95c3be9b-032e-42c9-a658-63a3e281c9a5"},"vehicle_type_id":"4","last_reported":1712963113,"current_range_meters":4400,"station_id":"ce4bgt92rcd13ifvqcf0","pricing_plan_id":"cebpf4jnsgd1na2vs0mg"},{"bike_id":"e1af2788-98bc-4618-b1b6-381095b26e03","system_id":"levelo_inurba_marseille","lat":43.313571,"lon":5.384829,"is_reserved":false,"is_disabled":false,"rental_uris":{"android":"levelo://app?vid=e1af2788-98bc-4618-b1b6-381095b26e03","ios":"levelo://app?vid=e1af2788-98bc-4618-b1b6-381095b26e03"},"vehicle_type_id":"4","last_reported":1712963113,"current_range_meters":9600,"station_id":"ce4bgt92rcd13ifvqcf0","pricing_plan_id":"cebpf4jnsgd1na2vs0mg"},{"bike_id":"2d5dd2cc-2ffe-43ca-9589-41de1f8f1306","system_id":"levelo_inurba_marseille","lat":43.313755,"lon":5.385003,"is_reserved":false,"is_disabled":false,"rental_uris":{"android":"levelo://app?vid=2d5dd2cc-2ffe-43ca-9589-41de1f8f1306","ios":"levelo://app?vid=2d5dd2cc-2ffe-43ca-9589-41de1f8f1306"},"vehicle_type_id":"4","last_reported":1712963113,"current_range_meters":800,"station_id":"ce4bgt92rcd13ifvqcf0","pricing_plan_id":"cebpf4jnsgd1na2vs0mg"},{"bike_id":"a86be7f0-7cf2-4611-b7e7-24d8e986bbd0","system_id":"levelo_inurba_marseille","lat":43.299724,"lon":5.371829,"is_reserved":false,"is_disabled":false,"rental_uris":{"android":"levelo://app?vid=a86be7f0-7cf2-4611-b7e7-24d8e986bbd0","ios":"levelo://app?vid=a86be7f0-7cf2-4611-b7e7-24d8e986bbd0"},"vehicle_type_id":"4","last_reported":1712963113,"current_range_meters":4400,"station_id":"ce4bgr92rcd13ifvqc7g","pricing_plan_id":"cebpf4jnsgd1na2vs0mg"},{"bike_id":"c189b7a9-3978-46de-bd72-4d2053cc3a1a","system_id":"levelo_inurba_marseille","lat":43.299222,"lon":5.365554,"is_reserved":false,"is_disabled":false,"rental_uris":{"android":"levelo://app?vid=c189b7a9-3978-46de-bd72-4d2053cc3a1a","ios":"levelo://app?vid=c189b7a9-3978-46de-bd72-4d2053cc3a1a"},"vehicle_type_id":"4","last_reported":1712963113,"current_range_meters":6400,"station_id":"ce4bgm92rcd13ifvqbr0","pricing_plan_id":"cebpf4jnsgd1na2vs0mg"},{"bike_id":"2cc155d6-5df1-4a9e-bc5e-d4e8d95fbd7d","system_id":"levelo_inurba_marseille","lat":43.299724,"lon":5.371829,"is_reserved":false,"is_disabled":false,"rental_uris":{"android":"levelo://app?vid=2cc155d6-5df1-4a9e-bc5e-d4e8d95fbd7d","ios":"levelo://app?vid=2cc155d6-5df1-4a9e-bc5e-d4e8d95fbd7d"},"vehicle_type_id":"4","last_reported":1712963113,"current_range_meters":5600,"station_id":"ce4bgr92rcd13ifvqc7g","pricing_plan_id":"cebpf4jnsgd1na2vs0mg"},{"bike_id":"f82b7263-d7ad-4835-9672-390dfa28ed85","system_id":"levelo_inurba_marseille","lat":43.299724,"lon":5.371829,"is_reserved":false,"is_disabled":false,"rental_uris":{"android":"levelo://app?vid=f82b7263-d7ad-4835-9672-390dfa28ed85","ios":"levelo://app?vid=f82b7263-d7ad-4835-9672-390dfa28ed85"},"vehicle_type_id":"4","last_reported":1712963113,"current_range_meters":17600,"station_id":"ce4bgr92rcd13ifvqc7g","pricing_plan_id":"cebpf4jnsgd1na2vs0mg"},{"bike_id":"f9f4a55e-44b6-4cbc-823e-7f8b0e6eae85","system_id":"levelo_inurba_marseille","lat":43.299222,"lon":5.365554,"is_reserved":false,"is_disabled":false,"rental_uris":{"android":"levelo://app?vid=f9f4a55e-44b6-4cbc-823e-7f8b0e6eae85","ios":"levelo://app?vid=f9f4a55e-44b6-4cbc-823e-7f8b0e6eae85"},"vehicle_type_id":"4","last_reported":1712963113,"current_range_meters":0,"station_id":"ce4bgm92rcd13ifvqbr0","pricing_plan_id":"cebpf4jnsgd1na2vs0mg"},{"bike_id":"c4e566d1-4e1d-4730-90cb-0bac5aa9f249","system_id":"levelo_inurba_marseille","lat":43.305364,"lon":5.384119,"is_reserved":false,"is_disabled":false,"rental_uris":{"android":"levelo://app?vid=c4e566d1-4e1d-4730-90cb-0bac5aa9f249","ios":"levelo://app?vid=c4e566d1-4e1d-4730-90cb-0bac5aa9f249"},"vehicle_type_id":"4","last_reported":1712963113,"current_range_meters":21200,"station_id":"ce4bgg92rcd13ifvqb30","pricing_plan_id":"cebpf4jnsgd1na2vs0mg"},{"bike_id":"2e30fffc-de32-4f9a-bd21-4134f69dbf01","system_id":"levelo_inurba_marseille","lat":43.305364,"lon":5.384119,"is_reserved":false,"is_disabled":false,"rental_uris":{"android":"levelo://app?vid=2e30fffc-de32-4f9a-bd21-4134f69dbf01","ios":"levelo://app?vid=2e30fffc-de32-4f9a-bd21-4134f69dbf01"},"vehicle_type_id":"4","last_reported":1712963113,"current_range_meters":22000,"station_id":"ce4bgg92rcd13ifvqb30","pricing_plan_id":"cebpf4jnsgd1na2vs0mg"},{"bike_id":"5e700b7b-4897-4e02-b092-372a381a3be9","system_id":"levelo_inurba_marseille","lat":43.305364,"lon":5.384119,"is_reserved":false,"is_disabled":false,"rental_uris":{"android":"levelo://app?vid=5e700b7b-4897-4e02-b092-372a381a3be9","ios":"levelo://app?vid=5e700b7b-4897-4e02-b092-372a381a3be9"},"vehicle_type_id":"4","last_reported":1712963113,"current_range_meters":0,"station_id":"ce4bgg92rcd13ifvqb30","pricing_plan_id":"cebpf4jnsgd1na2vs0mg"},{"bike_id":"6c91aeb1-c1ac-4b0b-927a-209ee6aedd6d","system_id":"levelo_inurba_marseille","lat":43.311805,"lon":5.387113,"is_reserved":false,"is_disabled":false,"rental_uris":{"android":"levelo://app?vid=6c91aeb1-c1ac-4b0b-927a-209ee6aedd6d","ios":"levelo://app?vid=6c91aeb1-c1ac-4b0b-927a-209ee6aedd6d"},"vehicle_type_id":"4","last_reported":1712963113,"current_range_meters":0,"station_id":"ce4bgv12rcd13ifvqcp0","pricing_plan_id":"cebpf4jnsgd1na2vs0mg"},{"bike_id":"92a8a4e8-0b47-4fd2-a93d-e49326255179","system_id":"levelo_inurba_marseille","lat":43.311722,"lon":5.387247,"is_reserved":false,"is_disabled":false,"rental_uris":{"android":"levelo://app?vid=92a8a4e8-0b47-4fd2-a93d-e49326255179","ios":"levelo://app?vid=92a8a4e8-0b47-4fd2-a93d-e49326255179"},"vehicle_type_id":"4","last_reported":1712963113,"current_range_meters":16400,"station_id":"ce4bgv12rcd13ifvqcp0","pricing_plan_id":"cebpf4jnsgd1na2vs0mg"},{"bike_id":"08e03e2b-c2ba-4b65-9109-21c546431714","system_id":"levelo_inurba_marseille","lat":43.311789,"lon":5.387177,"is_reserved":false,"is_disabled":false,"rental_uris":{"android":"levelo://app?vid=08e03e2b-c2ba-4b65-9109-21c546431714","ios":"levelo://app?vid=08e03e2b-c2ba-4b65-9109-21c546431714"},"vehicle_type_id":"4","last_reported":1712963113,"current_range_meters":0,"station_id":"ce4bgv12rcd13ifvqcp0","pricing_plan_id":"cebpf4jnsgd1na2vs0mg"},{"bike_id":"ff8fd808-f44c-40e3-afbc-ee61614d8e94","system_id":"levelo_inurba_marseille","lat":43.311722,"lon":5.387247,"is_reserved":false,"is_disabled":false,"rental_uris":{"android":"levelo://app?vid=ff8fd808-f44c-40e3-afbc-ee61614d8e94","ios":"levelo://app?vid=ff8fd808-f44c-40e3-afbc-ee61614d8e94"},"vehicle_type_id":"4","last_reported":1712963113,"current_range_meters":20800,"station_id":"ce4bgv12rcd13ifvqcp0","pricing_plan_id":"cebpf4jnsgd1na2vs0mg"},{"bike_id":"5bb188bf-6856-4ac2-a5ad-c8ab28502cad","system_id":"levelo_inurba_marseille","lat":43.297774,"lon":5.370875,"is_reserved":false,"is_disabled":false,"rental_uris":{"android":"levelo://app?vid=5bb188bf-6856-4ac2-a5ad-c8ab28502cad","ios":"levelo://app?vid=5bb188bf-6856-4ac2-a5ad-c8ab28502cad"},"vehicle_type_id":"4","last_reported":1712963113,"current_range_meters":0,"station_id":"ce4bgop2rcd13ifvqc1g","pricing_plan_id":"cebpf4jnsgd1na2vs0mg"},{"bike_id":"e9575f6a-7c71-448f-ab59-80d8e8773a2f","system_id":"levelo_inurba_marseille","lat":43.32293,"lon":5.38266,"is_reserved":false,"is_disabled":false,"rental_uris":{"android":"levelo://app?vid=e9575f6a-7c71-448f-ab59-80d8e8773a2f","ios":"levelo://app?vid=e9575f6a-7c71-448f-ab59-80d8e8773a2f"},"vehicle_type_id":"4","last_reported":1712963113,"current_range_meters":26400,"station_id":"ce4bhr12rcd13ifvqhqg","pricing_plan_id":"cebpf4jnsgd1na2vs0mg"},{"bike_id":"471f6dc1-72d2-49b3-a8bb-13ca96ae22c1","system_id":"levelo_inurba_marseille","lat":43.322876,"lon":5.382789,"is_reserved":false,"is_disabled":false,"rental_uris":{"android":"levelo://app?vid=471f6dc1-72d2-49b3-a8bb-13ca96ae22c1","ios":"levelo://app?vid=471f6dc1-72d2-49b3-a8bb-13ca96ae22c1"},"vehicle_type_id":"4","last_reported":1712963113,"current_range_meters":4800,"station_id":"ce4bhr12rcd13ifvqhqg","pricing_plan_id":"cebpf4jnsgd1na2vs0mg"},{"bike_id":"62f70c15-673b-4b5f-8664-4716e8ac8804","system_id":"levelo_inurba_marseille","lat":43.322872,"lon":5.382756,"is_reserved":false,"is_disabled":false,"rental_uris":{"android":"levelo://app?vid=62f70c15-673b-4b5f-8664-4716e8ac8804","ios":"levelo://app?vid=62f70c15-673b-4b5f-8664-4716e8ac8804"},"vehicle_type_id":"4","last_reported":1712963113,"current_range_meters":28400,"station_id":"ce4bhr12rcd13ifvqhqg","pricing_plan_id":"cebpf4jnsgd1na2vs0mg"},{"bike_id":"dd52472c-3893-457b-90ad-84f72f0fab2f","system_id":"levelo_inurba_marseille","lat":43.297163,"lon":5.365866,"is_reserved":false,"is_disabled":false,"rental_uris":{"android":"levelo://app?vid=dd52472c-3893-457b-90ad-84f72f0fab2f","ios":"levelo://app?vid=dd52472c-3893-457b-90ad-84f72f0fab2f"},"vehicle_type_id":"4","last_reported":1712963113,"current_range_meters":27600,"station_id":"ce4bgn12rcd13ifvqbt0","pricing_plan_id":"cebpf4jnsgd1na2vs0mg"},{"bike_id":"01c3422d-8d5c-41eb-a8b1-2c81fafcb1e7","system_id":"levelo_inurba_marseille","lat":43.29703,"lon":5.36598,"is_reserved":false,"is_disabled":false,"rental_uris":{"android":"levelo://app?vid=01c3422d-8d5c-41eb-a8b1-2c81fafcb1e7","ios":"levelo://app?vid=01c3422d-8d5c-41eb-a8b1-2c81fafcb1e7"},"vehicle_type_id":"4","last_reported":1712963113,"current_range_meters":16400,"station_id":"","pricing_plan_id":"cebpf4jnsgd1na2vs0mg"},{"bike_id":"3f170d90-d8fa-4f70-9dfd-27fc8af86cb9","system_id":"levelo_inurba_marseille","lat":43.310773,"lon":5.389176,"is_reserved":false,"is_disabled":false,"rental_uris":{"android":"levelo://app?vid=3f170d90-d8fa-4f70-9dfd-27fc8af86cb9","ios":"levelo://app?vid=3f170d90-d8fa-4f70-9dfd-27fc8af86cb9"},"vehicle_type_id":"4","last_reported":1712963113,"current_range_meters":12400,"station_id":"","pricing_plan_id":"cebpf4jnsgd1na2vs0mg"},{"bike_id":"276bed6c-a046-4fa5-beab-99d6db4a80ae","system_id":"levelo_inurba_marseille","lat":43.296131,"lon":5.370791,"is_reserved":false,"is_disabled":false,"rental_uris":{"android":"levelo://app?vid=276bed6c-a046-4fa5-beab-99d6db4a80ae","ios":"levelo://app?vid=276bed6c-a046-4fa5-beab-99d6db4a80ae"},"vehicle_type_id":"4","last_reported":1712963113,"current_range_meters":0,"station_id":"ce4bgnh2rcd13ifvqc0g","pricing_plan_id":"cebpf4jnsgd1na2vs0mg"},{"bike_id":"41ca84fb-0b33-4ed6-b037-22bcfcb7e9d9","system_id":"levelo_inurba_marseille","lat":43.296129,"lon":5.370777,"is_reserved":false,"is_disabled":false,"rental_uris":{"android":"levelo://app?vid=41ca84fb-0b33-4ed6-b037-22bcfcb7e9d9","ios":"levelo://app?vid=41ca84fb-0b33-4ed6-b037-22bcfcb7e9d9"},"vehicle_type_id":"4","last_reported":1712963113,"current_range_meters":16400,"station_id":"ce4bgnh2rcd13ifvqc0g","pricing_plan_id":"cebpf4jnsgd1na2vs0mg"},{"bike_id":"bc88d8db-3228-4356-a4aa-6b57c4f839d1","system_id":"levelo_inurba_marseille","lat":43.29723,"lon":5.37685,"is_reserved":false,"is_disabled":false,"rental_uris":{"android":"levelo://app?vid=bc88d8db-3228-4356-a4aa-6b57c4f839d1","ios":"levelo://app?vid=bc88d8db-3228-4356-a4aa-6b57c4f839d1"},"vehicle_type_id":"4","last_reported":1712963113,"current_range_meters":0,"station_id":"ce4bgkh2rcd13ifvqbl0","pricing_plan_id":"cebpf4jnsgd1na2vs0mg"},{"bike_id":"a6cd625b-8830-410e-a566-bb78e015fa64","system_id":"levelo_inurba_marseille","lat":43.311722,"lon":5.387247,"is_reserved":false,"is_disabled":false,"rental_uris":{"android":"levelo://app?vid=a6cd625b-8830-410e-a566-bb78e015fa64","ios":"levelo://app?vid=a6cd625b-8830-410e-a566-bb78e015fa64"},"vehicle_type_id":"4","last_reported":1712963113,"current_range_meters":0,"station_id":"ce4bgv12rcd13ifvqcp0","pricing_plan_id":"cebpf4jnsgd1na2vs0mg"},{"bike_id":"2998dd02-aca4-4435-82cc-41a8a33790b4","system_id":"levelo_inurba_marseille","lat":43.29905,"lon":5.38145,"is_reserved":false,"is_disabled":false,"rental_uris":{"android":"levelo://app?vid=2998dd02-aca4-4435-82cc-41a8a33790b4","ios":"levelo://app?vid=2998dd02-aca4-4435-82cc-41a8a33790b4"},"vehicle_type_id":"4","last_reported":1712963113,"current_range_meters":0,"station_id":"ce4bgj12rcd13ifvqbc0","pricing_plan_id":"cebpf4jnsgd1na2vs0mg"},{"bike_id":"f0761be2-a9d7-4e53-9794-8943767c82f9","system_id":"levelo_inurba_marseille","lat":43.317557,"lon":5.390173,"is_reserved":false,"is_disabled":false,"rental_uris":{"android":"levelo://app?vid=f0761be2-a9d7-4e53-9794-8943767c82f9","ios":"levelo://app?vid=f0761be2-a9d7-4e53-9794-8943767c82f9"},"vehicle_type_id":"4","last_reported":1712963113,"current_range_meters":26800,"station_id":"ce4bhqp2rcd13ifvqhng","pricing_plan_id":"cebpf4jnsgd1na2vs0mg"},{"bike_id":"6681b098-48fd-4e49-8880-62f96600668f","system_id":"levelo_inurba_marseille","lat":43.31761,"lon":5.39014,"is_reserved":false,"is_disabled":false,"rental_uris":{"android":"levelo://app?vid=6681b098-48fd-4e49-8880-62f96600668f","ios":"levelo://app?vid=6681b098-48fd-4e49-8880-62f96600668f"},"vehicle_type_id":"4","last_reported":1712963113,"current_range_meters":1200,"station_id":"ce4bhqp2rcd13ifvqhng","pricing_plan_id":"cebpf4jnsgd1na2vs0mg"},{"bike_id":"1353979a-a377-4553-ad62-b2c43b4732d1","system_id":"levelo_inurba_marseille","lat":43.317557,"lon":5.390173,"is_reserved":false,"is_disabled":false,"rental_uris":{"android":"levelo://app?vid=1353979a-a377-4553-ad62-b2c43b4732d1","ios":"levelo://app?vid=1353979a-a377-4553-ad62-b2c43b4732d1"},"vehicle_type_id":"4","last_reported":1712963113,"current_range_meters":5600,"station_id":"ce4bhqp2rcd13ifvqhng","pricing_plan_id":"cebpf4jnsgd1na2vs0mg"},{"bike_id":"266c296e-493f-4649-800c-f2b759f100f6","system_id":"levelo_inurba_marseille","lat":43.31765,"lon":5.39017,"is_reserved":false,"is_disabled":false,"rental_uris":{"android":"levelo://app?vid=266c296e-493f-4649-800c-f2b759f100f6","ios":"levelo://app?vid=266c296e-493f-4649-800c-f2b759f100f6"},"vehicle_type_id":"4","last_reported":1712963113,"current_range_meters":0,"station_id":"ce4bhqp2rcd13ifvqhng","pricing_plan_id":"cebpf4jnsgd1na2vs0mg"},{"bike_id":"f60db280-f5ca-491e-b609-10c9d3f22401","system_id":"levelo_inurba_marseille","lat":43.298037,"lon":5.381066,"is_reserved":false,"is_disabled":false,"rental_uris":{"android":"levelo://app?vid=f60db280-f5ca-491e-b609-10c9d3f22401","ios":"levelo://app?vid=f60db280-f5ca-491e-b609-10c9d3f22401"},"vehicle_type_id":"4","last_reported":1712963113,"current_range_meters":2000,"station_id":"ce4bgip2rcd13ifvqbb0","pricing_plan_id":"cebpf4jnsgd1na2vs0mg"},{"bike_id":"a2050a15-f077-40f5-9b93-46d893144b7c","system_id":"levelo_inurba_marseille","lat":43.304274,"lon":5.388873,"is_reserved":false,"is_disabled":false,"rental_uris":{"android":"levelo://app?vid=a2050a15-f077-40f5-9b93-46d893144b7c","ios":"levelo://app?vid=a2050a15-f077-40f5-9b93-46d893144b7c"},"vehicle_type_id":"4","last_reported":1712963113,"current_range_meters":10000,"station_id":"ce4bgk12rcd13ifvqbi0","pricing_plan_id":"cebpf4jnsgd1na2vs0mg"},{"bike_id":"30f2ae1b-3210-4b5b-a8e8-790293486fc1","system_id":"levelo_inurba_marseille","lat":43.304274,"lon":5.388873,"is_reserved":false,"is_disabled":false,"rental_uris":{"android":"levelo://app?vid=30f2ae1b-3210-4b5b-a8e8-790293486fc1","ios":"levelo://app?vid=30f2ae1b-3210-4b5b-a8e8-790293486fc1"},"vehicle_type_id":"4","last_reported":1712963113,"current_range_meters":6800,"station_id":"ce4bgk12rcd13ifvqbi0","pricing_plan_id":"cebpf4jnsgd1na2vs0mg"},{"bike_id":"53914f9d-1a1f-4016-a2d4-f37f84d7b1f8","system_id":"levelo_inurba_marseille","lat":43.295748,"lon":5.37522,"is_reserved":false,"is_disabled":false,"rental_uris":{"android":"levelo://app?vid=53914f9d-1a1f-4016-a2d4-f37f84d7b1f8","ios":"levelo://app?vid=53914f9d-1a1f-4016-a2d4-f37f84d7b1f8"},"vehicle_type_id":"4","last_reported":1712963113,"current_range_meters":0,"station_id":"ce4bgh92rcd13ifvqb50","pricing_plan_id":"cebpf4jnsgd1na2vs0mg"},{"bike_id":"f76fe9ec-b8fd-4dc1-b090-4961bbaaa42a","system_id":"levelo_inurba_marseille","lat":43.304274,"lon":5.388873,"is_reserved":false,"is_disabled":false,"rental_uris":{"android":"levelo://app?vid=f76fe9ec-b8fd-4dc1-b090-4961bbaaa42a","ios":"levelo://app?vid=f76fe9ec-b8fd-4dc1-b090-4961bbaaa42a"},"vehicle_type_id":"4","last_reported":1712963113,"current_range_meters":11200,"station_id":"ce4bgk12rcd13ifvqbi0","pricing_plan_id":"cebpf4jnsgd1na2vs0mg"},{"bike_id":"3ddbaaa9-15f4-40e6-8946-0851b7f60a5b","system_id":"levelo_inurba_marseille","lat":43.304274,"lon":5.388873,"is_reserved":false,"is_disabled":false,"rental_uris":{"android":"levelo://app?vid=3ddbaaa9-15f4-40e6-8946-0851b7f60a5b","ios":"levelo://app?vid=3ddbaaa9-15f4-40e6-8946-0851b7f60a5b"},"vehicle_type_id":"4","last_reported":1712963113,"current_range_meters":20400,"station_id":"ce4bgk12rcd13ifvqbi0","pricing_plan_id":"cebpf4jnsgd1na2vs0mg"},{"bike_id":"9b780e05-fd97-4098-84fb-fe802218cb34","system_id":"levelo_inurba_marseille","lat":43.304278,"lon":5.388868,"is_reserved":false,"is_disabled":false,"rental_uris":{"android":"levelo://app?vid=9b780e05-fd97-4098-84fb-fe802218cb34","ios":"levelo://app?vid=9b780e05-fd97-4098-84fb-fe802218cb34"},"vehicle_type_id":"4","last_reported":1712963113,"current_range_meters":6800,"station_id":"ce4bgk12rcd13ifvqbi0","pricing_plan_id":"cebpf4jnsgd1na2vs0mg"},{"bike_id":"181f9c77-29b0-4ce3-9632-4d08ac31eef3","system_id":"levelo_inurba_marseille","lat":43.304274,"lon":5.388873,"is_reserved":false,"is_disabled":false,"rental_uris":{"android":"levelo://app?vid=181f9c77-29b0-4ce3-9632-4d08ac31eef3","ios":"levelo://app?vid=181f9c77-29b0-4ce3-9632-4d08ac31eef3"},"vehicle_type_id":"4","last_reported":1712963113,"current_range_meters":23200,"station_id":"ce4bgk12rcd13ifvqbi0","pricing_plan_id":"cebpf4jnsgd1na2vs0mg"},{"bike_id":"87768a68-be65-4247-a158-926ad4417bfe","system_id":"levelo_inurba_marseille","lat":43.304278,"lon":5.388868,"is_reserved":false,"is_disabled":false,"rental_uris":{"android":"levelo://app?vid=87768a68-be65-4247-a158-926ad4417bfe","ios":"levelo://app?vid=87768a68-be65-4247-a158-926ad4417bfe"},"vehicle_type_id":"4","last_reported":1712963113,"current_range_meters":14000,"station_id":"ce4bgk12rcd13ifvqbi0","pricing_plan_id":"cebpf4jnsgd1na2vs0mg"},{"bike_id":"019c14c3-0563-4012-a9f3-173d1377a480","system_id":"levelo_inurba_marseille","lat":43.304274,"lon":5.388873,"is_reserved":false,"is_disabled":false,"rental_uris":{"android":"levelo://app?vid=019c14c3-0563-4012-a9f3-173d1377a480","ios":"levelo://app?vid=019c14c3-0563-4012-a9f3-173d1377a480"},"vehicle_type_id":"4","last_reported":1712963113,"current_range_meters":7600,"station_id":"ce4bgk12rcd13ifvqbi0","pricing_plan_id":"cebpf4jnsgd1na2vs0mg"},{"bike_id":"8e79221d-9a9a-4857-a2e6-3d9bfb8e4c83","system_id":"levelo_inurba_marseille","lat":43.29616,"lon":5.377233,"is_reserved":false,"is_disabled":false,"rental_uris":{"android":"levelo://app?vid=8e79221d-9a9a-4857-a2e6-3d9bfb8e4c83","ios":"levelo://app?vid=8e79221d-9a9a-4857-a2e6-3d9bfb8e4c83"},"vehicle_type_id":"4","last_reported":1712963113,"current_range_meters":0,"station_id":"ce4bgi92rcd13ifvqb90","pricing_plan_id":"cebpf4jnsgd1na2vs0mg"},{"bike_id":"4653e648-6175-46a7-a934-f7e80d5fa128","system_id":"levelo_inurba_marseille","lat":43.324771,"lon":5.36557,"is_reserved":false,"is_disabled":false,"rental_uris":{"android":"levelo://app?vid=4653e648-6175-46a7-a934-f7e80d5fa128","ios":"levelo://app?vid=4653e648-6175-46a7-a934-f7e80d5fa128"},"vehicle_type_id":"4","last_reported":1712963113,"current_range_meters":20800,"station_id":"ce4bhs12rcd13ifvqhvg","pricing_plan_id":"cebpf4jnsgd1na2vs0mg"},{"bike_id":"60ddb34d-ea6d-4dda-ba6a-9b99002bd53f","system_id":"levelo_inurba_marseille","lat":43.299717,"lon":5.384845,"is_reserved":false,"is_disabled":false,"rental_uris":{"android":"levelo://app?vid=60ddb34d-ea6d-4dda-ba6a-9b99002bd53f","ios":"levelo://app?vid=60ddb34d-ea6d-4dda-ba6a-9b99002bd53f"},"vehicle_type_id":"4","last_reported":1712963113,"current_range_meters":12800,"station_id":"ce4bgj92rcd13ifvqbd0","pricing_plan_id":"cebpf4jnsgd1na2vs0mg"},{"bike_id":"3bae8175-d156-4f0a-8e46-9ab6bf799b46","system_id":"levelo_inurba_marseille","lat":43.295515,"lon":5.377555,"is_reserved":false,"is_disabled":false,"rental_uris":{"android":"levelo://app?vid=3bae8175-d156-4f0a-8e46-9ab6bf799b46","ios":"levelo://app?vid=3bae8175-d156-4f0a-8e46-9ab6bf799b46"},"vehicle_type_id":"4","last_reported":1712963113,"current_range_meters":24400,"station_id":"ce4bh512rcd13ifvqe3g","pricing_plan_id":"cebpf4jnsgd1na2vs0mg"},{"bike_id":"9c71595d-cead-4e17-947d-2ace0d39e986","system_id":"levelo_inurba_marseille","lat":43.32367,"lon":5.388836,"is_reserved":false,"is_disabled":false,"rental_uris":{"android":"levelo://app?vid=9c71595d-cead-4e17-947d-2ace0d39e986","ios":"levelo://app?vid=9c71595d-cead-4e17-947d-2ace0d39e986"},"vehicle_type_id":"4","last_reported":1712963113,"current_range_meters":4000,"station_id":"ce4bhqp2rcd13ifvqhog","pricing_plan_id":"cebpf4jnsgd1na2vs0mg"},{"bike_id":"87a47446-1586-4275-a330-21ccd2663eec","system_id":"levelo_inurba_marseille","lat":43.32367,"lon":5.388836,"is_reserved":false,"is_disabled":false,"rental_uris":{"android":"levelo://app?vid=87a47446-1586-4275-a330-21ccd2663eec","ios":"levelo://app?vid=87a47446-1586-4275-a330-21ccd2663eec"},"vehicle_type_id":"4","last_reported":1712963113,"current_range_meters":2400,"station_id":"ce4bhqp2rcd13ifvqhog","pricing_plan_id":"cebpf4jnsgd1na2vs0mg"},{"bike_id":"f61562f9-3d2e-4bad-b4a2-f246cc318496","system_id":"levelo_inurba_marseille","lat":43.32367,"lon":5.388836,"is_reserved":false,"is_disabled":false,"rental_uris":{"android":"levelo://app?vid=f61562f9-3d2e-4bad-b4a2-f246cc318496","ios":"levelo://app?vid=f61562f9-3d2e-4bad-b4a2-f246cc318496"},"vehicle_type_id":"4","last_reported":1712963113,"current_range_meters":22000,"station_id":"ce4bhqp2rcd13ifvqhog","pricing_plan_id":"cebpf4jnsgd1na2vs0mg"},{"bike_id":"f92879e8-6d15-46d6-a097-d8e8ae205312","system_id":"levelo_inurba_marseille","lat":43.32365,"lon":5.38888,"is_reserved":false,"is_disabled":false,"rental_uris":{"android":"levelo://app?vid=f92879e8-6d15-46d6-a097-d8e8ae205312","ios":"levelo://app?vid=f92879e8-6d15-46d6-a097-d8e8ae205312"},"vehicle_type_id":"4","last_reported":1712963113,"current_range_meters":3200,"station_id":"ce4bhqp2rcd13ifvqhog","pricing_plan_id":"cebpf4jnsgd1na2vs0mg"},{"bike_id":"505dc0ba-6b98-4990-a00b-e8d73d59d325","system_id":"levelo_inurba_marseille","lat":43.32367,"lon":5.388836,"is_reserved":false,"is_disabled":false,"rental_uris":{"android":"levelo://app?vid=505dc0ba-6b98-4990-a00b-e8d73d59d325","ios":"levelo://app?vid=505dc0ba-6b98-4990-a00b-e8d73d59d325"},"vehicle_type_id":"4","last_reported":1712963113,"current_range_meters":24000,"station_id":"ce4bhqp2rcd13ifvqhog","pricing_plan_id":"cebpf4jnsgd1na2vs0mg"},{"bike_id":"fe02a49c-c55e-40d0-a225-4ae35f043698","system_id":"levelo_inurba_marseille","lat":43.32367,"lon":5.388836,"is_reserved":false,"is_disabled":false,"rental_uris":{"android":"levelo://app?vid=fe02a49c-c55e-40d0-a225-4ae35f043698","ios":"levelo://app?vid=fe02a49c-c55e-40d0-a225-4ae35f043698"},"vehicle_type_id":"4","last_reported":1712963113,"current_range_meters":0,"station_id":"ce4bhqp2rcd13ifvqhog","pricing_plan_id":"cebpf4jnsgd1na2vs0mg"},{"bike_id":"86425145-7d94-445f-834b-d9bf53e1be35","system_id":"levelo_inurba_marseille","lat":43.29601,"lon":5.381084,"is_reserved":false,"is_disabled":false,"rental_uris":{"android":"levelo://app?vid=86425145-7d94-445f-834b-d9bf53e1be35","ios":"levelo://app?vid=86425145-7d94-445f-834b-d9bf53e1be35"},"vehicle_type_id":"4","last_reported":1712963113,"current_range_meters":0,"station_id":"ce4bgl12rcd13ifvqbo0","pricing_plan_id":"cebpf4jnsgd1na2vs0mg"},{"bike_id":"253f5f4e-907f-480c-8d65-3cfea117a757","system_id":"levelo_inurba_marseille","lat":43.29602,"lon":5.381084,"is_reserved":false,"is_disabled":false,"rental_uris":{"android":"levelo://app?vid=253f5f4e-907f-480c-8d65-3cfea117a757","ios":"levelo://app?vid=253f5f4e-907f-480c-8d65-3cfea117a757"},"vehicle_type_id":"4","last_reported":1712963113,"current_range_meters":1200,"station_id":"ce4bgl12rcd13ifvqbo0","pricing_plan_id":"cebpf4jnsgd1na2vs0mg"},{"bike_id":"8f3ea1b8-4336-45a7-94df-cd9899d795cc","system_id":"levelo_inurba_marseille","lat":43.29309,"lon":5.37164,"is_reserved":false,"is_disabled":false,"rental_uris":{"android":"levelo://app?vid=8f3ea1b8-4336-45a7-94df-cd9899d795cc","ios":"levelo://app?vid=8f3ea1b8-4336-45a7-94df-cd9899d795cc"},"vehicle_type_id":"4","last_reported":1712963113,"current_range_meters":0,"station_id":"ce4bgh92rcd13ifvqb40","pricing_plan_id":"cebpf4jnsgd1na2vs0mg"},{"bike_id":"4e1bf405-44e0-462c-af32-bb20d8b99a41","system_id":"levelo_inurba_marseille","lat":43.293249,"lon":5.371578,"is_reserved":false,"is_disabled":false,"rental_uris":{"android":"levelo://app?vid=4e1bf405-44e0-462c-af32-bb20d8b99a41","ios":"levelo://app?vid=4e1bf405-44e0-462c-af32-bb20d8b99a41"},"vehicle_type_id":"4","last_reported":1712963113,"current_range_meters":0,"station_id":"ce4bgh92rcd13ifvqb40","pricing_plan_id":"cebpf4jnsgd1na2vs0mg"},{"bike_id":"8f7f9cae-35e8-44da-9c9f-07d102322ea2","system_id":"levelo_inurba_marseille","lat":43.29272,"lon":5.36852,"is_reserved":false,"is_disabled":false,"rental_uris":{"android":"levelo://app?vid=8f7f9cae-35e8-44da-9c9f-07d102322ea2","ios":"levelo://app?vid=8f7f9cae-35e8-44da-9c9f-07d102322ea2"},"vehicle_type_id":"4","last_reported":1712963113,"current_range_meters":0,"station_id":"ce4bhbp2rcd13ifvqesg","pricing_plan_id":"cebpf4jnsgd1na2vs0mg"},{"bike_id":"678c5173-6f30-4fa6-83a1-3293dd342bcc","system_id":"levelo_inurba_marseille","lat":43.292749,"lon":5.368402,"is_reserved":false,"is_disabled":false,"rental_uris":{"android":"levelo://app?vid=678c5173-6f30-4fa6-83a1-3293dd342bcc","ios":"levelo://app?vid=678c5173-6f30-4fa6-83a1-3293dd342bcc"},"vehicle_type_id":"4","last_reported":1712963113,"current_range_meters":0,"station_id":"ce4bhbp2rcd13ifvqesg","pricing_plan_id":"cebpf4jnsgd1na2vs0mg"},{"bike_id":"6092304f-d8e2-4a43-a16e-5edfcf224200","system_id":"levelo_inurba_marseille","lat":43.293009,"lon":5.374584,"is_reserved":false,"is_disabled":false,"rental_uris":{"android":"levelo://app?vid=6092304f-d8e2-4a43-a16e-5edfcf224200","ios":"levelo://app?vid=6092304f-d8e2-4a43-a16e-5edfcf224200"},"vehicle_type_id":"4","last_reported":1712963113,"current_range_meters":12000,"station_id":"ce4bgi12rcd13ifvqb70","pricing_plan_id":"cebpf4jnsgd1na2vs0mg"},{"bike_id":"7ac0c1c7-ad56-4c53-b62b-c74b9e96bb07","system_id":"levelo_inurba_marseille","lat":43.293009,"lon":5.374584,"is_reserved":false,"is_disabled":false,"rental_uris":{"android":"levelo://app?vid=7ac0c1c7-ad56-4c53-b62b-c74b9e96bb07","ios":"levelo://app?vid=7ac0c1c7-ad56-4c53-b62b-c74b9e96bb07"},"vehicle_type_id":"4","last_reported":1712963113,"current_range_meters":2400,"station_id":"ce4bgi12rcd13ifvqb70","pricing_plan_id":"cebpf4jnsgd1na2vs0mg"},{"bike_id":"ecc7f464-84a7-46d1-97e2-d7777a1288da","system_id":"levelo_inurba_marseille","lat":43.305994,"lon":5.393687,"is_reserved":false,"is_disabled":false,"rental_uris":{"android":"levelo://app?vid=ecc7f464-84a7-46d1-97e2-d7777a1288da","ios":"levelo://app?vid=ecc7f464-84a7-46d1-97e2-d7777a1288da"},"vehicle_type_id":"4","last_reported":1712963113,"current_range_meters":22800,"station_id":"ce4bh0p2rcd13ifvqd80","pricing_plan_id":"cebpf4jnsgd1na2vs0mg"},{"bike_id":"8db23a51-c831-4c11-a753-5c16e9330335","system_id":"levelo_inurba_marseille","lat":43.31529,"lon":5.39523,"is_reserved":false,"is_disabled":false,"rental_uris":{"android":"levelo://app?vid=8db23a51-c831-4c11-a753-5c16e9330335","ios":"levelo://app?vid=8db23a51-c831-4c11-a753-5c16e9330335"},"vehicle_type_id":"4","last_reported":1712963113,"current_range_meters":6000,"station_id":"","pricing_plan_id":"cebpf4jnsgd1na2vs0mg"},{"bike_id":"9188750a-8179-4229-b11a-c7d30a99aa63","system_id":"levelo_inurba_marseille","lat":43.29369,"lon":5.37845,"is_reserved":false,"is_disabled":false,"rental_uris":{"android":"levelo://app?vid=9188750a-8179-4229-b11a-c7d30a99aa63","ios":"levelo://app?vid=9188750a-8179-4229-b11a-c7d30a99aa63"},"vehicle_type_id":"4","last_reported":1712963113,"current_range_meters":0,"station_id":"ce4bgjh2rcd13ifvqbf0","pricing_plan_id":"cebpf4jnsgd1na2vs0mg"},{"bike_id":"79e76be1-b4fb-4def-93d5-b22b3885fb20","system_id":"levelo_inurba_marseille","lat":43.302992,"lon":5.392136,"is_reserved":false,"is_disabled":false,"rental_uris":{"android":"levelo://app?vid=79e76be1-b4fb-4def-93d5-b22b3885fb20","ios":"levelo://app?vid=79e76be1-b4fb-4def-93d5-b22b3885fb20"},"vehicle_type_id":"4","last_reported":1712963113,"current_range_meters":23200,"station_id":"ce4bgkh2rcd13ifvqbk0","pricing_plan_id":"cebpf4jnsgd1na2vs0mg"},{"bike_id":"627a7ff9-7ed8-4af2-9e74-7cc7e95f6bdb","system_id":"levelo_inurba_marseille","lat":43.2936,"lon":5.37835,"is_reserved":false,"is_disabled":false,"rental_uris":{"android":"levelo://app?vid=627a7ff9-7ed8-4af2-9e74-7cc7e95f6bdb","ios":"levelo://app?vid=627a7ff9-7ed8-4af2-9e74-7cc7e95f6bdb"},"vehicle_type_id":"4","last_reported":1712963113,"current_range_meters":24800,"station_id":"ce4bgjh2rcd13ifvqbf0","pricing_plan_id":"cebpf4jnsgd1na2vs0mg"},{"bike_id":"41175337-17ed-4bbd-adc2-b7b5bfb19d3b","system_id":"levelo_inurba_marseille","lat":43.290995,"lon":5.381361,"is_reserved":false,"is_disabled":false,"rental_uris":{"android":"levelo://app?vid=41175337-17ed-4bbd-adc2-b7b5bfb19d3b","ios":"levelo://app?vid=41175337-17ed-4bbd-adc2-b7b5bfb19d3b"},"vehicle_type_id":"4","last_reported":1712963113,"current_range_meters":20400,"station_id":"ce4bh512rcd13ifvqe2g","pricing_plan_id":"cebpf4jnsgd1na2vs0mg"},{"bike_id":"920ea201-96e8-4d37-aae4-7b47592ab518","system_id":"levelo_inurba_marseille","lat":43.298764,"lon":5.388973,"is_reserved":false,"is_disabled":false,"rental_uris":{"android":"levelo://app?vid=920ea201-96e8-4d37-aae4-7b47592ab518","ios":"levelo://app?vid=920ea201-96e8-4d37-aae4-7b47592ab518"},"vehicle_type_id":"4","last_reported":1712963113,"current_range_meters":8800,"station_id":"ce4bh392rcd13ifvqdl0","pricing_plan_id":"cebpf4jnsgd1na2vs0mg"},{"bike_id":"cddbbff5-c3b2-4ba8-9b6a-d693fd33d9e7","system_id":"levelo_inurba_marseille","lat":43.292005,"lon":5.357875,"is_reserved":false,"is_disabled":false,"rental_uris":{"android":"levelo://app?vid=cddbbff5-c3b2-4ba8-9b6a-d693fd33d9e7","ios":"levelo://app?vid=cddbbff5-c3b2-4ba8-9b6a-d693fd33d9e7"},"vehicle_type_id":"4","last_reported":1712963113,"current_range_meters":16800,"station_id":"ce4bhb12rcd13ifvqel0","pricing_plan_id":"cebpf4jnsgd1na2vs0mg"},{"bike_id":"e1cf801c-c0b3-4ec7-8901-4da30f3987fb","system_id":"levelo_inurba_marseille","lat":43.291994,"lon":5.357886,"is_reserved":false,"is_disabled":false,"rental_uris":{"android":"levelo://app?vid=e1cf801c-c0b3-4ec7-8901-4da30f3987fb","ios":"levelo://app?vid=e1cf801c-c0b3-4ec7-8901-4da30f3987fb"},"vehicle_type_id":"4","last_reported":1712963113,"current_range_meters":23600,"station_id":"ce4bhb12rcd13ifvqel0","pricing_plan_id":"cebpf4jnsgd1na2vs0mg"},{"bike_id":"6dcf9faf-c9e5-43ab-bfc5-1c3f6f300e72","system_id":"levelo_inurba_marseille","lat":43.309047,"lon":5.396551,"is_reserved":false,"is_disabled":false,"rental_uris":{"android":"levelo://app?vid=6dcf9faf-c9e5-43ab-bfc5-1c3f6f300e72","ios":"levelo://app?vid=6dcf9faf-c9e5-43ab-bfc5-1c3f6f300e72"},"vehicle_type_id":"4","last_reported":1712963113,"current_range_meters":14400,"station_id":"ce4bh012rcd13ifvqcv0","pricing_plan_id":"cebpf4jnsgd1na2vs0mg"},{"bike_id":"2397688c-6d80-47d4-a6a7-cfda44fbc2b1","system_id":"levelo_inurba_marseille","lat":43.31331,"lon":5.39686,"is_reserved":false,"is_disabled":false,"rental_uris":{"android":"levelo://app?vid=2397688c-6d80-47d4-a6a7-cfda44fbc2b1","ios":"levelo://app?vid=2397688c-6d80-47d4-a6a7-cfda44fbc2b1"},"vehicle_type_id":"4","last_reported":1712963113,"current_range_meters":10800,"station_id":"ce4bgvp2rcd13ifvqcu0","pricing_plan_id":"cebpf4jnsgd1na2vs0mg"},{"bike_id":"0212edaf-c368-48ad-ba90-b8794090e936","system_id":"levelo_inurba_marseille","lat":43.291994,"lon":5.357886,"is_reserved":false,"is_disabled":false,"rental_uris":{"android":"levelo://app?vid=0212edaf-c368-48ad-ba90-b8794090e936","ios":"levelo://app?vid=0212edaf-c368-48ad-ba90-b8794090e936"},"vehicle_type_id":"4","last_reported":1712963113,"current_range_meters":25200,"station_id":"ce4bhb12rcd13ifvqel0","pricing_plan_id":"cebpf4jnsgd1na2vs0mg"},{"bike_id":"feac052d-246a-4e96-8c18-09370cc9ac9f","system_id":"levelo_inurba_marseille","lat":43.291965,"lon":5.357877,"is_reserved":false,"is_disabled":false,"rental_uris":{"android":"levelo://app?vid=feac052d-246a-4e96-8c18-09370cc9ac9f","ios":"levelo://app?vid=feac052d-246a-4e96-8c18-09370cc9ac9f"},"vehicle_type_id":"4","last_reported":1712963113,"current_range_meters":0,"station_id":"ce4bhb12rcd13ifvqel0","pricing_plan_id":"cebpf4jnsgd1na2vs0mg"},{"bike_id":"243e8223-b01c-4587-bade-2a805e968ce6","system_id":"levelo_inurba_marseille","lat":43.313291,"lon":5.396838,"is_reserved":false,"is_disabled":false,"rental_uris":{"android":"levelo://app?vid=243e8223-b01c-4587-bade-2a805e968ce6","ios":"levelo://app?vid=243e8223-b01c-4587-bade-2a805e968ce6"},"vehicle_type_id":"4","last_reported":1712963113,"current_range_meters":14400,"station_id":"ce4bgvp2rcd13ifvqcu0","pricing_plan_id":"cebpf4jnsgd1na2vs0mg"},{"bike_id":"b0f26820-1d5c-4497-8041-19a467c05609","system_id":"levelo_inurba_marseille","lat":43.309047,"lon":5.396551,"is_reserved":false,"is_disabled":false,"rental_uris":{"android":"levelo://app?vid=b0f26820-1d5c-4497-8041-19a467c05609","ios":"levelo://app?vid=b0f26820-1d5c-4497-8041-19a467c05609"},"vehicle_type_id":"4","last_reported":1712963113,"current_range_meters":4400,"station_id":"ce4bh012rcd13ifvqcv0","pricing_plan_id":"cebpf4jnsgd1na2vs0mg"},{"bike_id":"5ebe0251-3709-4060-b643-9a655be0fc36","system_id":"levelo_inurba_marseille","lat":43.291924,"lon":5.357996,"is_reserved":false,"is_disabled":false,"rental_uris":{"android":"levelo://app?vid=5ebe0251-3709-4060-b643-9a655be0fc36","ios":"levelo://app?vid=5ebe0251-3709-4060-b643-9a655be0fc36"},"vehicle_type_id":"4","last_reported":1712963113,"current_range_meters":0,"station_id":"ce4bhb12rcd13ifvqel0","pricing_plan_id":"cebpf4jnsgd1na2vs0mg"},{"bike_id":"745a5e9a-478d-45e8-a4df-b33f15f73280","system_id":"levelo_inurba_marseille","lat":43.313291,"lon":5.396838,"is_reserved":false,"is_disabled":false,"rental_uris":{"android":"levelo://app?vid=745a5e9a-478d-45e8-a4df-b33f15f73280","ios":"levelo://app?vid=745a5e9a-478d-45e8-a4df-b33f15f73280"},"vehicle_type_id":"4","last_reported":1712963113,"current_range_meters":0,"station_id":"ce4bgvp2rcd13ifvqcu0","pricing_plan_id":"cebpf4jnsgd1na2vs0mg"},{"bike_id":"bf2ac444-58f0-4d19-b298-639a734eb717","system_id":"levelo_inurba_marseille","lat":43.313291,"lon":5.396838,"is_reserved":false,"is_disabled":false,"rental_uris":{"android":"levelo://app?vid=bf2ac444-58f0-4d19-b298-639a734eb717","ios":"levelo://app?vid=bf2ac444-58f0-4d19-b298-639a734eb717"},"vehicle_type_id":"4","last_reported":1712963113,"current_range_meters":400,"station_id":"ce4bgvp2rcd13ifvqcu0","pricing_plan_id":"cebpf4jnsgd1na2vs0mg"},{"bike_id":"8824a936-11e5-4a7c-8ae1-4d0b856fe432","system_id":"levelo_inurba_marseille","lat":43.313291,"lon":5.396838,"is_reserved":false,"is_disabled":false,"rental_uris":{"android":"levelo://app?vid=8824a936-11e5-4a7c-8ae1-4d0b856fe432","ios":"levelo://app?vid=8824a936-11e5-4a7c-8ae1-4d0b856fe432"},"vehicle_type_id":"4","last_reported":1712963113,"current_range_meters":12400,"station_id":"ce4bgvp2rcd13ifvqcu0","pricing_plan_id":"cebpf4jnsgd1na2vs0mg"},{"bike_id":"24d39aca-4679-4269-8ea6-b99646c03e80","system_id":"levelo_inurba_marseille","lat":43.313291,"lon":5.396838,"is_reserved":false,"is_disabled":false,"rental_uris":{"android":"levelo://app?vid=24d39aca-4679-4269-8ea6-b99646c03e80","ios":"levelo://app?vid=24d39aca-4679-4269-8ea6-b99646c03e80"},"vehicle_type_id":"4","last_reported":1712963113,"current_range_meters":22000,"station_id":"ce4bgvp2rcd13ifvqcu0","pricing_plan_id":"cebpf4jnsgd1na2vs0mg"},{"bike_id":"239df0f4-d2f3-4640-9ec4-18701c6410c0","system_id":"levelo_inurba_marseille","lat":43.309038,"lon":5.396546,"is_reserved":false,"is_disabled":false,"rental_uris":{"android":"levelo://app?vid=239df0f4-d2f3-4640-9ec4-18701c6410c0","ios":"levelo://app?vid=239df0f4-d2f3-4640-9ec4-18701c6410c0"},"vehicle_type_id":"4","last_reported":1712963113,"current_range_meters":9600,"station_id":"ce4bh012rcd13ifvqcv0","pricing_plan_id":"cebpf4jnsgd1na2vs0mg"},{"bike_id":"a51ea956-2d0f-43f9-b4f2-c4827c123280","system_id":"levelo_inurba_marseille","lat":43.313291,"lon":5.396838,"is_reserved":false,"is_disabled":false,"rental_uris":{"android":"levelo://app?vid=a51ea956-2d0f-43f9-b4f2-c4827c123280","ios":"levelo://app?vid=a51ea956-2d0f-43f9-b4f2-c4827c123280"},"vehicle_type_id":"4","last_reported":1712963113,"current_range_meters":12000,"station_id":"ce4bgvp2rcd13ifvqcu0","pricing_plan_id":"cebpf4jnsgd1na2vs0mg"},{"bike_id":"7386aa34-1339-4aed-a053-334bee4cfa06","system_id":"levelo_inurba_marseille","lat":43.313291,"lon":5.396838,"is_reserved":false,"is_disabled":false,"rental_uris":{"android":"levelo://app?vid=7386aa34-1339-4aed-a053-334bee4cfa06","ios":"levelo://app?vid=7386aa34-1339-4aed-a053-334bee4cfa06"},"vehicle_type_id":"4","last_reported":1712963113,"current_range_meters":3200,"station_id":"ce4bgvp2rcd13ifvqcu0","pricing_plan_id":"cebpf4jnsgd1na2vs0mg"},{"bike_id":"b2cb1e09-6632-486e-99f3-02b8501929ab","system_id":"levelo_inurba_marseille","lat":43.313291,"lon":5.396838,"is_reserved":false,"is_disabled":false,"rental_uris":{"android":"levelo://app?vid=b2cb1e09-6632-486e-99f3-02b8501929ab","ios":"levelo://app?vid=b2cb1e09-6632-486e-99f3-02b8501929ab"},"vehicle_type_id":"4","last_reported":1712963113,"current_range_meters":19200,"station_id":"ce4bgvp2rcd13ifvqcu0","pricing_plan_id":"cebpf4jnsgd1na2vs0mg"},{"bike_id":"b3afa7ad-ec3c-47b8-a275-c8a6cd354115","system_id":"levelo_inurba_marseille","lat":43.291867,"lon":5.357903,"is_reserved":false,"is_disabled":false,"rental_uris":{"android":"levelo://app?vid=b3afa7ad-ec3c-47b8-a275-c8a6cd354115","ios":"levelo://app?vid=b3afa7ad-ec3c-47b8-a275-c8a6cd354115"},"vehicle_type_id":"4","last_reported":1712963113,"current_range_meters":0,"station_id":"ce4bhb12rcd13ifvqel0","pricing_plan_id":"cebpf4jnsgd1na2vs0mg"},{"bike_id":"762c4e78-d23f-4e0a-85e8-b68009ce37f4","system_id":"levelo_inurba_marseille","lat":43.313291,"lon":5.396838,"is_reserved":false,"is_disabled":false,"rental_uris":{"android":"levelo://app?vid=762c4e78-d23f-4e0a-85e8-b68009ce37f4","ios":"levelo://app?vid=762c4e78-d23f-4e0a-85e8-b68009ce37f4"},"vehicle_type_id":"4","last_reported":1712963113,"current_range_meters":0,"station_id":"ce4bgvp2rcd13ifvqcu0","pricing_plan_id":"cebpf4jnsgd1na2vs0mg"},{"bike_id":"ebc0a384-b02e-497a-96d6-62484746c269","system_id":"levelo_inurba_marseille","lat":43.309047,"lon":5.396551,"is_reserved":false,"is_disabled":false,"rental_uris":{"android":"levelo://app?vid=ebc0a384-b02e-497a-96d6-62484746c269","ios":"levelo://app?vid=ebc0a384-b02e-497a-96d6-62484746c269"},"vehicle_type_id":"4","last_reported":1712963113,"current_range_meters":15600,"station_id":"ce4bh012rcd13ifvqcv0","pricing_plan_id":"cebpf4jnsgd1na2vs0mg"},{"bike_id":"d6e5343a-2ebe-46c2-924f-56ce4749e95e","system_id":"levelo_inurba_marseille","lat":43.31322,"lon":5.397,"is_reserved":false,"is_disabled":false,"rental_uris":{"android":"levelo://app?vid=d6e5343a-2ebe-46c2-924f-56ce4749e95e","ios":"levelo://app?vid=d6e5343a-2ebe-46c2-924f-56ce4749e95e"},"vehicle_type_id":"4","last_reported":1712963113,"current_range_meters":19200,"station_id":"ce4bgvp2rcd13ifvqcu0","pricing_plan_id":"cebpf4jnsgd1na2vs0mg"},{"bike_id":"f278dc7c-b73f-4656-987b-9928bff44ef3","system_id":"levelo_inurba_marseille","lat":43.309038,"lon":5.396546,"is_reserved":false,"is_disabled":false,"rental_uris":{"android":"levelo://app?vid=f278dc7c-b73f-4656-987b-9928bff44ef3","ios":"levelo://app?vid=f278dc7c-b73f-4656-987b-9928bff44ef3"},"vehicle_type_id":"4","last_reported":1712963113,"current_range_meters":20400,"station_id":"ce4bh012rcd13ifvqcv0","pricing_plan_id":"cebpf4jnsgd1na2vs0mg"},{"bike_id":"3483c4d8-208a-46df-9c57-6a5d5f4f1beb","system_id":"levelo_inurba_marseille","lat":43.309038,"lon":5.396546,"is_reserved":false,"is_disabled":false,"rental_uris":{"android":"levelo://app?vid=3483c4d8-208a-46df-9c57-6a5d5f4f1beb","ios":"levelo://app?vid=3483c4d8-208a-46df-9c57-6a5d5f4f1beb"},"vehicle_type_id":"4","last_reported":1712963113,"current_range_meters":15200,"station_id":"ce4bh012rcd13ifvqcv0","pricing_plan_id":"cebpf4jnsgd1na2vs0mg"},{"bike_id":"47bb9374-df45-4a3d-a875-b4d474473e2a","system_id":"levelo_inurba_marseille","lat":43.29066,"lon":5.37156,"is_reserved":false,"is_disabled":false,"rental_uris":{"android":"levelo://app?vid=47bb9374-df45-4a3d-a875-b4d474473e2a","ios":"levelo://app?vid=47bb9374-df45-4a3d-a875-b4d474473e2a"},"vehicle_type_id":"4","last_reported":1712963113,"current_range_meters":0,"station_id":"ce4bh5p2rcd13ifvqe4g","pricing_plan_id":"cebpf4jnsgd1na2vs0mg"},{"bike_id":"86d693f9-02f8-4768-9d3c-6d4b37969809","system_id":"levelo_inurba_marseille","lat":43.302008,"lon":5.394694,"is_reserved":false,"is_disabled":false,"rental_uris":{"android":"levelo://app?vid=86d693f9-02f8-4768-9d3c-6d4b37969809","ios":"levelo://app?vid=86d693f9-02f8-4768-9d3c-6d4b37969809"},"vehicle_type_id":"4","last_reported":1712963113,"current_range_meters":0,"station_id":"ce4bh0p2rcd13ifvqd70","pricing_plan_id":"cebpf4jnsgd1na2vs0mg"},{"bike_id":"88c93099-1bd9-4e6d-8ab7-0224e4e001b8","system_id":"levelo_inurba_marseille","lat":43.302008,"lon":5.394694,"is_reserved":false,"is_disabled":false,"rental_uris":{"android":"levelo://app?vid=88c93099-1bd9-4e6d-8ab7-0224e4e001b8","ios":"levelo://app?vid=88c93099-1bd9-4e6d-8ab7-0224e4e001b8"},"vehicle_type_id":"4","last_reported":1712963113,"current_range_meters":1200,"station_id":"ce4bh0p2rcd13ifvqd70","pricing_plan_id":"cebpf4jnsgd1na2vs0mg"},{"bike_id":"f01eac2f-ab4b-44d7-90f8-9ca75e8ae63a","system_id":"levelo_inurba_marseille","lat":43.283494,"lon":5.380945,"is_reserved":false,"is_disabled":false,"rental_uris":{"android":"levelo://app?vid=f01eac2f-ab4b-44d7-90f8-9ca75e8ae63a","ios":"levelo://app?vid=f01eac2f-ab4b-44d7-90f8-9ca75e8ae63a"},"vehicle_type_id":"4","last_reported":1712963113,"current_range_meters":16000,"station_id":"ce4bh412rcd13ifvqdr0","pricing_plan_id":"cebpf4jnsgd1na2vs0mg"},{"bike_id":"7d976dfa-9f6d-40cb-a24c-b7eb245fc2a6","system_id":"levelo_inurba_marseille","lat":43.28945,"lon":5.366377,"is_reserved":false,"is_disabled":false,"rental_uris":{"android":"levelo://app?vid=7d976dfa-9f6d-40cb-a24c-b7eb245fc2a6","ios":"levelo://app?vid=7d976dfa-9f6d-40cb-a24c-b7eb245fc2a6"},"vehicle_type_id":"4","last_reported":1712963113,"current_range_meters":31200,"station_id":"ce4bhap2rcd13ifvqek0","pricing_plan_id":"cebpf4jnsgd1na2vs0mg"},{"bike_id":"d75bd815-16bb-4d67-b924-1b46383133cc","system_id":"levelo_inurba_marseille","lat":43.28945,"lon":5.36637,"is_reserved":false,"is_disabled":false,"rental_uris":{"android":"levelo://app?vid=d75bd815-16bb-4d67-b924-1b46383133cc","ios":"levelo://app?vid=d75bd815-16bb-4d67-b924-1b46383133cc"},"vehicle_type_id":"4","last_reported":1712963113,"current_range_meters":2000,"station_id":"ce4bhap2rcd13ifvqek0","pricing_plan_id":"cebpf4jnsgd1na2vs0mg"},{"bike_id":"8efeb73b-947f-431b-91ba-3b67b196741b","system_id":"levelo_inurba_marseille","lat":43.29417,"lon":5.38628,"is_reserved":false,"is_disabled":false,"rental_uris":{"android":"levelo://app?vid=8efeb73b-947f-431b-91ba-3b67b196741b","ios":"levelo://app?vid=8efeb73b-947f-431b-91ba-3b67b196741b"},"vehicle_type_id":"4","last_reported":1712963113,"current_range_meters":0,"station_id":"ce4bh2h2rcd13ifvqdh0","pricing_plan_id":"cebpf4jnsgd1na2vs0mg"},{"bike_id":"d28ebb75-d21c-46ea-b037-6e6eb15a2a29","system_id":"levelo_inurba_marseille","lat":43.29416,"lon":5.3863,"is_reserved":false,"is_disabled":false,"rental_uris":{"android":"levelo://app?vid=d28ebb75-d21c-46ea-b037-6e6eb15a2a29","ios":"levelo://app?vid=d28ebb75-d21c-46ea-b037-6e6eb15a2a29"},"vehicle_type_id":"4","last_reported":1712963113,"current_range_meters":0,"station_id":"ce4bh2h2rcd13ifvqdh0","pricing_plan_id":"cebpf4jnsgd1na2vs0mg"},{"bike_id":"e6ce9407-952f-4aad-bc8e-17bffbcbcc1a","system_id":"levelo_inurba_marseille","lat":43.289384,"lon":5.366304,"is_reserved":false,"is_disabled":false,"rental_uris":{"android":"levelo://app?vid=e6ce9407-952f-4aad-bc8e-17bffbcbcc1a","ios":"levelo://app?vid=e6ce9407-952f-4aad-bc8e-17bffbcbcc1a"},"vehicle_type_id":"4","last_reported":1712963113,"current_range_meters":18000,"station_id":"ce4bhap2rcd13ifvqek0","pricing_plan_id":"cebpf4jnsgd1na2vs0mg"},{"bike_id":"a9e0cf09-8e8b-40a6-a616-b61fa4489801","system_id":"levelo_inurba_marseille","lat":43.289468,"lon":5.363719,"is_reserved":false,"is_disabled":false,"rental_uris":{"android":"levelo://app?vid=a9e0cf09-8e8b-40a6-a616-b61fa4489801","ios":"levelo://app?vid=a9e0cf09-8e8b-40a6-a616-b61fa4489801"},"vehicle_type_id":"4","last_reported":1712963113,"current_range_meters":0,"station_id":"ce4bhc92rcd13ifvqetg","pricing_plan_id":"cebpf4jnsgd1na2vs0mg"},{"bike_id":"4501eb9d-7ca9-4049-a39f-c229364b209c","system_id":"levelo_inurba_marseille","lat":43.289468,"lon":5.363719,"is_reserved":false,"is_disabled":false,"rental_uris":{"android":"levelo://app?vid=4501eb9d-7ca9-4049-a39f-c229364b209c","ios":"levelo://app?vid=4501eb9d-7ca9-4049-a39f-c229364b209c"},"vehicle_type_id":"4","last_reported":1712963113,"current_range_meters":6000,"station_id":"ce4bhc92rcd13ifvqetg","pricing_plan_id":"cebpf4jnsgd1na2vs0mg"},{"bike_id":"e3796808-cdb2-4bfb-95ce-9c6c182582dc","system_id":"levelo_inurba_marseille","lat":43.284534,"lon":5.358662,"is_reserved":false,"is_disabled":false,"rental_uris":{"android":"levelo://app?vid=e3796808-cdb2-4bfb-95ce-9c6c182582dc","ios":"levelo://app?vid=e3796808-cdb2-4bfb-95ce-9c6c182582dc"},"vehicle_type_id":"4","last_reported":1712963113,"current_range_meters":20800,"station_id":"ce4bhah2rcd13ifvqei0","pricing_plan_id":"cebpf4jnsgd1na2vs0mg"},{"bike_id":"c9ed1a68-0b08-4274-8bda-78d58f413780","system_id":"levelo_inurba_marseille","lat":43.304274,"lon":5.397513,"is_reserved":false,"is_disabled":false,"rental_uris":{"android":"levelo://app?vid=c9ed1a68-0b08-4274-8bda-78d58f413780","ios":"levelo://app?vid=c9ed1a68-0b08-4274-8bda-78d58f413780"},"vehicle_type_id":"4","last_reported":1712963113,"current_range_meters":19600,"station_id":"ce4bh092rcd13ifvqd20","pricing_plan_id":"cebpf4jnsgd1na2vs0mg"},{"bike_id":"859c0880-f370-4473-b984-48941148c944","system_id":"levelo_inurba_marseille","lat":43.304274,"lon":5.397513,"is_reserved":false,"is_disabled":false,"rental_uris":{"android":"levelo://app?vid=859c0880-f370-4473-b984-48941148c944","ios":"levelo://app?vid=859c0880-f370-4473-b984-48941148c944"},"vehicle_type_id":"4","last_reported":1712963113,"current_range_meters":16800,"station_id":"ce4bh092rcd13ifvqd20","pricing_plan_id":"cebpf4jnsgd1na2vs0mg"},{"bike_id":"7cc4107d-60cc-48ac-9b91-1c70be50176d","system_id":"levelo_inurba_marseille","lat":43.304296,"lon":5.397513,"is_reserved":false,"is_disabled":false,"rental_uris":{"android":"levelo://app?vid=7cc4107d-60cc-48ac-9b91-1c70be50176d","ios":"levelo://app?vid=7cc4107d-60cc-48ac-9b91-1c70be50176d"},"vehicle_type_id":"4","last_reported":1712963113,"current_range_meters":400,"station_id":"ce4bh092rcd13ifvqd20","pricing_plan_id":"cebpf4jnsgd1na2vs0mg"},{"bike_id":"dc6b7ff6-d378-4463-97b0-7e29c4cd6fea","system_id":"levelo_inurba_marseille","lat":43.304296,"lon":5.397513,"is_reserved":false,"is_disabled":false,"rental_uris":{"android":"levelo://app?vid=dc6b7ff6-d378-4463-97b0-7e29c4cd6fea","ios":"levelo://app?vid=dc6b7ff6-d378-4463-97b0-7e29c4cd6fea"},"vehicle_type_id":"4","last_reported":1712963113,"current_range_meters":23600,"station_id":"ce4bh092rcd13ifvqd20","pricing_plan_id":"cebpf4jnsgd1na2vs0mg"},{"bike_id":"fd894645-a48e-4131-afae-7435c2d74875","system_id":"levelo_inurba_marseille","lat":43.304274,"lon":5.397513,"is_reserved":false,"is_disabled":false,"rental_uris":{"android":"levelo://app?vid=fd894645-a48e-4131-afae-7435c2d74875","ios":"levelo://app?vid=fd894645-a48e-4131-afae-7435c2d74875"},"vehicle_type_id":"4","last_reported":1712963113,"current_range_meters":26800,"station_id":"ce4bh092rcd13ifvqd20","pricing_plan_id":"cebpf4jnsgd1na2vs0mg"},{"bike_id":"d90b05ed-1861-4cc4-a11b-e5464f245906","system_id":"levelo_inurba_marseille","lat":43.290104,"lon":5.356111,"is_reserved":false,"is_disabled":false,"rental_uris":{"android":"levelo://app?vid=d90b05ed-1861-4cc4-a11b-e5464f245906","ios":"levelo://app?vid=d90b05ed-1861-4cc4-a11b-e5464f245906"},"vehicle_type_id":"4","last_reported":1712963113,"current_range_meters":4400,"station_id":"ce4bhb92rcd13ifvqen0","pricing_plan_id":"cebpf4jnsgd1na2vs0mg"},{"bike_id":"70a81c22-058b-4b43-8a8d-6f678b9851b7","system_id":"levelo_inurba_marseille","lat":43.29105,"lon":5.38128,"is_reserved":false,"is_disabled":false,"rental_uris":{"android":"levelo://app?vid=70a81c22-058b-4b43-8a8d-6f678b9851b7","ios":"levelo://app?vid=70a81c22-058b-4b43-8a8d-6f678b9851b7"},"vehicle_type_id":"4","last_reported":1712963113,"current_range_meters":0,"station_id":"ce4bh512rcd13ifvqe2g","pricing_plan_id":"cebpf4jnsgd1na2vs0mg"},{"bike_id":"a626e87f-d7db-4583-8e96-aec0929cab88","system_id":"levelo_inurba_marseille","lat":43.290995,"lon":5.381361,"is_reserved":false,"is_disabled":false,"rental_uris":{"android":"levelo://app?vid=a626e87f-d7db-4583-8e96-aec0929cab88","ios":"levelo://app?vid=a626e87f-d7db-4583-8e96-aec0929cab88"},"vehicle_type_id":"4","last_reported":1712963113,"current_range_meters":0,"station_id":"ce4bh512rcd13ifvqe2g","pricing_plan_id":"cebpf4jnsgd1na2vs0mg"},{"bike_id":"a82ce5e8-de25-4260-a668-6522b8e7503a","system_id":"levelo_inurba_marseille","lat":43.309034,"lon":5.371783,"is_reserved":false,"is_disabled":false,"rental_uris":{"android":"levelo://app?vid=a82ce5e8-de25-4260-a668-6522b8e7503a","ios":"levelo://app?vid=a82ce5e8-de25-4260-a668-6522b8e7503a"},"vehicle_type_id":"4","last_reported":1712963113,"current_range_meters":5200,"station_id":"ce4bguh2rcd13ifvqckg","pricing_plan_id":"cebpf4jnsgd1na2vs0mg"},{"bike_id":"08ef55ba-27d4-4854-9e5f-92bb997b631f","system_id":"levelo_inurba_marseille","lat":43.29097,"lon":5.38133,"is_reserved":false,"is_disabled":false,"rental_uris":{"android":"levelo://app?vid=08ef55ba-27d4-4854-9e5f-92bb997b631f","ios":"levelo://app?vid=08ef55ba-27d4-4854-9e5f-92bb997b631f"},"vehicle_type_id":"4","last_reported":1712963113,"current_range_meters":0,"station_id":"ce4bh512rcd13ifvqe2g","pricing_plan_id":"cebpf4jnsgd1na2vs0mg"},{"bike_id":"4d8b49c9-bfb8-4c9b-a49b-3cf24000529c","system_id":"levelo_inurba_marseille","lat":43.291003,"lon":5.381477,"is_reserved":false,"is_disabled":false,"rental_uris":{"android":"levelo://app?vid=4d8b49c9-bfb8-4c9b-a49b-3cf24000529c","ios":"levelo://app?vid=4d8b49c9-bfb8-4c9b-a49b-3cf24000529c"},"vehicle_type_id":"4","last_reported":1712963113,"current_range_meters":0,"station_id":"ce4bh512rcd13ifvqe2g","pricing_plan_id":"cebpf4jnsgd1na2vs0mg"},{"bike_id":"87349748-e6dc-47ba-b14c-89071b53242f","system_id":"levelo_inurba_marseille","lat":43.289741,"lon":5.378306,"is_reserved":false,"is_disabled":false,"rental_uris":{"android":"levelo://app?vid=87349748-e6dc-47ba-b14c-89071b53242f","ios":"levelo://app?vid=87349748-e6dc-47ba-b14c-89071b53242f"},"vehicle_type_id":"4","last_reported":1712963113,"current_range_meters":9600,"station_id":"ce4bh9p2rcd13ifvqed0","pricing_plan_id":"cebpf4jnsgd1na2vs0mg"},{"bike_id":"488644af-d27e-4b3b-b365-130239bf50b7","system_id":"levelo_inurba_marseille","lat":43.297815,"lon":5.393548,"is_reserved":false,"is_disabled":false,"rental_uris":{"android":"levelo://app?vid=488644af-d27e-4b3b-b365-130239bf50b7","ios":"levelo://app?vid=488644af-d27e-4b3b-b365-130239bf50b7"},"vehicle_type_id":"4","last_reported":1712963113,"current_range_meters":26000,"station_id":"chh1huq6cuj3fo74tm60","pricing_plan_id":"cebpf4jnsgd1na2vs0mg"},{"bike_id":"bc7bd1d2-8ef2-403a-a6a7-1389e52f507f","system_id":"levelo_inurba_marseille","lat":43.29793,"lon":5.39341,"is_reserved":false,"is_disabled":false,"rental_uris":{"android":"levelo://app?vid=bc7bd1d2-8ef2-403a-a6a7-1389e52f507f","ios":"levelo://app?vid=bc7bd1d2-8ef2-403a-a6a7-1389e52f507f"},"vehicle_type_id":"4","last_reported":1712963113,"current_range_meters":1600,"station_id":"chh1huq6cuj3fo74tm60","pricing_plan_id":"cebpf4jnsgd1na2vs0mg"},{"bike_id":"1afc4ed8-a24d-485c-a658-df9197d08ccd","system_id":"levelo_inurba_marseille","lat":43.29789,"lon":5.39343,"is_reserved":false,"is_disabled":false,"rental_uris":{"android":"levelo://app?vid=1afc4ed8-a24d-485c-a658-df9197d08ccd","ios":"levelo://app?vid=1afc4ed8-a24d-485c-a658-df9197d08ccd"},"vehicle_type_id":"4","last_reported":1712963113,"current_range_meters":0,"station_id":"chh1huq6cuj3fo74tm60","pricing_plan_id":"cebpf4jnsgd1na2vs0mg"},{"bike_id":"e6c2a6d3-83a4-4387-9656-3f4593963178","system_id":"levelo_inurba_marseille","lat":43.29521,"lon":5.39025,"is_reserved":false,"is_disabled":false,"rental_uris":{"android":"levelo://app?vid=e6c2a6d3-83a4-4387-9656-3f4593963178","ios":"levelo://app?vid=e6c2a6d3-83a4-4387-9656-3f4593963178"},"vehicle_type_id":"4","last_reported":1712963113,"current_range_meters":0,"station_id":"ce4bh3p2rcd13ifvqdp0","pricing_plan_id":"cebpf4jnsgd1na2vs0mg"},{"bike_id":"34c58062-f846-49ab-9eef-19231e3c0c4a","system_id":"levelo_inurba_marseille","lat":43.297814,"lon":5.393513,"is_reserved":false,"is_disabled":false,"rental_uris":{"android":"levelo://app?vid=34c58062-f846-49ab-9eef-19231e3c0c4a","ios":"levelo://app?vid=34c58062-f846-49ab-9eef-19231e3c0c4a"},"vehicle_type_id":"4","last_reported":1712963113,"current_range_meters":27200,"station_id":"chh1huq6cuj3fo74tm60","pricing_plan_id":"cebpf4jnsgd1na2vs0mg"},{"bike_id":"7f1310d8-bfd6-4bcb-bd16-afdf636513a6","system_id":"levelo_inurba_marseille","lat":43.295212,"lon":5.390344,"is_reserved":false,"is_disabled":false,"rental_uris":{"android":"levelo://app?vid=7f1310d8-bfd6-4bcb-bd16-afdf636513a6","ios":"levelo://app?vid=7f1310d8-bfd6-4bcb-bd16-afdf636513a6"},"vehicle_type_id":"4","last_reported":1712963113,"current_range_meters":0,"station_id":"ce4bh3p2rcd13ifvqdp0","pricing_plan_id":"cebpf4jnsgd1na2vs0mg"},{"bike_id":"544fd192-8c26-4a9f-824a-e4c1adab3827","system_id":"levelo_inurba_marseille","lat":43.330442,"lon":5.389148,"is_reserved":false,"is_disabled":false,"rental_uris":{"android":"levelo://app?vid=544fd192-8c26-4a9f-824a-e4c1adab3827","ios":"levelo://app?vid=544fd192-8c26-4a9f-824a-e4c1adab3827"},"vehicle_type_id":"4","last_reported":1712963113,"current_range_meters":20000,"station_id":"ce4bhr92rcd13ifvqhrg","pricing_plan_id":"cebpf4jnsgd1na2vs0mg"},{"bike_id":"b39f40bb-91f4-4465-a720-1dfca9e3ff95","system_id":"levelo_inurba_marseille","lat":43.302759,"lon":5.400793,"is_reserved":false,"is_disabled":false,"rental_uris":{"android":"levelo://app?vid=b39f40bb-91f4-4465-a720-1dfca9e3ff95","ios":"levelo://app?vid=b39f40bb-91f4-4465-a720-1dfca9e3ff95"},"vehicle_type_id":"4","last_reported":1712963113,"current_range_meters":8000,"station_id":"ce4bgvh2rcd13ifvqcs0","pricing_plan_id":"cebpf4jnsgd1na2vs0mg"},{"bike_id":"0e6cd982-a50f-4e12-a615-19652f02a258","system_id":"levelo_inurba_marseille","lat":43.29029,"lon":5.38137,"is_reserved":false,"is_disabled":false,"rental_uris":{"android":"levelo://app?vid=0e6cd982-a50f-4e12-a615-19652f02a258","ios":"levelo://app?vid=0e6cd982-a50f-4e12-a615-19652f02a258"},"vehicle_type_id":"4","last_reported":1712963113,"current_range_meters":0,"station_id":"ce4bh4p2rcd13ifvqe1g","pricing_plan_id":"cebpf4jnsgd1na2vs0mg"},{"bike_id":"61dc4012-c5fd-49a9-8b15-53135bdc29a4","system_id":"levelo_inurba_marseille","lat":43.28861,"lon":5.3586,"is_reserved":false,"is_disabled":false,"rental_uris":{"android":"levelo://app?vid=61dc4012-c5fd-49a9-8b15-53135bdc29a4","ios":"levelo://app?vid=61dc4012-c5fd-49a9-8b15-53135bdc29a4"},"vehicle_type_id":"4","last_reported":1712963113,"current_range_meters":25600,"station_id":"ce4bhb12rcd13ifvqem0","pricing_plan_id":"cebpf4jnsgd1na2vs0mg"},{"bike_id":"ef5b1b2d-7136-4c49-ba8c-f02a1d0117e2","system_id":"levelo_inurba_marseille","lat":43.289468,"lon":5.363719,"is_reserved":false,"is_disabled":false,"rental_uris":{"android":"levelo://app?vid=ef5b1b2d-7136-4c49-ba8c-f02a1d0117e2","ios":"levelo://app?vid=ef5b1b2d-7136-4c49-ba8c-f02a1d0117e2"},"vehicle_type_id":"4","last_reported":1712963113,"current_range_meters":26000,"station_id":"ce4bhc92rcd13ifvqetg","pricing_plan_id":"cebpf4jnsgd1na2vs0mg"},{"bike_id":"593d2a78-5076-417e-bed1-751658a0ad8d","system_id":"levelo_inurba_marseille","lat":43.28848,"lon":5.35858,"is_reserved":false,"is_disabled":false,"rental_uris":{"android":"levelo://app?vid=593d2a78-5076-417e-bed1-751658a0ad8d","ios":"levelo://app?vid=593d2a78-5076-417e-bed1-751658a0ad8d"},"vehicle_type_id":"4","last_reported":1712963113,"current_range_meters":400,"station_id":"ce4bhb12rcd13ifvqem0","pricing_plan_id":"cebpf4jnsgd1na2vs0mg"},{"bike_id":"4000d6d8-bcbd-481e-a13b-16a46642931b","system_id":"levelo_inurba_marseille","lat":43.28849,"lon":5.358493,"is_reserved":false,"is_disabled":false,"rental_uris":{"android":"levelo://app?vid=4000d6d8-bcbd-481e-a13b-16a46642931b","ios":"levelo://app?vid=4000d6d8-bcbd-481e-a13b-16a46642931b"},"vehicle_type_id":"4","last_reported":1712963113,"current_range_meters":0,"station_id":"ce4bhb12rcd13ifvqem0","pricing_plan_id":"cebpf4jnsgd1na2vs0mg"},{"bike_id":"c7149e6f-c500-40e7-a746-090626e50ec6","system_id":"levelo_inurba_marseille","lat":43.28847,"lon":5.35847,"is_reserved":false,"is_disabled":false,"rental_uris":{"android":"levelo://app?vid=c7149e6f-c500-40e7-a746-090626e50ec6","ios":"levelo://app?vid=c7149e6f-c500-40e7-a746-090626e50ec6"},"vehicle_type_id":"4","last_reported":1712963113,"current_range_meters":19600,"station_id":"ce4bhb12rcd13ifvqem0","pricing_plan_id":"cebpf4jnsgd1na2vs0mg"},{"bike_id":"e3669fc6-4b6a-4c7f-86d7-508e828c5848","system_id":"levelo_inurba_marseille","lat":43.312609,"lon":5.401662,"is_reserved":false,"is_disabled":false,"rental_uris":{"android":"levelo://app?vid=e3669fc6-4b6a-4c7f-86d7-508e828c5848","ios":"levelo://app?vid=e3669fc6-4b6a-4c7f-86d7-508e828c5848"},"vehicle_type_id":"4","last_reported":1712963113,"current_range_meters":26400,"station_id":"ce4bh092rcd13ifvqd30","pricing_plan_id":"cebpf4jnsgd1na2vs0mg"},{"bike_id":"9fad1ef1-3d84-465f-8cfa-ee3717dd6a51","system_id":"levelo_inurba_marseille","lat":43.288442,"lon":5.35843,"is_reserved":false,"is_disabled":false,"rental_uris":{"android":"levelo://app?vid=9fad1ef1-3d84-465f-8cfa-ee3717dd6a51","ios":"levelo://app?vid=9fad1ef1-3d84-465f-8cfa-ee3717dd6a51"},"vehicle_type_id":"4","last_reported":1712963113,"current_range_meters":0,"station_id":"ce4bhb12rcd13ifvqem0","pricing_plan_id":"cebpf4jnsgd1na2vs0mg"},{"bike_id":"2a8c333a-84ac-4ea5-8cb7-172c735c5dd4","system_id":"levelo_inurba_marseille","lat":43.309371,"lon":5.401449,"is_reserved":false,"is_disabled":false,"rental_uris":{"android":"levelo://app?vid=2a8c333a-84ac-4ea5-8cb7-172c735c5dd4","ios":"levelo://app?vid=2a8c333a-84ac-4ea5-8cb7-172c735c5dd4"},"vehicle_type_id":"4","last_reported":1712963113,"current_range_meters":15600,"station_id":"ce4bgvp2rcd13ifvqct0","pricing_plan_id":"cebpf4jnsgd1na2vs0mg"},{"bike_id":"78007625-4a0e-403f-89d0-d25961e2dcfc","system_id":"levelo_inurba_marseille","lat":43.309371,"lon":5.401449,"is_reserved":false,"is_disabled":false,"rental_uris":{"android":"levelo://app?vid=78007625-4a0e-403f-89d0-d25961e2dcfc","ios":"levelo://app?vid=78007625-4a0e-403f-89d0-d25961e2dcfc"},"vehicle_type_id":"4","last_reported":1712963113,"current_range_meters":2000,"station_id":"ce4bgvp2rcd13ifvqct0","pricing_plan_id":"cebpf4jnsgd1na2vs0mg"},{"bike_id":"dfe1557b-2e31-4ced-a0f2-d99a187770be","system_id":"levelo_inurba_marseille","lat":43.309371,"lon":5.401449,"is_reserved":false,"is_disabled":false,"rental_uris":{"android":"levelo://app?vid=dfe1557b-2e31-4ced-a0f2-d99a187770be","ios":"levelo://app?vid=dfe1557b-2e31-4ced-a0f2-d99a187770be"},"vehicle_type_id":"4","last_reported":1712963113,"current_range_meters":17600,"station_id":"ce4bgvp2rcd13ifvqct0","pricing_plan_id":"cebpf4jnsgd1na2vs0mg"},{"bike_id":"4ac8cab5-6636-48a8-882e-be3361680dc0","system_id":"levelo_inurba_marseille","lat":43.309371,"lon":5.401449,"is_reserved":false,"is_disabled":false,"rental_uris":{"android":"levelo://app?vid=4ac8cab5-6636-48a8-882e-be3361680dc0","ios":"levelo://app?vid=4ac8cab5-6636-48a8-882e-be3361680dc0"},"vehicle_type_id":"4","last_reported":1712963113,"current_range_meters":27200,"station_id":"ce4bgvp2rcd13ifvqct0","pricing_plan_id":"cebpf4jnsgd1na2vs0mg"},{"bike_id":"d3ea26f4-7d4d-45b7-8172-0133ecd9329b","system_id":"levelo_inurba_marseille","lat":43.33754,"lon":5.37453,"is_reserved":false,"is_disabled":false,"rental_uris":{"android":"levelo://app?vid=d3ea26f4-7d4d-45b7-8172-0133ecd9329b","ios":"levelo://app?vid=d3ea26f4-7d4d-45b7-8172-0133ecd9329b"},"vehicle_type_id":"4","last_reported":1712963113,"current_range_meters":26000,"station_id":"","pricing_plan_id":"cebpf4jnsgd1na2vs0mg"},{"bike_id":"5cb180d0-056d-4a96-ba3f-4a1df8081103","system_id":"levelo_inurba_marseille","lat":43.30642,"lon":5.401031,"is_reserved":false,"is_disabled":false,"rental_uris":{"android":"levelo://app?vid=5cb180d0-056d-4a96-ba3f-4a1df8081103","ios":"levelo://app?vid=5cb180d0-056d-4a96-ba3f-4a1df8081103"},"vehicle_type_id":"4","last_reported":1712963113,"current_range_meters":2800,"station_id":"ce4bh112rcd13ifvqda0","pricing_plan_id":"cebpf4jnsgd1na2vs0mg"},{"bike_id":"774f6500-6424-427c-8133-e4987961144c","system_id":"levelo_inurba_marseille","lat":43.33754,"lon":5.374806,"is_reserved":false,"is_disabled":false,"rental_uris":{"android":"levelo://app?vid=774f6500-6424-427c-8133-e4987961144c","ios":"levelo://app?vid=774f6500-6424-427c-8133-e4987961144c"},"vehicle_type_id":"4","last_reported":1712963113,"current_range_meters":800,"station_id":"","pricing_plan_id":"cebpf4jnsgd1na2vs0mg"},{"bike_id":"595d2cf9-edfe-4232-8e9b-042375f28894","system_id":"levelo_inurba_marseille","lat":43.306412,"lon":5.401035,"is_reserved":false,"is_disabled":false,"rental_uris":{"android":"levelo://app?vid=595d2cf9-edfe-4232-8e9b-042375f28894","ios":"levelo://app?vid=595d2cf9-edfe-4232-8e9b-042375f28894"},"vehicle_type_id":"4","last_reported":1712963113,"current_range_meters":14400,"station_id":"ce4bh112rcd13ifvqda0","pricing_plan_id":"cebpf4jnsgd1na2vs0mg"},{"bike_id":"67e7854e-c8b7-405f-8ee4-05b9830b4e9e","system_id":"levelo_inurba_marseille","lat":43.306412,"lon":5.401035,"is_reserved":false,"is_disabled":false,"rental_uris":{"android":"levelo://app?vid=67e7854e-c8b7-405f-8ee4-05b9830b4e9e","ios":"levelo://app?vid=67e7854e-c8b7-405f-8ee4-05b9830b4e9e"},"vehicle_type_id":"4","last_reported":1712963113,"current_range_meters":28000,"station_id":"ce4bh112rcd13ifvqda0","pricing_plan_id":"cebpf4jnsgd1na2vs0mg"},{"bike_id":"78bb86ec-4635-4170-b4f3-62743831d95b","system_id":"levelo_inurba_marseille","lat":43.306412,"lon":5.401035,"is_reserved":false,"is_disabled":false,"rental_uris":{"android":"levelo://app?vid=78bb86ec-4635-4170-b4f3-62743831d95b","ios":"levelo://app?vid=78bb86ec-4635-4170-b4f3-62743831d95b"},"vehicle_type_id":"4","last_reported":1712963113,"current_range_meters":6800,"station_id":"ce4bh112rcd13ifvqda0","pricing_plan_id":"cebpf4jnsgd1na2vs0mg"},{"bike_id":"f21e21ce-f7a4-4ae7-b02c-3ce04e8d9efb","system_id":"levelo_inurba_marseille","lat":43.30642,"lon":5.401031,"is_reserved":false,"is_disabled":false,"rental_uris":{"android":"levelo://app?vid=f21e21ce-f7a4-4ae7-b02c-3ce04e8d9efb","ios":"levelo://app?vid=f21e21ce-f7a4-4ae7-b02c-3ce04e8d9efb"},"vehicle_type_id":"4","last_reported":1712963113,"current_range_meters":0,"station_id":"ce4bh112rcd13ifvqda0","pricing_plan_id":"cebpf4jnsgd1na2vs0mg"},{"bike_id":"927e6bc4-cd33-4414-9cca-a4ba3a52051e","system_id":"levelo_inurba_marseille","lat":43.306412,"lon":5.401035,"is_reserved":false,"is_disabled":false,"rental_uris":{"android":"levelo://app?vid=927e6bc4-cd33-4414-9cca-a4ba3a52051e","ios":"levelo://app?vid=927e6bc4-cd33-4414-9cca-a4ba3a52051e"},