{"last_updated":1722794986,"ttl":30,"version":"2.2","data":{"bikes":[{"bike_id":"5a27ec5e-d865-4a4c-b7f3-7e73432c2645","system_id":"levelo_inurba_marseille","lat":43.31494,"lon":5.37307,"is_reserved":false,"is_disabled":false,"rental_uris":{"android":"levelo://app?vid=5a27ec5e-d865-4a4c-b7f3-7e73432c2645","ios":"levelo://app?vid=5a27ec5e-d865-4a4c-b7f3-7e73432c2645"},"vehicle_type_id":"4","last_reported":1722794987,"current_range_meters":0,"station_id":"ce4bgt12rcd13ifvqcd0","pricing_plan_id":"cebpf4jnsgd1na2vs0mg"},{"bike_id":"beb29842-ed55-4b2d-8381-0e77c72ff93f","system_id":"levelo_inurba_marseille","lat":43.30937,"lon":5.374823,"is_reserved":false,"is_disabled":false,"rental_uris":{"android":"levelo://app?vid=beb29842-ed55-4b2d-8381-0e77c72ff93f","ios":"levelo://app?vid=beb29842-ed55-4b2d-8381-0e77c72ff93f"},"vehicle_type_id":"4","last_reported":1722794987,"current_range_meters":12800,"station_id":"","pricing_plan_id":"cebpf4jnsgd1na2vs0mg"},{"bike_id":"22c61cf9-512e-4c64-8763-54f9e8ea3496","system_id":"levelo_inurba_marseille","lat":43.305706,"lon":5.365654,"is_reserved":false,"is_disabled":false,"rental_uris":{"android":"levelo://app?vid=22c61cf9-512e-4c64-8763-54f9e8ea3496","ios":"levelo://app?vid=22c61cf9-512e-4c64-8763-54f9e8ea3496"},"vehicle_type_id":"4","last_reported":1722794987,"current_range_meters":1200,"station_id":"ce4bgs12rcd13ifvqcag","pricing_plan_id":"cebpf4jnsgd1na2vs0mg"},{"bike_id":"30cd739a-9f0c-4af3-ae54-d5270e52fe2e","system_id":"levelo_inurba_marseille","lat":43.305989,"lon":5.37225,"is_reserved":false,"is_disabled":false,"rental_uris":{"android":"levelo://app?vid=30cd739a-9f0c-4af3-ae54-d5270e52fe2e","ios":"levelo://app?vid=30cd739a-9f0c-4af3-ae54-d5270e52fe2e"},"vehicle_type_id":"4","last_reported":1722794987,"current_range_meters":14000,"station_id":"ce4bgqh2rcd13ifvqc4g","pricing_plan_id":"cebpf4jnsgd1na2vs0mg"},{"bike_id":"2f30c688-b775-41c1-80ff-693b185dc227","system_id":"levelo_inurba_marseille","lat":43.305989,"lon":5.37225,"is_reserved":false,"is_disabled":false,"rental_uris":{"android":"levelo://app?vid=2f30c688-b775-41c1-80ff-693b185dc227","ios":"levelo://app?vid=2f30c688-b775-41c1-80ff-693b185dc227"},"vehicle_type_id":"4","last_reported":1722794987,"current_range_meters":4800,"station_id":"ce4bgqh2rcd13ifvqc4g","pricing_plan_id":"cebpf4jnsgd1na2vs0mg"},{"bike_id":"0839b914-a0d0-45e1-8d13-f70ded0f9346","system_id":"levelo_inurba_marseille","lat":43.305989,"lon":5.37225,"is_reserved":false,"is_disabled":false,"rental_uris":{"android":"levelo://app?vid=0839b914-a0d0-45e1-8d13-f70ded0f9346","ios":"levelo://app?vid=0839b914-a0d0-45e1-8d13-f70ded0f9346"},"vehicle_type_id":"4","last_reported":1722794987,"current_range_meters":14800,"station_id":"ce4bgqh2rcd13ifvqc4g","pricing_plan_id":"cebpf4jnsgd1na2vs0mg"},{"bike_id":"133fcf84-fde4-4975-8120-fd1ec8562874","system_id":"levelo_inurba_marseille","lat":43.311125,"lon":5.377624,"is_reserved":false,"is_disabled":false,"rental_uris":{"android":"levelo://app?vid=133fcf84-fde4-4975-8120-fd1ec8562874","ios":"levelo://app?vid=133fcf84-fde4-4975-8120-fd1ec8562874"},"vehicle_type_id":"4","last_reported":1722794987,"current_range_meters":18400,"station_id":"ce4bgt92rcd13ifvqcg0","pricing_plan_id":"cebpf4jnsgd1na2vs0mg"},{"bike_id":"cdd33631-131d-40cb-992a-853914b439ae","system_id":"levelo_inurba_marseille","lat":43.304914,"lon":5.370749,"is_reserved":false,"is_disabled":false,"rental_uris":{"android":"levelo://app?vid=cdd33631-131d-40cb-992a-853914b439ae","ios":"levelo://app?vid=cdd33631-131d-40cb-992a-853914b439ae"},"vehicle_type_id":"4","last_reported":1722794987,"current_range_meters":17600,"station_id":"","pricing_plan_id":"cebpf4jnsgd1na2vs0mg"},{"bike_id":"b949d47c-b751-47f7-9c0f-5fc7cce84a89","system_id":"levelo_inurba_marseille","lat":43.317075,"lon":5.377367,"is_reserved":false,"is_disabled":false,"rental_uris":{"android":"levelo://app?vid=b949d47c-b751-47f7-9c0f-5fc7cce84a89","ios":"levelo://app?vid=b949d47c-b751-47f7-9c0f-5fc7cce84a89"},"vehicle_type_id":"4","last_reported":1722794987,"current_range_meters":0,"station_id":"ce4bgth2rcd13ifvqch0","pricing_plan_id":"cebpf4jnsgd1na2vs0mg"},{"bike_id":"e8548118-8501-43b9-91aa-47653a28073d","system_id":"levelo_inurba_marseille","lat":43.317075,"lon":5.377367,"is_reserved":false,"is_disabled":false,"rental_uris":{"android":"levelo://app?vid=e8548118-8501-43b9-91aa-47653a28073d","ios":"levelo://app?vid=e8548118-8501-43b9-91aa-47653a28073d"},"vehicle_type_id":"4","last_reported":1722794987,"current_range_meters":0,"station_id":"ce4bgth2rcd13ifvqch0","pricing_plan_id":"cebpf4jnsgd1na2vs0mg"},{"bike_id":"746cd1d4-ddbc-43ad-bccc-6b9669e9fdd6","system_id":"levelo_inurba_marseille","lat":43.318834,"lon":5.377101,"is_reserved":false,"is_disabled":false,"rental_uris":{"android":"levelo://app?vid=746cd1d4-ddbc-43ad-bccc-6b9669e9fdd6","ios":"levelo://app?vid=746cd1d4-ddbc-43ad-bccc-6b9669e9fdd6"},"vehicle_type_id":"4","last_reported":1722794987,"current_range_meters":7200,"station_id":"","pricing_plan_id":"cebpf4jnsgd1na2vs0mg"},{"bike_id":"937d205e-2e3f-42c5-b744-cd8fb6683f87","system_id":"levelo_inurba_marseille","lat":43.316524,"lon":5.379916,"is_reserved":false,"is_disabled":false,"rental_uris":{"android":"levelo://app?vid=937d205e-2e3f-42c5-b744-cd8fb6683f87","ios":"levelo://app?vid=937d205e-2e3f-42c5-b744-cd8fb6683f87"},"vehicle_type_id":"4","last_reported":1722794987,"current_range_meters":26400,"station_id":"","pricing_plan_id":"cebpf4jnsgd1na2vs0mg"},{"bike_id":"7ddee55b-e140-46be-b3df-94db58723279","system_id":"levelo_inurba_marseille","lat":43.31844,"lon":5.378865,"is_reserved":false,"is_disabled":false,"rental_uris":{"android":"levelo://app?vid=7ddee55b-e140-46be-b3df-94db58723279","ios":"levelo://app?vid=7ddee55b-e140-46be-b3df-94db58723279"},"vehicle_type_id":"4","last_reported":1722794987,"current_range_meters":29200,"station_id":"","pricing_plan_id":"cebpf4jnsgd1na2vs0mg"},{"bike_id":"44cb8718-de4c-45af-88ae-239684885d8a","system_id":"levelo_inurba_marseille","lat":43.308012,"lon":5.381511,"is_reserved":false,"is_disabled":false,"rental_uris":{"android":"levelo://app?vid=44cb8718-de4c-45af-88ae-239684885d8a","ios":"levelo://app?vid=44cb8718-de4c-45af-88ae-239684885d8a"},"vehicle_type_id":"4","last_reported":1722794987,"current_range_meters":3600,"station_id":"ce4bgt12rcd13ifvqce0","pricing_plan_id":"cebpf4jnsgd1na2vs0mg"},{"bike_id":"4084ae4a-a7b5-44bf-86b1-91021518d3d6","system_id":"levelo_inurba_marseille","lat":43.308012,"lon":5.381511,"is_reserved":false,"is_disabled":false,"rental_uris":{"android":"levelo://app?vid=4084ae4a-a7b5-44bf-86b1-91021518d3d6","ios":"levelo://app?vid=4084ae4a-a7b5-44bf-86b1-91021518d3d6"},"vehicle_type_id":"4","last_reported":1722794987,"current_range_meters":6000,"station_id":"ce4bgt12rcd13ifvqce0","pricing_plan_id":"cebpf4jnsgd1na2vs0mg"},{"bike_id":"5e86c74c-7407-44c6-8028-10067225c329","system_id":"levelo_inurba_marseille","lat":43.308012,"lon":5.381511,"is_reserved":false,"is_disabled":false,"rental_uris":{"android":"levelo://app?vid=5e86c74c-7407-44c6-8028-10067225c329","ios":"levelo://app?vid=5e86c74c-7407-44c6-8028-10067225c329"},"vehicle_type_id":"4","last_reported":1722794987,"current_range_meters":0,"station_id":"ce4bgt12rcd13ifvqce0","pricing_plan_id":"cebpf4jnsgd1na2vs0mg"},{"bike_id":"81cfadf0-c6f1-4291-8b63-e90755fb414e","system_id":"levelo_inurba_marseille","lat":43.308012,"lon":5.381511,"is_reserved":false,"is_disabled":false,"rental_uris":{"android":"levelo://app?vid=81cfadf0-c6f1-4291-8b63-e90755fb414e","ios":"levelo://app?vid=81cfadf0-c6f1-4291-8b63-e90755fb414e"},"vehicle_type_id":"4","last_reported":1722794987,"current_range_meters":28000,"station_id":"ce4bgt12rcd13ifvqce0","pricing_plan_id":"cebpf4jnsgd1na2vs0mg"},{"bike_id":"6332cdb1-41d0-4a7b-9fe0-4ada546872ad","system_id":"levelo_inurba_marseille","lat":43.304606,"lon":5.379026,"is_reserved":false,"is_disabled":false,"rental_uris":{"android":"levelo://app?vid=6332cdb1-41d0-4a7b-9fe0-4ada546872ad","ios":"levelo://app?vid=6332cdb1-41d0-4a7b-9fe0-4ada546872ad"},"vehicle_type_id":"4","last_reported":1722794987,"current_range_meters":0,"station_id":"ce4bgup2rcd13ifvqcn0","pricing_plan_id":"cebpf4jnsgd1na2vs0mg"},{"bike_id":"873f7c30-3d19-4979-b793-54f4b7261591","system_id":"levelo_inurba_marseille","lat":43.324771,"lon":5.36557,"is_reserved":false,"is_disabled":false,"rental_uris":{"android":"levelo://app?vid=873f7c30-3d19-4979-b793-54f4b7261591","ios":"levelo://app?vid=873f7c30-3d19-4979-b793-54f4b7261591"},"vehicle_type_id":"4","last_reported":1722794987,"current_range_meters":11600,"station_id":"ce4bhs12rcd13ifvqhvg","pricing_plan_id":"cebpf4jnsgd1na2vs0mg"},{"bike_id":"472ee366-0cd6-4c1d-aa85-f75ded7e7ebb","system_id":"levelo_inurba_marseille","lat":43.324771,"lon":5.36557,"is_reserved":false,"is_disabled":false,"rental_uris":{"android":"levelo://app?vid=472ee366-0cd6-4c1d-aa85-f75ded7e7ebb","ios":"levelo://app?vid=472ee366-0cd6-4c1d-aa85-f75ded7e7ebb"},"vehicle_type_id":"4","last_reported":1722794987,"current_range_meters":18400,"station_id":"ce4bhs12rcd13ifvqhvg","pricing_plan_id":"cebpf4jnsgd1na2vs0mg"},{"bike_id":"c1622144-5a8a-4ddc-8e7f-e16f6f4b566d","system_id":"levelo_inurba_marseille","lat":43.32477,"lon":5.36571,"is_reserved":false,"is_disabled":false,"rental_uris":{"android":"levelo://app?vid=c1622144-5a8a-4ddc-8e7f-e16f6f4b566d","ios":"levelo://app?vid=c1622144-5a8a-4ddc-8e7f-e16f6f4b566d"},"vehicle_type_id":"4","last_reported":1722794987,"current_range_meters":21200,"station_id":"ce4bhs12rcd13ifvqhvg","pricing_plan_id":"cebpf4jnsgd1na2vs0mg"},{"bike_id":"e097be60-a435-4fce-9d05-93cf63db4800","system_id":"levelo_inurba_marseille","lat":43.324771,"lon":5.36557,"is_reserved":false,"is_disabled":false,"rental_uris":{"android":"levelo://app?vid=e097be60-a435-4fce-9d05-93cf63db4800","ios":"levelo://app?vid=e097be60-a435-4fce-9d05-93cf63db4800"},"vehicle_type_id":"4","last_reported":1722794987,"current_range_meters":5200,"station_id":"ce4bhs12rcd13ifvqhvg","pricing_plan_id":"cebpf4jnsgd1na2vs0mg"},{"bike_id":"7026e487-2447-42e0-9193-dac68826f0d0","system_id":"levelo_inurba_marseille","lat":43.324783,"lon":5.365634,"is_reserved":false,"is_disabled":false,"rental_uris":{"android":"levelo://app?vid=7026e487-2447-42e0-9193-dac68826f0d0","ios":"levelo://app?vid=7026e487-2447-42e0-9193-dac68826f0d0"},"vehicle_type_id":"4","last_reported":1722794987,"current_range_meters":31600,"station_id":"ce4bhs12rcd13ifvqhvg","pricing_plan_id":"cebpf4jnsgd1na2vs0mg"},{"bike_id":"acea373c-012a-49ac-8063-595537d5579d","system_id":"levelo_inurba_marseille","lat":43.324771,"lon":5.36557,"is_reserved":false,"is_disabled":false,"rental_uris":{"android":"levelo://app?vid=acea373c-012a-49ac-8063-595537d5579d","ios":"levelo://app?vid=acea373c-012a-49ac-8063-595537d5579d"},"vehicle_type_id":"4","last_reported":1722794987,"current_range_meters":3600,"station_id":"ce4bhs12rcd13ifvqhvg","pricing_plan_id":"cebpf4jnsgd1na2vs0mg"},{"bike_id":"e6e8b8a2-4642-46ff-a11f-70122501d88c","system_id":"levelo_inurba_marseille","lat":43.324771,"lon":5.36557,"is_reserved":false,"is_disabled":false,"rental_uris":{"android":"levelo://app?vid=e6e8b8a2-4642-46ff-a11f-70122501d88c","ios":"levelo://app?vid=e6e8b8a2-4642-46ff-a11f-70122501d88c"},"vehicle_type_id":"4","last_reported":1722794987,"current_range_meters":10400,"station_id":"ce4bhs12rcd13ifvqhvg","pricing_plan_id":"cebpf4jnsgd1na2vs0mg"},{"bike_id":"f4a22b34-eba0-460a-bd07-394782f701e5","system_id":"levelo_inurba_marseille","lat":43.324771,"lon":5.36557,"is_reserved":false,"is_disabled":false,"rental_uris":{"android":"levelo://app?vid=f4a22b34-eba0-460a-bd07-394782f701e5","ios":"levelo://app?vid=f4a22b34-eba0-460a-bd07-394782f701e5"},"vehicle_type_id":"4","last_reported":1722794987,"current_range_meters":26000,"station_id":"ce4bhs12rcd13ifvqhvg","pricing_plan_id":"cebpf4jnsgd1na2vs0mg"},{"bike_id":"659517ec-1866-4b39-bc2c-9ce8c7dbc56b","system_id":"levelo_inurba_marseille","lat":43.32481,"lon":5.3656,"is_reserved":false,"is_disabled":false,"rental_uris":{"android":"levelo://app?vid=659517ec-1866-4b39-bc2c-9ce8c7dbc56b","ios":"levelo://app?vid=659517ec-1866-4b39-bc2c-9ce8c7dbc56b"},"vehicle_type_id":"4","last_reported":1722794987,"current_range_meters":26400,"station_id":"ce4bhs12rcd13ifvqhvg","pricing_plan_id":"cebpf4jnsgd1na2vs0mg"},{"bike_id":"aa6c3caa-a399-40fe-9908-325748fc4085","system_id":"levelo_inurba_marseille","lat":43.324771,"lon":5.36557,"is_reserved":false,"is_disabled":false,"rental_uris":{"android":"levelo://app?vid=aa6c3caa-a399-40fe-9908-325748fc4085","ios":"levelo://app?vid=aa6c3caa-a399-40fe-9908-325748fc4085"},"vehicle_type_id":"4","last_reported":1722794987,"current_range_meters":31200,"station_id":"ce4bhs12rcd13ifvqhvg","pricing_plan_id":"cebpf4jnsgd1na2vs0mg"},{"bike_id":"b72dc0aa-93fe-43bc-be00-318d213110aa","system_id":"levelo_inurba_marseille","lat":43.324771,"lon":5.36557,"is_reserved":false,"is_disabled":false,"rental_uris":{"android":"levelo://app?vid=b72dc0aa-93fe-43bc-be00-318d213110aa","ios":"levelo://app?vid=b72dc0aa-93fe-43bc-be00-318d213110aa"},"vehicle_type_id":"4","last_reported":1722794987,"current_range_meters":31200,"station_id":"ce4bhs12rcd13ifvqhvg","pricing_plan_id":"cebpf4jnsgd1na2vs0mg"},{"bike_id":"17ce2092-25e7-4cc9-bb44-0da650cdc054","system_id":"levelo_inurba_marseille","lat":43.324771,"lon":5.36557,"is_reserved":false,"is_disabled":false,"rental_uris":{"android":"levelo://app?vid=17ce2092-25e7-4cc9-bb44-0da650cdc054","ios":"levelo://app?vid=17ce2092-25e7-4cc9-bb44-0da650cdc054"},"vehicle_type_id":"4","last_reported":1722794987,"current_range_meters":4400,"station_id":"ce4bhs12rcd13ifvqhvg","pricing_plan_id":"cebpf4jnsgd1na2vs0mg"},{"bike_id":"39c3d13d-fef7-48cf-9300-21353a1419e2","system_id":"levelo_inurba_marseille","lat":43.324858,"lon":5.365715,"is_reserved":false,"is_disabled":false,"rental_uris":{"android":"levelo://app?vid=39c3d13d-fef7-48cf-9300-21353a1419e2","ios":"levelo://app?vid=39c3d13d-fef7-48cf-9300-21353a1419e2"},"vehicle_type_id":"4","last_reported":1722794987,"current_range_meters":24800,"station_id":"ce4bhs12rcd13ifvqhvg","pricing_plan_id":"cebpf4jnsgd1na2vs0mg"},{"bike_id":"0e389952-39a6-46ae-8a23-def9798bbc98","system_id":"levelo_inurba_marseille","lat":43.324771,"lon":5.36557,"is_reserved":false,"is_disabled":false,"rental_uris":{"android":"levelo://app?vid=0e389952-39a6-46ae-8a23-def9798bbc98","ios":"levelo://app?vid=0e389952-39a6-46ae-8a23-def9798bbc98"},"vehicle_type_id":"4","last_reported":1722794987,"current_range_meters":6400,"station_id":"ce4bhs12rcd13ifvqhvg","pricing_plan_id":"cebpf4jnsgd1na2vs0mg"},{"bike_id":"1a068100-fb7b-4f05-bcc1-8cfbf365e056","system_id":"levelo_inurba_marseille","lat":43.302784,"lon":5.377158,"is_reserved":false,"is_disabled":false,"rental_uris":{"android":"levelo://app?vid=1a068100-fb7b-4f05-bcc1-8cfbf365e056","ios":"levelo://app?vid=1a068100-fb7b-4f05-bcc1-8cfbf365e056"},"vehicle_type_id":"4","last_reported":1722794987,"current_range_meters":16400,"station_id":"ce4bguh2rcd13ifvqcj0","pricing_plan_id":"cebpf4jnsgd1na2vs0mg"},{"bike_id":"e9569861-6950-4bca-b6ba-b8e557a3dcae","system_id":"levelo_inurba_marseille","lat":43.30143,"lon":5.37413,"is_reserved":false,"is_disabled":false,"rental_uris":{"android":"levelo://app?vid=e9569861-6950-4bca-b6ba-b8e557a3dcae","ios":"levelo://app?vid=e9569861-6950-4bca-b6ba-b8e557a3dcae"},"vehicle_type_id":"4","last_reported":1722794987,"current_range_meters":0,"station_id":"ce4bgs92rcd13ifvqcc0","pricing_plan_id":"cebpf4jnsgd1na2vs0mg"},{"bike_id":"533c4a9f-af06-4aee-ab17-c684e60c441f","system_id":"levelo_inurba_marseille","lat":43.302784,"lon":5.377158,"is_reserved":false,"is_disabled":false,"rental_uris":{"android":"levelo://app?vid=533c4a9f-af06-4aee-ab17-c684e60c441f","ios":"levelo://app?vid=533c4a9f-af06-4aee-ab17-c684e60c441f"},"vehicle_type_id":"4","last_reported":1722794987,"current_range_meters":10800,"station_id":"ce4bguh2rcd13ifvqcj0","pricing_plan_id":"cebpf4jnsgd1na2vs0mg"},{"bike_id":"77fc20a1-3a9a-4309-bb23-17fe61baf016","system_id":"levelo_inurba_marseille","lat":43.30143,"lon":5.37423,"is_reserved":false,"is_disabled":false,"rental_uris":{"android":"levelo://app?vid=77fc20a1-3a9a-4309-bb23-17fe61baf016","ios":"levelo://app?vid=77fc20a1-3a9a-4309-bb23-17fe61baf016"},"vehicle_type_id":"4","last_reported":1722794987,"current_range_meters":3600,"station_id":"ce4bgs92rcd13ifvqcc0","pricing_plan_id":"cebpf4jnsgd1na2vs0mg"},{"bike_id":"cf22a09d-159d-45b0-be2b-2d51e42825cd","system_id":"levelo_inurba_marseille","lat":43.31613,"lon":5.38395,"is_reserved":false,"is_disabled":false,"rental_uris":{"android":"levelo://app?vid=cf22a09d-159d-45b0-be2b-2d51e42825cd","ios":"levelo://app?vid=cf22a09d-159d-45b0-be2b-2d51e42825cd"},"vehicle_type_id":"4","last_reported":1722794987,"current_range_meters":31200,"station_id":"ce4bgt92rcd13ifvqcf0","pricing_plan_id":"cebpf4jnsgd1na2vs0mg"},{"bike_id":"8c16676c-9258-46e9-bcb7-248e17bd3084","system_id":"levelo_inurba_marseille","lat":43.31358,"lon":5.38484,"is_reserved":false,"is_disabled":false,"rental_uris":{"android":"levelo://app?vid=8c16676c-9258-46e9-bcb7-248e17bd3084","ios":"levelo://app?vid=8c16676c-9258-46e9-bcb7-248e17bd3084"},"vehicle_type_id":"4","last_reported":1722794987,"current_range_meters":6000,"station_id":"ce4bgt92rcd13ifvqcf0","pricing_plan_id":"cebpf4jnsgd1na2vs0mg"},{"bike_id":"812f6528-f07e-4d28-be06-4b42e78646e6","system_id":"levelo_inurba_marseille","lat":43.313571,"lon":5.384829,"is_reserved":false,"is_disabled":false,"rental_uris":{"android":"levelo://app?vid=812f6528-f07e-4d28-be06-4b42e78646e6","ios":"levelo://app?vid=812f6528-f07e-4d28-be06-4b42e78646e6"},"vehicle_type_id":"4","last_reported":1722794987,"current_range_meters":15600,"station_id":"ce4bgt92rcd13ifvqcf0","pricing_plan_id":"cebpf4jnsgd1na2vs0mg"},{"bike_id":"58f0954b-3cec-4d11-84e6-8691217ee454","system_id":"levelo_inurba_marseille","lat":43.313571,"lon":5.384829,"is_reserved":false,"is_disabled":false,"rental_uris":{"android":"levelo://app?vid=58f0954b-3cec-4d11-84e6-8691217ee454","ios":"levelo://app?vid=58f0954b-3cec-4d11-84e6-8691217ee454"},"vehicle_type_id":"4","last_reported":1722794987,"current_range_meters":5200,"station_id":"ce4bgt92rcd13ifvqcf0","pricing_plan_id":"cebpf4jnsgd1na2vs0mg"},{"bike_id":"fadb0614-3ed7-46ad-a379-296f2ea1e4e7","system_id":"levelo_inurba_marseille","lat":43.31348,"lon":5.38494,"is_reserved":false,"is_disabled":false,"rental_uris":{"android":"levelo://app?vid=fadb0614-3ed7-46ad-a379-296f2ea1e4e7","ios":"levelo://app?vid=fadb0614-3ed7-46ad-a379-296f2ea1e4e7"},"vehicle_type_id":"4","last_reported":1722794987,"current_range_meters":30400,"station_id":"ce4bgt92rcd13ifvqcf0","pricing_plan_id":"cebpf4jnsgd1na2vs0mg"},{"bike_id":"1856022e-c436-4dde-948b-e363b1c7b030","system_id":"levelo_inurba_marseille","lat":43.313571,"lon":5.384829,"is_reserved":false,"is_disabled":false,"rental_uris":{"android":"levelo://app?vid=1856022e-c436-4dde-948b-e363b1c7b030","ios":"levelo://app?vid=1856022e-c436-4dde-948b-e363b1c7b030"},"vehicle_type_id":"4","last_reported":1722794987,"current_range_meters":31200,"station_id":"ce4bgt92rcd13ifvqcf0","pricing_plan_id":"cebpf4jnsgd1na2vs0mg"},{"bike_id":"bb4208cc-752c-48cf-8fdb-c2f3b459131d","system_id":"levelo_inurba_marseille","lat":43.31362,"lon":5.38495,"is_reserved":false,"is_disabled":false,"rental_uris":{"android":"levelo://app?vid=bb4208cc-752c-48cf-8fdb-c2f3b459131d","ios":"levelo://app?vid=bb4208cc-752c-48cf-8fdb-c2f3b459131d"},"vehicle_type_id":"4","last_reported":1722794987,"current_range_meters":31200,"station_id":"ce4bgt92rcd13ifvqcf0","pricing_plan_id":"cebpf4jnsgd1na2vs0mg"},{"bike_id":"b4093524-578a-4f62-a62e-52891643965c","system_id":"levelo_inurba_marseille","lat":43.313571,"lon":5.384829,"is_reserved":false,"is_disabled":false,"rental_uris":{"android":"levelo://app?vid=b4093524-578a-4f62-a62e-52891643965c","ios":"levelo://app?vid=b4093524-578a-4f62-a62e-52891643965c"},"vehicle_type_id":"4","last_reported":1722794987,"current_range_meters":31200,"station_id":"ce4bgt92rcd13ifvqcf0","pricing_plan_id":"cebpf4jnsgd1na2vs0mg"},{"bike_id":"707a7d05-9d14-40bb-b55c-cfa8e4fb7d3a","system_id":"levelo_inurba_marseille","lat":43.31353,"lon":5.38501,"is_reserved":false,"is_disabled":false,"rental_uris":{"android":"levelo://app?vid=707a7d05-9d14-40bb-b55c-cfa8e4fb7d3a","ios":"levelo://app?vid=707a7d05-9d14-40bb-b55c-cfa8e4fb7d3a"},"vehicle_type_id":"4","last_reported":1722794987,"current_range_meters":10800,"station_id":"ce4bgt92rcd13ifvqcf0","pricing_plan_id":"cebpf4jnsgd1na2vs0mg"},{"bike_id":"8894c100-8d29-4dcd-9f5a-05a430240438","system_id":"levelo_inurba_marseille","lat":43.31354,"lon":5.38505,"is_reserved":false,"is_disabled":false,"rental_uris":{"android":"levelo://app?vid=8894c100-8d29-4dcd-9f5a-05a430240438","ios":"levelo://app?vid=8894c100-8d29-4dcd-9f5a-05a430240438"},"vehicle_type_id":"4","last_reported":1722794987,"current_range_meters":31200,"station_id":"ce4bgt92rcd13ifvqcf0","pricing_plan_id":"cebpf4jnsgd1na2vs0mg"},{"bike_id":"08d14830-f7b0-4539-962d-4fee2b871958","system_id":"levelo_inurba_marseille","lat":43.299724,"lon":5.371829,"is_reserved":false,"is_disabled":false,"rental_uris":{"android":"levelo://app?vid=08d14830-f7b0-4539-962d-4fee2b871958","ios":"levelo://app?vid=08d14830-f7b0-4539-962d-4fee2b871958"},"vehicle_type_id":"4","last_reported":1722794987,"current_range_meters":2000,"station_id":"ce4bgr92rcd13ifvqc7g","pricing_plan_id":"cebpf4jnsgd1na2vs0mg"},{"bike_id":"51a631dd-3e6b-4305-b154-5599c1248143","system_id":"levelo_inurba_marseille","lat":43.299028,"lon":5.381509,"is_reserved":false,"is_disabled":false,"rental_uris":{"android":"levelo://app?vid=51a631dd-3e6b-4305-b154-5599c1248143","ios":"levelo://app?vid=51a631dd-3e6b-4305-b154-5599c1248143"},"vehicle_type_id":"4","last_reported":1722794987,"current_range_meters":0,"station_id":"ce4bgj12rcd13ifvqbc0","pricing_plan_id":"cebpf4jnsgd1na2vs0mg"},{"bike_id":"eabd3711-c6e6-4b43-9bfd-4b9bd6516b71","system_id":"levelo_inurba_marseille","lat":43.299842,"lon":5.371802,"is_reserved":false,"is_disabled":false,"rental_uris":{"android":"levelo://app?vid=eabd3711-c6e6-4b43-9bfd-4b9bd6516b71","ios":"levelo://app?vid=eabd3711-c6e6-4b43-9bfd-4b9bd6516b71"},"vehicle_type_id":"4","last_reported":1722794987,"current_range_meters":19600,"station_id":"ce4bgr92rcd13ifvqc7g","pricing_plan_id":"cebpf4jnsgd1na2vs0mg"},{"bike_id":"aac1bb8b-f801-4d5d-8060-b7087225377d","system_id":"levelo_inurba_marseille","lat":43.29984,"lon":5.3718,"is_reserved":false,"is_disabled":false,"rental_uris":{"android":"levelo://app?vid=aac1bb8b-f801-4d5d-8060-b7087225377d","ios":"levelo://app?vid=aac1bb8b-f801-4d5d-8060-b7087225377d"},"vehicle_type_id":"4","last_reported":1722794987,"current_range_meters":1600,"station_id":"ce4bgr92rcd13ifvqc7g","pricing_plan_id":"cebpf4jnsgd1na2vs0mg"},{"bike_id":"147147ea-4ada-4f19-80c6-d46a595f8ea3","system_id":"levelo_inurba_marseille","lat":43.299724,"lon":5.371829,"is_reserved":false,"is_disabled":false,"rental_uris":{"android":"levelo://app?vid=147147ea-4ada-4f19-80c6-d46a595f8ea3","ios":"levelo://app?vid=147147ea-4ada-4f19-80c6-d46a595f8ea3"},"vehicle_type_id":"4","last_reported":1722794987,"current_range_meters":0,"station_id":"ce4bgr92rcd13ifvqc7g","pricing_plan_id":"cebpf4jnsgd1na2vs0mg"},{"bike_id":"4c306cd9-ac09-4afa-b2ea-321bc317bfed","system_id":"levelo_inurba_marseille","lat":43.319935,"lon":5.381699,"is_reserved":false,"is_disabled":false,"rental_uris":{"android":"levelo://app?vid=4c306cd9-ac09-4afa-b2ea-321bc317bfed","ios":"levelo://app?vid=4c306cd9-ac09-4afa-b2ea-321bc317bfed"},"vehicle_type_id":"4","last_reported":1722794987,"current_range_meters":20400,"station_id":"ce4bhr12rcd13ifvqhpg","pricing_plan_id":"cebpf4jnsgd1na2vs0mg"},{"bike_id":"d90c73aa-e15a-4372-bc1e-c06dab3587a4","system_id":"levelo_inurba_marseille","lat":43.299222,"lon":5.365554,"is_reserved":false,"is_disabled":false,"rental_uris":{"android":"levelo://app?vid=d90c73aa-e15a-4372-bc1e-c06dab3587a4","ios":"levelo://app?vid=d90c73aa-e15a-4372-bc1e-c06dab3587a4"},"vehicle_type_id":"4","last_reported":1722794987,"current_range_meters":0,"station_id":"ce4bgm92rcd13ifvqbr0","pricing_plan_id":"cebpf4jnsgd1na2vs0mg"},{"bike_id":"19eb6022-f26a-4258-9dee-58a4a8666c4f","system_id":"levelo_inurba_marseille","lat":43.305364,"lon":5.384119,"is_reserved":false,"is_disabled":false,"rental_uris":{"android":"levelo://app?vid=19eb6022-f26a-4258-9dee-58a4a8666c4f","ios":"levelo://app?vid=19eb6022-f26a-4258-9dee-58a4a8666c4f"},"vehicle_type_id":"4","last_reported":1722794987,"current_range_meters":9600,"station_id":"ce4bgg92rcd13ifvqb30","pricing_plan_id":"cebpf4jnsgd1na2vs0mg"},{"bike_id":"dff62b9e-b94d-4c90-82e3-527d97c07b8b","system_id":"levelo_inurba_marseille","lat":43.298433,"lon":5.362774,"is_reserved":false,"is_disabled":false,"rental_uris":{"android":"levelo://app?vid=dff62b9e-b94d-4c90-82e3-527d97c07b8b","ios":"levelo://app?vid=dff62b9e-b94d-4c90-82e3-527d97c07b8b"},"vehicle_type_id":"4","last_reported":1722794987,"current_range_meters":17600,"station_id":"ce4bgpp2rcd13ifvqc3g","pricing_plan_id":"cebpf4jnsgd1na2vs0mg"},{"bike_id":"5b629559-2d94-42d0-bff8-385eedf909ce","system_id":"levelo_inurba_marseille","lat":43.305364,"lon":5.384119,"is_reserved":false,"is_disabled":false,"rental_uris":{"android":"levelo://app?vid=5b629559-2d94-42d0-bff8-385eedf909ce","ios":"levelo://app?vid=5b629559-2d94-42d0-bff8-385eedf909ce"},"vehicle_type_id":"4","last_reported":1722794987,"current_range_meters":1600,"station_id":"ce4bgg92rcd13ifvqb30","pricing_plan_id":"cebpf4jnsgd1na2vs0mg"},{"bike_id":"60f62ff7-934a-40d3-83ee-174389ba5478","system_id":"levelo_inurba_marseille","lat":43.311722,"lon":5.387247,"is_reserved":false,"is_disabled":false,"rental_uris":{"android":"levelo://app?vid=60f62ff7-934a-40d3-83ee-174389ba5478","ios":"levelo://app?vid=60f62ff7-934a-40d3-83ee-174389ba5478"},"vehicle_type_id":"4","last_reported":1722794987,"current_range_meters":20800,"station_id":"ce4bgv12rcd13ifvqcp0","pricing_plan_id":"cebpf4jnsgd1na2vs0mg"},{"bike_id":"02c8698b-6302-4e48-ac03-547134df9717","system_id":"levelo_inurba_marseille","lat":43.311722,"lon":5.387247,"is_reserved":false,"is_disabled":false,"rental_uris":{"android":"levelo://app?vid=02c8698b-6302-4e48-ac03-547134df9717","ios":"levelo://app?vid=02c8698b-6302-4e48-ac03-547134df9717"},"vehicle_type_id":"4","last_reported":1722794987,"current_range_meters":24000,"station_id":"ce4bgv12rcd13ifvqcp0","pricing_plan_id":"cebpf4jnsgd1na2vs0mg"},{"bike_id":"2a46d69e-3b65-4a57-9ba8-a6edbafc4ba9","system_id":"levelo_inurba_marseille","lat":43.311722,"lon":5.387247,"is_reserved":false,"is_disabled":false,"rental_uris":{"android":"levelo://app?vid=2a46d69e-3b65-4a57-9ba8-a6edbafc4ba9","ios":"levelo://app?vid=2a46d69e-3b65-4a57-9ba8-a6edbafc4ba9"},"vehicle_type_id":"4","last_reported":1722794987,"current_range_meters":28000,"station_id":"ce4bgv12rcd13ifvqcp0","pricing_plan_id":"cebpf4jnsgd1na2vs0mg"},{"bike_id":"4b616e41-9a21-4ab7-9029-eb0ecc92f442","system_id":"levelo_inurba_marseille","lat":43.311722,"lon":5.387247,"is_reserved":false,"is_disabled":false,"rental_uris":{"android":"levelo://app?vid=4b616e41-9a21-4ab7-9029-eb0ecc92f442","ios":"levelo://app?vid=4b616e41-9a21-4ab7-9029-eb0ecc92f442"},"vehicle_type_id":"4","last_reported":1722794987,"current_range_meters":4000,"station_id":"ce4bgv12rcd13ifvqcp0","pricing_plan_id":"cebpf4jnsgd1na2vs0mg"},{"bike_id":"0f03e8ab-d9b7-48de-92d9-68f7269359be","system_id":"levelo_inurba_marseille","lat":43.311722,"lon":5.387247,"is_reserved":false,"is_disabled":false,"rental_uris":{"android":"levelo://app?vid=0f03e8ab-d9b7-48de-92d9-68f7269359be","ios":"levelo://app?vid=0f03e8ab-d9b7-48de-92d9-68f7269359be"},"vehicle_type_id":"4","last_reported":1722794987,"current_range_meters":15200,"station_id":"ce4bgv12rcd13ifvqcp0","pricing_plan_id":"cebpf4jnsgd1na2vs0mg"},{"bike_id":"0162329b-8dc1-46de-aecd-f63a4315b876","system_id":"levelo_inurba_marseille","lat":43.311722,"lon":5.387247,"is_reserved":false,"is_disabled":false,"rental_uris":{"android":"levelo://app?vid=0162329b-8dc1-46de-aecd-f63a4315b876","ios":"levelo://app?vid=0162329b-8dc1-46de-aecd-f63a4315b876"},"vehicle_type_id":"4","last_reported":1722794987,"current_range_meters":31200,"station_id":"ce4bgv12rcd13ifvqcp0","pricing_plan_id":"cebpf4jnsgd1na2vs0mg"},{"bike_id":"e39d18ae-f5b6-494f-885b-af6a330a53bc","system_id":"levelo_inurba_marseille","lat":43.311722,"lon":5.387247,"is_reserved":false,"is_disabled":false,"rental_uris":{"android":"levelo://app?vid=e39d18ae-f5b6-494f-885b-af6a330a53bc","ios":"levelo://app?vid=e39d18ae-f5b6-494f-885b-af6a330a53bc"},"vehicle_type_id":"4","last_reported":1722794987,"current_range_meters":3600,"station_id":"ce4bgv12rcd13ifvqcp0","pricing_plan_id":"cebpf4jnsgd1na2vs0mg"},{"bike_id":"3d0725df-7850-4df1-aa63-4b6389998109","system_id":"levelo_inurba_marseille","lat":43.311722,"lon":5.387247,"is_reserved":false,"is_disabled":false,"rental_uris":{"android":"levelo://app?vid=3d0725df-7850-4df1-aa63-4b6389998109","ios":"levelo://app?vid=3d0725df-7850-4df1-aa63-4b6389998109"},"vehicle_type_id":"4","last_reported":1722794987,"current_range_meters":24800,"station_id":"ce4bgv12rcd13ifvqcp0","pricing_plan_id":"cebpf4jnsgd1na2vs0mg"},{"bike_id":"399e49c2-cde3-4bc2-80ff-04b8986705a1","system_id":"levelo_inurba_marseille","lat":43.311722,"lon":5.387247,"is_reserved":false,"is_disabled":false,"rental_uris":{"android":"levelo://app?vid=399e49c2-cde3-4bc2-80ff-04b8986705a1","ios":"levelo://app?vid=399e49c2-cde3-4bc2-80ff-04b8986705a1"},"vehicle_type_id":"4","last_reported":1722794987,"current_range_meters":27600,"station_id":"ce4bgv12rcd13ifvqcp0","pricing_plan_id":"cebpf4jnsgd1na2vs0mg"},{"bike_id":"f3fe0988-48ff-48bd-a48d-19f9f1b62f40","system_id":"levelo_inurba_marseille","lat":43.311722,"lon":5.387247,"is_reserved":false,"is_disabled":false,"rental_uris":{"android":"levelo://app?vid=f3fe0988-48ff-48bd-a48d-19f9f1b62f40","ios":"levelo://app?vid=f3fe0988-48ff-48bd-a48d-19f9f1b62f40"},"vehicle_type_id":"4","last_reported":1722794987,"current_range_meters":10400,"station_id":"ce4bgv12rcd13ifvqcp0","pricing_plan_id":"cebpf4jnsgd1na2vs0mg"},{"bike_id":"5d7cddfd-ce41-4ad9-93c4-fec4ab6aa2d3","system_id":"levelo_inurba_marseille","lat":43.311722,"lon":5.387247,"is_reserved":false,"is_disabled":false,"rental_uris":{"android":"levelo://app?vid=5d7cddfd-ce41-4ad9-93c4-fec4ab6aa2d3","ios":"levelo://app?vid=5d7cddfd-ce41-4ad9-93c4-fec4ab6aa2d3"},"vehicle_type_id":"4","last_reported":1722794987,"current_range_meters":6400,"station_id":"ce4bgv12rcd13ifvqcp0","pricing_plan_id":"cebpf4jnsgd1na2vs0mg"},{"bike_id":"69d253f2-69ab-4ee9-9a57-bede873c43d4","system_id":"levelo_inurba_marseille","lat":43.311722,"lon":5.387247,"is_reserved":false,"is_disabled":false,"rental_uris":{"android":"levelo://app?vid=69d253f2-69ab-4ee9-9a57-bede873c43d4","ios":"levelo://app?vid=69d253f2-69ab-4ee9-9a57-bede873c43d4"},"vehicle_type_id":"4","last_reported":1722794987,"current_range_meters":25200,"station_id":"ce4bgv12rcd13ifvqcp0","pricing_plan_id":"cebpf4jnsgd1na2vs0mg"},{"bike_id":"3ba325be-4b35-46f1-9891-135ec24b6869","system_id":"levelo_inurba_marseille","lat":43.311722,"lon":5.387247,"is_reserved":false,"is_disabled":false,"rental_uris":{"android":"levelo://app?vid=3ba325be-4b35-46f1-9891-135ec24b6869","ios":"levelo://app?vid=3ba325be-4b35-46f1-9891-135ec24b6869"},"vehicle_type_id":"4","last_reported":1722794987,"current_range_meters":0,"station_id":"ce4bgv12rcd13ifvqcp0","pricing_plan_id":"cebpf4jnsgd1na2vs0mg"},{"bike_id":"367ec561-bcef-4ad3-90a9-3efe2b5a2ea3","system_id":"levelo_inurba_marseille","lat":43.297774,"lon":5.370875,"is_reserved":false,"is_disabled":false,"rental_uris":{"android":"levelo://app?vid=367ec561-bcef-4ad3-90a9-3efe2b5a2ea3","ios":"levelo://app?vid=367ec561-bcef-4ad3-90a9-3efe2b5a2ea3"},"vehicle_type_id":"4","last_reported":1722794987,"current_range_meters":2000,"station_id":"ce4bgop2rcd13ifvqc1g","pricing_plan_id":"cebpf4jnsgd1na2vs0mg"},{"bike_id":"1a294f0f-ed1b-4466-9201-6229823600e5","system_id":"levelo_inurba_marseille","lat":43.32286,"lon":5.38258,"is_reserved":false,"is_disabled":false,"rental_uris":{"android":"levelo://app?vid=1a294f0f-ed1b-4466-9201-6229823600e5","ios":"levelo://app?vid=1a294f0f-ed1b-4466-9201-6229823600e5"},"vehicle_type_id":"4","last_reported":1722794987,"current_range_meters":29600,"station_id":"ce4bhr12rcd13ifvqhqg","pricing_plan_id":"cebpf4jnsgd1na2vs0mg"},{"bike_id":"1bfdd103-dc4a-416d-afbb-97d793a53f59","system_id":"levelo_inurba_marseille","lat":43.322872,"lon":5.382756,"is_reserved":false,"is_disabled":false,"rental_uris":{"android":"levelo://app?vid=1bfdd103-dc4a-416d-afbb-97d793a53f59","ios":"levelo://app?vid=1bfdd103-dc4a-416d-afbb-97d793a53f59"},"vehicle_type_id":"4","last_reported":1722794987,"current_range_meters":25600,"station_id":"ce4bhr12rcd13ifvqhqg","pricing_plan_id":"cebpf4jnsgd1na2vs0mg"},{"bike_id":"31e31aad-d3cf-47fe-b017-1d13e68bff5c","system_id":"levelo_inurba_marseille","lat":43.322872,"lon":5.382756,"is_reserved":false,"is_disabled":false,"rental_uris":{"android":"levelo://app?vid=31e31aad-d3cf-47fe-b017-1d13e68bff5c","ios":"levelo://app?vid=31e31aad-d3cf-47fe-b017-1d13e68bff5c"},"vehicle_type_id":"4","last_reported":1722794987,"current_range_meters":31200,"station_id":"ce4bhr12rcd13ifvqhqg","pricing_plan_id":"cebpf4jnsgd1na2vs0mg"},{"bike_id":"1574bfad-bc8e-4c86-ba28-2687a175dbff","system_id":"levelo_inurba_marseille","lat":43.322872,"lon":5.382756,"is_reserved":false,"is_disabled":false,"rental_uris":{"android":"levelo://app?vid=1574bfad-bc8e-4c86-ba28-2687a175dbff","ios":"levelo://app?vid=1574bfad-bc8e-4c86-ba28-2687a175dbff"},"vehicle_type_id":"4","last_reported":1722794987,"current_range_meters":30800,"station_id":"ce4bhr12rcd13ifvqhqg","pricing_plan_id":"cebpf4jnsgd1na2vs0mg"},{"bike_id":"f967fc28-7d6a-4ea4-a281-53e1cdc56e7d","system_id":"levelo_inurba_marseille","lat":43.297794,"lon":5.370888,"is_reserved":false,"is_disabled":false,"rental_uris":{"android":"levelo://app?vid=f967fc28-7d6a-4ea4-a281-53e1cdc56e7d","ios":"levelo://app?vid=f967fc28-7d6a-4ea4-a281-53e1cdc56e7d"},"vehicle_type_id":"4","last_reported":1722794987,"current_range_meters":4400,"station_id":"ce4bgop2rcd13ifvqc1g","pricing_plan_id":"cebpf4jnsgd1na2vs0mg"},{"bike_id":"b66838c8-f24d-48b9-b158-c0e84e92b289","system_id":"levelo_inurba_marseille","lat":43.322872,"lon":5.382756,"is_reserved":false,"is_disabled":false,"rental_uris":{"android":"levelo://app?vid=b66838c8-f24d-48b9-b158-c0e84e92b289","ios":"levelo://app?vid=b66838c8-f24d-48b9-b158-c0e84e92b289"},"vehicle_type_id":"4","last_reported":1722794987,"current_range_meters":14000,"station_id":"ce4bhr12rcd13ifvqhqg","pricing_plan_id":"cebpf4jnsgd1na2vs0mg"},{"bike_id":"bbb5167f-7ad8-45ff-967e-d2013f1560e4","system_id":"levelo_inurba_marseille","lat":43.322972,"lon":5.382668,"is_reserved":false,"is_disabled":false,"rental_uris":{"android":"levelo://app?vid=bbb5167f-7ad8-45ff-967e-d2013f1560e4","ios":"levelo://app?vid=bbb5167f-7ad8-45ff-967e-d2013f1560e4"},"vehicle_type_id":"4","last_reported":1722794987,"current_range_meters":30400,"station_id":"ce4bhr12rcd13ifvqhqg","pricing_plan_id":"cebpf4jnsgd1na2vs0mg"},{"bike_id":"5c7575b1-0969-495e-8f07-f1830efae18f","system_id":"levelo_inurba_marseille","lat":43.322872,"lon":5.382756,"is_reserved":false,"is_disabled":false,"rental_uris":{"android":"levelo://app?vid=5c7575b1-0969-495e-8f07-f1830efae18f","ios":"levelo://app?vid=5c7575b1-0969-495e-8f07-f1830efae18f"},"vehicle_type_id":"4","last_reported":1722794987,"current_range_meters":28400,"station_id":"ce4bhr12rcd13ifvqhqg","pricing_plan_id":"cebpf4jnsgd1na2vs0mg"},{"bike_id":"c19f3126-217d-4c33-acdc-88d6f6cd9f69","system_id":"levelo_inurba_marseille","lat":43.322872,"lon":5.382756,"is_reserved":false,"is_disabled":false,"rental_uris":{"android":"levelo://app?vid=c19f3126-217d-4c33-acdc-88d6f6cd9f69","ios":"levelo://app?vid=c19f3126-217d-4c33-acdc-88d6f6cd9f69"},"vehicle_type_id":"4","last_reported":1722794987,"current_range_meters":31600,"station_id":"ce4bhr12rcd13ifvqhqg","pricing_plan_id":"cebpf4jnsgd1na2vs0mg"},{"bike_id":"ca8a5bd0-77f7-42db-9849-8a963cccbc84","system_id":"levelo_inurba_marseille","lat":43.322872,"lon":5.382756,"is_reserved":false,"is_disabled":false,"rental_uris":{"android":"levelo://app?vid=ca8a5bd0-77f7-42db-9849-8a963cccbc84","ios":"levelo://app?vid=ca8a5bd0-77f7-42db-9849-8a963cccbc84"},"vehicle_type_id":"4","last_reported":1722794987,"current_range_meters":31600,"station_id":"ce4bhr12rcd13ifvqhqg","pricing_plan_id":"cebpf4jnsgd1na2vs0mg"},{"bike_id":"efa213cf-4320-40ef-925f-9f34b8a9070d","system_id":"levelo_inurba_marseille","lat":43.322872,"lon":5.382756,"is_reserved":false,"is_disabled":false,"rental_uris":{"android":"levelo://app?vid=efa213cf-4320-40ef-925f-9f34b8a9070d","ios":"levelo://app?vid=efa213cf-4320-40ef-925f-9f34b8a9070d"},"vehicle_type_id":"4","last_reported":1722794987,"current_range_meters":14000,"station_id":"ce4bhr12rcd13ifvqhqg","pricing_plan_id":"cebpf4jnsgd1na2vs0mg"},{"bike_id":"7658e1a2-aaa9-4938-9e67-8d737b0aef87","system_id":"levelo_inurba_marseille","lat":43.301429,"lon":5.37413,"is_reserved":false,"is_disabled":false,"rental_uris":{"android":"levelo://app?vid=7658e1a2-aaa9-4938-9e67-8d737b0aef87","ios":"levelo://app?vid=7658e1a2-aaa9-4938-9e67-8d737b0aef87"},"vehicle_type_id":"4","last_reported":1722794987,"current_range_meters":3200,"station_id":"ce4bgs92rcd13ifvqcc0","pricing_plan_id":"cebpf4jnsgd1na2vs0mg"},{"bike_id":"375e39ac-f862-43a7-9817-4f95330b969a","system_id":"levelo_inurba_marseille","lat":43.2972,"lon":5.36878,"is_reserved":false,"is_disabled":false,"rental_uris":{"android":"levelo://app?vid=375e39ac-f862-43a7-9817-4f95330b969a","ios":"levelo://app?vid=375e39ac-f862-43a7-9817-4f95330b969a"},"vehicle_type_id":"4","last_reported":1722794987,"current_range_meters":14400,"station_id":"","pricing_plan_id":"cebpf4jnsgd1na2vs0mg"},{"bike_id":"ec5d35da-5396-417e-a156-b4e56e1c9ed7","system_id":"levelo_inurba_marseille","lat":43.2971,"lon":5.36614,"is_reserved":false,"is_disabled":false,"rental_uris":{"android":"levelo://app?vid=ec5d35da-5396-417e-a156-b4e56e1c9ed7","ios":"levelo://app?vid=ec5d35da-5396-417e-a156-b4e56e1c9ed7"},"vehicle_type_id":"4","last_reported":1722794987,"current_range_meters":31200,"station_id":"ce4bgn12rcd13ifvqbt0","pricing_plan_id":"cebpf4jnsgd1na2vs0mg"},{"bike_id":"61d26e38-81dc-4a8e-8270-facf1fc8928a","system_id":"levelo_inurba_marseille","lat":43.297163,"lon":5.365866,"is_reserved":false,"is_disabled":false,"rental_uris":{"android":"levelo://app?vid=61d26e38-81dc-4a8e-8270-facf1fc8928a","ios":"levelo://app?vid=61d26e38-81dc-4a8e-8270-facf1fc8928a"},"vehicle_type_id":"4","last_reported":1722794987,"current_range_meters":9200,"station_id":"ce4bgn12rcd13ifvqbt0","pricing_plan_id":"cebpf4jnsgd1na2vs0mg"},{"bike_id":"4060a325-339f-4ebb-94e8-2d6250a431a5","system_id":"levelo_inurba_marseille","lat":43.297163,"lon":5.365866,"is_reserved":false,"is_disabled":false,"rental_uris":{"android":"levelo://app?vid=4060a325-339f-4ebb-94e8-2d6250a431a5","ios":"levelo://app?vid=4060a325-339f-4ebb-94e8-2d6250a431a5"},"vehicle_type_id":"4","last_reported":1722794987,"current_range_meters":19600,"station_id":"ce4bgn12rcd13ifvqbt0","pricing_plan_id":"cebpf4jnsgd1na2vs0mg"},{"bike_id":"c2db2501-d32a-4508-86ad-3a350ef8a7f9","system_id":"levelo_inurba_marseille","lat":43.29701,"lon":5.36612,"is_reserved":false,"is_disabled":false,"rental_uris":{"android":"levelo://app?vid=c2db2501-d32a-4508-86ad-3a350ef8a7f9","ios":"levelo://app?vid=c2db2501-d32a-4508-86ad-3a350ef8a7f9"},"vehicle_type_id":"4","last_reported":1722794987,"current_range_meters":15200,"station_id":"ce4bgn12rcd13ifvqbt0","pricing_plan_id":"cebpf4jnsgd1na2vs0mg"},{"bike_id":"e902f6c1-e952-4c43-994d-bf38d6b3738c","system_id":"levelo_inurba_marseille","lat":43.297163,"lon":5.365866,"is_reserved":false,"is_disabled":false,"rental_uris":{"android":"levelo://app?vid=e902f6c1-e952-4c43-994d-bf38d6b3738c","ios":"levelo://app?vid=e902f6c1-e952-4c43-994d-bf38d6b3738c"},"vehicle_type_id":"4","last_reported":1722794987,"current_range_meters":31200,"station_id":"ce4bgn12rcd13ifvqbt0","pricing_plan_id":"cebpf4jnsgd1na2vs0mg"},{"bike_id":"ea28ade7-847f-44f2-8e89-492aa8546f62","system_id":"levelo_inurba_marseille","lat":43.29692,"lon":5.36613,"is_reserved":false,"is_disabled":false,"rental_uris":{"android":"levelo://app?vid=ea28ade7-847f-44f2-8e89-492aa8546f62","ios":"levelo://app?vid=ea28ade7-847f-44f2-8e89-492aa8546f62"},"vehicle_type_id":"4","last_reported":1722794987,"current_range_meters":31200,"station_id":"ce4bgn12rcd13ifvqbt0","pricing_plan_id":"cebpf4jnsgd1na2vs0mg"},{"bike_id":"9a081666-2ddb-427d-b1f9-f2ddc95d96eb","system_id":"levelo_inurba_marseille","lat":43.322872,"lon":5.382756,"is_reserved":false,"is_disabled":false,"rental_uris":{"android":"levelo://app?vid=9a081666-2ddb-427d-b1f9-f2ddc95d96eb","ios":"levelo://app?vid=9a081666-2ddb-427d-b1f9-f2ddc95d96eb"},"vehicle_type_id":"4","last_reported":1722794987,"current_range_meters":8400,"station_id":"ce4bhr12rcd13ifvqhqg","pricing_plan_id":"cebpf4jnsgd1na2vs0mg"},{"bike_id":"b68f0873-0031-4046-a634-71d20193ec33","system_id":"levelo_inurba_marseille","lat":43.2968,"lon":5.37291,"is_reserved":false,"is_disabled":false,"rental_uris":{"android":"levelo://app?vid=b68f0873-0031-4046-a634-71d20193ec33","ios":"levelo://app?vid=b68f0873-0031-4046-a634-71d20193ec33"},"vehicle_type_id":"4","last_reported":1722794987,"current_range_meters":10800,"station_id":"ce4bgk12rcd13ifvqbj0","pricing_plan_id":"cebpf4jnsgd1na2vs0mg"},{"bike_id":"7aab6fda-3a33-4cf6-aa9f-19ac2a86b317","system_id":"levelo_inurba_marseille","lat":43.29573,"lon":5.367355,"is_reserved":false,"is_disabled":false,"rental_uris":{"android":"levelo://app?vid=7aab6fda-3a33-4cf6-aa9f-19ac2a86b317","ios":"levelo://app?vid=7aab6fda-3a33-4cf6-aa9f-19ac2a86b317"},"vehicle_type_id":"4","last_reported":1722794987,"current_range_meters":1200,"station_id":"ce4bgph2rcd13ifvqc2g","pricing_plan_id":"cebpf4jnsgd1na2vs0mg"},{"bike_id":"a89a8bf3-9b8e-43f6-8978-363d9679b628","system_id":"levelo_inurba_marseille","lat":43.29581,"lon":5.36748,"is_reserved":false,"is_disabled":false,"rental_uris":{"android":"levelo://app?vid=a89a8bf3-9b8e-43f6-8978-363d9679b628","ios":"levelo://app?vid=a89a8bf3-9b8e-43f6-8978-363d9679b628"},"vehicle_type_id":"4","last_reported":1722794987,"current_range_meters":29200,"station_id":"ce4bgph2rcd13ifvqc2g","pricing_plan_id":"cebpf4jnsgd1na2vs0mg"},{"bike_id":"8c7c11c7-bf8d-4003-887b-a2bb1e6b28b3","system_id":"levelo_inurba_marseille","lat":43.29573,"lon":5.367355,"is_reserved":false,"is_disabled":false,"rental_uris":{"android":"levelo://app?vid=8c7c11c7-bf8d-4003-887b-a2bb1e6b28b3","ios":"levelo://app?vid=8c7c11c7-bf8d-4003-887b-a2bb1e6b28b3"},"vehicle_type_id":"4","last_reported":1722794987,"current_range_meters":2000,"station_id":"ce4bgph2rcd13ifvqc2g","pricing_plan_id":"cebpf4jnsgd1na2vs0mg"},{"bike_id":"24630590-a2d9-4ae2-8bed-2977ef13c8ca","system_id":"levelo_inurba_marseille","lat":43.29573,"lon":5.367355,"is_reserved":false,"is_disabled":false,"rental_uris":{"android":"levelo://app?vid=24630590-a2d9-4ae2-8bed-2977ef13c8ca","ios":"levelo://app?vid=24630590-a2d9-4ae2-8bed-2977ef13c8ca"},"vehicle_type_id":"4","last_reported":1722794987,"current_range_meters":19200,"station_id":"ce4bgph2rcd13ifvqc2g","pricing_plan_id":"cebpf4jnsgd1na2vs0mg"},{"bike_id":"75846183-0b15-44b2-9ed2-a6f9c5696600","system_id":"levelo_inurba_marseille","lat":43.29724,"lon":5.37693,"is_reserved":false,"is_disabled":false,"rental_uris":{"android":"levelo://app?vid=75846183-0b15-44b2-9ed2-a6f9c5696600","ios":"levelo://app?vid=75846183-0b15-44b2-9ed2-a6f9c5696600"},"vehicle_type_id":"4","last_reported":1722794987,"current_range_meters":25200,"station_id":"ce4bgkh2rcd13ifvqbl0","pricing_plan_id":"cebpf4jnsgd1na2vs0mg"},{"bike_id":"7643ef63-17d2-4218-8400-c0cc4e661681","system_id":"levelo_inurba_marseille","lat":43.309589,"lon":5.390258,"is_reserved":false,"is_disabled":false,"rental_uris":{"android":"levelo://app?vid=7643ef63-17d2-4218-8400-c0cc4e661681","ios":"levelo://app?vid=7643ef63-17d2-4218-8400-c0cc4e661681"},"vehicle_type_id":"4","last_reported":1722794987,"current_range_meters":12000,"station_id":"ce4bgup2rcd13ifvqco0","pricing_plan_id":"cebpf4jnsgd1na2vs0mg"},{"bike_id":"3f8e136c-0521-4277-8efe-d5c36a912ce1","system_id":"levelo_inurba_marseille","lat":43.309589,"lon":5.390258,"is_reserved":false,"is_disabled":false,"rental_uris":{"android":"levelo://app?vid=3f8e136c-0521-4277-8efe-d5c36a912ce1","ios":"levelo://app?vid=3f8e136c-0521-4277-8efe-d5c36a912ce1"},"vehicle_type_id":"4","last_reported":1722794987,"current_range_meters":12400,"station_id":"ce4bgup2rcd13ifvqco0","pricing_plan_id":"cebpf4jnsgd1na2vs0mg"},{"bike_id":"a0f6f4b9-b0b3-49b6-b7c2-50638cabfe62","system_id":"levelo_inurba_marseille","lat":43.296935,"lon":5.376544,"is_reserved":false,"is_disabled":false,"rental_uris":{"android":"levelo://app?vid=a0f6f4b9-b0b3-49b6-b7c2-50638cabfe62","ios":"levelo://app?vid=a0f6f4b9-b0b3-49b6-b7c2-50638cabfe62"},"vehicle_type_id":"4","last_reported":1722794987,"current_range_meters":11200,"station_id":"ce4bgkh2rcd13ifvqbl0","pricing_plan_id":"cebpf4jnsgd1na2vs0mg"},{"bike_id":"8adfa311-40ad-44fb-a41f-7763ed03b1c5","system_id":"levelo_inurba_marseille","lat":43.29903,"lon":5.38142,"is_reserved":false,"is_disabled":false,"rental_uris":{"android":"levelo://app?vid=8adfa311-40ad-44fb-a41f-7763ed03b1c5","ios":"levelo://app?vid=8adfa311-40ad-44fb-a41f-7763ed03b1c5"},"vehicle_type_id":"4","last_reported":1722794987,"current_range_meters":0,"station_id":"ce4bgj12rcd13ifvqbc0","pricing_plan_id":"cebpf4jnsgd1na2vs0mg"},{"bike_id":"62961263-e648-4225-870a-3e2d8aa30d91","system_id":"levelo_inurba_marseille","lat":43.30949,"lon":5.39028,"is_reserved":false,"is_disabled":false,"rental_uris":{"android":"levelo://app?vid=62961263-e648-4225-870a-3e2d8aa30d91","ios":"levelo://app?vid=62961263-e648-4225-870a-3e2d8aa30d91"},"vehicle_type_id":"4","last_reported":1722794987,"current_range_meters":29600,"station_id":"ce4bgup2rcd13ifvqco0","pricing_plan_id":"cebpf4jnsgd1na2vs0mg"},{"bike_id":"fa5a4d62-e3b6-4571-9373-91dedf13127a","system_id":"levelo_inurba_marseille","lat":43.30951,"lon":5.39031,"is_reserved":false,"is_disabled":false,"rental_uris":{"android":"levelo://app?vid=fa5a4d62-e3b6-4571-9373-91dedf13127a","ios":"levelo://app?vid=fa5a4d62-e3b6-4571-9373-91dedf13127a"},"vehicle_type_id":"4","last_reported":1722794987,"current_range_meters":31200,"station_id":"ce4bgup2rcd13ifvqco0","pricing_plan_id":"cebpf4jnsgd1na2vs0mg"},{"bike_id":"2e228f19-1c2c-45dc-aa70-4ce9b59a76d4","system_id":"levelo_inurba_marseille","lat":43.309589,"lon":5.390258,"is_reserved":false,"is_disabled":false,"rental_uris":{"android":"levelo://app?vid=2e228f19-1c2c-45dc-aa70-4ce9b59a76d4","ios":"levelo://app?vid=2e228f19-1c2c-45dc-aa70-4ce9b59a76d4"},"vehicle_type_id":"4","last_reported":1722794987,"current_range_meters":13600,"station_id":"ce4bgup2rcd13ifvqco0","pricing_plan_id":"cebpf4jnsgd1na2vs0mg"},{"bike_id":"536c0f49-c71e-4f32-b56b-9612990f1677","system_id":"levelo_inurba_marseille","lat":43.30952,"lon":5.39048,"is_reserved":false,"is_disabled":false,"rental_uris":{"android":"levelo://app?vid=536c0f49-c71e-4f32-b56b-9612990f1677","ios":"levelo://app?vid=536c0f49-c71e-4f32-b56b-9612990f1677"},"vehicle_type_id":"4","last_reported":1722794987,"current_range_meters":31200,"station_id":"ce4bgup2rcd13ifvqco0","pricing_plan_id":"cebpf4jnsgd1na2vs0mg"},{"bike_id":"aba2a598-72b1-4266-aad0-acaa0062dc81","system_id":"levelo_inurba_marseille","lat":43.317557,"lon":5.390173,"is_reserved":false,"is_disabled":false,"rental_uris":{"android":"levelo://app?vid=aba2a598-72b1-4266-aad0-acaa0062dc81","ios":"levelo://app?vid=aba2a598-72b1-4266-aad0-acaa0062dc81"},"vehicle_type_id":"4","last_reported":1722794987,"current_range_meters":25600,"station_id":"ce4bhqp2rcd13ifvqhng","pricing_plan_id":"cebpf4jnsgd1na2vs0mg"},{"bike_id":"9b986a82-71b0-4fbb-807b-b431dbb31545","system_id":"levelo_inurba_marseille","lat":43.317557,"lon":5.390173,"is_reserved":false,"is_disabled":false,"rental_uris":{"android":"levelo://app?vid=9b986a82-71b0-4fbb-807b-b431dbb31545","ios":"levelo://app?vid=9b986a82-71b0-4fbb-807b-b431dbb31545"},"vehicle_type_id":"4","last_reported":1722794987,"current_range_meters":14000,"station_id":"ce4bhqp2rcd13ifvqhng","pricing_plan_id":"cebpf4jnsgd1na2vs0mg"},{"bike_id":"878acd62-50b5-4a80-87c0-ac720983fb4c","system_id":"levelo_inurba_marseille","lat":43.31764,"lon":5.39018,"is_reserved":false,"is_disabled":false,"rental_uris":{"android":"levelo://app?vid=878acd62-50b5-4a80-87c0-ac720983fb4c","ios":"levelo://app?vid=878acd62-50b5-4a80-87c0-ac720983fb4c"},"vehicle_type_id":"4","last_reported":1722794987,"current_range_meters":0,"station_id":"ce4bhqp2rcd13ifvqhng","pricing_plan_id":"cebpf4jnsgd1na2vs0mg"},{"bike_id":"ed40d455-8abc-4b56-821a-a8d1599b2f4f","system_id":"levelo_inurba_marseille","lat":43.299028,"lon":5.381509,"is_reserved":false,"is_disabled":false,"rental_uris":{"android":"levelo://app?vid=ed40d455-8abc-4b56-821a-a8d1599b2f4f","ios":"levelo://app?vid=ed40d455-8abc-4b56-821a-a8d1599b2f4f"},"vehicle_type_id":"4","last_reported":1722794987,"current_range_meters":1600,"station_id":"ce4bgj12rcd13ifvqbc0","pricing_plan_id":"cebpf4jnsgd1na2vs0mg"},{"bike_id":"950fe656-7d48-442f-a37c-e259d411c716","system_id":"levelo_inurba_marseille","lat":43.297927,"lon":5.380907,"is_reserved":false,"is_disabled":false,"rental_uris":{"android":"levelo://app?vid=950fe656-7d48-442f-a37c-e259d411c716","ios":"levelo://app?vid=950fe656-7d48-442f-a37c-e259d411c716"},"vehicle_type_id":"4","last_reported":1722794987,"current_range_meters":30400,"station_id":"","pricing_plan_id":"cebpf4jnsgd1na2vs0mg"},{"bike_id":"a16801c8-1c16-4b5b-b562-928376eb9db9","system_id":"levelo_inurba_marseille","lat":43.295747,"lon":5.375067,"is_reserved":false,"is_disabled":false,"rental_uris":{"android":"levelo://app?vid=a16801c8-1c16-4b5b-b562-928376eb9db9","ios":"levelo://app?vid=a16801c8-1c16-4b5b-b562-928376eb9db9"},"vehicle_type_id":"4","last_reported":1722794987,"current_range_meters":26000,"station_id":"ce4bgh92rcd13ifvqb50","pricing_plan_id":"cebpf4jnsgd1na2vs0mg"},{"bike_id":"818ccb52-f8e4-43ef-a631-a9ac2630013e","system_id":"levelo_inurba_marseille","lat":43.296263,"lon":5.377094,"is_reserved":false,"is_disabled":false,"rental_uris":{"android":"levelo://app?vid=818ccb52-f8e4-43ef-a631-a9ac2630013e","ios":"levelo://app?vid=818ccb52-f8e4-43ef-a631-a9ac2630013e"},"vehicle_type_id":"4","last_reported":1722794987,"current_range_meters":29200,"station_id":"ce4bgi92rcd13ifvqb90","pricing_plan_id":"cebpf4jnsgd1na2vs0mg"},{"bike_id":"59281bf8-7961-46b6-9287-231d10e39492","system_id":"levelo_inurba_marseille","lat":43.295748,"lon":5.37522,"is_reserved":false,"is_disabled":false,"rental_uris":{"android":"levelo://app?vid=59281bf8-7961-46b6-9287-231d10e39492","ios":"levelo://app?vid=59281bf8-7961-46b6-9287-231d10e39492"},"vehicle_type_id":"4","last_reported":1722794987,"current_range_meters":0,"station_id":"ce4bgh92rcd13ifvqb50","pricing_plan_id":"cebpf4jnsgd1na2vs0mg"},{"bike_id":"74e2e49f-96d7-415c-bc16-8684a862fc72","system_id":"levelo_inurba_marseille","lat":43.295685,"lon":5.375272,"is_reserved":false,"is_disabled":false,"rental_uris":{"android":"levelo://app?vid=74e2e49f-96d7-415c-bc16-8684a862fc72","ios":"levelo://app?vid=74e2e49f-96d7-415c-bc16-8684a862fc72"},"vehicle_type_id":"4","last_reported":1722794987,"current_range_meters":10400,"station_id":"ce4bgh92rcd13ifvqb50","pricing_plan_id":"cebpf4jnsgd1na2vs0mg"},{"bike_id":"4fa33539-6cf7-4e59-9ac9-e87dc30ec170","system_id":"levelo_inurba_marseille","lat":43.29782,"lon":5.38103,"is_reserved":false,"is_disabled":false,"rental_uris":{"android":"levelo://app?vid=4fa33539-6cf7-4e59-9ac9-e87dc30ec170","ios":"levelo://app?vid=4fa33539-6cf7-4e59-9ac9-e87dc30ec170"},"vehicle_type_id":"4","last_reported":1722794987,"current_range_meters":10400,"station_id":"ce4bgip2rcd13ifvqbb0","pricing_plan_id":"cebpf4jnsgd1na2vs0mg"},{"bike_id":"b46ba482-9acc-407b-b199-eafc243801f5","system_id":"levelo_inurba_marseille","lat":43.297855,"lon":5.381114,"is_reserved":false,"is_disabled":false,"rental_uris":{"android":"levelo://app?vid=b46ba482-9acc-407b-b199-eafc243801f5","ios":"levelo://app?vid=b46ba482-9acc-407b-b199-eafc243801f5"},"vehicle_type_id":"4","last_reported":1722794987,"current_range_meters":7600,"station_id":"","pricing_plan_id":"cebpf4jnsgd1na2vs0mg"},{"bike_id":"de3382f4-3b9e-4bd9-9712-477fdf5241c8","system_id":"levelo_inurba_marseille","lat":43.296263,"lon":5.377094,"is_reserved":false,"is_disabled":false,"rental_uris":{"android":"levelo://app?vid=de3382f4-3b9e-4bd9-9712-477fdf5241c8","ios":"levelo://app?vid=de3382f4-3b9e-4bd9-9712-477fdf5241c8"},"vehicle_type_id":"4","last_reported":1722794987,"current_range_meters":22000,"station_id":"ce4bgi92rcd13ifvqb90","pricing_plan_id":"cebpf4jnsgd1na2vs0mg"},{"bike_id":"1bae8705-e0fd-46eb-a11d-50a8cb33d9aa","system_id":"levelo_inurba_marseille","lat":43.296277,"lon":5.377108,"is_reserved":false,"is_disabled":false,"rental_uris":{"android":"levelo://app?vid=1bae8705-e0fd-46eb-a11d-50a8cb33d9aa","ios":"levelo://app?vid=1bae8705-e0fd-46eb-a11d-50a8cb33d9aa"},"vehicle_type_id":"4","last_reported":1722794987,"current_range_meters":15200,"station_id":"ce4bgi92rcd13ifvqb90","pricing_plan_id":"cebpf4jnsgd1na2vs0mg"},{"bike_id":"9c3972b8-2a27-4ead-9728-2fe1ffe3c5a6","system_id":"levelo_inurba_marseille","lat":43.2978,"lon":5.38109,"is_reserved":false,"is_disabled":false,"rental_uris":{"android":"levelo://app?vid=9c3972b8-2a27-4ead-9728-2fe1ffe3c5a6","ios":"levelo://app?vid=9c3972b8-2a27-4ead-9728-2fe1ffe3c5a6"},"vehicle_type_id":"4","last_reported":1722794987,"current_range_meters":24800,"station_id":"ce4bgip2rcd13ifvqbb0","pricing_plan_id":"cebpf4jnsgd1na2vs0mg"},{"bike_id":"ff813f21-e928-4d74-a212-1430284364c4","system_id":"levelo_inurba_marseille","lat":43.296263,"lon":5.377094,"is_reserved":false,"is_disabled":false,"rental_uris":{"android":"levelo://app?vid=ff813f21-e928-4d74-a212-1430284364c4","ios":"levelo://app?vid=ff813f21-e928-4d74-a212-1430284364c4"},"vehicle_type_id":"4","last_reported":1722794987,"current_range_meters":16800,"station_id":"ce4bgi92rcd13ifvqb90","pricing_plan_id":"cebpf4jnsgd1na2vs0mg"},{"bike_id":"2a6b10a4-3ee9-4f2e-a829-80a430859b89","system_id":"levelo_inurba_marseille","lat":43.296277,"lon":5.377108,"is_reserved":false,"is_disabled":false,"rental_uris":{"android":"levelo://app?vid=2a6b10a4-3ee9-4f2e-a829-80a430859b89","ios":"levelo://app?vid=2a6b10a4-3ee9-4f2e-a829-80a430859b89"},"vehicle_type_id":"4","last_reported":1722794987,"current_range_meters":31200,"station_id":"ce4bgi92rcd13ifvqb90","pricing_plan_id":"cebpf4jnsgd1na2vs0mg"},{"bike_id":"74a4b9a8-bbb0-4f66-9e02-bbed77832a3c","system_id":"levelo_inurba_marseille","lat":43.296277,"lon":5.377108,"is_reserved":false,"is_disabled":false,"rental_uris":{"android":"levelo://app?vid=74a4b9a8-bbb0-4f66-9e02-bbed77832a3c","ios":"levelo://app?vid=74a4b9a8-bbb0-4f66-9e02-bbed77832a3c"},"vehicle_type_id":"4","last_reported":1722794987,"current_range_meters":30000,"station_id":"ce4bgi92rcd13ifvqb90","pricing_plan_id":"cebpf4jnsgd1na2vs0mg"},{"bike_id":"914bad0e-61b3-42cc-b77c-b72f274180b1","system_id":"levelo_inurba_marseille","lat":43.296277,"lon":5.377108,"is_reserved":false,"is_disabled":false,"rental_uris":{"android":"levelo://app?vid=914bad0e-61b3-42cc-b77c-b72f274180b1","ios":"levelo://app?vid=914bad0e-61b3-42cc-b77c-b72f274180b1"},"vehicle_type_id":"4","last_reported":1722794987,"current_range_meters":31200,"station_id":"ce4bgi92rcd13ifvqb90","pricing_plan_id":"cebpf4jnsgd1na2vs0mg"},{"bike_id":"7e382399-6a47-4abf-85b2-e8d711969ddd","system_id":"levelo_inurba_marseille","lat":43.296277,"lon":5.377108,"is_reserved":false,"is_disabled":false,"rental_uris":{"android":"levelo://app?vid=7e382399-6a47-4abf-85b2-e8d711969ddd","ios":"levelo://app?vid=7e382399-6a47-4abf-85b2-e8d711969ddd"},"vehicle_type_id":"4","last_reported":1722794987,"current_range_meters":31600,"station_id":"ce4bgi92rcd13ifvqb90","pricing_plan_id":"cebpf4jnsgd1na2vs0mg"},{"bike_id":"41235e9e-8194-433c-a06d-31d019c5f42c","system_id":"levelo_inurba_marseille","lat":43.295279,"lon":5.375048,"is_reserved":false,"is_disabled":false,"rental_uris":{"android":"levelo://app?vid=41235e9e-8194-433c-a06d-31d019c5f42c","ios":"levelo://app?vid=41235e9e-8194-433c-a06d-31d019c5f42c"},"vehicle_type_id":"4","last_reported":1722794987,"current_range_meters":30000,"station_id":"ce4bgkp2rcd13ifvqbmg","pricing_plan_id":"cebpf4jnsgd1na2vs0mg"},{"bike_id":"63eed602-3fe9-4eb3-b39f-19b9d6edbf20","system_id":"levelo_inurba_marseille","lat":43.295279,"lon":5.375048,"is_reserved":false,"is_disabled":false,"rental_uris":{"android":"levelo://app?vid=63eed602-3fe9-4eb3-b39f-19b9d6edbf20","ios":"levelo://app?vid=63eed602-3fe9-4eb3-b39f-19b9d6edbf20"},"vehicle_type_id":"4","last_reported":1722794987,"current_range_meters":9200,"station_id":"ce4bgkp2rcd13ifvqbmg","pricing_plan_id":"cebpf4jnsgd1na2vs0mg"},{"bike_id":"f630a854-e754-4123-8d89-e6060f258c70","system_id":"levelo_inurba_marseille","lat":43.299703,"lon":5.384803,"is_reserved":false,"is_disabled":false,"rental_uris":{"android":"levelo://app?vid=f630a854-e754-4123-8d89-e6060f258c70","ios":"levelo://app?vid=f630a854-e754-4123-8d89-e6060f258c70"},"vehicle_type_id":"4","last_reported":1722794987,"current_range_meters":31200,"station_id":"ce4bgj92rcd13ifvqbd0","pricing_plan_id":"cebpf4jnsgd1na2vs0mg"},{"bike_id":"7f2c6965-a2e9-4c83-aed2-011b173519a1","system_id":"levelo_inurba_marseille","lat":43.31515,"lon":5.39203,"is_reserved":false,"is_disabled":false,"rental_uris":{"android":"levelo://app?vid=7f2c6965-a2e9-4c83-aed2-011b173519a1","ios":"levelo://app?vid=7f2c6965-a2e9-4c83-aed2-011b173519a1"},"vehicle_type_id":"4","last_reported":1722794987,"current_range_meters":29600,"station_id":"","pricing_plan_id":"cebpf4jnsgd1na2vs0mg"},{"bike_id":"b4b73852-b41d-439a-a06b-d8d8ccf504b9","system_id":"levelo_inurba_marseille","lat":43.31517,"lon":5.39206,"is_reserved":false,"is_disabled":false,"rental_uris":{"android":"levelo://app?vid=b4b73852-b41d-439a-a06b-d8d8ccf504b9","ios":"levelo://app?vid=b4b73852-b41d-439a-a06b-d8d8ccf504b9"},"vehicle_type_id":"4","last_reported":1722794987,"current_range_meters":24000,"station_id":"","pricing_plan_id":"cebpf4jnsgd1na2vs0mg"},{"bike_id":"c7b657c9-8257-49a7-bbde-980b0321563a","system_id":"levelo_inurba_marseille","lat":43.299724,"lon":5.384848,"is_reserved":false,"is_disabled":false,"rental_uris":{"android":"levelo://app?vid=c7b657c9-8257-49a7-bbde-980b0321563a","ios":"levelo://app?vid=c7b657c9-8257-49a7-bbde-980b0321563a"},"vehicle_type_id":"4","last_reported":1722794987,"current_range_meters":18800,"station_id":"ce4bgj92rcd13ifvqbd0","pricing_plan_id":"cebpf4jnsgd1na2vs0mg"},{"bike_id":"82a914a9-cb3f-4efa-98c0-6f6c570ab89d","system_id":"levelo_inurba_marseille","lat":43.299717,"lon":5.384845,"is_reserved":false,"is_disabled":false,"rental_uris":{"android":"levelo://app?vid=82a914a9-cb3f-4efa-98c0-6f6c570ab89d","ios":"levelo://app?vid=82a914a9-cb3f-4efa-98c0-6f6c570ab89d"},"vehicle_type_id":"4","last_reported":1722794987,"current_range_meters":31600,"station_id":"ce4bgj92rcd13ifvqbd0","pricing_plan_id":"cebpf4jnsgd1na2vs0mg"},{"bike_id":"d106389a-5647-4e45-9172-4039b3d67f2b","system_id":"levelo_inurba_marseille","lat":43.29969,"lon":5.38488,"is_reserved":false,"is_disabled":false,"rental_uris":{"android":"levelo://app?vid=d106389a-5647-4e45-9172-4039b3d67f2b","ios":"levelo://app?vid=d106389a-5647-4e45-9172-4039b3d67f2b"},"vehicle_type_id":"4","last_reported":1722794987,"current_range_meters":0,"station_id":"ce4bgj92rcd13ifvqbd0","pricing_plan_id":"cebpf4jnsgd1na2vs0mg"},{"bike_id":"00d46d32-054c-42cb-b4a3-27b0da08a934","system_id":"levelo_inurba_marseille","lat":43.324829,"lon":5.386115,"is_reserved":false,"is_disabled":false,"rental_uris":{"android":"levelo://app?vid=00d46d32-054c-42cb-b4a3-27b0da08a934","ios":"levelo://app?vid=00d46d32-054c-42cb-b4a3-27b0da08a934"},"vehicle_type_id":"4","last_reported":1722794987,"current_range_meters":2000,"station_id":"","pricing_plan_id":"cebpf4jnsgd1na2vs0mg"},{"bike_id":"0283764d-83d6-4943-9a32-63383e0caff3","system_id":"levelo_inurba_marseille","lat":43.295279,"lon":5.375048,"is_reserved":false,"is_disabled":false,"rental_uris":{"android":"levelo://app?vid=0283764d-83d6-4943-9a32-63383e0caff3","ios":"levelo://app?vid=0283764d-83d6-4943-9a32-63383e0caff3"},"vehicle_type_id":"4","last_reported":1722794987,"current_range_meters":3600,"station_id":"ce4bgkp2rcd13ifvqbmg","pricing_plan_id":"cebpf4jnsgd1na2vs0mg"},{"bike_id":"922d6ec1-e449-4991-8b2d-63bfd9d558d5","system_id":"levelo_inurba_marseille","lat":43.299717,"lon":5.384845,"is_reserved":false,"is_disabled":false,"rental_uris":{"android":"levelo://app?vid=922d6ec1-e449-4991-8b2d-63bfd9d558d5","ios":"levelo://app?vid=922d6ec1-e449-4991-8b2d-63bfd9d558d5"},"vehicle_type_id":"4","last_reported":1722794987,"current_range_meters":12400,"station_id":"ce4bgj92rcd13ifvqbd0","pricing_plan_id":"cebpf4jnsgd1na2vs0mg"},{"bike_id":"a64db614-70b2-4862-a839-17e79b2ba10e","system_id":"levelo_inurba_marseille","lat":43.299717,"lon":5.384845,"is_reserved":false,"is_disabled":false,"rental_uris":{"android":"levelo://app?vid=a64db614-70b2-4862-a839-17e79b2ba10e","ios":"levelo://app?vid=a64db614-70b2-4862-a839-17e79b2ba10e"},"vehicle_type_id":"4","last_reported":1722794987,"current_range_meters":0,"station_id":"ce4bgj92rcd13ifvqbd0","pricing_plan_id":"cebpf4jnsgd1na2vs0mg"},{"bike_id":"790904c2-d88e-46f9-94d5-409992f69462","system_id":"levelo_inurba_marseille","lat":43.295279,"lon":5.375048,"is_reserved":false,"is_disabled":false,"rental_uris":{"android":"levelo://app?vid=790904c2-d88e-46f9-94d5-409992f69462","ios":"levelo://app?vid=790904c2-d88e-46f9-94d5-409992f69462"},"vehicle_type_id":"4","last_reported":1722794987,"current_range_meters":22800,"station_id":"ce4bgkp2rcd13ifvqbmg","pricing_plan_id":"cebpf4jnsgd1na2vs0mg"},{"bike_id":"8870c41d-e124-4e2a-823b-b7004dc4d9dd","system_id":"levelo_inurba_marseille","lat":43.295279,"lon":5.375048,"is_reserved":false,"is_disabled":false,"rental_uris":{"android":"levelo://app?vid=8870c41d-e124-4e2a-823b-b7004dc4d9dd","ios":"levelo://app?vid=8870c41d-e124-4e2a-823b-b7004dc4d9dd"},"vehicle_type_id":"4","last_reported":1722794987,"current_range_meters":29200,"station_id":"ce4bgkp2rcd13ifvqbmg","pricing_plan_id":"cebpf4jnsgd1na2vs0mg"},{"bike_id":"6f27faeb-1fb5-498a-9b75-b84ce8476095","system_id":"levelo_inurba_marseille","lat":43.301396,"lon":5.387812,"is_reserved":false,"is_disabled":false,"rental_uris":{"android":"levelo://app?vid=6f27faeb-1fb5-498a-9b75-b84ce8476095","ios":"levelo://app?vid=6f27faeb-1fb5-498a-9b75-b84ce8476095"},"vehicle_type_id":"4","last_reported":1722794987,"current_range_meters":26000,"station_id":"ce4bghh2rcd13ifvqb60","pricing_plan_id":"cebpf4jnsgd1na2vs0mg"},{"bike_id":"c016cd2f-8c23-4fa6-996c-8e7432ccd245","system_id":"levelo_inurba_marseille","lat":43.30124,"lon":5.38768,"is_reserved":false,"is_disabled":false,"rental_uris":{"android":"levelo://app?vid=c016cd2f-8c23-4fa6-996c-8e7432ccd245","ios":"levelo://app?vid=c016cd2f-8c23-4fa6-996c-8e7432ccd245"},"vehicle_type_id":"4","last_reported":1722794987,"current_range_meters":31200,"station_id":"ce4bghh2rcd13ifvqb60","pricing_plan_id":"cebpf4jnsgd1na2vs0mg"},{"bike_id":"e65cf0c1-42cd-43d2-aa4f-84130ff641ee","system_id":"levelo_inurba_marseille","lat":43.301396,"lon":5.387812,"is_reserved":false,"is_disabled":false,"rental_uris":{"android":"levelo://app?vid=e65cf0c1-42cd-43d2-aa4f-84130ff641ee","ios":"levelo://app?vid=e65cf0c1-42cd-43d2-aa4f-84130ff641ee"},"vehicle_type_id":"4","last_reported":1722794987,"current_range_meters":18800,"station_id":"ce4bghh2rcd13ifvqb60","pricing_plan_id":"cebpf4jnsgd1na2vs0mg"},{"bike_id":"621daa49-e974-4031-a6c0-06ae19a04e56","system_id":"levelo_inurba_marseille","lat":43.301396,"lon":5.387812,"is_reserved":false,"is_disabled":false,"rental_uris":{"android":"levelo://app?vid=621daa49-e974-4031-a6c0-06ae19a04e56","ios":"levelo://app?vid=621daa49-e974-4031-a6c0-06ae19a04e56"},"vehicle_type_id":"4","last_reported":1722794987,"current_range_meters":2400,"station_id":"ce4bghh2rcd13ifvqb60","pricing_plan_id":"cebpf4jnsgd1na2vs0mg"},{"bike_id":"0f3e88c5-cd12-46cc-b19f-bfd62423fa2a","system_id":"levelo_inurba_marseille","lat":43.32361,"lon":5.38878,"is_reserved":false,"is_disabled":false,"rental_uris":{"android":"levelo://app?vid=0f3e88c5-cd12-46cc-b19f-bfd62423fa2a","ios":"levelo://app?vid=0f3e88c5-cd12-46cc-b19f-bfd62423fa2a"},"vehicle_type_id":"4","last_reported":1722794987,"current_range_meters":4800,"station_id":"ce4bhqp2rcd13ifvqhog","pricing_plan_id":"cebpf4jnsgd1na2vs0mg"},{"bike_id":"1f76e59f-ecec-466d-b59e-ce53907dadb0","system_id":"levelo_inurba_marseille","lat":43.32367,"lon":5.388836,"is_reserved":false,"is_disabled":false,"rental_uris":{"android":"levelo://app?vid=1f76e59f-ecec-466d-b59e-ce53907dadb0","ios":"levelo://app?vid=1f76e59f-ecec-466d-b59e-ce53907dadb0"},"vehicle_type_id":"4","last_reported":1722794987,"current_range_meters":13200,"station_id":"ce4bhqp2rcd13ifvqhog","pricing_plan_id":"cebpf4jnsgd1na2vs0mg"},{"bike_id":"9129bc3e-def8-455a-afb9-49965d976951","system_id":"levelo_inurba_marseille","lat":43.2961,"lon":5.38089,"is_reserved":false,"is_disabled":false,"rental_uris":{"android":"levelo://app?vid=9129bc3e-def8-455a-afb9-49965d976951","ios":"levelo://app?vid=9129bc3e-def8-455a-afb9-49965d976951"},"vehicle_type_id":"4","last_reported":1722794987,"current_range_meters":0,"station_id":"ce4bgl12rcd13ifvqbo0","pricing_plan_id":"cebpf4jnsgd1na2vs0mg"},{"bike_id":"b2a1509f-4dcd-4a85-9d72-3bfc24ab48a9","system_id":"levelo_inurba_marseille","lat":43.29602,"lon":5.381084,"is_reserved":false,"is_disabled":false,"rental_uris":{"android":"levelo://app?vid=b2a1509f-4dcd-4a85-9d72-3bfc24ab48a9","ios":"levelo://app?vid=b2a1509f-4dcd-4a85-9d72-3bfc24ab48a9"},"vehicle_type_id":"4","last_reported":1722794987,"current_range_meters":0,"station_id":"ce4bgl12rcd13ifvqbo0","pricing_plan_id":"cebpf4jnsgd1na2vs0mg"},{"bike_id":"35b4312b-62c2-4028-b9d4-32dcf4ec5970","system_id":"levelo_inurba_marseille","lat":43.30061,"lon":5.38802,"is_reserved":false,"is_disabled":false,"rental_uris":{"android":"levelo://app?vid=35b4312b-62c2-4028-b9d4-32dcf4ec5970","ios":"levelo://app?vid=35b4312b-62c2-4028-b9d4-32dcf4ec5970"},"vehicle_type_id":"4","last_reported":1722794987,"current_range_meters":0,"station_id":"","pricing_plan_id":"cebpf4jnsgd1na2vs0mg"},{"bike_id":"35070917-c7eb-456a-8a9e-8355d80e2f8c","system_id":"levelo_inurba_marseille","lat":43.292749,"lon":5.368402,"is_reserved":false,"is_disabled":false,"rental_uris":{"android":"levelo://app?vid=35070917-c7eb-456a-8a9e-8355d80e2f8c","ios":"levelo://app?vid=35070917-c7eb-456a-8a9e-8355d80e2f8c"},"vehicle_type_id":"4","last_reported":1722794987,"current_range_meters":0,"station_id":"ce4bhbp2rcd13ifvqesg","pricing_plan_id":"cebpf4jnsgd1na2vs0mg"},{"bike_id":"9d7e71ef-a04e-4dae-9157-d08caf36d627","system_id":"levelo_inurba_marseille","lat":43.293259,"lon":5.371586,"is_reserved":false,"is_disabled":false,"rental_uris":{"android":"levelo://app?vid=9d7e71ef-a04e-4dae-9157-d08caf36d627","ios":"levelo://app?vid=9d7e71ef-a04e-4dae-9157-d08caf36d627"},"vehicle_type_id":"4","last_reported":1722794987,"current_range_meters":0,"station_id":"ce4bgh92rcd13ifvqb40","pricing_plan_id":"cebpf4jnsgd1na2vs0mg"},{"bike_id":"6fb80cbb-6d01-4552-ab0e-a88d8b2bb02e","system_id":"levelo_inurba_marseille","lat":43.293009,"lon":5.374584,"is_reserved":false,"is_disabled":false,"rental_uris":{"android":"levelo://app?vid=6fb80cbb-6d01-4552-ab0e-a88d8b2bb02e","ios":"levelo://app?vid=6fb80cbb-6d01-4552-ab0e-a88d8b2bb02e"},"vehicle_type_id":"4","last_reported":1722794987,"current_range_meters":23600,"station_id":"ce4bgi12rcd13ifvqb70","pricing_plan_id":"cebpf4jnsgd1na2vs0mg"},{"bike_id":"e00ba373-547c-4b3c-a0d2-24865e754179","system_id":"levelo_inurba_marseille","lat":43.29731,"lon":5.38547,"is_reserved":false,"is_disabled":false,"rental_uris":{"android":"levelo://app?vid=e00ba373-547c-4b3c-a0d2-24865e754179","ios":"levelo://app?vid=e00ba373-547c-4b3c-a0d2-24865e754179"},"vehicle_type_id":"4","last_reported":1722794987,"current_range_meters":15600,"station_id":"","pricing_plan_id":"cebpf4jnsgd1na2vs0mg"},{"bike_id":"de09cff3-98bd-4e8b-ae03-9fd37f2c81b4","system_id":"levelo_inurba_marseille","lat":43.305994,"lon":5.393687,"is_reserved":false,"is_disabled":false,"rental_uris":{"android":"levelo://app?vid=de09cff3-98bd-4e8b-ae03-9fd37f2c81b4","ios":"levelo://app?vid=de09cff3-98bd-4e8b-ae03-9fd37f2c81b4"},"vehicle_type_id":"4","last_reported":1722794987,"current_range_meters":1600,"station_id":"ce4bh0p2rcd13ifvqd80","pricing_plan_id":"cebpf4jnsgd1na2vs0mg"},{"bike_id":"a1a3745f-63f5-4fc1-a27b-dc1751bae7c6","system_id":"levelo_inurba_marseille","lat":43.305994,"lon":5.393687,"is_reserved":false,"is_disabled":false,"rental_uris":{"android":"levelo://app?vid=a1a3745f-63f5-4fc1-a27b-dc1751bae7c6","ios":"levelo://app?vid=a1a3745f-63f5-4fc1-a27b-dc1751bae7c6"},"vehicle_type_id":"4","last_reported":1722794987,"current_range_meters":14400,"station_id":"ce4bh0p2rcd13ifvqd80","pricing_plan_id":"cebpf4jnsgd1na2vs0mg"},{"bike_id":"6c97731e-e292-4fd5-b512-17db122a71ae","system_id":"levelo_inurba_marseille","lat":43.293009,"lon":5.374584,"is_reserved":false,"is_disabled":false,"rental_uris":{"android":"levelo://app?vid=6c97731e-e292-4fd5-b512-17db122a71ae","ios":"levelo://app?vid=6c97731e-e292-4fd5-b512-17db122a71ae"},"vehicle_type_id":"4","last_reported":1722794987,"current_range_meters":30800,"station_id":"ce4bgi12rcd13ifvqb70","pricing_plan_id":"cebpf4jnsgd1na2vs0mg"},{"bike_id":"fd22e93a-d705-4efd-b70c-5ffeb9d52b67","system_id":"levelo_inurba_marseille","lat":43.303002,"lon":5.392142,"is_reserved":false,"is_disabled":false,"rental_uris":{"android":"levelo://app?vid=fd22e93a-d705-4efd-b70c-5ffeb9d52b67","ios":"levelo://app?vid=fd22e93a-d705-4efd-b70c-5ffeb9d52b67"},"vehicle_type_id":"4","last_reported":1722794987,"current_range_meters":21600,"station_id":"ce4bgkh2rcd13ifvqbk0","pricing_plan_id":"cebpf4jnsgd1na2vs0mg"},{"bike_id":"43252847-53bb-43f6-99e3-8c2160220554","system_id":"levelo_inurba_marseille","lat":43.303002,"lon":5.392142,"is_reserved":false,"is_disabled":false,"rental_uris":{"android":"levelo://app?vid=43252847-53bb-43f6-99e3-8c2160220554","ios":"levelo://app?vid=43252847-53bb-43f6-99e3-8c2160220554"},"vehicle_type_id":"4","last_reported":1722794987,"current_range_meters":800,"station_id":"ce4bgkh2rcd13ifvqbk0","pricing_plan_id":"cebpf4jnsgd1na2vs0mg"},{"bike_id":"d9ee6283-290a-45ba-ad67-1499a6b4c81e","system_id":"levelo_inurba_marseille","lat":43.30302,"lon":5.39214,"is_reserved":false,"is_disabled":false,"rental_uris":{"android":"levelo://app?vid=d9ee6283-290a-45ba-ad67-1499a6b4c81e","ios":"levelo://app?vid=d9ee6283-290a-45ba-ad67-1499a6b4c81e"},"vehicle_type_id":"4","last_reported":1722794987,"current_range_meters":6800,"station_id":"ce4bgkh2rcd13ifvqbk0","pricing_plan_id":"cebpf4jnsgd1na2vs0mg"},{"bike_id":"c6dedc4c-daec-4556-9e30-101842df7052","system_id":"levelo_inurba_marseille","lat":43.2936,"lon":5.37835,"is_reserved":false,"is_disabled":false,"rental_uris":{"android":"levelo://app?vid=c6dedc4c-daec-4556-9e30-101842df7052","ios":"levelo://app?vid=c6dedc4c-daec-4556-9e30-101842df7052"},"vehicle_type_id":"4","last_reported":1722794987,"current_range_meters":22400,"station_id":"ce4bgjh2rcd13ifvqbf0","pricing_plan_id":"cebpf4jnsgd1na2vs0mg"},{"bike_id":"f46a88c1-aa20-4b3d-83a5-fce2e6e6f2d2","system_id":"levelo_inurba_marseille","lat":43.29369,"lon":5.378629,"is_reserved":false,"is_disabled":false,"rental_uris":{"android":"levelo://app?vid=f46a88c1-aa20-4b3d-83a5-fce2e6e6f2d2","ios":"levelo://app?vid=f46a88c1-aa20-4b3d-83a5-fce2e6e6f2d2"},"vehicle_type_id":"4","last_reported":1722794987,"current_range_meters":0,"station_id":"ce4bgjh2rcd13ifvqbf0","pricing_plan_id":"cebpf4jnsgd1na2vs0mg"},{"bike_id":"d42a767d-6887-4352-bab8-561de12c0899","system_id":"levelo_inurba_marseille","lat":43.301,"lon":5.39078,"is_reserved":false,"is_disabled":false,"rental_uris":{"android":"levelo://app?vid=d42a767d-6887-4352-bab8-561de12c0899","ios":"levelo://app?vid=d42a767d-6887-4352-bab8-561de12c0899"},"vehicle_type_id":"4","last_reported":1722794987,"current_range_meters":0,"station_id":"ce4bh192rcd13ifvqdb0","pricing_plan_id":"cebpf4jnsgd1na2vs0mg"},{"bike_id":"7cc10609-2893-4af2-aa32-96ebbf80a7a7","system_id":"levelo_inurba_marseille","lat":43.292311,"lon":5.360731,"is_reserved":false,"is_disabled":false,"rental_uris":{"android":"levelo://app?vid=7cc10609-2893-4af2-aa32-96ebbf80a7a7","ios":"levelo://app?vid=7cc10609-2893-4af2-aa32-96ebbf80a7a7"},"vehicle_type_id":"4","last_reported":1722794987,"current_range_meters":0,"station_id":"ce4bhbh2rcd13ifvqeqg","pricing_plan_id":"cebpf4jnsgd1na2vs0mg"},{"bike_id":"55f51297-0ce5-4db0-b54e-0c9f48a5076c","system_id":"levelo_inurba_marseille","lat":43.31375,"lon":5.39602,"is_reserved":false,"is_disabled":false,"rental_uris":{"android":"levelo://app?vid=55f51297-0ce5-4db0-b54e-0c9f48a5076c","ios":"levelo://app?vid=55f51297-0ce5-4db0-b54e-0c9f48a5076c"},"vehicle_type_id":"4","last_reported":1722794987,"current_range_meters":12400,"station_id":"","pricing_plan_id":"cebpf4jnsgd1na2vs0mg"},{"bike_id":"f82c0277-4831-4145-9157-50dede7ded4b","system_id":"levelo_inurba_marseille","lat":43.298764,"lon":5.388973,"is_reserved":false,"is_disabled":false,"rental_uris":{"android":"levelo://app?vid=f82c0277-4831-4145-9157-50dede7ded4b","ios":"levelo://app?vid=f82c0277-4831-4145-9157-50dede7ded4b"},"vehicle_type_id":"4","last_reported":1722794987,"current_range_meters":17600,"station_id":"ce4bh392rcd13ifvqdl0","pricing_plan_id":"cebpf4jnsgd1na2vs0mg"},{"bike_id":"9968c73e-5076-499a-946f-b24e0657d872","system_id":"levelo_inurba_marseille","lat":43.298764,"lon":5.388973,"is_reserved":false,"is_disabled":false,"rental_uris":{"android":"levelo://app?vid=9968c73e-5076-499a-946f-b24e0657d872","ios":"levelo://app?vid=9968c73e-5076-499a-946f-b24e0657d872"},"vehicle_type_id":"4","last_reported":1722794987,"current_range_meters":18400,"station_id":"ce4bh392rcd13ifvqdl0","pricing_plan_id":"cebpf4jnsgd1na2vs0mg"},{"bike_id":"113ce5b3-1b1a-4009-a734-8740dc7c0b46","system_id":"levelo_inurba_marseille","lat":43.298764,"lon":5.388973,"is_reserved":false,"is_disabled":false,"rental_uris":{"android":"levelo://app?vid=113ce5b3-1b1a-4009-a734-8740dc7c0b46","ios":"levelo://app?vid=113ce5b3-1b1a-4009-a734-8740dc7c0b46"},"vehicle_type_id":"4","last_reported":1722794987,"current_range_meters":4400,"station_id":"ce4bh392rcd13ifvqdl0","pricing_plan_id":"cebpf4jnsgd1na2vs0mg"},{"bike_id":"37f9c37c-c3a8-4526-9ab9-6da89d6f2ae4","system_id":"levelo_inurba_marseille","lat":43.293009,"lon":5.374584,"is_reserved":false,"is_disabled":false,"rental_uris":{"android":"levelo://app?vid=37f9c37c-c3a8-4526-9ab9-6da89d6f2ae4","ios":"levelo://app?vid=37f9c37c-c3a8-4526-9ab9-6da89d6f2ae4"},"vehicle_type_id":"4","last_reported":1722794987,"current_range_meters":28800,"station_id":"ce4bgi12rcd13ifvqb70","pricing_plan_id":"cebpf4jnsgd1na2vs0mg"},{"bike_id":"3896a2c8-435d-41d8-9d4f-98305e2d1e12","system_id":"levelo_inurba_marseille","lat":43.313291,"lon":5.396838,"is_reserved":false,"is_disabled":false,"rental_uris":{"android":"levelo://app?vid=3896a2c8-435d-41d8-9d4f-98305e2d1e12","ios":"levelo://app?vid=3896a2c8-435d-41d8-9d4f-98305e2d1e12"},"vehicle_type_id":"4","last_reported":1722794987,"current_range_meters":3200,"station_id":"ce4bgvp2rcd13ifvqcu0","pricing_plan_id":"cebpf4jnsgd1na2vs0mg"},{"bike_id":"df274321-9ccc-416e-b9c9-b262760a10a5","system_id":"levelo_inurba_marseille","lat":43.309038,"lon":5.396546,"is_reserved":false,"is_disabled":false,"rental_uris":{"android":"levelo://app?vid=df274321-9ccc-416e-b9c9-b262760a10a5","ios":"levelo://app?vid=df274321-9ccc-416e-b9c9-b262760a10a5"},"vehicle_type_id":"4","last_reported":1722794987,"current_range_meters":4800,"station_id":"ce4bh012rcd13ifvqcv0","pricing_plan_id":"cebpf4jnsgd1na2vs0mg"},{"bike_id":"f511eedd-7900-44bf-b8e9-322a9431c2dd","system_id":"levelo_inurba_marseille","lat":43.31332,"lon":5.39698,"is_reserved":false,"is_disabled":false,"rental_uris":{"android":"levelo://app?vid=f511eedd-7900-44bf-b8e9-322a9431c2dd","ios":"levelo://app?vid=f511eedd-7900-44bf-b8e9-322a9431c2dd"},"vehicle_type_id":"4","last_reported":1722794987,"current_range_meters":15600,"station_id":"ce4bgvp2rcd13ifvqcu0","pricing_plan_id":"cebpf4jnsgd1na2vs0mg"},{"bike_id":"e99e408a-6967-4333-a144-ef01c92be47d","system_id":"levelo_inurba_marseille","lat":43.29529,"lon":5.385581,"is_reserved":false,"is_disabled":false,"rental_uris":{"android":"levelo://app?vid=e99e408a-6967-4333-a144-ef01c92be47d","ios":"levelo://app?vid=e99e408a-6967-4333-a144-ef01c92be47d"},"vehicle_type_id":"4","last_reported":1722794987,"current_range_meters":15200,"station_id":"ce4bgih2rcd13ifvqba0","pricing_plan_id":"cebpf4jnsgd1na2vs0mg"},{"bike_id":"aa48db36-81e4-44c2-be76-2e3f85b5c4b4","system_id":"levelo_inurba_marseille","lat":43.29529,"lon":5.385581,"is_reserved":false,"is_disabled":false,"rental_uris":{"android":"levelo://app?vid=aa48db36-81e4-44c2-be76-2e3f85b5c4b4","ios":"levelo://app?vid=aa48db36-81e4-44c2-be76-2e3f85b5c4b4"},"vehicle_type_id":"4","last_reported":1722794987,"current_range_meters":26400,"station_id":"ce4bgih2rcd13ifvqba0","pricing_plan_id":"cebpf4jnsgd1na2vs0mg"},{"bike_id":"4519e435-7a7f-44c6-87e0-3fb742c88668","system_id":"levelo_inurba_marseille","lat":43.29529,"lon":5.385581,"is_reserved":false,"is_disabled":false,"rental_uris":{"android":"levelo://app?vid=4519e435-7a7f-44c6-87e0-3fb742c88668","ios":"levelo://app?vid=4519e435-7a7f-44c6-87e0-3fb742c88668"},"vehicle_type_id":"4","last_reported":1722794987,"current_range_meters":0,"station_id":"ce4bgih2rcd13ifvqba0","pricing_plan_id":"cebpf4jnsgd1na2vs0mg"},{"bike_id":"8e25c5b5-6bd2-4361-a8c7-ea917c678c77","system_id":"levelo_inurba_marseille","lat":43.29529,"lon":5.385581,"is_reserved":false,"is_disabled":false,"rental_uris":{"android":"levelo://app?vid=8e25c5b5-6bd2-4361-a8c7-ea917c678c77","ios":"levelo://app?vid=8e25c5b5-6bd2-4361-a8c7-ea917c678c77"},"vehicle_type_id":"4","last_reported":1722794987,"current_range_meters":5200,"station_id":"ce4bgih2rcd13ifvqba0","pricing_plan_id":"cebpf4jnsgd1na2vs0mg"},{"bike_id":"1f45be3e-8d13-448c-b42a-b525fb651d23","system_id":"levelo_inurba_marseille","lat":43.29529,"lon":5.385581,"is_reserved":false,"is_disabled":false,"rental_uris":{"android":"levelo://app?vid=1f45be3e-8d13-448c-b42a-b525fb651d23","ios":"levelo://app?vid=1f45be3e-8d13-448c-b42a-b525fb651d23"},"vehicle_type_id":"4","last_reported":1722794987,"current_range_meters":19600,"station_id":"ce4bgih2rcd13ifvqba0","pricing_plan_id":"cebpf4jnsgd1na2vs0mg"},{"bike_id":"12a89318-2ca0-410e-a77c-a6cd7f8db0f0","system_id":"levelo_inurba_marseille","lat":43.29529,"lon":5.385581,"is_reserved":false,"is_disabled":false,"rental_uris":{"android":"levelo://app?vid=12a89318-2ca0-410e-a77c-a6cd7f8db0f0","ios":"levelo://app?vid=12a89318-2ca0-410e-a77c-a6cd7f8db0f0"},"vehicle_type_id":"4","last_reported":1722794987,"current_range_meters":2800,"station_id":"ce4bgih2rcd13ifvqba0","pricing_plan_id":"cebpf4jnsgd1na2vs0mg"},{"bike_id":"74b963a7-4497-460c-922d-521f2b5b436b","system_id":"levelo_inurba_marseille","lat":43.29529,"lon":5.385581,"is_reserved":false,"is_disabled":false,"rental_uris":{"android":"levelo://app?vid=74b963a7-4497-460c-922d-521f2b5b436b","ios":"levelo://app?vid=74b963a7-4497-460c-922d-521f2b5b436b"},"vehicle_type_id":"4","last_reported":1722794987,"current_range_meters":4400,"station_id":"ce4bgih2rcd13ifvqba0","pricing_plan_id":"cebpf4jnsgd1na2vs0mg"},{"bike_id":"75884850-2fa3-4997-9e49-8114ed760088","system_id":"levelo_inurba_marseille","lat":43.29076,"lon":5.36382,"is_reserved":false,"is_disabled":false,"rental_uris":{"android":"levelo://app?vid=75884850-2fa3-4997-9e49-8114ed760088","ios":"levelo://app?vid=75884850-2fa3-4997-9e49-8114ed760088"},"vehicle_type_id":"4","last_reported":1722794987,"current_range_meters":20400,"station_id":"","pricing_plan_id":"cebpf4jnsgd1na2vs0mg"},{"bike_id":"17979ed1-f07c-4e72-b24e-14d54a7705fe","system_id":"levelo_inurba_marseille","lat":43.290779,"lon":5.371482,"is_reserved":false,"is_disabled":false,"rental_uris":{"android":"levelo://app?vid=17979ed1-f07c-4e72-b24e-14d54a7705fe","ios":"levelo://app?vid=17979ed1-f07c-4e72-b24e-14d54a7705fe"},"vehicle_type_id":"4","last_reported":1722794987,"current_range_meters":16400,"station_id":"ce4bh5p2rcd13ifvqe4g","pricing_plan_id":"cebpf4jnsgd1na2vs0mg"},{"bike_id":"1f11d0b2-d9d8-42b1-a551-da1c3fbd3c16","system_id":"levelo_inurba_marseille","lat":43.290779,"lon":5.371482,"is_reserved":false,"is_disabled":false,"rental_uris":{"android":"levelo://app?vid=1f11d0b2-d9d8-42b1-a551-da1c3fbd3c16","ios":"levelo://app?vid=1f11d0b2-d9d8-42b1-a551-da1c3fbd3c16"},"vehicle_type_id":"4","last_reported":1722794987,"current_range_meters":4000,"station_id":"ce4bh5p2rcd13ifvqe4g","pricing_plan_id":"cebpf4jnsgd1na2vs0mg"},{"bike_id":"5aae65ed-edbd-41f6-b137-0a8b9abd3c66","system_id":"levelo_inurba_marseille","lat":43.302008,"lon":5.394694,"is_reserved":false,"is_disabled":false,"rental_uris":{"android":"levelo://app?vid=5aae65ed-edbd-41f6-b137-0a8b9abd3c66","ios":"levelo://app?vid=5aae65ed-edbd-41f6-b137-0a8b9abd3c66"},"vehicle_type_id":"4","last_reported":1722794987,"current_range_meters":16800,"station_id":"ce4bh0p2rcd13ifvqd70","pricing_plan_id":"cebpf4jnsgd1na2vs0mg"},{"bike_id":"043e9f08-045f-4a3f-9c1d-dc91527cbaa9","system_id":"levelo_inurba_marseille","lat":43.302008,"lon":5.394694,"is_reserved":false,"is_disabled":false,"rental_uris":{"android":"levelo://app?vid=043e9f08-045f-4a3f-9c1d-dc91527cbaa9","ios":"levelo://app?vid=043e9f08-045f-4a3f-9c1d-dc91527cbaa9"},"vehicle_type_id":"4","last_reported":1722794987,"current_range_meters":22400,"station_id":"ce4bh0p2rcd13ifvqd70","pricing_plan_id":"cebpf4jnsgd1na2vs0mg"},{"bike_id":"c0a99422-e2b3-44a9-b65f-fd47e90d5a39","system_id":"levelo_inurba_marseille","lat":43.289184,"lon":5.366408,"is_reserved":false,"is_disabled":false,"rental_uris":{"android":"levelo://app?vid=c0a99422-e2b3-44a9-b65f-fd47e90d5a39","ios":"levelo://app?vid=c0a99422-e2b3-44a9-b65f-fd47e90d5a39"},"vehicle_type_id":"4","last_reported":1722794987,"current_range_meters":0,"station_id":"ce4bhap2rcd13ifvqek0","pricing_plan_id":"cebpf4jnsgd1na2vs0mg"},{"bike_id":"0a8f7326-6d57-4f34-b867-87d3b81bb44c","system_id":"levelo_inurba_marseille","lat":43.290319,"lon":5.375732,"is_reserved":false,"is_disabled":false,"rental_uris":{"android":"levelo://app?vid=0a8f7326-6d57-4f34-b867-87d3b81bb44c","ios":"levelo://app?vid=0a8f7326-6d57-4f34-b867-87d3b81bb44c"},"vehicle_type_id":"4","last_reported":1722794987,"current_range_meters":14800,"station_id":"ce4bh692rcd13ifvqe90","pricing_plan_id":"cebpf4jnsgd1na2vs0mg"},{"bike_id":"130c991a-ffc6-488b-8714-914463ac9641","system_id":"levelo_inurba_marseille","lat":43.294153,"lon":5.386305,"is_reserved":false,"is_disabled":false,"rental_uris":{"android":"levelo://app?vid=130c991a-ffc6-488b-8714-914463ac9641","ios":"levelo://app?vid=130c991a-ffc6-488b-8714-914463ac9641"},"vehicle_type_id":"4","last_reported":1722794987,"current_range_meters":2800,"station_id":"ce4bh2h2rcd13ifvqdh0","pricing_plan_id":"cebpf4jnsgd1na2vs0mg"},{"bike_id":"4a627968-acd4-43b1-909f-381e5457122c","system_id":"levelo_inurba_marseille","lat":43.289468,"lon":5.363719,"is_reserved":false,"is_disabled":false,"rental_uris":{"android":"levelo://app?vid=4a627968-acd4-43b1-909f-381e5457122c","ios":"levelo://app?vid=4a627968-acd4-43b1-909f-381e5457122c"},"vehicle_type_id":"4","last_reported":1722794987,"current_range_meters":15200,"station_id":"ce4bhc92rcd13ifvqetg","pricing_plan_id":"cebpf4jnsgd1na2vs0mg"},{"bike_id":"325ce6f4-2c02-461f-9cc6-6bbbbee19cb9","system_id":"levelo_inurba_marseille","lat":43.289184,"lon":5.366408,"is_reserved":false,"is_disabled":false,"rental_uris":{"android":"levelo://app?vid=325ce6f4-2c02-461f-9cc6-6bbbbee19cb9","ios":"levelo://app?vid=325ce6f4-2c02-461f-9cc6-6bbbbee19cb9"},"vehicle_type_id":"4","last_reported":1722794987,"current_range_meters":9200,"station_id":"ce4bhap2rcd13ifvqek0","pricing_plan_id":"cebpf4jnsgd1na2vs0mg"},{"bike_id":"89362f9a-d38f-4433-99c4-b1bdf3e137ec","system_id":"levelo_inurba_marseille","lat":43.2942,"lon":5.38625,"is_reserved":false,"is_disabled":false,"rental_uris":{"android":"levelo://app?vid=89362f9a-d38f-4433-99c4-b1bdf3e137ec","ios":"levelo://app?vid=89362f9a-d38f-4433-99c4-b1bdf3e137ec"},"vehicle_type_id":"4","last_reported":1722794987,"current_range_meters":0,"station_id":"ce4bh2h2rcd13ifvqdh0","pricing_plan_id":"cebpf4jnsgd1na2vs0mg"},{"bike_id":"9249bd2f-7783-470d-85a0-77a2420b5b01","system_id":"levelo_inurba_marseille","lat":43.29419,"lon":5.38624,"is_reserved":false,"is_disabled":false,"rental_uris":{"android":"levelo://app?vid=9249bd2f-7783-470d-85a0-77a2420b5b01","ios":"levelo://app?vid=9249bd2f-7783-470d-85a0-77a2420b5b01"},"vehicle_type_id":"4","last_reported":1722794987,"current_range_meters":400,"station_id":"ce4bh2h2rcd13ifvqdh0","pricing_plan_id":"cebpf4jnsgd1na2vs0mg"},{"bike_id":"dc5a57fa-48ba-415c-b686-f4c7ff806f16","system_id":"levelo_inurba_marseille","lat":43.294162,"lon":5.386292,"is_reserved":false,"is_disabled":false,"rental_uris":{"android":"levelo://app?vid=dc5a57fa-48ba-415c-b686-f4c7ff806f16","ios":"levelo://app?vid=dc5a57fa-48ba-415c-b686-f4c7ff806f16"},"vehicle_type_id":"4","last_reported":1722794987,"current_range_meters":8800,"station_id":"ce4bh2h2rcd13ifvqdh0","pricing_plan_id":"cebpf4jnsgd1na2vs0mg"},{"bike_id":"86a70fe1-8e30-44f3-bd12-8d2711a7f7ea","system_id":"levelo_inurba_marseille","lat":43.289184,"lon":5.366408,"is_reserved":false,"is_disabled":false,"rental_uris":{"android":"levelo://app?vid=86a70fe1-8e30-44f3-bd12-8d2711a7f7ea","ios":"levelo://app?vid=86a70fe1-8e30-44f3-bd12-8d2711a7f7ea"},"vehicle_type_id":"4","last_reported":1722794987,"current_range_meters":30400,"station_id":"ce4bhap2rcd13ifvqek0","pricing_plan_id":"cebpf4jnsgd1na2vs0mg"},{"bike_id":"28a9e5b8-91e8-4837-a632-0b9e84097cbc","system_id":"levelo_inurba_marseille","lat":43.29417,"lon":5.38624,"is_reserved":false,"is_disabled":false,"rental_uris":{"android":"levelo://app?vid=28a9e5b8-91e8-4837-a632-0b9e84097cbc","ios":"levelo://app?vid=28a9e5b8-91e8-4837-a632-0b9e84097cbc"},"vehicle_type_id":"4","last_reported":1722794987,"current_range_meters":0,"station_id":"ce4bh2h2rcd13ifvqdh0","pricing_plan_id":"cebpf4jnsgd1na2vs0mg"},{"bike_id":"fbaba6ee-209c-4eeb-8f44-6fff5d18c21d","system_id":"levelo_inurba_marseille","lat":43.289184,"lon":5.366408,"is_reserved":false,"is_disabled":false,"rental_uris":{"android":"levelo://app?vid=fbaba6ee-209c-4eeb-8f44-6fff5d18c21d","ios":"levelo://app?vid=fbaba6ee-209c-4eeb-8f44-6fff5d18c21d"},"vehicle_type_id":"4","last_reported":1722794987,"current_range_meters":4800,"station_id":"ce4bhap2rcd13ifvqek0","pricing_plan_id":"cebpf4jnsgd1na2vs0mg"},{"bike_id":"9742adec-d14f-4c38-ae25-7ed9b82ff266","system_id":"levelo_inurba_marseille","lat":43.289184,"lon":5.366408,"is_reserved":false,"is_disabled":false,"rental_uris":{"android":"levelo://app?vid=9742adec-d14f-4c38-ae25-7ed9b82ff266","ios":"levelo://app?vid=9742adec-d14f-4c38-ae25-7ed9b82ff266"},"vehicle_type_id":"4","last_reported":1722794987,"current_range_meters":31200,"station_id":"ce4bhap2rcd13ifvqek0","pricing_plan_id":"cebpf4jnsgd1na2vs0mg"},{"bike_id":"dc2ae366-8dc0-46c6-853a-976821c74906","system_id":"levelo_inurba_marseille","lat":43.289184,"lon":5.366408,"is_reserved":false,"is_disabled":false,"rental_uris":{"android":"levelo://app?vid=dc2ae366-8dc0-46c6-853a-976821c74906","ios":"levelo://app?vid=dc2ae366-8dc0-46c6-853a-976821c74906"},"vehicle_type_id":"4","last_reported":1722794987,"current_range_meters":26400,"station_id":"ce4bhap2rcd13ifvqek0","pricing_plan_id":"cebpf4jnsgd1na2vs0mg"},{"bike_id":"4388b83d-4581-460e-b26b-5dfbf0271382","system_id":"levelo_inurba_marseille","lat":43.294153,"lon":5.386305,"is_reserved":false,"is_disabled":false,"rental_uris":{"android":"levelo://app?vid=4388b83d-4581-460e-b26b-5dfbf0271382","ios":"levelo://app?vid=4388b83d-4581-460e-b26b-5dfbf0271382"},"vehicle_type_id":"4","last_reported":1722794987,"current_range_meters":0,"station_id":"ce4bh2h2rcd13ifvqdh0","pricing_plan_id":"cebpf4jnsgd1na2vs0mg"},{"bike_id":"ad470164-cf51-4f42-9236-b8309ca7e12b","system_id":"levelo_inurba_marseille","lat":43.289184,"lon":5.366408,"is_reserved":false,"is_disabled":false,"rental_uris":{"android":"levelo://app?vid=ad470164-cf51-4f42-9236-b8309ca7e12b","ios":"levelo://app?vid=ad470164-cf51-4f42-9236-b8309ca7e12b"},"vehicle_type_id":"4","last_reported":1722794987,"current_range_meters":30000,"station_id":"ce4bhap2rcd13ifvqek0","pricing_plan_id":"cebpf4jnsgd1na2vs0mg"},{"bike_id":"99003a8e-9ca1-4ba4-86cd-91244cf8a284","system_id":"levelo_inurba_marseille","lat":43.28937,"lon":5.36637,"is_reserved":false,"is_disabled":false,"rental_uris":{"android":"levelo://app?vid=99003a8e-9ca1-4ba4-86cd-91244cf8a284","ios":"levelo://app?vid=99003a8e-9ca1-4ba4-86cd-91244cf8a284"},"vehicle_type_id":"4","last_reported":1722794987,"current_range_meters":0,"station_id":"ce4bhap2rcd13ifvqek0","pricing_plan_id":"cebpf4jnsgd1na2vs0mg"},{"bike_id":"fb760dad-8542-4b6d-9514-3cd605be447e","system_id":"levelo_inurba_marseille","lat":43.290327,"lon":5.375711,"is_reserved":false,"is_disabled":false,"rental_uris":{"android":"levelo://app?vid=fb760dad-8542-4b6d-9514-3cd605be447e","ios":"levelo://app?vid=fb760dad-8542-4b6d-9514-3cd605be447e"},"vehicle_type_id":"4","last_reported":1722794987,"current_range_meters":22400,"station_id":"ce4bh692rcd13ifvqe90","pricing_plan_id":"cebpf4jnsgd1na2vs0mg"},{"bike_id":"141710d5-a6ce-4ab0-a514-4f796b326d20","system_id":"levelo_inurba_marseille","lat":43.290103,"lon":5.356114,"is_reserved":false,"is_disabled":false,"rental_uris":{"android":"levelo://app?vid=141710d5-a6ce-4ab0-a514-4f796b326d20","ios":"levelo://app?vid=141710d5-a6ce-4ab0-a514-4f796b326d20"},"vehicle_type_id":"4","last_reported":1722794987,"current_range_meters":8800,"station_id":"ce4bhb92rcd13ifvqen0","pricing_plan_id":"cebpf4jnsgd1na2vs0mg"},{"bike_id":"59fe6af5-e00a-4b9a-87fd-ba2ff7fadef8","system_id":"levelo_inurba_marseille","lat":43.292642,"lon":5.384254,"is_reserved":false,"is_disabled":false,"rental_uris":{"android":"levelo://app?vid=59fe6af5-e00a-4b9a-87fd-ba2ff7fadef8","ios":"levelo://app?vid=59fe6af5-e00a-4b9a-87fd-ba2ff7fadef8"},"vehicle_type_id":"4","last_reported":1722794987,"current_range_meters":0,"station_id":"ce4bh692rcd13ifvqea0","pricing_plan_id":"cebpf4jnsgd1na2vs0mg"},{"bike_id":"0548ee49-9f4c-4ffe-9f15-464903f55020","system_id":"levelo_inurba_marseille","lat":43.3043,"lon":5.39743,"is_reserved":false,"is_disabled":false,"rental_uris":{"android":"levelo://app?vid=0548ee49-9f4c-4ffe-9f15-464903f55020","ios":"levelo://app?vid=0548ee49-9f4c-4ffe-9f15-464903f55020"},"vehicle_type_id":"4","last_reported":1722794987,"current_range_meters":28800,"station_id":"ce4bh092rcd13ifvqd20","pricing_plan_id":"cebpf4jnsgd1na2vs0mg"},{"bike_id":"29e2f160-49a3-47f4-973c-9c3191e4d703","system_id":"levelo_inurba_marseille","lat":43.292644,"lon":5.384257,"is_reserved":false,"is_disabled":false,"rental_uris":{"android":"levelo://app?vid=29e2f160-49a3-47f4-973c-9c3191e4d703","ios":"levelo://app?vid=29e2f160-49a3-47f4-973c-9c3191e4d703"},"vehicle_type_id":"4","last_reported":1722794987,"current_range_meters":17200,"station_id":"ce4bh692rcd13ifvqea0","pricing_plan_id":"cebpf4jnsgd1na2vs0mg"},{"bike_id":"91b07375-76e5-47fe-93c8-94bb8f191208","system_id":"levelo_inurba_marseille","lat":43.30429,"lon":5.39744,"is_reserved":false,"is_disabled":false,"rental_uris":{"android":"levelo://app?vid=91b07375-76e5-47fe-93c8-94bb8f191208","ios":"levelo://app?vid=91b07375-76e5-47fe-93c8-94bb8f191208"},"vehicle_type_id":"4","last_reported":1722794987,"current_range_meters":21200,"station_id":"ce4bh092rcd13ifvqd20","pricing_plan_id":"cebpf4jnsgd1na2vs0mg"},{"bike_id":"0470d295-068e-40d9-b99d-32c93f5f58b5","system_id":"levelo_inurba_marseille","lat":43.304296,"lon":5.397513,"is_reserved":false,"is_disabled":false,"rental_uris":{"android":"levelo://app?vid=0470d295-068e-40d9-b99d-32c93f5f58b5","ios":"levelo://app?vid=0470d295-068e-40d9-b99d-32c93f5f58b5"},"vehicle_type_id":"4","last_reported":1722794987,"current_range_meters":26800,"station_id":"ce4bh092rcd13ifvqd20","pricing_plan_id":"cebpf4jnsgd1na2vs0mg"},{"bike_id":"a9309da8-5e9c-4275-9846-f3a54d4cdb72","system_id":"levelo_inurba_marseille","lat":43.30424,"lon":5.39745,"is_reserved":false,"is_disabled":false,"rental_uris":{"android":"levelo://app?vid=a9309da8-5e9c-4275-9846-f3a54d4cdb72","ios":"levelo://app?vid=a9309da8-5e9c-4275-9846-f3a54d4cdb72"},"vehicle_type_id":"4","last_reported":1722794987,"current_range_meters":2800,"station_id":"ce4bh092rcd13ifvqd20","pricing_plan_id":"cebpf4jnsgd1na2vs0mg"},{"bike_id":"68d3dcce-6d14-417e-bfbb-0c72ce83a289","system_id":"levelo_inurba_marseille","lat":43.29269,"lon":5.38451,"is_reserved":false,"is_disabled":false,"rental_uris":{"android":"levelo://app?vid=68d3dcce-6d14-417e-bfbb-0c72ce83a289","ios":"levelo://app?vid=68d3dcce-6d14-417e-bfbb-0c72ce83a289"},"vehicle_type_id":"4","last_reported":1722794987,"current_range_meters":29600,"station_id":"ce4bh692rcd13ifvqea0","pricing_plan_id":"cebpf4jnsgd1na2vs0mg"},{"bike_id":"4ededb71-0ec0-413e-b55e-8a1a9660dc4f","system_id":"levelo_inurba_marseille","lat":43.30427,"lon":5.39749,"is_reserved":false,"is_disabled":false,"rental_uris":{"android":"levelo://app?vid=4ededb71-0ec0-413e-b55e-8a1a9660dc4f","ios":"levelo://app?vid=4ededb71-0ec0-413e-b55e-8a1a9660dc4f"},"vehicle_type_id":"4","last_reported":1722794987,"current_range_meters":9600,"station_id":"ce4bh092rcd13ifvqd20","pricing_plan_id":"cebpf4jnsgd1na2vs0mg"},{"bike_id":"3a971e31-c1ec-4570-bb0b-27460e7d8b13","system_id":"levelo_inurba_marseille","lat":43.2926,"lon":5.38439,"is_reserved":false,"is_disabled":false,"rental_uris":{"android":"levelo://app?vid=3a971e31-c1ec-4570-bb0b-27460e7d8b13","ios":"levelo://app?vid=3a971e31-c1ec-4570-bb0b-27460e7d8b13"},"vehicle_type_id":"4","last_reported":1722794987,"current_range_meters":31200,"station_id":"","pricing_plan_id":"cebpf4jnsgd1na2vs0mg"},{"bike_id":"1b2dd04d-9ce1-4f0d-aeab-9bb9146c0aa0","system_id":"levelo_inurba_marseille","lat":43.290104,"lon":5.356111,"is_reserved":false,"is_disabled":false,"rental_uris":{"android":"levelo://app?vid=1b2dd04d-9ce1-4f0d-aeab-9bb9146c0aa0","ios":"levelo://app?vid=1b2dd04d-9ce1-4f0d-aeab-9bb9146c0aa0"},"vehicle_type_id":"4","last_reported":1722794987,"current_range_meters":0,"station_id":"ce4bhb92rcd13ifvqen0","pricing_plan_id":"cebpf4jnsgd1na2vs0mg"},{"bike_id":"d6037eb0-441c-44ad-a982-364471de9a0d","system_id":"levelo_inurba_marseille","lat":43.290995,"lon":5.381361,"is_reserved":false,"is_disabled":false,"rental_uris":{"android":"levelo://app?vid=d6037eb0-441c-44ad-a982-364471de9a0d","ios":"levelo://app?vid=d6037eb0-441c-44ad-a982-364471de9a0d"},"vehicle_type_id":"4","last_reported":1722794987,"current_range_meters":0,"station_id":"ce4bh512rcd13ifvqe2g","pricing_plan_id":"cebpf4jnsgd1na2vs0mg"},{"bike_id":"8c660f73-32b0-4cec-ae02-8adec5d231b6","system_id":"levelo_inurba_marseille","lat":43.295169,"lon":5.390426,"is_reserved":false,"is_disabled":false,"rental_uris":{"android":"levelo://app?vid=8c660f73-32b0-4cec-ae02-8adec5d231b6","ios":"levelo://app?vid=8c660f73-32b0-4cec-ae02-8adec5d231b6"},"vehicle_type_id":"4","last_reported":1722794987,"current_range_meters":0,"station_id":"ce4bh3p2rcd13ifvqdp0","pricing_plan_id":"cebpf4jnsgd1na2vs0mg"},{"bike_id":"22edee80-d9a0-41f9-bc04-359aab8af07e","system_id":"levelo_inurba_marseille","lat":43.330442,"lon":5.389148,"is_reserved":false,"is_disabled":false,"rental_uris":{"android":"levelo://app?vid=22edee80-d9a0-41f9-bc04-359aab8af07e","ios":"levelo://app?vid=22edee80-d9a0-41f9-bc04-359aab8af07e"},"vehicle_type_id":"4","last_reported":1722794987,"current_range_meters":6400,"station_id":"ce4bhr92rcd13ifvqhrg","pricing_plan_id":"cebpf4jnsgd1na2vs0mg"},{"bike_id":"0a06209a-1aac-4796-b2ee-4c2b20f5932e","system_id":"levelo_inurba_marseille","lat":43.295169,"lon":5.390426,"is_reserved":false,"is_disabled":false,"rental_uris":{"android":"levelo://app?vid=0a06209a-1aac-4796-b2ee-4c2b20f5932e","ios":"levelo://app?vid=0a06209a-1aac-4796-b2ee-4c2b20f5932e"},"vehicle_type_id":"4","last_reported":1722794987,"current_range_meters":0,"station_id":"ce4bh3p2rcd13ifvqdp0","pricing_plan_id":"cebpf4jnsgd1na2vs0mg"},{"bike_id":"54ef5dea-1d2c-4d32-9f32-e92618229be2","system_id":"levelo_inurba_marseille","lat":43.330442,"lon":5.389148,"is_reserved":false,"is_disabled":false,"rental_uris":{"android":"levelo://app?vid=54ef5dea-1d2c-4d32-9f32-e92618229be2","ios":"levelo://app?vid=54ef5dea-1d2c-4d32-9f32-e92618229be2"},"vehicle_type_id":"4","last_reported":1722794987,"current_range_meters":23200,"station_id":"ce4bhr92rcd13ifvqhrg","pricing_plan_id":"cebpf4jnsgd1na2vs0mg"},{"bike_id":"a7ae1f06-2265-4ec4-ba1a-5c128dc6dfb5","system_id":"levelo_inurba_marseille","lat":43.289741,"lon":5.378306,"is_reserved":false,"is_disabled":false,"rental_uris":{"android":"levelo://app?vid=a7ae1f06-2265-4ec4-ba1a-5c128dc6dfb5","ios":"levelo://app?vid=a7ae1f06-2265-4ec4-ba1a-5c128dc6dfb5"},"vehicle_type_id":"4","last_reported":1722794987,"current_range_meters":11200,"station_id":"ce4bh9p2rcd13ifvqed0","pricing_plan_id":"cebpf4jnsgd1na2vs0mg"},{"bike_id":"8701a7a3-90aa-405d-a88f-714add82bc0c","system_id":"levelo_inurba_marseille","lat":43.33027,"lon":5.39039,"is_reserved":false,"is_disabled":false,"rental_uris":{"android":"levelo://app?vid=8701a7a3-90aa-405d-a88f-714add82bc0c","ios":"levelo://app?vid=8701a7a3-90aa-405d-a88f-714add82bc0c"},"vehicle_type_id":"4","last_reported":1722794987,"current_range_meters":4400,"station_id":"ce4bhr92rcd13ifvqhrg","pricing_plan_id":"cebpf4jnsgd1na2vs0mg"},{"bike_id":"5354c2c3-78b1-4b29-acf1-85848b84b1dd","system_id":"levelo_inurba_marseille","lat":43.330301,"lon":5.390361,"is_reserved":false,"is_disabled":false,"rental_uris":{"android":"levelo://app?vid=5354c2c3-78b1-4b29-acf1-85848b84b1dd","ios":"levelo://app?vid=5354c2c3-78b1-4b29-acf1-85848b84b1dd"},"vehicle_type_id":"4","last_reported":1722794987,"current_range_meters":12400,"station_id":"ce4bhr92rcd13ifvqhrg","pricing_plan_id":"cebpf4jnsgd1na2vs0mg"},{"bike_id":"39d75fb0-b9bc-46b3-9a97-1efe3a73adc5","system_id":"levelo_inurba_marseille","lat":43.295169,"lon":5.390426,"is_reserved":false,"is_disabled":false,"rental_uris":{"android":"levelo://app?vid=39d75fb0-b9bc-46b3-9a97-1efe3a73adc5","ios":"levelo://app?vid=39d75fb0-b9bc-46b3-9a97-1efe3a73adc5"},"vehicle_type_id":"4","last_reported":1722794987,"current_range_meters":0,"station_id":"ce4bh3p2rcd13ifvqdp0","pricing_plan_id":"cebpf4jnsgd1na2vs0mg"},{"bike_id":"3bba032e-5cc7-47b7-b83f-78bffa117cab","system_id":"levelo_inurba_marseille","lat":43.330442,"lon":5.389148,"is_reserved":false,"is_disabled":false,"rental_uris":{"android":"levelo://app?vid=3bba032e-5cc7-47b7-b83f-78bffa117cab","ios":"levelo://app?vid=3bba032e-5cc7-47b7-b83f-78bffa117cab"},"vehicle_type_id":"4","last_reported":1722794987,"current_range_meters":15600,"station_id":"ce4bhr92rcd13ifvqhrg","pricing_plan_id":"cebpf4jnsgd1na2vs0mg"},{"bike_id":"4cc6fece-7fe0-481f-a40a-942852f3197c","system_id":"levelo_inurba_marseille","lat":43.290233,"lon":5.38135,"is_reserved":false,"is_disabled":false,"rental_uris":{"android":"levelo://app?vid=4cc6fece-7fe0-481f-a40a-942852f3197c","ios":"levelo://app?vid=4cc6fece-7fe0-481f-a40a-942852f3197c"},"vehicle_type_id":"4","last_reported":1722794987,"current_range_meters":0,"station_id":"ce4bh4p2rcd13ifvqe1g","pricing_plan_id":"cebpf4jnsgd1na2vs0mg"},