{"last_updated":1784833067,"ttl":60,"version":"2.2","data":{"bikes":[{"bike_id":"7ef36254-6bb3-448c-8d77-979d957d54b6","system_id":"levelo_inurba_marseille","lat":43.337444,"lon":5.374475,"is_reserved":false,"is_disabled":false,"rental_uris":{"android":"levelo://app?vid=7ef36254-6bb3-448c-8d77-979d957d54b6","ios":"levelo://app?vid=7ef36254-6bb3-448c-8d77-979d957d54b6"},"vehicle_type_id":"4","last_reported":1784833068,"current_range_meters":0,"station_id":"","pricing_plan_id":"cebpf4jnsgd1na2vs0mg"},{"bike_id":"21fe2e98-0432-4b40-a81f-10dd00b0f57d","system_id":"levelo_inurba_marseille","lat":43.337444,"lon":5.374475,"is_reserved":false,"is_disabled":false,"rental_uris":{"android":"levelo://app?vid=21fe2e98-0432-4b40-a81f-10dd00b0f57d","ios":"levelo://app?vid=21fe2e98-0432-4b40-a81f-10dd00b0f57d"},"vehicle_type_id":"4","last_reported":1784833068,"current_range_meters":0,"station_id":"","pricing_plan_id":"cebpf4jnsgd1na2vs0mg"},{"bike_id":"df7929a5-2b0c-4c4a-9607-4bd34960b2e8","system_id":"levelo_inurba_marseille","lat":43.21186,"lon":5.35079,"is_reserved":false,"is_disabled":false,"rental_uris":{"android":"levelo://app?vid=df7929a5-2b0c-4c4a-9607-4bd34960b2e8","ios":"levelo://app?vid=df7929a5-2b0c-4c4a-9607-4bd34960b2e8"},"vehicle_type_id":"4","last_reported":1784833068,"current_range_meters":8400,"station_id":"st_cvj6sg6p6f1abm77japg","pricing_plan_id":"cebpf4jnsgd1na2vs0mg"},{"bike_id":"067105c7-ac18-469d-9642-32d6a7846f6a","system_id":"levelo_inurba_marseille","lat":43.29445,"lon":5.38254,"is_reserved":false,"is_disabled":false,"rental_uris":{"android":"levelo://app?vid=067105c7-ac18-469d-9642-32d6a7846f6a","ios":"levelo://app?vid=067105c7-ac18-469d-9642-32d6a7846f6a"},"vehicle_type_id":"4","last_reported":1784833068,"current_range_meters":18800,"station_id":"","pricing_plan_id":"cebpf4jnsgd1na2vs0mg"},{"bike_id":"44d4d466-8955-40f1-be80-a41db56ac493","system_id":"levelo_inurba_marseille","lat":43.2903,"lon":5.35604,"is_reserved":false,"is_disabled":false,"rental_uris":{"android":"levelo://app?vid=44d4d466-8955-40f1-be80-a41db56ac493","ios":"levelo://app?vid=44d4d466-8955-40f1-be80-a41db56ac493"},"vehicle_type_id":"4","last_reported":1784833068,"current_range_meters":38800,"station_id":"ce4bhb92rcd13ifvqen0","pricing_plan_id":"cebpf4jnsgd1na2vs0mg"},{"bike_id":"f2c26268-2002-48c9-a2f8-8f76ed8a8540","system_id":"levelo_inurba_marseille","lat":43.23889,"lon":5.37456,"is_reserved":false,"is_disabled":false,"rental_uris":{"android":"levelo://app?vid=f2c26268-2002-48c9-a2f8-8f76ed8a8540","ios":"levelo://app?vid=f2c26268-2002-48c9-a2f8-8f76ed8a8540"},"vehicle_type_id":"4","last_reported":1784833068,"current_range_meters":36800,"station_id":"st_d6sm7csbq4hs73f8fpjg","pricing_plan_id":"cebpf4jnsgd1na2vs0mg"},{"bike_id":"d344c6d2-1393-41fe-9aea-d7f2c7ccebc4","system_id":"levelo_inurba_marseille","lat":43.2926,"lon":5.37614,"is_reserved":false,"is_disabled":false,"rental_uris":{"android":"levelo://app?vid=d344c6d2-1393-41fe-9aea-d7f2c7ccebc4","ios":"levelo://app?vid=d344c6d2-1393-41fe-9aea-d7f2c7ccebc4"},"vehicle_type_id":"4","last_reported":1784833068,"current_range_meters":19600,"station_id":"ce4bgi12rcd13ifvqb80","pricing_plan_id":"cebpf4jnsgd1na2vs0mg"},{"bike_id":"72706276-fb69-4388-946e-2b4fb06a5929","system_id":"levelo_inurba_marseille","lat":43.33029,"lon":5.39026,"is_reserved":false,"is_disabled":false,"rental_uris":{"android":"levelo://app?vid=72706276-fb69-4388-946e-2b4fb06a5929","ios":"levelo://app?vid=72706276-fb69-4388-946e-2b4fb06a5929"},"vehicle_type_id":"4","last_reported":1784833068,"current_range_meters":38000,"station_id":"ce4bhr92rcd13ifvqhrg","pricing_plan_id":"cebpf4jnsgd1na2vs0mg"},{"bike_id":"3275e5ca-225b-44f6-b554-2e84ebf36240","system_id":"levelo_inurba_marseille","lat":43.32343,"lon":5.36733,"is_reserved":false,"is_disabled":false,"rental_uris":{"android":"levelo://app?vid=3275e5ca-225b-44f6-b554-2e84ebf36240","ios":"levelo://app?vid=3275e5ca-225b-44f6-b554-2e84ebf36240"},"vehicle_type_id":"4","last_reported":1784833068,"current_range_meters":39200,"station_id":"ce4bhsh2rcd13ifvqi2g","pricing_plan_id":"cebpf4jnsgd1na2vs0mg"},{"bike_id":"a120995a-4832-4e65-bdc7-4718acdcacdd","system_id":"levelo_inurba_marseille","lat":43.2439,"lon":5.3706,"is_reserved":false,"is_disabled":false,"rental_uris":{"android":"levelo://app?vid=a120995a-4832-4e65-bdc7-4718acdcacdd","ios":"levelo://app?vid=a120995a-4832-4e65-bdc7-4718acdcacdd"},"vehicle_type_id":"4","last_reported":1784833068,"current_range_meters":30400,"station_id":"ce4bhhh2rcd13ifvqfk0","pricing_plan_id":"cebpf4jnsgd1na2vs0mg"},{"bike_id":"5481bfb3-689c-4f8c-a2eb-9e41cba78a91","system_id":"levelo_inurba_marseille","lat":43.27074,"lon":5.42271,"is_reserved":false,"is_disabled":false,"rental_uris":{"android":"levelo://app?vid=5481bfb3-689c-4f8c-a2eb-9e41cba78a91","ios":"levelo://app?vid=5481bfb3-689c-4f8c-a2eb-9e41cba78a91"},"vehicle_type_id":"4","last_reported":1784833068,"current_range_meters":39200,"station_id":"ce4bhk92rcd13ifvqgb0","pricing_plan_id":"cebpf4jnsgd1na2vs0mg"},{"bike_id":"a1550354-2d97-44b7-8224-d712a77cbb75","system_id":"levelo_inurba_marseille","lat":43.21736,"lon":5.34609,"is_reserved":false,"is_disabled":false,"rental_uris":{"android":"levelo://app?vid=a1550354-2d97-44b7-8224-d712a77cbb75","ios":"levelo://app?vid=a1550354-2d97-44b7-8224-d712a77cbb75"},"vehicle_type_id":"4","last_reported":1784833068,"current_range_meters":28400,"station_id":"st_cvj6r9ubvosntc0bgbag","pricing_plan_id":"cebpf4jnsgd1na2vs0mg"},{"bike_id":"3cc97a53-d102-483f-90b5-fca36af42d3a","system_id":"levelo_inurba_marseille","lat":43.24937,"lon":5.4052,"is_reserved":false,"is_disabled":false,"rental_uris":{"android":"levelo://app?vid=3cc97a53-d102-483f-90b5-fca36af42d3a","ios":"levelo://app?vid=3cc97a53-d102-483f-90b5-fca36af42d3a"},"vehicle_type_id":"4","last_reported":1784833068,"current_range_meters":9600,"station_id":"st_d2ngiaodas8pm72gd1h0","pricing_plan_id":"cebpf4jnsgd1na2vs0mg"},{"bike_id":"e40092d8-e809-444f-887b-ec2d97cdda0b","system_id":"levelo_inurba_marseille","lat":43.30305,"lon":5.39196,"is_reserved":false,"is_disabled":true,"rental_uris":{"android":"levelo://app?vid=e40092d8-e809-444f-887b-ec2d97cdda0b","ios":"levelo://app?vid=e40092d8-e809-444f-887b-ec2d97cdda0b"},"vehicle_type_id":"4","last_reported":1784833068,"current_range_meters":34800,"station_id":"ce4bgkh2rcd13ifvqbk0","pricing_plan_id":"cebpf4jnsgd1na2vs0mg"},{"bike_id":"3d684411-f123-4d18-be0b-98e2ac8255f2","system_id":"levelo_inurba_marseille","lat":43.25515,"lon":5.37655,"is_reserved":false,"is_disabled":false,"rental_uris":{"android":"levelo://app?vid=3d684411-f123-4d18-be0b-98e2ac8255f2","ios":"levelo://app?vid=3d684411-f123-4d18-be0b-98e2ac8255f2"},"vehicle_type_id":"4","last_reported":1784833068,"current_range_meters":19600,"station_id":"ce4bhh12rcd13ifvqff0","pricing_plan_id":"cebpf4jnsgd1na2vs0mg"},{"bike_id":"05e646b6-e34b-4dd5-b5a7-ed65c9a53956","system_id":"levelo_inurba_marseille","lat":43.24806,"lon":5.37482,"is_reserved":false,"is_disabled":true,"rental_uris":{"android":"levelo://app?vid=05e646b6-e34b-4dd5-b5a7-ed65c9a53956","ios":"levelo://app?vid=05e646b6-e34b-4dd5-b5a7-ed65c9a53956"},"vehicle_type_id":"4","last_reported":1784833068,"current_range_meters":0,"station_id":"ce4bhgh2rcd13ifvqfb0","pricing_plan_id":"cebpf4jnsgd1na2vs0mg"},{"bike_id":"9ecb67e1-74d8-4d48-80e7-50a6946dbb88","system_id":"levelo_inurba_marseille","lat":43.29003,"lon":5.35618,"is_reserved":false,"is_disabled":false,"rental_uris":{"android":"levelo://app?vid=9ecb67e1-74d8-4d48-80e7-50a6946dbb88","ios":"levelo://app?vid=9ecb67e1-74d8-4d48-80e7-50a6946dbb88"},"vehicle_type_id":"4","last_reported":1784833068,"current_range_meters":7200,"station_id":"ce4bhb92rcd13ifvqen0","pricing_plan_id":"cebpf4jnsgd1na2vs0mg"},{"bike_id":"242213bb-864e-4d09-97c6-4a2d8732de8f","system_id":"levelo_inurba_marseille","lat":43.24171,"lon":5.36395,"is_reserved":false,"is_disabled":false,"rental_uris":{"android":"levelo://app?vid=242213bb-864e-4d09-97c6-4a2d8732de8f","ios":"levelo://app?vid=242213bb-864e-4d09-97c6-4a2d8732de8f"},"vehicle_type_id":"4","last_reported":1784833068,"current_range_meters":24800,"station_id":"cpo36qri1sfpv3e86is0","pricing_plan_id":"cebpf4jnsgd1na2vs0mg"},{"bike_id":"0f90e2fc-cf6e-48d2-9206-b3c26c21c82c","system_id":"levelo_inurba_marseille","lat":43.28271,"lon":5.35083,"is_reserved":false,"is_disabled":false,"rental_uris":{"android":"levelo://app?vid=0f90e2fc-cf6e-48d2-9206-b3c26c21c82c","ios":"levelo://app?vid=0f90e2fc-cf6e-48d2-9206-b3c26c21c82c"},"vehicle_type_id":"4","last_reported":1784833068,"current_range_meters":8800,"station_id":"ce4bhbp2rcd13ifvqerg","pricing_plan_id":"cebpf4jnsgd1na2vs0mg"},{"bike_id":"8490c93a-5ba1-4a75-b217-f12a5668ce0b","system_id":"levelo_inurba_marseille","lat":43.27386,"lon":5.36266,"is_reserved":false,"is_disabled":false,"rental_uris":{"android":"levelo://app?vid=8490c93a-5ba1-4a75-b217-f12a5668ce0b","ios":"levelo://app?vid=8490c93a-5ba1-4a75-b217-f12a5668ce0b"},"vehicle_type_id":"4","last_reported":1784833068,"current_range_meters":37600,"station_id":"ce4bhbh2rcd13ifvqeo0","pricing_plan_id":"cebpf4jnsgd1na2vs0mg"},{"bike_id":"31c109ee-b90b-4fe4-aa21-ae558feddd3f","system_id":"levelo_inurba_marseille","lat":43.2862,"lon":5.35105,"is_reserved":false,"is_disabled":false,"rental_uris":{"android":"levelo://app?vid=31c109ee-b90b-4fe4-aa21-ae558feddd3f","ios":"levelo://app?vid=31c109ee-b90b-4fe4-aa21-ae558feddd3f"},"vehicle_type_id":"4","last_reported":1784833068,"current_range_meters":8400,"station_id":"ce4bhch2rcd13ifvqeug","pricing_plan_id":"cebpf4jnsgd1na2vs0mg"},{"bike_id":"79ff67d0-1bec-46b5-954f-0999ee787212","system_id":"levelo_inurba_marseille","lat":43.2918,"lon":5.37135,"is_reserved":false,"is_disabled":false,"rental_uris":{"android":"levelo://app?vid=79ff67d0-1bec-46b5-954f-0999ee787212","ios":"levelo://app?vid=79ff67d0-1bec-46b5-954f-0999ee787212"},"vehicle_type_id":"4","last_reported":1784833068,"current_range_meters":3600,"station_id":"ce4bha92rcd13ifvqeh0","pricing_plan_id":"cebpf4jnsgd1na2vs0mg"},{"bike_id":"ca289802-bdee-4361-9fe8-3a2a864d96dd","system_id":"levelo_inurba_marseille","lat":43.28266,"lon":5.35063,"is_reserved":false,"is_disabled":false,"rental_uris":{"android":"levelo://app?vid=ca289802-bdee-4361-9fe8-3a2a864d96dd","ios":"levelo://app?vid=ca289802-bdee-4361-9fe8-3a2a864d96dd"},"vehicle_type_id":"4","last_reported":1784833068,"current_range_meters":27200,"station_id":"ce4bhbp2rcd13ifvqerg","pricing_plan_id":"cebpf4jnsgd1na2vs0mg"},{"bike_id":"d153f615-dfbf-4090-8981-fa1562c55649","system_id":"levelo_inurba_marseille","lat":43.28472,"lon":5.35926,"is_reserved":false,"is_disabled":true,"rental_uris":{"android":"levelo://app?vid=d153f615-dfbf-4090-8981-fa1562c55649","ios":"levelo://app?vid=d153f615-dfbf-4090-8981-fa1562c55649"},"vehicle_type_id":"4","last_reported":1784833068,"current_range_meters":0,"station_id":"","pricing_plan_id":"cebpf4jnsgd1na2vs0mg"},{"bike_id":"b13c0dd0-0e99-4b19-9888-9374c59a6ec5","system_id":"levelo_inurba_marseille","lat":43.29046,"lon":5.38112,"is_reserved":false,"is_disabled":false,"rental_uris":{"android":"levelo://app?vid=b13c0dd0-0e99-4b19-9888-9374c59a6ec5","ios":"levelo://app?vid=b13c0dd0-0e99-4b19-9888-9374c59a6ec5"},"vehicle_type_id":"4","last_reported":1784833068,"current_range_meters":38800,"station_id":"ce4bh4p2rcd13ifvqe1g","pricing_plan_id":"cebpf4jnsgd1na2vs0mg"},{"bike_id":"7764970a-34ed-47ec-8822-620f6c0f8a78","system_id":"levelo_inurba_marseille","lat":43.24949,"lon":5.38966,"is_reserved":false,"is_disabled":true,"rental_uris":{"android":"levelo://app?vid=7764970a-34ed-47ec-8822-620f6c0f8a78","ios":"levelo://app?vid=7764970a-34ed-47ec-8822-620f6c0f8a78"},"vehicle_type_id":"4","last_reported":1784833068,"current_range_meters":0,"station_id":"","pricing_plan_id":"cebpf4jnsgd1na2vs0mg"},{"bike_id":"2154fcce-4dae-44fd-8c16-6859e119f377","system_id":"levelo_inurba_marseille","lat":43.23962,"lon":5.36621,"is_reserved":false,"is_disabled":false,"rental_uris":{"android":"levelo://app?vid=2154fcce-4dae-44fd-8c16-6859e119f377","ios":"levelo://app?vid=2154fcce-4dae-44fd-8c16-6859e119f377"},"vehicle_type_id":"4","last_reported":1784833068,"current_range_meters":19200,"station_id":"ce4bhi12rcd13ifvqfp0","pricing_plan_id":"cebpf4jnsgd1na2vs0mg"},{"bike_id":"982e8ff9-408e-48ad-878f-cf7c4929a71f","system_id":"levelo_inurba_marseille","lat":43.2919,"lon":5.35802,"is_reserved":false,"is_disabled":false,"rental_uris":{"android":"levelo://app?vid=982e8ff9-408e-48ad-878f-cf7c4929a71f","ios":"levelo://app?vid=982e8ff9-408e-48ad-878f-cf7c4929a71f"},"vehicle_type_id":"4","last_reported":1784833068,"current_range_meters":32400,"station_id":"ce4bhb12rcd13ifvqel0","pricing_plan_id":"cebpf4jnsgd1na2vs0mg"},{"bike_id":"a338cea5-f797-4d31-b718-3121663ee29c","system_id":"levelo_inurba_marseille","lat":43.30393,"lon":5.37931,"is_reserved":false,"is_disabled":false,"rental_uris":{"android":"levelo://app?vid=a338cea5-f797-4d31-b718-3121663ee29c","ios":"levelo://app?vid=a338cea5-f797-4d31-b718-3121663ee29c"},"vehicle_type_id":"4","last_reported":1784833068,"current_range_meters":28800,"station_id":"","pricing_plan_id":"cebpf4jnsgd1na2vs0mg"},{"bike_id":"f63a141d-c51e-4437-b0b8-9f62bce983a1","system_id":"levelo_inurba_marseille","lat":43.25818,"lon":5.39423,"is_reserved":false,"is_disabled":false,"rental_uris":{"android":"levelo://app?vid=f63a141d-c51e-4437-b0b8-9f62bce983a1","ios":"levelo://app?vid=f63a141d-c51e-4437-b0b8-9f62bce983a1"},"vehicle_type_id":"4","last_reported":1784833068,"current_range_meters":39200,"station_id":"ce4bhip2rcd13ifvqft0","pricing_plan_id":"cebpf4jnsgd1na2vs0mg"},{"bike_id":"b2063a9f-4a93-48fa-bc9e-6656ac899629","system_id":"levelo_inurba_marseille","lat":43.28266,"lon":5.3508,"is_reserved":false,"is_disabled":false,"rental_uris":{"android":"levelo://app?vid=b2063a9f-4a93-48fa-bc9e-6656ac899629","ios":"levelo://app?vid=b2063a9f-4a93-48fa-bc9e-6656ac899629"},"vehicle_type_id":"4","last_reported":1784833068,"current_range_meters":38400,"station_id":"ce4bhbp2rcd13ifvqerg","pricing_plan_id":"cebpf4jnsgd1na2vs0mg"},{"bike_id":"a7c9489a-3c37-4218-bc38-92c335aa3a8a","system_id":"levelo_inurba_marseille","lat":43.28482,"lon":5.48384,"is_reserved":false,"is_disabled":false,"rental_uris":{"android":"levelo://app?vid=a7c9489a-3c37-4218-bc38-92c335aa3a8a","ios":"levelo://app?vid=a7c9489a-3c37-4218-bc38-92c335aa3a8a"},"vehicle_type_id":"4","last_reported":1784833068,"current_range_meters":38800,"station_id":"st_d3svhcjqgbts73a3dn0g","pricing_plan_id":"cebpf4jnsgd1na2vs0mg"},{"bike_id":"5399c993-aa6e-499a-a8eb-af283fb97f85","system_id":"levelo_inurba_marseille","lat":43.26196,"lon":5.37462,"is_reserved":false,"is_disabled":false,"rental_uris":{"android":"levelo://app?vid=5399c993-aa6e-499a-a8eb-af283fb97f85","ios":"levelo://app?vid=5399c993-aa6e-499a-a8eb-af283fb97f85"},"vehicle_type_id":"4","last_reported":1784833068,"current_range_meters":33200,"station_id":"ce4bhgp2rcd13ifvqfc0","pricing_plan_id":"cebpf4jnsgd1na2vs0mg"},{"bike_id":"68a1110a-8aa4-46ed-a7b1-8626bd403edb","system_id":"levelo_inurba_marseille","lat":43.23213,"lon":5.35555,"is_reserved":false,"is_disabled":false,"rental_uris":{"android":"levelo://app?vid=68a1110a-8aa4-46ed-a7b1-8626bd403edb","ios":"levelo://app?vid=68a1110a-8aa4-46ed-a7b1-8626bd403edb"},"vehicle_type_id":"4","last_reported":1784833068,"current_range_meters":17600,"station_id":"ce4bhu92rcd13ifvqi70","pricing_plan_id":"cebpf4jnsgd1na2vs0mg"},{"bike_id":"02bc1f6e-a93d-4c6f-8463-6b5ba3d4d3d8","system_id":"levelo_inurba_marseille","lat":43.25507,"lon":5.37658,"is_reserved":false,"is_disabled":false,"rental_uris":{"android":"levelo://app?vid=02bc1f6e-a93d-4c6f-8463-6b5ba3d4d3d8","ios":"levelo://app?vid=02bc1f6e-a93d-4c6f-8463-6b5ba3d4d3d8"},"vehicle_type_id":"4","last_reported":1784833068,"current_range_meters":38800,"station_id":"ce4bhh12rcd13ifvqff0","pricing_plan_id":"cebpf4jnsgd1na2vs0mg"},{"bike_id":"660f1735-2409-420a-9b2a-ea8d74068e43","system_id":"levelo_inurba_marseille","lat":43.29533,"lon":5.38547,"is_reserved":false,"is_disabled":false,"rental_uris":{"android":"levelo://app?vid=660f1735-2409-420a-9b2a-ea8d74068e43","ios":"levelo://app?vid=660f1735-2409-420a-9b2a-ea8d74068e43"},"vehicle_type_id":"4","last_reported":1784833068,"current_range_meters":36000,"station_id":"ce4bgih2rcd13ifvqba0","pricing_plan_id":"cebpf4jnsgd1na2vs0mg"},{"bike_id":"17fd6cdd-dd3f-4452-b2d7-c955043b6432","system_id":"levelo_inurba_marseille","lat":43.28981,"lon":5.3562,"is_reserved":false,"is_disabled":false,"rental_uris":{"android":"levelo://app?vid=17fd6cdd-dd3f-4452-b2d7-c955043b6432","ios":"levelo://app?vid=17fd6cdd-dd3f-4452-b2d7-c955043b6432"},"vehicle_type_id":"4","last_reported":1784833068,"current_range_meters":17200,"station_id":"ce4bhgp2rcd13ifvqfc0","pricing_plan_id":"cebpf4jnsgd1na2vs0mg"},{"bike_id":"5aa3ca14-34f8-4cf6-bf98-84664ad40ed9","system_id":"levelo_inurba_marseille","lat":43.32361,"lon":5.38856,"is_reserved":false,"is_disabled":false,"rental_uris":{"android":"levelo://app?vid=5aa3ca14-34f8-4cf6-bf98-84664ad40ed9","ios":"levelo://app?vid=5aa3ca14-34f8-4cf6-bf98-84664ad40ed9"},"vehicle_type_id":"4","last_reported":1784833068,"current_range_meters":32400,"station_id":"ce4bhqp2rcd13ifvqhog","pricing_plan_id":"cebpf4jnsgd1na2vs0mg"},{"bike_id":"ad5546db-be31-4539-b959-cba3ca226aa3","system_id":"levelo_inurba_marseille","lat":43.24805,"lon":5.37458,"is_reserved":false,"is_disabled":false,"rental_uris":{"android":"levelo://app?vid=ad5546db-be31-4539-b959-cba3ca226aa3","ios":"levelo://app?vid=ad5546db-be31-4539-b959-cba3ca226aa3"},"vehicle_type_id":"4","last_reported":1784833068,"current_range_meters":17600,"station_id":"ce4bhgh2rcd13ifvqfb0","pricing_plan_id":"cebpf4jnsgd1na2vs0mg"},{"bike_id":"8b48f329-937d-4f33-bc8e-cc3992c67190","system_id":"levelo_inurba_marseille","lat":43.29634,"lon":5.3715,"is_reserved":false,"is_disabled":true,"rental_uris":{"android":"levelo://app?vid=8b48f329-937d-4f33-bc8e-cc3992c67190","ios":"levelo://app?vid=8b48f329-937d-4f33-bc8e-cc3992c67190"},"vehicle_type_id":"4","last_reported":1784833068,"current_range_meters":31200,"station_id":"","pricing_plan_id":"cebpf4jnsgd1na2vs0mg"},{"bike_id":"cac35c8f-23ba-4eb6-8934-f7ecf317f31e","system_id":"levelo_inurba_marseille","lat":43.289372,"lon":5.396328,"is_reserved":false,"is_disabled":false,"rental_uris":{"android":"levelo://app?vid=cac35c8f-23ba-4eb6-8934-f7ecf317f31e","ios":"levelo://app?vid=cac35c8f-23ba-4eb6-8934-f7ecf317f31e"},"vehicle_type_id":"4","last_reported":1784833068,"current_range_meters":7200,"station_id":"ce4bh3h2rcd13ifvqdn0","pricing_plan_id":"cebpf4jnsgd1na2vs0mg"},{"bike_id":"2704b360-a380-4f00-a6d2-00839d63ce08","system_id":"levelo_inurba_marseille","lat":43.33606,"lon":5.41039,"is_reserved":false,"is_disabled":false,"rental_uris":{"android":"levelo://app?vid=2704b360-a380-4f00-a6d2-00839d63ce08","ios":"levelo://app?vid=2704b360-a380-4f00-a6d2-00839d63ce08"},"vehicle_type_id":"4","last_reported":1784833068,"current_range_meters":27600,"station_id":"ce4bhqh2rcd13ifvqhmg","pricing_plan_id":"cebpf4jnsgd1na2vs0mg"},{"bike_id":"b62c6f43-d381-4900-8a07-23d79aaa3392","system_id":"levelo_inurba_marseille","lat":43.29561,"lon":5.42299,"is_reserved":false,"is_disabled":false,"rental_uris":{"android":"levelo://app?vid=b62c6f43-d381-4900-8a07-23d79aaa3392","ios":"levelo://app?vid=b62c6f43-d381-4900-8a07-23d79aaa3392"},"vehicle_type_id":"4","last_reported":1784833068,"current_range_meters":10800,"station_id":"ce4bhph2rcd13ifvqhdg","pricing_plan_id":"cebpf4jnsgd1na2vs0mg"},{"bike_id":"7dcc10e7-a93e-4506-b7c8-31a59a3e7a8a","system_id":"levelo_inurba_marseille","lat":43.24808,"lon":5.37449,"is_reserved":false,"is_disabled":false,"rental_uris":{"android":"levelo://app?vid=7dcc10e7-a93e-4506-b7c8-31a59a3e7a8a","ios":"levelo://app?vid=7dcc10e7-a93e-4506-b7c8-31a59a3e7a8a"},"vehicle_type_id":"4","last_reported":1784833068,"current_range_meters":17600,"station_id":"ce4bhgh2rcd13ifvqfb0","pricing_plan_id":"cebpf4jnsgd1na2vs0mg"},{"bike_id":"0337f70f-422e-4a94-aa4e-b2dbf437f60c","system_id":"levelo_inurba_marseille","lat":43.29606,"lon":5.37715,"is_reserved":false,"is_disabled":false,"rental_uris":{"android":"levelo://app?vid=0337f70f-422e-4a94-aa4e-b2dbf437f60c","ios":"levelo://app?vid=0337f70f-422e-4a94-aa4e-b2dbf437f60c"},"vehicle_type_id":"4","last_reported":1784833068,"current_range_meters":36800,"station_id":"ce4bgi92rcd13ifvqb90","pricing_plan_id":"cebpf4jnsgd1na2vs0mg"},{"bike_id":"86c39a41-dbb7-492c-80ca-66bbe09aaa85","system_id":"levelo_inurba_marseille","lat":43.30104,"lon":5.39087,"is_reserved":false,"is_disabled":true,"rental_uris":{"android":"levelo://app?vid=86c39a41-dbb7-492c-80ca-66bbe09aaa85","ios":"levelo://app?vid=86c39a41-dbb7-492c-80ca-66bbe09aaa85"},"vehicle_type_id":"4","last_reported":1784833068,"current_range_meters":16800,"station_id":"ce4bh192rcd13ifvqdb0","pricing_plan_id":"cebpf4jnsgd1na2vs0mg"},{"bike_id":"3a295aff-6816-4af7-ac5a-87a5bd41c1cd","system_id":"levelo_inurba_marseille","lat":43.28482,"lon":5.48398,"is_reserved":false,"is_disabled":false,"rental_uris":{"android":"levelo://app?vid=3a295aff-6816-4af7-ac5a-87a5bd41c1cd","ios":"levelo://app?vid=3a295aff-6816-4af7-ac5a-87a5bd41c1cd"},"vehicle_type_id":"4","last_reported":1784833068,"current_range_meters":22800,"station_id":"st_d3svhcjqgbts73a3dn0g","pricing_plan_id":"cebpf4jnsgd1na2vs0mg"},{"bike_id":"7b1a34a9-9772-429a-ac81-dbcf3805788e","system_id":"levelo_inurba_marseille","lat":43.27903,"lon":5.35549,"is_reserved":false,"is_disabled":false,"rental_uris":{"android":"levelo://app?vid=7b1a34a9-9772-429a-ac81-dbcf3805788e","ios":"levelo://app?vid=7b1a34a9-9772-429a-ac81-dbcf3805788e"},"vehicle_type_id":"4","last_reported":1784833068,"current_range_meters":12000,"station_id":"","pricing_plan_id":"cebpf4jnsgd1na2vs0mg"},{"bike_id":"c2d7b7a8-42fd-4a56-b59d-18372d4f3915","system_id":"levelo_inurba_marseille","lat":43.26586,"lon":5.37276,"is_reserved":false,"is_disabled":false,"rental_uris":{"android":"levelo://app?vid=c2d7b7a8-42fd-4a56-b59d-18372d4f3915","ios":"levelo://app?vid=c2d7b7a8-42fd-4a56-b59d-18372d4f3915"},"vehicle_type_id":"4","last_reported":1784833068,"current_range_meters":23200,"station_id":"","pricing_plan_id":"cebpf4jnsgd1na2vs0mg"},{"bike_id":"d02b6267-fa8b-4b3c-a02c-69e26539cb80","system_id":"levelo_inurba_marseille","lat":43.28943,"lon":5.36405,"is_reserved":false,"is_disabled":false,"rental_uris":{"android":"levelo://app?vid=d02b6267-fa8b-4b3c-a02c-69e26539cb80","ios":"levelo://app?vid=d02b6267-fa8b-4b3c-a02c-69e26539cb80"},"vehicle_type_id":"4","last_reported":1784833068,"current_range_meters":11200,"station_id":"ce4bhc92rcd13ifvqetg","pricing_plan_id":"cebpf4jnsgd1na2vs0mg"},{"bike_id":"6cd0b9a2-a893-4d86-a077-a039a6b6a0f1","system_id":"levelo_inurba_marseille","lat":43.28412,"lon":5.34989,"is_reserved":false,"is_disabled":true,"rental_uris":{"android":"levelo://app?vid=6cd0b9a2-a893-4d86-a077-a039a6b6a0f1","ios":"levelo://app?vid=6cd0b9a2-a893-4d86-a077-a039a6b6a0f1"},"vehicle_type_id":"4","last_reported":1784833068,"current_range_meters":19600,"station_id":"ce4bhbh2rcd13ifvqepg","pricing_plan_id":"cebpf4jnsgd1na2vs0mg"},{"bike_id":"b3615f38-9ae4-47b3-be0f-27da959fb130","system_id":"levelo_inurba_marseille","lat":43.26565,"lon":5.39646,"is_reserved":false,"is_disabled":false,"rental_uris":{"android":"levelo://app?vid=b3615f38-9ae4-47b3-be0f-27da959fb130","ios":"levelo://app?vid=b3615f38-9ae4-47b3-be0f-27da959fb130"},"vehicle_type_id":"4","last_reported":1784833068,"current_range_meters":10000,"station_id":"","pricing_plan_id":"cebpf4jnsgd1na2vs0mg"},{"bike_id":"9564bab2-648b-40e8-b116-3fb3ce3c30e1","system_id":"levelo_inurba_marseille","lat":43.29625,"lon":5.37158,"is_reserved":false,"is_disabled":false,"rental_uris":{"android":"levelo://app?vid=9564bab2-648b-40e8-b116-3fb3ce3c30e1","ios":"levelo://app?vid=9564bab2-648b-40e8-b116-3fb3ce3c30e1"},"vehicle_type_id":"4","last_reported":1784833068,"current_range_meters":27600,"station_id":"","pricing_plan_id":"cebpf4jnsgd1na2vs0mg"},{"bike_id":"c39c8d2d-18ec-49b0-a193-e85a69cb685d","system_id":"levelo_inurba_marseille","lat":43.29907,"lon":5.37464,"is_reserved":false,"is_disabled":false,"rental_uris":{"android":"levelo://app?vid=c39c8d2d-18ec-49b0-a193-e85a69cb685d","ios":"levelo://app?vid=c39c8d2d-18ec-49b0-a193-e85a69cb685d"},"vehicle_type_id":"4","last_reported":1784833068,"current_range_meters":40000,"station_id":"ce4bgjh2rcd13ifvqbg0","pricing_plan_id":"cebpf4jnsgd1na2vs0mg"},{"bike_id":"f95849e3-ecc4-4a70-8bc6-ebfb18113894","system_id":"levelo_inurba_marseille","lat":43.27947,"lon":5.41068,"is_reserved":false,"is_disabled":false,"rental_uris":{"android":"levelo://app?vid=f95849e3-ecc4-4a70-8bc6-ebfb18113894","ios":"levelo://app?vid=f95849e3-ecc4-4a70-8bc6-ebfb18113894"},"vehicle_type_id":"4","last_reported":1784833068,"current_range_meters":38000,"station_id":"ce4bhnp2rcd13ifvqh0g","pricing_plan_id":"cebpf4jnsgd1na2vs0mg"},{"bike_id":"01d9a676-01f3-4b98-beb9-e0a1a490c722","system_id":"levelo_inurba_marseille","lat":43.28166,"lon":5.42637,"is_reserved":false,"is_disabled":false,"rental_uris":{"android":"levelo://app?vid=01d9a676-01f3-4b98-beb9-e0a1a490c722","ios":"levelo://app?vid=01d9a676-01f3-4b98-beb9-e0a1a490c722"},"vehicle_type_id":"4","last_reported":1784833068,"current_range_meters":24800,"station_id":"ce4bhnh2rcd13ifvqgug","pricing_plan_id":"cebpf4jnsgd1na2vs0mg"},{"bike_id":"f765bc46-853b-4f5f-a0cf-13f9a2c85881","system_id":"levelo_inurba_marseille","lat":43.32116,"lon":5.36759,"is_reserved":false,"is_disabled":false,"rental_uris":{"android":"levelo://app?vid=f765bc46-853b-4f5f-a0cf-13f9a2c85881","ios":"levelo://app?vid=f765bc46-853b-4f5f-a0cf-13f9a2c85881"},"vehicle_type_id":"4","last_reported":1784833068,"current_range_meters":28400,"station_id":"ce4bhrh2rcd13ifvqhug","pricing_plan_id":"cebpf4jnsgd1na2vs0mg"},{"bike_id":"0aaab04e-fbf4-4eb5-b726-87439b3409d4","system_id":"levelo_inurba_marseille","lat":43.31218,"lon":5.36867,"is_reserved":false,"is_disabled":true,"rental_uris":{"android":"levelo://app?vid=0aaab04e-fbf4-4eb5-b726-87439b3409d4","ios":"levelo://app?vid=0aaab04e-fbf4-4eb5-b726-87439b3409d4"},"vehicle_type_id":"4","last_reported":1784833068,"current_range_meters":31200,"station_id":"ce4bgl92rcd13ifvqbq0","pricing_plan_id":"cebpf4jnsgd1na2vs0mg"},{"bike_id":"c469d1f0-e1f3-4009-933d-1f7d58ff00a5","system_id":"levelo_inurba_marseille","lat":43.25874,"lon":5.3989,"is_reserved":false,"is_disabled":false,"rental_uris":{"android":"levelo://app?vid=c469d1f0-e1f3-4009-933d-1f7d58ff00a5","ios":"levelo://app?vid=c469d1f0-e1f3-4009-933d-1f7d58ff00a5"},"vehicle_type_id":"4","last_reported":1784833068,"current_range_meters":23200,"station_id":"ce4bhl92rcd13ifvqghg","pricing_plan_id":"cebpf4jnsgd1na2vs0mg"},{"bike_id":"a13e16e4-e177-431d-8bef-33b38f696e96","system_id":"levelo_inurba_marseille","lat":43.26757,"lon":5.39978,"is_reserved":false,"is_disabled":false,"rental_uris":{"android":"levelo://app?vid=a13e16e4-e177-431d-8bef-33b38f696e96","ios":"levelo://app?vid=a13e16e4-e177-431d-8bef-33b38f696e96"},"vehicle_type_id":"4","last_reported":1784833068,"current_range_meters":27200,"station_id":"","pricing_plan_id":"cebpf4jnsgd1na2vs0mg"},{"bike_id":"95afa2c1-6059-411a-b01e-fbab5e71cd62","system_id":"levelo_inurba_marseille","lat":43.28424,"lon":5.34987,"is_reserved":false,"is_disabled":false,"rental_uris":{"android":"levelo://app?vid=95afa2c1-6059-411a-b01e-fbab5e71cd62","ios":"levelo://app?vid=95afa2c1-6059-411a-b01e-fbab5e71cd62"},"vehicle_type_id":"4","last_reported":1784833068,"current_range_meters":3200,"station_id":"ce4bhbh2rcd13ifvqepg","pricing_plan_id":"cebpf4jnsgd1na2vs0mg"},{"bike_id":"de84f93e-2efe-44dd-902e-99315be80f66","system_id":"levelo_inurba_marseille","lat":43.24707,"lon":5.40316,"is_reserved":false,"is_disabled":false,"rental_uris":{"android":"levelo://app?vid=de84f93e-2efe-44dd-902e-99315be80f66","ios":"levelo://app?vid=de84f93e-2efe-44dd-902e-99315be80f66"},"vehicle_type_id":"4","last_reported":1784833068,"current_range_meters":32400,"station_id":"","pricing_plan_id":"cebpf4jnsgd1na2vs0mg"},{"bike_id":"8c78291a-f0ed-4cfc-b241-d2ce79d8612f","system_id":"levelo_inurba_marseille","lat":43.25497,"lon":5.37657,"is_reserved":false,"is_disabled":false,"rental_uris":{"android":"levelo://app?vid=8c78291a-f0ed-4cfc-b241-d2ce79d8612f","ios":"levelo://app?vid=8c78291a-f0ed-4cfc-b241-d2ce79d8612f"},"vehicle_type_id":"4","last_reported":1784833068,"current_range_meters":31200,"station_id":"ce4bhh12rcd13ifvqff0","pricing_plan_id":"cebpf4jnsgd1na2vs0mg"},{"bike_id":"c6e736fb-e232-45bf-a0ea-16cc4b6b67d6","system_id":"levelo_inurba_marseille","lat":43.24181,"lon":5.36383,"is_reserved":false,"is_disabled":true,"rental_uris":{"android":"levelo://app?vid=c6e736fb-e232-45bf-a0ea-16cc4b6b67d6","ios":"levelo://app?vid=c6e736fb-e232-45bf-a0ea-16cc4b6b67d6"},"vehicle_type_id":"4","last_reported":1784833068,"current_range_meters":38400,"station_id":"cpo36qri1sfpv3e86is0","pricing_plan_id":"cebpf4jnsgd1na2vs0mg"},{"bike_id":"fa9640ee-61f6-4525-9130-40af0af69129","system_id":"levelo_inurba_marseille","lat":43.33006,"lon":5.39047,"is_reserved":false,"is_disabled":false,"rental_uris":{"android":"levelo://app?vid=fa9640ee-61f6-4525-9130-40af0af69129","ios":"levelo://app?vid=fa9640ee-61f6-4525-9130-40af0af69129"},"vehicle_type_id":"4","last_reported":1784833068,"current_range_meters":24800,"station_id":"ce4bhr92rcd13ifvqhrg","pricing_plan_id":"cebpf4jnsgd1na2vs0mg"},{"bike_id":"524af406-001f-484d-b7db-e1b08e15e137","system_id":"levelo_inurba_marseille","lat":43.28423,"lon":5.3498,"is_reserved":false,"is_disabled":false,"rental_uris":{"android":"levelo://app?vid=524af406-001f-484d-b7db-e1b08e15e137","ios":"levelo://app?vid=524af406-001f-484d-b7db-e1b08e15e137"},"vehicle_type_id":"4","last_reported":1784833068,"current_range_meters":12000,"station_id":"ce4bhbh2rcd13ifvqepg","pricing_plan_id":"cebpf4jnsgd1na2vs0mg"},{"bike_id":"c59d0aff-69b3-45af-a81e-861a60187067","system_id":"levelo_inurba_marseille","lat":43.284151,"lon":5.375047,"is_reserved":false,"is_disabled":false,"rental_uris":{"android":"levelo://app?vid=c59d0aff-69b3-45af-a81e-861a60187067","ios":"levelo://app?vid=c59d0aff-69b3-45af-a81e-861a60187067"},"vehicle_type_id":"4","last_reported":1784833068,"current_range_meters":20400,"station_id":"ce4bh412rcd13ifvqds0","pricing_plan_id":"cebpf4jnsgd1na2vs0mg"},{"bike_id":"c037fd15-1fb4-4aa0-a4c6-442b2b874fab","system_id":"levelo_inurba_marseille","lat":43.29038,"lon":5.40035,"is_reserved":false,"is_disabled":true,"rental_uris":{"android":"levelo://app?vid=c037fd15-1fb4-4aa0-a4c6-442b2b874fab","ios":"levelo://app?vid=c037fd15-1fb4-4aa0-a4c6-442b2b874fab"},"vehicle_type_id":"4","last_reported":1784833068,"current_range_meters":25200,"station_id":"","pricing_plan_id":"cebpf4jnsgd1na2vs0mg"},{"bike_id":"965b6bd4-eb48-41e3-b3e8-0bcdc52f3759","system_id":"levelo_inurba_marseille","lat":43.28924,"lon":5.38391,"is_reserved":false,"is_disabled":true,"rental_uris":{"android":"levelo://app?vid=965b6bd4-eb48-41e3-b3e8-0bcdc52f3759","ios":"levelo://app?vid=965b6bd4-eb48-41e3-b3e8-0bcdc52f3759"},"vehicle_type_id":"4","last_reported":1784833068,"current_range_meters":36000,"station_id":"ce4bh612rcd13ifvqe6g","pricing_plan_id":"cebpf4jnsgd1na2vs0mg"},{"bike_id":"bbe718e6-fa16-44e8-87a1-2141703d3341","system_id":"levelo_inurba_marseille","lat":43.28188,"lon":5.4235,"is_reserved":false,"is_disabled":false,"rental_uris":{"android":"levelo://app?vid=bbe718e6-fa16-44e8-87a1-2141703d3341","ios":"levelo://app?vid=bbe718e6-fa16-44e8-87a1-2141703d3341"},"vehicle_type_id":"4","last_reported":1784833068,"current_range_meters":11600,"station_id":"","pricing_plan_id":"cebpf4jnsgd1na2vs0mg"},{"bike_id":"6093caa0-2ff7-447f-be0b-f088f46341ef","system_id":"levelo_inurba_marseille","lat":43.29721,"lon":5.36606,"is_reserved":false,"is_disabled":false,"rental_uris":{"android":"levelo://app?vid=6093caa0-2ff7-447f-be0b-f088f46341ef","ios":"levelo://app?vid=6093caa0-2ff7-447f-be0b-f088f46341ef"},"vehicle_type_id":"4","last_reported":1784833068,"current_range_meters":40000,"station_id":"ce4bgn12rcd13ifvqbt0","pricing_plan_id":"cebpf4jnsgd1na2vs0mg"},{"bike_id":"be281d0c-4747-4107-85f5-ef79ebe32d35","system_id":"levelo_inurba_marseille","lat":43.24801,"lon":5.37476,"is_reserved":false,"is_disabled":true,"rental_uris":{"android":"levelo://app?vid=be281d0c-4747-4107-85f5-ef79ebe32d35","ios":"levelo://app?vid=be281d0c-4747-4107-85f5-ef79ebe32d35"},"vehicle_type_id":"4","last_reported":1784833068,"current_range_meters":1600,"station_id":"ce4bhgh2rcd13ifvqfb0","pricing_plan_id":"cebpf4jnsgd1na2vs0mg"},{"bike_id":"0d742ef8-7ec8-4fca-8f4c-3cef57b81885","system_id":"levelo_inurba_marseille","lat":43.29703,"lon":5.36606,"is_reserved":false,"is_disabled":false,"rental_uris":{"android":"levelo://app?vid=0d742ef8-7ec8-4fca-8f4c-3cef57b81885","ios":"levelo://app?vid=0d742ef8-7ec8-4fca-8f4c-3cef57b81885"},"vehicle_type_id":"4","last_reported":1784833068,"current_range_meters":24800,"station_id":"ce4bgn12rcd13ifvqbt0","pricing_plan_id":"cebpf4jnsgd1na2vs0mg"},{"bike_id":"d64dabc9-3811-48c8-8630-ed10d654c068","system_id":"levelo_inurba_marseille","lat":43.27375,"lon":5.36265,"is_reserved":false,"is_disabled":false,"rental_uris":{"android":"levelo://app?vid=d64dabc9-3811-48c8-8630-ed10d654c068","ios":"levelo://app?vid=d64dabc9-3811-48c8-8630-ed10d654c068"},"vehicle_type_id":"4","last_reported":1784833068,"current_range_meters":28000,"station_id":"ce4bhbh2rcd13ifvqeo0","pricing_plan_id":"cebpf4jnsgd1na2vs0mg"},{"bike_id":"db87b25b-cd08-4ed7-8d40-64cce0e89f6a","system_id":"levelo_inurba_marseille","lat":43.27499,"lon":5.41598,"is_reserved":false,"is_disabled":false,"rental_uris":{"android":"levelo://app?vid=db87b25b-cd08-4ed7-8d40-64cce0e89f6a","ios":"levelo://app?vid=db87b25b-cd08-4ed7-8d40-64cce0e89f6a"},"vehicle_type_id":"4","last_reported":1784833068,"current_range_meters":38800,"station_id":"st_d6im8g6chgec73a5pndg","pricing_plan_id":"cebpf4jnsgd1na2vs0mg"},{"bike_id":"f1288106-a8c3-4624-ad2a-44299213b3e2","system_id":"levelo_inurba_marseille","lat":43.29629,"lon":5.36694,"is_reserved":false,"is_disabled":true,"rental_uris":{"android":"levelo://app?vid=f1288106-a8c3-4624-ad2a-44299213b3e2","ios":"levelo://app?vid=f1288106-a8c3-4624-ad2a-44299213b3e2"},"vehicle_type_id":"4","last_reported":1784833068,"current_range_meters":38400,"station_id":"","pricing_plan_id":"cebpf4jnsgd1na2vs0mg"},{"bike_id":"ab907c16-2123-44c2-912f-95e0f2737c03","system_id":"levelo_inurba_marseille","lat":43.30379,"lon":5.42742,"is_reserved":false,"is_disabled":true,"rental_uris":{"android":"levelo://app?vid=ab907c16-2123-44c2-912f-95e0f2737c03","ios":"levelo://app?vid=ab907c16-2123-44c2-912f-95e0f2737c03"},"vehicle_type_id":"4","last_reported":1784833068,"current_range_meters":19600,"station_id":"","pricing_plan_id":"cebpf4jnsgd1na2vs0mg"},{"bike_id":"0f27047d-3cee-486f-bbfd-4e43b3a3a5db","system_id":"levelo_inurba_marseille","lat":43.32114,"lon":5.36771,"is_reserved":false,"is_disabled":false,"rental_uris":{"android":"levelo://app?vid=0f27047d-3cee-486f-bbfd-4e43b3a3a5db","ios":"levelo://app?vid=0f27047d-3cee-486f-bbfd-4e43b3a3a5db"},"vehicle_type_id":"4","last_reported":1784833068,"current_range_meters":29600,"station_id":"ce4bhrh2rcd13ifvqhug","pricing_plan_id":"cebpf4jnsgd1na2vs0mg"},{"bike_id":"eea7360f-df93-451b-a39b-296a70f49fd5","system_id":"levelo_inurba_marseille","lat":43.28421,"lon":5.34977,"is_reserved":false,"is_disabled":false,"rental_uris":{"android":"levelo://app?vid=eea7360f-df93-451b-a39b-296a70f49fd5","ios":"levelo://app?vid=eea7360f-df93-451b-a39b-296a70f49fd5"},"vehicle_type_id":"4","last_reported":1784833068,"current_range_meters":34800,"station_id":"ce4bhbh2rcd13ifvqepg","pricing_plan_id":"cebpf4jnsgd1na2vs0mg"},{"bike_id":"c520161e-c250-4161-a55a-6b287776d8da","system_id":"levelo_inurba_marseille","lat":43.28478,"lon":5.4839,"is_reserved":false,"is_disabled":false,"rental_uris":{"android":"levelo://app?vid=c520161e-c250-4161-a55a-6b287776d8da","ios":"levelo://app?vid=c520161e-c250-4161-a55a-6b287776d8da"},"vehicle_type_id":"4","last_reported":1784833068,"current_range_meters":24800,"station_id":"st_d3svhcjqgbts73a3dn0g","pricing_plan_id":"cebpf4jnsgd1na2vs0mg"},{"bike_id":"1be16c68-4af1-419d-93d4-773b2af07f2a","system_id":"levelo_inurba_marseille","lat":43.2854,"lon":5.44098,"is_reserved":false,"is_disabled":false,"rental_uris":{"android":"levelo://app?vid=1be16c68-4af1-419d-93d4-773b2af07f2a","ios":"levelo://app?vid=1be16c68-4af1-419d-93d4-773b2af07f2a"},"vehicle_type_id":"4","last_reported":1784833068,"current_range_meters":40000,"station_id":"st_d3j3df2ikq2c7380ej80","pricing_plan_id":"cebpf4jnsgd1na2vs0mg"},{"bike_id":"6e7ec013-c0a7-4a70-811a-3171277d0090","system_id":"levelo_inurba_marseille","lat":43.31316,"lon":5.3969,"is_reserved":false,"is_disabled":true,"rental_uris":{"android":"levelo://app?vid=6e7ec013-c0a7-4a70-811a-3171277d0090","ios":"levelo://app?vid=6e7ec013-c0a7-4a70-811a-3171277d0090"},"vehicle_type_id":"4","last_reported":1784833068,"current_range_meters":800,"station_id":"ce4bgvp2rcd13ifvqcu0","pricing_plan_id":"cebpf4jnsgd1na2vs0mg"},{"bike_id":"4018dfa4-ed33-4bcc-b08d-680b435e3f94","system_id":"levelo_inurba_marseille","lat":43.28946,"lon":5.39624,"is_reserved":false,"is_disabled":false,"rental_uris":{"android":"levelo://app?vid=4018dfa4-ed33-4bcc-b08d-680b435e3f94","ios":"levelo://app?vid=4018dfa4-ed33-4bcc-b08d-680b435e3f94"},"vehicle_type_id":"4","last_reported":1784833068,"current_range_meters":25600,"station_id":"ce4bh3h2rcd13ifvqdn0","pricing_plan_id":"cebpf4jnsgd1na2vs0mg"},{"bike_id":"5f57fcdc-071e-4413-a336-29f569ef1f28","system_id":"levelo_inurba_marseille","lat":43.31479,"lon":5.37313,"is_reserved":false,"is_disabled":false,"rental_uris":{"android":"levelo://app?vid=5f57fcdc-071e-4413-a336-29f569ef1f28","ios":"levelo://app?vid=5f57fcdc-071e-4413-a336-29f569ef1f28"},"vehicle_type_id":"4","last_reported":1784833068,"current_range_meters":38000,"station_id":"ce4bgt12rcd13ifvqcd0","pricing_plan_id":"cebpf4jnsgd1na2vs0mg"},{"bike_id":"c4599c29-f86a-45dc-be51-4124fda90118","system_id":"levelo_inurba_marseille","lat":43.23148,"lon":5.43729,"is_reserved":false,"is_disabled":true,"rental_uris":{"android":"levelo://app?vid=c4599c29-f86a-45dc-be51-4124fda90118","ios":"levelo://app?vid=c4599c29-f86a-45dc-be51-4124fda90118"},"vehicle_type_id":"4","last_reported":1784833068,"current_range_meters":0,"station_id":"ce4bhmp2rcd13ifvqgog","pricing_plan_id":"cebpf4jnsgd1na2vs0mg"},{"bike_id":"c7b843ff-2936-4cc0-ae11-71ab9387a195","system_id":"levelo_inurba_marseille","lat":43.27355,"lon":5.36247,"is_reserved":false,"is_disabled":false,"rental_uris":{"android":"levelo://app?vid=c7b843ff-2936-4cc0-ae11-71ab9387a195","ios":"levelo://app?vid=c7b843ff-2936-4cc0-ae11-71ab9387a195"},"vehicle_type_id":"4","last_reported":1784833068,"current_range_meters":39200,"station_id":"ce4bhbh2rcd13ifvqeo0","pricing_plan_id":"cebpf4jnsgd1na2vs0mg"},{"bike_id":"afe1d1d4-2588-480f-a268-29a2f866acac","system_id":"levelo_inurba_marseille","lat":43.29623,"lon":5.37172,"is_reserved":false,"is_disabled":false,"rental_uris":{"android":"levelo://app?vid=afe1d1d4-2588-480f-a268-29a2f866acac","ios":"levelo://app?vid=afe1d1d4-2588-480f-a268-29a2f866acac"},"vehicle_type_id":"4","last_reported":1784833068,"current_range_meters":33600,"station_id":"ce4bgnh2rcd13ifvqc0g","pricing_plan_id":"cebpf4jnsgd1na2vs0mg"},{"bike_id":"9868531c-e174-4db8-b9d9-13a834ba893d","system_id":"levelo_inurba_marseille","lat":43.231313,"lon":5.437115,"is_reserved":false,"is_disabled":false,"rental_uris":{"android":"levelo://app?vid=9868531c-e174-4db8-b9d9-13a834ba893d","ios":"levelo://app?vid=9868531c-e174-4db8-b9d9-13a834ba893d"},"vehicle_type_id":"4","last_reported":1784833068,"current_range_meters":16800,"station_id":"ce4bhmp2rcd13ifvqgog","pricing_plan_id":"cebpf4jnsgd1na2vs0mg"},{"bike_id":"9087f2a4-16e4-48bf-9e1b-72921c479e7a","system_id":"levelo_inurba_marseille","lat":43.28425,"lon":5.34969,"is_reserved":false,"is_disabled":false,"rental_uris":{"android":"levelo://app?vid=9087f2a4-16e4-48bf-9e1b-72921c479e7a","ios":"levelo://app?vid=9087f2a4-16e4-48bf-9e1b-72921c479e7a"},"vehicle_type_id":"4","last_reported":1784833068,"current_range_meters":9600,"station_id":"ce4bhbh2rcd13ifvqepg","pricing_plan_id":"cebpf4jnsgd1na2vs0mg"},{"bike_id":"1060b8d8-eba1-4431-89df-df8ff4ab0488","system_id":"levelo_inurba_marseille","lat":43.27374,"lon":5.36261,"is_reserved":false,"is_disabled":false,"rental_uris":{"android":"levelo://app?vid=1060b8d8-eba1-4431-89df-df8ff4ab0488","ios":"levelo://app?vid=1060b8d8-eba1-4431-89df-df8ff4ab0488"},"vehicle_type_id":"4","last_reported":1784833068,"current_range_meters":9600,"station_id":"ce4bhbh2rcd13ifvqeo0","pricing_plan_id":"cebpf4jnsgd1na2vs0mg"},{"bike_id":"9ed82dcc-8694-4b66-8dd5-59f67c95e1d7","system_id":"levelo_inurba_marseille","lat":43.27618,"lon":5.36111,"is_reserved":false,"is_disabled":false,"rental_uris":{"android":"levelo://app?vid=9ed82dcc-8694-4b66-8dd5-59f67c95e1d7","ios":"levelo://app?vid=9ed82dcc-8694-4b66-8dd5-59f67c95e1d7"},"vehicle_type_id":"4","last_reported":1784833068,"current_range_meters":31200,"station_id":"ce4bgj92rcd13ifvqbe0","pricing_plan_id":"cebpf4jnsgd1na2vs0mg"},{"bike_id":"c31ea38b-cee9-41a1-93fb-85dd217b0cbd","system_id":"levelo_inurba_marseille","lat":43.33747,"lon":5.36688,"is_reserved":false,"is_disabled":false,"rental_uris":{"android":"levelo://app?vid=c31ea38b-cee9-41a1-93fb-85dd217b0cbd","ios":"levelo://app?vid=c31ea38b-cee9-41a1-93fb-85dd217b0cbd"},"vehicle_type_id":"4","last_reported":1784833068,"current_range_meters":28000,"station_id":"","pricing_plan_id":"cebpf4jnsgd1na2vs0mg"},{"bike_id":"39d05711-7aec-413f-99ef-dda0cdbc80cc","system_id":"levelo_inurba_marseille","lat":43.29841,"lon":5.36272,"is_reserved":false,"is_disabled":false,"rental_uris":{"android":"levelo://app?vid=39d05711-7aec-413f-99ef-dda0cdbc80cc","ios":"levelo://app?vid=39d05711-7aec-413f-99ef-dda0cdbc80cc"},"vehicle_type_id":"4","last_reported":1784833068,"current_range_meters":13600,"station_id":"ce4bgpp2rcd13ifvqc3g","pricing_plan_id":"cebpf4jnsgd1na2vs0mg"},{"bike_id":"0353fca3-fbdd-4286-a9eb-ebce376c25fa","system_id":"levelo_inurba_marseille","lat":43.2338,"lon":5.41258,"is_reserved":false,"is_disabled":false,"rental_uris":{"android":"levelo://app?vid=0353fca3-fbdd-4286-a9eb-ebce376c25fa","ios":"levelo://app?vid=0353fca3-fbdd-4286-a9eb-ebce376c25fa"},"vehicle_type_id":"4","last_reported":1784833068,"current_range_meters":39200,"station_id":"st_d75pvndhf9lc73cqq3eg","pricing_plan_id":"cebpf4jnsgd1na2vs0mg"},{"bike_id":"b8e43a89-3bb1-4279-9cee-f7b093c9b703","system_id":"levelo_inurba_marseille","lat":43.33718,"lon":5.37415,"is_reserved":false,"is_disabled":false,"rental_uris":{"android":"levelo://app?vid=b8e43a89-3bb1-4279-9cee-f7b093c9b703","ios":"levelo://app?vid=b8e43a89-3bb1-4279-9cee-f7b093c9b703"},"vehicle_type_id":"4","last_reported":1784833068,"current_range_meters":9200,"station_id":"","pricing_plan_id":"cebpf4jnsgd1na2vs0mg"},{"bike_id":"d0e3d421-3232-4fe6-8914-f2fab6f9cce9","system_id":"levelo_inurba_marseille","lat":43.31019,"lon":5.38509,"is_reserved":false,"is_disabled":false,"rental_uris":{"android":"levelo://app?vid=d0e3d421-3232-4fe6-8914-f2fab6f9cce9","ios":"levelo://app?vid=d0e3d421-3232-4fe6-8914-f2fab6f9cce9"},"vehicle_type_id":"4","last_reported":1784833068,"current_range_meters":39200,"station_id":"","pricing_plan_id":"cebpf4jnsgd1na2vs0mg"},{"bike_id":"1ed82e2c-e996-467d-bf82-befa0b1262a4","system_id":"levelo_inurba_marseille","lat":43.29294,"lon":5.37455,"is_reserved":false,"is_disabled":false,"rental_uris":{"android":"levelo://app?vid=1ed82e2c-e996-467d-bf82-befa0b1262a4","ios":"levelo://app?vid=1ed82e2c-e996-467d-bf82-befa0b1262a4"},"vehicle_type_id":"4","last_reported":1784833068,"current_range_meters":24000,"station_id":"ce4bgi12rcd13ifvqb70","pricing_plan_id":"cebpf4jnsgd1na2vs0mg"},{"bike_id":"31c275e7-8c99-45a0-b66e-3ad60ce6645a","system_id":"levelo_inurba_marseille","lat":43.26316,"lon":5.37827,"is_reserved":false,"is_disabled":false,"rental_uris":{"android":"levelo://app?vid=31c275e7-8c99-45a0-b66e-3ad60ce6645a","ios":"levelo://app?vid=31c275e7-8c99-45a0-b66e-3ad60ce6645a"},"vehicle_type_id":"4","last_reported":1784833068,"current_range_meters":39200,"station_id":"","pricing_plan_id":"cebpf4jnsgd1na2vs0mg"},{"bike_id":"45d1a51f-5eff-4763-8b7c-1c817383ed0f","system_id":"levelo_inurba_marseille","lat":43.3108,"lon":5.42433,"is_reserved":false,"is_disabled":true,"rental_uris":{"android":"levelo://app?vid=45d1a51f-5eff-4763-8b7c-1c817383ed0f","ios":"levelo://app?vid=45d1a51f-5eff-4763-8b7c-1c817383ed0f"},"vehicle_type_id":"4","last_reported":1784833068,"current_range_meters":16800,"station_id":"ce4bhp92rcd13ifvqhag","pricing_plan_id":"cebpf4jnsgd1na2vs0mg"},{"bike_id":"ccef39f5-44a7-42ca-9605-7e62c9bb0005","system_id":"levelo_inurba_marseille","lat":43.28411,"lon":5.3499,"is_reserved":false,"is_disabled":false,"rental_uris":{"android":"levelo://app?vid=ccef39f5-44a7-42ca-9605-7e62c9bb0005","ios":"levelo://app?vid=ccef39f5-44a7-42ca-9605-7e62c9bb0005"},"vehicle_type_id":"4","last_reported":1784833068,"current_range_meters":24400,"station_id":"ce4bhbh2rcd13ifvqepg","pricing_plan_id":"cebpf4jnsgd1na2vs0mg"},{"bike_id":"6772e332-26aa-4530-86da-d14c0f48009d","system_id":"levelo_inurba_marseille","lat":43.24069,"lon":5.37762,"is_reserved":false,"is_disabled":false,"rental_uris":{"android":"levelo://app?vid=6772e332-26aa-4530-86da-d14c0f48009d","ios":"levelo://app?vid=6772e332-26aa-4530-86da-d14c0f48009d"},"vehicle_type_id":"4","last_reported":1784833068,"current_range_meters":38000,"station_id":"ce4bhnp2rcd13ifvqgvg","pricing_plan_id":"cebpf4jnsgd1na2vs0mg"},{"bike_id":"08ffdab9-18ba-4d73-afd2-106297fffce0","system_id":"levelo_inurba_marseille","lat":43.29843,"lon":5.36266,"is_reserved":false,"is_disabled":false,"rental_uris":{"android":"levelo://app?vid=08ffdab9-18ba-4d73-afd2-106297fffce0","ios":"levelo://app?vid=08ffdab9-18ba-4d73-afd2-106297fffce0"},"vehicle_type_id":"4","last_reported":1784833068,"current_range_meters":18800,"station_id":"ce4bgpp2rcd13ifvqc3g","pricing_plan_id":"cebpf4jnsgd1na2vs0mg"},{"bike_id":"a7298060-3fbb-404b-8ea9-b278e4aa8a04","system_id":"levelo_inurba_marseille","lat":43.28414,"lon":5.3498,"is_reserved":false,"is_disabled":false,"rental_uris":{"android":"levelo://app?vid=a7298060-3fbb-404b-8ea9-b278e4aa8a04","ios":"levelo://app?vid=a7298060-3fbb-404b-8ea9-b278e4aa8a04"},"vehicle_type_id":"4","last_reported":1784833068,"current_range_meters":21600,"station_id":"ce4bhbh2rcd13ifvqepg","pricing_plan_id":"cebpf4jnsgd1na2vs0mg"},{"bike_id":"13bbfe3b-874b-44d7-9abb-922c8de23c11","system_id":"levelo_inurba_marseille","lat":43.23269,"lon":5.35365,"is_reserved":false,"is_disabled":false,"rental_uris":{"android":"levelo://app?vid=13bbfe3b-874b-44d7-9abb-922c8de23c11","ios":"levelo://app?vid=13bbfe3b-874b-44d7-9abb-922c8de23c11"},"vehicle_type_id":"4","last_reported":1784833068,"current_range_meters":17600,"station_id":"","pricing_plan_id":"cebpf4jnsgd1na2vs0mg"},{"bike_id":"d424920a-31dc-4f0b-81e7-1697ca51f46a","system_id":"levelo_inurba_marseille","lat":43.29846,"lon":5.36266,"is_reserved":false,"is_disabled":false,"rental_uris":{"android":"levelo://app?vid=d424920a-31dc-4f0b-81e7-1697ca51f46a","ios":"levelo://app?vid=d424920a-31dc-4f0b-81e7-1697ca51f46a"},"vehicle_type_id":"4","last_reported":1784833068,"current_range_meters":28400,"station_id":"ce4bgpp2rcd13ifvqc3g","pricing_plan_id":"cebpf4jnsgd1na2vs0mg"},{"bike_id":"8e21ee79-d57b-4419-b319-fe3572505524","system_id":"levelo_inurba_marseille","lat":43.284042,"lon":5.37515,"is_reserved":false,"is_disabled":true,"rental_uris":{"android":"levelo://app?vid=8e21ee79-d57b-4419-b319-fe3572505524","ios":"levelo://app?vid=8e21ee79-d57b-4419-b319-fe3572505524"},"vehicle_type_id":"4","last_reported":1784833068,"current_range_meters":0,"station_id":"ce4bh412rcd13ifvqds0","pricing_plan_id":"cebpf4jnsgd1na2vs0mg"},{"bike_id":"3e081460-17ae-4db8-8c97-2823ed58cfe1","system_id":"levelo_inurba_marseille","lat":43.26949,"lon":5.38627,"is_reserved":false,"is_disabled":false,"rental_uris":{"android":"levelo://app?vid=3e081460-17ae-4db8-8c97-2823ed58cfe1","ios":"levelo://app?vid=3e081460-17ae-4db8-8c97-2823ed58cfe1"},"vehicle_type_id":"4","last_reported":1784833068,"current_range_meters":4800,"station_id":"ce4bhh92rcd13ifvqfh0","pricing_plan_id":"cebpf4jnsgd1na2vs0mg"},{"bike_id":"6ed5f8c3-6da8-4cec-bfad-13253a432d70","system_id":"levelo_inurba_marseille","lat":43.29403,"lon":5.38624,"is_reserved":false,"is_disabled":true,"rental_uris":{"android":"levelo://app?vid=6ed5f8c3-6da8-4cec-bfad-13253a432d70","ios":"levelo://app?vid=6ed5f8c3-6da8-4cec-bfad-13253a432d70"},"vehicle_type_id":"4","last_reported":1784833068,"current_range_meters":28400,"station_id":"","pricing_plan_id":"cebpf4jnsgd1na2vs0mg"},{"bike_id":"2abfcdfb-2eb0-4480-932d-1071dc8638d6","system_id":"levelo_inurba_marseille","lat":43.33541,"lon":5.37457,"is_reserved":false,"is_disabled":true,"rental_uris":{"android":"levelo://app?vid=2abfcdfb-2eb0-4480-932d-1071dc8638d6","ios":"levelo://app?vid=2abfcdfb-2eb0-4480-932d-1071dc8638d6"},"vehicle_type_id":"4","last_reported":1784833068,"current_range_meters":400,"station_id":"st_d46tts09ee8s73dlu43g","pricing_plan_id":"cebpf4jnsgd1na2vs0mg"},{"bike_id":"0dee0085-d5a5-4c48-b3f1-a323bb744f3d","system_id":"levelo_inurba_marseille","lat":43.22565,"lon":5.41637,"is_reserved":false,"is_disabled":false,"rental_uris":{"android":"levelo://app?vid=0dee0085-d5a5-4c48-b3f1-a323bb744f3d","ios":"levelo://app?vid=0dee0085-d5a5-4c48-b3f1-a323bb744f3d"},"vehicle_type_id":"4","last_reported":1784833068,"current_range_meters":27600,"station_id":"st_d2o4gvlbi1j2169b742g","pricing_plan_id":"cebpf4jnsgd1na2vs0mg"},{"bike_id":"fabb1732-d9b2-4b60-9434-b4ad52fbfb3e","system_id":"levelo_inurba_marseille","lat":43.27834,"lon":5.3921,"is_reserved":false,"is_disabled":true,"rental_uris":{"android":"levelo://app?vid=fabb1732-d9b2-4b60-9434-b4ad52fbfb3e","ios":"levelo://app?vid=fabb1732-d9b2-4b60-9434-b4ad52fbfb3e"},"vehicle_type_id":"4","last_reported":1784833068,"current_range_meters":400,"station_id":"ce4bhjp2rcd13ifvqga0","pricing_plan_id":"cebpf4jnsgd1na2vs0mg"},{"bike_id":"6bf5179f-bf7d-44f4-93fb-04bf1669e932","system_id":"levelo_inurba_marseille","lat":43.28425,"lon":5.34943,"is_reserved":false,"is_disabled":false,"rental_uris":{"android":"levelo://app?vid=6bf5179f-bf7d-44f4-93fb-04bf1669e932","ios":"levelo://app?vid=6bf5179f-bf7d-44f4-93fb-04bf1669e932"},"vehicle_type_id":"4","last_reported":1784833068,"current_range_meters":6800,"station_id":"ce4bhbh2rcd13ifvqepg","pricing_plan_id":"cebpf4jnsgd1na2vs0mg"},{"bike_id":"0b2c45f2-fdaa-45fe-9511-e6426cab85f6","system_id":"levelo_inurba_marseille","lat":43.27477,"lon":5.42453,"is_reserved":false,"is_disabled":false,"rental_uris":{"android":"levelo://app?vid=0b2c45f2-fdaa-45fe-9511-e6426cab85f6","ios":"levelo://app?vid=0b2c45f2-fdaa-45fe-9511-e6426cab85f6"},"vehicle_type_id":"4","last_reported":1784833068,"current_range_meters":15200,"station_id":"ce4bhn92rcd13ifvqgrg","pricing_plan_id":"cebpf4jnsgd1na2vs0mg"},{"bike_id":"030b0f17-e3f1-4e2c-8db4-ad5520bf3461","system_id":"levelo_inurba_marseille","lat":43.28267,"lon":5.35075,"is_reserved":false,"is_disabled":false,"rental_uris":{"android":"levelo://app?vid=030b0f17-e3f1-4e2c-8db4-ad5520bf3461","ios":"levelo://app?vid=030b0f17-e3f1-4e2c-8db4-ad5520bf3461"},"vehicle_type_id":"4","last_reported":1784833068,"current_range_meters":8000,"station_id":"ce4bhbp2rcd13ifvqerg","pricing_plan_id":"cebpf4jnsgd1na2vs0mg"},{"bike_id":"30c6e6dc-5b58-466d-a422-7befd4c892f6","system_id":"levelo_inurba_marseille","lat":43.28473,"lon":5.38425,"is_reserved":false,"is_disabled":false,"rental_uris":{"android":"levelo://app?vid=30c6e6dc-5b58-466d-a422-7befd4c892f6","ios":"levelo://app?vid=30c6e6dc-5b58-466d-a422-7befd4c892f6"},"vehicle_type_id":"4","last_reported":1784833068,"current_range_meters":27200,"station_id":"ce4bh512rcd13ifvqe3g","pricing_plan_id":"cebpf4jnsgd1na2vs0mg"},{"bike_id":"d5519981-ec73-4b1d-95f3-8a790eb5df05","system_id":"levelo_inurba_marseille","lat":43.24814,"lon":5.37453,"is_reserved":false,"is_disabled":false,"rental_uris":{"android":"levelo://app?vid=d5519981-ec73-4b1d-95f3-8a790eb5df05","ios":"levelo://app?vid=d5519981-ec73-4b1d-95f3-8a790eb5df05"},"vehicle_type_id":"4","last_reported":1784833068,"current_range_meters":38000,"station_id":"ce4bhgh2rcd13ifvqfb0","pricing_plan_id":"cebpf4jnsgd1na2vs0mg"},{"bike_id":"dad5eff3-cb3a-4459-ba39-741abe4a6c6c","system_id":"levelo_inurba_marseille","lat":43.32102,"lon":5.36784,"is_reserved":false,"is_disabled":false,"rental_uris":{"android":"levelo://app?vid=dad5eff3-cb3a-4459-ba39-741abe4a6c6c","ios":"levelo://app?vid=dad5eff3-cb3a-4459-ba39-741abe4a6c6c"},"vehicle_type_id":"4","last_reported":1784833068,"current_range_meters":38400,"station_id":"ce4bhrh2rcd13ifvqhug","pricing_plan_id":"cebpf4jnsgd1na2vs0mg"},{"bike_id":"2589f088-96e1-489b-b926-f3c90ec97e64","system_id":"levelo_inurba_marseille","lat":43.27367,"lon":5.36258,"is_reserved":false,"is_disabled":false,"rental_uris":{"android":"levelo://app?vid=2589f088-96e1-489b-b926-f3c90ec97e64","ios":"levelo://app?vid=2589f088-96e1-489b-b926-f3c90ec97e64"},"vehicle_type_id":"4","last_reported":1784833068,"current_range_meters":38400,"station_id":"ce4bhbh2rcd13ifvqeo0","pricing_plan_id":"cebpf4jnsgd1na2vs0mg"},{"bike_id":"4d9c62d5-e353-44c3-bc09-307f246c30d1","system_id":"levelo_inurba_marseille","lat":43.28414,"lon":5.34988,"is_reserved":false,"is_disabled":false,"rental_uris":{"android":"levelo://app?vid=4d9c62d5-e353-44c3-bc09-307f246c30d1","ios":"levelo://app?vid=4d9c62d5-e353-44c3-bc09-307f246c30d1"},"vehicle_type_id":"4","last_reported":1784833068,"current_range_meters":38000,"station_id":"ce4bhbh2rcd13ifvqepg","pricing_plan_id":"cebpf4jnsgd1na2vs0mg"},{"bike_id":"2acd2ae5-3829-4d5e-b56f-1bb617133f9d","system_id":"levelo_inurba_marseille","lat":43.23198,"lon":5.35541,"is_reserved":false,"is_disabled":false,"rental_uris":{"android":"levelo://app?vid=2acd2ae5-3829-4d5e-b56f-1bb617133f9d","ios":"levelo://app?vid=2acd2ae5-3829-4d5e-b56f-1bb617133f9d"},"vehicle_type_id":"4","last_reported":1784833068,"current_range_meters":28000,"station_id":"ce4bhu92rcd13ifvqi70","pricing_plan_id":"cebpf4jnsgd1na2vs0mg"},{"bike_id":"60287aa5-6d46-4db5-9afb-75f080b10d48","system_id":"levelo_inurba_marseille","lat":43.24946,"lon":5.40495,"is_reserved":false,"is_disabled":false,"rental_uris":{"android":"levelo://app?vid=60287aa5-6d46-4db5-9afb-75f080b10d48","ios":"levelo://app?vid=60287aa5-6d46-4db5-9afb-75f080b10d48"},"vehicle_type_id":"4","last_reported":1784833068,"current_range_meters":11200,"station_id":"st_d2ngiaodas8pm72gd1h0","pricing_plan_id":"cebpf4jnsgd1na2vs0mg"},{"bike_id":"8d8673aa-a69c-4d74-931d-06b8f35221f4","system_id":"levelo_inurba_marseille","lat":43.26709,"lon":5.41994,"is_reserved":false,"is_disabled":false,"rental_uris":{"android":"levelo://app?vid=8d8673aa-a69c-4d74-931d-06b8f35221f4","ios":"levelo://app?vid=8d8673aa-a69c-4d74-931d-06b8f35221f4"},"vehicle_type_id":"4","last_reported":1784833068,"current_range_meters":23200,"station_id":"","pricing_plan_id":"cebpf4jnsgd1na2vs0mg"},{"bike_id":"d6ac3038-47ab-4e58-9b6a-edfa2b34ca5f","system_id":"levelo_inurba_marseille","lat":43.299828,"lon":5.371924,"is_reserved":false,"is_disabled":false,"rental_uris":{"android":"levelo://app?vid=d6ac3038-47ab-4e58-9b6a-edfa2b34ca5f","ios":"levelo://app?vid=d6ac3038-47ab-4e58-9b6a-edfa2b34ca5f"},"vehicle_type_id":"4","last_reported":1784833068,"current_range_meters":30400,"station_id":"ce4bh4p2rcd13ifvqe1g","pricing_plan_id":"cebpf4jnsgd1na2vs0mg"},{"bike_id":"bb6c1d94-b8a1-4d7e-8e26-2628675f7e1d","system_id":"levelo_inurba_marseille","lat":43.29601,"lon":5.37721,"is_reserved":false,"is_disabled":false,"rental_uris":{"android":"levelo://app?vid=bb6c1d94-b8a1-4d7e-8e26-2628675f7e1d","ios":"levelo://app?vid=bb6c1d94-b8a1-4d7e-8e26-2628675f7e1d"},"vehicle_type_id":"4","last_reported":1784833068,"current_range_meters":16400,"station_id":"ce4bgi92rcd13ifvqb90","pricing_plan_id":"cebpf4jnsgd1na2vs0mg"},{"bike_id":"243e61f7-e3ed-4e37-ad9e-88b0c5b59f1d","system_id":"levelo_inurba_marseille","lat":43.28869,"lon":5.35872,"is_reserved":false,"is_disabled":false,"rental_uris":{"android":"levelo://app?vid=243e61f7-e3ed-4e37-ad9e-88b0c5b59f1d","ios":"levelo://app?vid=243e61f7-e3ed-4e37-ad9e-88b0c5b59f1d"},"vehicle_type_id":"4","last_reported":1784833068,"current_range_meters":8400,"station_id":"ce4bhb12rcd13ifvqem0","pricing_plan_id":"cebpf4jnsgd1na2vs0mg"},{"bike_id":"0e9b0cff-0052-49cb-95a6-a28acd2c4d00","system_id":"levelo_inurba_marseille","lat":43.28659,"lon":5.35077,"is_reserved":false,"is_disabled":false,"rental_uris":{"android":"levelo://app?vid=0e9b0cff-0052-49cb-95a6-a28acd2c4d00","ios":"levelo://app?vid=0e9b0cff-0052-49cb-95a6-a28acd2c4d00"},"vehicle_type_id":"4","last_reported":1784833068,"current_range_meters":17200,"station_id":"ce4bhch2rcd13ifvqeug","pricing_plan_id":"cebpf4jnsgd1na2vs0mg"},{"bike_id":"1fade11d-8e73-4748-8586-d9741ca55ced","system_id":"levelo_inurba_marseille","lat":43.317152,"lon":5.437034,"is_reserved":false,"is_disabled":false,"rental_uris":{"android":"levelo://app?vid=1fade11d-8e73-4748-8586-d9741ca55ced","ios":"levelo://app?vid=1fade11d-8e73-4748-8586-d9741ca55ced"},"vehicle_type_id":"4","last_reported":1784833068,"current_range_meters":25600,"station_id":"ce4bhp92rcd13ifvqhcg","pricing_plan_id":"cebpf4jnsgd1na2vs0mg"},{"bike_id":"3e38ae89-791a-4c85-b33c-7ec16243e21a","system_id":"levelo_inurba_marseille","lat":43.26213,"lon":5.37452,"is_reserved":false,"is_disabled":false,"rental_uris":{"android":"levelo://app?vid=3e38ae89-791a-4c85-b33c-7ec16243e21a","ios":"levelo://app?vid=3e38ae89-791a-4c85-b33c-7ec16243e21a"},"vehicle_type_id":"4","last_reported":1784833068,"current_range_meters":26000,"station_id":"ce4bhgp2rcd13ifvqfc0","pricing_plan_id":"cebpf4jnsgd1na2vs0mg"},{"bike_id":"2b5becdf-f8e2-49e5-a55c-775afd13da26","system_id":"levelo_inurba_marseille","lat":43.21187,"lon":5.35087,"is_reserved":false,"is_disabled":false,"rental_uris":{"android":"levelo://app?vid=2b5becdf-f8e2-49e5-a55c-775afd13da26","ios":"levelo://app?vid=2b5becdf-f8e2-49e5-a55c-775afd13da26"},"vehicle_type_id":"4","last_reported":1784833068,"current_range_meters":6400,"station_id":"st_cvj6sg6p6f1abm77japg","pricing_plan_id":"cebpf4jnsgd1na2vs0mg"},{"bike_id":"4c7bd38f-32c2-4efa-a7e9-60232f064785","system_id":"levelo_inurba_marseille","lat":43.28618,"lon":5.351,"is_reserved":false,"is_disabled":false,"rental_uris":{"android":"levelo://app?vid=4c7bd38f-32c2-4efa-a7e9-60232f064785","ios":"levelo://app?vid=4c7bd38f-32c2-4efa-a7e9-60232f064785"},"vehicle_type_id":"4","last_reported":1784833068,"current_range_meters":4400,"station_id":"ce4bhch2rcd13ifvqeug","pricing_plan_id":"cebpf4jnsgd1na2vs0mg"},{"bike_id":"42d2a68a-9980-4ec8-8b72-2ac6bd7b3364","system_id":"levelo_inurba_marseille","lat":43.310377,"lon":5.371258,"is_reserved":false,"is_disabled":false,"rental_uris":{"android":"levelo://app?vid=42d2a68a-9980-4ec8-8b72-2ac6bd7b3364","ios":"levelo://app?vid=42d2a68a-9980-4ec8-8b72-2ac6bd7b3364"},"vehicle_type_id":"4","last_reported":1784833068,"current_range_meters":35600,"station_id":"st_d4kl2rp97mjs73e7tdfg","pricing_plan_id":"cebpf4jnsgd1na2vs0mg"},{"bike_id":"75146afd-6944-4808-9153-760cee29f303","system_id":"levelo_inurba_marseille","lat":43.24667,"lon":5.37866,"is_reserved":false,"is_disabled":false,"rental_uris":{"android":"levelo://app?vid=75146afd-6944-4808-9153-760cee29f303","ios":"levelo://app?vid=75146afd-6944-4808-9153-760cee29f303"},"vehicle_type_id":"4","last_reported":1784833068,"current_range_meters":20000,"station_id":"","pricing_plan_id":"cebpf4jnsgd1na2vs0mg"},{"bike_id":"6ccdb80e-0c8a-4f17-a34c-33ff437bd75c","system_id":"levelo_inurba_marseille","lat":43.28422,"lon":5.34983,"is_reserved":false,"is_disabled":false,"rental_uris":{"android":"levelo://app?vid=6ccdb80e-0c8a-4f17-a34c-33ff437bd75c","ios":"levelo://app?vid=6ccdb80e-0c8a-4f17-a34c-33ff437bd75c"},"vehicle_type_id":"4","last_reported":1784833068,"current_range_meters":36400,"station_id":"ce4bhbh2rcd13ifvqepg","pricing_plan_id":"cebpf4jnsgd1na2vs0mg"},{"bike_id":"0e8fba60-4666-4ec3-9dec-5f26362b5be6","system_id":"levelo_inurba_marseille","lat":43.26329,"lon":5.3782,"is_reserved":false,"is_disabled":false,"rental_uris":{"android":"levelo://app?vid=0e8fba60-4666-4ec3-9dec-5f26362b5be6","ios":"levelo://app?vid=0e8fba60-4666-4ec3-9dec-5f26362b5be6"},"vehicle_type_id":"4","last_reported":1784833068,"current_range_meters":26800,"station_id":"st_d163nis0mtpqnht9uue0","pricing_plan_id":"cebpf4jnsgd1na2vs0mg"},{"bike_id":"def9ede2-1862-444a-8127-a6d9519804dd","system_id":"levelo_inurba_marseille","lat":43.30267,"lon":5.37937,"is_reserved":false,"is_disabled":false,"rental_uris":{"android":"levelo://app?vid=def9ede2-1862-444a-8127-a6d9519804dd","ios":"levelo://app?vid=def9ede2-1862-444a-8127-a6d9519804dd"},"vehicle_type_id":"4","last_reported":1784833068,"current_range_meters":20400,"station_id":"","pricing_plan_id":"cebpf4jnsgd1na2vs0mg"},{"bike_id":"7b752e13-2ff9-4505-96ca-27ebb0549230","system_id":"levelo_inurba_marseille","lat":43.26327,"lon":5.37842,"is_reserved":false,"is_disabled":false,"rental_uris":{"android":"levelo://app?vid=7b752e13-2ff9-4505-96ca-27ebb0549230","ios":"levelo://app?vid=7b752e13-2ff9-4505-96ca-27ebb0549230"},"vehicle_type_id":"4","last_reported":1784833068,"current_range_meters":39200,"station_id":"","pricing_plan_id":"cebpf4jnsgd1na2vs0mg"},{"bike_id":"944b21c4-a98c-414e-9e29-46acc307ae07","system_id":"levelo_inurba_marseille","lat":43.26454,"lon":5.36926,"is_reserved":false,"is_disabled":false,"rental_uris":{"android":"levelo://app?vid=944b21c4-a98c-414e-9e29-46acc307ae07","ios":"levelo://app?vid=944b21c4-a98c-414e-9e29-46acc307ae07"},"vehicle_type_id":"4","last_reported":1784833068,"current_range_meters":5600,"station_id":"","pricing_plan_id":"cebpf4jnsgd1na2vs0mg"},{"bike_id":"51a89345-a2b5-49c4-8e3b-dc3d45e42e6d","system_id":"levelo_inurba_marseille","lat":43.284191,"lon":5.349939,"is_reserved":false,"is_disabled":false,"rental_uris":{"android":"levelo://app?vid=51a89345-a2b5-49c4-8e3b-dc3d45e42e6d","ios":"levelo://app?vid=51a89345-a2b5-49c4-8e3b-dc3d45e42e6d"},"vehicle_type_id":"4","last_reported":1784833068,"current_range_meters":27600,"station_id":"ce4bhbh2rcd13ifvqepg","pricing_plan_id":"cebpf4jnsgd1na2vs0mg"},{"bike_id":"dd38353b-003c-44b5-ba9b-65c3428e9c17","system_id":"levelo_inurba_marseille","lat":43.29269,"lon":5.37606,"is_reserved":false,"is_disabled":false,"rental_uris":{"android":"levelo://app?vid=dd38353b-003c-44b5-ba9b-65c3428e9c17","ios":"levelo://app?vid=dd38353b-003c-44b5-ba9b-65c3428e9c17"},"vehicle_type_id":"4","last_reported":1784833068,"current_range_meters":37600,"station_id":"ce4bgi12rcd13ifvqb80","pricing_plan_id":"cebpf4jnsgd1na2vs0mg"},{"bike_id":"0fb219d7-0eb2-4db7-be60-ac39a2ab39c2","system_id":"levelo_inurba_marseille","lat":43.26658,"lon":5.38293,"is_reserved":false,"is_disabled":false,"rental_uris":{"android":"levelo://app?vid=0fb219d7-0eb2-4db7-be60-ac39a2ab39c2","ios":"levelo://app?vid=0fb219d7-0eb2-4db7-be60-ac39a2ab39c2"},"vehicle_type_id":"4","last_reported":1784833068,"current_range_meters":28000,"station_id":"ce4bhg92rcd13ifvqf90","pricing_plan_id":"cebpf4jnsgd1na2vs0mg"},{"bike_id":"acb6c310-64e8-4ffb-9d0e-3645b38213aa","system_id":"levelo_inurba_marseille","lat":43.22573,"lon":5.41622,"is_reserved":false,"is_disabled":false,"rental_uris":{"android":"levelo://app?vid=acb6c310-64e8-4ffb-9d0e-3645b38213aa","ios":"levelo://app?vid=acb6c310-64e8-4ffb-9d0e-3645b38213aa"},"vehicle_type_id":"4","last_reported":1784833068,"current_range_meters":38000,"station_id":"st_d2o4gvlbi1j2169b742g","pricing_plan_id":"cebpf4jnsgd1na2vs0mg"},{"bike_id":"9c79c837-be1f-43a2-a0e1-b77919f40b72","system_id":"levelo_inurba_marseille","lat":43.2983,"lon":5.36314,"is_reserved":false,"is_disabled":false,"rental_uris":{"android":"levelo://app?vid=9c79c837-be1f-43a2-a0e1-b77919f40b72","ios":"levelo://app?vid=9c79c837-be1f-43a2-a0e1-b77919f40b72"},"vehicle_type_id":"4","last_reported":1784833068,"current_range_meters":8800,"station_id":"ce4bgpp2rcd13ifvqc3g","pricing_plan_id":"cebpf4jnsgd1na2vs0mg"},{"bike_id":"9ee7f49e-e66a-4581-b0ca-bd08a3861bb9","system_id":"levelo_inurba_marseille","lat":43.24823,"lon":5.37464,"is_reserved":false,"is_disabled":false,"rental_uris":{"android":"levelo://app?vid=9ee7f49e-e66a-4581-b0ca-bd08a3861bb9","ios":"levelo://app?vid=9ee7f49e-e66a-4581-b0ca-bd08a3861bb9"},"vehicle_type_id":"4","last_reported":1784833068,"current_range_meters":36400,"station_id":"ce4bhgh2rcd13ifvqfb0","pricing_plan_id":"cebpf4jnsgd1na2vs0mg"},{"bike_id":"2b2d5806-a98a-4b6d-8666-219c96826a65","system_id":"levelo_inurba_marseille","lat":43.33021,"lon":5.39044,"is_reserved":false,"is_disabled":false,"rental_uris":{"android":"levelo://app?vid=2b2d5806-a98a-4b6d-8666-219c96826a65","ios":"levelo://app?vid=2b2d5806-a98a-4b6d-8666-219c96826a65"},"vehicle_type_id":"4","last_reported":1784833068,"current_range_meters":4800,"station_id":"ce4bhr92rcd13ifvqhrg","pricing_plan_id":"cebpf4jnsgd1na2vs0mg"},{"bike_id":"9d4b8430-c687-4ce9-b117-2b375d0afc9f","system_id":"levelo_inurba_marseille","lat":43.23139,"lon":5.43717,"is_reserved":false,"is_disabled":false,"rental_uris":{"android":"levelo://app?vid=9d4b8430-c687-4ce9-b117-2b375d0afc9f","ios":"levelo://app?vid=9d4b8430-c687-4ce9-b117-2b375d0afc9f"},"vehicle_type_id":"4","last_reported":1784833068,"current_range_meters":30400,"station_id":"ce4bhmp2rcd13ifvqgog","pricing_plan_id":"cebpf4jnsgd1na2vs0mg"},{"bike_id":"0a871a81-21ca-4d16-9027-6abdf11c7eb4","system_id":"levelo_inurba_marseille","lat":43.28624,"lon":5.35091,"is_reserved":false,"is_disabled":false,"rental_uris":{"android":"levelo://app?vid=0a871a81-21ca-4d16-9027-6abdf11c7eb4","ios":"levelo://app?vid=0a871a81-21ca-4d16-9027-6abdf11c7eb4"},"vehicle_type_id":"4","last_reported":1784833068,"current_range_meters":39200,"station_id":"ce4bhch2rcd13ifvqeug","pricing_plan_id":"cebpf4jnsgd1na2vs0mg"},{"bike_id":"3f2bdf31-c203-4712-8db4-3dc592b3612b","system_id":"levelo_inurba_marseille","lat":43.256,"lon":5.38215,"is_reserved":false,"is_disabled":false,"rental_uris":{"android":"levelo://app?vid=3f2bdf31-c203-4712-8db4-3dc592b3612b","ios":"levelo://app?vid=3f2bdf31-c203-4712-8db4-3dc592b3612b"},"vehicle_type_id":"4","last_reported":1784833068,"current_range_meters":8000,"station_id":"ce4bhih2rcd13ifvqfs0","pricing_plan_id":"cebpf4jnsgd1na2vs0mg"},{"bike_id":"9f8d286d-01d1-4988-9ee1-3797dc81ad65","system_id":"levelo_inurba_marseille","lat":43.31686,"lon":5.40473,"is_reserved":false,"is_disabled":false,"rental_uris":{"android":"levelo://app?vid=9f8d286d-01d1-4988-9ee1-3797dc81ad65","ios":"levelo://app?vid=9f8d286d-01d1-4988-9ee1-3797dc81ad65"},"vehicle_type_id":"4","last_reported":1784833068,"current_range_meters":8400,"station_id":"ce4bh012rcd13ifvqd00","pricing_plan_id":"cebpf4jnsgd1na2vs0mg"},{"bike_id":"429123e4-dc43-429b-abc2-42a83c22e46e","system_id":"levelo_inurba_marseille","lat":43.23213,"lon":5.3552,"is_reserved":false,"is_disabled":false,"rental_uris":{"android":"levelo://app?vid=429123e4-dc43-429b-abc2-42a83c22e46e","ios":"levelo://app?vid=429123e4-dc43-429b-abc2-42a83c22e46e"},"vehicle_type_id":"4","last_reported":1784833068,"current_range_meters":28000,"station_id":"ce4bhu92rcd13ifvqi70","pricing_plan_id":"cebpf4jnsgd1na2vs0mg"},{"bike_id":"701b8d6e-ee41-422e-9085-c7ca66f13215","system_id":"levelo_inurba_marseille","lat":43.292299,"lon":5.360716,"is_reserved":false,"is_disabled":false,"rental_uris":{"android":"levelo://app?vid=701b8d6e-ee41-422e-9085-c7ca66f13215","ios":"levelo://app?vid=701b8d6e-ee41-422e-9085-c7ca66f13215"},"vehicle_type_id":"4","last_reported":1784833068,"current_range_meters":30400,"station_id":"ce4bhbh2rcd13ifvqeqg","pricing_plan_id":"cebpf4jnsgd1na2vs0mg"},{"bike_id":"a9500356-c19d-415e-81ed-a8d1baa0c959","system_id":"levelo_inurba_marseille","lat":43.30128,"lon":5.38804,"is_reserved":false,"is_disabled":true,"rental_uris":{"android":"levelo://app?vid=a9500356-c19d-415e-81ed-a8d1baa0c959","ios":"levelo://app?vid=a9500356-c19d-415e-81ed-a8d1baa0c959"},"vehicle_type_id":"4","last_reported":1784833068,"current_range_meters":26000,"station_id":"ce4bghh2rcd13ifvqb60","pricing_plan_id":"cebpf4jnsgd1na2vs0mg"},{"bike_id":"780d70f3-95c4-44fa-ba2a-f31e2ebd1bf6","system_id":"levelo_inurba_marseille","lat":43.299685,"lon":5.384814,"is_reserved":false,"is_disabled":true,"rental_uris":{"android":"levelo://app?vid=780d70f3-95c4-44fa-ba2a-f31e2ebd1bf6","ios":"levelo://app?vid=780d70f3-95c4-44fa-ba2a-f31e2ebd1bf6"},"vehicle_type_id":"4","last_reported":1784833068,"current_range_meters":28000,"station_id":"ce4bgj92rcd13ifvqbd0","pricing_plan_id":"cebpf4jnsgd1na2vs0mg"},{"bike_id":"bace381c-6258-4d80-80f1-070c343af026","system_id":"levelo_inurba_marseille","lat":43.33164,"lon":5.37692,"is_reserved":false,"is_disabled":false,"rental_uris":{"android":"levelo://app?vid=bace381c-6258-4d80-80f1-070c343af026","ios":"levelo://app?vid=bace381c-6258-4d80-80f1-070c343af026"},"vehicle_type_id":"4","last_reported":1784833068,"current_range_meters":5600,"station_id":"st_d46cu089ee8s73dldbu0","pricing_plan_id":"cebpf4jnsgd1na2vs0mg"},{"bike_id":"8b9d52f1-e76b-4eab-a093-3749d01830b1","system_id":"levelo_inurba_marseille","lat":43.290063,"lon":5.356134,"is_reserved":false,"is_disabled":false,"rental_uris":{"android":"levelo://app?vid=8b9d52f1-e76b-4eab-a093-3749d01830b1","ios":"levelo://app?vid=8b9d52f1-e76b-4eab-a093-3749d01830b1"},"vehicle_type_id":"4","last_reported":1784833068,"current_range_meters":3600,"station_id":"ce4bhgp2rcd13ifvqfc0","pricing_plan_id":"cebpf4jnsgd1na2vs0mg"},{"bike_id":"31654163-bbcb-4bb9-a3da-c3202a38c001","system_id":"levelo_inurba_marseille","lat":43.287377,"lon":5.361139,"is_reserved":false,"is_disabled":false,"rental_uris":{"android":"levelo://app?vid=31654163-bbcb-4bb9-a3da-c3202a38c001","ios":"levelo://app?vid=31654163-bbcb-4bb9-a3da-c3202a38c001"},"vehicle_type_id":"4","last_reported":1784833068,"current_range_meters":24000,"station_id":"","pricing_plan_id":"cebpf4jnsgd1na2vs0mg"},{"bike_id":"9705d74c-b3ae-4e74-b955-c3f23251890c","system_id":"levelo_inurba_marseille","lat":43.28663,"lon":5.38662,"is_reserved":false,"is_disabled":false,"rental_uris":{"android":"levelo://app?vid=9705d74c-b3ae-4e74-b955-c3f23251890c","ios":"levelo://app?vid=9705d74c-b3ae-4e74-b955-c3f23251890c"},"vehicle_type_id":"4","last_reported":1784833068,"current_range_meters":3600,"station_id":"ce4bh492rcd13ifvqdug","pricing_plan_id":"cebpf4jnsgd1na2vs0mg"},{"bike_id":"e9e543b0-8ca5-47a6-998c-4902ea53cdd4","system_id":"levelo_inurba_marseille","lat":43.2517,"lon":5.3733,"is_reserved":false,"is_disabled":true,"rental_uris":{"android":"levelo://app?vid=e9e543b0-8ca5-47a6-998c-4902ea53cdd4","ios":"levelo://app?vid=e9e543b0-8ca5-47a6-998c-4902ea53cdd4"},"vehicle_type_id":"4","last_reported":1784833068,"current_range_meters":8400,"station_id":"","pricing_plan_id":"cebpf4jnsgd1na2vs0mg"},{"bike_id":"2b7d3586-d06d-4c0f-a3a2-652f9ec8e3ae","system_id":"levelo_inurba_marseille","lat":43.24806,"lon":5.37472,"is_reserved":false,"is_disabled":false,"rental_uris":{"android":"levelo://app?vid=2b7d3586-d06d-4c0f-a3a2-652f9ec8e3ae","ios":"levelo://app?vid=2b7d3586-d06d-4c0f-a3a2-652f9ec8e3ae"},"vehicle_type_id":"4","last_reported":1784833068,"current_range_meters":36400,"station_id":"ce4bhgh2rcd13ifvqfb0","pricing_plan_id":"cebpf4jnsgd1na2vs0mg"},{"bike_id":"fe2fcfcf-3ba9-4b4c-b1c1-9378323cfb57","system_id":"levelo_inurba_marseille","lat":43.263162,"lon":5.378251,"is_reserved":false,"is_disabled":false,"rental_uris":{"android":"levelo://app?vid=fe2fcfcf-3ba9-4b4c-b1c1-9378323cfb57","ios":"levelo://app?vid=fe2fcfcf-3ba9-4b4c-b1c1-9378323cfb57"},"vehicle_type_id":"4","last_reported":1784833068,"current_range_meters":8000,"station_id":"","pricing_plan_id":"cebpf4jnsgd1na2vs0mg"},{"bike_id":"693c14b8-dea8-4bd6-9209-8f095362b343","system_id":"levelo_inurba_marseille","lat":43.25876,"lon":5.40446,"is_reserved":false,"is_disabled":false,"rental_uris":{"android":"levelo://app?vid=693c14b8-dea8-4bd6-9209-8f095362b343","ios":"levelo://app?vid=693c14b8-dea8-4bd6-9209-8f095362b343"},"vehicle_type_id":"4","last_reported":1784833068,"current_range_meters":26000,"station_id":"","pricing_plan_id":"cebpf4jnsgd1na2vs0mg"},{"bike_id":"a0c2f15c-f292-43ef-80a7-c441a26f9b52","system_id":"levelo_inurba_marseille","lat":43.25494,"lon":5.37637,"is_reserved":false,"is_disabled":false,"rental_uris":{"android":"levelo://app?vid=a0c2f15c-f292-43ef-80a7-c441a26f9b52","ios":"levelo://app?vid=a0c2f15c-f292-43ef-80a7-c441a26f9b52"},"vehicle_type_id":"4","last_reported":1784833068,"current_range_meters":22000,"station_id":"ce4bhh12rcd13ifvqff0","pricing_plan_id":"cebpf4jnsgd1na2vs0mg"},{"bike_id":"a6e39fb0-f2e5-41d8-b4aa-b3071fa9ec56","system_id":"levelo_inurba_marseille","lat":43.23183,"lon":5.43764,"is_reserved":false,"is_disabled":false,"rental_uris":{"android":"levelo://app?vid=a6e39fb0-f2e5-41d8-b4aa-b3071fa9ec56","ios":"levelo://app?vid=a6e39fb0-f2e5-41d8-b4aa-b3071fa9ec56"},"vehicle_type_id":"4","last_reported":1784833068,"current_range_meters":22000,"station_id":"","pricing_plan_id":"cebpf4jnsgd1na2vs0mg"},{"bike_id":"ec4a5769-d42e-4c9f-91b7-9d3b9f5a9113","system_id":"levelo_inurba_marseille","lat":43.30276,"lon":5.37716,"is_reserved":false,"is_disabled":false,"rental_uris":{"android":"levelo://app?vid=ec4a5769-d42e-4c9f-91b7-9d3b9f5a9113","ios":"levelo://app?vid=ec4a5769-d42e-4c9f-91b7-9d3b9f5a9113"},"vehicle_type_id":"4","last_reported":1784833068,"current_range_meters":16400,"station_id":"ce4bguh2rcd13ifvqcj0","pricing_plan_id":"cebpf4jnsgd1na2vs0mg"},{"bike_id":"a2c9fd6e-925c-4795-ba3f-b9c641931695","system_id":"levelo_inurba_marseille","lat":43.31412,"lon":5.37385,"is_reserved":false,"is_disabled":true,"rental_uris":{"android":"levelo://app?vid=a2c9fd6e-925c-4795-ba3f-b9c641931695","ios":"levelo://app?vid=a2c9fd6e-925c-4795-ba3f-b9c641931695"},"vehicle_type_id":"4","last_reported":1784833068,"current_range_meters":18800,"station_id":"","pricing_plan_id":"cebpf4jnsgd1na2vs0mg"},{"bike_id":"92876358-3916-42b7-ac6d-4744d2d15272","system_id":"levelo_inurba_marseille","lat":43.29037,"lon":5.35553,"is_reserved":false,"is_disabled":false,"rental_uris":{"android":"levelo://app?vid=92876358-3916-42b7-ac6d-4744d2d15272","ios":"levelo://app?vid=92876358-3916-42b7-ac6d-4744d2d15272"},"vehicle_type_id":"4","last_reported":1784833068,"current_range_meters":29600,"station_id":"","pricing_plan_id":"cebpf4jnsgd1na2vs0mg"},{"bike_id":"d5bacd06-8390-4630-8a26-b07308e80e9a","system_id":"levelo_inurba_marseille","lat":43.29581,"lon":5.37482,"is_reserved":false,"is_disabled":false,"rental_uris":{"android":"levelo://app?vid=d5bacd06-8390-4630-8a26-b07308e80e9a","ios":"levelo://app?vid=d5bacd06-8390-4630-8a26-b07308e80e9a"},"vehicle_type_id":"4","last_reported":1784833068,"current_range_meters":36800,"station_id":"ce4bgh92rcd13ifvqb50","pricing_plan_id":"cebpf4jnsgd1na2vs0mg"},{"bike_id":"7b7c350c-7fa0-4260-b6c2-812c00fe7727","system_id":"levelo_inurba_marseille","lat":43.32092,"lon":5.36767,"is_reserved":false,"is_disabled":false,"rental_uris":{"android":"levelo://app?vid=7b7c350c-7fa0-4260-b6c2-812c00fe7727","ios":"levelo://app?vid=7b7c350c-7fa0-4260-b6c2-812c00fe7727"},"vehicle_type_id":"4","last_reported":1784833068,"current_range_meters":24400,"station_id":"ce4bhrh2rcd13ifvqhug","pricing_plan_id":"cebpf4jnsgd1na2vs0mg"},{"bike_id":"002b6de9-4906-4900-bd53-a26437451aab","system_id":"levelo_inurba_marseille","lat":43.33262,"lon":5.35879,"is_reserved":false,"is_disabled":false,"rental_uris":{"android":"levelo://app?vid=002b6de9-4906-4900-bd53-a26437451aab","ios":"levelo://app?vid=002b6de9-4906-4900-bd53-a26437451aab"},"vehicle_type_id":"4","last_reported":1784833068,"current_range_meters":9600,"station_id":"","pricing_plan_id":"cebpf4jnsgd1na2vs0mg"},{"bike_id":"12b6f1fd-fee1-4941-931a-df9867fb16ad","system_id":"levelo_inurba_marseille","lat":43.23189,"lon":5.35562,"is_reserved":false,"is_disabled":false,"rental_uris":{"android":"levelo://app?vid=12b6f1fd-fee1-4941-931a-df9867fb16ad","ios":"levelo://app?vid=12b6f1fd-fee1-4941-931a-df9867fb16ad"},"vehicle_type_id":"4","last_reported":1784833068,"current_range_meters":39200,"station_id":"ce4bhu92rcd13ifvqi70","pricing_plan_id":"cebpf4jnsgd1na2vs0mg"},{"bike_id":"94f1b0ad-aaa9-4b51-806c-9eae39355e9b","system_id":"levelo_inurba_marseille","lat":43.2737,"lon":5.36243,"is_reserved":false,"is_disabled":false,"rental_uris":{"android":"levelo://app?vid=94f1b0ad-aaa9-4b51-806c-9eae39355e9b","ios":"levelo://app?vid=94f1b0ad-aaa9-4b51-806c-9eae39355e9b"},"vehicle_type_id":"4","last_reported":1784833068,"current_range_meters":39200,"station_id":"ce4bhbh2rcd13ifvqeo0","pricing_plan_id":"cebpf4jnsgd1na2vs0mg"},{"bike_id":"735a1458-0d87-4257-920c-b013c606cc3d","system_id":"levelo_inurba_marseille","lat":43.2707,"lon":5.42276,"is_reserved":false,"is_disabled":false,"rental_uris":{"android":"levelo://app?vid=735a1458-0d87-4257-920c-b013c606cc3d","ios":"levelo://app?vid=735a1458-0d87-4257-920c-b013c606cc3d"},"vehicle_type_id":"4","last_reported":1784833068,"current_range_meters":40000,"station_id":"ce4bhk92rcd13ifvqgb0","pricing_plan_id":"cebpf4jnsgd1na2vs0mg"},{"bike_id":"379aac76-78f2-4625-ada4-74999853a8a0","system_id":"levelo_inurba_marseille","lat":43.28425,"lon":5.34972,"is_reserved":false,"is_disabled":false,"rental_uris":{"android":"levelo://app?vid=379aac76-78f2-4625-ada4-74999853a8a0","ios":"levelo://app?vid=379aac76-78f2-4625-ada4-74999853a8a0"},"vehicle_type_id":"4","last_reported":1784833068,"current_range_meters":35200,"station_id":"ce4bhbh2rcd13ifvqepg","pricing_plan_id":"cebpf4jnsgd1na2vs0mg"},{"bike_id":"0706f79a-b938-4dbf-90f3-9182e12538c7","system_id":"levelo_inurba_marseille","lat":43.25098,"lon":5.39516,"is_reserved":false,"is_disabled":false,"rental_uris":{"android":"levelo://app?vid=0706f79a-b938-4dbf-90f3-9182e12538c7","ios":"levelo://app?vid=0706f79a-b938-4dbf-90f3-9182e12538c7"},"vehicle_type_id":"4","last_reported":1784833068,"current_range_meters":39200,"station_id":"ce4bhm12rcd13ifvqgkg","pricing_plan_id":"cebpf4jnsgd1na2vs0mg"},{"bike_id":"bd8b3369-74a8-4511-bee7-721b894466b2","system_id":"levelo_inurba_marseille","lat":43.23787,"lon":5.36636,"is_reserved":false,"is_disabled":false,"rental_uris":{"android":"levelo://app?vid=bd8b3369-74a8-4511-bee7-721b894466b2","ios":"levelo://app?vid=bd8b3369-74a8-4511-bee7-721b894466b2"},"vehicle_type_id":"4","last_reported":1784833068,"current_range_meters":36000,"station_id":"st_d3nk18o9ro0c73en2l3g","pricing_plan_id":"cebpf4jnsgd1na2vs0mg"},{"bike_id":"54f2d4c4-fb63-4d4d-964d-b300bd6c5406","system_id":"levelo_inurba_marseille","lat":43.29837,"lon":5.36273,"is_reserved":false,"is_disabled":false,"rental_uris":{"android":"levelo://app?vid=54f2d4c4-fb63-4d4d-964d-b300bd6c5406","ios":"levelo://app?vid=54f2d4c4-fb63-4d4d-964d-b300bd6c5406"},"vehicle_type_id":"4","last_reported":1784833068,"current_range_meters":32000,"station_id":"ce4bgpp2rcd13ifvqc3g","pricing_plan_id":"cebpf4jnsgd1na2vs0mg"},{"bike_id":"22e66e8b-f008-4d04-b17c-751d019a7a36","system_id":"levelo_inurba_marseille","lat":43.29807,"lon":5.44083,"is_reserved":false,"is_disabled":false,"rental_uris":{"android":"levelo://app?vid=22e66e8b-f008-4d04-b17c-751d019a7a36","ios":"levelo://app?vid=22e66e8b-f008-4d04-b17c-751d019a7a36"},"vehicle_type_id":"4","last_reported":1784833068,"current_range_meters":36800,"station_id":"st_d3jp68qikq2c7381ktn0","pricing_plan_id":"cebpf4jnsgd1na2vs0mg"},{"bike_id":"1981d3ef-d7ae-460e-a247-e2f1120f8322","system_id":"levelo_inurba_marseille","lat":43.24586,"lon":5.41953,"is_reserved":false,"is_disabled":false,"rental_uris":{"android":"levelo://app?vid=1981d3ef-d7ae-460e-a247-e2f1120f8322","ios":"levelo://app?vid=1981d3ef-d7ae-460e-a247-e2f1120f8322"},"vehicle_type_id":"4","last_reported":1784833068,"current_range_meters":12800,"station_id":"","pricing_plan_id":"cebpf4jnsgd1na2vs0mg"},{"bike_id":"a22b988f-0136-4542-b26b-378c5c21288b","system_id":"levelo_inurba_marseille","lat":43.29898,"lon":5.39756,"is_reserved":false,"is_disabled":false,"rental_uris":{"android":"levelo://app?vid=a22b988f-0136-4542-b26b-378c5c21288b","ios":"levelo://app?vid=a22b988f-0136-4542-b26b-378c5c21288b"},"vehicle_type_id":"4","last_reported":1784833068,"current_range_meters":2800,"station_id":"ce4bh0h2rcd13ifvqd50","pricing_plan_id":"cebpf4jnsgd1na2vs0mg"},{"bike_id":"bbb6d84d-52b2-4523-b78b-60cb354411ef","system_id":"levelo_inurba_marseille","lat":43.32132,"lon":5.3678,"is_reserved":false,"is_disabled":false,"rental_uris":{"android":"levelo://app?vid=bbb6d84d-52b2-4523-b78b-60cb354411ef","ios":"levelo://app?vid=bbb6d84d-52b2-4523-b78b-60cb354411ef"},"vehicle_type_id":"4","last_reported":1784833068,"current_range_meters":32000,"station_id":"ce4bhrh2rcd13ifvqhug","pricing_plan_id":"cebpf4jnsgd1na2vs0mg"},{"bike_id":"0fb69e68-2442-4daa-851f-442099ce438b","system_id":"levelo_inurba_marseille","lat":43.30197,"lon":5.40167,"is_reserved":false,"is_disabled":false,"rental_uris":{"android":"levelo://app?vid=0fb69e68-2442-4daa-851f-442099ce438b","ios":"levelo://app?vid=0fb69e68-2442-4daa-851f-442099ce438b"},"vehicle_type_id":"4","last_reported":1784833068,"current_range_meters":4000,"station_id":"","pricing_plan_id":"cebpf4jnsgd1na2vs0mg"},{"bike_id":"7c215944-6de0-44b9-b267-ecfcdb73eb11","system_id":"levelo_inurba_marseille","lat":43.27817,"lon":5.40729,"is_reserved":false,"is_disabled":true,"rental_uris":{"android":"levelo://app?vid=7c215944-6de0-44b9-b267-ecfcdb73eb11","ios":"levelo://app?vid=7c215944-6de0-44b9-b267-ecfcdb73eb11"},"vehicle_type_id":"4","last_reported":1784833068,"current_range_meters":38400,"station_id":"ce4bhnh2rcd13ifvqgtg","pricing_plan_id":"cebpf4jnsgd1na2vs0mg"},{"bike_id":"a9863fcb-8ca0-4220-b083-cb27e96475fe","system_id":"levelo_inurba_marseille","lat":43.23214,"lon":5.35547,"is_reserved":false,"is_disabled":false,"rental_uris":{"android":"levelo://app?vid=a9863fcb-8ca0-4220-b083-cb27e96475fe","ios":"levelo://app?vid=a9863fcb-8ca0-4220-b083-cb27e96475fe"},"vehicle_type_id":"4","last_reported":1784833068,"current_range_meters":39200,"station_id":"ce4bhu92rcd13ifvqi70","pricing_plan_id":"cebpf4jnsgd1na2vs0mg"},{"bike_id":"ded3b29b-0517-489c-a10d-8b949bc6e37f","system_id":"levelo_inurba_marseille","lat":43.26315,"lon":5.37855,"is_reserved":false,"is_disabled":false,"rental_uris":{"android":"levelo://app?vid=ded3b29b-0517-489c-a10d-8b949bc6e37f","ios":"levelo://app?vid=ded3b29b-0517-489c-a10d-8b949bc6e37f"},"vehicle_type_id":"4","last_reported":1784833068,"current_range_meters":29600,"station_id":"","pricing_plan_id":"cebpf4jnsgd1na2vs0mg"},{"bike_id":"d62403aa-894f-4ce8-ad6f-b14c65d86282","system_id":"levelo_inurba_marseille","lat":43.24806,"lon":5.37442,"is_reserved":false,"is_disabled":false,"rental_uris":{"android":"levelo://app?vid=d62403aa-894f-4ce8-ad6f-b14c65d86282","ios":"levelo://app?vid=d62403aa-894f-4ce8-ad6f-b14c65d86282"},"vehicle_type_id":"4","last_reported":1784833068,"current_range_meters":6400,"station_id":"ce4bhgh2rcd13ifvqfb0","pricing_plan_id":"cebpf4jnsgd1na2vs0mg"},{"bike_id":"6beb94b0-4283-4f7d-810d-b229619bc024","system_id":"levelo_inurba_marseille","lat":43.229591,"lon":5.444884,"is_reserved":false,"is_disabled":false,"rental_uris":{"android":"levelo://app?vid=6beb94b0-4283-4f7d-810d-b229619bc024","ios":"levelo://app?vid=6beb94b0-4283-4f7d-810d-b229619bc024"},"vehicle_type_id":"4","last_reported":1784833068,"current_range_meters":19600,"station_id":"","pricing_plan_id":"cebpf4jnsgd1na2vs0mg"},{"bike_id":"584944ca-b159-4010-a295-af7feaf2b9b7","system_id":"levelo_inurba_marseille","lat":43.27371,"lon":5.36255,"is_reserved":false,"is_disabled":false,"rental_uris":{"android":"levelo://app?vid=584944ca-b159-4010-a295-af7feaf2b9b7","ios":"levelo://app?vid=584944ca-b159-4010-a295-af7feaf2b9b7"},"vehicle_type_id":"4","last_reported":1784833068,"current_range_meters":24000,"station_id":"ce4bhbh2rcd13ifvqeo0","pricing_plan_id":"cebpf4jnsgd1na2vs0mg"},{"bike_id":"25d63c03-240b-4596-9842-ae7363543101","system_id":"levelo_inurba_marseille","lat":43.33146,"lon":5.37685,"is_reserved":false,"is_disabled":false,"rental_uris":{"android":"levelo://app?vid=25d63c03-240b-4596-9842-ae7363543101","ios":"levelo://app?vid=25d63c03-240b-4596-9842-ae7363543101"},"vehicle_type_id":"4","last_reported":1784833068,"current_range_meters":36800,"station_id":"st_d46cu089ee8s73dldbu0","pricing_plan_id":"cebpf4jnsgd1na2vs0mg"},{"bike_id":"d5ce1f70-45dd-47d5-a2a4-e8a19c2ad395","system_id":"levelo_inurba_marseille","lat":43.23784,"lon":5.36634,"is_reserved":false,"is_disabled":false,"rental_uris":{"android":"levelo://app?vid=d5ce1f70-45dd-47d5-a2a4-e8a19c2ad395","ios":"levelo://app?vid=d5ce1f70-45dd-47d5-a2a4-e8a19c2ad395"},"vehicle_type_id":"4","last_reported":1784833068,"current_range_meters":39200,"station_id":"st_d3nk18o9ro0c73en2l3g","pricing_plan_id":"cebpf4jnsgd1na2vs0mg"},{"bike_id":"2227fe95-0a72-4ced-9f02-31d32846fb4e","system_id":"levelo_inurba_marseille","lat":43.25101,"lon":5.39512,"is_reserved":false,"is_disabled":false,"rental_uris":{"android":"levelo://app?vid=2227fe95-0a72-4ced-9f02-31d32846fb4e","ios":"levelo://app?vid=2227fe95-0a72-4ced-9f02-31d32846fb4e"},"vehicle_type_id":"4","last_reported":1784833068,"current_range_meters":38800,"station_id":"ce4bhm12rcd13ifvqgkg","pricing_plan_id":"cebpf4jnsgd1na2vs0mg"},{"bike_id":"1001b8b4-03a2-4861-bd45-bab9d6ff9a08","system_id":"levelo_inurba_marseille","lat":43.299347,"lon":5.365508,"is_reserved":false,"is_disabled":true,"rental_uris":{"android":"levelo://app?vid=1001b8b4-03a2-4861-bd45-bab9d6ff9a08","ios":"levelo://app?vid=1001b8b4-03a2-4861-bd45-bab9d6ff9a08"},"vehicle_type_id":"4","last_reported":1784833068,"current_range_meters":400,"station_id":"ce4bgm92rcd13ifvqbr0","pricing_plan_id":"cebpf4jnsgd1na2vs0mg"},{"bike_id":"f8d90c4e-4908-4f03-845e-3c10c53cb1f4","system_id":"levelo_inurba_marseille","lat":43.30046,"lon":5.40938,"is_reserved":false,"is_disabled":false,"rental_uris":{"android":"levelo://app?vid=f8d90c4e-4908-4f03-845e-3c10c53cb1f4","ios":"levelo://app?vid=f8d90c4e-4908-4f03-845e-3c10c53cb1f4"},"vehicle_type_id":"4","last_reported":1784833068,"current_range_meters":17600,"station_id":"","pricing_plan_id":"cebpf4jnsgd1na2vs0mg"},{"bike_id":"6e848715-b818-4dcf-8988-80bc540ac54b","system_id":"levelo_inurba_marseille","lat":43.27732,"lon":5.38324,"is_reserved":false,"is_disabled":false,"rental_uris":{"android":"levelo://app?vid=6e848715-b818-4dcf-8988-80bc540ac54b","ios":"levelo://app?vid=6e848715-b818-4dcf-8988-80bc540ac54b"},"vehicle_type_id":"4","last_reported":1784833068,"current_range_meters":7200,"station_id":"","pricing_plan_id":"cebpf4jnsgd1na2vs0mg"},{"bike_id":"920e3d06-cc23-41b9-8527-a048259c2416","system_id":"levelo_inurba_marseille","lat":43.31694,"lon":5.40467,"is_reserved":false,"is_disabled":false,"rental_uris":{"android":"levelo://app?vid=920e3d06-cc23-41b9-8527-a048259c2416","ios":"levelo://app?vid=920e3d06-cc23-41b9-8527-a048259c2416"},"vehicle_type_id":"4","last_reported":1784833068,"current_range_meters":19200,"station_id":"ce4bh012rcd13ifvqd00","pricing_plan_id":"cebpf4jnsgd1na2vs0mg"},{"bike_id":"dab9969d-d56b-4047-8f7a-83ba7401e915","system_id":"levelo_inurba_marseille","lat":43.28424,"lon":5.34968,"is_reserved":false,"is_disabled":false,"rental_uris":{"android":"levelo://app?vid=dab9969d-d56b-4047-8f7a-83ba7401e915","ios":"levelo://app?vid=dab9969d-d56b-4047-8f7a-83ba7401e915"},"vehicle_type_id":"4","last_reported":1784833068,"current_range_meters":15200,"station_id":"ce4bhbh2rcd13ifvqepg","pricing_plan_id":"cebpf4jnsgd1na2vs0mg"},{"bike_id":"27e1e4c5-a07c-4ba9-9e46-007cc925fb39","system_id":"levelo_inurba_marseille","lat":43.25436,"lon":5.41638,"is_reserved":false,"is_disabled":false,"rental_uris":{"android":"levelo://app?vid=27e1e4c5-a07c-4ba9-9e46-007cc925fb39","ios":"levelo://app?vid=27e1e4c5-a07c-4ba9-9e46-007cc925fb39"},"vehicle_type_id":"4","last_reported":1784833068,"current_range_meters":6800,"station_id":"","pricing_plan_id":"cebpf4jnsgd1na2vs0mg"},{"bike_id":"edf62b16-4006-4c81-9c57-20873a175b5a","system_id":"levelo_inurba_marseille","lat":43.25594,"lon":5.38239,"is_reserved":false,"is_disabled":false,"rental_uris":{"android":"levelo://app?vid=edf62b16-4006-4c81-9c57-20873a175b5a","ios":"levelo://app?vid=edf62b16-4006-4c81-9c57-20873a175b5a"},"vehicle_type_id":"4","last_reported":1784833068,"current_range_meters":34800,"station_id":"ce4bhih2rcd13ifvqfs0","pricing_plan_id":"cebpf4jnsgd1na2vs0mg"},{"bike_id":"033eab5e-4885-4e3e-a926-9530624df4e6","system_id":"levelo_inurba_marseille","lat":43.29319,"lon":5.37427,"is_reserved":false,"is_disabled":false,"rental_uris":{"android":"levelo://app?vid=033eab5e-4885-4e3e-a926-9530624df4e6","ios":"levelo://app?vid=033eab5e-4885-4e3e-a926-9530624df4e6"},"vehicle_type_id":"4","last_reported":1784833068,"current_range_meters":9600,"station_id":"ce4bgi12rcd13ifvqb70","pricing_plan_id":"cebpf4jnsgd1na2vs0mg"},{"bike_id":"cd288035-eddb-4f42-a73e-3fa03a084ed5","system_id":"levelo_inurba_marseille","lat":43.265732,"lon":5.390492,"is_reserved":false,"is_disabled":true,"rental_uris":{"android":"levelo://app?vid=cd288035-eddb-4f42-a73e-3fa03a084ed5","ios":"levelo://app?vid=cd288035-eddb-4f42-a73e-3fa03a084ed5"},"vehicle_type_id":"4","last_reported":1784833068,"current_range_meters":32800,"station_id":"cpo3532slgdg3j2ikp40","pricing_plan_id":"cebpf4jnsgd1na2vs0mg"},{"bike_id":"318129b4-c7a7-4d62-8daa-bf96cab18e20","system_id":"levelo_inurba_marseille","lat":43.28436,"lon":5.34985,"is_reserved":false,"is_disabled":true,"rental_uris":{"android":"levelo://app?vid=318129b4-c7a7-4d62-8daa-bf96cab18e20","ios":"levelo://app?vid=318129b4-c7a7-4d62-8daa-bf96cab18e20"},"vehicle_type_id":"4","last_reported":1784833068,"current_range_meters":20000,"station_id":"ce4bhbh2rcd13ifvqepg","pricing_plan_id":"cebpf4jnsgd1na2vs0mg"},{"bike_id":"d7f06adf-ea51-4768-8aad-2f86efca0bb4","system_id":"levelo_inurba_marseille","lat":43.29508,"lon":5.38558,"is_reserved":false,"is_disabled":false,"rental_uris":{"android":"levelo://app?vid=d7f06adf-ea51-4768-8aad-2f86efca0bb4","ios":"levelo://app?vid=d7f06adf-ea51-4768-8aad-2f86efca0bb4"},"vehicle_type_id":"4","last_reported":1784833068,"current_range_meters":32800,"station_id":"ce4bgih2rcd13ifvqba0","pricing_plan_id":"cebpf4jnsgd1na2vs0mg"},{"bike_id":"2f3c08d1-4cdc-4610-bf4b-5e5ab3853cf7","system_id":"levelo_inurba_marseille","lat":43.31487,"lon":5.39613,"is_reserved":false,"is_disabled":false,"rental_uris":{"android":"levelo://app?vid=2f3c08d1-4cdc-4610-bf4b-5e5ab3853cf7","ios":"levelo://app?vid=2f3c08d1-4cdc-4610-bf4b-5e5ab3853cf7"},"vehicle_type_id":"4","last_reported":1784833068,"current_range_meters":17200,"station_id":"","pricing_plan_id":"cebpf4jnsgd1na2vs0mg"},{"bike_id":"4fbbd6b4-be7c-4ad3-9da7-7f4f01ef0f34","system_id":"levelo_inurba_marseille","lat":43.21747,"lon":5.34599,"is_reserved":false,"is_disabled":false,"rental_uris":{"android":"levelo://app?vid=4fbbd6b4-be7c-4ad3-9da7-7f4f01ef0f34","ios":"levelo://app?vid=4fbbd6b4-be7c-4ad3-9da7-7f4f01ef0f34"},"vehicle_type_id":"4","last_reported":1784833068,"current_range_meters":6400,"station_id":"st_cvj6r9ubvosntc0bgbag","pricing_plan_id":"cebpf4jnsgd1na2vs0mg"},{"bike_id":"00f0c484-597d-4ed4-91e8-bee8c228882b","system_id":"levelo_inurba_marseille","lat":43.25124,"lon":5.3946,"is_reserved":false,"is_disabled":false,"rental_uris":{"android":"levelo://app?vid=00f0c484-597d-4ed4-91e8-bee8c228882b","ios":"levelo://app?vid=00f0c484-597d-4ed4-91e8-bee8c228882b"},"vehicle_type_id":"4","last_reported":1784833068,"current_range_meters":39200,"station_id":"","pricing_plan_id":"cebpf4jnsgd1na2vs0mg"},{"bike_id":"1164b65c-5c9e-4dbc-b0c4-e4c9a3ca9e39","system_id":"levelo_inurba_marseille","lat":43.28353,"lon":5.381,"is_reserved":false,"is_disabled":false,"rental_uris":{"android":"levelo://app?vid=1164b65c-5c9e-4dbc-b0c4-e4c9a3ca9e39","ios":"levelo://app?vid=1164b65c-5c9e-4dbc-b0c4-e4c9a3ca9e39"},"vehicle_type_id":"4","last_reported":1784833068,"current_range_meters":21600,"station_id":"ce4bh412rcd13ifvqdr0","pricing_plan_id":"cebpf4jnsgd1na2vs0mg"},{"bike_id":"ee76bc30-36d7-42f2-8939-33784c38e005","system_id":"levelo_inurba_marseille","lat":43.23504,"lon":5.36008,"is_reserved":false,"is_disabled":false,"rental_uris":{"android":"levelo://app?vid=ee76bc30-36d7-42f2-8939-33784c38e005","ios":"levelo://app?vid=ee76bc30-36d7-42f2-8939-33784c38e005"},"vehicle_type_id":"4","last_reported":1784833068,"current_range_meters":4800,"station_id":"","pricing_plan_id":"cebpf4jnsgd1na2vs0mg"},{"bike_id":"4871f915-bca7-49ea-9398-4e2a69e50f8c","system_id":"levelo_inurba_marseille","lat":43.28427,"lon":5.34995,"is_reserved":false,"is_disabled":false,"rental_uris":{"android":"levelo://app?vid=4871f915-bca7-49ea-9398-4e2a69e50f8c","ios":"levelo://app?vid=4871f915-bca7-49ea-9398-4e2a69e50f8c"},"vehicle_type_id":"4","last_reported":1784833068,"current_range_meters":39200,"station_id":"ce4bhbh2rcd13ifvqepg","pricing_plan_id":"cebpf4jnsgd1na2vs0mg"},{"bike_id":"d1b66825-c158-457e-a6ca-20015eb28f13","system_id":"levelo_inurba_marseille","lat":43.33782,"lon":5.37526,"is_reserved":false,"is_disabled":false,"rental_uris":{"android":"levelo://app?vid=d1b66825-c158-457e-a6ca-20015eb28f13","ios":"levelo://app?vid=d1b66825-c158-457e-a6ca-20015eb28f13"},"vehicle_type_id":"4","last_reported":1784833068,"current_range_meters":11600,"station_id":"","pricing_plan_id":"cebpf4jnsgd1na2vs0mg"},{"bike_id":"c5032ade-04c2-4ad9-acd6-0c757f219d04","system_id":"levelo_inurba_marseille","lat":43.3189,"lon":5.36807,"is_reserved":false,"is_disabled":false,"rental_uris":{"android":"levelo://app?vid=c5032ade-04c2-4ad9-acd6-0c757f219d04","ios":"levelo://app?vid=c5032ade-04c2-4ad9-acd6-0c757f219d04"},"vehicle_type_id":"4","last_reported":1784833068,"current_range_meters":8000,"station_id":"st_d6o2h0d0559c73evc1b0","pricing_plan_id":"cebpf4jnsgd1na2vs0mg"},{"bike_id":"479a25b1-c1db-4e38-9802-13b8f5b183f0","system_id":"levelo_inurba_marseille","lat":43.28509,"lon":5.48366,"is_reserved":false,"is_disabled":false,"rental_uris":{"android":"levelo://app?vid=479a25b1-c1db-4e38-9802-13b8f5b183f0","ios":"levelo://app?vid=479a25b1-c1db-4e38-9802-13b8f5b183f0"},"vehicle_type_id":"4","last_reported":1784833068,"current_range_meters":27200,"station_id":"st_d3svhcjqgbts73a3dn0g","pricing_plan_id":"cebpf4jnsgd1na2vs0mg"},{"bike_id":"5ba3de10-889b-4152-aef4-4bff1e010d26","system_id":"levelo_inurba_marseille","lat":43.3212,"lon":5.36755,"is_reserved":false,"is_disabled":false,"rental_uris":{"android":"levelo://app?vid=5ba3de10-889b-4152-aef4-4bff1e010d26","ios":"levelo://app?vid=5ba3de10-889b-4152-aef4-4bff1e010d26"},"vehicle_type_id":"4","last_reported":1784833068,"current_range_meters":8800,"station_id":"ce4bhrh2rcd13ifvqhug","pricing_plan_id":"cebpf4jnsgd1na2vs0mg"},{"bike_id":"4a44625a-98e7-4ffe-9d7a-43dbdd22c4d2","system_id":"levelo_inurba_marseille","lat":43.31437,"lon":5.37383,"is_reserved":false,"is_disabled":true,"rental_uris":{"android":"levelo://app?vid=4a44625a-98e7-4ffe-9d7a-43dbdd22c4d2","ios":"levelo://app?vid=4a44625a-98e7-4ffe-9d7a-43dbdd22c4d2"},"vehicle_type_id":"4","last_reported":1784833068,"current_range_meters":0,"station_id":"","pricing_plan_id":"cebpf4jnsgd1na2vs0mg"},{"bike_id":"0efcef29-102d-4c99-9588-0091c6994253","system_id":"levelo_inurba_marseille","lat":43.23368,"lon":5.4126,"is_reserved":false,"is_disabled":false,"rental_uris":{"android":"levelo://app?vid=0efcef29-102d-4c99-9588-0091c6994253","ios":"levelo://app?vid=0efcef29-102d-4c99-9588-0091c6994253"},"vehicle_type_id":"4","last_reported":1784833068,"current_range_meters":38800,"station_id":"st_d75pvndhf9lc73cqq3eg","pricing_plan_id":"cebpf4jnsgd1na2vs0mg"},{"bike_id":"5a9abbc8-0280-47d8-900a-029568d5f37c","system_id":"levelo_inurba_marseille","lat":43.32417,"lon":5.42675,"is_reserved":false,"is_disabled":false,"rental_uris":{"android":"levelo://app?vid=5a9abbc8-0280-47d8-900a-029568d5f37c","ios":"levelo://app?vid=5a9abbc8-0280-47d8-900a-029568d5f37c"},"vehicle_type_id":"4","last_reported":1784833068,"current_range_meters":16400,"station_id":"","pricing_plan_id":"cebpf4jnsgd1na2vs0mg"},{"bike_id":"b74198f4-1d24-4fc2-97fc-08e148c570e0","system_id":"levelo_inurba_marseille","lat":43.28994,"lon":5.35613,"is_reserved":false,"is_disabled":false,"rental_uris":{"android":"levelo://app?vid=b74198f4-1d24-4fc2-97fc-08e148c570e0","ios":"levelo://app?vid=b74198f4-1d24-4fc2-97fc-08e148c570e0"},"vehicle_type_id":"4","last_reported":1784833068,"current_range_meters":30000,"station_id":"ce4bhb92rcd13ifvqen0","pricing_plan_id":"cebpf4jnsgd1na2vs0mg"},{"bike_id":"cc8568ab-2679-4305-9add-20ef1e360289","system_id":"levelo_inurba_marseille","lat":43.33784,"lon":5.37518,"is_reserved":false,"is_disabled":false,"rental_uris":{"android":"levelo://app?vid=cc8568ab-2679-4305-9add-20ef1e360289","ios":"levelo://app?vid=cc8568ab-2679-4305-9add-20ef1e360289"},"vehicle_type_id":"4","last_reported":1784833068,"current_range_meters":28800,"station_id":"","pricing_plan_id":"cebpf4jnsgd1na2vs0mg"},{"bike_id":"fd3f8303-f8d3-481a-a621-b95d7ff690c0","system_id":"levelo_inurba_marseille","lat":43.2901,"lon":5.35621,"is_reserved":false,"is_disabled":false,"rental_uris":{"android":"levelo://app?vid=fd3f8303-f8d3-481a-a621-b95d7ff690c0","ios":"levelo://app?vid=fd3f8303-f8d3-481a-a621-b95d7ff690c0"},"vehicle_type_id":"4","last_reported":1784833068,"current_range_meters":16000,"station_id":"ce4bhgp2rcd13ifvqfc0","pricing_plan_id":"cebpf4jnsgd1na2vs0mg"},{"bike_id":"c7b1bacd-378d-439a-8a6d-6c040cbd571b","system_id":"levelo_inurba_marseille","lat":43.31997,"lon":5.38165,"is_reserved":false,"is_disabled":false,"rental_uris":{"android":"levelo://app?vid=c7b1bacd-378d-439a-8a6d-6c040cbd571b","ios":"levelo://app?vid=c7b1bacd-378d-439a-8a6d-6c040cbd571b"},"vehicle_type_id":"4","last_reported":1784833068,"current_range_meters":8000,"station_id":"ce4bhr12rcd13ifvqhpg","pricing_plan_id":"cebpf4jnsgd1na2vs0mg"},{"bike_id":"80f2fcef-357e-49cd-aa72-dbf1de6d4695","system_id":"levelo_inurba_marseille","lat":43.31899,"lon":5.36799,"is_reserved":false,"is_disabled":false,"rental_uris":{"android":"levelo://app?vid=80f2fcef-357e-49cd-aa72-dbf1de6d4695","ios":"levelo://app?vid=80f2fcef-357e-49cd-aa72-dbf1de6d4695"},"vehicle_type_id":"4","last_reported":1784833068,"current_range_meters":14000,"station_id":"st_d6o2h0d0559c73evc1b0","pricing_plan_id":"cebpf4jnsgd1na2vs0mg"},{"bike_id":"f8243129-26e3-4009-a678-84f35758802d","system_id":"levelo_inurba_marseille","lat":43.2408,"lon":5.37768,"is_reserved":false,"is_disabled":false,"rental_uris":{"android":"levelo://app?vid=f8243129-26e3-4009-a678-84f35758802d","ios":"levelo://app?vid=f8243129-26e3-4009-a678-84f35758802d"},"vehicle_type_id":"4","last_reported":1784833068,"current_range_meters":31200,"station_id":"ce4bhnp2rcd13ifvqgvg","pricing_plan_id":"cebpf4jnsgd1na2vs0mg"},{"bike_id":"97ca20bd-f418-4306-80f4-f5741be0c595","system_id":"levelo_inurba_marseille","lat":43.24637,"lon":5.43152,"is_reserved":false,"is_disabled":true,"rental_uris":{"android":"levelo://app?vid=97ca20bd-f418-4306-80f4-f5741be0c595","ios":"levelo://app?vid=97ca20bd-f418-4306-80f4-f5741be0c595"},"vehicle_type_id":"4","last_reported":1784833068,"current_range_meters":0,"station_id":"st_d2m6c4gdas8pm72e190g","pricing_plan_id":"cebpf4jnsgd1na2vs0mg"},{"bike_id":"aec9aabb-6a78-4988-af6e-9b2a96256088","system_id":"levelo_inurba_marseille","lat":43.28223,"lon":5.39087,"is_reserved":false,"is_disabled":true,"rental_uris":{"android":"levelo://app?vid=aec9aabb-6a78-4988-af6e-9b2a96256088","ios":"levelo://app?vid=aec9aabb-6a78-4988-af6e-9b2a96256088"},