{"last_updated":1771307459,"ttl":60,"version":"2.2","data":{"bikes":[{"bike_id":"77248d81-deda-43f8-8fe3-cfa236bb2e07","system_id":"levelo_inurba_marseille","lat":43.29252,"lon":5.38476,"is_reserved":false,"is_disabled":false,"rental_uris":{"android":"levelo://app?vid=77248d81-deda-43f8-8fe3-cfa236bb2e07","ios":"levelo://app?vid=77248d81-deda-43f8-8fe3-cfa236bb2e07"},"vehicle_type_id":"4","last_reported":1771307459,"current_range_meters":4800,"station_id":"ce4bh692rcd13ifvqea0","pricing_plan_id":"cebpf4jnsgd1na2vs0mg"},{"bike_id":"d7118046-cefa-4587-89ed-6c45cd917a4f","system_id":"levelo_inurba_marseille","lat":43.23965,"lon":5.36614,"is_reserved":false,"is_disabled":false,"rental_uris":{"android":"levelo://app?vid=d7118046-cefa-4587-89ed-6c45cd917a4f","ios":"levelo://app?vid=d7118046-cefa-4587-89ed-6c45cd917a4f"},"vehicle_type_id":"4","last_reported":1771307459,"current_range_meters":38800,"station_id":"ce4bhi12rcd13ifvqfp0","pricing_plan_id":"cebpf4jnsgd1na2vs0mg"},{"bike_id":"9aa30411-4109-4d71-8b85-65127a6483db","system_id":"levelo_inurba_marseille","lat":43.27977,"lon":5.41021,"is_reserved":false,"is_disabled":true,"rental_uris":{"android":"levelo://app?vid=9aa30411-4109-4d71-8b85-65127a6483db","ios":"levelo://app?vid=9aa30411-4109-4d71-8b85-65127a6483db"},"vehicle_type_id":"4","last_reported":1771307459,"current_range_meters":28400,"station_id":"ce4bhnp2rcd13ifvqh0g","pricing_plan_id":"cebpf4jnsgd1na2vs0mg"},{"bike_id":"9fdfd435-ee1a-4566-9fad-8b87ca04be7e","system_id":"levelo_inurba_marseille","lat":43.31329,"lon":5.36807,"is_reserved":false,"is_disabled":false,"rental_uris":{"android":"levelo://app?vid=9fdfd435-ee1a-4566-9fad-8b87ca04be7e","ios":"levelo://app?vid=9fdfd435-ee1a-4566-9fad-8b87ca04be7e"},"vehicle_type_id":"4","last_reported":1771307459,"current_range_meters":16800,"station_id":"","pricing_plan_id":"cebpf4jnsgd1na2vs0mg"},{"bike_id":"6e07964d-6fe0-4880-a3fa-e2373dfa83a6","system_id":"levelo_inurba_marseille","lat":43.33162,"lon":5.37688,"is_reserved":false,"is_disabled":false,"rental_uris":{"android":"levelo://app?vid=6e07964d-6fe0-4880-a3fa-e2373dfa83a6","ios":"levelo://app?vid=6e07964d-6fe0-4880-a3fa-e2373dfa83a6"},"vehicle_type_id":"4","last_reported":1771307459,"current_range_meters":28800,"station_id":"st_d46cu089ee8s73dldbu0","pricing_plan_id":"cebpf4jnsgd1na2vs0mg"},{"bike_id":"e57f119f-8a24-4ef5-97d1-e242618f91a0","system_id":"levelo_inurba_marseille","lat":43.26229,"lon":5.40453,"is_reserved":false,"is_disabled":false,"rental_uris":{"android":"levelo://app?vid=e57f119f-8a24-4ef5-97d1-e242618f91a0","ios":"levelo://app?vid=e57f119f-8a24-4ef5-97d1-e242618f91a0"},"vehicle_type_id":"4","last_reported":1771307459,"current_range_meters":22800,"station_id":"ce4bhmh2rcd13ifvqgmg","pricing_plan_id":"cebpf4jnsgd1na2vs0mg"},{"bike_id":"33e04ab4-8566-4c76-a0fd-aad45455c18f","system_id":"levelo_inurba_marseille","lat":43.24813,"lon":5.37461,"is_reserved":false,"is_disabled":false,"rental_uris":{"android":"levelo://app?vid=33e04ab4-8566-4c76-a0fd-aad45455c18f","ios":"levelo://app?vid=33e04ab4-8566-4c76-a0fd-aad45455c18f"},"vehicle_type_id":"4","last_reported":1771307459,"current_range_meters":37600,"station_id":"ce4bhgh2rcd13ifvqfb0","pricing_plan_id":"cebpf4jnsgd1na2vs0mg"},{"bike_id":"3975a841-e136-4ffc-9340-b611eb80ecaa","system_id":"levelo_inurba_marseille","lat":43.245394,"lon":5.395191,"is_reserved":false,"is_disabled":false,"rental_uris":{"android":"levelo://app?vid=3975a841-e136-4ffc-9340-b611eb80ecaa","ios":"levelo://app?vid=3975a841-e136-4ffc-9340-b611eb80ecaa"},"vehicle_type_id":"4","last_reported":1771307459,"current_range_meters":33200,"station_id":"ce4bhlp2rcd13ifvqgjg","pricing_plan_id":"cebpf4jnsgd1na2vs0mg"},{"bike_id":"b5d21b34-ba85-49a4-b964-e2def336368b","system_id":"levelo_inurba_marseille","lat":43.26543,"lon":5.37297,"is_reserved":false,"is_disabled":true,"rental_uris":{"android":"levelo://app?vid=b5d21b34-ba85-49a4-b964-e2def336368b","ios":"levelo://app?vid=b5d21b34-ba85-49a4-b964-e2def336368b"},"vehicle_type_id":"4","last_reported":1771307459,"current_range_meters":38000,"station_id":"ce4bhg12rcd13ifvqf70","pricing_plan_id":"cebpf4jnsgd1na2vs0mg"},{"bike_id":"3e966140-e94e-43e6-a5a5-d2e8198d6f0d","system_id":"levelo_inurba_marseille","lat":43.26071,"lon":5.39409,"is_reserved":false,"is_disabled":false,"rental_uris":{"android":"levelo://app?vid=3e966140-e94e-43e6-a5a5-d2e8198d6f0d","ios":"levelo://app?vid=3e966140-e94e-43e6-a5a5-d2e8198d6f0d"},"vehicle_type_id":"4","last_reported":1771307459,"current_range_meters":11600,"station_id":"ce4bhh92rcd13ifvqfj0","pricing_plan_id":"cebpf4jnsgd1na2vs0mg"},{"bike_id":"74515861-cbb7-4ce1-8e3a-ac2705263ef3","system_id":"levelo_inurba_marseille","lat":43.304207,"lon":5.412811,"is_reserved":false,"is_disabled":false,"rental_uris":{"android":"levelo://app?vid=74515861-cbb7-4ce1-8e3a-ac2705263ef3","ios":"levelo://app?vid=74515861-cbb7-4ce1-8e3a-ac2705263ef3"},"vehicle_type_id":"4","last_reported":1771307459,"current_range_meters":9600,"station_id":"ce4bhop2rcd13ifvqh8g","pricing_plan_id":"cebpf4jnsgd1na2vs0mg"},{"bike_id":"f5ff8aa9-673d-4e9f-b19d-9737360b0355","system_id":"levelo_inurba_marseille","lat":43.30347,"lon":5.41876,"is_reserved":false,"is_disabled":false,"rental_uris":{"android":"levelo://app?vid=f5ff8aa9-673d-4e9f-b19d-9737360b0355","ios":"levelo://app?vid=f5ff8aa9-673d-4e9f-b19d-9737360b0355"},"vehicle_type_id":"4","last_reported":1771307459,"current_range_meters":37600,"station_id":"ce4bhop2rcd13ifvqh7g","pricing_plan_id":"cebpf4jnsgd1na2vs0mg"},{"bike_id":"bcb996a2-a29d-42e6-88e7-f971140b5d30","system_id":"levelo_inurba_marseille","lat":43.2761,"lon":5.36117,"is_reserved":false,"is_disabled":false,"rental_uris":{"android":"levelo://app?vid=bcb996a2-a29d-42e6-88e7-f971140b5d30","ios":"levelo://app?vid=bcb996a2-a29d-42e6-88e7-f971140b5d30"},"vehicle_type_id":"4","last_reported":1771307459,"current_range_meters":28000,"station_id":"ce4bgj92rcd13ifvqbe0","pricing_plan_id":"cebpf4jnsgd1na2vs0mg"},{"bike_id":"f2f05234-5926-4d0a-9c36-64e06f4aa31d","system_id":"levelo_inurba_marseille","lat":43.24408,"lon":5.37056,"is_reserved":false,"is_disabled":false,"rental_uris":{"android":"levelo://app?vid=f2f05234-5926-4d0a-9c36-64e06f4aa31d","ios":"levelo://app?vid=f2f05234-5926-4d0a-9c36-64e06f4aa31d"},"vehicle_type_id":"4","last_reported":1771307459,"current_range_meters":12000,"station_id":"ce4bhhh2rcd13ifvqfk0","pricing_plan_id":"cebpf4jnsgd1na2vs0mg"},{"bike_id":"22755b81-b5ad-43c8-86d5-e19f9c2e578f","system_id":"levelo_inurba_marseille","lat":43.30297,"lon":5.39198,"is_reserved":false,"is_disabled":false,"rental_uris":{"android":"levelo://app?vid=22755b81-b5ad-43c8-86d5-e19f9c2e578f","ios":"levelo://app?vid=22755b81-b5ad-43c8-86d5-e19f9c2e578f"},"vehicle_type_id":"4","last_reported":1771307459,"current_range_meters":38400,"station_id":"ce4bgkh2rcd13ifvqbk0","pricing_plan_id":"cebpf4jnsgd1na2vs0mg"},{"bike_id":"05410587-b482-4fdf-9b03-646f6d5cb761","system_id":"levelo_inurba_marseille","lat":43.23805,"lon":5.36644,"is_reserved":false,"is_disabled":false,"rental_uris":{"android":"levelo://app?vid=05410587-b482-4fdf-9b03-646f6d5cb761","ios":"levelo://app?vid=05410587-b482-4fdf-9b03-646f6d5cb761"},"vehicle_type_id":"4","last_reported":1771307459,"current_range_meters":30800,"station_id":"st_d3nk18o9ro0c73en2l3g","pricing_plan_id":"cebpf4jnsgd1na2vs0mg"},{"bike_id":"bee29b99-85a3-4bac-921c-887870ddb3a4","system_id":"levelo_inurba_marseille","lat":43.284618,"lon":5.358681,"is_reserved":false,"is_disabled":false,"rental_uris":{"android":"levelo://app?vid=bee29b99-85a3-4bac-921c-887870ddb3a4","ios":"levelo://app?vid=bee29b99-85a3-4bac-921c-887870ddb3a4"},"vehicle_type_id":"4","last_reported":1771307459,"current_range_meters":39200,"station_id":"ce4bhah2rcd13ifvqei0","pricing_plan_id":"cebpf4jnsgd1na2vs0mg"},{"bike_id":"9b8d0618-07fc-46a7-a3fe-13368a8eb2ed","system_id":"levelo_inurba_marseille","lat":43.29884,"lon":5.39724,"is_reserved":false,"is_disabled":false,"rental_uris":{"android":"levelo://app?vid=9b8d0618-07fc-46a7-a3fe-13368a8eb2ed","ios":"levelo://app?vid=9b8d0618-07fc-46a7-a3fe-13368a8eb2ed"},"vehicle_type_id":"4","last_reported":1771307459,"current_range_meters":39200,"station_id":"ce4bh0h2rcd13ifvqd50","pricing_plan_id":"cebpf4jnsgd1na2vs0mg"},{"bike_id":"4f189156-cde6-422f-b721-2da60291ecba","system_id":"levelo_inurba_marseille","lat":43.29776,"lon":5.38106,"is_reserved":false,"is_disabled":true,"rental_uris":{"android":"levelo://app?vid=4f189156-cde6-422f-b721-2da60291ecba","ios":"levelo://app?vid=4f189156-cde6-422f-b721-2da60291ecba"},"vehicle_type_id":"4","last_reported":1771307459,"current_range_meters":38400,"station_id":"ce4bgip2rcd13ifvqbb0","pricing_plan_id":"cebpf4jnsgd1na2vs0mg"},{"bike_id":"57b0d595-629f-4ebf-9a5d-5ba9a820aae3","system_id":"levelo_inurba_marseille","lat":43.31474,"lon":5.37292,"is_reserved":false,"is_disabled":false,"rental_uris":{"android":"levelo://app?vid=57b0d595-629f-4ebf-9a5d-5ba9a820aae3","ios":"levelo://app?vid=57b0d595-629f-4ebf-9a5d-5ba9a820aae3"},"vehicle_type_id":"4","last_reported":1771307459,"current_range_meters":32400,"station_id":"ce4bgt12rcd13ifvqcd0","pricing_plan_id":"cebpf4jnsgd1na2vs0mg"},{"bike_id":"96ba3f4f-0e70-4352-8e6b-4135d6897805","system_id":"levelo_inurba_marseille","lat":43.25472,"lon":5.37645,"is_reserved":false,"is_disabled":false,"rental_uris":{"android":"levelo://app?vid=96ba3f4f-0e70-4352-8e6b-4135d6897805","ios":"levelo://app?vid=96ba3f4f-0e70-4352-8e6b-4135d6897805"},"vehicle_type_id":"4","last_reported":1771307459,"current_range_meters":35600,"station_id":"ce4bhh12rcd13ifvqff0","pricing_plan_id":"cebpf4jnsgd1na2vs0mg"},{"bike_id":"36c72a3b-1570-442e-9c9f-46e9334ca723","system_id":"levelo_inurba_marseille","lat":43.27825,"lon":5.40722,"is_reserved":false,"is_disabled":false,"rental_uris":{"android":"levelo://app?vid=36c72a3b-1570-442e-9c9f-46e9334ca723","ios":"levelo://app?vid=36c72a3b-1570-442e-9c9f-46e9334ca723"},"vehicle_type_id":"4","last_reported":1771307459,"current_range_meters":31200,"station_id":"ce4bhnh2rcd13ifvqgtg","pricing_plan_id":"cebpf4jnsgd1na2vs0mg"},{"bike_id":"ece2f2de-f0fd-47e6-ac9b-2ed0aee91b45","system_id":"levelo_inurba_marseille","lat":43.29057,"lon":5.40056,"is_reserved":false,"is_disabled":false,"rental_uris":{"android":"levelo://app?vid=ece2f2de-f0fd-47e6-ac9b-2ed0aee91b45","ios":"levelo://app?vid=ece2f2de-f0fd-47e6-ac9b-2ed0aee91b45"},"vehicle_type_id":"4","last_reported":1771307459,"current_range_meters":39200,"station_id":"ce4bh392rcd13ifvqdm0","pricing_plan_id":"cebpf4jnsgd1na2vs0mg"},{"bike_id":"71c8577a-ea5e-4c4a-931f-34c6a235fc56","system_id":"levelo_inurba_marseille","lat":43.318942,"lon":5.407328,"is_reserved":false,"is_disabled":false,"rental_uris":{"android":"levelo://app?vid=71c8577a-ea5e-4c4a-931f-34c6a235fc56","ios":"levelo://app?vid=71c8577a-ea5e-4c4a-931f-34c6a235fc56"},"vehicle_type_id":"4","last_reported":1771307459,"current_range_meters":39200,"station_id":"ce4bhq12rcd13ifvqhig","pricing_plan_id":"cebpf4jnsgd1na2vs0mg"},{"bike_id":"29127fb8-f523-47cc-86a6-886390860523","system_id":"levelo_inurba_marseille","lat":43.30606,"lon":5.3721,"is_reserved":false,"is_disabled":false,"rental_uris":{"android":"levelo://app?vid=29127fb8-f523-47cc-86a6-886390860523","ios":"levelo://app?vid=29127fb8-f523-47cc-86a6-886390860523"},"vehicle_type_id":"4","last_reported":1771307459,"current_range_meters":39200,"station_id":"ce4bgqh2rcd13ifvqc4g","pricing_plan_id":"cebpf4jnsgd1na2vs0mg"},{"bike_id":"3b6a304c-f8a3-4942-805d-a3b79cb2b45e","system_id":"levelo_inurba_marseille","lat":43.33533,"lon":5.37482,"is_reserved":false,"is_disabled":false,"rental_uris":{"android":"levelo://app?vid=3b6a304c-f8a3-4942-805d-a3b79cb2b45e","ios":"levelo://app?vid=3b6a304c-f8a3-4942-805d-a3b79cb2b45e"},"vehicle_type_id":"4","last_reported":1771307459,"current_range_meters":6400,"station_id":"st_d46tts09ee8s73dlu43g","pricing_plan_id":"cebpf4jnsgd1na2vs0mg"},{"bike_id":"43e838f8-eafc-4590-a6d5-60f10b11ab4e","system_id":"levelo_inurba_marseille","lat":43.23148,"lon":5.4371,"is_reserved":false,"is_disabled":false,"rental_uris":{"android":"levelo://app?vid=43e838f8-eafc-4590-a6d5-60f10b11ab4e","ios":"levelo://app?vid=43e838f8-eafc-4590-a6d5-60f10b11ab4e"},"vehicle_type_id":"4","last_reported":1771307459,"current_range_meters":39200,"station_id":"ce4bhmp2rcd13ifvqgog","pricing_plan_id":"cebpf4jnsgd1na2vs0mg"},{"bike_id":"00a5fc08-06a6-42d8-bf56-2e882a941e0f","system_id":"levelo_inurba_marseille","lat":43.28414,"lon":5.37546,"is_reserved":false,"is_disabled":false,"rental_uris":{"android":"levelo://app?vid=00a5fc08-06a6-42d8-bf56-2e882a941e0f","ios":"levelo://app?vid=00a5fc08-06a6-42d8-bf56-2e882a941e0f"},"vehicle_type_id":"4","last_reported":1771307459,"current_range_meters":18000,"station_id":"ce4bh412rcd13ifvqds0","pricing_plan_id":"cebpf4jnsgd1na2vs0mg"},{"bike_id":"9779a971-131b-4b86-9ed0-0730c746efdb","system_id":"levelo_inurba_marseille","lat":43.28591,"lon":5.35121,"is_reserved":false,"is_disabled":false,"rental_uris":{"android":"levelo://app?vid=9779a971-131b-4b86-9ed0-0730c746efdb","ios":"levelo://app?vid=9779a971-131b-4b86-9ed0-0730c746efdb"},"vehicle_type_id":"4","last_reported":1771307459,"current_range_meters":18800,"station_id":"ce4bhch2rcd13ifvqeug","pricing_plan_id":"cebpf4jnsgd1na2vs0mg"},{"bike_id":"b6946a48-3bb4-4774-931f-055ad9cc447c","system_id":"levelo_inurba_marseille","lat":43.28445,"lon":5.38436,"is_reserved":false,"is_disabled":false,"rental_uris":{"android":"levelo://app?vid=b6946a48-3bb4-4774-931f-055ad9cc447c","ios":"levelo://app?vid=b6946a48-3bb4-4774-931f-055ad9cc447c"},"vehicle_type_id":"4","last_reported":1771307459,"current_range_meters":28000,"station_id":"ce4bh512rcd13ifvqe3g","pricing_plan_id":"cebpf4jnsgd1na2vs0mg"},{"bike_id":"30112464-e399-49c5-9324-befbf3dfc5ec","system_id":"levelo_inurba_marseille","lat":43.27195,"lon":5.40958,"is_reserved":false,"is_disabled":false,"rental_uris":{"android":"levelo://app?vid=30112464-e399-49c5-9324-befbf3dfc5ec","ios":"levelo://app?vid=30112464-e399-49c5-9324-befbf3dfc5ec"},"vehicle_type_id":"4","last_reported":1771307459,"current_range_meters":39200,"station_id":"ce4bhl12rcd13ifvqgf0","pricing_plan_id":"cebpf4jnsgd1na2vs0mg"},{"bike_id":"76e9104b-6965-4f20-b33b-90cf3f90eca6","system_id":"levelo_inurba_marseille","lat":43.231464,"lon":5.437207,"is_reserved":false,"is_disabled":false,"rental_uris":{"android":"levelo://app?vid=76e9104b-6965-4f20-b33b-90cf3f90eca6","ios":"levelo://app?vid=76e9104b-6965-4f20-b33b-90cf3f90eca6"},"vehicle_type_id":"4","last_reported":1771307459,"current_range_meters":39200,"station_id":"ce4bhmp2rcd13ifvqgog","pricing_plan_id":"cebpf4jnsgd1na2vs0mg"},{"bike_id":"3db9b689-5916-47f9-aaf5-b4714cd5e511","system_id":"levelo_inurba_marseille","lat":43.28198,"lon":5.39045,"is_reserved":false,"is_disabled":false,"rental_uris":{"android":"levelo://app?vid=3db9b689-5916-47f9-aaf5-b4714cd5e511","ios":"levelo://app?vid=3db9b689-5916-47f9-aaf5-b4714cd5e511"},"vehicle_type_id":"4","last_reported":1771307459,"current_range_meters":20400,"station_id":"ce4bhn92rcd13ifvqgsg","pricing_plan_id":"cebpf4jnsgd1na2vs0mg"},{"bike_id":"4257ce27-d4f9-4a49-a222-c5a5ef7fd7bc","system_id":"levelo_inurba_marseille","lat":43.27988,"lon":5.40009,"is_reserved":false,"is_disabled":false,"rental_uris":{"android":"levelo://app?vid=4257ce27-d4f9-4a49-a222-c5a5ef7fd7bc","ios":"levelo://app?vid=4257ce27-d4f9-4a49-a222-c5a5ef7fd7bc"},"vehicle_type_id":"4","last_reported":1771307459,"current_range_meters":21600,"station_id":"ce4bho92rcd13ifvqh4g","pricing_plan_id":"cebpf4jnsgd1na2vs0mg"},{"bike_id":"504d0a5c-6d34-4e6e-b049-b85598e8a815","system_id":"levelo_inurba_marseille","lat":43.292339,"lon":5.360534,"is_reserved":false,"is_disabled":false,"rental_uris":{"android":"levelo://app?vid=504d0a5c-6d34-4e6e-b049-b85598e8a815","ios":"levelo://app?vid=504d0a5c-6d34-4e6e-b049-b85598e8a815"},"vehicle_type_id":"4","last_reported":1771307459,"current_range_meters":33600,"station_id":"ce4bhbh2rcd13ifvqeqg","pricing_plan_id":"cebpf4jnsgd1na2vs0mg"},{"bike_id":"8d6535f0-b219-41a9-a5bf-28d07bb13e74","system_id":"levelo_inurba_marseille","lat":43.31221,"lon":5.36868,"is_reserved":false,"is_disabled":false,"rental_uris":{"android":"levelo://app?vid=8d6535f0-b219-41a9-a5bf-28d07bb13e74","ios":"levelo://app?vid=8d6535f0-b219-41a9-a5bf-28d07bb13e74"},"vehicle_type_id":"4","last_reported":1771307459,"current_range_meters":18800,"station_id":"ce4bgl92rcd13ifvqbq0","pricing_plan_id":"cebpf4jnsgd1na2vs0mg"},{"bike_id":"f56b6e75-070e-4148-9d41-956869c01c1e","system_id":"levelo_inurba_marseille","lat":43.29226,"lon":5.36035,"is_reserved":false,"is_disabled":false,"rental_uris":{"android":"levelo://app?vid=f56b6e75-070e-4148-9d41-956869c01c1e","ios":"levelo://app?vid=f56b6e75-070e-4148-9d41-956869c01c1e"},"vehicle_type_id":"4","last_reported":1771307459,"current_range_meters":38800,"station_id":"ce4bhbh2rcd13ifvqeqg","pricing_plan_id":"cebpf4jnsgd1na2vs0mg"},{"bike_id":"ef43f5b3-0267-470e-a7be-73b400aa2eff","system_id":"levelo_inurba_marseille","lat":43.25097,"lon":5.40324,"is_reserved":false,"is_disabled":false,"rental_uris":{"android":"levelo://app?vid=ef43f5b3-0267-470e-a7be-73b400aa2eff","ios":"levelo://app?vid=ef43f5b3-0267-470e-a7be-73b400aa2eff"},"vehicle_type_id":"4","last_reported":1771307459,"current_range_meters":32000,"station_id":"ce4bhlh2rcd13ifvqgig","pricing_plan_id":"cebpf4jnsgd1na2vs0mg"},{"bike_id":"b0b27d44-1805-4226-9f29-7db67902ed5c","system_id":"levelo_inurba_marseille","lat":43.26562,"lon":5.38994,"is_reserved":false,"is_disabled":false,"rental_uris":{"android":"levelo://app?vid=b0b27d44-1805-4226-9f29-7db67902ed5c","ios":"levelo://app?vid=b0b27d44-1805-4226-9f29-7db67902ed5c"},"vehicle_type_id":"4","last_reported":1771307459,"current_range_meters":17200,"station_id":"ce4bhe12rcd13ifvqf30","pricing_plan_id":"cebpf4jnsgd1na2vs0mg"},{"bike_id":"eec2b693-13ce-4375-854a-cf1c0218edcf","system_id":"levelo_inurba_marseille","lat":43.3202,"lon":5.41501,"is_reserved":false,"is_disabled":false,"rental_uris":{"android":"levelo://app?vid=eec2b693-13ce-4375-854a-cf1c0218edcf","ios":"levelo://app?vid=eec2b693-13ce-4375-854a-cf1c0218edcf"},"vehicle_type_id":"4","last_reported":1771307459,"current_range_meters":40000,"station_id":"ce4bhq92rcd13ifvqhkg","pricing_plan_id":"cebpf4jnsgd1na2vs0mg"},{"bike_id":"a9b6b997-8c46-4bfb-b55c-630ac467f299","system_id":"levelo_inurba_marseille","lat":43.28935,"lon":5.36631,"is_reserved":false,"is_disabled":false,"rental_uris":{"android":"levelo://app?vid=a9b6b997-8c46-4bfb-b55c-630ac467f299","ios":"levelo://app?vid=a9b6b997-8c46-4bfb-b55c-630ac467f299"},"vehicle_type_id":"4","last_reported":1771307459,"current_range_meters":39200,"station_id":"ce4bhap2rcd13ifvqek0","pricing_plan_id":"cebpf4jnsgd1na2vs0mg"},{"bike_id":"bdf44c1c-05c7-431c-b042-833d1b922014","system_id":"levelo_inurba_marseille","lat":43.31492,"lon":5.37302,"is_reserved":false,"is_disabled":false,"rental_uris":{"android":"levelo://app?vid=bdf44c1c-05c7-431c-b042-833d1b922014","ios":"levelo://app?vid=bdf44c1c-05c7-431c-b042-833d1b922014"},"vehicle_type_id":"4","last_reported":1771307459,"current_range_meters":37600,"station_id":"ce4bgt12rcd13ifvqcd0","pricing_plan_id":"cebpf4jnsgd1na2vs0mg"},{"bike_id":"8ea4ca7b-6594-418d-9806-5e7e471eb99e","system_id":"levelo_inurba_marseille","lat":43.28917,"lon":5.38395,"is_reserved":false,"is_disabled":true,"rental_uris":{"android":"levelo://app?vid=8ea4ca7b-6594-418d-9806-5e7e471eb99e","ios":"levelo://app?vid=8ea4ca7b-6594-418d-9806-5e7e471eb99e"},"vehicle_type_id":"4","last_reported":1771307459,"current_range_meters":33200,"station_id":"ce4bh612rcd13ifvqe6g","pricing_plan_id":"cebpf4jnsgd1na2vs0mg"},{"bike_id":"3b4377ca-fc09-4041-8519-6fa3dd2f3815","system_id":"levelo_inurba_marseille","lat":43.26069,"lon":5.39398,"is_reserved":false,"is_disabled":false,"rental_uris":{"android":"levelo://app?vid=3b4377ca-fc09-4041-8519-6fa3dd2f3815","ios":"levelo://app?vid=3b4377ca-fc09-4041-8519-6fa3dd2f3815"},"vehicle_type_id":"4","last_reported":1771307459,"current_range_meters":9200,"station_id":"ce4bhh92rcd13ifvqfj0","pricing_plan_id":"cebpf4jnsgd1na2vs0mg"},{"bike_id":"bd57a2df-0af9-418a-abbc-52f550267591","system_id":"levelo_inurba_marseille","lat":43.225346,"lon":5.348248,"is_reserved":false,"is_disabled":true,"rental_uris":{"android":"levelo://app?vid=bd57a2df-0af9-418a-abbc-52f550267591","ios":"levelo://app?vid=bd57a2df-0af9-418a-abbc-52f550267591"},"vehicle_type_id":"4","last_reported":1771307459,"current_range_meters":0,"station_id":"st_cvj5dfep6f1abm77gieg","pricing_plan_id":"cebpf4jnsgd1na2vs0mg"},{"bike_id":"1db36d72-99e8-4e00-88f9-f9fb01bcde64","system_id":"levelo_inurba_marseille","lat":43.25846,"lon":5.39464,"is_reserved":false,"is_disabled":false,"rental_uris":{"android":"levelo://app?vid=1db36d72-99e8-4e00-88f9-f9fb01bcde64","ios":"levelo://app?vid=1db36d72-99e8-4e00-88f9-f9fb01bcde64"},"vehicle_type_id":"4","last_reported":1771307459,"current_range_meters":38800,"station_id":"ce4bhip2rcd13ifvqft0","pricing_plan_id":"cebpf4jnsgd1na2vs0mg"},{"bike_id":"a5440106-434a-4e67-a4cb-72bf9b881aba","system_id":"levelo_inurba_marseille","lat":43.30101,"lon":5.39098,"is_reserved":false,"is_disabled":false,"rental_uris":{"android":"levelo://app?vid=a5440106-434a-4e67-a4cb-72bf9b881aba","ios":"levelo://app?vid=a5440106-434a-4e67-a4cb-72bf9b881aba"},"vehicle_type_id":"4","last_reported":1771307459,"current_range_meters":27600,"station_id":"ce4bh192rcd13ifvqdb0","pricing_plan_id":"cebpf4jnsgd1na2vs0mg"},{"bike_id":"acf5c087-33f1-469f-8ec0-bd478f6eb4c3","system_id":"levelo_inurba_marseille","lat":43.290476,"lon":5.359114,"is_reserved":false,"is_disabled":false,"rental_uris":{"android":"levelo://app?vid=acf5c087-33f1-469f-8ec0-bd478f6eb4c3","ios":"levelo://app?vid=acf5c087-33f1-469f-8ec0-bd478f6eb4c3"},"vehicle_type_id":"4","last_reported":1771307459,"current_range_meters":39200,"station_id":"ce4bha92rcd13ifvqeg0","pricing_plan_id":"cebpf4jnsgd1na2vs0mg"},{"bike_id":"a2ec2a5e-226f-4171-88c8-e8d9b281ad34","system_id":"levelo_inurba_marseille","lat":43.29631,"lon":5.40635,"is_reserved":false,"is_disabled":false,"rental_uris":{"android":"levelo://app?vid=a2ec2a5e-226f-4171-88c8-e8d9b281ad34","ios":"levelo://app?vid=a2ec2a5e-226f-4171-88c8-e8d9b281ad34"},"vehicle_type_id":"4","last_reported":1771307459,"current_range_meters":37600,"station_id":"ce4bh0h2rcd13ifvqd60","pricing_plan_id":"cebpf4jnsgd1na2vs0mg"},{"bike_id":"3a8b0c7f-41cf-44c3-a8a9-08cd3e74cfd1","system_id":"levelo_inurba_marseille","lat":43.31493,"lon":5.37305,"is_reserved":false,"is_disabled":false,"rental_uris":{"android":"levelo://app?vid=3a8b0c7f-41cf-44c3-a8a9-08cd3e74cfd1","ios":"levelo://app?vid=3a8b0c7f-41cf-44c3-a8a9-08cd3e74cfd1"},"vehicle_type_id":"4","last_reported":1771307459,"current_range_meters":39200,"station_id":"ce4bgt12rcd13ifvqcd0","pricing_plan_id":"cebpf4jnsgd1na2vs0mg"},{"bike_id":"80e19425-1557-472d-a368-fcf158873d8f","system_id":"levelo_inurba_marseille","lat":43.27623,"lon":5.36117,"is_reserved":false,"is_disabled":false,"rental_uris":{"android":"levelo://app?vid=80e19425-1557-472d-a368-fcf158873d8f","ios":"levelo://app?vid=80e19425-1557-472d-a368-fcf158873d8f"},"vehicle_type_id":"4","last_reported":1771307459,"current_range_meters":39200,"station_id":"ce4bgj92rcd13ifvqbe0","pricing_plan_id":"cebpf4jnsgd1na2vs0mg"},{"bike_id":"4dcbf679-cdd4-4ee9-878d-44ab492dd40a","system_id":"levelo_inurba_marseille","lat":43.29222,"lon":5.36051,"is_reserved":false,"is_disabled":false,"rental_uris":{"android":"levelo://app?vid=4dcbf679-cdd4-4ee9-878d-44ab492dd40a","ios":"levelo://app?vid=4dcbf679-cdd4-4ee9-878d-44ab492dd40a"},"vehicle_type_id":"4","last_reported":1771307459,"current_range_meters":39200,"station_id":"ce4bhbh2rcd13ifvqeqg","pricing_plan_id":"cebpf4jnsgd1na2vs0mg"},{"bike_id":"b588c612-66a2-412a-bcfa-615a774bd491","system_id":"levelo_inurba_marseille","lat":43.24999,"lon":5.38926,"is_reserved":false,"is_disabled":false,"rental_uris":{"android":"levelo://app?vid=b588c612-66a2-412a-bcfa-615a774bd491","ios":"levelo://app?vid=b588c612-66a2-412a-bcfa-615a774bd491"},"vehicle_type_id":"4","last_reported":1771307459,"current_range_meters":39200,"station_id":"ce4bhgp2rcd13ifvqfd0","pricing_plan_id":"cebpf4jnsgd1na2vs0mg"},{"bike_id":"9a71aafb-3414-42bb-a93e-c329b1fce7db","system_id":"levelo_inurba_marseille","lat":43.25829,"lon":5.39428,"is_reserved":false,"is_disabled":false,"rental_uris":{"android":"levelo://app?vid=9a71aafb-3414-42bb-a93e-c329b1fce7db","ios":"levelo://app?vid=9a71aafb-3414-42bb-a93e-c329b1fce7db"},"vehicle_type_id":"4","last_reported":1771307459,"current_range_meters":30000,"station_id":"ce4bhip2rcd13ifvqft0","pricing_plan_id":"cebpf4jnsgd1na2vs0mg"},{"bike_id":"88301f0b-9114-4fa7-9465-175f31eb8a58","system_id":"levelo_inurba_marseille","lat":43.30441,"lon":5.38892,"is_reserved":false,"is_disabled":false,"rental_uris":{"android":"levelo://app?vid=88301f0b-9114-4fa7-9465-175f31eb8a58","ios":"levelo://app?vid=88301f0b-9114-4fa7-9465-175f31eb8a58"},"vehicle_type_id":"4","last_reported":1771307459,"current_range_meters":28800,"station_id":"ce4bgk12rcd13ifvqbi0","pricing_plan_id":"cebpf4jnsgd1na2vs0mg"},{"bike_id":"67c28a86-bb36-4b32-af54-143677bf63e8","system_id":"levelo_inurba_marseille","lat":43.27336,"lon":5.39077,"is_reserved":false,"is_disabled":false,"rental_uris":{"android":"levelo://app?vid=67c28a86-bb36-4b32-af54-143677bf63e8","ios":"levelo://app?vid=67c28a86-bb36-4b32-af54-143677bf63e8"},"vehicle_type_id":"4","last_reported":1771307459,"current_range_meters":28000,"station_id":"ce4bhgp2rcd13ifvqfe0","pricing_plan_id":"cebpf4jnsgd1na2vs0mg"},{"bike_id":"40a2d767-9a8e-4aa3-bded-343bcd3a8041","system_id":"levelo_inurba_marseille","lat":43.24227,"lon":5.3639,"is_reserved":false,"is_disabled":false,"rental_uris":{"android":"levelo://app?vid=40a2d767-9a8e-4aa3-bded-343bcd3a8041","ios":"levelo://app?vid=40a2d767-9a8e-4aa3-bded-343bcd3a8041"},"vehicle_type_id":"4","last_reported":1771307459,"current_range_meters":5600,"station_id":"cpo36qri1sfpv3e86is0","pricing_plan_id":"cebpf4jnsgd1na2vs0mg"},{"bike_id":"82724e13-9500-4101-a567-fc5a4b7838d1","system_id":"levelo_inurba_marseille","lat":43.26375,"lon":5.41085,"is_reserved":false,"is_disabled":false,"rental_uris":{"android":"levelo://app?vid=82724e13-9500-4101-a567-fc5a4b7838d1","ios":"levelo://app?vid=82724e13-9500-4101-a567-fc5a4b7838d1"},"vehicle_type_id":"4","last_reported":1771307459,"current_range_meters":9600,"station_id":"st_d4e5ca6na9uc73bfl5fg","pricing_plan_id":"cebpf4jnsgd1na2vs0mg"},{"bike_id":"20a150e4-0b5d-4bdc-83e9-21ce88af06ab","system_id":"levelo_inurba_marseille","lat":43.29215,"lon":5.36069,"is_reserved":false,"is_disabled":false,"rental_uris":{"android":"levelo://app?vid=20a150e4-0b5d-4bdc-83e9-21ce88af06ab","ios":"levelo://app?vid=20a150e4-0b5d-4bdc-83e9-21ce88af06ab"},"vehicle_type_id":"4","last_reported":1771307459,"current_range_meters":37600,"station_id":"ce4bhbh2rcd13ifvqeqg","pricing_plan_id":"cebpf4jnsgd1na2vs0mg"},{"bike_id":"291fd895-74ca-4810-9b4d-355f11692100","system_id":"levelo_inurba_marseille","lat":43.27967,"lon":5.38742,"is_reserved":false,"is_disabled":false,"rental_uris":{"android":"levelo://app?vid=291fd895-74ca-4810-9b4d-355f11692100","ios":"levelo://app?vid=291fd895-74ca-4810-9b4d-355f11692100"},"vehicle_type_id":"4","last_reported":1771307459,"current_range_meters":34800,"station_id":"ce4bhg12rcd13ifvqf80","pricing_plan_id":"cebpf4jnsgd1na2vs0mg"},{"bike_id":"53022a12-fe7d-4e6a-8699-1199ba146b98","system_id":"levelo_inurba_marseille","lat":43.291924,"lon":5.35806,"is_reserved":false,"is_disabled":false,"rental_uris":{"android":"levelo://app?vid=53022a12-fe7d-4e6a-8699-1199ba146b98","ios":"levelo://app?vid=53022a12-fe7d-4e6a-8699-1199ba146b98"},"vehicle_type_id":"4","last_reported":1771307459,"current_range_meters":16800,"station_id":"ce4bhb12rcd13ifvqel0","pricing_plan_id":"cebpf4jnsgd1na2vs0mg"},{"bike_id":"55d2f36a-9a72-4961-bbdb-5937e41fb5f7","system_id":"levelo_inurba_marseille","lat":43.31059,"lon":5.37184,"is_reserved":false,"is_disabled":false,"rental_uris":{"android":"levelo://app?vid=55d2f36a-9a72-4961-bbdb-5937e41fb5f7","ios":"levelo://app?vid=55d2f36a-9a72-4961-bbdb-5937e41fb5f7"},"vehicle_type_id":"4","last_reported":1771307459,"current_range_meters":29600,"station_id":"st_d4kl2rp97mjs73e7tdfg","pricing_plan_id":"cebpf4jnsgd1na2vs0mg"},{"bike_id":"10f73f9c-f901-486a-8d95-095308f34947","system_id":"levelo_inurba_marseille","lat":43.30125,"lon":5.39868,"is_reserved":false,"is_disabled":false,"rental_uris":{"android":"levelo://app?vid=10f73f9c-f901-486a-8d95-095308f34947","ios":"levelo://app?vid=10f73f9c-f901-486a-8d95-095308f34947"},"vehicle_type_id":"4","last_reported":1771307459,"current_range_meters":39200,"station_id":"ce4bh0h2rcd13ifvqd40","pricing_plan_id":"cebpf4jnsgd1na2vs0mg"},{"bike_id":"8e4d0fb2-0b0a-434c-902e-d3ab3497cc31","system_id":"levelo_inurba_marseille","lat":43.28157,"lon":5.42657,"is_reserved":false,"is_disabled":false,"rental_uris":{"android":"levelo://app?vid=8e4d0fb2-0b0a-434c-902e-d3ab3497cc31","ios":"levelo://app?vid=8e4d0fb2-0b0a-434c-902e-d3ab3497cc31"},"vehicle_type_id":"4","last_reported":1771307459,"current_range_meters":39200,"station_id":"ce4bhnh2rcd13ifvqgug","pricing_plan_id":"cebpf4jnsgd1na2vs0mg"},{"bike_id":"9c9302ed-c2af-40cd-9047-f491de3d893a","system_id":"levelo_inurba_marseille","lat":43.24663,"lon":5.43132,"is_reserved":false,"is_disabled":false,"rental_uris":{"android":"levelo://app?vid=9c9302ed-c2af-40cd-9047-f491de3d893a","ios":"levelo://app?vid=9c9302ed-c2af-40cd-9047-f491de3d893a"},"vehicle_type_id":"4","last_reported":1771307459,"current_range_meters":14000,"station_id":"st_d2m6c4gdas8pm72e190g","pricing_plan_id":"cebpf4jnsgd1na2vs0mg"},{"bike_id":"fd9c3725-bee1-4267-b8e2-a13570a18b21","system_id":"levelo_inurba_marseille","lat":43.29819,"lon":5.39301,"is_reserved":false,"is_disabled":false,"rental_uris":{"android":"levelo://app?vid=fd9c3725-bee1-4267-b8e2-a13570a18b21","ios":"levelo://app?vid=fd9c3725-bee1-4267-b8e2-a13570a18b21"},"vehicle_type_id":"4","last_reported":1771307459,"current_range_meters":39200,"station_id":"chh1huq6cuj3fo74tm60","pricing_plan_id":"cebpf4jnsgd1na2vs0mg"},{"bike_id":"addd33a1-5186-4324-b702-4ac89f3f7ce6","system_id":"levelo_inurba_marseille","lat":43.26064,"lon":5.39395,"is_reserved":false,"is_disabled":false,"rental_uris":{"android":"levelo://app?vid=addd33a1-5186-4324-b702-4ac89f3f7ce6","ios":"levelo://app?vid=addd33a1-5186-4324-b702-4ac89f3f7ce6"},"vehicle_type_id":"4","last_reported":1771307459,"current_range_meters":30000,"station_id":"ce4bhh92rcd13ifvqfj0","pricing_plan_id":"cebpf4jnsgd1na2vs0mg"},{"bike_id":"27980297-bf5f-4d64-811d-5e0f3f3b71dd","system_id":"levelo_inurba_marseille","lat":43.2468,"lon":5.38098,"is_reserved":false,"is_disabled":false,"rental_uris":{"android":"levelo://app?vid=27980297-bf5f-4d64-811d-5e0f3f3b71dd","ios":"levelo://app?vid=27980297-bf5f-4d64-811d-5e0f3f3b71dd"},"vehicle_type_id":"4","last_reported":1771307459,"current_range_meters":32400,"station_id":"ce4bhih2rcd13ifvqfr0","pricing_plan_id":"cebpf4jnsgd1na2vs0mg"},{"bike_id":"9b5505e5-e9dc-4184-902c-d7980dbe091f","system_id":"levelo_inurba_marseille","lat":43.25578,"lon":5.38251,"is_reserved":false,"is_disabled":false,"rental_uris":{"android":"levelo://app?vid=9b5505e5-e9dc-4184-902c-d7980dbe091f","ios":"levelo://app?vid=9b5505e5-e9dc-4184-902c-d7980dbe091f"},"vehicle_type_id":"4","last_reported":1771307459,"current_range_meters":21600,"station_id":"ce4bhih2rcd13ifvqfs0","pricing_plan_id":"cebpf4jnsgd1na2vs0mg"},{"bike_id":"41db5ac7-a70f-400b-aeb3-8ce802401f0b","system_id":"levelo_inurba_marseille","lat":43.29023,"lon":5.38131,"is_reserved":false,"is_disabled":false,"rental_uris":{"android":"levelo://app?vid=41db5ac7-a70f-400b-aeb3-8ce802401f0b","ios":"levelo://app?vid=41db5ac7-a70f-400b-aeb3-8ce802401f0b"},"vehicle_type_id":"4","last_reported":1771307459,"current_range_meters":38400,"station_id":"ce4bh4p2rcd13ifvqe1g","pricing_plan_id":"cebpf4jnsgd1na2vs0mg"},{"bike_id":"88353c84-bf04-4df4-ba4f-667293e40e11","system_id":"levelo_inurba_marseille","lat":43.27959,"lon":5.38733,"is_reserved":false,"is_disabled":false,"rental_uris":{"android":"levelo://app?vid=88353c84-bf04-4df4-ba4f-667293e40e11","ios":"levelo://app?vid=88353c84-bf04-4df4-ba4f-667293e40e11"},"vehicle_type_id":"4","last_reported":1771307459,"current_range_meters":36800,"station_id":"ce4bhg12rcd13ifvqf80","pricing_plan_id":"cebpf4jnsgd1na2vs0mg"},{"bike_id":"f534b28d-e192-4bf7-a558-85c8707f4595","system_id":"levelo_inurba_marseille","lat":43.31241,"lon":5.36867,"is_reserved":false,"is_disabled":false,"rental_uris":{"android":"levelo://app?vid=f534b28d-e192-4bf7-a558-85c8707f4595","ios":"levelo://app?vid=f534b28d-e192-4bf7-a558-85c8707f4595"},"vehicle_type_id":"4","last_reported":1771307459,"current_range_meters":30000,"station_id":"","pricing_plan_id":"cebpf4jnsgd1na2vs0mg"},{"bike_id":"099ae8cc-79c3-4957-b851-779e2c6abde9","system_id":"levelo_inurba_marseille","lat":43.32383,"lon":5.38881,"is_reserved":false,"is_disabled":true,"rental_uris":{"android":"levelo://app?vid=099ae8cc-79c3-4957-b851-779e2c6abde9","ios":"levelo://app?vid=099ae8cc-79c3-4957-b851-779e2c6abde9"},"vehicle_type_id":"4","last_reported":1771307459,"current_range_meters":26000,"station_id":"ce4bhqp2rcd13ifvqhog","pricing_plan_id":"cebpf4jnsgd1na2vs0mg"},{"bike_id":"dcb46e53-479a-4eb4-80ee-4c4b8b773271","system_id":"levelo_inurba_marseille","lat":43.28686,"lon":5.3549,"is_reserved":false,"is_disabled":true,"rental_uris":{"android":"levelo://app?vid=dcb46e53-479a-4eb4-80ee-4c4b8b773271","ios":"levelo://app?vid=dcb46e53-479a-4eb4-80ee-4c4b8b773271"},"vehicle_type_id":"4","last_reported":1771307459,"current_range_meters":38800,"station_id":"","pricing_plan_id":"cebpf4jnsgd1na2vs0mg"},{"bike_id":"6d3a826c-88c9-4a8c-9c43-415d2b4390c4","system_id":"levelo_inurba_marseille","lat":43.26024,"lon":5.37554,"is_reserved":false,"is_disabled":false,"rental_uris":{"android":"levelo://app?vid=6d3a826c-88c9-4a8c-9c43-415d2b4390c4","ios":"levelo://app?vid=6d3a826c-88c9-4a8c-9c43-415d2b4390c4"},"vehicle_type_id":"4","last_reported":1771307459,"current_range_meters":38000,"station_id":"ce4bhgh2rcd13ifvqfa0","pricing_plan_id":"cebpf4jnsgd1na2vs0mg"},{"bike_id":"39c0bb6d-c266-41ba-b23c-298cf81c4a32","system_id":"levelo_inurba_marseille","lat":43.2826,"lon":5.35079,"is_reserved":false,"is_disabled":false,"rental_uris":{"android":"levelo://app?vid=39c0bb6d-c266-41ba-b23c-298cf81c4a32","ios":"levelo://app?vid=39c0bb6d-c266-41ba-b23c-298cf81c4a32"},"vehicle_type_id":"4","last_reported":1771307459,"current_range_meters":20000,"station_id":"ce4bhbp2rcd13ifvqerg","pricing_plan_id":"cebpf4jnsgd1na2vs0mg"},{"bike_id":"ddba2646-783b-4a45-9379-a692041ebbce","system_id":"levelo_inurba_marseille","lat":43.29244,"lon":5.38473,"is_reserved":false,"is_disabled":false,"rental_uris":{"android":"levelo://app?vid=ddba2646-783b-4a45-9379-a692041ebbce","ios":"levelo://app?vid=ddba2646-783b-4a45-9379-a692041ebbce"},"vehicle_type_id":"4","last_reported":1771307459,"current_range_meters":38000,"station_id":"ce4bh692rcd13ifvqea0","pricing_plan_id":"cebpf4jnsgd1na2vs0mg"},{"bike_id":"e8c782a2-38e1-49b2-9d0c-e0d2448ef51c","system_id":"levelo_inurba_marseille","lat":43.29174,"lon":5.37211,"is_reserved":false,"is_disabled":false,"rental_uris":{"android":"levelo://app?vid=e8c782a2-38e1-49b2-9d0c-e0d2448ef51c","ios":"levelo://app?vid=e8c782a2-38e1-49b2-9d0c-e0d2448ef51c"},"vehicle_type_id":"4","last_reported":1771307459,"current_range_meters":37600,"station_id":"ce4bha92rcd13ifvqeh0","pricing_plan_id":"cebpf4jnsgd1na2vs0mg"},{"bike_id":"ee520404-8764-4e6d-9db7-583906d777d1","system_id":"levelo_inurba_marseille","lat":43.28619,"lon":5.3511,"is_reserved":false,"is_disabled":false,"rental_uris":{"android":"levelo://app?vid=ee520404-8764-4e6d-9db7-583906d777d1","ios":"levelo://app?vid=ee520404-8764-4e6d-9db7-583906d777d1"},"vehicle_type_id":"4","last_reported":1771307459,"current_range_meters":22400,"station_id":"ce4bhch2rcd13ifvqeug","pricing_plan_id":"cebpf4jnsgd1na2vs0mg"},{"bike_id":"d7b9bab2-8c15-4f04-b30d-9182fb77c28b","system_id":"levelo_inurba_marseille","lat":43.27455,"lon":5.42443,"is_reserved":false,"is_disabled":false,"rental_uris":{"android":"levelo://app?vid=d7b9bab2-8c15-4f04-b30d-9182fb77c28b","ios":"levelo://app?vid=d7b9bab2-8c15-4f04-b30d-9182fb77c28b"},"vehicle_type_id":"4","last_reported":1771307459,"current_range_meters":12000,"station_id":"","pricing_plan_id":"cebpf4jnsgd1na2vs0mg"},{"bike_id":"e88e9a36-a858-4e44-81a0-0062d41c944f","system_id":"levelo_inurba_marseille","lat":43.31531,"lon":5.38028,"is_reserved":false,"is_disabled":false,"rental_uris":{"android":"levelo://app?vid=e88e9a36-a858-4e44-81a0-0062d41c944f","ios":"levelo://app?vid=e88e9a36-a858-4e44-81a0-0062d41c944f"},"vehicle_type_id":"4","last_reported":1771307459,"current_range_meters":38400,"station_id":"ce4bhsp2rcd13ifvqi50","pricing_plan_id":"cebpf4jnsgd1na2vs0mg"},{"bike_id":"3cd8e674-f2df-4abf-b06c-c0245679bc5d","system_id":"levelo_inurba_marseille","lat":43.30891,"lon":5.36842,"is_reserved":false,"is_disabled":false,"rental_uris":{"android":"levelo://app?vid=3cd8e674-f2df-4abf-b06c-c0245679bc5d","ios":"levelo://app?vid=3cd8e674-f2df-4abf-b06c-c0245679bc5d"},"vehicle_type_id":"4","last_reported":1771307459,"current_range_meters":28400,"station_id":"ce4bgn92rcd13ifvqbvg","pricing_plan_id":"cebpf4jnsgd1na2vs0mg"},{"bike_id":"bb34c2fb-eab5-4ef3-ac7b-c26277781476","system_id":"levelo_inurba_marseille","lat":43.30132,"lon":5.38783,"is_reserved":false,"is_disabled":false,"rental_uris":{"android":"levelo://app?vid=bb34c2fb-eab5-4ef3-ac7b-c26277781476","ios":"levelo://app?vid=bb34c2fb-eab5-4ef3-ac7b-c26277781476"},"vehicle_type_id":"4","last_reported":1771307459,"current_range_meters":30400,"station_id":"ce4bghh2rcd13ifvqb60","pricing_plan_id":"cebpf4jnsgd1na2vs0mg"},{"bike_id":"e7c8efd4-9e0a-418a-992f-820d37a4bd29","system_id":"levelo_inurba_marseille","lat":43.303208,"lon":5.402683,"is_reserved":false,"is_disabled":false,"rental_uris":{"android":"levelo://app?vid=e7c8efd4-9e0a-418a-992f-820d37a4bd29","ios":"levelo://app?vid=e7c8efd4-9e0a-418a-992f-820d37a4bd29"},"vehicle_type_id":"4","last_reported":1771307459,"current_range_meters":12800,"station_id":"","pricing_plan_id":"cebpf4jnsgd1na2vs0mg"},{"bike_id":"279a69f9-1457-40fd-894b-68248c11b6e7","system_id":"levelo_inurba_marseille","lat":43.26392,"lon":5.41083,"is_reserved":false,"is_disabled":false,"rental_uris":{"android":"levelo://app?vid=279a69f9-1457-40fd-894b-68248c11b6e7","ios":"levelo://app?vid=279a69f9-1457-40fd-894b-68248c11b6e7"},"vehicle_type_id":"4","last_reported":1771307459,"current_range_meters":27600,"station_id":"st_d4e5ca6na9uc73bfl5fg","pricing_plan_id":"cebpf4jnsgd1na2vs0mg"},{"bike_id":"6e14feb7-753c-4804-bdc9-e912ef41a703","system_id":"levelo_inurba_marseille","lat":43.24383,"lon":5.37057,"is_reserved":false,"is_disabled":false,"rental_uris":{"android":"levelo://app?vid=6e14feb7-753c-4804-bdc9-e912ef41a703","ios":"levelo://app?vid=6e14feb7-753c-4804-bdc9-e912ef41a703"},"vehicle_type_id":"4","last_reported":1771307459,"current_range_meters":29600,"station_id":"ce4bhhh2rcd13ifvqfk0","pricing_plan_id":"cebpf4jnsgd1na2vs0mg"},{"bike_id":"2dd47143-fcce-4d1c-b676-78c1b5bba6e2","system_id":"levelo_inurba_marseille","lat":43.24803,"lon":5.37461,"is_reserved":false,"is_disabled":false,"rental_uris":{"android":"levelo://app?vid=2dd47143-fcce-4d1c-b676-78c1b5bba6e2","ios":"levelo://app?vid=2dd47143-fcce-4d1c-b676-78c1b5bba6e2"},"vehicle_type_id":"4","last_reported":1771307459,"current_range_meters":3200,"station_id":"ce4bhgh2rcd13ifvqfb0","pricing_plan_id":"cebpf4jnsgd1na2vs0mg"},{"bike_id":"a2989192-8d09-4174-ab11-6beee2d42145","system_id":"levelo_inurba_marseille","lat":43.313652,"lon":5.36703,"is_reserved":false,"is_disabled":false,"rental_uris":{"android":"levelo://app?vid=a2989192-8d09-4174-ab11-6beee2d42145","ios":"levelo://app?vid=a2989192-8d09-4174-ab11-6beee2d42145"},"vehicle_type_id":"4","last_reported":1771307459,"current_range_meters":32400,"station_id":"ce4bgrh2rcd13ifvqc8g","pricing_plan_id":"cebpf4jnsgd1na2vs0mg"},{"bike_id":"937f3d25-b848-495b-a330-e41b28ba6403","system_id":"levelo_inurba_marseille","lat":43.24077,"lon":5.37741,"is_reserved":false,"is_disabled":false,"rental_uris":{"android":"levelo://app?vid=937f3d25-b848-495b-a330-e41b28ba6403","ios":"levelo://app?vid=937f3d25-b848-495b-a330-e41b28ba6403"},"vehicle_type_id":"4","last_reported":1771307459,"current_range_meters":38800,"station_id":"ce4bhnp2rcd13ifvqgvg","pricing_plan_id":"cebpf4jnsgd1na2vs0mg"},{"bike_id":"5c19a68c-a5f2-490e-a5e5-a372f94da25c","system_id":"levelo_inurba_marseille","lat":43.29027,"lon":5.37565,"is_reserved":false,"is_disabled":false,"rental_uris":{"android":"levelo://app?vid=5c19a68c-a5f2-490e-a5e5-a372f94da25c","ios":"levelo://app?vid=5c19a68c-a5f2-490e-a5e5-a372f94da25c"},"vehicle_type_id":"4","last_reported":1771307459,"current_range_meters":38400,"station_id":"ce4bh692rcd13ifvqe90","pricing_plan_id":"cebpf4jnsgd1na2vs0mg"},{"bike_id":"6b9694b3-51f3-4a5e-a18f-3a0341ea4e2d","system_id":"levelo_inurba_marseille","lat":43.29851,"lon":5.36242,"is_reserved":false,"is_disabled":false,"rental_uris":{"android":"levelo://app?vid=6b9694b3-51f3-4a5e-a18f-3a0341ea4e2d","ios":"levelo://app?vid=6b9694b3-51f3-4a5e-a18f-3a0341ea4e2d"},"vehicle_type_id":"4","last_reported":1771307459,"current_range_meters":18800,"station_id":"ce4bgpp2rcd13ifvqc3g","pricing_plan_id":"cebpf4jnsgd1na2vs0mg"},{"bike_id":"7cdcc1b2-92de-42b2-a7cd-06b9eab80f75","system_id":"levelo_inurba_marseille","lat":43.29573,"lon":5.3997,"is_reserved":false,"is_disabled":false,"rental_uris":{"android":"levelo://app?vid=7cdcc1b2-92de-42b2-a7cd-06b9eab80f75","ios":"levelo://app?vid=7cdcc1b2-92de-42b2-a7cd-06b9eab80f75"},"vehicle_type_id":"4","last_reported":1771307459,"current_range_meters":6800,"station_id":"ce4bh312rcd13ifvqdj0","pricing_plan_id":"cebpf4jnsgd1na2vs0mg"},{"bike_id":"834013b6-24d6-4cde-b39c-d15c054425ae","system_id":"levelo_inurba_marseille","lat":43.29561,"lon":5.375,"is_reserved":false,"is_disabled":true,"rental_uris":{"android":"levelo://app?vid=834013b6-24d6-4cde-b39c-d15c054425ae","ios":"levelo://app?vid=834013b6-24d6-4cde-b39c-d15c054425ae"},"vehicle_type_id":"4","last_reported":1771307459,"current_range_meters":39200,"station_id":"ce4bgh92rcd13ifvqb50","pricing_plan_id":"cebpf4jnsgd1na2vs0mg"},{"bike_id":"21fd07e1-caf4-4951-a83f-0bb4c9d8a5cf","system_id":"levelo_inurba_marseille","lat":43.2655,"lon":5.37298,"is_reserved":false,"is_disabled":false,"rental_uris":{"android":"levelo://app?vid=21fd07e1-caf4-4951-a83f-0bb4c9d8a5cf","ios":"levelo://app?vid=21fd07e1-caf4-4951-a83f-0bb4c9d8a5cf"},"vehicle_type_id":"4","last_reported":1771307459,"current_range_meters":20800,"station_id":"ce4bhg12rcd13ifvqf70","pricing_plan_id":"cebpf4jnsgd1na2vs0mg"},{"bike_id":"8e71ac91-0568-45e8-9b6a-a8c9ae9c07db","system_id":"levelo_inurba_marseille","lat":43.31231,"lon":5.36877,"is_reserved":false,"is_disabled":false,"rental_uris":{"android":"levelo://app?vid=8e71ac91-0568-45e8-9b6a-a8c9ae9c07db","ios":"levelo://app?vid=8e71ac91-0568-45e8-9b6a-a8c9ae9c07db"},"vehicle_type_id":"4","last_reported":1771307459,"current_range_meters":38000,"station_id":"ce4bgl92rcd13ifvqbq0","pricing_plan_id":"cebpf4jnsgd1na2vs0mg"},{"bike_id":"6e162cf7-1f7d-4120-9d73-84a7a23edeec","system_id":"levelo_inurba_marseille","lat":43.33725,"lon":5.39198,"is_reserved":false,"is_disabled":false,"rental_uris":{"android":"levelo://app?vid=6e162cf7-1f7d-4120-9d73-84a7a23edeec","ios":"levelo://app?vid=6e162cf7-1f7d-4120-9d73-84a7a23edeec"},"vehicle_type_id":"4","last_reported":1771307459,"current_range_meters":38800,"station_id":"ce4bhr92rcd13ifvqhsg","pricing_plan_id":"cebpf4jnsgd1na2vs0mg"},{"bike_id":"307115b0-5e6a-4558-8a7c-a8e1a85a8c63","system_id":"levelo_inurba_marseille","lat":43.28703,"lon":5.39984,"is_reserved":false,"is_disabled":false,"rental_uris":{"android":"levelo://app?vid=307115b0-5e6a-4558-8a7c-a8e1a85a8c63","ios":"levelo://app?vid=307115b0-5e6a-4558-8a7c-a8e1a85a8c63"},"vehicle_type_id":"4","last_reported":1771307459,"current_range_meters":33600,"station_id":"ce4bho92rcd13ifvqh3g","pricing_plan_id":"cebpf4jnsgd1na2vs0mg"},{"bike_id":"849004ff-453e-4a0c-bf07-5f9fb058a404","system_id":"levelo_inurba_marseille","lat":43.24397,"lon":5.37071,"is_reserved":false,"is_disabled":false,"rental_uris":{"android":"levelo://app?vid=849004ff-453e-4a0c-bf07-5f9fb058a404","ios":"levelo://app?vid=849004ff-453e-4a0c-bf07-5f9fb058a404"},"vehicle_type_id":"4","last_reported":1771307459,"current_range_meters":26800,"station_id":"ce4bhhh2rcd13ifvqfk0","pricing_plan_id":"cebpf4jnsgd1na2vs0mg"},{"bike_id":"8fca517c-ab9a-4f2a-bf11-1a488679a96a","system_id":"levelo_inurba_marseille","lat":43.3093,"lon":5.4015,"is_reserved":false,"is_disabled":true,"rental_uris":{"android":"levelo://app?vid=8fca517c-ab9a-4f2a-bf11-1a488679a96a","ios":"levelo://app?vid=8fca517c-ab9a-4f2a-bf11-1a488679a96a"},"vehicle_type_id":"4","last_reported":1771307459,"current_range_meters":0,"station_id":"ce4bgvp2rcd13ifvqct0","pricing_plan_id":"cebpf4jnsgd1na2vs0mg"},{"bike_id":"5ff35921-710d-4618-87a7-d124d9dc49ec","system_id":"levelo_inurba_marseille","lat":43.27836,"lon":5.39211,"is_reserved":false,"is_disabled":false,"rental_uris":{"android":"levelo://app?vid=5ff35921-710d-4618-87a7-d124d9dc49ec","ios":"levelo://app?vid=5ff35921-710d-4618-87a7-d124d9dc49ec"},"vehicle_type_id":"4","last_reported":1771307459,"current_range_meters":30800,"station_id":"ce4bhjp2rcd13ifvqga0","pricing_plan_id":"cebpf4jnsgd1na2vs0mg"},{"bike_id":"d639211d-aaf1-4624-82a8-69cd6e860d35","system_id":"levelo_inurba_marseille","lat":43.28475,"lon":5.48396,"is_reserved":false,"is_disabled":false,"rental_uris":{"android":"levelo://app?vid=d639211d-aaf1-4624-82a8-69cd6e860d35","ios":"levelo://app?vid=d639211d-aaf1-4624-82a8-69cd6e860d35"},"vehicle_type_id":"4","last_reported":1771307459,"current_range_meters":32000,"station_id":"st_d3svhcjqgbts73a3dn0g","pricing_plan_id":"cebpf4jnsgd1na2vs0mg"},{"bike_id":"77667d7f-d2a6-4e03-b66a-d643ae734f5b","system_id":"levelo_inurba_marseille","lat":43.26553,"lon":5.39077,"is_reserved":false,"is_disabled":false,"rental_uris":{"android":"levelo://app?vid=77667d7f-d2a6-4e03-b66a-d643ae734f5b","ios":"levelo://app?vid=77667d7f-d2a6-4e03-b66a-d643ae734f5b"},"vehicle_type_id":"4","last_reported":1771307459,"current_range_meters":24000,"station_id":"","pricing_plan_id":"cebpf4jnsgd1na2vs0mg"},{"bike_id":"d49f1f1b-9a89-4fee-8041-ef2d20d063c1","system_id":"levelo_inurba_marseille","lat":43.30477,"lon":5.37904,"is_reserved":false,"is_disabled":false,"rental_uris":{"android":"levelo://app?vid=d49f1f1b-9a89-4fee-8041-ef2d20d063c1","ios":"levelo://app?vid=d49f1f1b-9a89-4fee-8041-ef2d20d063c1"},"vehicle_type_id":"4","last_reported":1771307459,"current_range_meters":33200,"station_id":"ce4bgup2rcd13ifvqcn0","pricing_plan_id":"cebpf4jnsgd1na2vs0mg"},{"bike_id":"c7f2ec22-a521-426d-8fc1-fe462d2718e7","system_id":"levelo_inurba_marseille","lat":43.22554,"lon":5.41619,"is_reserved":false,"is_disabled":false,"rental_uris":{"android":"levelo://app?vid=c7f2ec22-a521-426d-8fc1-fe462d2718e7","ios":"levelo://app?vid=c7f2ec22-a521-426d-8fc1-fe462d2718e7"},"vehicle_type_id":"4","last_reported":1771307459,"current_range_meters":8000,"station_id":"st_d2o4gvlbi1j2169b742g","pricing_plan_id":"cebpf4jnsgd1na2vs0mg"},{"bike_id":"6daea5ce-ece9-4447-aa32-9b9b3f1b04e5","system_id":"levelo_inurba_marseille","lat":43.29719,"lon":5.37705,"is_reserved":false,"is_disabled":false,"rental_uris":{"android":"levelo://app?vid=6daea5ce-ece9-4447-aa32-9b9b3f1b04e5","ios":"levelo://app?vid=6daea5ce-ece9-4447-aa32-9b9b3f1b04e5"},"vehicle_type_id":"4","last_reported":1771307459,"current_range_meters":38000,"station_id":"ce4bgkh2rcd13ifvqbl0","pricing_plan_id":"cebpf4jnsgd1na2vs0mg"},{"bike_id":"a1cc5ae2-960c-4ede-96b4-4d6479664200","system_id":"levelo_inurba_marseille","lat":43.25343,"lon":5.42207,"is_reserved":false,"is_disabled":false,"rental_uris":{"android":"levelo://app?vid=a1cc5ae2-960c-4ede-96b4-4d6479664200","ios":"levelo://app?vid=a1cc5ae2-960c-4ede-96b4-4d6479664200"},"vehicle_type_id":"4","last_reported":1771307459,"current_range_meters":25600,"station_id":"st_d2m65c5bi1j21697t3ng","pricing_plan_id":"cebpf4jnsgd1na2vs0mg"},{"bike_id":"3d90e7f3-7316-4107-b0e5-baa59d386b69","system_id":"levelo_inurba_marseille","lat":43.30928,"lon":5.40172,"is_reserved":false,"is_disabled":false,"rental_uris":{"android":"levelo://app?vid=3d90e7f3-7316-4107-b0e5-baa59d386b69","ios":"levelo://app?vid=3d90e7f3-7316-4107-b0e5-baa59d386b69"},"vehicle_type_id":"4","last_reported":1771307459,"current_range_meters":38000,"station_id":"ce4bgvp2rcd13ifvqct0","pricing_plan_id":"cebpf4jnsgd1na2vs0mg"},{"bike_id":"969afb60-50b6-45d8-826b-dbd861fdb29c","system_id":"levelo_inurba_marseille","lat":43.30931,"lon":5.40158,"is_reserved":false,"is_disabled":false,"rental_uris":{"android":"levelo://app?vid=969afb60-50b6-45d8-826b-dbd861fdb29c","ios":"levelo://app?vid=969afb60-50b6-45d8-826b-dbd861fdb29c"},"vehicle_type_id":"4","last_reported":1771307459,"current_range_meters":32400,"station_id":"ce4bgvp2rcd13ifvqct0","pricing_plan_id":"cebpf4jnsgd1na2vs0mg"},{"bike_id":"5028f32d-1a47-475c-b119-ed923035051c","system_id":"levelo_inurba_marseille","lat":43.30306,"lon":5.36886,"is_reserved":false,"is_disabled":false,"rental_uris":{"android":"levelo://app?vid=5028f32d-1a47-475c-b119-ed923035051c","ios":"levelo://app?vid=5028f32d-1a47-475c-b119-ed923035051c"},"vehicle_type_id":"4","last_reported":1771307459,"current_range_meters":25200,"station_id":"ce4bgqh2rcd13ifvqc5g","pricing_plan_id":"cebpf4jnsgd1na2vs0mg"},{"bike_id":"d4c65e86-e8ab-44ba-a8a9-8e759dc3c54f","system_id":"levelo_inurba_marseille","lat":43.2918,"lon":5.35832,"is_reserved":false,"is_disabled":false,"rental_uris":{"android":"levelo://app?vid=d4c65e86-e8ab-44ba-a8a9-8e759dc3c54f","ios":"levelo://app?vid=d4c65e86-e8ab-44ba-a8a9-8e759dc3c54f"},"vehicle_type_id":"4","last_reported":1771307459,"current_range_meters":36800,"station_id":"ce4bhb12rcd13ifvqel0","pricing_plan_id":"cebpf4jnsgd1na2vs0mg"},{"bike_id":"ff87c40c-9e82-4fe4-89bf-d9fb801cba93","system_id":"levelo_inurba_marseille","lat":43.28466,"lon":5.35894,"is_reserved":false,"is_disabled":false,"rental_uris":{"android":"levelo://app?vid=ff87c40c-9e82-4fe4-89bf-d9fb801cba93","ios":"levelo://app?vid=ff87c40c-9e82-4fe4-89bf-d9fb801cba93"},"vehicle_type_id":"4","last_reported":1771307459,"current_range_meters":39200,"station_id":"ce4bhah2rcd13ifvqei0","pricing_plan_id":"cebpf4jnsgd1na2vs0mg"},{"bike_id":"be7b106a-7b58-4a98-9638-77543a51361f","system_id":"levelo_inurba_marseille","lat":43.297194,"lon":5.377023,"is_reserved":false,"is_disabled":false,"rental_uris":{"android":"levelo://app?vid=be7b106a-7b58-4a98-9638-77543a51361f","ios":"levelo://app?vid=be7b106a-7b58-4a98-9638-77543a51361f"},"vehicle_type_id":"4","last_reported":1771307459,"current_range_meters":22000,"station_id":"ce4bgkh2rcd13ifvqbl0","pricing_plan_id":"cebpf4jnsgd1na2vs0mg"},{"bike_id":"d423f15e-e4fc-4538-bb11-2f1eb6b1f673","system_id":"levelo_inurba_marseille","lat":43.30463,"lon":5.38898,"is_reserved":false,"is_disabled":false,"rental_uris":{"android":"levelo://app?vid=d423f15e-e4fc-4538-bb11-2f1eb6b1f673","ios":"levelo://app?vid=d423f15e-e4fc-4538-bb11-2f1eb6b1f673"},"vehicle_type_id":"4","last_reported":1771307459,"current_range_meters":14400,"station_id":"ce4bgk12rcd13ifvqbi0","pricing_plan_id":"cebpf4jnsgd1na2vs0mg"},{"bike_id":"72ab149f-0aac-4a82-8892-5126bebf5df6","system_id":"levelo_inurba_marseille","lat":43.22925,"lon":5.35386,"is_reserved":false,"is_disabled":false,"rental_uris":{"android":"levelo://app?vid=72ab149f-0aac-4a82-8892-5126bebf5df6","ios":"levelo://app?vid=72ab149f-0aac-4a82-8892-5126bebf5df6"},"vehicle_type_id":"4","last_reported":1771307459,"current_range_meters":37600,"station_id":"cpo3532slgdg3j2ikp40","pricing_plan_id":"cebpf4jnsgd1na2vs0mg"},{"bike_id":"934ff1f2-ae26-4be0-ab41-a94dd7c43140","system_id":"levelo_inurba_marseille","lat":43.2658,"lon":5.390145,"is_reserved":false,"is_disabled":false,"rental_uris":{"android":"levelo://app?vid=934ff1f2-ae26-4be0-ab41-a94dd7c43140","ios":"levelo://app?vid=934ff1f2-ae26-4be0-ab41-a94dd7c43140"},"vehicle_type_id":"4","last_reported":1771307459,"current_range_meters":24800,"station_id":"ce4bhe12rcd13ifvqf30","pricing_plan_id":"cebpf4jnsgd1na2vs0mg"},{"bike_id":"738fdc4b-6f95-4425-b86f-9c36e982b094","system_id":"levelo_inurba_marseille","lat":43.253418,"lon":5.421658,"is_reserved":false,"is_disabled":false,"rental_uris":{"android":"levelo://app?vid=738fdc4b-6f95-4425-b86f-9c36e982b094","ios":"levelo://app?vid=738fdc4b-6f95-4425-b86f-9c36e982b094"},"vehicle_type_id":"4","last_reported":1771307459,"current_range_meters":36800,"station_id":"st_d2m65c5bi1j21697t3ng","pricing_plan_id":"cebpf4jnsgd1na2vs0mg"},{"bike_id":"4549ecc9-4ca6-4ea6-81ef-f4869efcb686","system_id":"levelo_inurba_marseille","lat":43.29298,"lon":5.37168,"is_reserved":false,"is_disabled":false,"rental_uris":{"android":"levelo://app?vid=4549ecc9-4ca6-4ea6-81ef-f4869efcb686","ios":"levelo://app?vid=4549ecc9-4ca6-4ea6-81ef-f4869efcb686"},"vehicle_type_id":"4","last_reported":1771307459,"current_range_meters":6400,"station_id":"ce4bgh92rcd13ifvqb40","pricing_plan_id":"cebpf4jnsgd1na2vs0mg"},{"bike_id":"ab099b5d-a36c-4b39-b54f-8fdad1227588","system_id":"levelo_inurba_marseille","lat":43.31031,"lon":5.37168,"is_reserved":false,"is_disabled":false,"rental_uris":{"android":"levelo://app?vid=ab099b5d-a36c-4b39-b54f-8fdad1227588","ios":"levelo://app?vid=ab099b5d-a36c-4b39-b54f-8fdad1227588"},"vehicle_type_id":"4","last_reported":1771307459,"current_range_meters":6000,"station_id":"st_d4kl2rp97mjs73e7tdfg","pricing_plan_id":"cebpf4jnsgd1na2vs0mg"},{"bike_id":"bd6611ce-f7cd-494c-a774-4a5ac620e401","system_id":"levelo_inurba_marseille","lat":43.28277,"lon":5.35061,"is_reserved":false,"is_disabled":true,"rental_uris":{"android":"levelo://app?vid=bd6611ce-f7cd-494c-a774-4a5ac620e401","ios":"levelo://app?vid=bd6611ce-f7cd-494c-a774-4a5ac620e401"},"vehicle_type_id":"4","last_reported":1771307459,"current_range_meters":30000,"station_id":"ce4bhbp2rcd13ifvqerg","pricing_plan_id":"cebpf4jnsgd1na2vs0mg"},{"bike_id":"20f5c48f-8a96-4059-af26-cf76185d7785","system_id":"levelo_inurba_marseille","lat":43.28948,"lon":5.36399,"is_reserved":false,"is_disabled":false,"rental_uris":{"android":"levelo://app?vid=20f5c48f-8a96-4059-af26-cf76185d7785","ios":"levelo://app?vid=20f5c48f-8a96-4059-af26-cf76185d7785"},"vehicle_type_id":"4","last_reported":1771307459,"current_range_meters":38400,"station_id":"ce4bhc92rcd13ifvqetg","pricing_plan_id":"cebpf4jnsgd1na2vs0mg"},{"bike_id":"d91e8faf-21cf-4c18-994f-63bca0fd2077","system_id":"levelo_inurba_marseille","lat":43.290347,"lon":5.386277,"is_reserved":false,"is_disabled":false,"rental_uris":{"android":"levelo://app?vid=d91e8faf-21cf-4c18-994f-63bca0fd2077","ios":"levelo://app?vid=d91e8faf-21cf-4c18-994f-63bca0fd2077"},"vehicle_type_id":"4","last_reported":1771307459,"current_range_meters":25200,"station_id":"ce4bh4p2rcd13ifvqe0g","pricing_plan_id":"cebpf4jnsgd1na2vs0mg"},{"bike_id":"b848b13f-a5a8-497c-bf73-42ffb911f77e","system_id":"levelo_inurba_marseille","lat":43.28474,"lon":5.48405,"is_reserved":false,"is_disabled":false,"rental_uris":{"android":"levelo://app?vid=b848b13f-a5a8-497c-bf73-42ffb911f77e","ios":"levelo://app?vid=b848b13f-a5a8-497c-bf73-42ffb911f77e"},"vehicle_type_id":"4","last_reported":1771307459,"current_range_meters":19200,"station_id":"st_d3svhcjqgbts73a3dn0g","pricing_plan_id":"cebpf4jnsgd1na2vs0mg"},{"bike_id":"b9384aa1-4661-4d00-bca6-805e71165724","system_id":"levelo_inurba_marseille","lat":43.29716,"lon":5.37721,"is_reserved":false,"is_disabled":false,"rental_uris":{"android":"levelo://app?vid=b9384aa1-4661-4d00-bca6-805e71165724","ios":"levelo://app?vid=b9384aa1-4661-4d00-bca6-805e71165724"},"vehicle_type_id":"4","last_reported":1771307459,"current_range_meters":10800,"station_id":"ce4bgkh2rcd13ifvqbl0","pricing_plan_id":"cebpf4jnsgd1na2vs0mg"},{"bike_id":"e6b96405-14b0-4d98-b62c-6d173737f9fe","system_id":"levelo_inurba_marseille","lat":43.29548,"lon":5.38999,"is_reserved":false,"is_disabled":false,"rental_uris":{"android":"levelo://app?vid=e6b96405-14b0-4d98-b62c-6d173737f9fe","ios":"levelo://app?vid=e6b96405-14b0-4d98-b62c-6d173737f9fe"},"vehicle_type_id":"4","last_reported":1771307459,"current_range_meters":3200,"station_id":"ce4bh3p2rcd13ifvqdp0","pricing_plan_id":"cebpf4jnsgd1na2vs0mg"},{"bike_id":"b4c653e2-3bca-4226-9f43-9053a181a29a","system_id":"levelo_inurba_marseille","lat":43.31904,"lon":5.40728,"is_reserved":false,"is_disabled":false,"rental_uris":{"android":"levelo://app?vid=b4c653e2-3bca-4226-9f43-9053a181a29a","ios":"levelo://app?vid=b4c653e2-3bca-4226-9f43-9053a181a29a"},"vehicle_type_id":"4","last_reported":1771307459,"current_range_meters":32000,"station_id":"ce4bhq12rcd13ifvqhig","pricing_plan_id":"cebpf4jnsgd1na2vs0mg"},{"bike_id":"593a9707-a425-411a-80c5-43e444053798","system_id":"levelo_inurba_marseille","lat":43.29039,"lon":5.39949,"is_reserved":false,"is_disabled":false,"rental_uris":{"android":"levelo://app?vid=593a9707-a425-411a-80c5-43e444053798","ios":"levelo://app?vid=593a9707-a425-411a-80c5-43e444053798"},"vehicle_type_id":"4","last_reported":1771307459,"current_range_meters":36400,"station_id":"ce4bh392rcd13ifvqdm0","pricing_plan_id":"cebpf4jnsgd1na2vs0mg"},{"bike_id":"a20361fa-695a-40fe-a30c-6ec341f0fe26","system_id":"levelo_inurba_marseille","lat":43.31249,"lon":5.36873,"is_reserved":false,"is_disabled":false,"rental_uris":{"android":"levelo://app?vid=a20361fa-695a-40fe-a30c-6ec341f0fe26","ios":"levelo://app?vid=a20361fa-695a-40fe-a30c-6ec341f0fe26"},"vehicle_type_id":"4","last_reported":1771307459,"current_range_meters":8000,"station_id":"ce4bgl92rcd13ifvqbq0","pricing_plan_id":"cebpf4jnsgd1na2vs0mg"},{"bike_id":"dccf4276-e4c4-42dc-8c9c-08228358396d","system_id":"levelo_inurba_marseille","lat":43.26558,"lon":5.39045,"is_reserved":false,"is_disabled":false,"rental_uris":{"android":"levelo://app?vid=dccf4276-e4c4-42dc-8c9c-08228358396d","ios":"levelo://app?vid=dccf4276-e4c4-42dc-8c9c-08228358396d"},"vehicle_type_id":"4","last_reported":1771307459,"current_range_meters":20400,"station_id":"ce4bhe12rcd13ifvqf30","pricing_plan_id":"cebpf4jnsgd1na2vs0mg"},{"bike_id":"b2a02418-a742-4f1b-8066-b19250c93a85","system_id":"levelo_inurba_marseille","lat":43.28604,"lon":5.35103,"is_reserved":false,"is_disabled":false,"rental_uris":{"android":"levelo://app?vid=b2a02418-a742-4f1b-8066-b19250c93a85","ios":"levelo://app?vid=b2a02418-a742-4f1b-8066-b19250c93a85"},"vehicle_type_id":"4","last_reported":1771307459,"current_range_meters":24400,"station_id":"ce4bhch2rcd13ifvqeug","pricing_plan_id":"cebpf4jnsgd1na2vs0mg"},{"bike_id":"aafb8ea5-1282-4a8b-bc8e-d3add3e8b1b8","system_id":"levelo_inurba_marseille","lat":43.280308,"lon":5.369426,"is_reserved":false,"is_disabled":false,"rental_uris":{"android":"levelo://app?vid=aafb8ea5-1282-4a8b-bc8e-d3add3e8b1b8","ios":"levelo://app?vid=aafb8ea5-1282-4a8b-bc8e-d3add3e8b1b8"},"vehicle_type_id":"4","last_reported":1771307459,"current_range_meters":39200,"station_id":"ce4bha12rcd13ifvqef0","pricing_plan_id":"cebpf4jnsgd1na2vs0mg"},{"bike_id":"a066de93-0d65-47f8-901e-b55356275f44","system_id":"levelo_inurba_marseille","lat":43.26687,"lon":5.38272,"is_reserved":false,"is_disabled":false,"rental_uris":{"android":"levelo://app?vid=a066de93-0d65-47f8-901e-b55356275f44","ios":"levelo://app?vid=a066de93-0d65-47f8-901e-b55356275f44"},"vehicle_type_id":"4","last_reported":1771307459,"current_range_meters":39200,"station_id":"ce4bhg92rcd13ifvqf90","pricing_plan_id":"cebpf4jnsgd1na2vs0mg"},{"bike_id":"71ed581b-2efa-480f-9fc0-b86eb9d9d551","system_id":"levelo_inurba_marseille","lat":43.27488,"lon":5.4246,"is_reserved":false,"is_disabled":false,"rental_uris":{"android":"levelo://app?vid=71ed581b-2efa-480f-9fc0-b86eb9d9d551","ios":"levelo://app?vid=71ed581b-2efa-480f-9fc0-b86eb9d9d551"},"vehicle_type_id":"4","last_reported":1771307459,"current_range_meters":12400,"station_id":"ce4bhn92rcd13ifvqgrg","pricing_plan_id":"cebpf4jnsgd1na2vs0mg"},{"bike_id":"14096945-3ed2-4921-943f-a03af03f353e","system_id":"levelo_inurba_marseille","lat":43.25584,"lon":5.38229,"is_reserved":false,"is_disabled":false,"rental_uris":{"android":"levelo://app?vid=14096945-3ed2-4921-943f-a03af03f353e","ios":"levelo://app?vid=14096945-3ed2-4921-943f-a03af03f353e"},"vehicle_type_id":"4","last_reported":1771307459,"current_range_meters":30400,"station_id":"ce4bhih2rcd13ifvqfs0","pricing_plan_id":"cebpf4jnsgd1na2vs0mg"},{"bike_id":"484e108a-d5e5-4238-92ad-9e453b1790ff","system_id":"levelo_inurba_marseille","lat":43.27188,"lon":5.40999,"is_reserved":false,"is_disabled":true,"rental_uris":{"android":"levelo://app?vid=484e108a-d5e5-4238-92ad-9e453b1790ff","ios":"levelo://app?vid=484e108a-d5e5-4238-92ad-9e453b1790ff"},"vehicle_type_id":"4","last_reported":1771307459,"current_range_meters":36400,"station_id":"ce4bhl12rcd13ifvqgf0","pricing_plan_id":"cebpf4jnsgd1na2vs0mg"},{"bike_id":"24a42244-ae18-4c99-9d28-040f1dfe373f","system_id":"levelo_inurba_marseille","lat":43.30146,"lon":5.38104,"is_reserved":false,"is_disabled":false,"rental_uris":{"android":"levelo://app?vid=24a42244-ae18-4c99-9d28-040f1dfe373f","ios":"levelo://app?vid=24a42244-ae18-4c99-9d28-040f1dfe373f"},"vehicle_type_id":"4","last_reported":1771307459,"current_range_meters":27200,"station_id":"ce4bgjp2rcd13ifvqbh0","pricing_plan_id":"cebpf4jnsgd1na2vs0mg"},{"bike_id":"de8a2b8b-cc8f-4022-a29d-bd2a33db573d","system_id":"levelo_inurba_marseille","lat":43.248098,"lon":5.374484,"is_reserved":false,"is_disabled":false,"rental_uris":{"android":"levelo://app?vid=de8a2b8b-cc8f-4022-a29d-bd2a33db573d","ios":"levelo://app?vid=de8a2b8b-cc8f-4022-a29d-bd2a33db573d"},"vehicle_type_id":"4","last_reported":1771307459,"current_range_meters":39200,"station_id":"ce4bhgh2rcd13ifvqfb0","pricing_plan_id":"cebpf4jnsgd1na2vs0mg"},{"bike_id":"8bff1e39-a533-4897-b25a-8cd70dcbfb87","system_id":"levelo_inurba_marseille","lat":43.2784,"lon":5.39214,"is_reserved":false,"is_disabled":false,"rental_uris":{"android":"levelo://app?vid=8bff1e39-a533-4897-b25a-8cd70dcbfb87","ios":"levelo://app?vid=8bff1e39-a533-4897-b25a-8cd70dcbfb87"},"vehicle_type_id":"4","last_reported":1771307459,"current_range_meters":35600,"station_id":"ce4bhjp2rcd13ifvqga0","pricing_plan_id":"cebpf4jnsgd1na2vs0mg"},{"bike_id":"35cc6573-5843-4d1f-aaff-19eea131fbdf","system_id":"levelo_inurba_marseille","lat":43.26186,"lon":5.37944,"is_reserved":false,"is_disabled":false,"rental_uris":{"android":"levelo://app?vid=35cc6573-5843-4d1f-aaff-19eea131fbdf","ios":"levelo://app?vid=35cc6573-5843-4d1f-aaff-19eea131fbdf"},"vehicle_type_id":"4","last_reported":1771307459,"current_range_meters":36800,"station_id":"ce4bhjp2rcd13ifvqg90","pricing_plan_id":"cebpf4jnsgd1na2vs0mg"},{"bike_id":"e09d531d-aabc-4399-a7fd-716e0b50a1f7","system_id":"levelo_inurba_marseille","lat":43.31733,"lon":5.40455,"is_reserved":false,"is_disabled":false,"rental_uris":{"android":"levelo://app?vid=e09d531d-aabc-4399-a7fd-716e0b50a1f7","ios":"levelo://app?vid=e09d531d-aabc-4399-a7fd-716e0b50a1f7"},"vehicle_type_id":"4","last_reported":1771307459,"current_range_meters":38800,"station_id":"ce4bh012rcd13ifvqd00","pricing_plan_id":"cebpf4jnsgd1na2vs0mg"},{"bike_id":"690088b5-fda0-4eb6-8860-9b0f176b5ec5","system_id":"levelo_inurba_marseille","lat":43.29793,"lon":5.39341,"is_reserved":false,"is_disabled":false,"rental_uris":{"android":"levelo://app?vid=690088b5-fda0-4eb6-8860-9b0f176b5ec5","ios":"levelo://app?vid=690088b5-fda0-4eb6-8860-9b0f176b5ec5"},"vehicle_type_id":"4","last_reported":1771307459,"current_range_meters":5600,"station_id":"chh1huq6cuj3fo74tm60","pricing_plan_id":"cebpf4jnsgd1na2vs0mg"},{"bike_id":"c9b76f97-4777-40f7-8438-ab341a9656e1","system_id":"levelo_inurba_marseille","lat":43.29836,"lon":5.36224,"is_reserved":false,"is_disabled":false,"rental_uris":{"android":"levelo://app?vid=c9b76f97-4777-40f7-8438-ab341a9656e1","ios":"levelo://app?vid=c9b76f97-4777-40f7-8438-ab341a9656e1"},"vehicle_type_id":"4","last_reported":1771307459,"current_range_meters":39200,"station_id":"ce4bgpp2rcd13ifvqc3g","pricing_plan_id":"cebpf4jnsgd1na2vs0mg"},{"bike_id":"8de72905-9cd1-43a5-b42e-38b92fe08e53","system_id":"levelo_inurba_marseille","lat":43.27071,"lon":5.42305,"is_reserved":false,"is_disabled":false,"rental_uris":{"android":"levelo://app?vid=8de72905-9cd1-43a5-b42e-38b92fe08e53","ios":"levelo://app?vid=8de72905-9cd1-43a5-b42e-38b92fe08e53"},"vehicle_type_id":"4","last_reported":1771307459,"current_range_meters":36800,"station_id":"ce4bhk92rcd13ifvqgb0","pricing_plan_id":"cebpf4jnsgd1na2vs0mg"},{"bike_id":"134a7d23-f0f4-488c-a3d0-c5fc7f3d3eb3","system_id":"levelo_inurba_marseille","lat":43.28206,"lon":5.39079,"is_reserved":false,"is_disabled":false,"rental_uris":{"android":"levelo://app?vid=134a7d23-f0f4-488c-a3d0-c5fc7f3d3eb3","ios":"levelo://app?vid=134a7d23-f0f4-488c-a3d0-c5fc7f3d3eb3"},"vehicle_type_id":"4","last_reported":1771307459,"current_range_meters":30400,"station_id":"ce4bhn92rcd13ifvqgsg","pricing_plan_id":"cebpf4jnsgd1na2vs0mg"},{"bike_id":"6b63b009-f7da-4d4b-a414-01d08a281042","system_id":"levelo_inurba_marseille","lat":43.30503,"lon":5.36539,"is_reserved":false,"is_disabled":false,"rental_uris":{"android":"levelo://app?vid=6b63b009-f7da-4d4b-a414-01d08a281042","ios":"levelo://app?vid=6b63b009-f7da-4d4b-a414-01d08a281042"},"vehicle_type_id":"4","last_reported":1771307459,"current_range_meters":4800,"station_id":"","pricing_plan_id":"cebpf4jnsgd1na2vs0mg"},{"bike_id":"108e264e-4c88-4022-a674-954978e6075c","system_id":"levelo_inurba_marseille","lat":43.31276,"lon":5.40175,"is_reserved":false,"is_disabled":false,"rental_uris":{"android":"levelo://app?vid=108e264e-4c88-4022-a674-954978e6075c","ios":"levelo://app?vid=108e264e-4c88-4022-a674-954978e6075c"},"vehicle_type_id":"4","last_reported":1771307459,"current_range_meters":18000,"station_id":"ce4bh092rcd13ifvqd30","pricing_plan_id":"cebpf4jnsgd1na2vs0mg"},{"bike_id":"29aaeded-6fbf-4914-8e01-d1b40b6726f9","system_id":"levelo_inurba_marseille","lat":43.26188,"lon":5.37446,"is_reserved":false,"is_disabled":false,"rental_uris":{"android":"levelo://app?vid=29aaeded-6fbf-4914-8e01-d1b40b6726f9","ios":"levelo://app?vid=29aaeded-6fbf-4914-8e01-d1b40b6726f9"},"vehicle_type_id":"4","last_reported":1771307459,"current_range_meters":6800,"station_id":"ce4bhgp2rcd13ifvqfc0","pricing_plan_id":"cebpf4jnsgd1na2vs0mg"},{"bike_id":"3b29be64-a38e-4f9c-905b-d31f6a8f4e3e","system_id":"levelo_inurba_marseille","lat":43.30164,"lon":5.38078,"is_reserved":false,"is_disabled":false,"rental_uris":{"android":"levelo://app?vid=3b29be64-a38e-4f9c-905b-d31f6a8f4e3e","ios":"levelo://app?vid=3b29be64-a38e-4f9c-905b-d31f6a8f4e3e"},"vehicle_type_id":"4","last_reported":1771307459,"current_range_meters":34800,"station_id":"ce4bgjp2rcd13ifvqbh0","pricing_plan_id":"cebpf4jnsgd1na2vs0mg"},{"bike_id":"f5039416-93fa-4b18-81c3-b8464d4e469e","system_id":"levelo_inurba_marseille","lat":43.28662,"lon":5.3998,"is_reserved":false,"is_disabled":false,"rental_uris":{"android":"levelo://app?vid=f5039416-93fa-4b18-81c3-b8464d4e469e","ios":"levelo://app?vid=f5039416-93fa-4b18-81c3-b8464d4e469e"},"vehicle_type_id":"4","last_reported":1771307459,"current_range_meters":29600,"station_id":"","pricing_plan_id":"cebpf4jnsgd1na2vs0mg"},{"bike_id":"37f06b28-831e-4816-b948-7ac6d3b82964","system_id":"levelo_inurba_marseille","lat":43.286133,"lon":5.398699,"is_reserved":false,"is_disabled":false,"rental_uris":{"android":"levelo://app?vid=37f06b28-831e-4816-b948-7ac6d3b82964","ios":"levelo://app?vid=37f06b28-831e-4816-b948-7ac6d3b82964"},"vehicle_type_id":"4","last_reported":1771307459,"current_range_meters":36000,"station_id":"ce4bh4p2rcd13ifvqe1g","pricing_plan_id":"cebpf4jnsgd1na2vs0mg"},{"bike_id":"cdb31bb4-370c-491d-8d68-0dceed9d9223","system_id":"levelo_inurba_marseille","lat":43.33566,"lon":5.37398,"is_reserved":false,"is_disabled":false,"rental_uris":{"android":"levelo://app?vid=cdb31bb4-370c-491d-8d68-0dceed9d9223","ios":"levelo://app?vid=cdb31bb4-370c-491d-8d68-0dceed9d9223"},"vehicle_type_id":"4","last_reported":1771307459,"current_range_meters":29600,"station_id":"st_d46tts09ee8s73dlu43g","pricing_plan_id":"cebpf4jnsgd1na2vs0mg"},{"bike_id":"dd586490-4a9f-45a8-922f-a3511ec5549d","system_id":"levelo_inurba_marseille","lat":43.27075,"lon":5.4229,"is_reserved":false,"is_disabled":false,"rental_uris":{"android":"levelo://app?vid=dd586490-4a9f-45a8-922f-a3511ec5549d","ios":"levelo://app?vid=dd586490-4a9f-45a8-922f-a3511ec5549d"},"vehicle_type_id":"4","last_reported":1771307459,"current_range_meters":39200,"station_id":"ce4bhk92rcd13ifvqgb0","pricing_plan_id":"cebpf4jnsgd1na2vs0mg"},{"bike_id":"ee4f8742-0617-46e3-9fa2-031983a52dc9","system_id":"levelo_inurba_marseille","lat":43.29762,"lon":5.42782,"is_reserved":false,"is_disabled":false,"rental_uris":{"android":"levelo://app?vid=ee4f8742-0617-46e3-9fa2-031983a52dc9","ios":"levelo://app?vid=ee4f8742-0617-46e3-9fa2-031983a52dc9"},"vehicle_type_id":"4","last_reported":1771307459,"current_range_meters":37600,"station_id":"st_d3md5207bmas73dh9klg","pricing_plan_id":"cebpf4jnsgd1na2vs0mg"},{"bike_id":"1ae9bc1d-b840-42f7-a16c-1b20e0f7a83e","system_id":"levelo_inurba_marseille","lat":43.24831,"lon":5.37474,"is_reserved":false,"is_disabled":false,"rental_uris":{"android":"levelo://app?vid=1ae9bc1d-b840-42f7-a16c-1b20e0f7a83e","ios":"levelo://app?vid=1ae9bc1d-b840-42f7-a16c-1b20e0f7a83e"},"vehicle_type_id":"4","last_reported":1771307459,"current_range_meters":24800,"station_id":"","pricing_plan_id":"cebpf4jnsgd1na2vs0mg"},{"bike_id":"4a05e98f-f767-4952-ad79-7c23c18f69b8","system_id":"levelo_inurba_marseille","lat":43.29863,"lon":5.36268,"is_reserved":false,"is_disabled":true,"rental_uris":{"android":"levelo://app?vid=4a05e98f-f767-4952-ad79-7c23c18f69b8","ios":"levelo://app?vid=4a05e98f-f767-4952-ad79-7c23c18f69b8"},"vehicle_type_id":"4","last_reported":1771307459,"current_range_meters":27200,"station_id":"ce4bgpp2rcd13ifvqc3g","pricing_plan_id":"cebpf4jnsgd1na2vs0mg"},{"bike_id":"27cd56da-3a53-4f83-a7bd-4fa6d2375695","system_id":"levelo_inurba_marseille","lat":43.29259,"lon":5.40919,"is_reserved":false,"is_disabled":false,"rental_uris":{"android":"levelo://app?vid=27cd56da-3a53-4f83-a7bd-4fa6d2375695","ios":"levelo://app?vid=27cd56da-3a53-4f83-a7bd-4fa6d2375695"},"vehicle_type_id":"4","last_reported":1771307459,"current_range_meters":10000,"station_id":"ce4bh192rcd13ifvqdc0","pricing_plan_id":"cebpf4jnsgd1na2vs0mg"},{"bike_id":"8a8fa0fa-9b9a-4667-a36a-f2215b14299e","system_id":"levelo_inurba_marseille","lat":43.248144,"lon":5.374553,"is_reserved":false,"is_disabled":false,"rental_uris":{"android":"levelo://app?vid=8a8fa0fa-9b9a-4667-a36a-f2215b14299e","ios":"levelo://app?vid=8a8fa0fa-9b9a-4667-a36a-f2215b14299e"},"vehicle_type_id":"4","last_reported":1771307459,"current_range_meters":36800,"station_id":"ce4bhgh2rcd13ifvqfb0","pricing_plan_id":"cebpf4jnsgd1na2vs0mg"},{"bike_id":"3b23e696-0f10-4258-80d6-a9732718d5da","system_id":"levelo_inurba_marseille","lat":43.33568,"lon":5.37408,"is_reserved":false,"is_disabled":false,"rental_uris":{"android":"levelo://app?vid=3b23e696-0f10-4258-80d6-a9732718d5da","ios":"levelo://app?vid=3b23e696-0f10-4258-80d6-a9732718d5da"},"vehicle_type_id":"4","last_reported":1771307459,"current_range_meters":29600,"station_id":"st_d46tts09ee8s73dlu43g","pricing_plan_id":"cebpf4jnsgd1na2vs0mg"},{"bike_id":"dfa36d27-6e60-4833-b7ff-9ec90b759d28","system_id":"levelo_inurba_marseille","lat":43.25667,"lon":5.38288,"is_reserved":false,"is_disabled":false,"rental_uris":{"android":"levelo://app?vid=dfa36d27-6e60-4833-b7ff-9ec90b759d28","ios":"levelo://app?vid=dfa36d27-6e60-4833-b7ff-9ec90b759d28"},"vehicle_type_id":"4","last_reported":1771307459,"current_range_meters":26000,"station_id":"","pricing_plan_id":"cebpf4jnsgd1na2vs0mg"},{"bike_id":"902e8cd6-147d-458e-8f2f-cda940842ddf","system_id":"levelo_inurba_marseille","lat":43.26808,"lon":5.40272,"is_reserved":false,"is_disabled":false,"rental_uris":{"android":"levelo://app?vid=902e8cd6-147d-458e-8f2f-cda940842ddf","ios":"levelo://app?vid=902e8cd6-147d-458e-8f2f-cda940842ddf"},"vehicle_type_id":"4","last_reported":1771307459,"current_range_meters":38400,"station_id":"ce501612rcd8frsf0b60","pricing_plan_id":"cebpf4jnsgd1na2vs0mg"},{"bike_id":"d0af0967-4f64-45d2-aeab-b15286d65704","system_id":"levelo_inurba_marseille","lat":43.33125,"lon":5.39271,"is_reserved":false,"is_disabled":false,"rental_uris":{"android":"levelo://app?vid=d0af0967-4f64-45d2-aeab-b15286d65704","ios":"levelo://app?vid=d0af0967-4f64-45d2-aeab-b15286d65704"},"vehicle_type_id":"4","last_reported":1771307459,"current_range_meters":22400,"station_id":"","pricing_plan_id":"cebpf4jnsgd1na2vs0mg"},{"bike_id":"7c11e683-0ef8-4bac-8048-16f7653ced54","system_id":"levelo_inurba_marseille","lat":43.28624,"lon":5.35128,"is_reserved":false,"is_disabled":false,"rental_uris":{"android":"levelo://app?vid=7c11e683-0ef8-4bac-8048-16f7653ced54","ios":"levelo://app?vid=7c11e683-0ef8-4bac-8048-16f7653ced54"},"vehicle_type_id":"4","last_reported":1771307459,"current_range_meters":13600,"station_id":"ce4bhch2rcd13ifvqeug","pricing_plan_id":"cebpf4jnsgd1na2vs0mg"},{"bike_id":"4932e24b-f2ef-4e1d-8d26-86e9c422ae44","system_id":"levelo_inurba_marseille","lat":43.32106,"lon":5.36768,"is_reserved":false,"is_disabled":false,"rental_uris":{"android":"levelo://app?vid=4932e24b-f2ef-4e1d-8d26-86e9c422ae44","ios":"levelo://app?vid=4932e24b-f2ef-4e1d-8d26-86e9c422ae44"},"vehicle_type_id":"4","last_reported":1771307459,"current_range_meters":24400,"station_id":"ce4bhrh2rcd13ifvqhug","pricing_plan_id":"cebpf4jnsgd1na2vs0mg"},{"bike_id":"cf077a8e-e34f-486f-a71c-0bbb76524a63","system_id":"levelo_inurba_marseille","lat":43.265652,"lon":5.390052,"is_reserved":false,"is_disabled":false,"rental_uris":{"android":"levelo://app?vid=cf077a8e-e34f-486f-a71c-0bbb76524a63","ios":"levelo://app?vid=cf077a8e-e34f-486f-a71c-0bbb76524a63"},"vehicle_type_id":"4","last_reported":1771307459,"current_range_meters":18000,"station_id":"ce4bhe12rcd13ifvqf30","pricing_plan_id":"cebpf4jnsgd1na2vs0mg"},{"bike_id":"1760c09e-5b63-4d61-a05c-866ed1259f44","system_id":"levelo_inurba_marseille","lat":43.27821,"lon":5.40715,"is_reserved":false,"is_disabled":false,"rental_uris":{"android":"levelo://app?vid=1760c09e-5b63-4d61-a05c-866ed1259f44","ios":"levelo://app?vid=1760c09e-5b63-4d61-a05c-866ed1259f44"},"vehicle_type_id":"4","last_reported":1771307459,"current_range_meters":37600,"station_id":"ce4bhnh2rcd13ifvqgtg","pricing_plan_id":"cebpf4jnsgd1na2vs0mg"},{"bike_id":"06b0e8ea-5721-4b06-a488-b9703e22c1ac","system_id":"levelo_inurba_marseille","lat":43.28609,"lon":5.35108,"is_reserved":false,"is_disabled":false,"rental_uris":{"android":"levelo://app?vid=06b0e8ea-5721-4b06-a488-b9703e22c1ac","ios":"levelo://app?vid=06b0e8ea-5721-4b06-a488-b9703e22c1ac"},"vehicle_type_id":"4","last_reported":1771307459,"current_range_meters":37600,"station_id":"ce4bhch2rcd13ifvqeug","pricing_plan_id":"cebpf4jnsgd1na2vs0mg"},{"bike_id":"481890bc-edbb-4b6a-af55-41a69db89f14","system_id":"levelo_inurba_marseille","lat":43.23189,"lon":5.39955,"is_reserved":false,"is_disabled":false,"rental_uris":{"android":"levelo://app?vid=481890bc-edbb-4b6a-af55-41a69db89f14","ios":"levelo://app?vid=481890bc-edbb-4b6a-af55-41a69db89f14"},"vehicle_type_id":"4","last_reported":1771307459,"current_range_meters":39200,"station_id":"ce4bhn12rcd13ifvqgqg","pricing_plan_id":"cebpf4jnsgd1na2vs0mg"},{"bike_id":"efe750db-9975-43cb-ada6-064cf243e55f","system_id":"levelo_inurba_marseille","lat":43.25001,"lon":5.38929,"is_reserved":false,"is_disabled":false,"rental_uris":{"android":"levelo://app?vid=efe750db-9975-43cb-ada6-064cf243e55f","ios":"levelo://app?vid=efe750db-9975-43cb-ada6-064cf243e55f"},"vehicle_type_id":"4","last_reported":1771307459,"current_range_meters":18800,"station_id":"ce4bhgp2rcd13ifvqfd0","pricing_plan_id":"cebpf4jnsgd1na2vs0mg"},{"bike_id":"bd0e99a1-4162-41ae-b356-8cc729f7fd82","system_id":"levelo_inurba_marseille","lat":43.23975,"lon":5.36631,"is_reserved":false,"is_disabled":false,"rental_uris":{"android":"levelo://app?vid=bd0e99a1-4162-41ae-b356-8cc729f7fd82","ios":"levelo://app?vid=bd0e99a1-4162-41ae-b356-8cc729f7fd82"},"vehicle_type_id":"4","last_reported":1771307459,"current_range_meters":6000,"station_id":"ce4bhi12rcd13ifvqfp0","pricing_plan_id":"cebpf4jnsgd1na2vs0mg"},{"bike_id":"3d69156c-572f-4b50-bfc8-dd5d9f6e75cc","system_id":"levelo_inurba_marseille","lat":43.25122,"lon":5.39541,"is_reserved":false,"is_disabled":false,"rental_uris":{"android":"levelo://app?vid=3d69156c-572f-4b50-bfc8-dd5d9f6e75cc","ios":"levelo://app?vid=3d69156c-572f-4b50-bfc8-dd5d9f6e75cc"},"vehicle_type_id":"4","last_reported":1771307459,"current_range_meters":6800,"station_id":"ce4bhm12rcd13ifvqgkg","pricing_plan_id":"cebpf4jnsgd1na2vs0mg"},{"bike_id":"b4fb0b98-42c1-438a-9d0d-e390e825b39e","system_id":"levelo_inurba_marseille","lat":43.31658,"lon":5.39602,"is_reserved":false,"is_disabled":false,"rental_uris":{"android":"levelo://app?vid=b4fb0b98-42c1-438a-9d0d-e390e825b39e","ios":"levelo://app?vid=b4fb0b98-42c1-438a-9d0d-e390e825b39e"},"vehicle_type_id":"4","last_reported":1771307459,"current_range_meters":19200,"station_id":"","pricing_plan_id":"cebpf4jnsgd1na2vs0mg"},{"bike_id":"37788f76-dc23-4b3b-af83-53337e6b4bad","system_id":"levelo_inurba_marseille","lat":43.2295,"lon":5.35416,"is_reserved":false,"is_disabled":false,"rental_uris":{"android":"levelo://app?vid=37788f76-dc23-4b3b-af83-53337e6b4bad","ios":"levelo://app?vid=37788f76-dc23-4b3b-af83-53337e6b4bad"},"vehicle_type_id":"4","last_reported":1771307459,"current_range_meters":16400,"station_id":"cpo3532slgdg3j2ikp40","pricing_plan_id":"cebpf4jnsgd1na2vs0mg"},{"bike_id":"22d090be-a913-4d85-8a69-3ef09dfe7caf","system_id":"levelo_inurba_marseille","lat":43.292209,"lon":5.360472,"is_reserved":false,"is_disabled":false,"rental_uris":{"android":"levelo://app?vid=22d090be-a913-4d85-8a69-3ef09dfe7caf","ios":"levelo://app?vid=22d090be-a913-4d85-8a69-3ef09dfe7caf"},"vehicle_type_id":"4","last_reported":1771307459,"current_range_meters":38400,"station_id":"ce4bhbh2rcd13ifvqeqg","pricing_plan_id":"cebpf4jnsgd1na2vs0mg"},{"bike_id":"b46161f1-e7ec-4cb9-92f2-dc2b4e46716b","system_id":"levelo_inurba_marseille","lat":43.305502,"lon":5.365259,"is_reserved":false,"is_disabled":false,"rental_uris":{"android":"levelo://app?vid=b46161f1-e7ec-4cb9-92f2-dc2b4e46716b","ios":"levelo://app?vid=b46161f1-e7ec-4cb9-92f2-dc2b4e46716b"},"vehicle_type_id":"4","last_reported":1771307459,"current_range_meters":14000,"station_id":"ce4bgs12rcd13ifvqcag","pricing_plan_id":"cebpf4jnsgd1na2vs0mg"},{"bike_id":"b0f32233-7188-4fa4-a84a-5c7700e6a1dd","system_id":"levelo_inurba_marseille","lat":43.296322,"lon":5.405946,"is_reserved":false,"is_disabled":false,"rental_uris":{"android":"levelo://app?vid=b0f32233-7188-4fa4-a84a-5c7700e6a1dd","ios":"levelo://app?vid=b0f32233-7188-4fa4-a84a-5c7700e6a1dd"},"vehicle_type_id":"4","last_reported":1771307459,"current_range_meters":21600,"station_id":"ce4bh0h2rcd13ifvqd60","pricing_plan_id":"cebpf4jnsgd1na2vs0mg"},{"bike_id":"821fb0be-7499-4473-8aa4-d25dd4bfdb68","system_id":"levelo_inurba_marseille","lat":43.26941,"lon":5.38607,"is_reserved":false,"is_disabled":true,"rental_uris":{"android":"levelo://app?vid=821fb0be-7499-4473-8aa4-d25dd4bfdb68","ios":"levelo://app?vid=821fb0be-7499-4473-8aa4-d25dd4bfdb68"},"vehicle_type_id":"4","last_reported":1771307459,"current_range_meters":27200,"station_id":"ce4bhh92rcd13ifvqfh0","pricing_plan_id":"cebpf4jnsgd1na2vs0mg"},{"bike_id":"8299e024-6c30-46c1-9919-615d538e7c15","system_id":"levelo_inurba_marseille","lat":43.2651,"lon":5.39544,"is_reserved":false,"is_disabled":false,"rental_uris":{"android":"levelo://app?vid=8299e024-6c30-46c1-9919-615d538e7c15","ios":"levelo://app?vid=8299e024-6c30-46c1-9919-615d538e7c15"},"vehicle_type_id":"4","last_reported":1771307459,"current_range_meters":33200,"station_id":"ce4bhi12rcd13ifvqfq0","pricing_plan_id":"cebpf4jnsgd1na2vs0mg"},{"bike_id":"57b04d8b-644a-4213-8c78-f402bd16c639","system_id":"levelo_inurba_marseille","lat":43.29143,"lon":5.38207,"is_reserved":false,"is_disabled":false,"rental_uris":{"android":"levelo://app?vid=57b04d8b-644a-4213-8c78-f402bd16c639","ios":"levelo://app?vid=57b04d8b-644a-4213-8c78-f402bd16c639"},"vehicle_type_id":"4","last_reported":1771307459,"current_range_meters":39200,"station_id":"ce4bh512rcd13ifvqe2g","pricing_plan_id":"cebpf4jnsgd1na2vs0mg"},{"bike_id":"33da8187-3eb8-4f3e-970f-0ece9caa0bce","system_id":"levelo_inurba_marseille","lat":43.24941,"lon":5.4051,"is_reserved":false,"is_disabled":false,"rental_uris":{"android":"levelo://app?vid=33da8187-3eb8-4f3e-970f-0ece9caa0bce","ios":"levelo://app?vid=33da8187-3eb8-4f3e-970f-0ece9caa0bce"},"vehicle_type_id":"4","last_reported":1771307459,"current_range_meters":29600,"station_id":"st_d2ngiaodas8pm72gd1h0","pricing_plan_id":"cebpf4jnsgd1na2vs0mg"},{"bike_id":"e6b90d0a-ba0a-47bc-835a-acfd80dea2f4","system_id":"levelo_inurba_marseille","lat":43.29804,"lon":5.44079,"is_reserved":false,"is_disabled":false,"rental_uris":{"android":"levelo://app?vid=e6b90d0a-ba0a-47bc-835a-acfd80dea2f4","ios":"levelo://app?vid=e6b90d0a-ba0a-47bc-835a-acfd80dea2f4"},"vehicle_type_id":"4","last_reported":1771307459,"current_range_meters":28000,"station_id":"st_d3jp68qikq2c7381ktn0","pricing_plan_id":"cebpf4jnsgd1na2vs0mg"},{"bike_id":"f6c8ad3f-2309-4ca4-8beb-abbcc1073144","system_id":"levelo_inurba_marseille","lat":43.28224,"lon":5.39053,"is_reserved":false,"is_disabled":false,"rental_uris":{"android":"levelo://app?vid=f6c8ad3f-2309-4ca4-8beb-abbcc1073144","ios":"levelo://app?vid=f6c8ad3f-2309-4ca4-8beb-abbcc1073144"},"vehicle_type_id":"4","last_reported":1771307459,"current_range_meters":39200,"station_id":"ce4bhn92rcd13ifvqgsg","pricing_plan_id":"cebpf4jnsgd1na2vs0mg"},{"bike_id":"e686e3bb-cf56-4617-a1dc-bf171b67427f","system_id":"levelo_inurba_marseille","lat":43.29564,"lon":5.37504,"is_reserved":false,"is_disabled":false,"rental_uris":{"android":"levelo://app?vid=e686e3bb-cf56-4617-a1dc-bf171b67427f","ios":"levelo://app?vid=e686e3bb-cf56-4617-a1dc-bf171b67427f"},"vehicle_type_id":"4","last_reported":1771307459,"current_range_meters":22000,"station_id":"ce4bgh92rcd13ifvqb50","pricing_plan_id":"cebpf4jnsgd1na2vs0mg"},{"bike_id":"62e690f0-63f6-474d-98ba-c3ee77f6bd18","system_id":"levelo_inurba_marseille","lat":43.29577,"lon":5.43926,"is_reserved":false,"is_disabled":false,"rental_uris":{"android":"levelo://app?vid=62e690f0-63f6-474d-98ba-c3ee77f6bd18","ios":"levelo://app?vid=62e690f0-63f6-474d-98ba-c3ee77f6bd18"},"vehicle_type_id":"4","last_reported":1771307459,"current_range_meters":24400,"station_id":"","pricing_plan_id":"cebpf4jnsgd1na2vs0mg"},{"bike_id":"2ff2fb35-339d-4c06-a976-53e85a4921d2","system_id":"levelo_inurba_marseille","lat":43.292782,"lon":5.401266,"is_reserved":false,"is_disabled":false,"rental_uris":{"android":"levelo://app?vid=2ff2fb35-339d-4c06-a976-53e85a4921d2","ios":"levelo://app?vid=2ff2fb35-339d-4c06-a976-53e85a4921d2"},"vehicle_type_id":"4","last_reported":1771307459,"current_range_meters":32000,"station_id":"ce4bh312rcd13ifvqdk0","pricing_plan_id":"cebpf4jnsgd1na2vs0mg"},{"bike_id":"547a920a-d5ae-4ae3-a3ed-da70807dc096","system_id":"levelo_inurba_marseille","lat":43.28695,"lon":5.37371,"is_reserved":false,"is_disabled":false,"rental_uris":{"android":"levelo://app?vid=547a920a-d5ae-4ae3-a3ed-da70807dc096","ios":"levelo://app?vid=547a920a-d5ae-4ae3-a3ed-da70807dc096"},"vehicle_type_id":"4","last_reported":1771307459,"current_range_meters":14400,"station_id":"ce4bh3p2rcd13ifvqdq0","pricing_plan_id":"cebpf4jnsgd1na2vs0mg"},{"bike_id":"11b2b510-bda2-408a-9716-7290d12afa3a","system_id":"levelo_inurba_marseille","lat":43.27825,"lon":5.39214,"is_reserved":false,"is_disabled":false,"rental_uris":{"android":"levelo://app?vid=11b2b510-bda2-408a-9716-7290d12afa3a","ios":"levelo://app?vid=11b2b510-bda2-408a-9716-7290d12afa3a"},"vehicle_type_id":"4","last_reported":1771307459,"current_range_meters":30400,"station_id":"ce4bhjp2rcd13ifvqga0","pricing_plan_id":"cebpf4jnsgd1na2vs0mg"},{"bike_id":"deb0fe7c-1f6d-4003-b46f-01c8f9cc5637","system_id":"levelo_inurba_marseille","lat":43.27212,"lon":5.39178,"is_reserved":false,"is_disabled":false,"rental_uris":{"android":"levelo://app?vid=deb0fe7c-1f6d-4003-b46f-01c8f9cc5637","ios":"levelo://app?vid=deb0fe7c-1f6d-4003-b46f-01c8f9cc5637"},"vehicle_type_id":"4","last_reported":1771307459,"current_range_meters":39200,"station_id":"ce4bhhp2rcd13ifvqfm0","pricing_plan_id":"cebpf4jnsgd1na2vs0mg"},{"bike_id":"8ba9709b-6053-4162-941f-fc8a222aea1a","system_id":"levelo_inurba_marseille","lat":43.30924,"lon":5.40152,"is_reserved":false,"is_disabled":false,"rental_uris":{"android":"levelo://app?vid=8ba9709b-6053-4162-941f-fc8a222aea1a","ios":"levelo://app?vid=8ba9709b-6053-4162-941f-fc8a222aea1a"},"vehicle_type_id":"4","last_reported":1771307459,"current_range_meters":14400,"station_id":"ce4bgvp2rcd13ifvqct0","pricing_plan_id":"cebpf4jnsgd1na2vs0mg"},{"bike_id":"45b209b0-f7ec-4530-b801-53212625f98e","system_id":"levelo_inurba_marseille","lat":43.26056,"lon":5.39388,"is_reserved":false,"is_disabled":false,"rental_uris":{"android":"levelo://app?vid=45b209b0-f7ec-4530-b801-53212625f98e","ios":"levelo://app?vid=45b209b0-f7ec-4530-b801-53212625f98e"},"vehicle_type_id":"4","last_reported":1771307459,"current_range_meters":38800,"station_id":"ce4bhh92rcd13ifvqfj0","pricing_plan_id":"cebpf4jnsgd1na2vs0mg"},{"bike_id":"40fd0452-0ae6-42bf-907f-bb1c4484b081","system_id":"levelo_inurba_marseille","lat":43.27967,"lon":5.38721,"is_reserved":false,"is_disabled":true,"rental_uris":{"android":"levelo://app?vid=40fd0452-0ae6-42bf-907f-bb1c4484b081","ios":"levelo://app?vid=40fd0452-0ae6-42bf-907f-bb1c4484b081"},"vehicle_type_id":"4","last_reported":1771307459,"current_range_meters":22800,"station_id":"ce4bhg12rcd13ifvqf80","pricing_plan_id":"cebpf4jnsgd1na2vs0mg"},{"bike_id":"b96c8c82-d62c-49e0-9629-f4c8c9415dd4","system_id":"levelo_inurba_marseille","lat":43.3032,"lon":5.4045,"is_reserved":false,"is_disabled":false,"rental_uris":{"android":"levelo://app?vid=b96c8c82-d62c-49e0-9629-f4c8c9415dd4","ios":"levelo://app?vid=b96c8c82-d62c-49e0-9629-f4c8c9415dd4"},"vehicle_type_id":"4","last_reported":1771307459,"current_range_meters":39200,"station_id":"ce4bh012rcd13ifvqd10","pricing_plan_id":"cebpf4jnsgd1na2vs0mg"},{"bike_id":"d1d21e5e-5cb2-4e52-a7df-8790ee684f76","system_id":"levelo_inurba_marseille","lat":43.29378,"lon":5.37844,"is_reserved":false,"is_disabled":true,"rental_uris":{"android":"levelo://app?vid=d1d21e5e-5cb2-4e52-a7df-8790ee684f76","ios":"levelo://app?vid=d1d21e5e-5cb2-4e52-a7df-8790ee684f76"},"vehicle_type_id":"4","last_reported":1771307459,"current_range_meters":35600,"station_id":"ce4bgjh2rcd13ifvqbf0","pricing_plan_id":"cebpf4jnsgd1na2vs0mg"},{"bike_id":"99a48500-7e84-4fa4-a96e-b83b80df3c14","system_id":"levelo_inurba_marseille","lat":43.25346,"lon":5.4218,"is_reserved":false,"is_disabled":false,"rental_uris":{"android":"levelo://app?vid=99a48500-7e84-4fa4-a96e-b83b80df3c14","ios":"levelo://app?vid=99a48500-7e84-4fa4-a96e-b83b80df3c14"},"vehicle_type_id":"4","last_reported":1771307459,"current_range_meters":9600,"station_id":"st_d2m65c5bi1j21697t3ng","pricing_plan_id":"cebpf4jnsgd1na2vs0mg"},{"bike_id":"eeecab8f-ce0c-4a79-9b11-0ca40cb92ba2","system_id":"levelo_inurba_marseille","lat":43.312403,"lon":5.368586,"is_reserved":false,"is_disabled":false,"rental_uris":{"android":"levelo://app?vid=eeecab8f-ce0c-4a79-9b11-0ca40cb92ba2","ios":"levelo://app?vid=eeecab8f-ce0c-4a79-9b11-0ca40cb92ba2"},"vehicle_type_id":"4","last_reported":1771307459,"current_range_meters":25600,"station_id":"ce4bgl92rcd13ifvqbq0","pricing_plan_id":"cebpf4jnsgd1na2vs0mg"},{"bike_id":"960ad6b5-06c8-4b04-b964-56217da919ed","system_id":"levelo_inurba_marseille","lat":43.248108,"lon":5.374599,"is_reserved":false,"is_disabled":false,"rental_uris":{"android":"levelo://app?vid=960ad6b5-06c8-4b04-b964-56217da919ed","ios":"levelo://app?vid=960ad6b5-06c8-4b04-b964-56217da919ed"},"vehicle_type_id":"4","last_reported":1771307459,"current_range_meters":24400,"station_id":"ce4bhgh2rcd13ifvqfb0","pricing_plan_id":"cebpf4jnsgd1na2vs0mg"},{"bike_id":"c7fbcb26-f0c5-485b-bedf-94d07ace569a","system_id":"levelo_inurba_marseille","lat":43.26215,"lon":5.40452,"is_reserved":false,"is_disabled":false,"rental_uris":{"android":"levelo://app?vid=c7fbcb26-f0c5-485b-bedf-94d07ace569a","ios":"levelo://app?vid=c7fbcb26-f0c5-485b-bedf-94d07ace569a"},"vehicle_type_id":"4","last_reported":1771307459,"current_range_meters":32800,"station_id":"ce4bhmh2rcd13ifvqgmg","pricing_plan_id":"cebpf4jnsgd1na2vs0mg"},{"bike_id":"88f1f13a-b9f4-42bb-928f-bb3ba59d1110","system_id":"levelo_inurba_marseille","lat":43.29175,"lon":5.37144,"is_reserved":false,"is_disabled":false,"rental_uris":{"android":"levelo://app?vid=88f1f13a-b9f4-42bb-928f-bb3ba59d1110","ios":"levelo://app?vid=88f1f13a-b9f4-42bb-928f-bb3ba59d1110"},"vehicle_type_id":"4","last_reported":1771307459,"current_range_meters":28800,"station_id":"ce4bha92rcd13ifvqeh0","pricing_plan_id":"cebpf4jnsgd1na2vs0mg"},{"bike_id":"74f62393-4bd9-47e9-8d53-461792093662","system_id":"levelo_inurba_marseille","lat":43.29825,"lon":5.44064,"is_reserved":false,"is_disabled":false,"rental_uris":{"android":"levelo://app?vid=74f62393-4bd9-47e9-8d53-461792093662","ios":"levelo://app?vid=74f62393-4bd9-47e9-8d53-461792093662"},"vehicle_type_id":"4","last_reported":1771307459,"current_range_meters":9600,"station_id":"st_d3jp68qikq2c7381ktn0","pricing_plan_id":"cebpf4jnsgd1na2vs0mg"},{"bike_id":"94d55430-45c9-48ad-af96-686a675c45df","system_id":"levelo_inurba_marseille","lat":43.285618,"lon":5.394966,"is_reserved":false,"is_disabled":false,"rental_uris":{"android":"levelo://app?vid=94d55430-45c9-48ad-af96-686a675c45df","ios":"levelo://app?vid=94d55430-45c9-48ad-af96-686a675c45df"},"vehicle_type_id":"4","last_reported":1771307459,"current_range_meters":39200,"station_id":"ce4bh292rcd13ifvqdg0","pricing_plan_id":"cebpf4jnsgd1na2vs0mg"},{"bike_id":"fb4f2341-17da-41d8-a946-91d867026601","system_id":"levelo_inurba_marseille","lat":43.25335,"lon":5.42168,"is_reserved":false,"is_disabled":false,"rental_uris":{"android":"levelo://app?vid=fb4f2341-17da-41d8-a946-91d867026601","ios":"levelo://app?vid=fb4f2341-17da-41d8-a946-91d867026601"},"vehicle_type_id":"4","last_reported":1771307459,"current_range_meters":9200,"station_id":"st_d2m65c5bi1j21697t3ng","pricing_plan_id":"cebpf4jnsgd1na2vs0mg"},{"bike_id":"26594335-e99b-4bd3-b082-75130e22695e","system_id":"levelo_inurba_marseille","lat":43.30146,"lon":5.38093,"is_reserved":false,"is_disabled":false,"rental_uris":{"android":"levelo://app?vid=26594335-e99b-4bd3-b082-75130e22695e","ios":"levelo://app?vid=26594335-e99b-4bd3-b082-75130e22695e"},"vehicle_type_id":"4","last_reported":1771307459,"current_range_meters":10000,"station_id":"ce4bgjp2rcd13ifvqbh0","pricing_plan_id":"cebpf4jnsgd1na2vs0mg"},{"bike_id":"cef7774b-878b-416b-b1d6-eb1f955ce887","system_id":"levelo_inurba_marseille","lat":43.23199,"lon":5.35544,"is_reserved":false,"is_disabled":false,"rental_uris":{"android":"levelo://app?vid=cef7774b-878b-416b-b1d6-eb1f955ce887","ios":"levelo://app?vid=cef7774b-878b-416b-b1d6-eb1f955ce887"},"vehicle_type_id":"4","last_reported":1771307459,"current_range_meters":25200,"station_id":"ce4bhu92rcd13ifvqi70","pricing_plan_id":"cebpf4jnsgd1na2vs0mg"},{"bike_id":"fe2fab5a-d871-47b1-ab37-071a0b8349f9","system_id":"levelo_inurba_marseille","lat":43.27897,"lon":5.3802,"is_reserved":false,"is_disabled":false,"rental_uris":{"android":"levelo://app?vid=fe2fab5a-d871-47b1-ab37-071a0b8349f9","ios":"levelo://app?vid=fe2fab5a-d871-47b1-ab37-071a0b8349f9"},"vehicle_type_id":"4","last_reported":1771307459,"current_range_meters":37600,"station_id":"ce4bhf92rcd13ifvqf50","pricing_plan_id":"cebpf4jnsgd1na2vs0mg"},{"bike_id":"cd88b8a2-4e6c-48d3-8c6b-4664b5faba1a","system_id":"levelo_inurba_marseille","lat":43.25862,"lon":5.39909,"is_reserved":false,"is_disabled":false,"rental_uris":{"android":"levelo://app?vid=cd88b8a2-4e6c-48d3-8c6b-4664b5faba1a","ios":"levelo://app?vid=cd88b8a2-4e6c-48d3-8c6b-4664b5faba1a"},"vehicle_type_id":"4","last_reported":1771307459,"current_range_meters":14800,"station_id":"ce4bhl92rcd13ifvqghg","pricing_plan_id":"cebpf4jnsgd1na2vs0mg"},{"bike_id":"a674ed2d-e09d-4711-89be-1b6401c057fa","system_id":"levelo_inurba_marseille","lat":43.28701,"lon":5.37503,"is_reserved":false,"is_disabled":false,"rental_uris":{"android":"levelo://app?vid=a674ed2d-e09d-4711-89be-1b6401c057fa","ios":"levelo://app?vid=a674ed2d-e09d-4711-89be-1b6401c057fa"},"vehicle_type_id":"4","last_reported":1771307459,"current_range_meters":39200,"station_id":"ce4bh3p2rcd13ifvqdq0","pricing_plan_id":"cebpf4jnsgd1na2vs0mg"},{"bike_id":"acd7f173-3289-4aa6-a2f5-2a7a09f206d9","system_id":"levelo_inurba_marseille","lat":43.28572,"lon":5.39501,"is_reserved":false,"is_disabled":false,"rental_uris":{"android":"levelo://app?vid=acd7f173-3289-4aa6-a2f5-2a7a09f206d9","ios":"levelo://app?vid=acd7f173-3289-4aa6-a2f5-2a7a09f206d9"},"vehicle_type_id":"4","last_reported":1771307459,"current_range_meters":28400,"station_id":"ce4bh292rcd13ifvqdg0","pricing_plan_id":"cebpf4jnsgd1na2vs0mg"},{"bike_id":"2fba3f71-4279-4d0a-9b18-aaf50eb385ed","system_id":"levelo_inurba_marseille","lat":43.25081,"lon":5.39522,"is_reserved":false,"is_disabled":false,"rental_uris":{"android":"levelo://app?vid=2fba3f71-4279-4d0a-9b18-aaf50eb385ed","ios":"levelo://app?vid=2fba3f71-4279-4d0a-9b18-aaf50eb385ed"},"vehicle_type_id":"4","last_reported":1771307459,"current_range_meters":38400,"station_id":"ce4bhm12rcd13ifvqgkg","pricing_plan_id":"cebpf4jnsgd1na2vs0mg"},{"bike_id":"d9ca43ed-de80-4ad5-b339-4a17087e0982","system_id":"levelo_inurba_marseille","lat":43.28503,"lon":5.36609,"is_reserved":false,"is_disabled":false,"rental_uris":{"android":"levelo://app?vid=d9ca43ed-de80-4ad5-b339-4a17087e0982","ios":"levelo://app?vid=d9ca43ed-de80-4ad5-b339-4a17087e0982"},"vehicle_type_id":"4","last_reported":1771307459,"current_range_meters":38400,"station_id":"ce4bhah2rcd13ifvqej0","pricing_plan_id":"cebpf4jnsgd1na2vs0mg"},{"bike_id":"322e289b-0632-4cea-8a82-cc50bbf2c65e","system_id":"levelo_inurba_marseille","lat":43.27939,"lon":5.41046,"is_reserved":false,"is_disabled":false,"rental_uris":{"android":"levelo://app?vid=322e289b-0632-4cea-8a82-cc50bbf2c65e","ios":"levelo://app?vid=322e289b-0632-4cea-8a82-cc50bbf2c65e"},"vehicle_type_id":"4","last_reported":1771307459,"current_range_meters":33600,"station_id":"ce4bhnp2rcd13ifvqh0g","pricing_plan_id":"cebpf4jnsgd1na2vs0mg"},{"bike_id":"bbc2134a-cfe4-409d-98b4-67c37d4a27a2","system_id":"levelo_inurba_marseille","lat":43.2315,"lon":5.43709,"is_reserved":false,"is_disabled":true,"rental_uris":{"android":"levelo://app?vid=bbc2134a-cfe4-409d-98b4-67c37d4a27a2","ios":"levelo://app?vid=bbc2134a-cfe4-409d-98b4-67c37d4a27a2"},"vehicle_type_id":"4","last_reported":1771307459,"current_range_meters":1200,"station_id":"ce4bhmp2rcd13ifvqgog","pricing_plan_id":"cebpf4jnsgd1na2vs0mg"},{"bike_id":"80ec94ac-1e8e-41a2-b39b-2c1291ed43a9","system_id":"levelo_inurba_marseille","lat":43.24697,"lon":5.38181,"is_reserved":false,"is_disabled":false,"rental_uris":{"android":"levelo://app?vid=80ec94ac-1e8e-41a2-b39b-2c1291ed43a9","ios":"levelo://app?vid=80ec94ac-1e8e-41a2-b39b-2c1291ed43a9"},"vehicle_type_id":"4","last_reported":1771307459,"current_range_meters":25200,"station_id":"ce4bhih2rcd13ifvqfr0","pricing_plan_id":"cebpf4jnsgd1na2vs0mg"},{"bike_id":"b66e0ad4-8ae9-49f3-9245-06bfaa860ce3","system_id":"levelo_inurba_marseille","lat":43.30904,"lon":5.36849,"is_reserved":false,"is_disabled":false,"rental_uris":{"android":"levelo://app?vid=b66e0ad4-8ae9-49f3-9245-06bfaa860ce3","ios":"levelo://app?vid=b66e0ad4-8ae9-49f3-9245-06bfaa860ce3"},"vehicle_type_id":"4","last_reported":1771307459,"current_range_meters":36400,"station_id":"ce4bgn92rcd13ifvqbvg","pricing_plan_id":"cebpf4jnsgd1na2vs0mg"},{"bike_id":"cff0f182-5762-4600-b494-9af814f5c301","system_id":"levelo_inurba_marseille","lat":43.2954,"lon":5.3906,"is_reserved":false,"is_disabled":false,"rental_uris":{"android":"levelo://app?vid=cff0f182-5762-4600-b494-9af814f5c301","ios":"levelo://app?vid=cff0f182-5762-4600-b494-9af814f5c301"},"vehicle_type_id":"4","last_reported":1771307459,"current_range_meters":36800,"station_id":"ce4bh3p2rcd13ifvqdp0","pricing_plan_id":"cebpf4jnsgd1na2vs0mg"},{"bike_id":"d7bde0f9-1e34-4064-9fcd-20ad812f4669","system_id":"levelo_inurba_marseille","lat":43.30308,"lon":5.36901,"is_reserved":false,"is_disabled":false,"rental_uris":{"android":"levelo://app?vid=d7bde0f9-1e34-4064-9fcd-20ad812f4669","ios":"levelo://app?vid=d7bde0f9-1e34-4064-9fcd-20ad812f4669"},"vehicle_type_id":"4","last_reported":1771307459,"current_range_meters":14000,"station_id":"ce4bgqh2rcd13ifvqc5g","pricing_plan_id":"cebpf4jnsgd1na2vs0mg"},{"bike_id":"45e7da87-8c29-42a6-adb7-68dd35befa2a","system_id":"levelo_inurba_marseille","lat":43.33018,"lon":5.39047,"is_reserved":false,"is_disabled":false,"rental_uris":{"android":"levelo://app?vid=45e7da87-8c29-42a6-adb7-68dd35befa2a","ios":"levelo://app?vid=45e7da87-8c29-42a6-adb7-68dd35befa2a"},"vehicle_type_id":"4","last_reported":1771307459,"current_range_meters":26800,"station_id":"ce4bhr92rcd13ifvqhrg","pricing_plan_id":"cebpf4jnsgd1na2vs0mg"},{"bike_id":"744f3dcb-1742-45db-941e-f55ea3f31f4e","system_id":"levelo_inurba_marseille","lat":43.2757,"lon":5.38403,"is_reserved":false,"is_disabled":false,"rental_uris":{"android":"levelo://app?vid=744f3dcb-1742-45db-941e-f55ea3f31f4e","ios":"levelo://app?vid=744f3dcb-1742-45db-941e-f55ea3f31f4e"},"vehicle_type_id":"4","last_reported":1771307459,"current_range_meters":36800,"station_id":"ce4bhh92rcd13ifvqfi0","pricing_plan_id":"cebpf4jnsgd1na2vs0mg"},{"bike_id":"33717768-7e0d-427c-948c-0d4b28b80e1f","system_id":"levelo_inurba_marseille","lat":43.2835,"lon":5.38106,"is_reserved":false,"is_disabled":false,"rental_uris":{"android":"levelo://app?vid=33717768-7e0d-427c-948c-0d4b28b80e1f","ios":"levelo://app?vid=33717768-7e0d-427c-948c-0d4b28b80e1f"},"vehicle_type_id":"4","last_reported":1771307459,"current_range_meters":30800,"station_id":"ce4bh412rcd13ifvqdr0","pricing_plan_id":"cebpf4jnsgd1na2vs0mg"},{"bike_id":"11623949-119f-4f24-a62d-d8f6d4a22df5","system_id":"levelo_inurba_marseille","lat":43.29892,"lon":5.3973,"is_reserved":false,"is_disabled":false,"rental_uris":{"android":"levelo://app?vid=11623949-119f-4f24-a62d-d8f6d4a22df5","ios":"levelo://app?vid=11623949-119f-4f24-a62d-d8f6d4a22df5"},"vehicle_type_id":"4","last_reported":1771307459,"current_range_meters":38800,"station_id":"ce4bh0h2rcd13ifvqd50","pricing_plan_id":"cebpf4jnsgd1na2vs0mg"},{"bike_id":"97ccd086-36d4-4005-b689-fdea1c796e9d","system_id":"levelo_inurba_marseille","lat":43.30388,"lon":5.4245,"is_reserved":false,"is_disabled":false,"rental_uris":{"android":"levelo://app?vid=97ccd086-36d4-4005-b689-fdea1c796e9d","ios":"levelo://app?vid=97ccd086-36d4-4005-b689-fdea1c796e9d"},"vehicle_type_id":"4","last_reported":1771307459,"current_range_meters":20000,"station_id":"ce4bhoh2rcd13ifvqh6g","pricing_plan_id":"cebpf4jnsgd1na2vs0mg"},{"bike_id":"c52c81c1-4244-477b-9190-a68ed89e994a","system_id":"levelo_inurba_marseille","lat":43.32578,"lon":5.41358,"is_reserved":false,"is_disabled":false,"rental_uris":{"android":"levelo://app?vid=c52c81c1-4244-477b-9190-a68ed89e994a","ios":"levelo://app?vid=c52c81c1-4244-477b-9190-a68ed89e994a"},"vehicle_type_id":"4","last_reported":1771307459,"current_range_meters":38800,"station_id":"ce4bhq12rcd13ifvqhhg","pricing_plan_id":"cebpf4jnsgd1na2vs0mg"},