{"last_updated":1728169682,"ttl":60,"version":"2.2","data":{"bikes":[{"bike_id":"b3fb91ee-2552-4bb1-b638-e1c008f0fbc7","system_id":"levelo_inurba_marseille","lat":43.26062,"lon":5.39398,"is_reserved":false,"is_disabled":false,"rental_uris":{"android":"levelo://app?vid=b3fb91ee-2552-4bb1-b638-e1c008f0fbc7","ios":"levelo://app?vid=b3fb91ee-2552-4bb1-b638-e1c008f0fbc7"},"vehicle_type_id":"4","last_reported":1728169682,"current_range_meters":38800,"station_id":"ce4bhh92rcd13ifvqfj0","pricing_plan_id":"cebpf4jnsgd1na2vs0mg"},{"bike_id":"e626ce58-ed24-403d-b16f-1544c4a5d89a","system_id":"levelo_inurba_marseille","lat":43.2319,"lon":5.35549,"is_reserved":false,"is_disabled":false,"rental_uris":{"android":"levelo://app?vid=e626ce58-ed24-403d-b16f-1544c4a5d89a","ios":"levelo://app?vid=e626ce58-ed24-403d-b16f-1544c4a5d89a"},"vehicle_type_id":"4","last_reported":1728169682,"current_range_meters":38800,"station_id":"ce4bhu92rcd13ifvqi70","pricing_plan_id":"cebpf4jnsgd1na2vs0mg"},{"bike_id":"8141a509-e797-4ec3-9b27-a12ebc8090b6","system_id":"levelo_inurba_marseille","lat":43.25115,"lon":5.40318,"is_reserved":false,"is_disabled":false,"rental_uris":{"android":"levelo://app?vid=8141a509-e797-4ec3-9b27-a12ebc8090b6","ios":"levelo://app?vid=8141a509-e797-4ec3-9b27-a12ebc8090b6"},"vehicle_type_id":"4","last_reported":1728169682,"current_range_meters":38800,"station_id":"ce4bhlh2rcd13ifvqgig","pricing_plan_id":"cebpf4jnsgd1na2vs0mg"},{"bike_id":"9671f252-4906-4ded-9eb9-fd7886dcac1f","system_id":"levelo_inurba_marseille","lat":43.31758,"lon":5.390224,"is_reserved":false,"is_disabled":false,"rental_uris":{"android":"levelo://app?vid=9671f252-4906-4ded-9eb9-fd7886dcac1f","ios":"levelo://app?vid=9671f252-4906-4ded-9eb9-fd7886dcac1f"},"vehicle_type_id":"4","last_reported":1728169682,"current_range_meters":38800,"station_id":"ce4bhqp2rcd13ifvqhng","pricing_plan_id":"cebpf4jnsgd1na2vs0mg"},{"bike_id":"442824c6-8b63-4a71-93f0-6531329b40f0","system_id":"levelo_inurba_marseille","lat":43.29187,"lon":5.35794,"is_reserved":false,"is_disabled":false,"rental_uris":{"android":"levelo://app?vid=442824c6-8b63-4a71-93f0-6531329b40f0","ios":"levelo://app?vid=442824c6-8b63-4a71-93f0-6531329b40f0"},"vehicle_type_id":"4","last_reported":1728169682,"current_range_meters":30800,"station_id":"ce4bhb12rcd13ifvqel0","pricing_plan_id":"cebpf4jnsgd1na2vs0mg"},{"bike_id":"3edccbad-c604-40df-acb2-6e9d91b67298","system_id":"levelo_inurba_marseille","lat":43.337676,"lon":5.374391,"is_reserved":false,"is_disabled":false,"rental_uris":{"android":"levelo://app?vid=3edccbad-c604-40df-acb2-6e9d91b67298","ios":"levelo://app?vid=3edccbad-c604-40df-acb2-6e9d91b67298"},"vehicle_type_id":"4","last_reported":1728169682,"current_range_meters":32000,"station_id":"","pricing_plan_id":"cebpf4jnsgd1na2vs0mg"},{"bike_id":"1715ce98-ec40-46a0-a69c-eb5d08c7ad2e","system_id":"levelo_inurba_marseille","lat":43.27428,"lon":5.39413,"is_reserved":false,"is_disabled":false,"rental_uris":{"android":"levelo://app?vid=1715ce98-ec40-46a0-a69c-eb5d08c7ad2e","ios":"levelo://app?vid=1715ce98-ec40-46a0-a69c-eb5d08c7ad2e"},"vehicle_type_id":"4","last_reported":1728169682,"current_range_meters":18800,"station_id":"ce4bhdp2rcd13ifvqf20","pricing_plan_id":"cebpf4jnsgd1na2vs0mg"},{"bike_id":"f42ba909-c6af-4d4c-bcad-ee9c6f8944ff","system_id":"levelo_inurba_marseille","lat":43.31754,"lon":5.39019,"is_reserved":false,"is_disabled":false,"rental_uris":{"android":"levelo://app?vid=f42ba909-c6af-4d4c-bcad-ee9c6f8944ff","ios":"levelo://app?vid=f42ba909-c6af-4d4c-bcad-ee9c6f8944ff"},"vehicle_type_id":"4","last_reported":1728169682,"current_range_meters":30800,"station_id":"ce4bhqp2rcd13ifvqhng","pricing_plan_id":"cebpf4jnsgd1na2vs0mg"},{"bike_id":"2b95e316-1940-4083-bf39-ae8850120b7f","system_id":"levelo_inurba_marseille","lat":43.29798,"lon":5.40404,"is_reserved":false,"is_disabled":false,"rental_uris":{"android":"levelo://app?vid=2b95e316-1940-4083-bf39-ae8850120b7f","ios":"levelo://app?vid=2b95e316-1940-4083-bf39-ae8850120b7f"},"vehicle_type_id":"4","last_reported":1728169682,"current_range_meters":7200,"station_id":"ce4bh112rcd13ifvqd90","pricing_plan_id":"cebpf4jnsgd1na2vs0mg"},{"bike_id":"5247e496-daed-4465-8046-4c6092253b0e","system_id":"levelo_inurba_marseille","lat":43.23136,"lon":5.43694,"is_reserved":false,"is_disabled":false,"rental_uris":{"android":"levelo://app?vid=5247e496-daed-4465-8046-4c6092253b0e","ios":"levelo://app?vid=5247e496-daed-4465-8046-4c6092253b0e"},"vehicle_type_id":"4","last_reported":1728169682,"current_range_meters":30400,"station_id":"ce4bhmp2rcd13ifvqgog","pricing_plan_id":"cebpf4jnsgd1na2vs0mg"},{"bike_id":"633b889a-a22f-4e08-baac-8b530217db02","system_id":"levelo_inurba_marseille","lat":43.30784,"lon":5.37652,"is_reserved":false,"is_disabled":false,"rental_uris":{"android":"levelo://app?vid=633b889a-a22f-4e08-baac-8b530217db02","ios":"levelo://app?vid=633b889a-a22f-4e08-baac-8b530217db02"},"vehicle_type_id":"4","last_reported":1728169682,"current_range_meters":28400,"station_id":"ce4bgv92rcd13ifvqcq0","pricing_plan_id":"cebpf4jnsgd1na2vs0mg"},{"bike_id":"45724e92-532e-484e-b4a7-5ca3c85c5df6","system_id":"levelo_inurba_marseille","lat":43.23961,"lon":5.36647,"is_reserved":false,"is_disabled":false,"rental_uris":{"android":"levelo://app?vid=45724e92-532e-484e-b4a7-5ca3c85c5df6","ios":"levelo://app?vid=45724e92-532e-484e-b4a7-5ca3c85c5df6"},"vehicle_type_id":"4","last_reported":1728169682,"current_range_meters":28800,"station_id":"ce4bhi12rcd13ifvqfp0","pricing_plan_id":"cebpf4jnsgd1na2vs0mg"},{"bike_id":"83e13f08-faaf-458c-83f7-0cfb8d73fa11","system_id":"levelo_inurba_marseille","lat":43.27424,"lon":5.39406,"is_reserved":false,"is_disabled":false,"rental_uris":{"android":"levelo://app?vid=83e13f08-faaf-458c-83f7-0cfb8d73fa11","ios":"levelo://app?vid=83e13f08-faaf-458c-83f7-0cfb8d73fa11"},"vehicle_type_id":"4","last_reported":1728169682,"current_range_meters":22400,"station_id":"ce4bhdp2rcd13ifvqf20","pricing_plan_id":"cebpf4jnsgd1na2vs0mg"},{"bike_id":"31ea6b97-9b1b-4830-91db-ea5d9e36526f","system_id":"levelo_inurba_marseille","lat":43.28034,"lon":5.36952,"is_reserved":false,"is_disabled":false,"rental_uris":{"android":"levelo://app?vid=31ea6b97-9b1b-4830-91db-ea5d9e36526f","ios":"levelo://app?vid=31ea6b97-9b1b-4830-91db-ea5d9e36526f"},"vehicle_type_id":"4","last_reported":1728169682,"current_range_meters":33200,"station_id":"ce4bha12rcd13ifvqef0","pricing_plan_id":"cebpf4jnsgd1na2vs0mg"},{"bike_id":"ba0180d4-cf64-48df-8270-0db5fe20d0c7","system_id":"levelo_inurba_marseille","lat":43.29554,"lon":5.42286,"is_reserved":false,"is_disabled":false,"rental_uris":{"android":"levelo://app?vid=ba0180d4-cf64-48df-8270-0db5fe20d0c7","ios":"levelo://app?vid=ba0180d4-cf64-48df-8270-0db5fe20d0c7"},"vehicle_type_id":"4","last_reported":1728169682,"current_range_meters":38800,"station_id":"ce4bhph2rcd13ifvqhdg","pricing_plan_id":"cebpf4jnsgd1na2vs0mg"},{"bike_id":"6266ab0d-036e-4351-aec4-c2f2013119e5","system_id":"levelo_inurba_marseille","lat":43.324923,"lon":5.365648,"is_reserved":false,"is_disabled":false,"rental_uris":{"android":"levelo://app?vid=6266ab0d-036e-4351-aec4-c2f2013119e5","ios":"levelo://app?vid=6266ab0d-036e-4351-aec4-c2f2013119e5"},"vehicle_type_id":"4","last_reported":1728169682,"current_range_meters":38000,"station_id":"ce4bhs12rcd13ifvqhvg","pricing_plan_id":"cebpf4jnsgd1na2vs0mg"},{"bike_id":"a2153ac2-6bee-4af8-9fcf-4a9bf85c4fae","system_id":"levelo_inurba_marseille","lat":43.31692,"lon":5.40475,"is_reserved":false,"is_disabled":false,"rental_uris":{"android":"levelo://app?vid=a2153ac2-6bee-4af8-9fcf-4a9bf85c4fae","ios":"levelo://app?vid=a2153ac2-6bee-4af8-9fcf-4a9bf85c4fae"},"vehicle_type_id":"4","last_reported":1728169682,"current_range_meters":12800,"station_id":"ce4bh012rcd13ifvqd00","pricing_plan_id":"cebpf4jnsgd1na2vs0mg"},{"bike_id":"2c1ccc48-7b9a-4b96-82c1-feb476287a75","system_id":"levelo_inurba_marseille","lat":43.25086,"lon":5.39506,"is_reserved":false,"is_disabled":false,"rental_uris":{"android":"levelo://app?vid=2c1ccc48-7b9a-4b96-82c1-feb476287a75","ios":"levelo://app?vid=2c1ccc48-7b9a-4b96-82c1-feb476287a75"},"vehicle_type_id":"4","last_reported":1728169682,"current_range_meters":37600,"station_id":"ce4bhm12rcd13ifvqgkg","pricing_plan_id":"cebpf4jnsgd1na2vs0mg"},{"bike_id":"a13e344b-cdaf-4004-89db-8f7efa009d7d","system_id":"levelo_inurba_marseille","lat":43.29572,"lon":5.39979,"is_reserved":false,"is_disabled":false,"rental_uris":{"android":"levelo://app?vid=a13e344b-cdaf-4004-89db-8f7efa009d7d","ios":"levelo://app?vid=a13e344b-cdaf-4004-89db-8f7efa009d7d"},"vehicle_type_id":"4","last_reported":1728169682,"current_range_meters":27600,"station_id":"ce4bh312rcd13ifvqdj0","pricing_plan_id":"cebpf4jnsgd1na2vs0mg"},{"bike_id":"f11dd066-6b94-4d0b-8a87-cb59e5dabda0","system_id":"levelo_inurba_marseille","lat":43.31278,"lon":5.4017,"is_reserved":false,"is_disabled":false,"rental_uris":{"android":"levelo://app?vid=f11dd066-6b94-4d0b-8a87-cb59e5dabda0","ios":"levelo://app?vid=f11dd066-6b94-4d0b-8a87-cb59e5dabda0"},"vehicle_type_id":"4","last_reported":1728169682,"current_range_meters":40000,"station_id":"ce4bh092rcd13ifvqd30","pricing_plan_id":"cebpf4jnsgd1na2vs0mg"},{"bike_id":"0d0e0ecb-fa39-4b2d-837c-2640b37ab292","system_id":"levelo_inurba_marseille","lat":43.30301,"lon":5.39216,"is_reserved":false,"is_disabled":false,"rental_uris":{"android":"levelo://app?vid=0d0e0ecb-fa39-4b2d-837c-2640b37ab292","ios":"levelo://app?vid=0d0e0ecb-fa39-4b2d-837c-2640b37ab292"},"vehicle_type_id":"4","last_reported":1728169682,"current_range_meters":25600,"station_id":"ce4bgkh2rcd13ifvqbk0","pricing_plan_id":"cebpf4jnsgd1na2vs0mg"},{"bike_id":"75dbce07-c755-4145-9e54-8edf0905547b","system_id":"levelo_inurba_marseille","lat":43.27831,"lon":5.39217,"is_reserved":false,"is_disabled":false,"rental_uris":{"android":"levelo://app?vid=75dbce07-c755-4145-9e54-8edf0905547b","ios":"levelo://app?vid=75dbce07-c755-4145-9e54-8edf0905547b"},"vehicle_type_id":"4","last_reported":1728169682,"current_range_meters":38400,"station_id":"ce4bhjp2rcd13ifvqga0","pricing_plan_id":"cebpf4jnsgd1na2vs0mg"},{"bike_id":"68ecf37e-031f-4b6a-a3d6-30fc7a23d9ad","system_id":"levelo_inurba_marseille","lat":43.28072,"lon":5.3965,"is_reserved":false,"is_disabled":false,"rental_uris":{"android":"levelo://app?vid=68ecf37e-031f-4b6a-a3d6-30fc7a23d9ad","ios":"levelo://app?vid=68ecf37e-031f-4b6a-a3d6-30fc7a23d9ad"},"vehicle_type_id":"4","last_reported":1728169682,"current_range_meters":16000,"station_id":"ce4bho12rcd13ifvqh2g","pricing_plan_id":"cebpf4jnsgd1na2vs0mg"},{"bike_id":"d400c7ec-ec41-454d-bc03-d51bb1335f0f","system_id":"levelo_inurba_marseille","lat":43.29528,"lon":5.39047,"is_reserved":false,"is_disabled":false,"rental_uris":{"android":"levelo://app?vid=d400c7ec-ec41-454d-bc03-d51bb1335f0f","ios":"levelo://app?vid=d400c7ec-ec41-454d-bc03-d51bb1335f0f"},"vehicle_type_id":"4","last_reported":1728169682,"current_range_meters":30000,"station_id":"ce4bh3p2rcd13ifvqdp0","pricing_plan_id":"cebpf4jnsgd1na2vs0mg"},{"bike_id":"a013fc0e-79f4-4493-bf94-abf4fcb0118b","system_id":"levelo_inurba_marseille","lat":43.28107,"lon":5.37835,"is_reserved":false,"is_disabled":false,"rental_uris":{"android":"levelo://app?vid=a013fc0e-79f4-4493-bf94-abf4fcb0118b","ios":"levelo://app?vid=a013fc0e-79f4-4493-bf94-abf4fcb0118b"},"vehicle_type_id":"4","last_reported":1728169682,"current_range_meters":27200,"station_id":"ce4bha12rcd13ifvqee0","pricing_plan_id":"cebpf4jnsgd1na2vs0mg"},{"bike_id":"8f568ac0-6709-4e1b-976a-2ebd965361a0","system_id":"levelo_inurba_marseille","lat":43.31531,"lon":5.38029,"is_reserved":false,"is_disabled":false,"rental_uris":{"android":"levelo://app?vid=8f568ac0-6709-4e1b-976a-2ebd965361a0","ios":"levelo://app?vid=8f568ac0-6709-4e1b-976a-2ebd965361a0"},"vehicle_type_id":"4","last_reported":1728169682,"current_range_meters":6400,"station_id":"ce4bhsp2rcd13ifvqi50","pricing_plan_id":"cebpf4jnsgd1na2vs0mg"},{"bike_id":"03ebdfef-60b9-4383-b780-f6e10ef5dff9","system_id":"levelo_inurba_marseille","lat":43.33751,"lon":5.37442,"is_reserved":false,"is_disabled":false,"rental_uris":{"android":"levelo://app?vid=03ebdfef-60b9-4383-b780-f6e10ef5dff9","ios":"levelo://app?vid=03ebdfef-60b9-4383-b780-f6e10ef5dff9"},"vehicle_type_id":"4","last_reported":1728169682,"current_range_meters":30400,"station_id":"","pricing_plan_id":"cebpf4jnsgd1na2vs0mg"},{"bike_id":"2af3a296-acf1-4a1b-ac20-a269b1358416","system_id":"levelo_inurba_marseille","lat":43.25828,"lon":5.39436,"is_reserved":false,"is_disabled":false,"rental_uris":{"android":"levelo://app?vid=2af3a296-acf1-4a1b-ac20-a269b1358416","ios":"levelo://app?vid=2af3a296-acf1-4a1b-ac20-a269b1358416"},"vehicle_type_id":"4","last_reported":1728169682,"current_range_meters":38800,"station_id":"ce4bhip2rcd13ifvqft0","pricing_plan_id":"cebpf4jnsgd1na2vs0mg"},{"bike_id":"8776769b-9d44-4cbf-8bfe-df4892fb90c2","system_id":"levelo_inurba_marseille","lat":43.323666,"lon":5.388746,"is_reserved":false,"is_disabled":false,"rental_uris":{"android":"levelo://app?vid=8776769b-9d44-4cbf-8bfe-df4892fb90c2","ios":"levelo://app?vid=8776769b-9d44-4cbf-8bfe-df4892fb90c2"},"vehicle_type_id":"4","last_reported":1728169682,"current_range_meters":38400,"station_id":"ce4bhqp2rcd13ifvqhog","pricing_plan_id":"cebpf4jnsgd1na2vs0mg"},{"bike_id":"0952ea56-7f44-4708-ab22-7a7a98985b63","system_id":"levelo_inurba_marseille","lat":43.33025,"lon":5.39031,"is_reserved":false,"is_disabled":false,"rental_uris":{"android":"levelo://app?vid=0952ea56-7f44-4708-ab22-7a7a98985b63","ios":"levelo://app?vid=0952ea56-7f44-4708-ab22-7a7a98985b63"},"vehicle_type_id":"4","last_reported":1728169682,"current_range_meters":34000,"station_id":"ce4bhr92rcd13ifvqhrg","pricing_plan_id":"cebpf4jnsgd1na2vs0mg"},{"bike_id":"8c4ede2a-8479-4951-912b-e9104b176599","system_id":"levelo_inurba_marseille","lat":43.33723,"lon":5.39198,"is_reserved":false,"is_disabled":false,"rental_uris":{"android":"levelo://app?vid=8c4ede2a-8479-4951-912b-e9104b176599","ios":"levelo://app?vid=8c4ede2a-8479-4951-912b-e9104b176599"},"vehicle_type_id":"4","last_reported":1728169682,"current_range_meters":10000,"station_id":"ce4bhr92rcd13ifvqhsg","pricing_plan_id":"cebpf4jnsgd1na2vs0mg"},{"bike_id":"0070bd1d-0841-43bf-9fe9-9007ec3667b5","system_id":"levelo_inurba_marseille","lat":43.2891,"lon":5.39513,"is_reserved":false,"is_disabled":false,"rental_uris":{"android":"levelo://app?vid=0070bd1d-0841-43bf-9fe9-9007ec3667b5","ios":"levelo://app?vid=0070bd1d-0841-43bf-9fe9-9007ec3667b5"},"vehicle_type_id":"4","last_reported":1728169682,"current_range_meters":18800,"station_id":"","pricing_plan_id":"cebpf4jnsgd1na2vs0mg"},{"bike_id":"a209a971-131e-491a-94c0-3302688dd8c9","system_id":"levelo_inurba_marseille","lat":43.30824,"lon":5.43524,"is_reserved":false,"is_disabled":false,"rental_uris":{"android":"levelo://app?vid=a209a971-131e-491a-94c0-3302688dd8c9","ios":"levelo://app?vid=a209a971-131e-491a-94c0-3302688dd8c9"},"vehicle_type_id":"4","last_reported":1728169682,"current_range_meters":16000,"station_id":"ce4bhph2rcd13ifvqheg","pricing_plan_id":"cebpf4jnsgd1na2vs0mg"},{"bike_id":"4018fa26-9a2a-4214-af21-76b3667a940b","system_id":"levelo_inurba_marseille","lat":43.33755,"lon":5.37429,"is_reserved":false,"is_disabled":false,"rental_uris":{"android":"levelo://app?vid=4018fa26-9a2a-4214-af21-76b3667a940b","ios":"levelo://app?vid=4018fa26-9a2a-4214-af21-76b3667a940b"},"vehicle_type_id":"4","last_reported":1728169682,"current_range_meters":30400,"station_id":"","pricing_plan_id":"cebpf4jnsgd1na2vs0mg"},{"bike_id":"6f2fedae-1e6d-4aa6-b502-0c36e2a9f41c","system_id":"levelo_inurba_marseille","lat":43.305176,"lon":5.366867,"is_reserved":false,"is_disabled":false,"rental_uris":{"android":"levelo://app?vid=6f2fedae-1e6d-4aa6-b502-0c36e2a9f41c","ios":"levelo://app?vid=6f2fedae-1e6d-4aa6-b502-0c36e2a9f41c"},"vehicle_type_id":"4","last_reported":1728169682,"current_range_meters":18000,"station_id":"ce4bhgp2rcd13ifvqfe0","pricing_plan_id":"cebpf4jnsgd1na2vs0mg"},{"bike_id":"66a3911d-261b-4658-9123-6edcbc033e45","system_id":"levelo_inurba_marseille","lat":43.29268,"lon":5.36845,"is_reserved":false,"is_disabled":false,"rental_uris":{"android":"levelo://app?vid=66a3911d-261b-4658-9123-6edcbc033e45","ios":"levelo://app?vid=66a3911d-261b-4658-9123-6edcbc033e45"},"vehicle_type_id":"4","last_reported":1728169682,"current_range_meters":10000,"station_id":"ce4bhbp2rcd13ifvqesg","pricing_plan_id":"cebpf4jnsgd1na2vs0mg"},{"bike_id":"fac6f7d5-25da-4d75-bd37-6eb9ec641f1f","system_id":"levelo_inurba_marseille","lat":43.23192,"lon":5.35552,"is_reserved":false,"is_disabled":false,"rental_uris":{"android":"levelo://app?vid=fac6f7d5-25da-4d75-bd37-6eb9ec641f1f","ios":"levelo://app?vid=fac6f7d5-25da-4d75-bd37-6eb9ec641f1f"},"vehicle_type_id":"4","last_reported":1728169682,"current_range_meters":38800,"station_id":"ce4bhu92rcd13ifvqi70","pricing_plan_id":"cebpf4jnsgd1na2vs0mg"},{"bike_id":"ac7477e2-647f-4698-b2f1-05ac6bd7ca79","system_id":"levelo_inurba_marseille","lat":43.2738,"lon":5.36257,"is_reserved":false,"is_disabled":false,"rental_uris":{"android":"levelo://app?vid=ac7477e2-647f-4698-b2f1-05ac6bd7ca79","ios":"levelo://app?vid=ac7477e2-647f-4698-b2f1-05ac6bd7ca79"},"vehicle_type_id":"4","last_reported":1728169682,"current_range_meters":36800,"station_id":"ce4bhbh2rcd13ifvqeo0","pricing_plan_id":"cebpf4jnsgd1na2vs0mg"},{"bike_id":"c2631e27-f561-45cd-964c-4f2a217a8c4e","system_id":"levelo_inurba_marseille","lat":43.30642,"lon":5.40096,"is_reserved":false,"is_disabled":false,"rental_uris":{"android":"levelo://app?vid=c2631e27-f561-45cd-964c-4f2a217a8c4e","ios":"levelo://app?vid=c2631e27-f561-45cd-964c-4f2a217a8c4e"},"vehicle_type_id":"4","last_reported":1728169682,"current_range_meters":6800,"station_id":"ce4bh112rcd13ifvqda0","pricing_plan_id":"cebpf4jnsgd1na2vs0mg"},{"bike_id":"0f0a2d4d-e5cb-44a5-af83-f1a52ba5ef97","system_id":"levelo_inurba_marseille","lat":43.31492,"lon":5.37305,"is_reserved":false,"is_disabled":false,"rental_uris":{"android":"levelo://app?vid=0f0a2d4d-e5cb-44a5-af83-f1a52ba5ef97","ios":"levelo://app?vid=0f0a2d4d-e5cb-44a5-af83-f1a52ba5ef97"},"vehicle_type_id":"4","last_reported":1728169682,"current_range_meters":38000,"station_id":"ce4bgt12rcd13ifvqcd0","pricing_plan_id":"cebpf4jnsgd1na2vs0mg"},{"bike_id":"0a6abf91-5934-4bff-86d6-d42b6ef92f8f","system_id":"levelo_inurba_marseille","lat":43.28104,"lon":5.37836,"is_reserved":false,"is_disabled":false,"rental_uris":{"android":"levelo://app?vid=0a6abf91-5934-4bff-86d6-d42b6ef92f8f","ios":"levelo://app?vid=0a6abf91-5934-4bff-86d6-d42b6ef92f8f"},"vehicle_type_id":"4","last_reported":1728169682,"current_range_meters":17200,"station_id":"ce4bha12rcd13ifvqee0","pricing_plan_id":"cebpf4jnsgd1na2vs0mg"},{"bike_id":"270d446c-c917-4cb4-bb1b-6308ef4780b2","system_id":"levelo_inurba_marseille","lat":43.31369,"lon":5.38498,"is_reserved":false,"is_disabled":false,"rental_uris":{"android":"levelo://app?vid=270d446c-c917-4cb4-bb1b-6308ef4780b2","ios":"levelo://app?vid=270d446c-c917-4cb4-bb1b-6308ef4780b2"},"vehicle_type_id":"4","last_reported":1728169682,"current_range_meters":11200,"station_id":"ce4bgt92rcd13ifvqcf0","pricing_plan_id":"cebpf4jnsgd1na2vs0mg"},{"bike_id":"be80d8a2-d07f-4e97-a19e-421069027a70","system_id":"levelo_inurba_marseille","lat":43.24548,"lon":5.39522,"is_reserved":false,"is_disabled":false,"rental_uris":{"android":"levelo://app?vid=be80d8a2-d07f-4e97-a19e-421069027a70","ios":"levelo://app?vid=be80d8a2-d07f-4e97-a19e-421069027a70"},"vehicle_type_id":"4","last_reported":1728169682,"current_range_meters":38800,"station_id":"ce4bhlp2rcd13ifvqgjg","pricing_plan_id":"cebpf4jnsgd1na2vs0mg"},{"bike_id":"491813ec-5bcd-4eda-acb2-c01ccb4e9894","system_id":"levelo_inurba_marseille","lat":43.33764,"lon":5.37433,"is_reserved":false,"is_disabled":false,"rental_uris":{"android":"levelo://app?vid=491813ec-5bcd-4eda-acb2-c01ccb4e9894","ios":"levelo://app?vid=491813ec-5bcd-4eda-acb2-c01ccb4e9894"},"vehicle_type_id":"4","last_reported":1728169682,"current_range_meters":33200,"station_id":"","pricing_plan_id":"cebpf4jnsgd1na2vs0mg"},{"bike_id":"3e73745e-f9be-4060-862f-b92f1ee6a9ab","system_id":"levelo_inurba_marseille","lat":43.31368,"lon":5.38496,"is_reserved":false,"is_disabled":false,"rental_uris":{"android":"levelo://app?vid=3e73745e-f9be-4060-862f-b92f1ee6a9ab","ios":"levelo://app?vid=3e73745e-f9be-4060-862f-b92f1ee6a9ab"},"vehicle_type_id":"4","last_reported":1728169682,"current_range_meters":29600,"station_id":"ce4bgt92rcd13ifvqcf0","pricing_plan_id":"cebpf4jnsgd1na2vs0mg"},{"bike_id":"87be7a17-4302-4965-8336-821c2174ed32","system_id":"levelo_inurba_marseille","lat":43.25122,"lon":5.40325,"is_reserved":false,"is_disabled":false,"rental_uris":{"android":"levelo://app?vid=87be7a17-4302-4965-8336-821c2174ed32","ios":"levelo://app?vid=87be7a17-4302-4965-8336-821c2174ed32"},"vehicle_type_id":"4","last_reported":1728169682,"current_range_meters":38800,"station_id":"ce4bhlh2rcd13ifvqgig","pricing_plan_id":"cebpf4jnsgd1na2vs0mg"},{"bike_id":"c56a7f6d-1c51-4af0-848a-53ce2371dbf4","system_id":"levelo_inurba_marseille","lat":43.31722,"lon":5.42403,"is_reserved":false,"is_disabled":false,"rental_uris":{"android":"levelo://app?vid=c56a7f6d-1c51-4af0-848a-53ce2371dbf4","ios":"levelo://app?vid=c56a7f6d-1c51-4af0-848a-53ce2371dbf4"},"vehicle_type_id":"4","last_reported":1728169682,"current_range_meters":19200,"station_id":"ce4bhp92rcd13ifvqhbg","pricing_plan_id":"cebpf4jnsgd1na2vs0mg"},{"bike_id":"baba7691-81ff-4c7d-90d9-c89eba9696cb","system_id":"levelo_inurba_marseille","lat":43.25929,"lon":5.40912,"is_reserved":false,"is_disabled":false,"rental_uris":{"android":"levelo://app?vid=baba7691-81ff-4c7d-90d9-c89eba9696cb","ios":"levelo://app?vid=baba7691-81ff-4c7d-90d9-c89eba9696cb"},"vehicle_type_id":"4","last_reported":1728169682,"current_range_meters":35200,"station_id":"ce4bhm92rcd13ifvqglg","pricing_plan_id":"cebpf4jnsgd1na2vs0mg"},{"bike_id":"598e7482-d528-4354-8ef8-35deedd58485","system_id":"levelo_inurba_marseille","lat":43.29709,"lon":5.36617,"is_reserved":false,"is_disabled":false,"rental_uris":{"android":"levelo://app?vid=598e7482-d528-4354-8ef8-35deedd58485","ios":"levelo://app?vid=598e7482-d528-4354-8ef8-35deedd58485"},"vehicle_type_id":"4","last_reported":1728169682,"current_range_meters":26000,"station_id":"ce4bgn12rcd13ifvqbt0","pricing_plan_id":"cebpf4jnsgd1na2vs0mg"},{"bike_id":"50b3012e-ec86-40b5-9328-579a7f881b99","system_id":"levelo_inurba_marseille","lat":43.29049,"lon":5.35914,"is_reserved":false,"is_disabled":false,"rental_uris":{"android":"levelo://app?vid=50b3012e-ec86-40b5-9328-579a7f881b99","ios":"levelo://app?vid=50b3012e-ec86-40b5-9328-579a7f881b99"},"vehicle_type_id":"4","last_reported":1728169682,"current_range_meters":23200,"station_id":"ce4bha92rcd13ifvqeg0","pricing_plan_id":"cebpf4jnsgd1na2vs0mg"},{"bike_id":"2b08579d-333c-4fe2-94e8-5ba5b8475885","system_id":"levelo_inurba_marseille","lat":43.27074,"lon":5.42282,"is_reserved":false,"is_disabled":false,"rental_uris":{"android":"levelo://app?vid=2b08579d-333c-4fe2-94e8-5ba5b8475885","ios":"levelo://app?vid=2b08579d-333c-4fe2-94e8-5ba5b8475885"},"vehicle_type_id":"4","last_reported":1728169682,"current_range_meters":39200,"station_id":"ce4bhk92rcd13ifvqgb0","pricing_plan_id":"cebpf4jnsgd1na2vs0mg"},{"bike_id":"be1fc320-dd97-4954-ac7c-7de9b96a03e0","system_id":"levelo_inurba_marseille","lat":43.29554,"lon":5.42276,"is_reserved":false,"is_disabled":false,"rental_uris":{"android":"levelo://app?vid=be1fc320-dd97-4954-ac7c-7de9b96a03e0","ios":"levelo://app?vid=be1fc320-dd97-4954-ac7c-7de9b96a03e0"},"vehicle_type_id":"4","last_reported":1728169682,"current_range_meters":15200,"station_id":"ce4bhph2rcd13ifvqhdg","pricing_plan_id":"cebpf4jnsgd1na2vs0mg"},{"bike_id":"1a4b9bee-9297-474e-8c5a-addba9e72262","system_id":"levelo_inurba_marseille","lat":43.27492,"lon":5.42459,"is_reserved":false,"is_disabled":false,"rental_uris":{"android":"levelo://app?vid=1a4b9bee-9297-474e-8c5a-addba9e72262","ios":"levelo://app?vid=1a4b9bee-9297-474e-8c5a-addba9e72262"},"vehicle_type_id":"4","last_reported":1728169682,"current_range_meters":35600,"station_id":"ce4bhn92rcd13ifvqgrg","pricing_plan_id":"cebpf4jnsgd1na2vs0mg"},{"bike_id":"d23ddbe4-840b-4d6d-8e13-a20922334a77","system_id":"levelo_inurba_marseille","lat":43.32485,"lon":5.36553,"is_reserved":false,"is_disabled":false,"rental_uris":{"android":"levelo://app?vid=d23ddbe4-840b-4d6d-8e13-a20922334a77","ios":"levelo://app?vid=d23ddbe4-840b-4d6d-8e13-a20922334a77"},"vehicle_type_id":"4","last_reported":1728169682,"current_range_meters":38800,"station_id":"ce4bhs12rcd13ifvqhvg","pricing_plan_id":"cebpf4jnsgd1na2vs0mg"},{"bike_id":"4af55307-045f-4c66-a045-a91d88bb4c16","system_id":"levelo_inurba_marseille","lat":43.33764,"lon":5.37428,"is_reserved":false,"is_disabled":false,"rental_uris":{"android":"levelo://app?vid=4af55307-045f-4c66-a045-a91d88bb4c16","ios":"levelo://app?vid=4af55307-045f-4c66-a045-a91d88bb4c16"},"vehicle_type_id":"4","last_reported":1728169682,"current_range_meters":34000,"station_id":"","pricing_plan_id":"cebpf4jnsgd1na2vs0mg"},{"bike_id":"41523f19-68f1-4c55-8c6a-46199b7f6643","system_id":"levelo_inurba_marseille","lat":43.28077,"lon":5.39659,"is_reserved":false,"is_disabled":false,"rental_uris":{"android":"levelo://app?vid=41523f19-68f1-4c55-8c6a-46199b7f6643","ios":"levelo://app?vid=41523f19-68f1-4c55-8c6a-46199b7f6643"},"vehicle_type_id":"4","last_reported":1728169682,"current_range_meters":38800,"station_id":"ce4bho12rcd13ifvqh2g","pricing_plan_id":"cebpf4jnsgd1na2vs0mg"},{"bike_id":"f1a5d0a5-6c6c-4e53-a5a3-e81641cb0aa0","system_id":"levelo_inurba_marseille","lat":43.28849,"lon":5.35856,"is_reserved":false,"is_disabled":false,"rental_uris":{"android":"levelo://app?vid=f1a5d0a5-6c6c-4e53-a5a3-e81641cb0aa0","ios":"levelo://app?vid=f1a5d0a5-6c6c-4e53-a5a3-e81641cb0aa0"},"vehicle_type_id":"4","last_reported":1728169682,"current_range_meters":32800,"station_id":"ce4bhb12rcd13ifvqem0","pricing_plan_id":"cebpf4jnsgd1na2vs0mg"},{"bike_id":"13a35d1a-1c21-4cdd-9282-17040c700716","system_id":"levelo_inurba_marseille","lat":43.32546,"lon":5.41444,"is_reserved":false,"is_disabled":false,"rental_uris":{"android":"levelo://app?vid=13a35d1a-1c21-4cdd-9282-17040c700716","ios":"levelo://app?vid=13a35d1a-1c21-4cdd-9282-17040c700716"},"vehicle_type_id":"4","last_reported":1728169682,"current_range_meters":36800,"station_id":"ce4bhq12rcd13ifvqhhg","pricing_plan_id":"cebpf4jnsgd1na2vs0mg"},{"bike_id":"5fe9af2d-0282-40cf-ae73-3a1b842e2f4b","system_id":"levelo_inurba_marseille","lat":43.2306,"lon":5.3549,"is_reserved":false,"is_disabled":false,"rental_uris":{"android":"levelo://app?vid=5fe9af2d-0282-40cf-ae73-3a1b842e2f4b","ios":"levelo://app?vid=5fe9af2d-0282-40cf-ae73-3a1b842e2f4b"},"vehicle_type_id":"4","last_reported":1728169682,"current_range_meters":38800,"station_id":"","pricing_plan_id":"cebpf4jnsgd1na2vs0mg"},{"bike_id":"544c5222-5e5f-424c-97d9-902e66ffec96","system_id":"levelo_inurba_marseille","lat":43.31118,"lon":5.37772,"is_reserved":false,"is_disabled":false,"rental_uris":{"android":"levelo://app?vid=544c5222-5e5f-424c-97d9-902e66ffec96","ios":"levelo://app?vid=544c5222-5e5f-424c-97d9-902e66ffec96"},"vehicle_type_id":"4","last_reported":1728169682,"current_range_meters":38800,"station_id":"ce4bgt92rcd13ifvqcg0","pricing_plan_id":"cebpf4jnsgd1na2vs0mg"},{"bike_id":"ec6e251e-99d1-4ac4-a075-545dbd029bdc","system_id":"levelo_inurba_marseille","lat":43.28901,"lon":5.36211,"is_reserved":false,"is_disabled":false,"rental_uris":{"android":"levelo://app?vid=ec6e251e-99d1-4ac4-a075-545dbd029bdc","ios":"levelo://app?vid=ec6e251e-99d1-4ac4-a075-545dbd029bdc"},"vehicle_type_id":"4","last_reported":1728169682,"current_range_meters":32000,"station_id":"","pricing_plan_id":"cebpf4jnsgd1na2vs0mg"},{"bike_id":"32de8690-8902-45d9-9261-1a5a54055b39","system_id":"levelo_inurba_marseille","lat":43.33024,"lon":5.39035,"is_reserved":false,"is_disabled":false,"rental_uris":{"android":"levelo://app?vid=32de8690-8902-45d9-9261-1a5a54055b39","ios":"levelo://app?vid=32de8690-8902-45d9-9261-1a5a54055b39"},"vehicle_type_id":"4","last_reported":1728169682,"current_range_meters":38800,"station_id":"ce4bhr92rcd13ifvqhrg","pricing_plan_id":"cebpf4jnsgd1na2vs0mg"},{"bike_id":"6a4acb12-a5ac-4a0e-a8f4-746f667028fc","system_id":"levelo_inurba_marseille","lat":43.29247,"lon":5.409108,"is_reserved":false,"is_disabled":false,"rental_uris":{"android":"levelo://app?vid=6a4acb12-a5ac-4a0e-a8f4-746f667028fc","ios":"levelo://app?vid=6a4acb12-a5ac-4a0e-a8f4-746f667028fc"},"vehicle_type_id":"4","last_reported":1728169682,"current_range_meters":36000,"station_id":"ce4bh192rcd13ifvqdc0","pricing_plan_id":"cebpf4jnsgd1na2vs0mg"},{"bike_id":"f41af709-4741-45bf-a75a-e5e2fdef89e3","system_id":"levelo_inurba_marseille","lat":43.2873,"lon":5.360841,"is_reserved":false,"is_disabled":false,"rental_uris":{"android":"levelo://app?vid=f41af709-4741-45bf-a75a-e5e2fdef89e3","ios":"levelo://app?vid=f41af709-4741-45bf-a75a-e5e2fdef89e3"},"vehicle_type_id":"4","last_reported":1728169682,"current_range_meters":38400,"station_id":"cki0cbj6b192h4jlfktg","pricing_plan_id":"cebpf4jnsgd1na2vs0mg"},{"bike_id":"c3b2aa6a-1c50-42c0-9473-daee37163d51","system_id":"levelo_inurba_marseille","lat":43.283997,"lon":5.37514,"is_reserved":false,"is_disabled":false,"rental_uris":{"android":"levelo://app?vid=c3b2aa6a-1c50-42c0-9473-daee37163d51","ios":"levelo://app?vid=c3b2aa6a-1c50-42c0-9473-daee37163d51"},"vehicle_type_id":"4","last_reported":1728169682,"current_range_meters":28400,"station_id":"ce4bh412rcd13ifvqds0","pricing_plan_id":"cebpf4jnsgd1na2vs0mg"},{"bike_id":"ad4ff437-508d-4571-b342-7c6dc2f849f3","system_id":"levelo_inurba_marseille","lat":43.30251,"lon":5.40056,"is_reserved":false,"is_disabled":false,"rental_uris":{"android":"levelo://app?vid=ad4ff437-508d-4571-b342-7c6dc2f849f3","ios":"levelo://app?vid=ad4ff437-508d-4571-b342-7c6dc2f849f3"},"vehicle_type_id":"4","last_reported":1728169682,"current_range_meters":16400,"station_id":"ce4bgvh2rcd13ifvqcs0","pricing_plan_id":"cebpf4jnsgd1na2vs0mg"},{"bike_id":"14abf955-5b60-4edd-9d56-67610511fa5d","system_id":"levelo_inurba_marseille","lat":43.27945,"lon":5.41045,"is_reserved":false,"is_disabled":false,"rental_uris":{"android":"levelo://app?vid=14abf955-5b60-4edd-9d56-67610511fa5d","ios":"levelo://app?vid=14abf955-5b60-4edd-9d56-67610511fa5d"},"vehicle_type_id":"4","last_reported":1728169682,"current_range_meters":12800,"station_id":"ce4bhnp2rcd13ifvqh0g","pricing_plan_id":"cebpf4jnsgd1na2vs0mg"},{"bike_id":"41ba7084-f529-4d54-8fb4-69464cfdcc77","system_id":"levelo_inurba_marseille","lat":43.29781,"lon":5.39323,"is_reserved":false,"is_disabled":false,"rental_uris":{"android":"levelo://app?vid=41ba7084-f529-4d54-8fb4-69464cfdcc77","ios":"levelo://app?vid=41ba7084-f529-4d54-8fb4-69464cfdcc77"},"vehicle_type_id":"4","last_reported":1728169682,"current_range_meters":6400,"station_id":"chh1huq6cuj3fo74tm60","pricing_plan_id":"cebpf4jnsgd1na2vs0mg"},{"bike_id":"a79cc37e-cb1a-479a-99cf-70bd4e6e70b7","system_id":"levelo_inurba_marseille","lat":43.28614,"lon":5.35104,"is_reserved":false,"is_disabled":false,"rental_uris":{"android":"levelo://app?vid=a79cc37e-cb1a-479a-99cf-70bd4e6e70b7","ios":"levelo://app?vid=a79cc37e-cb1a-479a-99cf-70bd4e6e70b7"},"vehicle_type_id":"4","last_reported":1728169682,"current_range_meters":21600,"station_id":"ce4bhch2rcd13ifvqeug","pricing_plan_id":"cebpf4jnsgd1na2vs0mg"},{"bike_id":"be56f1a4-275f-4091-81c4-2d7d1e9dc326","system_id":"levelo_inurba_marseille","lat":43.28158,"lon":5.42638,"is_reserved":false,"is_disabled":false,"rental_uris":{"android":"levelo://app?vid=be56f1a4-275f-4091-81c4-2d7d1e9dc326","ios":"levelo://app?vid=be56f1a4-275f-4091-81c4-2d7d1e9dc326"},"vehicle_type_id":"4","last_reported":1728169682,"current_range_meters":7200,"station_id":"ce4bhnh2rcd13ifvqgug","pricing_plan_id":"cebpf4jnsgd1na2vs0mg"},{"bike_id":"7a17434e-2612-4ac1-925f-eb54a231024f","system_id":"levelo_inurba_marseille","lat":43.30131,"lon":5.39867,"is_reserved":false,"is_disabled":false,"rental_uris":{"android":"levelo://app?vid=7a17434e-2612-4ac1-925f-eb54a231024f","ios":"levelo://app?vid=7a17434e-2612-4ac1-925f-eb54a231024f"},"vehicle_type_id":"4","last_reported":1728169682,"current_range_meters":7200,"station_id":"ce4bh0h2rcd13ifvqd40","pricing_plan_id":"cebpf4jnsgd1na2vs0mg"},{"bike_id":"2bcbafa0-7ced-496d-b350-0d5f9f276ba8","system_id":"levelo_inurba_marseille","lat":43.30131,"lon":5.3986,"is_reserved":false,"is_disabled":false,"rental_uris":{"android":"levelo://app?vid=2bcbafa0-7ced-496d-b350-0d5f9f276ba8","ios":"levelo://app?vid=2bcbafa0-7ced-496d-b350-0d5f9f276ba8"},"vehicle_type_id":"4","last_reported":1728169682,"current_range_meters":36400,"station_id":"ce4bh0h2rcd13ifvqd40","pricing_plan_id":"cebpf4jnsgd1na2vs0mg"},{"bike_id":"2223b6cf-60c6-41bf-b1cd-7d09873a1aa5","system_id":"levelo_inurba_marseille","lat":43.26059,"lon":5.39395,"is_reserved":false,"is_disabled":false,"rental_uris":{"android":"levelo://app?vid=2223b6cf-60c6-41bf-b1cd-7d09873a1aa5","ios":"levelo://app?vid=2223b6cf-60c6-41bf-b1cd-7d09873a1aa5"},"vehicle_type_id":"4","last_reported":1728169682,"current_range_meters":38800,"station_id":"ce4bhh92rcd13ifvqfj0","pricing_plan_id":"cebpf4jnsgd1na2vs0mg"},{"bike_id":"4f4e9e0c-e903-4be6-82e9-f28e71a7523f","system_id":"levelo_inurba_marseille","lat":43.30309,"lon":5.36892,"is_reserved":false,"is_disabled":false,"rental_uris":{"android":"levelo://app?vid=4f4e9e0c-e903-4be6-82e9-f28e71a7523f","ios":"levelo://app?vid=4f4e9e0c-e903-4be6-82e9-f28e71a7523f"},"vehicle_type_id":"4","last_reported":1728169682,"current_range_meters":8400,"station_id":"ce4bgqh2rcd13ifvqc5g","pricing_plan_id":"cebpf4jnsgd1na2vs0mg"},{"bike_id":"7e4b9590-3379-4154-a614-86d758234e67","system_id":"levelo_inurba_marseille","lat":43.25722,"lon":5.41111,"is_reserved":false,"is_disabled":false,"rental_uris":{"android":"levelo://app?vid=7e4b9590-3379-4154-a614-86d758234e67","ios":"levelo://app?vid=7e4b9590-3379-4154-a614-86d758234e67"},"vehicle_type_id":"4","last_reported":1728169682,"current_range_meters":38000,"station_id":"ce4bhkp2rcd13ifvqgd0","pricing_plan_id":"cebpf4jnsgd1na2vs0mg"},{"bike_id":"c8bd1f1a-18a3-4a8b-a733-d2264af926d1","system_id":"levelo_inurba_marseille","lat":43.27171,"lon":5.40995,"is_reserved":false,"is_disabled":false,"rental_uris":{"android":"levelo://app?vid=c8bd1f1a-18a3-4a8b-a733-d2264af926d1","ios":"levelo://app?vid=c8bd1f1a-18a3-4a8b-a733-d2264af926d1"},"vehicle_type_id":"4","last_reported":1728169682,"current_range_meters":38800,"station_id":"ce4bhl12rcd13ifvqgf0","pricing_plan_id":"cebpf4jnsgd1na2vs0mg"},{"bike_id":"4197ef8d-f35f-44aa-b27d-dc6b343bfa7a","system_id":"levelo_inurba_marseille","lat":43.27812,"lon":5.40707,"is_reserved":false,"is_disabled":false,"rental_uris":{"android":"levelo://app?vid=4197ef8d-f35f-44aa-b27d-dc6b343bfa7a","ios":"levelo://app?vid=4197ef8d-f35f-44aa-b27d-dc6b343bfa7a"},"vehicle_type_id":"4","last_reported":1728169682,"current_range_meters":22800,"station_id":"ce4bhnh2rcd13ifvqgtg","pricing_plan_id":"cebpf4jnsgd1na2vs0mg"},{"bike_id":"1bd2f7ec-d06e-4723-b3c8-18546fc91d7d","system_id":"levelo_inurba_marseille","lat":43.31274,"lon":5.40163,"is_reserved":false,"is_disabled":false,"rental_uris":{"android":"levelo://app?vid=1bd2f7ec-d06e-4723-b3c8-18546fc91d7d","ios":"levelo://app?vid=1bd2f7ec-d06e-4723-b3c8-18546fc91d7d"},"vehicle_type_id":"4","last_reported":1728169682,"current_range_meters":9200,"station_id":"ce4bh092rcd13ifvqd30","pricing_plan_id":"cebpf4jnsgd1na2vs0mg"},{"bike_id":"2f702661-d611-4ffb-b30a-4a8eb4fc84ee","system_id":"levelo_inurba_marseille","lat":43.278086,"lon":5.40711,"is_reserved":false,"is_disabled":false,"rental_uris":{"android":"levelo://app?vid=2f702661-d611-4ffb-b30a-4a8eb4fc84ee","ios":"levelo://app?vid=2f702661-d611-4ffb-b30a-4a8eb4fc84ee"},"vehicle_type_id":"4","last_reported":1728169682,"current_range_meters":30400,"station_id":"ce4bhnh2rcd13ifvqgtg","pricing_plan_id":"cebpf4jnsgd1na2vs0mg"},{"bike_id":"89673f4d-6ff0-4bc5-92ad-b49af2c61f80","system_id":"levelo_inurba_marseille","lat":43.31366,"lon":5.38488,"is_reserved":false,"is_disabled":false,"rental_uris":{"android":"levelo://app?vid=89673f4d-6ff0-4bc5-92ad-b49af2c61f80","ios":"levelo://app?vid=89673f4d-6ff0-4bc5-92ad-b49af2c61f80"},"vehicle_type_id":"4","last_reported":1728169682,"current_range_meters":37600,"station_id":"ce4bgt92rcd13ifvqcf0","pricing_plan_id":"cebpf4jnsgd1na2vs0mg"},{"bike_id":"9ca4ad83-eaa6-4426-baca-3a3e8322b7ea","system_id":"levelo_inurba_marseille","lat":43.27899,"lon":5.37996,"is_reserved":false,"is_disabled":false,"rental_uris":{"android":"levelo://app?vid=9ca4ad83-eaa6-4426-baca-3a3e8322b7ea","ios":"levelo://app?vid=9ca4ad83-eaa6-4426-baca-3a3e8322b7ea"},"vehicle_type_id":"4","last_reported":1728169682,"current_range_meters":37600,"station_id":"ce4bhf92rcd13ifvqf50","pricing_plan_id":"cebpf4jnsgd1na2vs0mg"},{"bike_id":"edd3d55d-61c7-4fec-aa60-0383480c2666","system_id":"levelo_inurba_marseille","lat":43.278337,"lon":5.391941,"is_reserved":false,"is_disabled":false,"rental_uris":{"android":"levelo://app?vid=edd3d55d-61c7-4fec-aa60-0383480c2666","ios":"levelo://app?vid=edd3d55d-61c7-4fec-aa60-0383480c2666"},"vehicle_type_id":"4","last_reported":1728169682,"current_range_meters":38400,"station_id":"ce4bhjp2rcd13ifvqga0","pricing_plan_id":"cebpf4jnsgd1na2vs0mg"},{"bike_id":"6ff38fbb-3e1f-4d59-a7a6-ab257495a9ff","system_id":"levelo_inurba_marseille","lat":43.2509,"lon":5.39524,"is_reserved":false,"is_disabled":false,"rental_uris":{"android":"levelo://app?vid=6ff38fbb-3e1f-4d59-a7a6-ab257495a9ff","ios":"levelo://app?vid=6ff38fbb-3e1f-4d59-a7a6-ab257495a9ff"},"vehicle_type_id":"4","last_reported":1728169682,"current_range_meters":13600,"station_id":"ce4bhm12rcd13ifvqgkg","pricing_plan_id":"cebpf4jnsgd1na2vs0mg"},{"bike_id":"65c59103-0b30-4b4d-8ddd-ed1931c22228","system_id":"levelo_inurba_marseille","lat":43.30354,"lon":5.41861,"is_reserved":false,"is_disabled":false,"rental_uris":{"android":"levelo://app?vid=65c59103-0b30-4b4d-8ddd-ed1931c22228","ios":"levelo://app?vid=65c59103-0b30-4b4d-8ddd-ed1931c22228"},"vehicle_type_id":"4","last_reported":1728169682,"current_range_meters":38000,"station_id":"ce4bhop2rcd13ifvqh7g","pricing_plan_id":"cebpf4jnsgd1na2vs0mg"},{"bike_id":"e3c30e80-1e38-4b28-8233-995748b2f7bc","system_id":"levelo_inurba_marseille","lat":43.288527,"lon":5.393143,"is_reserved":false,"is_disabled":false,"rental_uris":{"android":"levelo://app?vid=e3c30e80-1e38-4b28-8233-995748b2f7bc","ios":"levelo://app?vid=e3c30e80-1e38-4b28-8233-995748b2f7bc"},"vehicle_type_id":"4","last_reported":1728169682,"current_range_meters":14400,"station_id":"ce4bh2p2rcd13ifvqdi0","pricing_plan_id":"cebpf4jnsgd1na2vs0mg"},{"bike_id":"69e2a222-ccaf-43ca-a69a-6f3ee9a92a0e","system_id":"levelo_inurba_marseille","lat":43.28417,"lon":5.3751,"is_reserved":false,"is_disabled":false,"rental_uris":{"android":"levelo://app?vid=69e2a222-ccaf-43ca-a69a-6f3ee9a92a0e","ios":"levelo://app?vid=69e2a222-ccaf-43ca-a69a-6f3ee9a92a0e"},"vehicle_type_id":"4","last_reported":1728169682,"current_range_meters":14000,"station_id":"ce4bh412rcd13ifvqds0","pricing_plan_id":"cebpf4jnsgd1na2vs0mg"},{"bike_id":"f1a31902-bf1f-4725-91b5-b9d9818e5407","system_id":"levelo_inurba_marseille","lat":43.29553,"lon":5.4228,"is_reserved":false,"is_disabled":false,"rental_uris":{"android":"levelo://app?vid=f1a31902-bf1f-4725-91b5-b9d9818e5407","ios":"levelo://app?vid=f1a31902-bf1f-4725-91b5-b9d9818e5407"},"vehicle_type_id":"4","last_reported":1728169682,"current_range_meters":32400,"station_id":"ce4bhph2rcd13ifvqhdg","pricing_plan_id":"cebpf4jnsgd1na2vs0mg"},{"bike_id":"48cfda74-5ea4-41e1-bcac-d6e207673b94","system_id":"levelo_inurba_marseille","lat":43.26061,"lon":5.39396,"is_reserved":false,"is_disabled":false,"rental_uris":{"android":"levelo://app?vid=48cfda74-5ea4-41e1-bcac-d6e207673b94","ios":"levelo://app?vid=48cfda74-5ea4-41e1-bcac-d6e207673b94"},"vehicle_type_id":"4","last_reported":1728169682,"current_range_meters":34000,"station_id":"ce4bhh92rcd13ifvqfj0","pricing_plan_id":"cebpf4jnsgd1na2vs0mg"},{"bike_id":"cc3075c7-c54d-44a6-b275-dc4c69848582","system_id":"levelo_inurba_marseille","lat":43.25112,"lon":5.4032,"is_reserved":false,"is_disabled":false,"rental_uris":{"android":"levelo://app?vid=cc3075c7-c54d-44a6-b275-dc4c69848582","ios":"levelo://app?vid=cc3075c7-c54d-44a6-b275-dc4c69848582"},"vehicle_type_id":"4","last_reported":1728169682,"current_range_meters":16400,"station_id":"ce4bhlh2rcd13ifvqgig","pricing_plan_id":"cebpf4jnsgd1na2vs0mg"},{"bike_id":"8ac47483-4bee-4346-8681-da03cd8d6783","system_id":"levelo_inurba_marseille","lat":43.29576,"lon":5.39973,"is_reserved":false,"is_disabled":false,"rental_uris":{"android":"levelo://app?vid=8ac47483-4bee-4346-8681-da03cd8d6783","ios":"levelo://app?vid=8ac47483-4bee-4346-8681-da03cd8d6783"},"vehicle_type_id":"4","last_reported":1728169682,"current_range_meters":22000,"station_id":"ce4bh312rcd13ifvqdj0","pricing_plan_id":"cebpf4jnsgd1na2vs0mg"},{"bike_id":"7e764f2b-b5f9-4a10-b1be-189838b6a6be","system_id":"levelo_inurba_marseille","lat":43.27323,"lon":5.39081,"is_reserved":false,"is_disabled":false,"rental_uris":{"android":"levelo://app?vid=7e764f2b-b5f9-4a10-b1be-189838b6a6be","ios":"levelo://app?vid=7e764f2b-b5f9-4a10-b1be-189838b6a6be"},"vehicle_type_id":"4","last_reported":1728169682,"current_range_meters":38800,"station_id":"ce4bhgp2rcd13ifvqfe0","pricing_plan_id":"cebpf4jnsgd1na2vs0mg"},{"bike_id":"490889b1-cee9-4892-9db5-299333956c90","system_id":"levelo_inurba_marseille","lat":43.34138,"lon":5.40905,"is_reserved":false,"is_disabled":false,"rental_uris":{"android":"levelo://app?vid=490889b1-cee9-4892-9db5-299333956c90","ios":"levelo://app?vid=490889b1-cee9-4892-9db5-299333956c90"},"vehicle_type_id":"4","last_reported":1728169682,"current_range_meters":38800,"station_id":"ce4bhqh2rcd13ifvqhlg","pricing_plan_id":"cebpf4jnsgd1na2vs0mg"},{"bike_id":"0aaa5910-75ac-47ee-bd8a-1006e609a763","system_id":"levelo_inurba_marseille","lat":43.28934,"lon":5.36633,"is_reserved":false,"is_disabled":false,"rental_uris":{"android":"levelo://app?vid=0aaa5910-75ac-47ee-bd8a-1006e609a763","ios":"levelo://app?vid=0aaa5910-75ac-47ee-bd8a-1006e609a763"},"vehicle_type_id":"4","last_reported":1728169682,"current_range_meters":38800,"station_id":"ce4bhap2rcd13ifvqek0","pricing_plan_id":"cebpf4jnsgd1na2vs0mg"},{"bike_id":"ad652bee-6aa1-4be3-9bc3-b051e8f42b9a","system_id":"levelo_inurba_marseille","lat":43.28706,"lon":5.39995,"is_reserved":false,"is_disabled":false,"rental_uris":{"android":"levelo://app?vid=ad652bee-6aa1-4be3-9bc3-b051e8f42b9a","ios":"levelo://app?vid=ad652bee-6aa1-4be3-9bc3-b051e8f42b9a"},"vehicle_type_id":"4","last_reported":1728169682,"current_range_meters":38000,"station_id":"ce4bho92rcd13ifvqh3g","pricing_plan_id":"cebpf4jnsgd1na2vs0mg"},{"bike_id":"85ef83d9-fec6-405f-8a01-7a2d5ed9a2a1","system_id":"levelo_inurba_marseille","lat":43.29259,"lon":5.40901,"is_reserved":false,"is_disabled":false,"rental_uris":{"android":"levelo://app?vid=85ef83d9-fec6-405f-8a01-7a2d5ed9a2a1","ios":"levelo://app?vid=85ef83d9-fec6-405f-8a01-7a2d5ed9a2a1"},"vehicle_type_id":"4","last_reported":1728169682,"current_range_meters":28000,"station_id":"ce4bh192rcd13ifvqdc0","pricing_plan_id":"cebpf4jnsgd1na2vs0mg"},{"bike_id":"6b9a91ec-91de-48ab-ab57-2edc5d204765","system_id":"levelo_inurba_marseille","lat":43.27495,"lon":5.42458,"is_reserved":false,"is_disabled":false,"rental_uris":{"android":"levelo://app?vid=6b9a91ec-91de-48ab-ab57-2edc5d204765","ios":"levelo://app?vid=6b9a91ec-91de-48ab-ab57-2edc5d204765"},"vehicle_type_id":"4","last_reported":1728169682,"current_range_meters":2000,"station_id":"ce4bhn92rcd13ifvqgrg","pricing_plan_id":"cebpf4jnsgd1na2vs0mg"},{"bike_id":"256fa177-60ee-45a2-a2aa-de47baeac3b4","system_id":"levelo_inurba_marseille","lat":43.32216,"lon":5.41352,"is_reserved":false,"is_disabled":false,"rental_uris":{"android":"levelo://app?vid=256fa177-60ee-45a2-a2aa-de47baeac3b4","ios":"levelo://app?vid=256fa177-60ee-45a2-a2aa-de47baeac3b4"},"vehicle_type_id":"4","last_reported":1728169682,"current_range_meters":38800,"station_id":"","pricing_plan_id":"cebpf4jnsgd1na2vs0mg"},{"bike_id":"70fbd135-f965-4aec-8e59-432d6ac5bc3d","system_id":"levelo_inurba_marseille","lat":43.3081,"lon":5.38152,"is_reserved":false,"is_disabled":false,"rental_uris":{"android":"levelo://app?vid=70fbd135-f965-4aec-8e59-432d6ac5bc3d","ios":"levelo://app?vid=70fbd135-f965-4aec-8e59-432d6ac5bc3d"},"vehicle_type_id":"4","last_reported":1728169682,"current_range_meters":38800,"station_id":"ce4bgt12rcd13ifvqce0","pricing_plan_id":"cebpf4jnsgd1na2vs0mg"},{"bike_id":"8da5e341-6cab-4468-9790-0734e5cf3e0b","system_id":"levelo_inurba_marseille","lat":43.24081,"lon":5.37754,"is_reserved":false,"is_disabled":false,"rental_uris":{"android":"levelo://app?vid=8da5e341-6cab-4468-9790-0734e5cf3e0b","ios":"levelo://app?vid=8da5e341-6cab-4468-9790-0734e5cf3e0b"},"vehicle_type_id":"4","last_reported":1728169682,"current_range_meters":38800,"station_id":"ce4bhnp2rcd13ifvqgvg","pricing_plan_id":"cebpf4jnsgd1na2vs0mg"},{"bike_id":"428f793c-4121-423c-8663-6edf254533e0","system_id":"levelo_inurba_marseille","lat":43.27573,"lon":5.38412,"is_reserved":false,"is_disabled":false,"rental_uris":{"android":"levelo://app?vid=428f793c-4121-423c-8663-6edf254533e0","ios":"levelo://app?vid=428f793c-4121-423c-8663-6edf254533e0"},"vehicle_type_id":"4","last_reported":1728169682,"current_range_meters":28000,"station_id":"ce4bhh92rcd13ifvqfi0","pricing_plan_id":"cebpf4jnsgd1na2vs0mg"},{"bike_id":"1af2a9fc-3ead-4121-ab98-d5af38d229b2","system_id":"levelo_inurba_marseille","lat":43.29869,"lon":5.39738,"is_reserved":false,"is_disabled":false,"rental_uris":{"android":"levelo://app?vid=1af2a9fc-3ead-4121-ab98-d5af38d229b2","ios":"levelo://app?vid=1af2a9fc-3ead-4121-ab98-d5af38d229b2"},"vehicle_type_id":"4","last_reported":1728169682,"current_range_meters":27600,"station_id":"ce4bh0h2rcd13ifvqd50","pricing_plan_id":"cebpf4jnsgd1na2vs0mg"},{"bike_id":"f847f035-9a4d-4206-b6aa-aacd56cdefdc","system_id":"levelo_inurba_marseille","lat":43.281036,"lon":5.378312,"is_reserved":false,"is_disabled":false,"rental_uris":{"android":"levelo://app?vid=f847f035-9a4d-4206-b6aa-aacd56cdefdc","ios":"levelo://app?vid=f847f035-9a4d-4206-b6aa-aacd56cdefdc"},"vehicle_type_id":"4","last_reported":1728169682,"current_range_meters":32000,"station_id":"ce4bha12rcd13ifvqee0","pricing_plan_id":"cebpf4jnsgd1na2vs0mg"},{"bike_id":"5bd5b0fd-a88b-4104-a91a-433feb9ebf7f","system_id":"levelo_inurba_marseille","lat":43.25003,"lon":5.38923,"is_reserved":false,"is_disabled":false,"rental_uris":{"android":"levelo://app?vid=5bd5b0fd-a88b-4104-a91a-433feb9ebf7f","ios":"levelo://app?vid=5bd5b0fd-a88b-4104-a91a-433feb9ebf7f"},"vehicle_type_id":"4","last_reported":1728169682,"current_range_meters":36800,"station_id":"ce4bhgp2rcd13ifvqfd0","pricing_plan_id":"cebpf4jnsgd1na2vs0mg"},{"bike_id":"65f70fff-cb0d-4eef-a262-cfcd0561c69c","system_id":"levelo_inurba_marseille","lat":43.3021,"lon":5.39472,"is_reserved":false,"is_disabled":false,"rental_uris":{"android":"levelo://app?vid=65f70fff-cb0d-4eef-a262-cfcd0561c69c","ios":"levelo://app?vid=65f70fff-cb0d-4eef-a262-cfcd0561c69c"},"vehicle_type_id":"4","last_reported":1728169682,"current_range_meters":2800,"station_id":"ce4bh0p2rcd13ifvqd70","pricing_plan_id":"cebpf4jnsgd1na2vs0mg"},{"bike_id":"489d3596-b98a-4cf0-a057-455f16d5e96d","system_id":"levelo_inurba_marseille","lat":43.31332,"lon":5.39689,"is_reserved":false,"is_disabled":false,"rental_uris":{"android":"levelo://app?vid=489d3596-b98a-4cf0-a057-455f16d5e96d","ios":"levelo://app?vid=489d3596-b98a-4cf0-a057-455f16d5e96d"},"vehicle_type_id":"4","last_reported":1728169682,"current_range_meters":39200,"station_id":"ce4bgvp2rcd13ifvqcu0","pricing_plan_id":"cebpf4jnsgd1na2vs0mg"},{"bike_id":"8a5d33e0-b975-42b3-abe3-d9312cfdb7f5","system_id":"levelo_inurba_marseille","lat":43.30781,"lon":5.37656,"is_reserved":false,"is_disabled":false,"rental_uris":{"android":"levelo://app?vid=8a5d33e0-b975-42b3-abe3-d9312cfdb7f5","ios":"levelo://app?vid=8a5d33e0-b975-42b3-abe3-d9312cfdb7f5"},"vehicle_type_id":"4","last_reported":1728169682,"current_range_meters":37600,"station_id":"ce4bgv92rcd13ifvqcq0","pricing_plan_id":"cebpf4jnsgd1na2vs0mg"},{"bike_id":"646517eb-897e-4996-9fc0-4d132f59f1ae","system_id":"levelo_inurba_marseille","lat":43.28703,"lon":5.3998,"is_reserved":false,"is_disabled":false,"rental_uris":{"android":"levelo://app?vid=646517eb-897e-4996-9fc0-4d132f59f1ae","ios":"levelo://app?vid=646517eb-897e-4996-9fc0-4d132f59f1ae"},"vehicle_type_id":"4","last_reported":1728169682,"current_range_meters":10000,"station_id":"ce4bho92rcd13ifvqh3g","pricing_plan_id":"cebpf4jnsgd1na2vs0mg"},{"bike_id":"7cdd683b-1d53-47c9-89fe-f645deb63715","system_id":"levelo_inurba_marseille","lat":43.30807,"lon":5.43521,"is_reserved":false,"is_disabled":false,"rental_uris":{"android":"levelo://app?vid=7cdd683b-1d53-47c9-89fe-f645deb63715","ios":"levelo://app?vid=7cdd683b-1d53-47c9-89fe-f645deb63715"},"vehicle_type_id":"4","last_reported":1728169682,"current_range_meters":6000,"station_id":"ce4bhph2rcd13ifvqheg","pricing_plan_id":"cebpf4jnsgd1na2vs0mg"},{"bike_id":"704d9481-6ec3-47be-8efb-df494f367ab6","system_id":"levelo_inurba_marseille","lat":43.29556,"lon":5.42277,"is_reserved":false,"is_disabled":false,"rental_uris":{"android":"levelo://app?vid=704d9481-6ec3-47be-8efb-df494f367ab6","ios":"levelo://app?vid=704d9481-6ec3-47be-8efb-df494f367ab6"},"vehicle_type_id":"4","last_reported":1728169682,"current_range_meters":38800,"station_id":"ce4bhph2rcd13ifvqhdg","pricing_plan_id":"cebpf4jnsgd1na2vs0mg"},{"bike_id":"2912abb1-e6fe-40f9-a80b-b98fc8142039","system_id":"levelo_inurba_marseille","lat":43.31993,"lon":5.38147,"is_reserved":false,"is_disabled":false,"rental_uris":{"android":"levelo://app?vid=2912abb1-e6fe-40f9-a80b-b98fc8142039","ios":"levelo://app?vid=2912abb1-e6fe-40f9-a80b-b98fc8142039"},"vehicle_type_id":"4","last_reported":1728169682,"current_range_meters":38800,"station_id":"ce4bhr12rcd13ifvqhpg","pricing_plan_id":"cebpf4jnsgd1na2vs0mg"},{"bike_id":"9e64fe2b-fd8d-4b2d-b4a9-e0835858dd64","system_id":"levelo_inurba_marseille","lat":43.29557,"lon":5.42292,"is_reserved":false,"is_disabled":false,"rental_uris":{"android":"levelo://app?vid=9e64fe2b-fd8d-4b2d-b4a9-e0835858dd64","ios":"levelo://app?vid=9e64fe2b-fd8d-4b2d-b4a9-e0835858dd64"},"vehicle_type_id":"4","last_reported":1728169682,"current_range_meters":8000,"station_id":"ce4bhph2rcd13ifvqhdg","pricing_plan_id":"cebpf4jnsgd1na2vs0mg"},{"bike_id":"27bf3ddd-5985-44ef-b58c-f3a180af7258","system_id":"levelo_inurba_marseille","lat":43.305969,"lon":5.372384,"is_reserved":false,"is_disabled":false,"rental_uris":{"android":"levelo://app?vid=27bf3ddd-5985-44ef-b58c-f3a180af7258","ios":"levelo://app?vid=27bf3ddd-5985-44ef-b58c-f3a180af7258"},"vehicle_type_id":"4","last_reported":1728169682,"current_range_meters":28800,"station_id":"ce4bgqh2rcd13ifvqc4g","pricing_plan_id":"cebpf4jnsgd1na2vs0mg"},{"bike_id":"e8eb2859-8be7-4852-a7df-ba2f9b4c73ff","system_id":"levelo_inurba_marseille","lat":43.30586,"lon":5.39359,"is_reserved":false,"is_disabled":false,"rental_uris":{"android":"levelo://app?vid=e8eb2859-8be7-4852-a7df-ba2f9b4c73ff","ios":"levelo://app?vid=e8eb2859-8be7-4852-a7df-ba2f9b4c73ff"},"vehicle_type_id":"4","last_reported":1728169682,"current_range_meters":34800,"station_id":"ce4bh0p2rcd13ifvqd80","pricing_plan_id":"cebpf4jnsgd1na2vs0mg"},{"bike_id":"6df513f4-8c75-4b0a-82ff-d337a9bc6d97","system_id":"levelo_inurba_marseille","lat":43.25872,"lon":5.39895,"is_reserved":false,"is_disabled":false,"rental_uris":{"android":"levelo://app?vid=6df513f4-8c75-4b0a-82ff-d337a9bc6d97","ios":"levelo://app?vid=6df513f4-8c75-4b0a-82ff-d337a9bc6d97"},"vehicle_type_id":"4","last_reported":1728169682,"current_range_meters":38000,"station_id":"ce4bhl92rcd13ifvqghg","pricing_plan_id":"cebpf4jnsgd1na2vs0mg"},{"bike_id":"e7341701-5d04-4cdb-84d0-b90046595e3c","system_id":"levelo_inurba_marseille","lat":43.29263,"lon":5.40127,"is_reserved":false,"is_disabled":false,"rental_uris":{"android":"levelo://app?vid=e7341701-5d04-4cdb-84d0-b90046595e3c","ios":"levelo://app?vid=e7341701-5d04-4cdb-84d0-b90046595e3c"},"vehicle_type_id":"4","last_reported":1728169682,"current_range_meters":34800,"station_id":"ce4bh312rcd13ifvqdk0","pricing_plan_id":"cebpf4jnsgd1na2vs0mg"},{"bike_id":"bb5f5452-4b9b-417d-b148-b396a874f3d9","system_id":"levelo_inurba_marseille","lat":43.33781,"lon":5.37409,"is_reserved":false,"is_disabled":false,"rental_uris":{"android":"levelo://app?vid=bb5f5452-4b9b-417d-b148-b396a874f3d9","ios":"levelo://app?vid=bb5f5452-4b9b-417d-b148-b396a874f3d9"},"vehicle_type_id":"4","last_reported":1728169682,"current_range_meters":28800,"station_id":"","pricing_plan_id":"cebpf4jnsgd1na2vs0mg"},{"bike_id":"2a30740e-63b3-43e6-94c7-1b11a0b19192","system_id":"levelo_inurba_marseille","lat":43.28154,"lon":5.426437,"is_reserved":false,"is_disabled":false,"rental_uris":{"android":"levelo://app?vid=2a30740e-63b3-43e6-94c7-1b11a0b19192","ios":"levelo://app?vid=2a30740e-63b3-43e6-94c7-1b11a0b19192"},"vehicle_type_id":"4","last_reported":1728169682,"current_range_meters":28000,"station_id":"ce4bhnh2rcd13ifvqgug","pricing_plan_id":"cebpf4jnsgd1na2vs0mg"},{"bike_id":"a38ce0aa-4c25-49e4-a3e6-21e62b481b01","system_id":"levelo_inurba_marseille","lat":43.28711,"lon":5.3998,"is_reserved":false,"is_disabled":false,"rental_uris":{"android":"levelo://app?vid=a38ce0aa-4c25-49e4-a3e6-21e62b481b01","ios":"levelo://app?vid=a38ce0aa-4c25-49e4-a3e6-21e62b481b01"},"vehicle_type_id":"4","last_reported":1728169682,"current_range_meters":38800,"station_id":"ce4bho92rcd13ifvqh3g","pricing_plan_id":"cebpf4jnsgd1na2vs0mg"},{"bike_id":"ab83fadf-d068-4c8e-b6a0-a2c4cd43bc9b","system_id":"levelo_inurba_marseille","lat":43.3199,"lon":5.38142,"is_reserved":false,"is_disabled":false,"rental_uris":{"android":"levelo://app?vid=ab83fadf-d068-4c8e-b6a0-a2c4cd43bc9b","ios":"levelo://app?vid=ab83fadf-d068-4c8e-b6a0-a2c4cd43bc9b"},"vehicle_type_id":"4","last_reported":1728169682,"current_range_meters":31200,"station_id":"ce4bhr12rcd13ifvqhpg","pricing_plan_id":"cebpf4jnsgd1na2vs0mg"},{"bike_id":"73a5307d-3e7d-4037-8357-25200e33a5e5","system_id":"levelo_inurba_marseille","lat":43.28405,"lon":5.37514,"is_reserved":false,"is_disabled":false,"rental_uris":{"android":"levelo://app?vid=73a5307d-3e7d-4037-8357-25200e33a5e5","ios":"levelo://app?vid=73a5307d-3e7d-4037-8357-25200e33a5e5"},"vehicle_type_id":"4","last_reported":1728169682,"current_range_meters":32800,"station_id":"ce4bh412rcd13ifvqds0","pricing_plan_id":"cebpf4jnsgd1na2vs0mg"},{"bike_id":"d5bd4fc9-b596-4a66-8faa-61c6a5dce860","system_id":"levelo_inurba_marseille","lat":43.29894,"lon":5.4366,"is_reserved":false,"is_disabled":false,"rental_uris":{"android":"levelo://app?vid=d5bd4fc9-b596-4a66-8faa-61c6a5dce860","ios":"levelo://app?vid=d5bd4fc9-b596-4a66-8faa-61c6a5dce860"},"vehicle_type_id":"4","last_reported":1728169682,"current_range_meters":34000,"station_id":"ce4bhpp2rcd13ifvqhfg","pricing_plan_id":"cebpf4jnsgd1na2vs0mg"},{"bike_id":"6ee8431f-19f3-47f2-b098-64c635c9d62b","system_id":"levelo_inurba_marseille","lat":43.30354,"lon":5.41878,"is_reserved":false,"is_disabled":false,"rental_uris":{"android":"levelo://app?vid=6ee8431f-19f3-47f2-b098-64c635c9d62b","ios":"levelo://app?vid=6ee8431f-19f3-47f2-b098-64c635c9d62b"},"vehicle_type_id":"4","last_reported":1728169682,"current_range_meters":38000,"station_id":"ce4bhop2rcd13ifvqh7g","pricing_plan_id":"cebpf4jnsgd1na2vs0mg"},{"bike_id":"949db0cf-8edb-4364-9853-20db561bcab5","system_id":"levelo_inurba_marseille","lat":43.2951,"lon":5.39392,"is_reserved":false,"is_disabled":false,"rental_uris":{"android":"levelo://app?vid=949db0cf-8edb-4364-9853-20db561bcab5","ios":"levelo://app?vid=949db0cf-8edb-4364-9853-20db561bcab5"},"vehicle_type_id":"4","last_reported":1728169682,"current_range_meters":38800,"station_id":"ce4bh292rcd13ifvqdf0","pricing_plan_id":"cebpf4jnsgd1na2vs0mg"},{"bike_id":"38c89ef1-1d14-415c-859a-9589d2e0e998","system_id":"levelo_inurba_marseille","lat":43.26499,"lon":5.39544,"is_reserved":false,"is_disabled":false,"rental_uris":{"android":"levelo://app?vid=38c89ef1-1d14-415c-859a-9589d2e0e998","ios":"levelo://app?vid=38c89ef1-1d14-415c-859a-9589d2e0e998"},"vehicle_type_id":"4","last_reported":1728169682,"current_range_meters":26800,"station_id":"ce4bhi12rcd13ifvqfq0","pricing_plan_id":"cebpf4jnsgd1na2vs0mg"},{"bike_id":"b8a189c2-edc0-4648-8415-af599022c2fe","system_id":"levelo_inurba_marseille","lat":43.31072,"lon":5.38344,"is_reserved":false,"is_disabled":false,"rental_uris":{"android":"levelo://app?vid=b8a189c2-edc0-4648-8415-af599022c2fe","ios":"levelo://app?vid=b8a189c2-edc0-4648-8415-af599022c2fe"},"vehicle_type_id":"4","last_reported":1728169682,"current_range_meters":33600,"station_id":"ce4bgv92rcd13ifvqcr0","pricing_plan_id":"cebpf4jnsgd1na2vs0mg"},{"bike_id":"8e94c158-3450-4d74-9a10-086db250f48e","system_id":"levelo_inurba_marseille","lat":43.27168,"lon":5.39032,"is_reserved":false,"is_disabled":false,"rental_uris":{"android":"levelo://app?vid=8e94c158-3450-4d74-9a10-086db250f48e","ios":"levelo://app?vid=8e94c158-3450-4d74-9a10-086db250f48e"},"vehicle_type_id":"4","last_reported":1728169682,"current_range_meters":36400,"station_id":"","pricing_plan_id":"cebpf4jnsgd1na2vs0mg"},{"bike_id":"8ef0d884-6abe-4b43-a0e5-51a1aa3f343a","system_id":"levelo_inurba_marseille","lat":43.31723,"lon":5.42393,"is_reserved":false,"is_disabled":false,"rental_uris":{"android":"levelo://app?vid=8ef0d884-6abe-4b43-a0e5-51a1aa3f343a","ios":"levelo://app?vid=8ef0d884-6abe-4b43-a0e5-51a1aa3f343a"},"vehicle_type_id":"4","last_reported":1728169682,"current_range_meters":8800,"station_id":"ce4bhp92rcd13ifvqhbg","pricing_plan_id":"cebpf4jnsgd1na2vs0mg"},{"bike_id":"99ca2489-9413-48ff-bfa3-05cb6ccc786d","system_id":"levelo_inurba_marseille","lat":43.33738,"lon":5.37455,"is_reserved":false,"is_disabled":false,"rental_uris":{"android":"levelo://app?vid=99ca2489-9413-48ff-bfa3-05cb6ccc786d","ios":"levelo://app?vid=99ca2489-9413-48ff-bfa3-05cb6ccc786d"},"vehicle_type_id":"4","last_reported":1728169682,"current_range_meters":36800,"station_id":"","pricing_plan_id":"cebpf4jnsgd1na2vs0mg"},{"bike_id":"9149599f-805b-4ae3-8f27-2a82b61ad6c4","system_id":"levelo_inurba_marseille","lat":43.29774,"lon":5.37113,"is_reserved":false,"is_disabled":false,"rental_uris":{"android":"levelo://app?vid=9149599f-805b-4ae3-8f27-2a82b61ad6c4","ios":"levelo://app?vid=9149599f-805b-4ae3-8f27-2a82b61ad6c4"},"vehicle_type_id":"4","last_reported":1728169682,"current_range_meters":9600,"station_id":"ce4bgop2rcd13ifvqc1g","pricing_plan_id":"cebpf4jnsgd1na2vs0mg"},{"bike_id":"2f1f7e56-c6cd-448e-b406-4d3dfc3a4de4","system_id":"levelo_inurba_marseille","lat":43.2573,"lon":5.41112,"is_reserved":false,"is_disabled":false,"rental_uris":{"android":"levelo://app?vid=2f1f7e56-c6cd-448e-b406-4d3dfc3a4de4","ios":"levelo://app?vid=2f1f7e56-c6cd-448e-b406-4d3dfc3a4de4"},"vehicle_type_id":"4","last_reported":1728169682,"current_range_meters":34000,"station_id":"ce4bhkp2rcd13ifvqgd0","pricing_plan_id":"cebpf4jnsgd1na2vs0mg"},{"bike_id":"bae4c1f2-daee-4b78-8da0-b8303fddd58e","system_id":"levelo_inurba_marseille","lat":43.27421,"lon":5.39415,"is_reserved":false,"is_disabled":false,"rental_uris":{"android":"levelo://app?vid=bae4c1f2-daee-4b78-8da0-b8303fddd58e","ios":"levelo://app?vid=bae4c1f2-daee-4b78-8da0-b8303fddd58e"},"vehicle_type_id":"4","last_reported":1728169682,"current_range_meters":12400,"station_id":"ce4bhdp2rcd13ifvqf20","pricing_plan_id":"cebpf4jnsgd1na2vs0mg"},{"bike_id":"58822ca1-68f8-4f6b-9765-150c72bf3810","system_id":"levelo_inurba_marseille","lat":43.28671,"lon":5.36354,"is_reserved":false,"is_disabled":false,"rental_uris":{"android":"levelo://app?vid=58822ca1-68f8-4f6b-9765-150c72bf3810","ios":"levelo://app?vid=58822ca1-68f8-4f6b-9765-150c72bf3810"},"vehicle_type_id":"4","last_reported":1728169682,"current_range_meters":10800,"station_id":"ce4bhah2rcd13ifvqej0","pricing_plan_id":"cebpf4jnsgd1na2vs0mg"},{"bike_id":"276b2a39-b613-4af9-9ea9-ed0062f3281c","system_id":"levelo_inurba_marseille","lat":43.30209,"lon":5.39475,"is_reserved":false,"is_disabled":false,"rental_uris":{"android":"levelo://app?vid=276b2a39-b613-4af9-9ea9-ed0062f3281c","ios":"levelo://app?vid=276b2a39-b613-4af9-9ea9-ed0062f3281c"},"vehicle_type_id":"4","last_reported":1728169682,"current_range_meters":36000,"station_id":"ce4bh0p2rcd13ifvqd70","pricing_plan_id":"cebpf4jnsgd1na2vs0mg"},{"bike_id":"fbd0b812-dce2-4a66-918c-4691204aa4c2","system_id":"levelo_inurba_marseille","lat":43.28937,"lon":5.36623,"is_reserved":false,"is_disabled":false,"rental_uris":{"android":"levelo://app?vid=fbd0b812-dce2-4a66-918c-4691204aa4c2","ios":"levelo://app?vid=fbd0b812-dce2-4a66-918c-4691204aa4c2"},"vehicle_type_id":"4","last_reported":1728169682,"current_range_meters":24400,"station_id":"ce4bhap2rcd13ifvqek0","pricing_plan_id":"cebpf4jnsgd1na2vs0mg"},{"bike_id":"1d7e584d-d9bd-4a40-880d-10ef72bd85dc","system_id":"levelo_inurba_marseille","lat":43.28079,"lon":5.39646,"is_reserved":false,"is_disabled":false,"rental_uris":{"android":"levelo://app?vid=1d7e584d-d9bd-4a40-880d-10ef72bd85dc","ios":"levelo://app?vid=1d7e584d-d9bd-4a40-880d-10ef72bd85dc"},"vehicle_type_id":"4","last_reported":1728169682,"current_range_meters":30800,"station_id":"ce4bho12rcd13ifvqh2g","pricing_plan_id":"cebpf4jnsgd1na2vs0mg"},{"bike_id":"56d7b9f5-13db-4d14-a112-b913fefd1316","system_id":"levelo_inurba_marseille","lat":43.2972,"lon":5.37707,"is_reserved":false,"is_disabled":false,"rental_uris":{"android":"levelo://app?vid=56d7b9f5-13db-4d14-a112-b913fefd1316","ios":"levelo://app?vid=56d7b9f5-13db-4d14-a112-b913fefd1316"},"vehicle_type_id":"4","last_reported":1728169682,"current_range_meters":4400,"station_id":"ce4bgkh2rcd13ifvqbl0","pricing_plan_id":"cebpf4jnsgd1na2vs0mg"},{"bike_id":"a94f106c-921c-40e5-90b8-0a0b7d3f49ab","system_id":"levelo_inurba_marseille","lat":43.33362,"lon":5.35843,"is_reserved":false,"is_disabled":false,"rental_uris":{"android":"levelo://app?vid=a94f106c-921c-40e5-90b8-0a0b7d3f49ab","ios":"levelo://app?vid=a94f106c-921c-40e5-90b8-0a0b7d3f49ab"},"vehicle_type_id":"4","last_reported":1728169682,"current_range_meters":22000,"station_id":"","pricing_plan_id":"cebpf4jnsgd1na2vs0mg"},{"bike_id":"3f75b285-bf87-4037-863f-775d9a9d6495","system_id":"levelo_inurba_marseille","lat":43.33022,"lon":5.3904,"is_reserved":false,"is_disabled":false,"rental_uris":{"android":"levelo://app?vid=3f75b285-bf87-4037-863f-775d9a9d6495","ios":"levelo://app?vid=3f75b285-bf87-4037-863f-775d9a9d6495"},"vehicle_type_id":"4","last_reported":1728169682,"current_range_meters":38800,"station_id":"ce4bhr92rcd13ifvqhrg","pricing_plan_id":"cebpf4jnsgd1na2vs0mg"},{"bike_id":"56631764-0088-4915-9223-c95f7808ff3b","system_id":"levelo_inurba_marseille","lat":43.29513,"lon":5.39402,"is_reserved":false,"is_disabled":false,"rental_uris":{"android":"levelo://app?vid=56631764-0088-4915-9223-c95f7808ff3b","ios":"levelo://app?vid=56631764-0088-4915-9223-c95f7808ff3b"},"vehicle_type_id":"4","last_reported":1728169682,"current_range_meters":38800,"station_id":"ce4bh292rcd13ifvqdf0","pricing_plan_id":"cebpf4jnsgd1na2vs0mg"},{"bike_id":"f1543ab5-4e23-417f-809a-d8a6268dedc7","system_id":"levelo_inurba_marseille","lat":43.24548,"lon":5.39521,"is_reserved":false,"is_disabled":false,"rental_uris":{"android":"levelo://app?vid=f1543ab5-4e23-417f-809a-d8a6268dedc7","ios":"levelo://app?vid=f1543ab5-4e23-417f-809a-d8a6268dedc7"},"vehicle_type_id":"4","last_reported":1728169682,"current_range_meters":38800,"station_id":"ce4bhlp2rcd13ifvqgjg","pricing_plan_id":"cebpf4jnsgd1na2vs0mg"},{"bike_id":"4e90baed-7cda-45f9-b2cb-4396da08482a","system_id":"levelo_inurba_marseille","lat":43.27166,"lon":5.40981,"is_reserved":false,"is_disabled":false,"rental_uris":{"android":"levelo://app?vid=4e90baed-7cda-45f9-b2cb-4396da08482a","ios":"levelo://app?vid=4e90baed-7cda-45f9-b2cb-4396da08482a"},"vehicle_type_id":"4","last_reported":1728169682,"current_range_meters":8000,"station_id":"ce4bhl12rcd13ifvqgf0","pricing_plan_id":"cebpf4jnsgd1na2vs0mg"},{"bike_id":"8ec90718-aaae-43b7-92be-aac46673a286","system_id":"levelo_inurba_marseille","lat":43.31711,"lon":5.37752,"is_reserved":false,"is_disabled":false,"rental_uris":{"android":"levelo://app?vid=8ec90718-aaae-43b7-92be-aac46673a286","ios":"levelo://app?vid=8ec90718-aaae-43b7-92be-aac46673a286"},"vehicle_type_id":"4","last_reported":1728169682,"current_range_meters":27200,"station_id":"ce4bgth2rcd13ifvqch0","pricing_plan_id":"cebpf4jnsgd1na2vs0mg"},{"bike_id":"868fa2c3-859c-4b5a-b69c-933c8c522d35","system_id":"levelo_inurba_marseille","lat":43.31362,"lon":5.38509,"is_reserved":false,"is_disabled":false,"rental_uris":{"android":"levelo://app?vid=868fa2c3-859c-4b5a-b69c-933c8c522d35","ios":"levelo://app?vid=868fa2c3-859c-4b5a-b69c-933c8c522d35"},"vehicle_type_id":"4","last_reported":1728169682,"current_range_meters":38000,"station_id":"ce4bgt92rcd13ifvqcf0","pricing_plan_id":"cebpf4jnsgd1na2vs0mg"},{"bike_id":"1121dded-5bdc-4095-b903-1711383b0169","system_id":"levelo_inurba_marseille","lat":43.28935,"lon":5.3638,"is_reserved":false,"is_disabled":false,"rental_uris":{"android":"levelo://app?vid=1121dded-5bdc-4095-b903-1711383b0169","ios":"levelo://app?vid=1121dded-5bdc-4095-b903-1711383b0169"},"vehicle_type_id":"4","last_reported":1728169682,"current_range_meters":22400,"station_id":"ce4bhc92rcd13ifvqetg","pricing_plan_id":"cebpf4jnsgd1na2vs0mg"},{"bike_id":"5e9722b9-527e-4896-955a-569ed40eb913","system_id":"levelo_inurba_marseille","lat":43.3211,"lon":5.36777,"is_reserved":false,"is_disabled":false,"rental_uris":{"android":"levelo://app?vid=5e9722b9-527e-4896-955a-569ed40eb913","ios":"levelo://app?vid=5e9722b9-527e-4896-955a-569ed40eb913"},"vehicle_type_id":"4","last_reported":1728169682,"current_range_meters":28400,"station_id":"ce4bhrh2rcd13ifvqhug","pricing_plan_id":"cebpf4jnsgd1na2vs0mg"},{"bike_id":"cd479abc-12ff-413e-a9bf-69e6ced65d03","system_id":"levelo_inurba_marseille","lat":43.2465,"lon":5.38885,"is_reserved":false,"is_disabled":false,"rental_uris":{"android":"levelo://app?vid=cd479abc-12ff-413e-a9bf-69e6ced65d03","ios":"levelo://app?vid=cd479abc-12ff-413e-a9bf-69e6ced65d03"},"vehicle_type_id":"4","last_reported":1728169682,"current_range_meters":37600,"station_id":"ce4bhg12rcd13ifvqf60","pricing_plan_id":"cebpf4jnsgd1na2vs0mg"},{"bike_id":"68b77a88-2067-422a-ab7b-e29094a40dcc","system_id":"levelo_inurba_marseille","lat":43.25122,"lon":5.40315,"is_reserved":false,"is_disabled":false,"rental_uris":{"android":"levelo://app?vid=68b77a88-2067-422a-ab7b-e29094a40dcc","ios":"levelo://app?vid=68b77a88-2067-422a-ab7b-e29094a40dcc"},"vehicle_type_id":"4","last_reported":1728169682,"current_range_meters":37600,"station_id":"ce4bhlh2rcd13ifvqgig","pricing_plan_id":"cebpf4jnsgd1na2vs0mg"},{"bike_id":"0df0a20b-5858-4b1f-a753-de5466d8ad5f","system_id":"levelo_inurba_marseille","lat":43.299808,"lon":5.38476,"is_reserved":false,"is_disabled":false,"rental_uris":{"android":"levelo://app?vid=0df0a20b-5858-4b1f-a753-de5466d8ad5f","ios":"levelo://app?vid=0df0a20b-5858-4b1f-a753-de5466d8ad5f"},"vehicle_type_id":"4","last_reported":1728169682,"current_range_meters":24400,"station_id":"ce4bh112rcd13ifvqd90","pricing_plan_id":"cebpf4jnsgd1na2vs0mg"},{"bike_id":"3246e9fa-6aa1-4bd7-858d-ddbf0d2e62e5","system_id":"levelo_inurba_marseille","lat":43.30132,"lon":5.39858,"is_reserved":false,"is_disabled":false,"rental_uris":{"android":"levelo://app?vid=3246e9fa-6aa1-4bd7-858d-ddbf0d2e62e5","ios":"levelo://app?vid=3246e9fa-6aa1-4bd7-858d-ddbf0d2e62e5"},"vehicle_type_id":"4","last_reported":1728169682,"current_range_meters":19200,"station_id":"ce4bh0h2rcd13ifvqd40","pricing_plan_id":"cebpf4jnsgd1na2vs0mg"},{"bike_id":"55e97f7f-5765-4465-b5f8-31d57afc4c78","system_id":"levelo_inurba_marseille","lat":43.29552,"lon":5.42277,"is_reserved":false,"is_disabled":false,"rental_uris":{"android":"levelo://app?vid=55e97f7f-5765-4465-b5f8-31d57afc4c78","ios":"levelo://app?vid=55e97f7f-5765-4465-b5f8-31d57afc4c78"},"vehicle_type_id":"4","last_reported":1728169682,"current_range_meters":31200,"station_id":"ce4bhph2rcd13ifvqhdg","pricing_plan_id":"cebpf4jnsgd1na2vs0mg"},{"bike_id":"78cfcc3c-2061-4c54-8e9a-c4d9b3a845c4","system_id":"levelo_inurba_marseille","lat":43.29549,"lon":5.42276,"is_reserved":false,"is_disabled":false,"rental_uris":{"android":"levelo://app?vid=78cfcc3c-2061-4c54-8e9a-c4d9b3a845c4","ios":"levelo://app?vid=78cfcc3c-2061-4c54-8e9a-c4d9b3a845c4"},"vehicle_type_id":"4","last_reported":1728169682,"current_range_meters":10000,"station_id":"ce4bhph2rcd13ifvqhdg","pricing_plan_id":"cebpf4jnsgd1na2vs0mg"},{"bike_id":"08d7f0da-bcca-459d-9678-744e5c455ff3","system_id":"levelo_inurba_marseille","lat":43.29255,"lon":5.409,"is_reserved":false,"is_disabled":false,"rental_uris":{"android":"levelo://app?vid=08d7f0da-bcca-459d-9678-744e5c455ff3","ios":"levelo://app?vid=08d7f0da-bcca-459d-9678-744e5c455ff3"},"vehicle_type_id":"4","last_reported":1728169682,"current_range_meters":4400,"station_id":"ce4bh192rcd13ifvqdc0","pricing_plan_id":"cebpf4jnsgd1na2vs0mg"},{"bike_id":"7b9ba1ff-08b4-4bd7-8512-4be43a62039f","system_id":"levelo_inurba_marseille","lat":43.287,"lon":5.39987,"is_reserved":false,"is_disabled":false,"rental_uris":{"android":"levelo://app?vid=7b9ba1ff-08b4-4bd7-8512-4be43a62039f","ios":"levelo://app?vid=7b9ba1ff-08b4-4bd7-8512-4be43a62039f"},"vehicle_type_id":"4","last_reported":1728169682,"current_range_meters":27600,"station_id":"ce4bho92rcd13ifvqh3g","pricing_plan_id":"cebpf4jnsgd1na2vs0mg"},{"bike_id":"a0867223-e2cf-49a2-bb70-12696eadfb28","system_id":"levelo_inurba_marseille","lat":43.29558,"lon":5.42275,"is_reserved":false,"is_disabled":false,"rental_uris":{"android":"levelo://app?vid=a0867223-e2cf-49a2-bb70-12696eadfb28","ios":"levelo://app?vid=a0867223-e2cf-49a2-bb70-12696eadfb28"},"vehicle_type_id":"4","last_reported":1728169682,"current_range_meters":39200,"station_id":"ce4bhph2rcd13ifvqhdg","pricing_plan_id":"cebpf4jnsgd1na2vs0mg"},{"bike_id":"483d04c7-d797-486f-9165-25faa06d3531","system_id":"levelo_inurba_marseille","lat":43.2828,"lon":5.350823,"is_reserved":false,"is_disabled":false,"rental_uris":{"android":"levelo://app?vid=483d04c7-d797-486f-9165-25faa06d3531","ios":"levelo://app?vid=483d04c7-d797-486f-9165-25faa06d3531"},"vehicle_type_id":"4","last_reported":1728169682,"current_range_meters":36800,"station_id":"ce4bhbp2rcd13ifvqerg","pricing_plan_id":"cebpf4jnsgd1na2vs0mg"},{"bike_id":"9f19e14f-fab5-49bf-878b-9a40978f6235","system_id":"levelo_inurba_marseille","lat":43.28438,"lon":5.3919,"is_reserved":false,"is_disabled":false,"rental_uris":{"android":"levelo://app?vid=9f19e14f-fab5-49bf-878b-9a40978f6235","ios":"levelo://app?vid=9f19e14f-fab5-49bf-878b-9a40978f6235"},"vehicle_type_id":"4","last_reported":1728169682,"current_range_meters":39200,"station_id":"ce4bhoh2rcd13ifvqh5g","pricing_plan_id":"cebpf4jnsgd1na2vs0mg"},{"bike_id":"8b631993-57da-4bed-8ccf-39adb6788563","system_id":"levelo_inurba_marseille","lat":43.3117,"lon":5.38708,"is_reserved":false,"is_disabled":false,"rental_uris":{"android":"levelo://app?vid=8b631993-57da-4bed-8ccf-39adb6788563","ios":"levelo://app?vid=8b631993-57da-4bed-8ccf-39adb6788563"},"vehicle_type_id":"4","last_reported":1728169682,"current_range_meters":37600,"station_id":"ce4bgv12rcd13ifvqcp0","pricing_plan_id":"cebpf4jnsgd1na2vs0mg"},{"bike_id":"4cfc80d4-b97c-4c3c-97d6-996e68d8712f","system_id":"levelo_inurba_marseille","lat":43.30329,"lon":5.40435,"is_reserved":false,"is_disabled":false,"rental_uris":{"android":"levelo://app?vid=4cfc80d4-b97c-4c3c-97d6-996e68d8712f","ios":"levelo://app?vid=4cfc80d4-b97c-4c3c-97d6-996e68d8712f"},"vehicle_type_id":"4","last_reported":1728169682,"current_range_meters":35600,"station_id":"ce4bh012rcd13ifvqd10","pricing_plan_id":"cebpf4jnsgd1na2vs0mg"},{"bike_id":"152f3a24-1071-41b9-a2ed-934df83e2faa","system_id":"levelo_inurba_marseille","lat":43.2587,"lon":5.39898,"is_reserved":false,"is_disabled":false,"rental_uris":{"android":"levelo://app?vid=152f3a24-1071-41b9-a2ed-934df83e2faa","ios":"levelo://app?vid=152f3a24-1071-41b9-a2ed-934df83e2faa"},"vehicle_type_id":"4","last_reported":1728169682,"current_range_meters":29600,"station_id":"ce4bhl92rcd13ifvqghg","pricing_plan_id":"cebpf4jnsgd1na2vs0mg"},{"bike_id":"9569e638-bb9f-4c07-8326-fbdd9310d8e0","system_id":"levelo_inurba_marseille","lat":43.290267,"lon":5.37608,"is_reserved":false,"is_disabled":false,"rental_uris":{"android":"levelo://app?vid=9569e638-bb9f-4c07-8326-fbdd9310d8e0","ios":"levelo://app?vid=9569e638-bb9f-4c07-8326-fbdd9310d8e0"},"vehicle_type_id":"4","last_reported":1728169682,"current_range_meters":29600,"station_id":"ce4bh692rcd13ifvqe90","pricing_plan_id":"cebpf4jnsgd1na2vs0mg"},{"bike_id":"e52556a0-eec0-42f8-9dff-bfa9d9b67ba6","system_id":"levelo_inurba_marseille","lat":43.32481,"lon":5.36568,"is_reserved":false,"is_disabled":false,"rental_uris":{"android":"levelo://app?vid=e52556a0-eec0-42f8-9dff-bfa9d9b67ba6","ios":"levelo://app?vid=e52556a0-eec0-42f8-9dff-bfa9d9b67ba6"},"vehicle_type_id":"4","last_reported":1728169682,"current_range_meters":27600,"station_id":"ce4bhs12rcd13ifvqhvg","pricing_plan_id":"cebpf4jnsgd1na2vs0mg"},{"bike_id":"f6d4b972-00e6-4211-9ae0-a8d157877144","system_id":"levelo_inurba_marseille","lat":43.30808,"lon":5.38152,"is_reserved":false,"is_disabled":false,"rental_uris":{"android":"levelo://app?vid=f6d4b972-00e6-4211-9ae0-a8d157877144","ios":"levelo://app?vid=f6d4b972-00e6-4211-9ae0-a8d157877144"},"vehicle_type_id":"4","last_reported":1728169682,"current_range_meters":39200,"station_id":"ce4bgt12rcd13ifvqce0","pricing_plan_id":"cebpf4jnsgd1na2vs0mg"},{"bike_id":"a88de313-6a6c-466a-8431-ca561f3e0c73","system_id":"levelo_inurba_marseille","lat":43.32117,"lon":5.36772,"is_reserved":false,"is_disabled":false,"rental_uris":{"android":"levelo://app?vid=a88de313-6a6c-466a-8431-ca561f3e0c73","ios":"levelo://app?vid=a88de313-6a6c-466a-8431-ca561f3e0c73"},"vehicle_type_id":"4","last_reported":1728169682,"current_range_meters":8400,"station_id":"ce4bhrh2rcd13ifvqhug","pricing_plan_id":"cebpf4jnsgd1na2vs0mg"},{"bike_id":"9bf6a366-6cd6-4e6c-9747-d35666c15892","system_id":"levelo_inurba_marseille","lat":43.284576,"lon":5.358797,"is_reserved":false,"is_disabled":false,"rental_uris":{"android":"levelo://app?vid=9bf6a366-6cd6-4e6c-9747-d35666c15892","ios":"levelo://app?vid=9bf6a366-6cd6-4e6c-9747-d35666c15892"},"vehicle_type_id":"4","last_reported":1728169682,"current_range_meters":38800,"station_id":"ce4bhah2rcd13ifvqei0","pricing_plan_id":"cebpf4jnsgd1na2vs0mg"},{"bike_id":"0206aab1-99d2-4109-8df3-4f2fc5521402","system_id":"levelo_inurba_marseille","lat":43.231948,"lon":5.35553,"is_reserved":false,"is_disabled":false,"rental_uris":{"android":"levelo://app?vid=0206aab1-99d2-4109-8df3-4f2fc5521402","ios":"levelo://app?vid=0206aab1-99d2-4109-8df3-4f2fc5521402"},"vehicle_type_id":"4","last_reported":1728169682,"current_range_meters":38800,"station_id":"ce4bhu92rcd13ifvqi70","pricing_plan_id":"cebpf4jnsgd1na2vs0mg"},{"bike_id":"77e44f96-8992-4ec5-ba2c-5e51b9e5b288","system_id":"levelo_inurba_marseille","lat":43.2706,"lon":5.38786,"is_reserved":false,"is_disabled":false,"rental_uris":{"android":"levelo://app?vid=77e44f96-8992-4ec5-ba2c-5e51b9e5b288","ios":"levelo://app?vid=77e44f96-8992-4ec5-ba2c-5e51b9e5b288"},"vehicle_type_id":"4","last_reported":1728169682,"current_range_meters":38000,"station_id":"","pricing_plan_id":"cebpf4jnsgd1na2vs0mg"},{"bike_id":"adf0ff5d-41cc-45cf-8953-e7139932571b","system_id":"levelo_inurba_marseille","lat":43.31174,"lon":5.38717,"is_reserved":false,"is_disabled":false,"rental_uris":{"android":"levelo://app?vid=adf0ff5d-41cc-45cf-8953-e7139932571b","ios":"levelo://app?vid=adf0ff5d-41cc-45cf-8953-e7139932571b"},"vehicle_type_id":"4","last_reported":1728169682,"current_range_meters":16800,"station_id":"ce4bgv12rcd13ifvqcp0","pricing_plan_id":"cebpf4jnsgd1na2vs0mg"},{"bike_id":"64c21d14-413e-4f24-b913-19f14d17009a","system_id":"levelo_inurba_marseille","lat":43.27212,"lon":5.39179,"is_reserved":false,"is_disabled":false,"rental_uris":{"android":"levelo://app?vid=64c21d14-413e-4f24-b913-19f14d17009a","ios":"levelo://app?vid=64c21d14-413e-4f24-b913-19f14d17009a"},"vehicle_type_id":"4","last_reported":1728169682,"current_range_meters":8800,"station_id":"ce4bhhp2rcd13ifvqfm0","pricing_plan_id":"cebpf4jnsgd1na2vs0mg"},{"bike_id":"4f5038fe-9ccd-4d04-a6cd-afe04d9be89f","system_id":"levelo_inurba_marseille","lat":43.273723,"lon":5.362621,"is_reserved":false,"is_disabled":false,"rental_uris":{"android":"levelo://app?vid=4f5038fe-9ccd-4d04-a6cd-afe04d9be89f","ios":"levelo://app?vid=4f5038fe-9ccd-4d04-a6cd-afe04d9be89f"},"vehicle_type_id":"4","last_reported":1728169682,"current_range_meters":35600,"station_id":"ce4bhbh2rcd13ifvqeo0","pricing_plan_id":"cebpf4jnsgd1na2vs0mg"},{"bike_id":"68788143-3525-40be-94dd-ffa183ac0343","system_id":"levelo_inurba_marseille","lat":43.28944,"lon":5.36628,"is_reserved":false,"is_disabled":false,"rental_uris":{"android":"levelo://app?vid=68788143-3525-40be-94dd-ffa183ac0343","ios":"levelo://app?vid=68788143-3525-40be-94dd-ffa183ac0343"},"vehicle_type_id":"4","last_reported":1728169682,"current_range_meters":19200,"station_id":"ce4bhap2rcd13ifvqek0","pricing_plan_id":"cebpf4jnsgd1na2vs0mg"},{"bike_id":"0a8c9a0d-0b0f-4138-98a5-c8e50caa5c7e","system_id":"levelo_inurba_marseille","lat":43.24182,"lon":5.39723,"is_reserved":false,"is_disabled":false,"rental_uris":{"android":"levelo://app?vid=0a8c9a0d-0b0f-4138-98a5-c8e50caa5c7e","ios":"levelo://app?vid=0a8c9a0d-0b0f-4138-98a5-c8e50caa5c7e"},"vehicle_type_id":"4","last_reported":1728169682,"current_range_meters":7200,"station_id":"ce4bhn12rcd13ifvqgpg","pricing_plan_id":"cebpf4jnsgd1na2vs0mg"},{"bike_id":"9b7ef211-e2e3-461e-95c2-c27a9f5f93da","system_id":"levelo_inurba_marseille","lat":43.24548,"lon":5.39526,"is_reserved":false,"is_disabled":false,"rental_uris":{"android":"levelo://app?vid=9b7ef211-e2e3-461e-95c2-c27a9f5f93da","ios":"levelo://app?vid=9b7ef211-e2e3-461e-95c2-c27a9f5f93da"},"vehicle_type_id":"4","last_reported":1728169682,"current_range_meters":24000,"station_id":"ce4bhlp2rcd13ifvqgjg","pricing_plan_id":"cebpf4jnsgd1na2vs0mg"},{"bike_id":"d91af7a0-e968-4500-8fde-6538c6ce32cd","system_id":"levelo_inurba_marseille","lat":43.27902,"lon":5.38015,"is_reserved":false,"is_disabled":false,"rental_uris":{"android":"levelo://app?vid=d91af7a0-e968-4500-8fde-6538c6ce32cd","ios":"levelo://app?vid=d91af7a0-e968-4500-8fde-6538c6ce32cd"},"vehicle_type_id":"4","last_reported":1728169682,"current_range_meters":33200,"station_id":"ce4bhf92rcd13ifvqf50","pricing_plan_id":"cebpf4jnsgd1na2vs0mg"},{"bike_id":"4e0c83a2-b0c3-4894-8559-e509681998d3","system_id":"levelo_inurba_marseille","lat":43.311201,"lon":5.383306,"is_reserved":false,"is_disabled":false,"rental_uris":{"android":"levelo://app?vid=4e0c83a2-b0c3-4894-8559-e509681998d3","ios":"levelo://app?vid=4e0c83a2-b0c3-4894-8559-e509681998d3"},"vehicle_type_id":"4","last_reported":1728169682,"current_range_meters":12800,"station_id":"ce4bgv92rcd13ifvqcr0","pricing_plan_id":"cebpf4jnsgd1na2vs0mg"},{"bike_id":"6427da65-1c01-46ad-bce6-7b1503f7b986","system_id":"levelo_inurba_marseille","lat":43.31822,"lon":5.40632,"is_reserved":false,"is_disabled":false,"rental_uris":{"android":"levelo://app?vid=6427da65-1c01-46ad-bce6-7b1503f7b986","ios":"levelo://app?vid=6427da65-1c01-46ad-bce6-7b1503f7b986"},"vehicle_type_id":"4","last_reported":1728169682,"current_range_meters":14400,"station_id":"","pricing_plan_id":"cebpf4jnsgd1na2vs0mg"},{"bike_id":"8d4950f1-b301-449d-bcd0-f0ac70cb73de","system_id":"levelo_inurba_marseille","lat":43.284946,"lon":5.42194,"is_reserved":false,"is_disabled":false,"rental_uris":{"android":"levelo://app?vid=8d4950f1-b301-449d-bcd0-f0ac70cb73de","ios":"levelo://app?vid=8d4950f1-b301-449d-bcd0-f0ac70cb73de"},"vehicle_type_id":"4","last_reported":1728169682,"current_range_meters":7200,"station_id":"","pricing_plan_id":"cebpf4jnsgd1na2vs0mg"},{"bike_id":"c378dc83-ebd1-41d3-9b5e-a9309637a11d","system_id":"levelo_inurba_marseille","lat":43.3094,"lon":5.40151,"is_reserved":false,"is_disabled":false,"rental_uris":{"android":"levelo://app?vid=c378dc83-ebd1-41d3-9b5e-a9309637a11d","ios":"levelo://app?vid=c378dc83-ebd1-41d3-9b5e-a9309637a11d"},"vehicle_type_id":"4","last_reported":1728169682,"current_range_meters":10000,"station_id":"ce4bgvp2rcd13ifvqct0","pricing_plan_id":"cebpf4jnsgd1na2vs0mg"},{"bike_id":"edda4415-5efe-4e30-a026-4745fa69e918","system_id":"levelo_inurba_marseille","lat":43.23966,"lon":5.36626,"is_reserved":false,"is_disabled":false,"rental_uris":{"android":"levelo://app?vid=edda4415-5efe-4e30-a026-4745fa69e918","ios":"levelo://app?vid=edda4415-5efe-4e30-a026-4745fa69e918"},"vehicle_type_id":"4","last_reported":1728169682,"current_range_meters":37600,"station_id":"ce4bhi12rcd13ifvqfp0","pricing_plan_id":"cebpf4jnsgd1na2vs0mg"},{"bike_id":"f57c1fa8-7775-4a76-b6ec-3ef6497c71ff","system_id":"levelo_inurba_marseille","lat":43.28726,"lon":5.37933,"is_reserved":false,"is_disabled":false,"rental_uris":{"android":"levelo://app?vid=f57c1fa8-7775-4a76-b6ec-3ef6497c71ff","ios":"levelo://app?vid=f57c1fa8-7775-4a76-b6ec-3ef6497c71ff"},"vehicle_type_id":"4","last_reported":1728169682,"current_range_meters":11600,"station_id":"ce4bh9p2rcd13ifvqec0","pricing_plan_id":"cebpf4jnsgd1na2vs0mg"},{"bike_id":"4562355b-36d5-44a4-ac1a-fda5c02cd815","system_id":"levelo_inurba_marseille","lat":43.30782,"lon":5.37654,"is_reserved":false,"is_disabled":false,"rental_uris":{"android":"levelo://app?vid=4562355b-36d5-44a4-ac1a-fda5c02cd815","ios":"levelo://app?vid=4562355b-36d5-44a4-ac1a-fda5c02cd815"},"vehicle_type_id":"4","last_reported":1728169682,"current_range_meters":6400,"station_id":"","pricing_plan_id":"cebpf4jnsgd1na2vs0mg"},{"bike_id":"4f5491e9-1040-4dce-8fe0-700570afca1e","system_id":"levelo_inurba_marseille","lat":43.31591,"lon":5.36665,"is_reserved":false,"is_disabled":false,"rental_uris":{"android":"levelo://app?vid=4f5491e9-1040-4dce-8fe0-700570afca1e","ios":"levelo://app?vid=4f5491e9-1040-4dce-8fe0-700570afca1e"},"vehicle_type_id":"4","last_reported":1728169682,"current_range_meters":27600,"station_id":"ce4bgj92rcd13ifvqbd0","pricing_plan_id":"cebpf4jnsgd1na2vs0mg"},{"bike_id":"b8012ab1-ca0a-4255-9eef-64fe7f54c1c0","system_id":"levelo_inurba_marseille","lat":43.30139,"lon":5.38775,"is_reserved":false,"is_disabled":false,"rental_uris":{"android":"levelo://app?vid=b8012ab1-ca0a-4255-9eef-64fe7f54c1c0","ios":"levelo://app?vid=b8012ab1-ca0a-4255-9eef-64fe7f54c1c0"},"vehicle_type_id":"4","last_reported":1728169682,"current_range_meters":28000,"station_id":"ce4bghh2rcd13ifvqb60","pricing_plan_id":"cebpf4jnsgd1na2vs0mg"},{"bike_id":"e9e9ec92-217d-48ab-88a9-f251576c3bbb","system_id":"levelo_inurba_marseille","lat":43.29295,"lon":5.37459,"is_reserved":false,"is_disabled":false,"rental_uris":{"android":"levelo://app?vid=e9e9ec92-217d-48ab-88a9-f251576c3bbb","ios":"levelo://app?vid=e9e9ec92-217d-48ab-88a9-f251576c3bbb"},"vehicle_type_id":"4","last_reported":1728169682,"current_range_meters":15200,"station_id":"ce4bgi12rcd13ifvqb70","pricing_plan_id":"cebpf4jnsgd1na2vs0mg"},{"bike_id":"ee70354b-9fb1-40d1-b0cb-a7c37bf963b6","system_id":"levelo_inurba_marseille","lat":43.28153,"lon":5.42649,"is_reserved":false,"is_disabled":false,"rental_uris":{"android":"levelo://app?vid=ee70354b-9fb1-40d1-b0cb-a7c37bf963b6","ios":"levelo://app?vid=ee70354b-9fb1-40d1-b0cb-a7c37bf963b6"},"vehicle_type_id":"4","last_reported":1728169682,"current_range_meters":17200,"station_id":"ce4bhnh2rcd13ifvqgug","pricing_plan_id":"cebpf4jnsgd1na2vs0mg"},{"bike_id":"0e706edc-d6c9-4695-a8ed-089f891deb61","system_id":"levelo_inurba_marseille","lat":43.30642,"lon":5.40088,"is_reserved":false,"is_disabled":false,"rental_uris":{"android":"levelo://app?vid=0e706edc-d6c9-4695-a8ed-089f891deb61","ios":"levelo://app?vid=0e706edc-d6c9-4695-a8ed-089f891deb61"},"vehicle_type_id":"4","last_reported":1728169682,"current_range_meters":14400,"station_id":"ce4bh112rcd13ifvqda0","pricing_plan_id":"cebpf4jnsgd1na2vs0mg"},{"bike_id":"2a45fa2e-7dbb-44c6-b525-bdc2d264ff32","system_id":"levelo_inurba_marseille","lat":43.24389,"lon":5.37059,"is_reserved":false,"is_disabled":false,"rental_uris":{"android":"levelo://app?vid=2a45fa2e-7dbb-44c6-b525-bdc2d264ff32","ios":"levelo://app?vid=2a45fa2e-7dbb-44c6-b525-bdc2d264ff32"},"vehicle_type_id":"4","last_reported":1728169682,"current_range_meters":17600,"station_id":"ce4bhhh2rcd13ifvqfk0","pricing_plan_id":"cebpf4jnsgd1na2vs0mg"},{"bike_id":"1e2902da-e8d5-4f6d-8718-9c11331fe215","system_id":"levelo_inurba_marseille","lat":43.28835,"lon":5.39332,"is_reserved":false,"is_disabled":false,"rental_uris":{"android":"levelo://app?vid=1e2902da-e8d5-4f6d-8718-9c11331fe215","ios":"levelo://app?vid=1e2902da-e8d5-4f6d-8718-9c11331fe215"},"vehicle_type_id":"4","last_reported":1728169682,"current_range_meters":4000,"station_id":"ce4bh2p2rcd13ifvqdi0","pricing_plan_id":"cebpf4jnsgd1na2vs0mg"},{"bike_id":"bdefae95-7cc5-4880-bfcb-b1af39586be0","system_id":"levelo_inurba_marseille","lat":43.32662,"lon":5.40995,"is_reserved":false,"is_disabled":false,"rental_uris":{"android":"levelo://app?vid=bdefae95-7cc5-4880-bfcb-b1af39586be0","ios":"levelo://app?vid=bdefae95-7cc5-4880-bfcb-b1af39586be0"},"vehicle_type_id":"4","last_reported":1728169682,"current_range_meters":38000,"station_id":"ce4bhpp2rcd13ifvqhgg","pricing_plan_id":"cebpf4jnsgd1na2vs0mg"},{"bike_id":"9d8ed7bc-8c04-41b2-b4f2-d2a174177286","system_id":"levelo_inurba_marseille","lat":43.30317,"lon":5.36905,"is_reserved":false,"is_disabled":false,"rental_uris":{"android":"levelo://app?vid=9d8ed7bc-8c04-41b2-b4f2-d2a174177286","ios":"levelo://app?vid=9d8ed7bc-8c04-41b2-b4f2-d2a174177286"},"vehicle_type_id":"4","last_reported":1728169682,"current_range_meters":38800,"station_id":"ce4bgqh2rcd13ifvqc5g","pricing_plan_id":"cebpf4jnsgd1na2vs0mg"},{"bike_id":"0bec7e86-5134-4de9-a112-9f61cf138fc6","system_id":"levelo_inurba_marseille","lat":43.28412,"lon":5.37513,"is_reserved":false,"is_disabled":false,"rental_uris":{"android":"levelo://app?vid=0bec7e86-5134-4de9-a112-9f61cf138fc6","ios":"levelo://app?vid=0bec7e86-5134-4de9-a112-9f61cf138fc6"},"vehicle_type_id":"4","last_reported":1728169682,"current_range_meters":30400,"station_id":"ce4bh412rcd13ifvqds0","pricing_plan_id":"cebpf4jnsgd1na2vs0mg"},{"bike_id":"12afc8f1-2acf-4c0e-b1d3-c57bea2e71f3","system_id":"levelo_inurba_marseille","lat":43.26059,"lon":5.39389,"is_reserved":false,"is_disabled":false,"rental_uris":{"android":"levelo://app?vid=12afc8f1-2acf-4c0e-b1d3-c57bea2e71f3","ios":"levelo://app?vid=12afc8f1-2acf-4c0e-b1d3-c57bea2e71f3"},"vehicle_type_id":"4","last_reported":1728169682,"current_range_meters":38400,"station_id":"ce4bhh92rcd13ifvqfj0","pricing_plan_id":"cebpf4jnsgd1na2vs0mg"},{"bike_id":"72b8c04a-3057-4d01-837c-832fc4509ecc","system_id":"levelo_inurba_marseille","lat":43.29619,"lon":5.37151,"is_reserved":false,"is_disabled":false,"rental_uris":{"android":"levelo://app?vid=72b8c04a-3057-4d01-837c-832fc4509ecc","ios":"levelo://app?vid=72b8c04a-3057-4d01-837c-832fc4509ecc"},"vehicle_type_id":"4","last_reported":1728169682,"current_range_meters":6400,"station_id":"ce4bgnh2rcd13ifvqc0g","pricing_plan_id":"cebpf4jnsgd1na2vs0mg"},{"bike_id":"19f85a2b-1e5c-4bc3-8a40-bd1b097209ed","system_id":"levelo_inurba_marseille","lat":43.33022,"lon":5.39041,"is_reserved":false,"is_disabled":false,"rental_uris":{"android":"levelo://app?vid=19f85a2b-1e5c-4bc3-8a40-bd1b097209ed","ios":"levelo://app?vid=19f85a2b-1e5c-4bc3-8a40-bd1b097209ed"},"vehicle_type_id":"4","last_reported":1728169682,"current_range_meters":16400,"station_id":"ce4bhr92rcd13ifvqhrg","pricing_plan_id":"cebpf4jnsgd1na2vs0mg"},{"bike_id":"e03c9d0c-17ae-4003-b903-fd8aa9951041","system_id":"levelo_inurba_marseille","lat":43.33742,"lon":5.37447,"is_reserved":false,"is_disabled":false,"rental_uris":{"android":"levelo://app?vid=e03c9d0c-17ae-4003-b903-fd8aa9951041","ios":"levelo://app?vid=e03c9d0c-17ae-4003-b903-fd8aa9951041"},"vehicle_type_id":"4","last_reported":1728169682,"current_range_meters":36800,"station_id":"","pricing_plan_id":"cebpf4jnsgd1na2vs0mg"},{"bike_id":"04e0dd85-95d9-4f83-a056-c2c2f9219ecc","system_id":"levelo_inurba_marseille","lat":43.28938,"lon":5.36628,"is_reserved":false,"is_disabled":false,"rental_uris":{"android":"levelo://app?vid=04e0dd85-95d9-4f83-a056-c2c2f9219ecc","ios":"levelo://app?vid=04e0dd85-95d9-4f83-a056-c2c2f9219ecc"},"vehicle_type_id":"4","last_reported":1728169682,"current_range_meters":39200,"station_id":"ce4bhap2rcd13ifvqek0","pricing_plan_id":"cebpf4jnsgd1na2vs0mg"},{"bike_id":"76636453-5c48-4b2b-8120-416e6bc53789","system_id":"levelo_inurba_marseille","lat":43.29928,"lon":5.36521,"is_reserved":false,"is_disabled":false,"rental_uris":{"android":"levelo://app?vid=76636453-5c48-4b2b-8120-416e6bc53789","ios":"levelo://app?vid=76636453-5c48-4b2b-8120-416e6bc53789"},"vehicle_type_id":"4","last_reported":1728169682,"current_range_meters":37600,"station_id":"ce4bgm92rcd13ifvqbr0","pricing_plan_id":"cebpf4jnsgd1na2vs0mg"},{"bike_id":"c27c8d52-1b00-4695-a766-8c8f5b42bdbb","system_id":"levelo_inurba_marseille","lat":43.28458,"lon":5.35881,"is_reserved":false,"is_disabled":false,"rental_uris":{"android":"levelo://app?vid=c27c8d52-1b00-4695-a766-8c8f5b42bdbb","ios":"levelo://app?vid=c27c8d52-1b00-4695-a766-8c8f5b42bdbb"},"vehicle_type_id":"4","last_reported":1728169682,"current_range_meters":30400,"station_id":"ce4bhah2rcd13ifvqei0","pricing_plan_id":"cebpf4jnsgd1na2vs0mg"},{"bike_id":"6a7f994d-5360-4eba-b6cc-487d41a0e15c","system_id":"levelo_inurba_marseille","lat":43.30181,"lon":5.36616,"is_reserved":false,"is_disabled":false,"rental_uris":{"android":"levelo://app?vid=6a7f994d-5360-4eba-b6cc-487d41a0e15c","ios":"levelo://app?vid=6a7f994d-5360-4eba-b6cc-487d41a0e15c"},"vehicle_type_id":"4","last_reported":1728169682,"current_range_meters":38800,"station_id":"ce4bgrh2rcd13ifvqc8g","pricing_plan_id":"cebpf4jnsgd1na2vs0mg"},{"bike_id":"7776925c-a397-49d1-acf9-2c551de13bc0","system_id":"levelo_inurba_marseille","lat":43.29301,"lon":5.37174,"is_reserved":false,"is_disabled":false,"rental_uris":{"android":"levelo://app?vid=7776925c-a397-49d1-acf9-2c551de13bc0","ios":"levelo://app?vid=7776925c-a397-49d1-acf9-2c551de13bc0"},"vehicle_type_id":"4","last_reported":1728169682,"current_range_meters":12400,"station_id":"ce4bgh92rcd13ifvqb40","pricing_plan_id":"cebpf4jnsgd1na2vs0mg"},{"bike_id":"562a746b-ba93-42a2-b79b-98b3d31569a4","system_id":"levelo_inurba_marseille","lat":43.29616,"lon":5.387,"is_reserved":false,"is_disabled":false,"rental_uris":{"android":"levelo://app?vid=562a746b-ba93-42a2-b79b-98b3d31569a4","ios":"levelo://app?vid=562a746b-ba93-42a2-b79b-98b3d31569a4"},"vehicle_type_id":"4","last_reported":1728169682,"current_range_meters":33200,"station_id":"ce4bgt12rcd13ifvqce0","pricing_plan_id":"cebpf4jnsgd1na2vs0mg"},{"bike_id":"757607c4-c8a7-49c5-8f8a-3de1b142729e","system_id":"levelo_inurba_marseille","lat":43.30191,"lon":5.36614,"is_reserved":false,"is_disabled":false,"rental_uris":{"android":"levelo://app?vid=757607c4-c8a7-49c5-8f8a-3de1b142729e","ios":"levelo://app?vid=757607c4-c8a7-49c5-8f8a-3de1b142729e"},"vehicle_type_id":"4","last_reported":1728169682,"current_range_meters":38800,"station_id":"ce4bgrh2rcd13ifvqc8g","pricing_plan_id":"cebpf4jnsgd1na2vs0mg"},{"bike_id":"82fc7c33-9bc8-4141-910b-cc6923b10482","system_id":"levelo_inurba_marseille","lat":43.23183,"lon":5.39988,"is_reserved":false,"is_disabled":false,"rental_uris":{"android":"levelo://app?vid=82fc7c33-9bc8-4141-910b-cc6923b10482","ios":"levelo://app?vid=82fc7c33-9bc8-4141-910b-cc6923b10482"},"vehicle_type_id":"4","last_reported":1728169682,"current_range_meters":22000,"station_id":"ce4bhn12rcd13ifvqgqg","pricing_plan_id":"cebpf4jnsgd1na2vs0mg"},{"bike_id":"b191307c-c5b5-4448-90cd-ecf8ef829e91","system_id":"levelo_inurba_marseille","lat":43.30889,"lon":5.39654,"is_reserved":false,"is_disabled":false,"rental_uris":{"android":"levelo://app?vid=b191307c-c5b5-4448-90cd-ecf8ef829e91","ios":"levelo://app?vid=b191307c-c5b5-4448-90cd-ecf8ef829e91"},"vehicle_type_id":"4","last_reported":1728169682,"current_range_meters":32400,"station_id":"ce4bh012rcd13ifvqcv0","pricing_plan_id":"cebpf4jnsgd1na2vs0mg"},{"bike_id":"95984d18-b791-4bab-9c32-34ccf111b95a","system_id":"levelo_inurba_marseille","lat":43.27997,"lon":5.40004,"is_reserved":false,"is_disabled":false,"rental_uris":{"android":"levelo://app?vid=95984d18-b791-4bab-9c32-34ccf111b95a","ios":"levelo://app?vid=95984d18-b791-4bab-9c32-34ccf111b95a"},"vehicle_type_id":"4","last_reported":1728169682,"current_range_meters":27200,"station_id":"ce4bho92rcd13ifvqh4g","pricing_plan_id":"cebpf4jnsgd1na2vs0mg"},{"bike_id":"b6a817d8-5787-46a3-898e-0b46c75fc481","system_id":"levelo_inurba_marseille","lat":43.32965,"lon":5.40344,"is_reserved":false,"is_disabled":false,"rental_uris":{"android":"levelo://app?vid=b6a817d8-5787-46a3-898e-0b46c75fc481","ios":"levelo://app?vid=b6a817d8-5787-46a3-898e-0b46c75fc481"},"vehicle_type_id":"4","last_reported":1728169682,"current_range_meters":4000,"station_id":"","pricing_plan_id":"cebpf4jnsgd1na2vs0mg"},{"bike_id":"541f98d3-54fb-4c66-8f50-7b29cf9dcd75","system_id":"levelo_inurba_marseille","lat":43.31266,"lon":5.40163,"is_reserved":false,"is_disabled":false,"rental_uris":{"android":"levelo://app?vid=541f98d3-54fb-4c66-8f50-7b29cf9dcd75","ios":"levelo://app?vid=541f98d3-54fb-4c66-8f50-7b29cf9dcd75"},"vehicle_type_id":"4","last_reported":1728169682,"current_range_meters":35600,"station_id":"ce4bh092rcd13ifvqd30","pricing_plan_id":"cebpf4jnsgd1na2vs0mg"},{"bike_id":"92492521-2bc4-47cf-b62b-43f429ff6656","system_id":"levelo_inurba_marseille","lat":43.2396,"lon":5.36622,"is_reserved":false,"is_disabled":false,"rental_uris":{"android":"levelo://app?vid=92492521-2bc4-47cf-b62b-43f429ff6656","ios":"levelo://app?vid=92492521-2bc4-47cf-b62b-43f429ff6656"},"vehicle_type_id":"4","last_reported":1728169682,"current_range_meters":38000,"station_id":"ce4bhi12rcd13ifvqfp0","pricing_plan_id":"cebpf4jnsgd1na2vs0mg"},{"bike_id":"6d883fd3-9eb2-4259-829f-016297ab92db","system_id":"levelo_inurba_marseille","lat":43.29888,"lon":5.38895,"is_reserved":false,"is_disabled":false,"rental_uris":{"android":"levelo://app?vid=6d883fd3-9eb2-4259-829f-016297ab92db","ios":"levelo://app?vid=6d883fd3-9eb2-4259-829f-016297ab92db"},"vehicle_type_id":"4","last_reported":1728169682,"current_range_meters":32800,"station_id":"ce4bh392rcd13ifvqdl0","pricing_plan_id":"cebpf4jnsgd1na2vs0mg"},{"bike_id":"6856d22e-440d-40d9-809f-3167dacdbdc3","system_id":"levelo_inurba_marseille","lat":43.337444,"lon":5.374475,"is_reserved":false,"is_disabled":false,"rental_uris":{"android":"levelo://app?vid=6856d22e-440d-40d9-809f-3167dacdbdc3","ios":"levelo://app?vid=6856d22e-440d-40d9-809f-3167dacdbdc3"},"vehicle_type_id":"4","last_reported":1728169682,"current_range_meters":17200,"station_id":"","pricing_plan_id":"cebpf4jnsgd1na2vs0mg"},{"bike_id":"19a648ed-fca5-4162-a9d8-4d0dba3ffb13","system_id":"levelo_inurba_marseille","lat":43.27072,"lon":5.42277,"is_reserved":false,"is_disabled":false,"rental_uris":{"android":"levelo://app?vid=19a648ed-fca5-4162-a9d8-4d0dba3ffb13","ios":"levelo://app?vid=19a648ed-fca5-4162-a9d8-4d0dba3ffb13"},"vehicle_type_id":"4","last_reported":1728169682,"current_range_meters":34000,"station_id":"ce4bhk92rcd13ifvqgb0","pricing_plan_id":"cebpf4jnsgd1na2vs0mg"},{"bike_id":"64bd957e-b978-44cb-a85c-928d627d24ec","system_id":"levelo_inurba_marseille","lat":43.35424,"lon":5.35869,"is_reserved":false,"is_disabled":false,"rental_uris":{"android":"levelo://app?vid=64bd957e-b978-44cb-a85c-928d627d24ec","ios":"levelo://app?vid=64bd957e-b978-44cb-a85c-928d627d24ec"},"vehicle_type_id":"4","last_reported":1728169682,"current_range_meters":6000,"station_id":"","pricing_plan_id":"cebpf4jnsgd1na2vs0mg"},{"bike_id":"64995d1a-0a95-43c1-8426-b3115325266b","system_id":"levelo_inurba_marseille","lat":43.27925,"lon":5.42307,"is_reserved":false,"is_disabled":false,"rental_uris":{"android":"levelo://app?vid=64995d1a-0a95-43c1-8426-b3115325266b","ios":"levelo://app?vid=64995d1a-0a95-43c1-8426-b3115325266b"},"vehicle_type_id":"4","last_reported":1728169682,"current_range_meters":16800,"station_id":"","pricing_plan_id":"cebpf4jnsgd1na2vs0mg"},{"bike_id":"e0bec634-a34f-46e9-9093-eaf02ad8f01f","system_id":"levelo_inurba_marseille","lat":43.31536,"lon":5.38031,"is_reserved":false,"is_disabled":false,"rental_uris":{"android":"levelo://app?vid=e0bec634-a34f-46e9-9093-eaf02ad8f01f","ios":"levelo://app?vid=e0bec634-a34f-46e9-9093-eaf02ad8f01f"},"vehicle_type_id":"4","last_reported":1728169682,"current_range_meters":38800,"station_id":"ce4bhsp2rcd13ifvqi50","pricing_plan_id":"cebpf4jnsgd1na2vs0mg"},{"bike_id":"3087cbb8-89ad-4937-9daf-65c8b2772aa2","system_id":"levelo_inurba_marseille","lat":43.337281,"lon":5.391825,"is_reserved":false,"is_disabled":false,"rental_uris":{"android":"levelo://app?vid=3087cbb8-89ad-4937-9daf-65c8b2772aa2","ios":"levelo://app?vid=3087cbb8-89ad-4937-9daf-65c8b2772aa2"},"vehicle_type_id":"4","last_reported":1728169682,"current_range_meters":37600,"station_id":"ce4bhr92rcd13ifvqhsg","pricing_plan_id":"cebpf4jnsgd1na2vs0mg"},{"bike_id":"3a06c4cb-9f82-4da9-a25d-6e283b50203f","system_id":"levelo_inurba_marseille","lat":43.29617,"lon":5.37149,"is_reserved":false,"is_disabled":false,"rental_uris":{"android":"levelo://app?vid=3a06c4cb-9f82-4da9-a25d-6e283b50203f","ios":"levelo://app?vid=3a06c4cb-9f82-4da9-a25d-6e283b50203f"},"vehicle_type_id":"4","last_reported":1728169682,"current_range_meters":8000,"station_id":"ce4bgnh2rcd13ifvqc0g","pricing_plan_id":"cebpf4jnsgd1na2vs0mg"},{"bike_id":"57218d6f-c780-4b2b-aea1-ab0d3f8ef64b","system_id":"levelo_inurba_marseille","lat":43.28031,"lon":5.36948,"is_reserved":false,"is_disabled":false,"rental_uris":{"android":"levelo://app?vid=57218d6f-c780-4b2b-aea1-ab0d3f8ef64b","ios":"levelo://app?vid=57218d6f-c780-4b2b-aea1-ab0d3f8ef64b"},"vehicle_type_id":"4","last_reported":1728169682,"current_range_meters":24000,"station_id":"ce4bha12rcd13ifvqef0","pricing_plan_id":"cebpf4jnsgd1na2vs0mg"},{"bike_id":"03e4d486-736f-4432-84c3-d22a48482595","system_id":"levelo_inurba_marseille","lat":43.27606,"lon":5.36113,"is_reserved":false,"is_disabled":false,"rental_uris":{"android":"levelo://app?vid=03e4d486-736f-4432-84c3-d22a48482595","ios":"levelo://app?vid=03e4d486-736f-4432-84c3-d22a48482595"},"vehicle_type_id":"4","last_reported":1728169682,"current_range_meters":25200,"station_id":"ce4bgj92rcd13ifvqbe0","pricing_plan_id":"cebpf4jnsgd1na2vs0mg"},{"bike_id":"42754fdf-4824-4d58-b277-b58b632b865d","system_id":"levelo_inurba_marseille","lat":43.31117,"lon":5.37768,"is_reserved":false,"is_disabled":false,"rental_uris":{"android":"levelo://app?vid=42754fdf-4824-4d58-b277-b58b632b865d","ios":"levelo://app?vid=42754fdf-4824-4d58-b277-b58b632b865d"},"vehicle_type_id":"4","last_reported":1728169682,"current_range_meters":15200,"station_id":"ce4bgt92rcd13ifvqcg0","pricing_plan_id":"cebpf4jnsgd1na2vs0mg"},{"bike_id":"cc121243-1b6c-4505-8328-f8be230a2d59","system_id":"levelo_inurba_marseille","lat":43.29707,"lon":5.36613,"is_reserved":false,"is_disabled":false,"rental_uris":{"android":"levelo://app?vid=cc121243-1b6c-4505-8328-f8be230a2d59","ios":"levelo://app?vid=cc121243-1b6c-4505-8328-f8be230a2d59"},"vehicle_type_id":"4","last_reported":1728169682,"current_range_meters":30800,"station_id":"ce4bgn12rcd13ifvqbt0","pricing_plan_id":"cebpf4jnsgd1na2vs0mg"},{"bike_id":"79d4ce44-dde0-4856-adfb-9d048612b764","system_id":"levelo_inurba_marseille","lat":43.33752,"lon":5.3743,"is_reserved":false,"is_disabled":false,"rental_uris":{"android":"levelo://app?vid=79d4ce44-dde0-4856-adfb-9d048612b764","ios":"levelo://app?vid=79d4ce44-dde0-4856-adfb-9d048612b764"},