{"last_updated":1737980253,"ttl":60,"version":"2.2","data":{"bikes":[{"bike_id":"10b27bd5-18a8-417b-930b-35a4200094be","system_id":"levelo_inurba_marseille","lat":43.29606,"lon":5.37734,"is_reserved":false,"is_disabled":false,"rental_uris":{"android":"levelo://app?vid=10b27bd5-18a8-417b-930b-35a4200094be","ios":"levelo://app?vid=10b27bd5-18a8-417b-930b-35a4200094be"},"vehicle_type_id":"4","last_reported":1737980253,"current_range_meters":37600,"station_id":"ce4bgi92rcd13ifvqb90","pricing_plan_id":"cebpf4jnsgd1na2vs0mg"},{"bike_id":"cb675d55-e5c8-4982-aca6-2a4540f10435","system_id":"levelo_inurba_marseille","lat":43.29863,"lon":5.36285,"is_reserved":false,"is_disabled":false,"rental_uris":{"android":"levelo://app?vid=cb675d55-e5c8-4982-aca6-2a4540f10435","ios":"levelo://app?vid=cb675d55-e5c8-4982-aca6-2a4540f10435"},"vehicle_type_id":"4","last_reported":1737980253,"current_range_meters":13600,"station_id":"ce4bgpp2rcd13ifvqc3g","pricing_plan_id":"cebpf4jnsgd1na2vs0mg"},{"bike_id":"d04636c5-0ea2-4c95-a7e1-8fca9023ee75","system_id":"levelo_inurba_marseille","lat":43.32282,"lon":5.3827,"is_reserved":false,"is_disabled":false,"rental_uris":{"android":"levelo://app?vid=d04636c5-0ea2-4c95-a7e1-8fca9023ee75","ios":"levelo://app?vid=d04636c5-0ea2-4c95-a7e1-8fca9023ee75"},"vehicle_type_id":"4","last_reported":1737980253,"current_range_meters":14400,"station_id":"ce4bhr12rcd13ifvqhqg","pricing_plan_id":"cebpf4jnsgd1na2vs0mg"},{"bike_id":"22fdda07-29f7-4097-aa7c-457566d3caba","system_id":"levelo_inurba_marseille","lat":43.25128,"lon":5.39564,"is_reserved":false,"is_disabled":false,"rental_uris":{"android":"levelo://app?vid=22fdda07-29f7-4097-aa7c-457566d3caba","ios":"levelo://app?vid=22fdda07-29f7-4097-aa7c-457566d3caba"},"vehicle_type_id":"4","last_reported":1737980253,"current_range_meters":22400,"station_id":"","pricing_plan_id":"cebpf4jnsgd1na2vs0mg"},{"bike_id":"f9ea3b7d-3e08-41ce-9f28-17237eb201ee","system_id":"levelo_inurba_marseille","lat":43.27491,"lon":5.42465,"is_reserved":false,"is_disabled":true,"rental_uris":{"android":"levelo://app?vid=f9ea3b7d-3e08-41ce-9f28-17237eb201ee","ios":"levelo://app?vid=f9ea3b7d-3e08-41ce-9f28-17237eb201ee"},"vehicle_type_id":"4","last_reported":1737980253,"current_range_meters":0,"station_id":"ce4bhn92rcd13ifvqgrg","pricing_plan_id":"cebpf4jnsgd1na2vs0mg"},{"bike_id":"d999704f-e81a-492f-bc4f-4f7e2ff7e922","system_id":"levelo_inurba_marseille","lat":43.25735,"lon":5.41114,"is_reserved":false,"is_disabled":false,"rental_uris":{"android":"levelo://app?vid=d999704f-e81a-492f-bc4f-4f7e2ff7e922","ios":"levelo://app?vid=d999704f-e81a-492f-bc4f-4f7e2ff7e922"},"vehicle_type_id":"4","last_reported":1737980253,"current_range_meters":38800,"station_id":"ce4bhkp2rcd13ifvqgd0","pricing_plan_id":"cebpf4jnsgd1na2vs0mg"},{"bike_id":"58d9e3df-28a3-4560-b2cd-4d33fefbd544","system_id":"levelo_inurba_marseille","lat":43.28317,"lon":5.38097,"is_reserved":false,"is_disabled":true,"rental_uris":{"android":"levelo://app?vid=58d9e3df-28a3-4560-b2cd-4d33fefbd544","ios":"levelo://app?vid=58d9e3df-28a3-4560-b2cd-4d33fefbd544"},"vehicle_type_id":"4","last_reported":1737980253,"current_range_meters":11600,"station_id":"ce4bh412rcd13ifvqdr0","pricing_plan_id":"cebpf4jnsgd1na2vs0mg"},{"bike_id":"de0a0bda-e2f1-46ed-a902-ec0962b2f08e","system_id":"levelo_inurba_marseille","lat":43.30536,"lon":5.36547,"is_reserved":false,"is_disabled":false,"rental_uris":{"android":"levelo://app?vid=de0a0bda-e2f1-46ed-a902-ec0962b2f08e","ios":"levelo://app?vid=de0a0bda-e2f1-46ed-a902-ec0962b2f08e"},"vehicle_type_id":"4","last_reported":1737980253,"current_range_meters":27600,"station_id":"ce4bgs12rcd13ifvqcag","pricing_plan_id":"cebpf4jnsgd1na2vs0mg"},{"bike_id":"4bd5de1a-99c3-4b8a-ac3d-e4e0c9fc1d4a","system_id":"levelo_inurba_marseille","lat":43.32101,"lon":5.3677,"is_reserved":false,"is_disabled":false,"rental_uris":{"android":"levelo://app?vid=4bd5de1a-99c3-4b8a-ac3d-e4e0c9fc1d4a","ios":"levelo://app?vid=4bd5de1a-99c3-4b8a-ac3d-e4e0c9fc1d4a"},"vehicle_type_id":"4","last_reported":1737980253,"current_range_meters":8400,"station_id":"ce4bhrh2rcd13ifvqhug","pricing_plan_id":"cebpf4jnsgd1na2vs0mg"},{"bike_id":"a609f696-5b48-45d4-be19-7269597c7b4f","system_id":"levelo_inurba_marseille","lat":43.26954,"lon":5.38647,"is_reserved":false,"is_disabled":false,"rental_uris":{"android":"levelo://app?vid=a609f696-5b48-45d4-be19-7269597c7b4f","ios":"levelo://app?vid=a609f696-5b48-45d4-be19-7269597c7b4f"},"vehicle_type_id":"4","last_reported":1737980253,"current_range_meters":36000,"station_id":"ce4bhh92rcd13ifvqfh0","pricing_plan_id":"cebpf4jnsgd1na2vs0mg"},{"bike_id":"8621f356-e06f-497e-bbed-9f329c00dfb0","system_id":"levelo_inurba_marseille","lat":43.27188,"lon":5.40991,"is_reserved":false,"is_disabled":false,"rental_uris":{"android":"levelo://app?vid=8621f356-e06f-497e-bbed-9f329c00dfb0","ios":"levelo://app?vid=8621f356-e06f-497e-bbed-9f329c00dfb0"},"vehicle_type_id":"4","last_reported":1737980253,"current_range_meters":28000,"station_id":"ce4bhl12rcd13ifvqgf0","pricing_plan_id":"cebpf4jnsgd1na2vs0mg"},{"bike_id":"df8e0257-a3ff-443a-8d65-39fe69c0f36e","system_id":"levelo_inurba_marseille","lat":43.2781,"lon":5.40721,"is_reserved":false,"is_disabled":false,"rental_uris":{"android":"levelo://app?vid=df8e0257-a3ff-443a-8d65-39fe69c0f36e","ios":"levelo://app?vid=df8e0257-a3ff-443a-8d65-39fe69c0f36e"},"vehicle_type_id":"4","last_reported":1737980253,"current_range_meters":36400,"station_id":"ce4bhnh2rcd13ifvqgtg","pricing_plan_id":"cebpf4jnsgd1na2vs0mg"},{"bike_id":"4d8197a8-a4a5-44ce-be66-a395c5014fde","system_id":"levelo_inurba_marseille","lat":43.28933,"lon":5.36643,"is_reserved":false,"is_disabled":false,"rental_uris":{"android":"levelo://app?vid=4d8197a8-a4a5-44ce-be66-a395c5014fde","ios":"levelo://app?vid=4d8197a8-a4a5-44ce-be66-a395c5014fde"},"vehicle_type_id":"4","last_reported":1737980253,"current_range_meters":28400,"station_id":"ce4bhap2rcd13ifvqek0","pricing_plan_id":"cebpf4jnsgd1na2vs0mg"},{"bike_id":"d6755dc8-d9a9-49dc-8a8f-22ec6b86e111","system_id":"levelo_inurba_marseille","lat":43.28148,"lon":5.42632,"is_reserved":false,"is_disabled":false,"rental_uris":{"android":"levelo://app?vid=d6755dc8-d9a9-49dc-8a8f-22ec6b86e111","ios":"levelo://app?vid=d6755dc8-d9a9-49dc-8a8f-22ec6b86e111"},"vehicle_type_id":"4","last_reported":1737980253,"current_range_meters":29600,"station_id":"ce4bhnh2rcd13ifvqgug","pricing_plan_id":"cebpf4jnsgd1na2vs0mg"},{"bike_id":"22fe6381-bfa8-481c-9415-4e6666169356","system_id":"levelo_inurba_marseille","lat":43.26555,"lon":5.39012,"is_reserved":false,"is_disabled":false,"rental_uris":{"android":"levelo://app?vid=22fe6381-bfa8-481c-9415-4e6666169356","ios":"levelo://app?vid=22fe6381-bfa8-481c-9415-4e6666169356"},"vehicle_type_id":"4","last_reported":1737980253,"current_range_meters":26800,"station_id":"ce4bhe12rcd13ifvqf30","pricing_plan_id":"cebpf4jnsgd1na2vs0mg"},{"bike_id":"3a9f504a-fc33-409e-973d-2967ce25e2e5","system_id":"levelo_inurba_marseille","lat":43.2721,"lon":5.39187,"is_reserved":false,"is_disabled":false,"rental_uris":{"android":"levelo://app?vid=3a9f504a-fc33-409e-973d-2967ce25e2e5","ios":"levelo://app?vid=3a9f504a-fc33-409e-973d-2967ce25e2e5"},"vehicle_type_id":"4","last_reported":1737980253,"current_range_meters":38800,"station_id":"ce4bhhp2rcd13ifvqfm0","pricing_plan_id":"cebpf4jnsgd1na2vs0mg"},{"bike_id":"90cc3ddf-83e9-4f36-b3ac-3eaa190119e5","system_id":"levelo_inurba_marseille","lat":43.28474,"lon":5.38549,"is_reserved":false,"is_disabled":false,"rental_uris":{"android":"levelo://app?vid=90cc3ddf-83e9-4f36-b3ac-3eaa190119e5","ios":"levelo://app?vid=90cc3ddf-83e9-4f36-b3ac-3eaa190119e5"},"vehicle_type_id":"4","last_reported":1737980253,"current_range_meters":37600,"station_id":"ce4bh8p2rcd13ifvqeb0","pricing_plan_id":"cebpf4jnsgd1na2vs0mg"},{"bike_id":"c96545e6-b3fa-4a6b-836e-d89ea478e5d1","system_id":"levelo_inurba_marseille","lat":43.24994,"lon":5.38924,"is_reserved":false,"is_disabled":false,"rental_uris":{"android":"levelo://app?vid=c96545e6-b3fa-4a6b-836e-d89ea478e5d1","ios":"levelo://app?vid=c96545e6-b3fa-4a6b-836e-d89ea478e5d1"},"vehicle_type_id":"4","last_reported":1737980253,"current_range_meters":38800,"station_id":"ce4bhgp2rcd13ifvqfd0","pricing_plan_id":"cebpf4jnsgd1na2vs0mg"},{"bike_id":"cfff1edf-189f-4cb0-80dd-22014a7dc63a","system_id":"levelo_inurba_marseille","lat":43.24821,"lon":5.37449,"is_reserved":false,"is_disabled":false,"rental_uris":{"android":"levelo://app?vid=cfff1edf-189f-4cb0-80dd-22014a7dc63a","ios":"levelo://app?vid=cfff1edf-189f-4cb0-80dd-22014a7dc63a"},"vehicle_type_id":"4","last_reported":1737980253,"current_range_meters":26800,"station_id":"ce4bhgh2rcd13ifvqfb0","pricing_plan_id":"cebpf4jnsgd1na2vs0mg"},{"bike_id":"234d8b67-2684-4782-94a0-5114e75a4c6a","system_id":"levelo_inurba_marseille","lat":43.3046,"lon":5.37905,"is_reserved":false,"is_disabled":false,"rental_uris":{"android":"levelo://app?vid=234d8b67-2684-4782-94a0-5114e75a4c6a","ios":"levelo://app?vid=234d8b67-2684-4782-94a0-5114e75a4c6a"},"vehicle_type_id":"4","last_reported":1737980253,"current_range_meters":39200,"station_id":"ce4bgup2rcd13ifvqcn0","pricing_plan_id":"cebpf4jnsgd1na2vs0mg"},{"bike_id":"5a6503ca-c2c6-4dbe-a6f7-68e5f1916ac2","system_id":"levelo_inurba_marseille","lat":43.299,"lon":5.43678,"is_reserved":false,"is_disabled":false,"rental_uris":{"android":"levelo://app?vid=5a6503ca-c2c6-4dbe-a6f7-68e5f1916ac2","ios":"levelo://app?vid=5a6503ca-c2c6-4dbe-a6f7-68e5f1916ac2"},"vehicle_type_id":"4","last_reported":1737980253,"current_range_meters":10800,"station_id":"ce4bhpp2rcd13ifvqhfg","pricing_plan_id":"cebpf4jnsgd1na2vs0mg"},{"bike_id":"a1a2450d-e8db-4c04-9d40-a4709700435c","system_id":"levelo_inurba_marseille","lat":43.31115,"lon":5.37762,"is_reserved":false,"is_disabled":false,"rental_uris":{"android":"levelo://app?vid=a1a2450d-e8db-4c04-9d40-a4709700435c","ios":"levelo://app?vid=a1a2450d-e8db-4c04-9d40-a4709700435c"},"vehicle_type_id":"4","last_reported":1737980253,"current_range_meters":35200,"station_id":"ce4bgt92rcd13ifvqcg0","pricing_plan_id":"cebpf4jnsgd1na2vs0mg"},{"bike_id":"9db80e4f-c595-4db0-a201-aea7b1c4a887","system_id":"levelo_inurba_marseille","lat":43.31381,"lon":5.38487,"is_reserved":false,"is_disabled":false,"rental_uris":{"android":"levelo://app?vid=9db80e4f-c595-4db0-a201-aea7b1c4a887","ios":"levelo://app?vid=9db80e4f-c595-4db0-a201-aea7b1c4a887"},"vehicle_type_id":"4","last_reported":1737980253,"current_range_meters":32800,"station_id":"ce4bgt92rcd13ifvqcf0","pricing_plan_id":"cebpf4jnsgd1na2vs0mg"},{"bike_id":"704e3374-eb50-4f7e-9c8c-9e8d112a1057","system_id":"levelo_inurba_marseille","lat":43.29069,"lon":5.37167,"is_reserved":false,"is_disabled":false,"rental_uris":{"android":"levelo://app?vid=704e3374-eb50-4f7e-9c8c-9e8d112a1057","ios":"levelo://app?vid=704e3374-eb50-4f7e-9c8c-9e8d112a1057"},"vehicle_type_id":"4","last_reported":1737980253,"current_range_meters":20000,"station_id":"ce4bh5p2rcd13ifvqe4g","pricing_plan_id":"cebpf4jnsgd1na2vs0mg"},{"bike_id":"beb72df0-6791-4de6-a4b4-c2f6f2d26c0c","system_id":"levelo_inurba_marseille","lat":43.25922,"lon":5.40903,"is_reserved":false,"is_disabled":false,"rental_uris":{"android":"levelo://app?vid=beb72df0-6791-4de6-a4b4-c2f6f2d26c0c","ios":"levelo://app?vid=beb72df0-6791-4de6-a4b4-c2f6f2d26c0c"},"vehicle_type_id":"4","last_reported":1737980253,"current_range_meters":28000,"station_id":"ce4bhm92rcd13ifvqglg","pricing_plan_id":"cebpf4jnsgd1na2vs0mg"},{"bike_id":"6863962d-89f4-4af4-b5a8-719f9996556e","system_id":"levelo_inurba_marseille","lat":43.2917,"lon":5.37173,"is_reserved":false,"is_disabled":false,"rental_uris":{"android":"levelo://app?vid=6863962d-89f4-4af4-b5a8-719f9996556e","ios":"levelo://app?vid=6863962d-89f4-4af4-b5a8-719f9996556e"},"vehicle_type_id":"4","last_reported":1737980253,"current_range_meters":36400,"station_id":"ce4bha92rcd13ifvqeh0","pricing_plan_id":"cebpf4jnsgd1na2vs0mg"},{"bike_id":"d8be2405-320b-4736-a766-1e504a337fd6","system_id":"levelo_inurba_marseille","lat":43.24799,"lon":5.37458,"is_reserved":false,"is_disabled":false,"rental_uris":{"android":"levelo://app?vid=d8be2405-320b-4736-a766-1e504a337fd6","ios":"levelo://app?vid=d8be2405-320b-4736-a766-1e504a337fd6"},"vehicle_type_id":"4","last_reported":1737980253,"current_range_meters":12800,"station_id":"ce4bhgh2rcd13ifvqfb0","pricing_plan_id":"cebpf4jnsgd1na2vs0mg"},{"bike_id":"1d77d048-ce0a-4186-b9ae-e7e345be0222","system_id":"levelo_inurba_marseille","lat":43.30953,"lon":5.39058,"is_reserved":false,"is_disabled":false,"rental_uris":{"android":"levelo://app?vid=1d77d048-ce0a-4186-b9ae-e7e345be0222","ios":"levelo://app?vid=1d77d048-ce0a-4186-b9ae-e7e345be0222"},"vehicle_type_id":"4","last_reported":1737980253,"current_range_meters":39200,"station_id":"ce4bgup2rcd13ifvqco0","pricing_plan_id":"cebpf4jnsgd1na2vs0mg"},{"bike_id":"b2a77bcb-8636-4783-bb85-a20e6eec5fb2","system_id":"levelo_inurba_marseille","lat":43.27641,"lon":5.38964,"is_reserved":false,"is_disabled":false,"rental_uris":{"android":"levelo://app?vid=b2a77bcb-8636-4783-bb85-a20e6eec5fb2","ios":"levelo://app?vid=b2a77bcb-8636-4783-bb85-a20e6eec5fb2"},"vehicle_type_id":"4","last_reported":1737980253,"current_range_meters":30400,"station_id":"ce4bhi12rcd13ifvqfo0","pricing_plan_id":"cebpf4jnsgd1na2vs0mg"},{"bike_id":"8a9b8f11-cde4-4e7e-a178-cf0ae7c31650","system_id":"levelo_inurba_marseille","lat":43.29573,"lon":5.39967,"is_reserved":false,"is_disabled":false,"rental_uris":{"android":"levelo://app?vid=8a9b8f11-cde4-4e7e-a178-cf0ae7c31650","ios":"levelo://app?vid=8a9b8f11-cde4-4e7e-a178-cf0ae7c31650"},"vehicle_type_id":"4","last_reported":1737980253,"current_range_meters":24800,"station_id":"ce4bh312rcd13ifvqdj0","pricing_plan_id":"cebpf4jnsgd1na2vs0mg"},{"bike_id":"1387f3a8-728e-4bdc-977f-c1b044bf7c2a","system_id":"levelo_inurba_marseille","lat":43.30558,"lon":5.36528,"is_reserved":false,"is_disabled":false,"rental_uris":{"android":"levelo://app?vid=1387f3a8-728e-4bdc-977f-c1b044bf7c2a","ios":"levelo://app?vid=1387f3a8-728e-4bdc-977f-c1b044bf7c2a"},"vehicle_type_id":"4","last_reported":1737980253,"current_range_meters":38800,"station_id":"ce4bgs12rcd13ifvqcag","pricing_plan_id":"cebpf4jnsgd1na2vs0mg"},{"bike_id":"df509a87-84a2-4043-ac68-302a62bf353d","system_id":"levelo_inurba_marseille","lat":43.31989,"lon":5.38161,"is_reserved":false,"is_disabled":false,"rental_uris":{"android":"levelo://app?vid=df509a87-84a2-4043-ac68-302a62bf353d","ios":"levelo://app?vid=df509a87-84a2-4043-ac68-302a62bf353d"},"vehicle_type_id":"4","last_reported":1737980253,"current_range_meters":35600,"station_id":"ce4bhr12rcd13ifvqhpg","pricing_plan_id":"cebpf4jnsgd1na2vs0mg"},{"bike_id":"6adc5ca7-0c2c-4563-b34e-99dac6c709d8","system_id":"levelo_inurba_marseille","lat":43.299,"lon":5.37831,"is_reserved":false,"is_disabled":true,"rental_uris":{"android":"levelo://app?vid=6adc5ca7-0c2c-4563-b34e-99dac6c709d8","ios":"levelo://app?vid=6adc5ca7-0c2c-4563-b34e-99dac6c709d8"},"vehicle_type_id":"4","last_reported":1737980253,"current_range_meters":0,"station_id":"","pricing_plan_id":"cebpf4jnsgd1na2vs0mg"},{"bike_id":"3aa3b5f7-c37c-450c-a731-6073944ec3ab","system_id":"levelo_inurba_marseille","lat":43.28465,"lon":5.35897,"is_reserved":false,"is_disabled":false,"rental_uris":{"android":"levelo://app?vid=3aa3b5f7-c37c-450c-a731-6073944ec3ab","ios":"levelo://app?vid=3aa3b5f7-c37c-450c-a731-6073944ec3ab"},"vehicle_type_id":"4","last_reported":1737980253,"current_range_meters":32800,"station_id":"ce4bhah2rcd13ifvqei0","pricing_plan_id":"cebpf4jnsgd1na2vs0mg"},{"bike_id":"54408075-092e-4225-b84c-d955a58d84de","system_id":"levelo_inurba_marseille","lat":43.29276,"lon":5.40138,"is_reserved":false,"is_disabled":false,"rental_uris":{"android":"levelo://app?vid=54408075-092e-4225-b84c-d955a58d84de","ios":"levelo://app?vid=54408075-092e-4225-b84c-d955a58d84de"},"vehicle_type_id":"4","last_reported":1737980253,"current_range_meters":14400,"station_id":"ce4bh312rcd13ifvqdk0","pricing_plan_id":"cebpf4jnsgd1na2vs0mg"},{"bike_id":"6160634f-0378-409c-8e4f-bdc4e23b68ed","system_id":"levelo_inurba_marseille","lat":43.28099,"lon":5.37849,"is_reserved":false,"is_disabled":false,"rental_uris":{"android":"levelo://app?vid=6160634f-0378-409c-8e4f-bdc4e23b68ed","ios":"levelo://app?vid=6160634f-0378-409c-8e4f-bdc4e23b68ed"},"vehicle_type_id":"4","last_reported":1737980253,"current_range_meters":39200,"station_id":"ce4bha12rcd13ifvqee0","pricing_plan_id":"cebpf4jnsgd1na2vs0mg"},{"bike_id":"d1c9e299-976b-4067-95ba-dab8fc38751c","system_id":"levelo_inurba_marseille","lat":43.25719,"lon":5.41114,"is_reserved":false,"is_disabled":false,"rental_uris":{"android":"levelo://app?vid=d1c9e299-976b-4067-95ba-dab8fc38751c","ios":"levelo://app?vid=d1c9e299-976b-4067-95ba-dab8fc38751c"},"vehicle_type_id":"4","last_reported":1737980253,"current_range_meters":38800,"station_id":"ce4bhkp2rcd13ifvqgd0","pricing_plan_id":"cebpf4jnsgd1na2vs0mg"},{"bike_id":"c7830262-ea23-45f4-9a23-990ed17ebf09","system_id":"levelo_inurba_marseille","lat":43.29805,"lon":5.39773,"is_reserved":false,"is_disabled":true,"rental_uris":{"android":"levelo://app?vid=c7830262-ea23-45f4-9a23-990ed17ebf09","ios":"levelo://app?vid=c7830262-ea23-45f4-9a23-990ed17ebf09"},"vehicle_type_id":"4","last_reported":1737980253,"current_range_meters":0,"station_id":"","pricing_plan_id":"cebpf4jnsgd1na2vs0mg"},{"bike_id":"51de9ade-9a9d-45ce-bae8-dc5330cfcf50","system_id":"levelo_inurba_marseille","lat":43.30471,"lon":5.37913,"is_reserved":false,"is_disabled":false,"rental_uris":{"android":"levelo://app?vid=51de9ade-9a9d-45ce-bae8-dc5330cfcf50","ios":"levelo://app?vid=51de9ade-9a9d-45ce-bae8-dc5330cfcf50"},"vehicle_type_id":"4","last_reported":1737980253,"current_range_meters":12800,"station_id":"ce4bgup2rcd13ifvqcn0","pricing_plan_id":"cebpf4jnsgd1na2vs0mg"},{"bike_id":"0deaf558-7773-4664-9884-7a609ae0be49","system_id":"levelo_inurba_marseille","lat":43.27568,"lon":5.38418,"is_reserved":false,"is_disabled":false,"rental_uris":{"android":"levelo://app?vid=0deaf558-7773-4664-9884-7a609ae0be49","ios":"levelo://app?vid=0deaf558-7773-4664-9884-7a609ae0be49"},"vehicle_type_id":"4","last_reported":1737980253,"current_range_meters":37600,"station_id":"ce4bhh92rcd13ifvqfi0","pricing_plan_id":"cebpf4jnsgd1na2vs0mg"},{"bike_id":"91248acd-5261-453c-b5c9-6960b0e9de7b","system_id":"levelo_inurba_marseille","lat":43.292795,"lon":5.374575,"is_reserved":false,"is_disabled":true,"rental_uris":{"android":"levelo://app?vid=91248acd-5261-453c-b5c9-6960b0e9de7b","ios":"levelo://app?vid=91248acd-5261-453c-b5c9-6960b0e9de7b"},"vehicle_type_id":"4","last_reported":1737980253,"current_range_meters":10000,"station_id":"ce4bgi12rcd13ifvqb70","pricing_plan_id":"cebpf4jnsgd1na2vs0mg"},{"bike_id":"8afbfdfa-a371-42f3-a837-4d0db3e3e23e","system_id":"levelo_inurba_marseille","lat":43.30124,"lon":5.39887,"is_reserved":false,"is_disabled":false,"rental_uris":{"android":"levelo://app?vid=8afbfdfa-a371-42f3-a837-4d0db3e3e23e","ios":"levelo://app?vid=8afbfdfa-a371-42f3-a837-4d0db3e3e23e"},"vehicle_type_id":"4","last_reported":1737980253,"current_range_meters":37600,"station_id":"","pricing_plan_id":"cebpf4jnsgd1na2vs0mg"},{"bike_id":"b8e7fbad-0668-4a5a-a339-f627c7f3cdc2","system_id":"levelo_inurba_marseille","lat":43.27075,"lon":5.40282,"is_reserved":false,"is_disabled":false,"rental_uris":{"android":"levelo://app?vid=b8e7fbad-0668-4a5a-a339-f627c7f3cdc2","ios":"levelo://app?vid=b8e7fbad-0668-4a5a-a339-f627c7f3cdc2"},"vehicle_type_id":"4","last_reported":1737980253,"current_range_meters":37600,"station_id":"ce4bhk92rcd13ifvqgc0","pricing_plan_id":"cebpf4jnsgd1na2vs0mg"},{"bike_id":"2bd0fe4b-8303-4360-aeba-302831eebc62","system_id":"levelo_inurba_marseille","lat":43.24028,"lon":5.37794,"is_reserved":false,"is_disabled":false,"rental_uris":{"android":"levelo://app?vid=2bd0fe4b-8303-4360-aeba-302831eebc62","ios":"levelo://app?vid=2bd0fe4b-8303-4360-aeba-302831eebc62"},"vehicle_type_id":"4","last_reported":1737980253,"current_range_meters":18000,"station_id":"","pricing_plan_id":"cebpf4jnsgd1na2vs0mg"},{"bike_id":"83ab2271-68aa-4e51-92e2-d89b2328d98b","system_id":"levelo_inurba_marseille","lat":43.3055,"lon":5.36729,"is_reserved":false,"is_disabled":false,"rental_uris":{"android":"levelo://app?vid=83ab2271-68aa-4e51-92e2-d89b2328d98b","ios":"levelo://app?vid=83ab2271-68aa-4e51-92e2-d89b2328d98b"},"vehicle_type_id":"4","last_reported":1737980253,"current_range_meters":36000,"station_id":"ce4bgrp2rcd13ifvqc9g","pricing_plan_id":"cebpf4jnsgd1na2vs0mg"},{"bike_id":"5a504fe4-0ab6-4eed-b9ef-e27131441d67","system_id":"levelo_inurba_marseille","lat":43.30341,"lon":5.37892,"is_reserved":false,"is_disabled":false,"rental_uris":{"android":"levelo://app?vid=5a504fe4-0ab6-4eed-b9ef-e27131441d67","ios":"levelo://app?vid=5a504fe4-0ab6-4eed-b9ef-e27131441d67"},"vehicle_type_id":"4","last_reported":1737980253,"current_range_meters":25600,"station_id":"","pricing_plan_id":"cebpf4jnsgd1na2vs0mg"},{"bike_id":"11ba3b1e-84b5-4609-901b-fe845e306d2e","system_id":"levelo_inurba_marseille","lat":43.32475,"lon":5.36561,"is_reserved":false,"is_disabled":false,"rental_uris":{"android":"levelo://app?vid=11ba3b1e-84b5-4609-901b-fe845e306d2e","ios":"levelo://app?vid=11ba3b1e-84b5-4609-901b-fe845e306d2e"},"vehicle_type_id":"4","last_reported":1737980253,"current_range_meters":34000,"station_id":"ce4bhs12rcd13ifvqhvg","pricing_plan_id":"cebpf4jnsgd1na2vs0mg"},{"bike_id":"d0be3c72-cd55-4797-8b93-dc5d51fe94d7","system_id":"levelo_inurba_marseille","lat":43.30556,"lon":5.36536,"is_reserved":false,"is_disabled":false,"rental_uris":{"android":"levelo://app?vid=d0be3c72-cd55-4797-8b93-dc5d51fe94d7","ios":"levelo://app?vid=d0be3c72-cd55-4797-8b93-dc5d51fe94d7"},"vehicle_type_id":"4","last_reported":1737980253,"current_range_meters":38800,"station_id":"ce4bgs12rcd13ifvqcag","pricing_plan_id":"cebpf4jnsgd1na2vs0mg"},{"bike_id":"a96a9c3f-8052-41b8-ab4f-9251ab3e7399","system_id":"levelo_inurba_marseille","lat":43.28349,"lon":5.38122,"is_reserved":false,"is_disabled":false,"rental_uris":{"android":"levelo://app?vid=a96a9c3f-8052-41b8-ab4f-9251ab3e7399","ios":"levelo://app?vid=a96a9c3f-8052-41b8-ab4f-9251ab3e7399"},"vehicle_type_id":"4","last_reported":1737980253,"current_range_meters":27600,"station_id":"ce4bh412rcd13ifvqdr0","pricing_plan_id":"cebpf4jnsgd1na2vs0mg"},{"bike_id":"29537b6d-60f6-4053-b601-105bf13a2e3a","system_id":"levelo_inurba_marseille","lat":43.28495,"lon":5.3841,"is_reserved":false,"is_disabled":true,"rental_uris":{"android":"levelo://app?vid=29537b6d-60f6-4053-b601-105bf13a2e3a","ios":"levelo://app?vid=29537b6d-60f6-4053-b601-105bf13a2e3a"},"vehicle_type_id":"4","last_reported":1737980253,"current_range_meters":38800,"station_id":"ce4bh512rcd13ifvqe3g","pricing_plan_id":"cebpf4jnsgd1na2vs0mg"},{"bike_id":"9a152210-3a10-4dcc-8f20-e2f1097a7ae0","system_id":"levelo_inurba_marseille","lat":43.25718,"lon":5.41116,"is_reserved":false,"is_disabled":false,"rental_uris":{"android":"levelo://app?vid=9a152210-3a10-4dcc-8f20-e2f1097a7ae0","ios":"levelo://app?vid=9a152210-3a10-4dcc-8f20-e2f1097a7ae0"},"vehicle_type_id":"4","last_reported":1737980253,"current_range_meters":17600,"station_id":"ce4bhkp2rcd13ifvqgd0","pricing_plan_id":"cebpf4jnsgd1na2vs0mg"},{"bike_id":"5f49eeeb-aca1-492c-8977-6205ce75fb07","system_id":"levelo_inurba_marseille","lat":43.30611,"lon":5.3722,"is_reserved":false,"is_disabled":false,"rental_uris":{"android":"levelo://app?vid=5f49eeeb-aca1-492c-8977-6205ce75fb07","ios":"levelo://app?vid=5f49eeeb-aca1-492c-8977-6205ce75fb07"},"vehicle_type_id":"4","last_reported":1737980253,"current_range_meters":10800,"station_id":"ce4bgqh2rcd13ifvqc4g","pricing_plan_id":"cebpf4jnsgd1na2vs0mg"},{"bike_id":"c9782c3d-3762-45ca-afe5-56710c6ca513","system_id":"levelo_inurba_marseille","lat":43.26484,"lon":5.3955,"is_reserved":false,"is_disabled":true,"rental_uris":{"android":"levelo://app?vid=c9782c3d-3762-45ca-afe5-56710c6ca513","ios":"levelo://app?vid=c9782c3d-3762-45ca-afe5-56710c6ca513"},"vehicle_type_id":"4","last_reported":1737980253,"current_range_meters":28400,"station_id":"ce4bhi12rcd13ifvqfq0","pricing_plan_id":"cebpf4jnsgd1na2vs0mg"},{"bike_id":"799181ae-3e49-46ff-bd04-c009d2ce1fd2","system_id":"levelo_inurba_marseille","lat":43.29593,"lon":5.38106,"is_reserved":false,"is_disabled":false,"rental_uris":{"android":"levelo://app?vid=799181ae-3e49-46ff-bd04-c009d2ce1fd2","ios":"levelo://app?vid=799181ae-3e49-46ff-bd04-c009d2ce1fd2"},"vehicle_type_id":"4","last_reported":1737980253,"current_range_meters":20000,"station_id":"ce4bgl12rcd13ifvqbo0","pricing_plan_id":"cebpf4jnsgd1na2vs0mg"},{"bike_id":"9838cc78-2b53-49d3-ae13-82df62c4fd64","system_id":"levelo_inurba_marseille","lat":43.28431,"lon":5.40907,"is_reserved":false,"is_disabled":true,"rental_uris":{"android":"levelo://app?vid=9838cc78-2b53-49d3-ae13-82df62c4fd64","ios":"levelo://app?vid=9838cc78-2b53-49d3-ae13-82df62c4fd64"},"vehicle_type_id":"4","last_reported":1737980253,"current_range_meters":0,"station_id":"","pricing_plan_id":"cebpf4jnsgd1na2vs0mg"},{"bike_id":"1a12ccc4-119d-4583-9cd0-f3b08fa41a49","system_id":"levelo_inurba_marseille","lat":43.24031,"lon":5.37786,"is_reserved":false,"is_disabled":false,"rental_uris":{"android":"levelo://app?vid=1a12ccc4-119d-4583-9cd0-f3b08fa41a49","ios":"levelo://app?vid=1a12ccc4-119d-4583-9cd0-f3b08fa41a49"},"vehicle_type_id":"4","last_reported":1737980253,"current_range_meters":36000,"station_id":"ce4bhnp2rcd13ifvqgvg","pricing_plan_id":"cebpf4jnsgd1na2vs0mg"},{"bike_id":"47b53f95-7148-4bf9-b03d-3086c46d52e2","system_id":"levelo_inurba_marseille","lat":43.3236,"lon":5.40646,"is_reserved":false,"is_disabled":false,"rental_uris":{"android":"levelo://app?vid=47b53f95-7148-4bf9-b03d-3086c46d52e2","ios":"levelo://app?vid=47b53f95-7148-4bf9-b03d-3086c46d52e2"},"vehicle_type_id":"4","last_reported":1737980253,"current_range_meters":32400,"station_id":"ce4bhq92rcd13ifvqhjg","pricing_plan_id":"cebpf4jnsgd1na2vs0mg"},{"bike_id":"a0ef96ba-f2ef-4284-81ef-433bcc02ec7c","system_id":"levelo_inurba_marseille","lat":43.24649,"lon":5.38892,"is_reserved":false,"is_disabled":false,"rental_uris":{"android":"levelo://app?vid=a0ef96ba-f2ef-4284-81ef-433bcc02ec7c","ios":"levelo://app?vid=a0ef96ba-f2ef-4284-81ef-433bcc02ec7c"},"vehicle_type_id":"4","last_reported":1737980253,"current_range_meters":32400,"station_id":"ce4bhg12rcd13ifvqf60","pricing_plan_id":"cebpf4jnsgd1na2vs0mg"},{"bike_id":"df05eb4a-164c-45fe-8261-1308961a41f3","system_id":"levelo_inurba_marseille","lat":43.28103,"lon":5.37849,"is_reserved":false,"is_disabled":false,"rental_uris":{"android":"levelo://app?vid=df05eb4a-164c-45fe-8261-1308961a41f3","ios":"levelo://app?vid=df05eb4a-164c-45fe-8261-1308961a41f3"},"vehicle_type_id":"4","last_reported":1737980253,"current_range_meters":35600,"station_id":"ce4bha12rcd13ifvqee0","pricing_plan_id":"cebpf4jnsgd1na2vs0mg"},{"bike_id":"23d18d5a-dc76-4f7f-8cb7-0758c0d956a8","system_id":"levelo_inurba_marseille","lat":43.2953,"lon":5.38539,"is_reserved":false,"is_disabled":false,"rental_uris":{"android":"levelo://app?vid=23d18d5a-dc76-4f7f-8cb7-0758c0d956a8","ios":"levelo://app?vid=23d18d5a-dc76-4f7f-8cb7-0758c0d956a8"},"vehicle_type_id":"4","last_reported":1737980253,"current_range_meters":28000,"station_id":"ce4bgih2rcd13ifvqba0","pricing_plan_id":"cebpf4jnsgd1na2vs0mg"},{"bike_id":"eb8e2715-50e8-4f9c-aaa7-763acdecaa89","system_id":"levelo_inurba_marseille","lat":43.297424,"lon":5.368892,"is_reserved":false,"is_disabled":true,"rental_uris":{"android":"levelo://app?vid=eb8e2715-50e8-4f9c-aaa7-763acdecaa89","ios":"levelo://app?vid=eb8e2715-50e8-4f9c-aaa7-763acdecaa89"},"vehicle_type_id":"4","last_reported":1737980253,"current_range_meters":800,"station_id":"","pricing_plan_id":"cebpf4jnsgd1na2vs0mg"},{"bike_id":"0110634a-9b2d-4e77-94a1-00b9a245c604","system_id":"levelo_inurba_marseille","lat":43.28695,"lon":5.39983,"is_reserved":false,"is_disabled":false,"rental_uris":{"android":"levelo://app?vid=0110634a-9b2d-4e77-94a1-00b9a245c604","ios":"levelo://app?vid=0110634a-9b2d-4e77-94a1-00b9a245c604"},"vehicle_type_id":"4","last_reported":1737980253,"current_range_meters":16400,"station_id":"ce4bho92rcd13ifvqh3g","pricing_plan_id":"cebpf4jnsgd1na2vs0mg"},{"bike_id":"2e0a8b86-b457-48a0-8577-213b01080398","system_id":"levelo_inurba_marseille","lat":43.23198,"lon":5.35555,"is_reserved":false,"is_disabled":false,"rental_uris":{"android":"levelo://app?vid=2e0a8b86-b457-48a0-8577-213b01080398","ios":"levelo://app?vid=2e0a8b86-b457-48a0-8577-213b01080398"},"vehicle_type_id":"4","last_reported":1737980253,"current_range_meters":39200,"station_id":"ce4bhu92rcd13ifvqi70","pricing_plan_id":"cebpf4jnsgd1na2vs0mg"},{"bike_id":"d2e14334-91cf-4683-8086-fad56bb3beac","system_id":"levelo_inurba_marseille","lat":43.30562,"lon":5.36593,"is_reserved":false,"is_disabled":false,"rental_uris":{"android":"levelo://app?vid=d2e14334-91cf-4683-8086-fad56bb3beac","ios":"levelo://app?vid=d2e14334-91cf-4683-8086-fad56bb3beac"},"vehicle_type_id":"4","last_reported":1737980253,"current_range_meters":25200,"station_id":"ce4bgs12rcd13ifvqcag","pricing_plan_id":"cebpf4jnsgd1na2vs0mg"},{"bike_id":"2eb0b020-44a0-45da-b4c5-0f529cc403b0","system_id":"levelo_inurba_marseille","lat":43.30133,"lon":5.38791,"is_reserved":false,"is_disabled":false,"rental_uris":{"android":"levelo://app?vid=2eb0b020-44a0-45da-b4c5-0f529cc403b0","ios":"levelo://app?vid=2eb0b020-44a0-45da-b4c5-0f529cc403b0"},"vehicle_type_id":"4","last_reported":1737980253,"current_range_meters":18000,"station_id":"ce4bhoh2rcd13ifvqh6g","pricing_plan_id":"cebpf4jnsgd1na2vs0mg"},{"bike_id":"d979d8d2-ec65-47af-9229-e4270aab279a","system_id":"levelo_inurba_marseille","lat":43.23066,"lon":5.35495,"is_reserved":false,"is_disabled":false,"rental_uris":{"android":"levelo://app?vid=d979d8d2-ec65-47af-9229-e4270aab279a","ios":"levelo://app?vid=d979d8d2-ec65-47af-9229-e4270aab279a"},"vehicle_type_id":"4","last_reported":1737980253,"current_range_meters":28000,"station_id":"cpo3342slgdg3j2ifvpg","pricing_plan_id":"cebpf4jnsgd1na2vs0mg"},{"bike_id":"689861d0-6f71-4ea0-a024-f23cf4b0663e","system_id":"levelo_inurba_marseille","lat":43.3054,"lon":5.36523,"is_reserved":false,"is_disabled":false,"rental_uris":{"android":"levelo://app?vid=689861d0-6f71-4ea0-a024-f23cf4b0663e","ios":"levelo://app?vid=689861d0-6f71-4ea0-a024-f23cf4b0663e"},"vehicle_type_id":"4","last_reported":1737980253,"current_range_meters":30000,"station_id":"ce4bgs12rcd13ifvqcag","pricing_plan_id":"cebpf4jnsgd1na2vs0mg"},{"bike_id":"f03b9237-99e9-4557-b8f3-ce2573a0b301","system_id":"levelo_inurba_marseille","lat":43.30417,"lon":5.39754,"is_reserved":false,"is_disabled":false,"rental_uris":{"android":"levelo://app?vid=f03b9237-99e9-4557-b8f3-ce2573a0b301","ios":"levelo://app?vid=f03b9237-99e9-4557-b8f3-ce2573a0b301"},"vehicle_type_id":"4","last_reported":1737980253,"current_range_meters":29600,"station_id":"ce4bh092rcd13ifvqd20","pricing_plan_id":"cebpf4jnsgd1na2vs0mg"},{"bike_id":"208b9aff-e4aa-4202-9cfa-c801b23f279c","system_id":"levelo_inurba_marseille","lat":43.28362,"lon":5.38119,"is_reserved":false,"is_disabled":false,"rental_uris":{"android":"levelo://app?vid=208b9aff-e4aa-4202-9cfa-c801b23f279c","ios":"levelo://app?vid=208b9aff-e4aa-4202-9cfa-c801b23f279c"},"vehicle_type_id":"4","last_reported":1737980253,"current_range_meters":4000,"station_id":"ce4bh412rcd13ifvqdr0","pricing_plan_id":"cebpf4jnsgd1na2vs0mg"},{"bike_id":"9b0d2b30-0a43-41f8-8ef2-36ea834bba86","system_id":"levelo_inurba_marseille","lat":43.28935,"lon":5.36638,"is_reserved":false,"is_disabled":false,"rental_uris":{"android":"levelo://app?vid=9b0d2b30-0a43-41f8-8ef2-36ea834bba86","ios":"levelo://app?vid=9b0d2b30-0a43-41f8-8ef2-36ea834bba86"},"vehicle_type_id":"4","last_reported":1737980253,"current_range_meters":35200,"station_id":"ce4bhap2rcd13ifvqek0","pricing_plan_id":"cebpf4jnsgd1na2vs0mg"},{"bike_id":"c5254fb6-9b93-4e97-a03d-33a57c6f369e","system_id":"levelo_inurba_marseille","lat":43.33017,"lon":5.39044,"is_reserved":false,"is_disabled":false,"rental_uris":{"android":"levelo://app?vid=c5254fb6-9b93-4e97-a03d-33a57c6f369e","ios":"levelo://app?vid=c5254fb6-9b93-4e97-a03d-33a57c6f369e"},"vehicle_type_id":"4","last_reported":1737980253,"current_range_meters":22400,"station_id":"ce4bhr92rcd13ifvqhrg","pricing_plan_id":"cebpf4jnsgd1na2vs0mg"},{"bike_id":"3fd7f5f7-a6af-4004-b9b2-3cac0c159607","system_id":"levelo_inurba_marseille","lat":43.29878,"lon":5.39756,"is_reserved":false,"is_disabled":false,"rental_uris":{"android":"levelo://app?vid=3fd7f5f7-a6af-4004-b9b2-3cac0c159607","ios":"levelo://app?vid=3fd7f5f7-a6af-4004-b9b2-3cac0c159607"},"vehicle_type_id":"4","last_reported":1737980253,"current_range_meters":17200,"station_id":"ce4bh0h2rcd13ifvqd50","pricing_plan_id":"cebpf4jnsgd1na2vs0mg"},{"bike_id":"a556cd62-14af-4b5a-9e23-d453a1b3355f","system_id":"levelo_inurba_marseille","lat":43.30547,"lon":5.36504,"is_reserved":false,"is_disabled":false,"rental_uris":{"android":"levelo://app?vid=a556cd62-14af-4b5a-9e23-d453a1b3355f","ios":"levelo://app?vid=a556cd62-14af-4b5a-9e23-d453a1b3355f"},"vehicle_type_id":"4","last_reported":1737980253,"current_range_meters":20800,"station_id":"ce4bgs12rcd13ifvqcag","pricing_plan_id":"cebpf4jnsgd1na2vs0mg"},{"bike_id":"30bbb00e-1612-4a25-b2e9-c8ad656fb58a","system_id":"levelo_inurba_marseille","lat":43.33713,"lon":5.39188,"is_reserved":false,"is_disabled":false,"rental_uris":{"android":"levelo://app?vid=30bbb00e-1612-4a25-b2e9-c8ad656fb58a","ios":"levelo://app?vid=30bbb00e-1612-4a25-b2e9-c8ad656fb58a"},"vehicle_type_id":"4","last_reported":1737980253,"current_range_meters":38800,"station_id":"ce4bhr92rcd13ifvqhsg","pricing_plan_id":"cebpf4jnsgd1na2vs0mg"},{"bike_id":"005330c6-9ea4-44b1-af35-6b68ca394cb6","system_id":"levelo_inurba_marseille","lat":43.30955,"lon":5.3905,"is_reserved":false,"is_disabled":false,"rental_uris":{"android":"levelo://app?vid=005330c6-9ea4-44b1-af35-6b68ca394cb6","ios":"levelo://app?vid=005330c6-9ea4-44b1-af35-6b68ca394cb6"},"vehicle_type_id":"4","last_reported":1737980253,"current_range_meters":38800,"station_id":"ce4bgup2rcd13ifvqco0","pricing_plan_id":"cebpf4jnsgd1na2vs0mg"},{"bike_id":"887816bd-51b2-4867-b788-cf8bf7d80444","system_id":"levelo_inurba_marseille","lat":43.33725,"lon":5.39187,"is_reserved":false,"is_disabled":false,"rental_uris":{"android":"levelo://app?vid=887816bd-51b2-4867-b788-cf8bf7d80444","ios":"levelo://app?vid=887816bd-51b2-4867-b788-cf8bf7d80444"},"vehicle_type_id":"4","last_reported":1737980253,"current_range_meters":30000,"station_id":"ce4bhr92rcd13ifvqhsg","pricing_plan_id":"cebpf4jnsgd1na2vs0mg"},{"bike_id":"4cb596df-44fd-4741-9495-cfdb53019931","system_id":"levelo_inurba_marseille","lat":43.23141,"lon":5.43729,"is_reserved":false,"is_disabled":false,"rental_uris":{"android":"levelo://app?vid=4cb596df-44fd-4741-9495-cfdb53019931","ios":"levelo://app?vid=4cb596df-44fd-4741-9495-cfdb53019931"},"vehicle_type_id":"4","last_reported":1737980253,"current_range_meters":26800,"station_id":"ce4bhmp2rcd13ifvqgog","pricing_plan_id":"cebpf4jnsgd1na2vs0mg"},{"bike_id":"bcc149d8-6418-4b80-b7f4-9e41a4dc2c09","system_id":"levelo_inurba_marseille","lat":43.30568,"lon":5.36553,"is_reserved":false,"is_disabled":false,"rental_uris":{"android":"levelo://app?vid=bcc149d8-6418-4b80-b7f4-9e41a4dc2c09","ios":"levelo://app?vid=bcc149d8-6418-4b80-b7f4-9e41a4dc2c09"},"vehicle_type_id":"4","last_reported":1737980253,"current_range_meters":35600,"station_id":"ce4bgs12rcd13ifvqcag","pricing_plan_id":"cebpf4jnsgd1na2vs0mg"},{"bike_id":"acf4cec9-04b2-432c-83ba-19cc7ebac443","system_id":"levelo_inurba_marseille","lat":43.29004,"lon":5.38157,"is_reserved":false,"is_disabled":true,"rental_uris":{"android":"levelo://app?vid=acf4cec9-04b2-432c-83ba-19cc7ebac443","ios":"levelo://app?vid=acf4cec9-04b2-432c-83ba-19cc7ebac443"},"vehicle_type_id":"4","last_reported":1737980253,"current_range_meters":24000,"station_id":"ce4bh4p2rcd13ifvqe1g","pricing_plan_id":"cebpf4jnsgd1na2vs0mg"},{"bike_id":"3c9c9088-9c27-4609-bc62-8218c0dc2be8","system_id":"levelo_inurba_marseille","lat":43.23197,"lon":5.35563,"is_reserved":false,"is_disabled":false,"rental_uris":{"android":"levelo://app?vid=3c9c9088-9c27-4609-bc62-8218c0dc2be8","ios":"levelo://app?vid=3c9c9088-9c27-4609-bc62-8218c0dc2be8"},"vehicle_type_id":"4","last_reported":1737980253,"current_range_meters":37600,"station_id":"ce4bhu92rcd13ifvqi70","pricing_plan_id":"cebpf4jnsgd1na2vs0mg"},{"bike_id":"8a4fd9c1-126f-44bd-8919-7cf37f162b5e","system_id":"levelo_inurba_marseille","lat":43.281638,"lon":5.426361,"is_reserved":false,"is_disabled":false,"rental_uris":{"android":"levelo://app?vid=8a4fd9c1-126f-44bd-8919-7cf37f162b5e","ios":"levelo://app?vid=8a4fd9c1-126f-44bd-8919-7cf37f162b5e"},"vehicle_type_id":"4","last_reported":1737980253,"current_range_meters":31200,"station_id":"ce4bhnh2rcd13ifvqgug","pricing_plan_id":"cebpf4jnsgd1na2vs0mg"},{"bike_id":"908611cd-358e-457c-a364-8caf0fc92ab1","system_id":"levelo_inurba_marseille","lat":43.33593,"lon":5.41027,"is_reserved":false,"is_disabled":false,"rental_uris":{"android":"levelo://app?vid=908611cd-358e-457c-a364-8caf0fc92ab1","ios":"levelo://app?vid=908611cd-358e-457c-a364-8caf0fc92ab1"},"vehicle_type_id":"4","last_reported":1737980253,"current_range_meters":36800,"station_id":"ce4bhqh2rcd13ifvqhmg","pricing_plan_id":"cebpf4jnsgd1na2vs0mg"},{"bike_id":"02a65308-936d-4187-b4db-c0afc2d3e10c","system_id":"levelo_inurba_marseille","lat":43.25921,"lon":5.40917,"is_reserved":false,"is_disabled":false,"rental_uris":{"android":"levelo://app?vid=02a65308-936d-4187-b4db-c0afc2d3e10c","ios":"levelo://app?vid=02a65308-936d-4187-b4db-c0afc2d3e10c"},"vehicle_type_id":"4","last_reported":1737980253,"current_range_meters":38000,"station_id":"ce4bhm92rcd13ifvqglg","pricing_plan_id":"cebpf4jnsgd1na2vs0mg"},{"bike_id":"5ef42bac-1a09-4f8c-9fe8-ab058034fe56","system_id":"levelo_inurba_marseille","lat":43.29902,"lon":5.43673,"is_reserved":false,"is_disabled":false,"rental_uris":{"android":"levelo://app?vid=5ef42bac-1a09-4f8c-9fe8-ab058034fe56","ios":"levelo://app?vid=5ef42bac-1a09-4f8c-9fe8-ab058034fe56"},"vehicle_type_id":"4","last_reported":1737980253,"current_range_meters":16400,"station_id":"ce4bhpp2rcd13ifvqhfg","pricing_plan_id":"cebpf4jnsgd1na2vs0mg"},{"bike_id":"750f98fe-e074-49fa-bea8-9f83500cd0fe","system_id":"levelo_inurba_marseille","lat":43.29034,"lon":5.37564,"is_reserved":false,"is_disabled":false,"rental_uris":{"android":"levelo://app?vid=750f98fe-e074-49fa-bea8-9f83500cd0fe","ios":"levelo://app?vid=750f98fe-e074-49fa-bea8-9f83500cd0fe"},"vehicle_type_id":"4","last_reported":1737980253,"current_range_meters":30000,"station_id":"ce4bh692rcd13ifvqe90","pricing_plan_id":"cebpf4jnsgd1na2vs0mg"},{"bike_id":"84c145c3-c63a-4d22-b8d5-94f667a178c4","system_id":"levelo_inurba_marseille","lat":43.28093,"lon":5.37848,"is_reserved":false,"is_disabled":false,"rental_uris":{"android":"levelo://app?vid=84c145c3-c63a-4d22-b8d5-94f667a178c4","ios":"levelo://app?vid=84c145c3-c63a-4d22-b8d5-94f667a178c4"},"vehicle_type_id":"4","last_reported":1737980253,"current_range_meters":11200,"station_id":"ce4bha12rcd13ifvqee0","pricing_plan_id":"cebpf4jnsgd1na2vs0mg"},{"bike_id":"0e15d77d-1543-419f-bfee-5bc37433fa77","system_id":"levelo_inurba_marseille","lat":43.30277,"lon":5.3771,"is_reserved":false,"is_disabled":false,"rental_uris":{"android":"levelo://app?vid=0e15d77d-1543-419f-bfee-5bc37433fa77","ios":"levelo://app?vid=0e15d77d-1543-419f-bfee-5bc37433fa77"},"vehicle_type_id":"4","last_reported":1737980253,"current_range_meters":37600,"station_id":"ce4bguh2rcd13ifvqcj0","pricing_plan_id":"cebpf4jnsgd1na2vs0mg"},{"bike_id":"d870619d-63cb-4195-8200-1310ecf09280","system_id":"levelo_inurba_marseille","lat":43.26933,"lon":5.38921,"is_reserved":false,"is_disabled":false,"rental_uris":{"android":"levelo://app?vid=d870619d-63cb-4195-8200-1310ecf09280","ios":"levelo://app?vid=d870619d-63cb-4195-8200-1310ecf09280"},"vehicle_type_id":"4","last_reported":1737980253,"current_range_meters":28000,"station_id":"ce4bhhh2rcd13ifvqfl0","pricing_plan_id":"cebpf4jnsgd1na2vs0mg"},{"bike_id":"6e1c3305-b8f3-4afe-9140-dba154ba208f","system_id":"levelo_inurba_marseille","lat":43.3047,"lon":5.37916,"is_reserved":false,"is_disabled":false,"rental_uris":{"android":"levelo://app?vid=6e1c3305-b8f3-4afe-9140-dba154ba208f","ios":"levelo://app?vid=6e1c3305-b8f3-4afe-9140-dba154ba208f"},"vehicle_type_id":"4","last_reported":1737980253,"current_range_meters":33200,"station_id":"ce4bgup2rcd13ifvqcn0","pricing_plan_id":"cebpf4jnsgd1na2vs0mg"},{"bike_id":"8707dca8-5fb6-4e35-a1ec-1f30a01fea05","system_id":"levelo_inurba_marseille","lat":43.295383,"lon":5.422743,"is_reserved":false,"is_disabled":false,"rental_uris":{"android":"levelo://app?vid=8707dca8-5fb6-4e35-a1ec-1f30a01fea05","ios":"levelo://app?vid=8707dca8-5fb6-4e35-a1ec-1f30a01fea05"},"vehicle_type_id":"4","last_reported":1737980253,"current_range_meters":9200,"station_id":"ce4bhph2rcd13ifvqhdg","pricing_plan_id":"cebpf4jnsgd1na2vs0mg"},{"bike_id":"b5f9da4a-0440-436b-86f5-ecc367051a64","system_id":"levelo_inurba_marseille","lat":43.29878,"lon":5.36296,"is_reserved":false,"is_disabled":false,"rental_uris":{"android":"levelo://app?vid=b5f9da4a-0440-436b-86f5-ecc367051a64","ios":"levelo://app?vid=b5f9da4a-0440-436b-86f5-ecc367051a64"},"vehicle_type_id":"4","last_reported":1737980253,"current_range_meters":31200,"station_id":"ce4bgpp2rcd13ifvqc3g","pricing_plan_id":"cebpf4jnsgd1na2vs0mg"},{"bike_id":"cfe30e5c-6dea-45ac-aa58-5edc09ab208d","system_id":"levelo_inurba_marseille","lat":43.25117,"lon":5.4032,"is_reserved":false,"is_disabled":false,"rental_uris":{"android":"levelo://app?vid=cfe30e5c-6dea-45ac-aa58-5edc09ab208d","ios":"levelo://app?vid=cfe30e5c-6dea-45ac-aa58-5edc09ab208d"},"vehicle_type_id":"4","last_reported":1737980253,"current_range_meters":32000,"station_id":"ce4bhlh2rcd13ifvqgig","pricing_plan_id":"cebpf4jnsgd1na2vs0mg"},{"bike_id":"091ec011-b792-4fc7-8fe9-55cd6cf698d6","system_id":"levelo_inurba_marseille","lat":43.2857,"lon":5.39531,"is_reserved":false,"is_disabled":false,"rental_uris":{"android":"levelo://app?vid=091ec011-b792-4fc7-8fe9-55cd6cf698d6","ios":"levelo://app?vid=091ec011-b792-4fc7-8fe9-55cd6cf698d6"},"vehicle_type_id":"4","last_reported":1737980253,"current_range_meters":38400,"station_id":"ce4bh292rcd13ifvqdg0","pricing_plan_id":"cebpf4jnsgd1na2vs0mg"},{"bike_id":"20c4372f-e54d-4eb2-ad80-4fa4e84bea80","system_id":"levelo_inurba_marseille","lat":43.29877,"lon":5.39729,"is_reserved":false,"is_disabled":false,"rental_uris":{"android":"levelo://app?vid=20c4372f-e54d-4eb2-ad80-4fa4e84bea80","ios":"levelo://app?vid=20c4372f-e54d-4eb2-ad80-4fa4e84bea80"},"vehicle_type_id":"4","last_reported":1737980253,"current_range_meters":18800,"station_id":"ce4bh0h2rcd13ifvqd50","pricing_plan_id":"cebpf4jnsgd1na2vs0mg"},{"bike_id":"3cd8d72b-f1ac-49cc-ba3b-d9273a75292c","system_id":"levelo_inurba_marseille","lat":43.24152,"lon":5.36412,"is_reserved":false,"is_disabled":false,"rental_uris":{"android":"levelo://app?vid=3cd8d72b-f1ac-49cc-ba3b-d9273a75292c","ios":"levelo://app?vid=3cd8d72b-f1ac-49cc-ba3b-d9273a75292c"},"vehicle_type_id":"4","last_reported":1737980253,"current_range_meters":32800,"station_id":"cpo36qri1sfpv3e86is0","pricing_plan_id":"cebpf4jnsgd1na2vs0mg"},{"bike_id":"9d01ac1d-f000-4abb-9a72-7b68ff9d60b7","system_id":"levelo_inurba_marseille","lat":43.30953,"lon":5.39031,"is_reserved":false,"is_disabled":false,"rental_uris":{"android":"levelo://app?vid=9d01ac1d-f000-4abb-9a72-7b68ff9d60b7","ios":"levelo://app?vid=9d01ac1d-f000-4abb-9a72-7b68ff9d60b7"},"vehicle_type_id":"4","last_reported":1737980253,"current_range_meters":38800,"station_id":"ce4bgup2rcd13ifvqco0","pricing_plan_id":"cebpf4jnsgd1na2vs0mg"},{"bike_id":"e2a8d0be-1945-4d70-8515-7cde3a6cda5c","system_id":"levelo_inurba_marseille","lat":43.28482,"lon":5.38551,"is_reserved":false,"is_disabled":false,"rental_uris":{"android":"levelo://app?vid=e2a8d0be-1945-4d70-8515-7cde3a6cda5c","ios":"levelo://app?vid=e2a8d0be-1945-4d70-8515-7cde3a6cda5c"},"vehicle_type_id":"4","last_reported":1737980253,"current_range_meters":38800,"station_id":"ce4bh8p2rcd13ifvqeb0","pricing_plan_id":"cebpf4jnsgd1na2vs0mg"},{"bike_id":"b32b4546-2a7d-49df-b9e5-6aaf622b2aef","system_id":"levelo_inurba_marseille","lat":43.30632,"lon":5.40052,"is_reserved":false,"is_disabled":false,"rental_uris":{"android":"levelo://app?vid=b32b4546-2a7d-49df-b9e5-6aaf622b2aef","ios":"levelo://app?vid=b32b4546-2a7d-49df-b9e5-6aaf622b2aef"},"vehicle_type_id":"4","last_reported":1737980253,"current_range_meters":28800,"station_id":"ce4bh112rcd13ifvqda0","pricing_plan_id":"cebpf4jnsgd1na2vs0mg"},{"bike_id":"f3517fa1-709e-4952-b6fa-124b29197995","system_id":"levelo_inurba_marseille","lat":43.33605,"lon":5.41037,"is_reserved":false,"is_disabled":false,"rental_uris":{"android":"levelo://app?vid=f3517fa1-709e-4952-b6fa-124b29197995","ios":"levelo://app?vid=f3517fa1-709e-4952-b6fa-124b29197995"},"vehicle_type_id":"4","last_reported":1737980253,"current_range_meters":28000,"station_id":"ce4bhqh2rcd13ifvqhmg","pricing_plan_id":"cebpf4jnsgd1na2vs0mg"},{"bike_id":"0399208a-0ae4-4114-a545-81dadc8a561b","system_id":"levelo_inurba_marseille","lat":43.28729,"lon":5.36089,"is_reserved":false,"is_disabled":false,"rental_uris":{"android":"levelo://app?vid=0399208a-0ae4-4114-a545-81dadc8a561b","ios":"levelo://app?vid=0399208a-0ae4-4114-a545-81dadc8a561b"},"vehicle_type_id":"4","last_reported":1737980253,"current_range_meters":34000,"station_id":"cki0cbj6b192h4jlfktg","pricing_plan_id":"cebpf4jnsgd1na2vs0mg"},{"bike_id":"1c10e06c-5656-40fb-b44d-69bd09fef240","system_id":"levelo_inurba_marseille","lat":43.25001,"lon":5.38927,"is_reserved":false,"is_disabled":false,"rental_uris":{"android":"levelo://app?vid=1c10e06c-5656-40fb-b44d-69bd09fef240","ios":"levelo://app?vid=1c10e06c-5656-40fb-b44d-69bd09fef240"},"vehicle_type_id":"4","last_reported":1737980253,"current_range_meters":20800,"station_id":"ce4bhgp2rcd13ifvqfd0","pricing_plan_id":"cebpf4jnsgd1na2vs0mg"},{"bike_id":"1c35c755-8b1c-439e-8798-f1a001a3969d","system_id":"levelo_inurba_marseille","lat":43.28101,"lon":5.37849,"is_reserved":false,"is_disabled":false,"rental_uris":{"android":"levelo://app?vid=1c35c755-8b1c-439e-8798-f1a001a3969d","ios":"levelo://app?vid=1c35c755-8b1c-439e-8798-f1a001a3969d"},"vehicle_type_id":"4","last_reported":1737980253,"current_range_meters":38800,"station_id":"ce4bha12rcd13ifvqee0","pricing_plan_id":"cebpf4jnsgd1na2vs0mg"},{"bike_id":"c3477ab6-7290-4e8e-a128-b4a945135df2","system_id":"levelo_inurba_marseille","lat":43.30093,"lon":5.39636,"is_reserved":false,"is_disabled":false,"rental_uris":{"android":"levelo://app?vid=c3477ab6-7290-4e8e-a128-b4a945135df2","ios":"levelo://app?vid=c3477ab6-7290-4e8e-a128-b4a945135df2"},"vehicle_type_id":"4","last_reported":1737980253,"current_range_meters":21600,"station_id":"ce4bh0h2rcd13ifvqd50","pricing_plan_id":"cebpf4jnsgd1na2vs0mg"},{"bike_id":"5cc646ee-b5ea-467b-83d9-a65e94ecfe8a","system_id":"levelo_inurba_marseille","lat":43.26957,"lon":5.38635,"is_reserved":false,"is_disabled":false,"rental_uris":{"android":"levelo://app?vid=5cc646ee-b5ea-467b-83d9-a65e94ecfe8a","ios":"levelo://app?vid=5cc646ee-b5ea-467b-83d9-a65e94ecfe8a"},"vehicle_type_id":"4","last_reported":1737980253,"current_range_meters":30800,"station_id":"ce4bhh92rcd13ifvqfh0","pricing_plan_id":"cebpf4jnsgd1na2vs0mg"},{"bike_id":"4df2a845-0c01-44df-9066-683f72b76f35","system_id":"levelo_inurba_marseille","lat":43.30955,"lon":5.39071,"is_reserved":false,"is_disabled":false,"rental_uris":{"android":"levelo://app?vid=4df2a845-0c01-44df-9066-683f72b76f35","ios":"levelo://app?vid=4df2a845-0c01-44df-9066-683f72b76f35"},"vehicle_type_id":"4","last_reported":1737980253,"current_range_meters":39200,"station_id":"ce4bgup2rcd13ifvqco0","pricing_plan_id":"cebpf4jnsgd1na2vs0mg"},{"bike_id":"b96c22ba-a4c6-4ca8-b881-a2a2972e9bc2","system_id":"levelo_inurba_marseille","lat":43.26029,"lon":5.37547,"is_reserved":false,"is_disabled":false,"rental_uris":{"android":"levelo://app?vid=b96c22ba-a4c6-4ca8-b881-a2a2972e9bc2","ios":"levelo://app?vid=b96c22ba-a4c6-4ca8-b881-a2a2972e9bc2"},"vehicle_type_id":"4","last_reported":1737980253,"current_range_meters":38800,"station_id":"ce4bhgh2rcd13ifvqfa0","pricing_plan_id":"cebpf4jnsgd1na2vs0mg"},{"bike_id":"dcb50635-0e5e-4da9-b4df-329e73a63f8f","system_id":"levelo_inurba_marseille","lat":43.2416,"lon":5.39742,"is_reserved":false,"is_disabled":false,"rental_uris":{"android":"levelo://app?vid=dcb50635-0e5e-4da9-b4df-329e73a63f8f","ios":"levelo://app?vid=dcb50635-0e5e-4da9-b4df-329e73a63f8f"},"vehicle_type_id":"4","last_reported":1737980253,"current_range_meters":24000,"station_id":"ce4bhn12rcd13ifvqgpg","pricing_plan_id":"cebpf4jnsgd1na2vs0mg"},{"bike_id":"1346ff93-9ddb-4093-aa5d-b6cb09dfef3c","system_id":"levelo_inurba_marseille","lat":43.28606,"lon":5.35107,"is_reserved":false,"is_disabled":false,"rental_uris":{"android":"levelo://app?vid=1346ff93-9ddb-4093-aa5d-b6cb09dfef3c","ios":"levelo://app?vid=1346ff93-9ddb-4093-aa5d-b6cb09dfef3c"},"vehicle_type_id":"4","last_reported":1737980253,"current_range_meters":38000,"station_id":"ce4bhch2rcd13ifvqeug","pricing_plan_id":"cebpf4jnsgd1na2vs0mg"},{"bike_id":"c78051e4-f108-4892-915f-d328c363bcb9","system_id":"levelo_inurba_marseille","lat":43.33614,"lon":5.41038,"is_reserved":false,"is_disabled":false,"rental_uris":{"android":"levelo://app?vid=c78051e4-f108-4892-915f-d328c363bcb9","ios":"levelo://app?vid=c78051e4-f108-4892-915f-d328c363bcb9"},"vehicle_type_id":"4","last_reported":1737980253,"current_range_meters":39200,"station_id":"ce4bhqh2rcd13ifvqhmg","pricing_plan_id":"cebpf4jnsgd1na2vs0mg"},{"bike_id":"1d29e75c-7e1e-408c-8ece-b7be92eb3fbf","system_id":"levelo_inurba_marseille","lat":43.32542,"lon":5.41451,"is_reserved":false,"is_disabled":false,"rental_uris":{"android":"levelo://app?vid=1d29e75c-7e1e-408c-8ece-b7be92eb3fbf","ios":"levelo://app?vid=1d29e75c-7e1e-408c-8ece-b7be92eb3fbf"},"vehicle_type_id":"4","last_reported":1737980253,"current_range_meters":34800,"station_id":"ce4bhq12rcd13ifvqhhg","pricing_plan_id":"cebpf4jnsgd1na2vs0mg"},{"bike_id":"ea1f68ee-da18-4a2f-ab14-4625e31f36b5","system_id":"levelo_inurba_marseille","lat":43.29706,"lon":5.37693,"is_reserved":false,"is_disabled":false,"rental_uris":{"android":"levelo://app?vid=ea1f68ee-da18-4a2f-ab14-4625e31f36b5","ios":"levelo://app?vid=ea1f68ee-da18-4a2f-ab14-4625e31f36b5"},"vehicle_type_id":"4","last_reported":1737980253,"current_range_meters":25200,"station_id":"ce4bgkh2rcd13ifvqbl0","pricing_plan_id":"cebpf4jnsgd1na2vs0mg"},{"bike_id":"62c1cc34-9dc4-4d8b-8527-96825b372e5a","system_id":"levelo_inurba_marseille","lat":43.26217,"lon":5.3746,"is_reserved":false,"is_disabled":false,"rental_uris":{"android":"levelo://app?vid=62c1cc34-9dc4-4d8b-8527-96825b372e5a","ios":"levelo://app?vid=62c1cc34-9dc4-4d8b-8527-96825b372e5a"},"vehicle_type_id":"4","last_reported":1737980253,"current_range_meters":17600,"station_id":"ce4bhgp2rcd13ifvqfc0","pricing_plan_id":"cebpf4jnsgd1na2vs0mg"},{"bike_id":"38ffec2a-fc66-4d14-b825-4703e88f5460","system_id":"levelo_inurba_marseille","lat":43.32121,"lon":5.36773,"is_reserved":false,"is_disabled":true,"rental_uris":{"android":"levelo://app?vid=38ffec2a-fc66-4d14-b825-4703e88f5460","ios":"levelo://app?vid=38ffec2a-fc66-4d14-b825-4703e88f5460"},"vehicle_type_id":"4","last_reported":1737980253,"current_range_meters":25600,"station_id":"ce4bhrh2rcd13ifvqhug","pricing_plan_id":"cebpf4jnsgd1na2vs0mg"},{"bike_id":"f07253c8-6648-4865-8bec-733f295fbeac","system_id":"levelo_inurba_marseille","lat":43.28466,"lon":5.38555,"is_reserved":false,"is_disabled":false,"rental_uris":{"android":"levelo://app?vid=f07253c8-6648-4865-8bec-733f295fbeac","ios":"levelo://app?vid=f07253c8-6648-4865-8bec-733f295fbeac"},"vehicle_type_id":"4","last_reported":1737980253,"current_range_meters":35200,"station_id":"ce4bh8p2rcd13ifvqeb0","pricing_plan_id":"cebpf4jnsgd1na2vs0mg"},{"bike_id":"b01b0706-3a3a-4ff1-ac0d-6b17e48eff7a","system_id":"levelo_inurba_marseille","lat":43.23191,"lon":5.35558,"is_reserved":false,"is_disabled":false,"rental_uris":{"android":"levelo://app?vid=b01b0706-3a3a-4ff1-ac0d-6b17e48eff7a","ios":"levelo://app?vid=b01b0706-3a3a-4ff1-ac0d-6b17e48eff7a"},"vehicle_type_id":"4","last_reported":1737980253,"current_range_meters":36800,"station_id":"ce4bhu92rcd13ifvqi70","pricing_plan_id":"cebpf4jnsgd1na2vs0mg"},{"bike_id":"f9620bdb-9087-4881-9a51-8bd34e3450c6","system_id":"levelo_inurba_marseille","lat":43.2863,"lon":5.37033,"is_reserved":false,"is_disabled":false,"rental_uris":{"android":"levelo://app?vid=f9620bdb-9087-4881-9a51-8bd34e3450c6","ios":"levelo://app?vid=f9620bdb-9087-4881-9a51-8bd34e3450c6"},"vehicle_type_id":"4","last_reported":1737980253,"current_range_meters":4000,"station_id":"ce4bhph2rcd13ifvqhdg","pricing_plan_id":"cebpf4jnsgd1na2vs0mg"},{"bike_id":"8c6274d4-3ca4-4efe-9f24-18981a0b9556","system_id":"levelo_inurba_marseille","lat":43.31413,"lon":5.37357,"is_reserved":false,"is_disabled":false,"rental_uris":{"android":"levelo://app?vid=8c6274d4-3ca4-4efe-9f24-18981a0b9556","ios":"levelo://app?vid=8c6274d4-3ca4-4efe-9f24-18981a0b9556"},"vehicle_type_id":"4","last_reported":1737980253,"current_range_meters":8800,"station_id":"","pricing_plan_id":"cebpf4jnsgd1na2vs0mg"},{"bike_id":"82268c69-bcd8-49fb-91ea-6277b4711aa7","system_id":"levelo_inurba_marseille","lat":43.25551,"lon":5.39783,"is_reserved":false,"is_disabled":false,"rental_uris":{"android":"levelo://app?vid=82268c69-bcd8-49fb-91ea-6277b4711aa7","ios":"levelo://app?vid=82268c69-bcd8-49fb-91ea-6277b4711aa7"},"vehicle_type_id":"4","last_reported":1737980253,"current_range_meters":26000,"station_id":"","pricing_plan_id":"cebpf4jnsgd1na2vs0mg"},{"bike_id":"4f36bb3d-3d4d-4f60-913b-e55e33455695","system_id":"levelo_inurba_marseille","lat":43.30527,"lon":5.36545,"is_reserved":false,"is_disabled":false,"rental_uris":{"android":"levelo://app?vid=4f36bb3d-3d4d-4f60-913b-e55e33455695","ios":"levelo://app?vid=4f36bb3d-3d4d-4f60-913b-e55e33455695"},"vehicle_type_id":"4","last_reported":1737980253,"current_range_meters":38000,"station_id":"ce4bgs12rcd13ifvqcag","pricing_plan_id":"cebpf4jnsgd1na2vs0mg"},{"bike_id":"358ea70b-11d9-47fa-b75c-b7801a957d01","system_id":"levelo_inurba_marseille","lat":43.24003,"lon":5.37766,"is_reserved":false,"is_disabled":false,"rental_uris":{"android":"levelo://app?vid=358ea70b-11d9-47fa-b75c-b7801a957d01","ios":"levelo://app?vid=358ea70b-11d9-47fa-b75c-b7801a957d01"},"vehicle_type_id":"4","last_reported":1737980253,"current_range_meters":4000,"station_id":"","pricing_plan_id":"cebpf4jnsgd1na2vs0mg"},{"bike_id":"24cfb25a-4e6b-44c9-aa4f-740815d4798b","system_id":"levelo_inurba_marseille","lat":43.30317,"lon":5.36899,"is_reserved":false,"is_disabled":false,"rental_uris":{"android":"levelo://app?vid=24cfb25a-4e6b-44c9-aa4f-740815d4798b","ios":"levelo://app?vid=24cfb25a-4e6b-44c9-aa4f-740815d4798b"},"vehicle_type_id":"4","last_reported":1737980253,"current_range_meters":33200,"station_id":"ce4bgqh2rcd13ifvqc5g","pricing_plan_id":"cebpf4jnsgd1na2vs0mg"},{"bike_id":"26e37699-eff4-43e7-811f-f2f24182e176","system_id":"levelo_inurba_marseille","lat":43.29768,"lon":5.37105,"is_reserved":false,"is_disabled":false,"rental_uris":{"android":"levelo://app?vid=26e37699-eff4-43e7-811f-f2f24182e176","ios":"levelo://app?vid=26e37699-eff4-43e7-811f-f2f24182e176"},"vehicle_type_id":"4","last_reported":1737980253,"current_range_meters":24400,"station_id":"ce4bgop2rcd13ifvqc1g","pricing_plan_id":"cebpf4jnsgd1na2vs0mg"},{"bike_id":"01e1773c-3be5-489f-b890-a0907a952fb7","system_id":"levelo_inurba_marseille","lat":43.30484,"lon":5.37901,"is_reserved":false,"is_disabled":false,"rental_uris":{"android":"levelo://app?vid=01e1773c-3be5-489f-b890-a0907a952fb7","ios":"levelo://app?vid=01e1773c-3be5-489f-b890-a0907a952fb7"},"vehicle_type_id":"4","last_reported":1737980253,"current_range_meters":38800,"station_id":"ce4bgup2rcd13ifvqcn0","pricing_plan_id":"cebpf4jnsgd1na2vs0mg"},{"bike_id":"10b1a047-be93-49dc-bba5-67085f222023","system_id":"levelo_inurba_marseille","lat":43.25584,"lon":5.38262,"is_reserved":false,"is_disabled":false,"rental_uris":{"android":"levelo://app?vid=10b1a047-be93-49dc-bba5-67085f222023","ios":"levelo://app?vid=10b1a047-be93-49dc-bba5-67085f222023"},"vehicle_type_id":"4","last_reported":1737980253,"current_range_meters":36000,"station_id":"ce4bhih2rcd13ifvqfs0","pricing_plan_id":"cebpf4jnsgd1na2vs0mg"},{"bike_id":"48eaf086-a58e-442a-ac63-1b1e74c4ac84","system_id":"levelo_inurba_marseille","lat":43.3171,"lon":5.43712,"is_reserved":false,"is_disabled":false,"rental_uris":{"android":"levelo://app?vid=48eaf086-a58e-442a-ac63-1b1e74c4ac84","ios":"levelo://app?vid=48eaf086-a58e-442a-ac63-1b1e74c4ac84"},"vehicle_type_id":"4","last_reported":1737980253,"current_range_meters":38400,"station_id":"ce4bhp92rcd13ifvqhcg","pricing_plan_id":"cebpf4jnsgd1na2vs0mg"},{"bike_id":"7fd84b68-8795-4b64-88b1-cc544e1d0969","system_id":"levelo_inurba_marseille","lat":43.28272,"lon":5.35079,"is_reserved":false,"is_disabled":false,"rental_uris":{"android":"levelo://app?vid=7fd84b68-8795-4b64-88b1-cc544e1d0969","ios":"levelo://app?vid=7fd84b68-8795-4b64-88b1-cc544e1d0969"},"vehicle_type_id":"4","last_reported":1737980253,"current_range_meters":38800,"station_id":"ce4bhbp2rcd13ifvqerg","pricing_plan_id":"cebpf4jnsgd1na2vs0mg"},{"bike_id":"b2687992-feae-4a39-a1c8-1d3f37049c29","system_id":"levelo_inurba_marseille","lat":43.3248,"lon":5.36579,"is_reserved":false,"is_disabled":false,"rental_uris":{"android":"levelo://app?vid=b2687992-feae-4a39-a1c8-1d3f37049c29","ios":"levelo://app?vid=b2687992-feae-4a39-a1c8-1d3f37049c29"},"vehicle_type_id":"4","last_reported":1737980253,"current_range_meters":28000,"station_id":"ce4bhs12rcd13ifvqhvg","pricing_plan_id":"cebpf4jnsgd1na2vs0mg"},{"bike_id":"c0fa03c0-61d9-4ebe-94ca-0c4f7021aa52","system_id":"levelo_inurba_marseille","lat":43.30463,"lon":5.37913,"is_reserved":false,"is_disabled":true,"rental_uris":{"android":"levelo://app?vid=c0fa03c0-61d9-4ebe-94ca-0c4f7021aa52","ios":"levelo://app?vid=c0fa03c0-61d9-4ebe-94ca-0c4f7021aa52"},"vehicle_type_id":"4","last_reported":1737980253,"current_range_meters":0,"station_id":"ce4bgup2rcd13ifvqcn0","pricing_plan_id":"cebpf4jnsgd1na2vs0mg"},{"bike_id":"ff68af14-5554-4f8d-a3de-4549d987f602","system_id":"levelo_inurba_marseille","lat":43.299,"lon":5.4367,"is_reserved":false,"is_disabled":false,"rental_uris":{"android":"levelo://app?vid=ff68af14-5554-4f8d-a3de-4549d987f602","ios":"levelo://app?vid=ff68af14-5554-4f8d-a3de-4549d987f602"},"vehicle_type_id":"4","last_reported":1737980253,"current_range_meters":38800,"station_id":"ce4bhpp2rcd13ifvqhfg","pricing_plan_id":"cebpf4jnsgd1na2vs0mg"},{"bike_id":"75c7a652-25ad-4961-99e9-d34790c80f49","system_id":"levelo_inurba_marseille","lat":43.24998,"lon":5.38934,"is_reserved":false,"is_disabled":false,"rental_uris":{"android":"levelo://app?vid=75c7a652-25ad-4961-99e9-d34790c80f49","ios":"levelo://app?vid=75c7a652-25ad-4961-99e9-d34790c80f49"},"vehicle_type_id":"4","last_reported":1737980253,"current_range_meters":11600,"station_id":"ce4bhgp2rcd13ifvqfd0","pricing_plan_id":"cebpf4jnsgd1na2vs0mg"},{"bike_id":"57c8d37d-a5af-4d80-9b42-d1424e066828","system_id":"levelo_inurba_marseille","lat":43.27813,"lon":5.40722,"is_reserved":false,"is_disabled":false,"rental_uris":{"android":"levelo://app?vid=57c8d37d-a5af-4d80-9b42-d1424e066828","ios":"levelo://app?vid=57c8d37d-a5af-4d80-9b42-d1424e066828"},"vehicle_type_id":"4","last_reported":1737980253,"current_range_meters":25200,"station_id":"ce4bhnh2rcd13ifvqgtg","pricing_plan_id":"cebpf4jnsgd1na2vs0mg"},{"bike_id":"d2c40c3f-6384-4e2d-85f6-b3bc648b180f","system_id":"levelo_inurba_marseille","lat":43.2957,"lon":5.37532,"is_reserved":false,"is_disabled":true,"rental_uris":{"android":"levelo://app?vid=d2c40c3f-6384-4e2d-85f6-b3bc648b180f","ios":"levelo://app?vid=d2c40c3f-6384-4e2d-85f6-b3bc648b180f"},"vehicle_type_id":"4","last_reported":1737980253,"current_range_meters":1600,"station_id":"ce4bgh92rcd13ifvqb50","pricing_plan_id":"cebpf4jnsgd1na2vs0mg"},{"bike_id":"188e1102-bf3f-42c3-a1d0-7103f0eb8f07","system_id":"levelo_inurba_marseille","lat":43.30328,"lon":5.4043,"is_reserved":false,"is_disabled":false,"rental_uris":{"android":"levelo://app?vid=188e1102-bf3f-42c3-a1d0-7103f0eb8f07","ios":"levelo://app?vid=188e1102-bf3f-42c3-a1d0-7103f0eb8f07"},"vehicle_type_id":"4","last_reported":1737980253,"current_range_meters":26800,"station_id":"ce4bh012rcd13ifvqd10","pricing_plan_id":"cebpf4jnsgd1na2vs0mg"},{"bike_id":"a3673eed-3a3c-49e9-a885-e8629b097798","system_id":"levelo_inurba_marseille","lat":43.333255,"lon":5.410694,"is_reserved":false,"is_disabled":false,"rental_uris":{"android":"levelo://app?vid=a3673eed-3a3c-49e9-a885-e8629b097798","ios":"levelo://app?vid=a3673eed-3a3c-49e9-a885-e8629b097798"},"vehicle_type_id":"4","last_reported":1737980253,"current_range_meters":4400,"station_id":"","pricing_plan_id":"cebpf4jnsgd1na2vs0mg"},{"bike_id":"86b498e3-784c-4315-9910-77930c320efa","system_id":"levelo_inurba_marseille","lat":43.28606,"lon":5.37051,"is_reserved":false,"is_disabled":false,"rental_uris":{"android":"levelo://app?vid=86b498e3-784c-4315-9910-77930c320efa","ios":"levelo://app?vid=86b498e3-784c-4315-9910-77930c320efa"},"vehicle_type_id":"4","last_reported":1737980253,"current_range_meters":37600,"station_id":"ce4bht12rcd13ifvqi60","pricing_plan_id":"cebpf4jnsgd1na2vs0mg"},{"bike_id":"d4b96a79-6fba-47bf-8cf9-899b5e9182b4","system_id":"levelo_inurba_marseille","lat":43.262,"lon":5.37916,"is_reserved":false,"is_disabled":false,"rental_uris":{"android":"levelo://app?vid=d4b96a79-6fba-47bf-8cf9-899b5e9182b4","ios":"levelo://app?vid=d4b96a79-6fba-47bf-8cf9-899b5e9182b4"},"vehicle_type_id":"4","last_reported":1737980253,"current_range_meters":14000,"station_id":"ce4bhjp2rcd13ifvqg90","pricing_plan_id":"cebpf4jnsgd1na2vs0mg"},{"bike_id":"e601be81-c2b1-438e-80e5-e798db71dca1","system_id":"levelo_inurba_marseille","lat":43.29866,"lon":5.39749,"is_reserved":false,"is_disabled":false,"rental_uris":{"android":"levelo://app?vid=e601be81-c2b1-438e-80e5-e798db71dca1","ios":"levelo://app?vid=e601be81-c2b1-438e-80e5-e798db71dca1"},"vehicle_type_id":"4","last_reported":1737980253,"current_range_meters":10000,"station_id":"ce4bh0h2rcd13ifvqd50","pricing_plan_id":"cebpf4jnsgd1na2vs0mg"},{"bike_id":"8c772f1a-bac2-41fc-878f-d0d152dc8c92","system_id":"levelo_inurba_marseille","lat":43.29176,"lon":5.3823,"is_reserved":false,"is_disabled":false,"rental_uris":{"android":"levelo://app?vid=8c772f1a-bac2-41fc-878f-d0d152dc8c92","ios":"levelo://app?vid=8c772f1a-bac2-41fc-878f-d0d152dc8c92"},"vehicle_type_id":"4","last_reported":1737980253,"current_range_meters":6000,"station_id":"","pricing_plan_id":"cebpf4jnsgd1na2vs0mg"},{"bike_id":"ff374f96-75e4-42e5-8560-61dcf2c3a249","system_id":"levelo_inurba_marseille","lat":43.29531,"lon":5.38541,"is_reserved":false,"is_disabled":false,"rental_uris":{"android":"levelo://app?vid=ff374f96-75e4-42e5-8560-61dcf2c3a249","ios":"levelo://app?vid=ff374f96-75e4-42e5-8560-61dcf2c3a249"},"vehicle_type_id":"4","last_reported":1737980253,"current_range_meters":7200,"station_id":"ce4bgih2rcd13ifvqba0","pricing_plan_id":"cebpf4jnsgd1na2vs0mg"},{"bike_id":"6d301d54-3fe2-456f-9752-1a1a8fa0c2b5","system_id":"levelo_inurba_marseille","lat":43.31396,"lon":5.36777,"is_reserved":false,"is_disabled":false,"rental_uris":{"android":"levelo://app?vid=6d301d54-3fe2-456f-9752-1a1a8fa0c2b5","ios":"levelo://app?vid=6d301d54-3fe2-456f-9752-1a1a8fa0c2b5"},"vehicle_type_id":"4","last_reported":1737980253,"current_range_meters":38800,"station_id":"ce4bgr92rcd13ifvqc6g","pricing_plan_id":"cebpf4jnsgd1na2vs0mg"},{"bike_id":"05d9d994-ea09-41ca-aeb8-dc4b233c543b","system_id":"levelo_inurba_marseille","lat":43.2901,"lon":5.3865,"is_reserved":false,"is_disabled":true,"rental_uris":{"android":"levelo://app?vid=05d9d994-ea09-41ca-aeb8-dc4b233c543b","ios":"levelo://app?vid=05d9d994-ea09-41ca-aeb8-dc4b233c543b"},"vehicle_type_id":"4","last_reported":1737980253,"current_range_meters":27600,"station_id":"ce4bh4p2rcd13ifvqe0g","pricing_plan_id":"cebpf4jnsgd1na2vs0mg"},{"bike_id":"ec5db8d5-4239-4776-a156-d376b9619fa0","system_id":"levelo_inurba_marseille","lat":43.27911,"lon":5.39567,"is_reserved":false,"is_disabled":false,"rental_uris":{"android":"levelo://app?vid=ec5db8d5-4239-4776-a156-d376b9619fa0","ios":"levelo://app?vid=ec5db8d5-4239-4776-a156-d376b9619fa0"},"vehicle_type_id":"4","last_reported":1737980253,"current_range_meters":38800,"station_id":"ce4bhf92rcd13ifvqf40","pricing_plan_id":"cebpf4jnsgd1na2vs0mg"},{"bike_id":"8953d115-3f1d-45e1-b257-37ad558d8d41","system_id":"levelo_inurba_marseille","lat":43.3135,"lon":5.36728,"is_reserved":false,"is_disabled":false,"rental_uris":{"android":"levelo://app?vid=8953d115-3f1d-45e1-b257-37ad558d8d41","ios":"levelo://app?vid=8953d115-3f1d-45e1-b257-37ad558d8d41"},"vehicle_type_id":"4","last_reported":1737980253,"current_range_meters":25600,"station_id":"ce4bgr92rcd13ifvqc6g","pricing_plan_id":"cebpf4jnsgd1na2vs0mg"},{"bike_id":"cf09a0bb-7792-408b-820c-d64bbafe73f4","system_id":"levelo_inurba_marseille","lat":43.28357,"lon":5.38633,"is_reserved":false,"is_disabled":false,"rental_uris":{"android":"levelo://app?vid=cf09a0bb-7792-408b-820c-d64bbafe73f4","ios":"levelo://app?vid=cf09a0bb-7792-408b-820c-d64bbafe73f4"},"vehicle_type_id":"4","last_reported":1737980253,"current_range_meters":28000,"station_id":"ce4bh492rcd13ifvqdvg","pricing_plan_id":"cebpf4jnsgd1na2vs0mg"},{"bike_id":"88f2de76-3efd-4e44-82da-db5e3d83613a","system_id":"levelo_inurba_marseille","lat":43.29792,"lon":5.39353,"is_reserved":false,"is_disabled":false,"rental_uris":{"android":"levelo://app?vid=88f2de76-3efd-4e44-82da-db5e3d83613a","ios":"levelo://app?vid=88f2de76-3efd-4e44-82da-db5e3d83613a"},"vehicle_type_id":"4","last_reported":1737980253,"current_range_meters":30400,"station_id":"chh1huq6cuj3fo74tm60","pricing_plan_id":"cebpf4jnsgd1na2vs0mg"},{"bike_id":"0326cc55-8947-4d73-99b5-1b27c5124cb4","system_id":"levelo_inurba_marseille","lat":43.30358,"lon":5.36499,"is_reserved":false,"is_disabled":false,"rental_uris":{"android":"levelo://app?vid=0326cc55-8947-4d73-99b5-1b27c5124cb4","ios":"levelo://app?vid=0326cc55-8947-4d73-99b5-1b27c5124cb4"},"vehicle_type_id":"4","last_reported":1737980253,"current_range_meters":15200,"station_id":"","pricing_plan_id":"cebpf4jnsgd1na2vs0mg"},{"bike_id":"f9173de2-2fa5-436f-a76b-3c96bd571284","system_id":"levelo_inurba_marseille","lat":43.298,"lon":5.40421,"is_reserved":false,"is_disabled":false,"rental_uris":{"android":"levelo://app?vid=f9173de2-2fa5-436f-a76b-3c96bd571284","ios":"levelo://app?vid=f9173de2-2fa5-436f-a76b-3c96bd571284"},"vehicle_type_id":"4","last_reported":1737980253,"current_range_meters":38800,"station_id":"ce4bh112rcd13ifvqd90","pricing_plan_id":"cebpf4jnsgd1na2vs0mg"},{"bike_id":"7601beff-cfae-4db9-a7dc-678fe0a11e32","system_id":"levelo_inurba_marseille","lat":43.30786,"lon":5.37657,"is_reserved":false,"is_disabled":false,"rental_uris":{"android":"levelo://app?vid=7601beff-cfae-4db9-a7dc-678fe0a11e32","ios":"levelo://app?vid=7601beff-cfae-4db9-a7dc-678fe0a11e32"},"vehicle_type_id":"4","last_reported":1737980253,"current_range_meters":36400,"station_id":"ce4bgv92rcd13ifvqcq0","pricing_plan_id":"cebpf4jnsgd1na2vs0mg"},{"bike_id":"5f440627-d816-48bc-9bd4-e33461b4f815","system_id":"levelo_inurba_marseille","lat":43.30448,"lon":5.39767,"is_reserved":false,"is_disabled":false,"rental_uris":{"android":"levelo://app?vid=5f440627-d816-48bc-9bd4-e33461b4f815","ios":"levelo://app?vid=5f440627-d816-48bc-9bd4-e33461b4f815"},"vehicle_type_id":"4","last_reported":1737980253,"current_range_meters":39200,"station_id":"ce4bh092rcd13ifvqd20","pricing_plan_id":"cebpf4jnsgd1na2vs0mg"},{"bike_id":"ce7496b9-3a07-4d4e-974e-09d44b1427a4","system_id":"levelo_inurba_marseille","lat":43.28473,"lon":5.38445,"is_reserved":false,"is_disabled":false,"rental_uris":{"android":"levelo://app?vid=ce7496b9-3a07-4d4e-974e-09d44b1427a4","ios":"levelo://app?vid=ce7496b9-3a07-4d4e-974e-09d44b1427a4"},"vehicle_type_id":"4","last_reported":1737980253,"current_range_meters":11200,"station_id":"ce4bh512rcd13ifvqe3g","pricing_plan_id":"cebpf4jnsgd1na2vs0mg"},{"bike_id":"e6606877-4680-437e-bd53-2941e71d8d43","system_id":"levelo_inurba_marseille","lat":43.32662,"lon":5.40995,"is_reserved":false,"is_disabled":false,"rental_uris":{"android":"levelo://app?vid=e6606877-4680-437e-bd53-2941e71d8d43","ios":"levelo://app?vid=e6606877-4680-437e-bd53-2941e71d8d43"},"vehicle_type_id":"4","last_reported":1737980253,"current_range_meters":3200,"station_id":"ce4bhpp2rcd13ifvqhgg","pricing_plan_id":"cebpf4jnsgd1na2vs0mg"},{"bike_id":"af550472-4939-4d84-9a95-4ae4e0fb82ad","system_id":"levelo_inurba_marseille","lat":43.29254,"lon":5.409055,"is_reserved":false,"is_disabled":false,"rental_uris":{"android":"levelo://app?vid=af550472-4939-4d84-9a95-4ae4e0fb82ad","ios":"levelo://app?vid=af550472-4939-4d84-9a95-4ae4e0fb82ad"},"vehicle_type_id":"4","last_reported":1737980253,"current_range_meters":20000,"station_id":"ce4bh192rcd13ifvqdc0","pricing_plan_id":"cebpf4jnsgd1na2vs0mg"},{"bike_id":"26c5f55d-b689-44ba-bcbe-576c29c6025c","system_id":"levelo_inurba_marseille","lat":43.33758,"lon":5.39191,"is_reserved":false,"is_disabled":false,"rental_uris":{"android":"levelo://app?vid=26c5f55d-b689-44ba-bcbe-576c29c6025c","ios":"levelo://app?vid=26c5f55d-b689-44ba-bcbe-576c29c6025c"},"vehicle_type_id":"4","last_reported":1737980253,"current_range_meters":25200,"station_id":"ce4bhr92rcd13ifvqhsg","pricing_plan_id":"cebpf4jnsgd1na2vs0mg"},{"bike_id":"0b6f18d5-146b-44c4-a3ea-4029df8b8e75","system_id":"levelo_inurba_marseille","lat":43.27809,"lon":5.40719,"is_reserved":false,"is_disabled":false,"rental_uris":{"android":"levelo://app?vid=0b6f18d5-146b-44c4-a3ea-4029df8b8e75","ios":"levelo://app?vid=0b6f18d5-146b-44c4-a3ea-4029df8b8e75"},"vehicle_type_id":"4","last_reported":1737980253,"current_range_meters":39200,"station_id":"ce4bhnh2rcd13ifvqgtg","pricing_plan_id":"cebpf4jnsgd1na2vs0mg"},{"bike_id":"bbc29a64-5b04-45e7-a25a-b329b015caac","system_id":"levelo_inurba_marseille","lat":43.2937,"lon":5.37844,"is_reserved":false,"is_disabled":false,"rental_uris":{"android":"levelo://app?vid=bbc29a64-5b04-45e7-a25a-b329b015caac","ios":"levelo://app?vid=bbc29a64-5b04-45e7-a25a-b329b015caac"},"vehicle_type_id":"4","last_reported":1737980253,"current_range_meters":12400,"station_id":"ce4bgjh2rcd13ifvqbf0","pricing_plan_id":"cebpf4jnsgd1na2vs0mg"},{"bike_id":"4ee7a4b2-dea3-4f4a-a76b-2d1e4fcbcafe","system_id":"levelo_inurba_marseille","lat":43.28479,"lon":5.38531,"is_reserved":false,"is_disabled":true,"rental_uris":{"android":"levelo://app?vid=4ee7a4b2-dea3-4f4a-a76b-2d1e4fcbcafe","ios":"levelo://app?vid=4ee7a4b2-dea3-4f4a-a76b-2d1e4fcbcafe"},"vehicle_type_id":"4","last_reported":1737980253,"current_range_meters":2000,"station_id":"ce4bh8p2rcd13ifvqeb0","pricing_plan_id":"cebpf4jnsgd1na2vs0mg"},{"bike_id":"c772779b-3b78-4143-a73c-c60232eed73c","system_id":"levelo_inurba_marseille","lat":43.3252,"lon":5.41483,"is_reserved":false,"is_disabled":false,"rental_uris":{"android":"levelo://app?vid=c772779b-3b78-4143-a73c-c60232eed73c","ios":"levelo://app?vid=c772779b-3b78-4143-a73c-c60232eed73c"},"vehicle_type_id":"4","last_reported":1737980253,"current_range_meters":36000,"station_id":"ce4bhq12rcd13ifvqhhg","pricing_plan_id":"cebpf4jnsgd1na2vs0mg"},{"bike_id":"78f8a76b-5269-4460-a81a-cc068532193c","system_id":"levelo_inurba_marseille","lat":43.3047,"lon":5.37912,"is_reserved":false,"is_disabled":false,"rental_uris":{"android":"levelo://app?vid=78f8a76b-5269-4460-a81a-cc068532193c","ios":"levelo://app?vid=78f8a76b-5269-4460-a81a-cc068532193c"},"vehicle_type_id":"4","last_reported":1737980253,"current_range_meters":26800,"station_id":"ce4bgup2rcd13ifvqcn0","pricing_plan_id":"cebpf4jnsgd1na2vs0mg"},{"bike_id":"caecff62-bed4-4e7d-92a6-a51fad70c577","system_id":"levelo_inurba_marseille","lat":43.29703,"lon":5.37731,"is_reserved":false,"is_disabled":false,"rental_uris":{"android":"levelo://app?vid=caecff62-bed4-4e7d-92a6-a51fad70c577","ios":"levelo://app?vid=caecff62-bed4-4e7d-92a6-a51fad70c577"},"vehicle_type_id":"4","last_reported":1737980253,"current_range_meters":27200,"station_id":"ce4bgkh2rcd13ifvqbl0","pricing_plan_id":"cebpf4jnsgd1na2vs0mg"},{"bike_id":"e3e26aee-15e1-425c-a48f-db58aa520742","system_id":"levelo_inurba_marseille","lat":43.2305,"lon":5.35526,"is_reserved":false,"is_disabled":false,"rental_uris":{"android":"levelo://app?vid=e3e26aee-15e1-425c-a48f-db58aa520742","ios":"levelo://app?vid=e3e26aee-15e1-425c-a48f-db58aa520742"},"vehicle_type_id":"4","last_reported":1737980253,"current_range_meters":38800,"station_id":"cpo3342slgdg3j2ifvpg","pricing_plan_id":"cebpf4jnsgd1na2vs0mg"},{"bike_id":"51439b33-aac4-4436-a1fd-646e363cfff1","system_id":"levelo_inurba_marseille","lat":43.296778,"lon":5.377472,"is_reserved":false,"is_disabled":false,"rental_uris":{"android":"levelo://app?vid=51439b33-aac4-4436-a1fd-646e363cfff1","ios":"levelo://app?vid=51439b33-aac4-4436-a1fd-646e363cfff1"},"vehicle_type_id":"4","last_reported":1737980253,"current_range_meters":28000,"station_id":"ce4bgi92rcd13ifvqb90","pricing_plan_id":"cebpf4jnsgd1na2vs0mg"},{"bike_id":"414e9e87-13c8-4dd8-9df6-7723400a2d87","system_id":"levelo_inurba_marseille","lat":43.25938,"lon":5.40923,"is_reserved":false,"is_disabled":false,"rental_uris":{"android":"levelo://app?vid=414e9e87-13c8-4dd8-9df6-7723400a2d87","ios":"levelo://app?vid=414e9e87-13c8-4dd8-9df6-7723400a2d87"},"vehicle_type_id":"4","last_reported":1737980253,"current_range_meters":38800,"station_id":"ce4bhm92rcd13ifvqglg","pricing_plan_id":"cebpf4jnsgd1na2vs0mg"},{"bike_id":"4f0d564d-d2c5-4d63-8272-ec4ed8b18df2","system_id":"levelo_inurba_marseille","lat":43.25931,"lon":5.40915,"is_reserved":false,"is_disabled":false,"rental_uris":{"android":"levelo://app?vid=4f0d564d-d2c5-4d63-8272-ec4ed8b18df2","ios":"levelo://app?vid=4f0d564d-d2c5-4d63-8272-ec4ed8b18df2"},"vehicle_type_id":"4","last_reported":1737980253,"current_range_meters":31200,"station_id":"ce4bhm92rcd13ifvqglg","pricing_plan_id":"cebpf4jnsgd1na2vs0mg"},{"bike_id":"7c78a755-c7f5-4f07-a96b-621451d47948","system_id":"levelo_inurba_marseille","lat":43.29902,"lon":5.4365,"is_reserved":false,"is_disabled":false,"rental_uris":{"android":"levelo://app?vid=7c78a755-c7f5-4f07-a96b-621451d47948","ios":"levelo://app?vid=7c78a755-c7f5-4f07-a96b-621451d47948"},"vehicle_type_id":"4","last_reported":1737980253,"current_range_meters":27600,"station_id":"ce4bhpp2rcd13ifvqhfg","pricing_plan_id":"cebpf4jnsgd1na2vs0mg"},{"bike_id":"8bc17420-8e8f-4e23-949f-644ecfc72724","system_id":"levelo_inurba_marseille","lat":43.27369,"lon":5.36264,"is_reserved":false,"is_disabled":false,"rental_uris":{"android":"levelo://app?vid=8bc17420-8e8f-4e23-949f-644ecfc72724","ios":"levelo://app?vid=8bc17420-8e8f-4e23-949f-644ecfc72724"},"vehicle_type_id":"4","last_reported":1737980253,"current_range_meters":38800,"station_id":"ce4bhbh2rcd13ifvqeo0","pricing_plan_id":"cebpf4jnsgd1na2vs0mg"},{"bike_id":"e1d2b012-55a7-44cf-ae4a-384d38b76e20","system_id":"levelo_inurba_marseille","lat":43.26212,"lon":5.37445,"is_reserved":false,"is_disabled":false,"rental_uris":{"android":"levelo://app?vid=e1d2b012-55a7-44cf-ae4a-384d38b76e20","ios":"levelo://app?vid=e1d2b012-55a7-44cf-ae4a-384d38b76e20"},"vehicle_type_id":"4","last_reported":1737980253,"current_range_meters":36000,"station_id":"ce4bhgp2rcd13ifvqfc0","pricing_plan_id":"cebpf4jnsgd1na2vs0mg"},{"bike_id":"8fe74872-c76f-4fa5-a942-6cebcd8faf3e","system_id":"levelo_inurba_marseille","lat":43.2938,"lon":5.37845,"is_reserved":false,"is_disabled":false,"rental_uris":{"android":"levelo://app?vid=8fe74872-c76f-4fa5-a942-6cebcd8faf3e","ios":"levelo://app?vid=8fe74872-c76f-4fa5-a942-6cebcd8faf3e"},"vehicle_type_id":"4","last_reported":1737980253,"current_range_meters":38800,"station_id":"ce4bgjh2rcd13ifvqbf0","pricing_plan_id":"cebpf4jnsgd1na2vs0mg"},{"bike_id":"c4c4e2bb-727e-4994-be27-3022dd637b3b","system_id":"levelo_inurba_marseille","lat":43.25582,"lon":5.38242,"is_reserved":false,"is_disabled":false,"rental_uris":{"android":"levelo://app?vid=c4c4e2bb-727e-4994-be27-3022dd637b3b","ios":"levelo://app?vid=c4c4e2bb-727e-4994-be27-3022dd637b3b"},"vehicle_type_id":"4","last_reported":1737980253,"current_range_meters":36800,"station_id":"ce4bhih2rcd13ifvqfs0","pricing_plan_id":"cebpf4jnsgd1na2vs0mg"},{"bike_id":"a48a4fa8-387b-4ecc-bc7a-c3f07822bf47","system_id":"levelo_inurba_marseille","lat":43.27071,"lon":5.392295,"is_reserved":false,"is_disabled":true,"rental_uris":{"android":"levelo://app?vid=a48a4fa8-387b-4ecc-bc7a-c3f07822bf47","ios":"levelo://app?vid=a48a4fa8-387b-4ecc-bc7a-c3f07822bf47"},"vehicle_type_id":"4","last_reported":1737980253,"current_range_meters":0,"station_id":"","pricing_plan_id":"cebpf4jnsgd1na2vs0mg"},{"bike_id":"afc4d53a-7a00-4e31-ba93-3fdb3be5f28e","system_id":"levelo_inurba_marseille","lat":43.24034,"lon":5.37799,"is_reserved":false,"is_disabled":false,"rental_uris":{"android":"levelo://app?vid=afc4d53a-7a00-4e31-ba93-3fdb3be5f28e","ios":"levelo://app?vid=afc4d53a-7a00-4e31-ba93-3fdb3be5f28e"},"vehicle_type_id":"4","last_reported":1737980253,"current_range_meters":38800,"station_id":"","pricing_plan_id":"cebpf4jnsgd1na2vs0mg"},{"bike_id":"a8d0380b-0a88-41c3-845f-e00ffb2cbc88","system_id":"levelo_inurba_marseille","lat":43.27984,"lon":5.40032,"is_reserved":false,"is_disabled":true,"rental_uris":{"android":"levelo://app?vid=a8d0380b-0a88-41c3-845f-e00ffb2cbc88","ios":"levelo://app?vid=a8d0380b-0a88-41c3-845f-e00ffb2cbc88"},"vehicle_type_id":"4","last_reported":1737980253,"current_range_meters":30400,"station_id":"ce4bho92rcd13ifvqh4g","pricing_plan_id":"cebpf4jnsgd1na2vs0mg"},{"bike_id":"ab4b2f25-068f-4c1f-b709-3c0cbf337322","system_id":"levelo_inurba_marseille","lat":43.23158,"lon":5.43719,"is_reserved":false,"is_disabled":false,"rental_uris":{"android":"levelo://app?vid=ab4b2f25-068f-4c1f-b709-3c0cbf337322","ios":"levelo://app?vid=ab4b2f25-068f-4c1f-b709-3c0cbf337322"},"vehicle_type_id":"4","last_reported":1737980253,"current_range_meters":6800,"station_id":"ce4bhmp2rcd13ifvqgog","pricing_plan_id":"cebpf4jnsgd1na2vs0mg"},{"bike_id":"94229cda-4639-49c7-9106-bc4cbf3a3095","system_id":"levelo_inurba_marseille","lat":43.26221,"lon":5.40427,"is_reserved":false,"is_disabled":false,"rental_uris":{"android":"levelo://app?vid=94229cda-4639-49c7-9106-bc4cbf3a3095","ios":"levelo://app?vid=94229cda-4639-49c7-9106-bc4cbf3a3095"},"vehicle_type_id":"4","last_reported":1737980253,"current_range_meters":6000,"station_id":"","pricing_plan_id":"cebpf4jnsgd1na2vs0mg"},{"bike_id":"7906865d-2d73-4e84-b6b0-8ce49c1cef1d","system_id":"levelo_inurba_marseille","lat":43.24076,"lon":5.37771,"is_reserved":false,"is_disabled":false,"rental_uris":{"android":"levelo://app?vid=7906865d-2d73-4e84-b6b0-8ce49c1cef1d","ios":"levelo://app?vid=7906865d-2d73-4e84-b6b0-8ce49c1cef1d"},"vehicle_type_id":"4","last_reported":1737980253,"current_range_meters":38800,"station_id":"ce4bhnp2rcd13ifvqgvg","pricing_plan_id":"cebpf4jnsgd1na2vs0mg"},{"bike_id":"9c09af66-30f1-488d-910d-a8a905d02871","system_id":"levelo_inurba_marseille","lat":43.2937,"lon":5.37925,"is_reserved":false,"is_disabled":true,"rental_uris":{"android":"levelo://app?vid=9c09af66-30f1-488d-910d-a8a905d02871","ios":"levelo://app?vid=9c09af66-30f1-488d-910d-a8a905d02871"},"vehicle_type_id":"4","last_reported":1737980253,"current_range_meters":0,"station_id":"","pricing_plan_id":"cebpf4jnsgd1na2vs0mg"},{"bike_id":"93505527-caa4-4911-a7e6-dc466329edd8","system_id":"levelo_inurba_marseille","lat":43.30529,"lon":5.36702,"is_reserved":false,"is_disabled":false,"rental_uris":{"android":"levelo://app?vid=93505527-caa4-4911-a7e6-dc466329edd8","ios":"levelo://app?vid=93505527-caa4-4911-a7e6-dc466329edd8"},"vehicle_type_id":"4","last_reported":1737980253,"current_range_meters":35200,"station_id":"ce4bgrp2rcd13ifvqc9g","pricing_plan_id":"cebpf4jnsgd1na2vs0mg"},{"bike_id":"75cadc06-dc25-42c4-94f4-15f154b35dde","system_id":"levelo_inurba_marseille","lat":43.28464,"lon":5.35904,"is_reserved":false,"is_disabled":false,"rental_uris":{"android":"levelo://app?vid=75cadc06-dc25-42c4-94f4-15f154b35dde","ios":"levelo://app?vid=75cadc06-dc25-42c4-94f4-15f154b35dde"},"vehicle_type_id":"4","last_reported":1737980253,"current_range_meters":25200,"station_id":"ce4bhah2rcd13ifvqei0","pricing_plan_id":"cebpf4jnsgd1na2vs0mg"},{"bike_id":"465ff51a-5187-4fdc-8a00-166adbc9bc3f","system_id":"levelo_inurba_marseille","lat":43.30133,"lon":5.38777,"is_reserved":false,"is_disabled":false,"rental_uris":{"android":"levelo://app?vid=465ff51a-5187-4fdc-8a00-166adbc9bc3f","ios":"levelo://app?vid=465ff51a-5187-4fdc-8a00-166adbc9bc3f"},"vehicle_type_id":"4","last_reported":1737980253,"current_range_meters":28400,"station_id":"ce4bghh2rcd13ifvqb60","pricing_plan_id":"cebpf4jnsgd1na2vs0mg"},{"bike_id":"53a41900-75a7-4eaf-92ec-b6b2a1e7b6c1","system_id":"levelo_inurba_marseille","lat":43.28361,"lon":5.38648,"is_reserved":false,"is_disabled":false,"rental_uris":{"android":"levelo://app?vid=53a41900-75a7-4eaf-92ec-b6b2a1e7b6c1","ios":"levelo://app?vid=53a41900-75a7-4eaf-92ec-b6b2a1e7b6c1"},"vehicle_type_id":"4","last_reported":1737980253,"current_range_meters":32400,"station_id":"ce4bh492rcd13ifvqdvg","pricing_plan_id":"cebpf4jnsgd1na2vs0mg"},{"bike_id":"22e948b1-900e-4a5c-9a5a-b682c4d5119c","system_id":"levelo_inurba_marseille","lat":43.23153,"lon":5.4374,"is_reserved":false,"is_disabled":false,"rental_uris":{"android":"levelo://app?vid=22e948b1-900e-4a5c-9a5a-b682c4d5119c","ios":"levelo://app?vid=22e948b1-900e-4a5c-9a5a-b682c4d5119c"},"vehicle_type_id":"4","last_reported":1737980253,"current_range_meters":24800,"station_id":"ce4bhmp2rcd13ifvqgog","pricing_plan_id":"cebpf4jnsgd1na2vs0mg"},{"bike_id":"c438c788-2c8f-4eda-8233-a8485c23c4af","system_id":"levelo_inurba_marseille","lat":43.3043,"lon":5.4128,"is_reserved":false,"is_disabled":true,"rental_uris":{"android":"levelo://app?vid=c438c788-2c8f-4eda-8233-a8485c23c4af","ios":"levelo://app?vid=c438c788-2c8f-4eda-8233-a8485c23c4af"},"vehicle_type_id":"4","last_reported":1737980253,"current_range_meters":0,"station_id":"ce4bhop2rcd13ifvqh8g","pricing_plan_id":"cebpf4jnsgd1na2vs0mg"},{"bike_id":"c2be73b7-5288-4722-9067-c8e77bf6e2a3","system_id":"levelo_inurba_marseille","lat":43.29024,"lon":5.38142,"is_reserved":false,"is_disabled":false,"rental_uris":{"android":"levelo://app?vid=c2be73b7-5288-4722-9067-c8e77bf6e2a3","ios":"levelo://app?vid=c2be73b7-5288-4722-9067-c8e77bf6e2a3"},"vehicle_type_id":"4","last_reported":1737980253,"current_range_meters":36800,"station_id":"ce4bh4p2rcd13ifvqe1g","pricing_plan_id":"cebpf4jnsgd1na2vs0mg"},{"bike_id":"8ce91b79-eec2-4449-82de-a212beac1c70","system_id":"levelo_inurba_marseille","lat":43.30907,"lon":5.36854,"is_reserved":false,"is_disabled":true,"rental_uris":{"android":"levelo://app?vid=8ce91b79-eec2-4449-82de-a212beac1c70","ios":"levelo://app?vid=8ce91b79-eec2-4449-82de-a212beac1c70"},"vehicle_type_id":"4","last_reported":1737980253,"current_range_meters":36800,"station_id":"ce4bgn92rcd13ifvqbvg","pricing_plan_id":"cebpf4jnsgd1na2vs0mg"},{"bike_id":"2e1f41c8-ee04-4d5e-b989-f8d2ceb8944f","system_id":"levelo_inurba_marseille","lat":43.25003,"lon":5.38936,"is_reserved":false,"is_disabled":false,"rental_uris":{"android":"levelo://app?vid=2e1f41c8-ee04-4d5e-b989-f8d2ceb8944f","ios":"levelo://app?vid=2e1f41c8-ee04-4d5e-b989-f8d2ceb8944f"},"vehicle_type_id":"4","last_reported":1737980253,"current_range_meters":27200,"station_id":"ce4bhgp2rcd13ifvqfd0","pricing_plan_id":"cebpf4jnsgd1na2vs0mg"},{"bike_id":"714bad54-c98e-48d1-9514-98a6d8144d82","system_id":"levelo_inurba_marseille","lat":43.30957,"lon":5.39034,"is_reserved":false,"is_disabled":false,"rental_uris":{"android":"levelo://app?vid=714bad54-c98e-48d1-9514-98a6d8144d82","ios":"levelo://app?vid=714bad54-c98e-48d1-9514-98a6d8144d82"},"vehicle_type_id":"4","last_reported":1737980253,"current_range_meters":25200,"station_id":"ce4bgup2rcd13ifvqco0","pricing_plan_id":"cebpf4jnsgd1na2vs0mg"},{"bike_id":"4ce7e93f-14f1-431a-a922-7b439eac42b6","system_id":"levelo_inurba_marseille","lat":43.28935,"lon":5.36643,"is_reserved":false,"is_disabled":false,"rental_uris":{"android":"levelo://app?vid=4ce7e93f-14f1-431a-a922-7b439eac42b6","ios":"levelo://app?vid=4ce7e93f-14f1-431a-a922-7b439eac42b6"},"vehicle_type_id":"4","last_reported":1737980253,"current_range_meters":38800,"station_id":"ce4bhap2rcd13ifvqek0","pricing_plan_id":"cebpf4jnsgd1na2vs0mg"},{"bike_id":"c0e9afac-3027-4e6b-b5e9-3196c155323d","system_id":"levelo_inurba_marseille","lat":43.32455,"lon":5.36583,"is_reserved":false,"is_disabled":false,"rental_uris":{"android":"levelo://app?vid=c0e9afac-3027-4e6b-b5e9-3196c155323d","ios":"levelo://app?vid=c0e9afac-3027-4e6b-b5e9-3196c155323d"},"vehicle_type_id":"4","last_reported":1737980253,"current_range_meters":18000,"station_id":"ce4bhs12rcd13ifvqhvg","pricing_plan_id":"cebpf4jnsgd1na2vs0mg"},{"bike_id":"1a8846b4-de58-401a-91e1-0dd464e262c9","system_id":"levelo_inurba_marseille","lat":43.29096,"lon":5.38155,"is_reserved":false,"is_disabled":false,"rental_uris":{"android":"levelo://app?vid=1a8846b4-de58-401a-91e1-0dd464e262c9","ios":"levelo://app?vid=1a8846b4-de58-401a-91e1-0dd464e262c9"},"vehicle_type_id":"4","last_reported":1737980253,"current_range_meters":36800,"station_id":"ce4bh512rcd13ifvqe2g","pricing_plan_id":"cebpf4jnsgd1na2vs0mg"},{"bike_id":"06e5d0c7-e9e7-42bb-ae41-59a19f5e7e26","system_id":"levelo_inurba_marseille","lat":43.30466,"lon":5.37911,"is_reserved":false,"is_disabled":false,"rental_uris":{"android":"levelo://app?vid=06e5d0c7-e9e7-42bb-ae41-59a19f5e7e26","ios":"levelo://app?vid=06e5d0c7-e9e7-42bb-ae41-59a19f5e7e26"},"vehicle_type_id":"4","last_reported":1737980253,"current_range_meters":22000,"station_id":"ce4bgup2rcd13ifvqcn0","pricing_plan_id":"cebpf4jnsgd1na2vs0mg"},{"bike_id":"ee0b4cd5-99fe-4d06-bec7-ab86f35f9695","system_id":"levelo_inurba_marseille","lat":43.29095,"lon":5.38148,"is_reserved":false,"is_disabled":false,"rental_uris":{"android":"levelo://app?vid=ee0b4cd5-99fe-4d06-bec7-ab86f35f9695","ios":"levelo://app?vid=ee0b4cd5-99fe-4d06-bec7-ab86f35f9695"},"vehicle_type_id":"4","last_reported":1737980253,"current_range_meters":27600,"station_id":"ce4bh512rcd13ifvqe2g","pricing_plan_id":"cebpf4jnsgd1na2vs0mg"},{"bike_id":"3d98c6ce-e80d-46e8-b577-648cd8c28632","system_id":"levelo_inurba_marseille","lat":43.34699,"lon":5.34741,"is_reserved":false,"is_disabled":true,"rental_uris":{"android":"levelo://app?vid=3d98c6ce-e80d-46e8-b577-648cd8c28632","ios":"levelo://app?vid=3d98c6ce-e80d-46e8-b577-648cd8c28632"},"vehicle_type_id":"4","last_reported":1737980253,"current_range_meters":0,"station_id":"","pricing_plan_id":"cebpf4jnsgd1na2vs0mg"},{"bike_id":"a47bb96c-8b72-4f0c-b810-e2652abe0975","system_id":"levelo_inurba_marseille","lat":43.30596,"lon":5.37225,"is_reserved":false,"is_disabled":false,"rental_uris":{"android":"levelo://app?vid=a47bb96c-8b72-4f0c-b810-e2652abe0975","ios":"levelo://app?vid=a47bb96c-8b72-4f0c-b810-e2652abe0975"},"vehicle_type_id":"4","last_reported":1737980253,"current_range_meters":14800,"station_id":"ce4bgqh2rcd13ifvqc4g","pricing_plan_id":"cebpf4jnsgd1na2vs0mg"},{"bike_id":"4b780c50-e5ad-46ce-9d63-5b74ccdcbb0f","system_id":"levelo_inurba_marseille","lat":43.30887,"lon":5.37196,"is_reserved":false,"is_disabled":false,"rental_uris":{"android":"levelo://app?vid=4b780c50-e5ad-46ce-9d63-5b74ccdcbb0f","ios":"levelo://app?vid=4b780c50-e5ad-46ce-9d63-5b74ccdcbb0f"},"vehicle_type_id":"4","last_reported":1737980253,"current_range_meters":35600,"station_id":"ce4bguh2rcd13ifvqckg","pricing_plan_id":"cebpf4jnsgd1na2vs0mg"},{"bike_id":"16cba4e1-cb10-44ef-b1a1-eca95385335f","system_id":"levelo_inurba_marseille","lat":43.28421,"lon":5.34993,"is_reserved":false,"is_disabled":true,"rental_uris":{"android":"levelo://app?vid=16cba4e1-cb10-44ef-b1a1-eca95385335f","ios":"levelo://app?vid=16cba4e1-cb10-44ef-b1a1-eca95385335f"},"vehicle_type_id":"4","last_reported":1737980253,"current_range_meters":36800,"station_id":"ce4bhbh2rcd13ifvqepg","pricing_plan_id":"cebpf4jnsgd1na2vs0mg"},{"bike_id":"9c6c808c-2344-4484-b654-8a68fb115aa6","system_id":"levelo_inurba_marseille","lat":43.3112,"lon":5.36969,"is_reserved":false,"is_disabled":false,"rental_uris":{"android":"levelo://app?vid=9c6c808c-2344-4484-b654-8a68fb115aa6","ios":"levelo://app?vid=9c6c808c-2344-4484-b654-8a68fb115aa6"},"vehicle_type_id":"4","last_reported":1737980253,"current_range_meters":34000,"station_id":"","pricing_plan_id":"cebpf4jnsgd1na2vs0mg"},{"bike_id":"9307df25-cc6d-45fb-af52-7a3bcf343e82","system_id":"levelo_inurba_marseille","lat":43.26554,"lon":5.37286,"is_reserved":false,"is_disabled":false,"rental_uris":{"android":"levelo://app?vid=9307df25-cc6d-45fb-af52-7a3bcf343e82","ios":"levelo://app?vid=9307df25-cc6d-45fb-af52-7a3bcf343e82"},"vehicle_type_id":"4","last_reported":1737980253,"current_range_meters":19200,"station_id":"ce4bhg12rcd13ifvqf70","pricing_plan_id":"cebpf4jnsgd1na2vs0mg"},{"bike_id":"d2265b78-7bf7-4585-b6fe-53c4878781a9","system_id":"levelo_inurba_marseille","lat":43.24996,"lon":5.38934,"is_reserved":false,"is_disabled":false,"rental_uris":{"android":"levelo://app?vid=d2265b78-7bf7-4585-b6fe-53c4878781a9","ios":"levelo://app?vid=d2265b78-7bf7-4585-b6fe-53c4878781a9"},"vehicle_type_id":"4","last_reported":1737980253,"current_range_meters":20000,"station_id":"ce4bhgp2rcd13ifvqfd0","pricing_plan_id":"cebpf4jnsgd1na2vs0mg"},{"bike_id":"8fc5f132-29ed-47c1-bff0-bf17728d82ae","system_id":"levelo_inurba_marseille","lat":43.2939,"lon":5.37849,"is_reserved":false,"is_disabled":true,"rental_uris":{"android":"levelo://app?vid=8fc5f132-29ed-47c1-bff0-bf17728d82ae","ios":"levelo://app?vid=8fc5f132-29ed-47c1-bff0-bf17728d82ae"},"vehicle_type_id":"4","last_reported":1737980253,"current_range_meters":30000,"station_id":"ce4bgjh2rcd13ifvqbf0","pricing_plan_id":"cebpf4jnsgd1na2vs0mg"},{"bike_id":"6a19a6ad-734f-4532-8ad6-46b0065425bf","system_id":"levelo_inurba_marseille","lat":43.3206,"lon":5.41528,"is_reserved":false,"is_disabled":false,"rental_uris":{"android":"levelo://app?vid=6a19a6ad-734f-4532-8ad6-46b0065425bf","ios":"levelo://app?vid=6a19a6ad-734f-4532-8ad6-46b0065425bf"},"vehicle_type_id":"4","last_reported":1737980253,"current_range_meters":36000,"station_id":"ce4bhq92rcd13ifvqhkg","pricing_plan_id":"cebpf4jnsgd1na2vs0mg"},{"bike_id":"9e397964-d309-4436-ab90-84f2d4e03cdc","system_id":"levelo_inurba_marseille","lat":43.2974,"lon":5.37691,"is_reserved":false,"is_disabled":false,"rental_uris":{"android":"levelo://app?vid=9e397964-d309-4436-ab90-84f2d4e03cdc","ios":"levelo://app?vid=9e397964-d309-4436-ab90-84f2d4e03cdc"},"vehicle_type_id":"4","last_reported":1737980253,"current_range_meters":33200,"station_id":"ce4bgkh2rcd13ifvqbl0","pricing_plan_id":"cebpf4jnsgd1na2vs0mg"},{"bike_id":"f1ba4f23-c4b4-4e41-886c-1a1ae5cbf45d","system_id":"levelo_inurba_marseille","lat":43.28699,"lon":5.39993,"is_reserved":false,"is_disabled":false,"rental_uris":{"android":"levelo://app?vid=f1ba4f23-c4b4-4e41-886c-1a1ae5cbf45d","ios":"levelo://app?vid=f1ba4f23-c4b4-4e41-886c-1a1ae5cbf45d"},"vehicle_type_id":"4","last_reported":1737980253,"current_range_meters":20800,"station_id":"ce4bho92rcd13ifvqh3g","pricing_plan_id":"cebpf4jnsgd1na2vs0mg"},{"bike_id":"5e0ebdb4-95b3-4a04-a044-77d698835cb6","system_id":"levelo_inurba_marseille","lat":43.30451,"lon":5.38893,"is_reserved":false,"is_disabled":false,"rental_uris":{"android":"levelo://app?vid=5e0ebdb4-95b3-4a04-a044-77d698835cb6","ios":"levelo://app?vid=5e0ebdb4-95b3-4a04-a044-77d698835cb6"},"vehicle_type_id":"4","last_reported":1737980253,"current_range_meters":38800,"station_id":"ce4bgk12rcd13ifvqbi0","pricing_plan_id":"cebpf4jnsgd1na2vs0mg"},{"bike_id":"91d66d54-aabf-44b7-ac3a-355a4b9e5628","system_id":"levelo_inurba_marseille","lat":43.24001,"lon":5.37789,"is_reserved":false,"is_disabled":true,"rental_uris":{"android":"levelo://app?vid=91d66d54-aabf-44b7-ac3a-355a4b9e5628","ios":"levelo://app?vid=91d66d54-aabf-44b7-ac3a-355a4b9e5628"},"vehicle_type_id":"4","last_reported":1737980253,"current_range_meters":36800,"station_id":"","pricing_plan_id":"cebpf4jnsgd1na2vs0mg"},{"bike_id":"79cfbf55-97ec-4a5b-af3a-38bd70f71f3a","system_id":"levelo_inurba_marseille","lat":43.231937,"lon":5.355527,"is_reserved":false,"is_disabled":false,"rental_uris":{"android":"levelo://app?vid=79cfbf55-97ec-4a5b-af3a-38bd70f71f3a","ios":"levelo://app?vid=79cfbf55-97ec-4a5b-af3a-38bd70f71f3a"},"vehicle_type_id":"4","last_reported":1737980253,"current_range_meters":11600,"station_id":"ce4bhu92rcd13ifvqi70","pricing_plan_id":"cebpf4jnsgd1na2vs0mg"},{"bike_id":"b0f92b7d-88dc-46e6-9760-47b7a8a305ea","system_id":"levelo_inurba_marseille","lat":43.30305,"lon":5.36903,"is_reserved":false,"is_disabled":false,"rental_uris":{"android":"levelo://app?vid=b0f92b7d-88dc-46e6-9760-47b7a8a305ea","ios":"levelo://app?vid=b0f92b7d-88dc-46e6-9760-47b7a8a305ea"},"vehicle_type_id":"4","last_reported":1737980253,"current_range_meters":35200,"station_id":"ce4bgqh2rcd13ifvqc5g","pricing_plan_id":"cebpf4jnsgd1na2vs0mg"},{"bike_id":"7b3cbe79-55eb-4655-a151-dfe222604e2f","system_id":"levelo_inurba_marseille","lat":43.30945,"lon":5.39056,"is_reserved":false,"is_disabled":false,"rental_uris":{"android":"levelo://app?vid=7b3cbe79-55eb-4655-a151-dfe222604e2f","ios":"levelo://app?vid=7b3cbe79-55eb-4655-a151-dfe222604e2f"},"vehicle_type_id":"4","last_reported":1737980253,"current_range_meters":38400,"station_id":"ce4bgup2rcd13ifvqco0","pricing_plan_id":"cebpf4jnsgd1na2vs0mg"},{"bike_id":"16d24164-299e-4258-9525-c5ffdbd5c047","system_id":"levelo_inurba_marseille","lat":43.26205,"lon":5.37938,"is_reserved":false,"is_disabled":false,"rental_uris":{"android":"levelo://app?vid=16d24164-299e-4258-9525-c5ffdbd5c047","ios":"levelo://app?vid=16d24164-299e-4258-9525-c5ffdbd5c047"},"vehicle_type_id":"4","last_reported":1737980253,"current_range_meters":28800,"station_id":"ce4bhjp2rcd13ifvqg90","pricing_plan_id":"cebpf4jnsgd1na2vs0mg"},{"bike_id":"f4a67fd7-7ba0-462e-b321-724410a83bc3","system_id":"levelo_inurba_marseille","lat":43.2862,"lon":5.35095,"is_reserved":false,"is_disabled":false,"rental_uris":{"android":"levelo://app?vid=f4a67fd7-7ba0-462e-b321-724410a83bc3","ios":"levelo://app?vid=f4a67fd7-7ba0-462e-b321-724410a83bc3"},"vehicle_type_id":"4","last_reported":1737980253,"current_range_meters":38000,"station_id":"ce4bhch2rcd13ifvqeug","pricing_plan_id":"cebpf4jnsgd1na2vs0mg"},{"bike_id":"bdebbab0-0b00-41a7-bbc1-15b12befe968","system_id":"levelo_inurba_marseille","lat":43.24652,"lon":5.38894,"is_reserved":false,"is_disabled":false,"rental_uris":{"android":"levelo://app?vid=bdebbab0-0b00-41a7-bbc1-15b12befe968","ios":"levelo://app?vid=bdebbab0-0b00-41a7-bbc1-15b12befe968"},"vehicle_type_id":"4","last_reported":1737980253,"current_range_meters":20800,"station_id":"ce4bhg12rcd13ifvqf60","pricing_plan_id":"cebpf4jnsgd1na2vs0mg"},{"bike_id":"a531e49c-bf0e-404d-b31b-e8ddb39ea5e0","system_id":"levelo_inurba_marseille","lat":43.27804,"lon":5.40677,"is_reserved":false,"is_disabled":false,"rental_uris":{"android":"levelo://app?vid=a531e49c-bf0e-404d-b31b-e8ddb39ea5e0","ios":"levelo://app?vid=a531e49c-bf0e-404d-b31b-e8ddb39ea5e0"},"vehicle_type_id":"4","last_reported":1737980253,"current_range_meters":29600,"station_id":"ce4bhnh2rcd13ifvqgtg","pricing_plan_id":"cebpf4jnsgd1na2vs0mg"},{"bike_id":"3d64d7d2-3259-40ac-8d44-5551c7d82c8a","system_id":"levelo_inurba_marseille","lat":43.23158,"lon":5.43749,"is_reserved":false,"is_disabled":false,"rental_uris":{"android":"levelo://app?vid=3d64d7d2-3259-40ac-8d44-5551c7d82c8a","ios":"levelo://app?vid=3d64d7d2-3259-40ac-8d44-5551c7d82c8a"},"vehicle_type_id":"4","last_reported":1737980253,"current_range_meters":31200,"station_id":"ce4bhmp2rcd13ifvqgog","pricing_plan_id":"cebpf4jnsgd1na2vs0mg"},{"bike_id":"99a40d63-0529-468f-9275-84146a5d4905","system_id":"levelo_inurba_marseille","lat":43.29302,"lon":5.37466,"is_reserved":false,"is_disabled":false,"rental_uris":{"android":"levelo://app?vid=99a40d63-0529-468f-9275-84146a5d4905","ios":"levelo://app?vid=99a40d63-0529-468f-9275-84146a5d4905"},"vehicle_type_id":"4","last_reported":1737980253,"current_range_meters":31200,"station_id":"ce4bgi12rcd13ifvqb70","pricing_plan_id":"cebpf4jnsgd1na2vs0mg"},{"bike_id":"4008c5d4-accb-4981-8933-9e85f4cde128","system_id":"levelo_inurba_marseille","lat":43.232,"lon":5.35543,"is_reserved":false,"is_disabled":false,"rental_uris":{"android":"levelo://app?vid=4008c5d4-accb-4981-8933-9e85f4cde128","ios":"levelo://app?vid=4008c5d4-accb-4981-8933-9e85f4cde128"},"vehicle_type_id":"4","last_reported":1737980253,"current_range_meters":17200,"station_id":"ce4bhu92rcd13ifvqi70","pricing_plan_id":"cebpf4jnsgd1na2vs0mg"},{"bike_id":"dcdcf8d9-d314-4ea8-a5d6-60125f350259","system_id":"levelo_inurba_marseille","lat":43.29302,"lon":5.37467,"is_reserved":false,"is_disabled":false,"rental_uris":{"android":"levelo://app?vid=dcdcf8d9-d314-4ea8-a5d6-60125f350259","ios":"levelo://app?vid=dcdcf8d9-d314-4ea8-a5d6-60125f350259"},"vehicle_type_id":"4","last_reported":1737980253,"current_range_meters":10000,"station_id":"ce4bgi12rcd13ifvqb70","pricing_plan_id":"cebpf4jnsgd1na2vs0mg"},{"bike_id":"a1cb72b0-b9e9-47db-a43a-3f8a6eeed157","system_id":"levelo_inurba_marseille","lat":43.3013,"lon":5.3985,"is_reserved":false,"is_disabled":false,"rental_uris":{"android":"levelo://app?vid=a1cb72b0-b9e9-47db-a43a-3f8a6eeed157","ios":"levelo://app?vid=a1cb72b0-b9e9-47db-a43a-3f8a6eeed157"},"vehicle_type_id":"4","last_reported":1737980253,"current_range_meters":12000,"station_id":"ce4bh0h2rcd13ifvqd40","pricing_plan_id":"cebpf4jnsgd1na2vs0mg"},{"bike_id":"74b98b9d-33c5-4daa-8644-f469fbfdd6eb","system_id":"levelo_inurba_marseille","lat":43.25863,"lon":5.39903,"is_reserved":false,"is_disabled":false,"rental_uris":{"android":"levelo://app?vid=74b98b9d-33c5-4daa-8644-f469fbfdd6eb","ios":"levelo://app?vid=74b98b9d-33c5-4daa-8644-f469fbfdd6eb"},"vehicle_type_id":"4","last_reported":1737980253,"current_range_meters":38400,"station_id":"ce4bhl92rcd13ifvqghg","pricing_plan_id":"cebpf4jnsgd1na2vs0mg"},{"bike_id":"af27571c-dbd9-4da4-85f4-96f3d0a1f3af","system_id":"levelo_inurba_marseille","lat":43.25001,"lon":5.38925,"is_reserved":false,"is_disabled":false,"rental_uris":{"android":"levelo://app?vid=af27571c-dbd9-4da4-85f4-96f3d0a1f3af","ios":"levelo://app?vid=af27571c-dbd9-4da4-85f4-96f3d0a1f3af"},"vehicle_type_id":"4","last_reported":1737980253,"current_range_meters":38800,"station_id":"ce4bhgp2rcd13ifvqfd0","pricing_plan_id":"cebpf4jnsgd1na2vs0mg"},{"bike_id":"caa63997-8adb-4dd3-b06a-51a61f12381a","system_id":"levelo_inurba_marseille","lat":43.29543,"lon":5.37506,"is_reserved":false,"is_disabled":false,"rental_uris":{"android":"levelo://app?vid=caa63997-8adb-4dd3-b06a-51a61f12381a","ios":"levelo://app?vid=caa63997-8adb-4dd3-b06a-51a61f12381a"},"vehicle_type_id":"4","last_reported":1737980253,"current_range_meters":24000,"station_id":"ce4bgkp2rcd13ifvqbmg","pricing_plan_id":"cebpf4jnsgd1na2vs0mg"},{"bike_id":"d34327a1-f0de-4d8f-be65-c892bdcf6fdd","system_id":"levelo_inurba_marseille","lat":43.32472,"lon":5.36606,"is_reserved":false,"is_disabled":false,"rental_uris":{"android":"levelo://app?vid=d34327a1-f0de-4d8f-be65-c892bdcf6fdd","ios":"levelo://app?vid=d34327a1-f0de-4d8f-be65-c892bdcf6fdd"},"vehicle_type_id":"4","last_reported":1737980253,"current_range_meters":34000,"station_id":"ce4bhs12rcd13ifvqhvg","pricing_plan_id":"cebpf4jnsgd1na2vs0mg"},{"bike_id":"a24aa709-849e-4e51-91f9-6e9c6e4fae7b","system_id":"levelo_inurba_marseille","lat":43.30459,"lon":5.37897,"is_reserved":false,"is_disabled":false,"rental_uris":{"android":"levelo://app?vid=a24aa709-849e-4e51-91f9-6e9c6e4fae7b","ios":"levelo://app?vid=a24aa709-849e-4e51-91f9-6e9c6e4fae7b"},