{"last_updated":1771377318,"ttl":60,"version":"2.2","data":{"bikes":[{"bike_id":"2d275d23-4be0-4f60-8afe-5ec8437ecbe1","system_id":"levelo_inurba_marseille","lat":43.29773,"lon":5.39375,"is_reserved":false,"is_disabled":false,"rental_uris":{"android":"levelo://app?vid=2d275d23-4be0-4f60-8afe-5ec8437ecbe1","ios":"levelo://app?vid=2d275d23-4be0-4f60-8afe-5ec8437ecbe1"},"vehicle_type_id":"4","last_reported":1771377319,"current_range_meters":3600,"station_id":"chh1huq6cuj3fo74tm60","pricing_plan_id":"cebpf4jnsgd1na2vs0mg"},{"bike_id":"309b0a44-ab76-49d0-9ee9-8ca904eef1d2","system_id":"levelo_inurba_marseille","lat":43.2495,"lon":5.405,"is_reserved":false,"is_disabled":false,"rental_uris":{"android":"levelo://app?vid=309b0a44-ab76-49d0-9ee9-8ca904eef1d2","ios":"levelo://app?vid=309b0a44-ab76-49d0-9ee9-8ca904eef1d2"},"vehicle_type_id":"4","last_reported":1771377319,"current_range_meters":28400,"station_id":"st_d2ngiaodas8pm72gd1h0","pricing_plan_id":"cebpf4jnsgd1na2vs0mg"},{"bike_id":"fc6e0da8-be36-453b-b34d-2ebdf4a1fe51","system_id":"levelo_inurba_marseille","lat":43.28845,"lon":5.39346,"is_reserved":false,"is_disabled":false,"rental_uris":{"android":"levelo://app?vid=fc6e0da8-be36-453b-b34d-2ebdf4a1fe51","ios":"levelo://app?vid=fc6e0da8-be36-453b-b34d-2ebdf4a1fe51"},"vehicle_type_id":"4","last_reported":1771377319,"current_range_meters":19600,"station_id":"ce4bh2p2rcd13ifvqdi0","pricing_plan_id":"cebpf4jnsgd1na2vs0mg"},{"bike_id":"0c7c028c-0e46-43b8-97f6-4a5c6d1920d0","system_id":"levelo_inurba_marseille","lat":43.30985,"lon":5.36701,"is_reserved":false,"is_disabled":false,"rental_uris":{"android":"levelo://app?vid=0c7c028c-0e46-43b8-97f6-4a5c6d1920d0","ios":"levelo://app?vid=0c7c028c-0e46-43b8-97f6-4a5c6d1920d0"},"vehicle_type_id":"4","last_reported":1771377319,"current_range_meters":12400,"station_id":"","pricing_plan_id":"cebpf4jnsgd1na2vs0mg"},{"bike_id":"66dea99b-8b05-461d-bb84-931a1f53968f","system_id":"levelo_inurba_marseille","lat":43.33159,"lon":5.37702,"is_reserved":false,"is_disabled":false,"rental_uris":{"android":"levelo://app?vid=66dea99b-8b05-461d-bb84-931a1f53968f","ios":"levelo://app?vid=66dea99b-8b05-461d-bb84-931a1f53968f"},"vehicle_type_id":"4","last_reported":1771377319,"current_range_meters":27200,"station_id":"st_d46cu089ee8s73dldbu0","pricing_plan_id":"cebpf4jnsgd1na2vs0mg"},{"bike_id":"4dfc7ed7-ea47-4520-ac92-9380a55de553","system_id":"levelo_inurba_marseille","lat":43.26229,"lon":5.40453,"is_reserved":false,"is_disabled":false,"rental_uris":{"android":"levelo://app?vid=4dfc7ed7-ea47-4520-ac92-9380a55de553","ios":"levelo://app?vid=4dfc7ed7-ea47-4520-ac92-9380a55de553"},"vehicle_type_id":"4","last_reported":1771377319,"current_range_meters":19200,"station_id":"ce4bhmh2rcd13ifvqgmg","pricing_plan_id":"cebpf4jnsgd1na2vs0mg"},{"bike_id":"fd7bc336-f48b-43c0-9ecd-b0d8cc0adbfb","system_id":"levelo_inurba_marseille","lat":43.30439,"lon":5.38889,"is_reserved":false,"is_disabled":false,"rental_uris":{"android":"levelo://app?vid=fd7bc336-f48b-43c0-9ecd-b0d8cc0adbfb","ios":"levelo://app?vid=fd7bc336-f48b-43c0-9ecd-b0d8cc0adbfb"},"vehicle_type_id":"4","last_reported":1771377319,"current_range_meters":20400,"station_id":"ce4bgk12rcd13ifvqbi0","pricing_plan_id":"cebpf4jnsgd1na2vs0mg"},{"bike_id":"93571241-3ce2-483b-b0e2-2dc942afc192","system_id":"levelo_inurba_marseille","lat":43.24568,"lon":5.39532,"is_reserved":false,"is_disabled":false,"rental_uris":{"android":"levelo://app?vid=93571241-3ce2-483b-b0e2-2dc942afc192","ios":"levelo://app?vid=93571241-3ce2-483b-b0e2-2dc942afc192"},"vehicle_type_id":"4","last_reported":1771377319,"current_range_meters":30400,"station_id":"ce4bhlp2rcd13ifvqgjg","pricing_plan_id":"cebpf4jnsgd1na2vs0mg"},{"bike_id":"96830d73-195a-4d1c-b5d1-3567c10896ac","system_id":"levelo_inurba_marseille","lat":43.2654,"lon":5.37288,"is_reserved":false,"is_disabled":true,"rental_uris":{"android":"levelo://app?vid=96830d73-195a-4d1c-b5d1-3567c10896ac","ios":"levelo://app?vid=96830d73-195a-4d1c-b5d1-3567c10896ac"},"vehicle_type_id":"4","last_reported":1771377319,"current_range_meters":36800,"station_id":"ce4bhg12rcd13ifvqf70","pricing_plan_id":"cebpf4jnsgd1na2vs0mg"},{"bike_id":"44be5525-94c5-4937-bfc4-8e39e7488243","system_id":"levelo_inurba_marseille","lat":43.26071,"lon":5.39398,"is_reserved":false,"is_disabled":false,"rental_uris":{"android":"levelo://app?vid=44be5525-94c5-4937-bfc4-8e39e7488243","ios":"levelo://app?vid=44be5525-94c5-4937-bfc4-8e39e7488243"},"vehicle_type_id":"4","last_reported":1771377319,"current_range_meters":8800,"station_id":"","pricing_plan_id":"cebpf4jnsgd1na2vs0mg"},{"bike_id":"b4f2df95-f3c5-4971-993c-18c7f681ff12","system_id":"levelo_inurba_marseille","lat":43.304207,"lon":5.412811,"is_reserved":false,"is_disabled":false,"rental_uris":{"android":"levelo://app?vid=b4f2df95-f3c5-4971-993c-18c7f681ff12","ios":"levelo://app?vid=b4f2df95-f3c5-4971-993c-18c7f681ff12"},"vehicle_type_id":"4","last_reported":1771377319,"current_range_meters":6000,"station_id":"ce4bhop2rcd13ifvqh8g","pricing_plan_id":"cebpf4jnsgd1na2vs0mg"},{"bike_id":"2071c944-6a9a-48f2-805c-909a03c21956","system_id":"levelo_inurba_marseille","lat":43.2886,"lon":5.35833,"is_reserved":false,"is_disabled":false,"rental_uris":{"android":"levelo://app?vid=2071c944-6a9a-48f2-805c-909a03c21956","ios":"levelo://app?vid=2071c944-6a9a-48f2-805c-909a03c21956"},"vehicle_type_id":"4","last_reported":1771377319,"current_range_meters":31200,"station_id":"ce4bhb12rcd13ifvqem0","pricing_plan_id":"cebpf4jnsgd1na2vs0mg"},{"bike_id":"cdd29356-42a2-4375-9d1e-e3e6fba964ab","system_id":"levelo_inurba_marseille","lat":43.28504,"lon":5.48331,"is_reserved":false,"is_disabled":false,"rental_uris":{"android":"levelo://app?vid=cdd29356-42a2-4375-9d1e-e3e6fba964ab","ios":"levelo://app?vid=cdd29356-42a2-4375-9d1e-e3e6fba964ab"},"vehicle_type_id":"4","last_reported":1771377319,"current_range_meters":39200,"station_id":"","pricing_plan_id":"cebpf4jnsgd1na2vs0mg"},{"bike_id":"e3a89346-35de-486b-9bf7-8a462aca388c","system_id":"levelo_inurba_marseille","lat":43.3013,"lon":5.38767,"is_reserved":false,"is_disabled":false,"rental_uris":{"android":"levelo://app?vid=e3a89346-35de-486b-9bf7-8a462aca388c","ios":"levelo://app?vid=e3a89346-35de-486b-9bf7-8a462aca388c"},"vehicle_type_id":"4","last_reported":1771377319,"current_range_meters":7200,"station_id":"ce4bghh2rcd13ifvqb60","pricing_plan_id":"cebpf4jnsgd1na2vs0mg"},{"bike_id":"16dd751b-59b2-4ebf-9186-857987193d47","system_id":"levelo_inurba_marseille","lat":43.24386,"lon":5.37074,"is_reserved":false,"is_disabled":false,"rental_uris":{"android":"levelo://app?vid=16dd751b-59b2-4ebf-9186-857987193d47","ios":"levelo://app?vid=16dd751b-59b2-4ebf-9186-857987193d47"},"vehicle_type_id":"4","last_reported":1771377319,"current_range_meters":9600,"station_id":"ce4bhhh2rcd13ifvqfk0","pricing_plan_id":"cebpf4jnsgd1na2vs0mg"},{"bike_id":"e9a7bd75-9251-4501-b1d3-01ce0f9adda1","system_id":"levelo_inurba_marseille","lat":43.29727,"lon":5.36596,"is_reserved":false,"is_disabled":false,"rental_uris":{"android":"levelo://app?vid=e9a7bd75-9251-4501-b1d3-01ce0f9adda1","ios":"levelo://app?vid=e9a7bd75-9251-4501-b1d3-01ce0f9adda1"},"vehicle_type_id":"4","last_reported":1771377319,"current_range_meters":36400,"station_id":"ce4bgn12rcd13ifvqbt0","pricing_plan_id":"cebpf4jnsgd1na2vs0mg"},{"bike_id":"7b59dc97-a75b-4eb5-8500-52a4fec09ec5","system_id":"levelo_inurba_marseille","lat":43.29564,"lon":5.39984,"is_reserved":false,"is_disabled":false,"rental_uris":{"android":"levelo://app?vid=7b59dc97-a75b-4eb5-8500-52a4fec09ec5","ios":"levelo://app?vid=7b59dc97-a75b-4eb5-8500-52a4fec09ec5"},"vehicle_type_id":"4","last_reported":1771377319,"current_range_meters":8000,"station_id":"ce4bh312rcd13ifvqdj0","pricing_plan_id":"cebpf4jnsgd1na2vs0mg"},{"bike_id":"9b3f4436-6ff7-46ee-86c3-b2312e45451a","system_id":"levelo_inurba_marseille","lat":43.29531,"lon":5.39041,"is_reserved":false,"is_disabled":false,"rental_uris":{"android":"levelo://app?vid=9b3f4436-6ff7-46ee-86c3-b2312e45451a","ios":"levelo://app?vid=9b3f4436-6ff7-46ee-86c3-b2312e45451a"},"vehicle_type_id":"4","last_reported":1771377319,"current_range_meters":35200,"station_id":"ce4bh3p2rcd13ifvqdp0","pricing_plan_id":"cebpf4jnsgd1na2vs0mg"},{"bike_id":"902ce958-4a52-4bfa-8f38-054b446ca2f5","system_id":"levelo_inurba_marseille","lat":43.28918,"lon":5.36409,"is_reserved":false,"is_disabled":false,"rental_uris":{"android":"levelo://app?vid=902ce958-4a52-4bfa-8f38-054b446ca2f5","ios":"levelo://app?vid=902ce958-4a52-4bfa-8f38-054b446ca2f5"},"vehicle_type_id":"4","last_reported":1771377319,"current_range_meters":38800,"station_id":"ce4bhc92rcd13ifvqetg","pricing_plan_id":"cebpf4jnsgd1na2vs0mg"},{"bike_id":"08a55b10-5c78-407d-8ce6-9635b0ff26ef","system_id":"levelo_inurba_marseille","lat":43.29717,"lon":5.3661,"is_reserved":false,"is_disabled":false,"rental_uris":{"android":"levelo://app?vid=08a55b10-5c78-407d-8ce6-9635b0ff26ef","ios":"levelo://app?vid=08a55b10-5c78-407d-8ce6-9635b0ff26ef"},"vehicle_type_id":"4","last_reported":1771377319,"current_range_meters":19600,"station_id":"ce4bgn12rcd13ifvqbt0","pricing_plan_id":"cebpf4jnsgd1na2vs0mg"},{"bike_id":"4ef61a11-57f1-4715-82a3-048e8c11986c","system_id":"levelo_inurba_marseille","lat":43.29803,"lon":5.40407,"is_reserved":false,"is_disabled":false,"rental_uris":{"android":"levelo://app?vid=4ef61a11-57f1-4715-82a3-048e8c11986c","ios":"levelo://app?vid=4ef61a11-57f1-4715-82a3-048e8c11986c"},"vehicle_type_id":"4","last_reported":1771377319,"current_range_meters":39200,"station_id":"ce4bh112rcd13ifvqd90","pricing_plan_id":"cebpf4jnsgd1na2vs0mg"},{"bike_id":"26993fd5-f2f8-494c-9f6a-3a6355bfa6e8","system_id":"levelo_inurba_marseille","lat":43.28379,"lon":5.38118,"is_reserved":false,"is_disabled":false,"rental_uris":{"android":"levelo://app?vid=26993fd5-f2f8-494c-9f6a-3a6355bfa6e8","ios":"levelo://app?vid=26993fd5-f2f8-494c-9f6a-3a6355bfa6e8"},"vehicle_type_id":"4","last_reported":1771377319,"current_range_meters":40000,"station_id":"ce4bh412rcd13ifvqdr0","pricing_plan_id":"cebpf4jnsgd1na2vs0mg"},{"bike_id":"4c9c63a9-1aac-443d-96dc-e462275ea98b","system_id":"levelo_inurba_marseille","lat":43.31892,"lon":5.40727,"is_reserved":false,"is_disabled":false,"rental_uris":{"android":"levelo://app?vid=4c9c63a9-1aac-443d-96dc-e462275ea98b","ios":"levelo://app?vid=4c9c63a9-1aac-443d-96dc-e462275ea98b"},"vehicle_type_id":"4","last_reported":1771377319,"current_range_meters":30000,"station_id":"ce4bhq12rcd13ifvqhig","pricing_plan_id":"cebpf4jnsgd1na2vs0mg"},{"bike_id":"df5ddd2d-746d-4434-9a80-f4ffc1d740c5","system_id":"levelo_inurba_marseille","lat":43.29522,"lon":5.394009,"is_reserved":false,"is_disabled":false,"rental_uris":{"android":"levelo://app?vid=df5ddd2d-746d-4434-9a80-f4ffc1d740c5","ios":"levelo://app?vid=df5ddd2d-746d-4434-9a80-f4ffc1d740c5"},"vehicle_type_id":"4","last_reported":1771377319,"current_range_meters":8000,"station_id":"ce4bh292rcd13ifvqdf0","pricing_plan_id":"cebpf4jnsgd1na2vs0mg"},{"bike_id":"ebc1fe8f-cccb-4fda-8389-ae946462daf3","system_id":"levelo_inurba_marseille","lat":43.28935,"lon":5.3664,"is_reserved":false,"is_disabled":false,"rental_uris":{"android":"levelo://app?vid=ebc1fe8f-cccb-4fda-8389-ae946462daf3","ios":"levelo://app?vid=ebc1fe8f-cccb-4fda-8389-ae946462daf3"},"vehicle_type_id":"4","last_reported":1771377319,"current_range_meters":40000,"station_id":"ce4bhap2rcd13ifvqek0","pricing_plan_id":"cebpf4jnsgd1na2vs0mg"},{"bike_id":"cef8eccc-2bb4-489a-ae17-24a0ef950a36","system_id":"levelo_inurba_marseille","lat":43.27818,"lon":5.40715,"is_reserved":false,"is_disabled":false,"rental_uris":{"android":"levelo://app?vid=cef8eccc-2bb4-489a-ae17-24a0ef950a36","ios":"levelo://app?vid=cef8eccc-2bb4-489a-ae17-24a0ef950a36"},"vehicle_type_id":"4","last_reported":1771377319,"current_range_meters":28800,"station_id":"ce4bhnh2rcd13ifvqgtg","pricing_plan_id":"cebpf4jnsgd1na2vs0mg"},{"bike_id":"ec6a68b8-7a17-408c-aac1-d5c6d6c98f44","system_id":"levelo_inurba_marseille","lat":43.29192,"lon":5.39323,"is_reserved":false,"is_disabled":false,"rental_uris":{"android":"levelo://app?vid=ec6a68b8-7a17-408c-aac1-d5c6d6c98f44","ios":"levelo://app?vid=ec6a68b8-7a17-408c-aac1-d5c6d6c98f44"},"vehicle_type_id":"4","last_reported":1771377319,"current_range_meters":33200,"station_id":"ce4bh192rcd13ifvqdd0","pricing_plan_id":"cebpf4jnsgd1na2vs0mg"},{"bike_id":"3a85950b-f985-4998-b12d-726f9c799cbf","system_id":"levelo_inurba_marseille","lat":43.28852,"lon":5.39319,"is_reserved":false,"is_disabled":false,"rental_uris":{"android":"levelo://app?vid=3a85950b-f985-4998-b12d-726f9c799cbf","ios":"levelo://app?vid=3a85950b-f985-4998-b12d-726f9c799cbf"},"vehicle_type_id":"4","last_reported":1771377319,"current_range_meters":38400,"station_id":"ce4bh2p2rcd13ifvqdi0","pricing_plan_id":"cebpf4jnsgd1na2vs0mg"},{"bike_id":"d6f4df98-5e54-449c-a7df-aec09152c337","system_id":"levelo_inurba_marseille","lat":43.29539,"lon":5.39403,"is_reserved":false,"is_disabled":false,"rental_uris":{"android":"levelo://app?vid=d6f4df98-5e54-449c-a7df-aec09152c337","ios":"levelo://app?vid=d6f4df98-5e54-449c-a7df-aec09152c337"},"vehicle_type_id":"4","last_reported":1771377319,"current_range_meters":25600,"station_id":"ce4bh292rcd13ifvqdf0","pricing_plan_id":"cebpf4jnsgd1na2vs0mg"},{"bike_id":"15dc34ac-ef1a-4c03-8dd0-29cc37e201f8","system_id":"levelo_inurba_marseille","lat":43.297042,"lon":5.372774,"is_reserved":false,"is_disabled":false,"rental_uris":{"android":"levelo://app?vid=15dc34ac-ef1a-4c03-8dd0-29cc37e201f8","ios":"levelo://app?vid=15dc34ac-ef1a-4c03-8dd0-29cc37e201f8"},"vehicle_type_id":"4","last_reported":1771377319,"current_range_meters":38800,"station_id":"ce4bgk12rcd13ifvqbj0","pricing_plan_id":"cebpf4jnsgd1na2vs0mg"},{"bike_id":"eaccf6c5-a5cb-428b-a3b8-97ba12fbf9df","system_id":"levelo_inurba_marseille","lat":43.296073,"lon":5.380972,"is_reserved":false,"is_disabled":false,"rental_uris":{"android":"levelo://app?vid=eaccf6c5-a5cb-428b-a3b8-97ba12fbf9df","ios":"levelo://app?vid=eaccf6c5-a5cb-428b-a3b8-97ba12fbf9df"},"vehicle_type_id":"4","last_reported":1771377319,"current_range_meters":34000,"station_id":"ce4bgl12rcd13ifvqbo0","pricing_plan_id":"cebpf4jnsgd1na2vs0mg"},{"bike_id":"d468cd0f-701c-4860-9b7b-fbbeac3a0152","system_id":"levelo_inurba_marseille","lat":43.25102,"lon":5.40343,"is_reserved":false,"is_disabled":false,"rental_uris":{"android":"levelo://app?vid=d468cd0f-701c-4860-9b7b-fbbeac3a0152","ios":"levelo://app?vid=d468cd0f-701c-4860-9b7b-fbbeac3a0152"},"vehicle_type_id":"4","last_reported":1771377319,"current_range_meters":36800,"station_id":"ce4bhlh2rcd13ifvqgig","pricing_plan_id":"cebpf4jnsgd1na2vs0mg"},{"bike_id":"6aecd2f5-0c9c-4215-9ffe-07ba828c1eb6","system_id":"levelo_inurba_marseille","lat":43.28602,"lon":5.39882,"is_reserved":false,"is_disabled":false,"rental_uris":{"android":"levelo://app?vid=6aecd2f5-0c9c-4215-9ffe-07ba828c1eb6","ios":"levelo://app?vid=6aecd2f5-0c9c-4215-9ffe-07ba828c1eb6"},"vehicle_type_id":"4","last_reported":1771377319,"current_range_meters":20000,"station_id":"st_d4a7ka997mjs738ck50g","pricing_plan_id":"cebpf4jnsgd1na2vs0mg"},{"bike_id":"656445cb-d1cf-47cb-b754-ce559c39a3fb","system_id":"levelo_inurba_marseille","lat":43.29284,"lon":5.40121,"is_reserved":false,"is_disabled":false,"rental_uris":{"android":"levelo://app?vid=656445cb-d1cf-47cb-b754-ce559c39a3fb","ios":"levelo://app?vid=656445cb-d1cf-47cb-b754-ce559c39a3fb"},"vehicle_type_id":"4","last_reported":1771377319,"current_range_meters":16400,"station_id":"ce4bh312rcd13ifvqdk0","pricing_plan_id":"cebpf4jnsgd1na2vs0mg"},{"bike_id":"c4126daa-b85d-4d6c-8d70-99bceedc036d","system_id":"levelo_inurba_marseille","lat":43.3025,"lon":5.40045,"is_reserved":false,"is_disabled":false,"rental_uris":{"android":"levelo://app?vid=c4126daa-b85d-4d6c-8d70-99bceedc036d","ios":"levelo://app?vid=c4126daa-b85d-4d6c-8d70-99bceedc036d"},"vehicle_type_id":"4","last_reported":1771377319,"current_range_meters":40000,"station_id":"ce4bgvh2rcd13ifvqcs0","pricing_plan_id":"cebpf4jnsgd1na2vs0mg"},{"bike_id":"78a3bf56-7d8b-40e0-98b9-f289a7df2739","system_id":"levelo_inurba_marseille","lat":43.28449,"lon":5.35885,"is_reserved":false,"is_disabled":false,"rental_uris":{"android":"levelo://app?vid=78a3bf56-7d8b-40e0-98b9-f289a7df2739","ios":"levelo://app?vid=78a3bf56-7d8b-40e0-98b9-f289a7df2739"},"vehicle_type_id":"4","last_reported":1771377319,"current_range_meters":20400,"station_id":"ce4bhah2rcd13ifvqei0","pricing_plan_id":"cebpf4jnsgd1na2vs0mg"},{"bike_id":"aee064bb-9edb-4e05-a554-5840a283de07","system_id":"levelo_inurba_marseille","lat":43.3108,"lon":5.42442,"is_reserved":false,"is_disabled":false,"rental_uris":{"android":"levelo://app?vid=aee064bb-9edb-4e05-a554-5840a283de07","ios":"levelo://app?vid=aee064bb-9edb-4e05-a554-5840a283de07"},"vehicle_type_id":"4","last_reported":1771377319,"current_range_meters":28000,"station_id":"ce4bhp92rcd13ifvqhag","pricing_plan_id":"cebpf4jnsgd1na2vs0mg"},{"bike_id":"0ca35932-59ff-4f5d-8845-42abdc10eb53","system_id":"levelo_inurba_marseille","lat":43.26497,"lon":5.39577,"is_reserved":false,"is_disabled":false,"rental_uris":{"android":"levelo://app?vid=0ca35932-59ff-4f5d-8845-42abdc10eb53","ios":"levelo://app?vid=0ca35932-59ff-4f5d-8845-42abdc10eb53"},"vehicle_type_id":"4","last_reported":1771377319,"current_range_meters":35200,"station_id":"ce4bhi12rcd13ifvqfq0","pricing_plan_id":"cebpf4jnsgd1na2vs0mg"},{"bike_id":"39cf8a48-4199-476e-99d4-e98b2b860414","system_id":"levelo_inurba_marseille","lat":43.311172,"lon":5.37774,"is_reserved":false,"is_disabled":true,"rental_uris":{"android":"levelo://app?vid=39cf8a48-4199-476e-99d4-e98b2b860414","ios":"levelo://app?vid=39cf8a48-4199-476e-99d4-e98b2b860414"},"vehicle_type_id":"4","last_reported":1771377319,"current_range_meters":0,"station_id":"ce4bgt92rcd13ifvqcg0","pricing_plan_id":"cebpf4jnsgd1na2vs0mg"},{"bike_id":"0648dcc6-c7af-4d75-9f1b-4e8d1c3920a3","system_id":"levelo_inurba_marseille","lat":43.28571,"lon":5.39506,"is_reserved":false,"is_disabled":true,"rental_uris":{"android":"levelo://app?vid=0648dcc6-c7af-4d75-9f1b-4e8d1c3920a3","ios":"levelo://app?vid=0648dcc6-c7af-4d75-9f1b-4e8d1c3920a3"},"vehicle_type_id":"4","last_reported":1771377319,"current_range_meters":19600,"station_id":"ce4bh292rcd13ifvqdg0","pricing_plan_id":"cebpf4jnsgd1na2vs0mg"},{"bike_id":"4140b27e-32a2-4fdb-ae81-6f28bbdff6a7","system_id":"levelo_inurba_marseille","lat":43.28847,"lon":5.35854,"is_reserved":false,"is_disabled":false,"rental_uris":{"android":"levelo://app?vid=4140b27e-32a2-4fdb-ae81-6f28bbdff6a7","ios":"levelo://app?vid=4140b27e-32a2-4fdb-ae81-6f28bbdff6a7"},"vehicle_type_id":"4","last_reported":1771377319,"current_range_meters":36800,"station_id":"ce4bhb12rcd13ifvqem0","pricing_plan_id":"cebpf4jnsgd1na2vs0mg"},{"bike_id":"a742de41-0c1d-407f-b37e-839a8b323c7f","system_id":"levelo_inurba_marseille","lat":43.31216,"lon":5.36872,"is_reserved":false,"is_disabled":false,"rental_uris":{"android":"levelo://app?vid=a742de41-0c1d-407f-b37e-839a8b323c7f","ios":"levelo://app?vid=a742de41-0c1d-407f-b37e-839a8b323c7f"},"vehicle_type_id":"4","last_reported":1771377319,"current_range_meters":14800,"station_id":"ce4bgl92rcd13ifvqbq0","pricing_plan_id":"cebpf4jnsgd1na2vs0mg"},{"bike_id":"45087232-be9b-4c05-a4ad-56a14a6c14c2","system_id":"levelo_inurba_marseille","lat":43.292224,"lon":5.360766,"is_reserved":false,"is_disabled":false,"rental_uris":{"android":"levelo://app?vid=45087232-be9b-4c05-a4ad-56a14a6c14c2","ios":"levelo://app?vid=45087232-be9b-4c05-a4ad-56a14a6c14c2"},"vehicle_type_id":"4","last_reported":1771377319,"current_range_meters":39200,"station_id":"ce4bhbh2rcd13ifvqeqg","pricing_plan_id":"cebpf4jnsgd1na2vs0mg"},{"bike_id":"d3c1daa6-ec20-443d-b860-709be12c1a78","system_id":"levelo_inurba_marseille","lat":43.251075,"lon":5.403266,"is_reserved":false,"is_disabled":false,"rental_uris":{"android":"levelo://app?vid=d3c1daa6-ec20-443d-b860-709be12c1a78","ios":"levelo://app?vid=d3c1daa6-ec20-443d-b860-709be12c1a78"},"vehicle_type_id":"4","last_reported":1771377319,"current_range_meters":28800,"station_id":"ce4bhlh2rcd13ifvqgig","pricing_plan_id":"cebpf4jnsgd1na2vs0mg"},{"bike_id":"2d183292-ed24-4184-af82-0d590412552b","system_id":"levelo_inurba_marseille","lat":43.30313,"lon":5.36873,"is_reserved":false,"is_disabled":false,"rental_uris":{"android":"levelo://app?vid=2d183292-ed24-4184-af82-0d590412552b","ios":"levelo://app?vid=2d183292-ed24-4184-af82-0d590412552b"},"vehicle_type_id":"4","last_reported":1771377319,"current_range_meters":40000,"station_id":"ce4bgqh2rcd13ifvqc5g","pricing_plan_id":"cebpf4jnsgd1na2vs0mg"},{"bike_id":"173c3a26-5487-49cb-aeb6-b4b41e58ef05","system_id":"levelo_inurba_marseille","lat":43.24667,"lon":5.38147,"is_reserved":false,"is_disabled":false,"rental_uris":{"android":"levelo://app?vid=173c3a26-5487-49cb-aeb6-b4b41e58ef05","ios":"levelo://app?vid=173c3a26-5487-49cb-aeb6-b4b41e58ef05"},"vehicle_type_id":"4","last_reported":1771377319,"current_range_meters":18000,"station_id":"ce4bhih2rcd13ifvqfr0","pricing_plan_id":"cebpf4jnsgd1na2vs0mg"},{"bike_id":"25ec7d2f-1fec-4d3e-9fb6-9e097a90f7e3","system_id":"levelo_inurba_marseille","lat":43.26375,"lon":5.41068,"is_reserved":false,"is_disabled":false,"rental_uris":{"android":"levelo://app?vid=25ec7d2f-1fec-4d3e-9fb6-9e097a90f7e3","ios":"levelo://app?vid=25ec7d2f-1fec-4d3e-9fb6-9e097a90f7e3"},"vehicle_type_id":"4","last_reported":1771377319,"current_range_meters":4000,"station_id":"st_d4e5ca6na9uc73bfl5fg","pricing_plan_id":"cebpf4jnsgd1na2vs0mg"},{"bike_id":"0609fbde-3771-4d49-8f3d-2d5f692a13a7","system_id":"levelo_inurba_marseille","lat":43.2649,"lon":5.39554,"is_reserved":false,"is_disabled":false,"rental_uris":{"android":"levelo://app?vid=0609fbde-3771-4d49-8f3d-2d5f692a13a7","ios":"levelo://app?vid=0609fbde-3771-4d49-8f3d-2d5f692a13a7"},"vehicle_type_id":"4","last_reported":1771377319,"current_range_meters":34000,"station_id":"ce4bhi12rcd13ifvqfq0","pricing_plan_id":"cebpf4jnsgd1na2vs0mg"},{"bike_id":"60b397e1-228c-4834-8878-ea07c6f089e6","system_id":"levelo_inurba_marseille","lat":43.26066,"lon":5.39394,"is_reserved":false,"is_disabled":true,"rental_uris":{"android":"levelo://app?vid=60b397e1-228c-4834-8878-ea07c6f089e6","ios":"levelo://app?vid=60b397e1-228c-4834-8878-ea07c6f089e6"},"vehicle_type_id":"4","last_reported":1771377319,"current_range_meters":8000,"station_id":"ce4bhh92rcd13ifvqfj0","pricing_plan_id":"cebpf4jnsgd1na2vs0mg"},{"bike_id":"c636c07e-b9fe-46fe-9ed0-ba1b459f147e","system_id":"levelo_inurba_marseille","lat":43.30151,"lon":5.39877,"is_reserved":false,"is_disabled":false,"rental_uris":{"android":"levelo://app?vid=c636c07e-b9fe-46fe-9ed0-ba1b459f147e","ios":"levelo://app?vid=c636c07e-b9fe-46fe-9ed0-ba1b459f147e"},"vehicle_type_id":"4","last_reported":1771377319,"current_range_meters":39200,"station_id":"ce4bh0h2rcd13ifvqd40","pricing_plan_id":"cebpf4jnsgd1na2vs0mg"},{"bike_id":"86701a65-ff53-4cb7-ba3f-26569e2cd869","system_id":"levelo_inurba_marseille","lat":43.24168,"lon":5.36395,"is_reserved":false,"is_disabled":false,"rental_uris":{"android":"levelo://app?vid=86701a65-ff53-4cb7-ba3f-26569e2cd869","ios":"levelo://app?vid=86701a65-ff53-4cb7-ba3f-26569e2cd869"},"vehicle_type_id":"4","last_reported":1771377319,"current_range_meters":28800,"station_id":"cpo36qri1sfpv3e86is0","pricing_plan_id":"cebpf4jnsgd1na2vs0mg"},{"bike_id":"40fcbb2e-9f90-490c-b32d-3bdfece8dc0b","system_id":"levelo_inurba_marseille","lat":43.29521,"lon":5.39408,"is_reserved":false,"is_disabled":false,"rental_uris":{"android":"levelo://app?vid=40fcbb2e-9f90-490c-b32d-3bdfece8dc0b","ios":"levelo://app?vid=40fcbb2e-9f90-490c-b32d-3bdfece8dc0b"},"vehicle_type_id":"4","last_reported":1771377319,"current_range_meters":35200,"station_id":"ce4bh292rcd13ifvqdf0","pricing_plan_id":"cebpf4jnsgd1na2vs0mg"},{"bike_id":"70fc8f99-bf28-4c37-9af0-47ec15d379c8","system_id":"levelo_inurba_marseille","lat":43.29218,"lon":5.36068,"is_reserved":false,"is_disabled":false,"rental_uris":{"android":"levelo://app?vid=70fc8f99-bf28-4c37-9af0-47ec15d379c8","ios":"levelo://app?vid=70fc8f99-bf28-4c37-9af0-47ec15d379c8"},"vehicle_type_id":"4","last_reported":1771377319,"current_range_meters":25600,"station_id":"ce4bhbh2rcd13ifvqeqg","pricing_plan_id":"cebpf4jnsgd1na2vs0mg"},{"bike_id":"f85080e2-2bc3-4070-beb0-2cccc5b02096","system_id":"levelo_inurba_marseille","lat":43.28117,"lon":5.3786,"is_reserved":false,"is_disabled":false,"rental_uris":{"android":"levelo://app?vid=f85080e2-2bc3-4070-beb0-2cccc5b02096","ios":"levelo://app?vid=f85080e2-2bc3-4070-beb0-2cccc5b02096"},"vehicle_type_id":"4","last_reported":1771377319,"current_range_meters":38000,"station_id":"ce4bha12rcd13ifvqee0","pricing_plan_id":"cebpf4jnsgd1na2vs0mg"},{"bike_id":"e4fc832a-d77a-4817-9da9-f872d04e56ba","system_id":"levelo_inurba_marseille","lat":43.3373,"lon":5.3749,"is_reserved":false,"is_disabled":false,"rental_uris":{"android":"levelo://app?vid=e4fc832a-d77a-4817-9da9-f872d04e56ba","ios":"levelo://app?vid=e4fc832a-d77a-4817-9da9-f872d04e56ba"},"vehicle_type_id":"4","last_reported":1771377319,"current_range_meters":36800,"station_id":"","pricing_plan_id":"cebpf4jnsgd1na2vs0mg"},{"bike_id":"63a32914-14c8-442d-bfbd-a4d245e790e7","system_id":"levelo_inurba_marseille","lat":43.31162,"lon":5.38709,"is_reserved":false,"is_disabled":false,"rental_uris":{"android":"levelo://app?vid=63a32914-14c8-442d-bfbd-a4d245e790e7","ios":"levelo://app?vid=63a32914-14c8-442d-bfbd-a4d245e790e7"},"vehicle_type_id":"4","last_reported":1771377319,"current_range_meters":6800,"station_id":"ce4bgv12rcd13ifvqcp0","pricing_plan_id":"cebpf4jnsgd1na2vs0mg"},{"bike_id":"23a2b56a-5248-442d-a260-0914193e9691","system_id":"levelo_inurba_marseille","lat":43.30892,"lon":5.39644,"is_reserved":false,"is_disabled":false,"rental_uris":{"android":"levelo://app?vid=23a2b56a-5248-442d-a260-0914193e9691","ios":"levelo://app?vid=23a2b56a-5248-442d-a260-0914193e9691"},"vehicle_type_id":"4","last_reported":1771377319,"current_range_meters":14800,"station_id":"ce4bh012rcd13ifvqcv0","pricing_plan_id":"cebpf4jnsgd1na2vs0mg"},{"bike_id":"7eaa80a8-edd9-4e50-a2e3-75942f7198cd","system_id":"levelo_inurba_marseille","lat":43.2927,"lon":5.40908,"is_reserved":false,"is_disabled":false,"rental_uris":{"android":"levelo://app?vid=7eaa80a8-edd9-4e50-a2e3-75942f7198cd","ios":"levelo://app?vid=7eaa80a8-edd9-4e50-a2e3-75942f7198cd"},"vehicle_type_id":"4","last_reported":1771377319,"current_range_meters":7200,"station_id":"ce4bh192rcd13ifvqdc0","pricing_plan_id":"cebpf4jnsgd1na2vs0mg"},{"bike_id":"49856911-634c-4083-8785-e9e22cd0a47b","system_id":"levelo_inurba_marseille","lat":43.29518,"lon":5.3941,"is_reserved":false,"is_disabled":false,"rental_uris":{"android":"levelo://app?vid=49856911-634c-4083-8785-e9e22cd0a47b","ios":"levelo://app?vid=49856911-634c-4083-8785-e9e22cd0a47b"},"vehicle_type_id":"4","last_reported":1771377319,"current_range_meters":6000,"station_id":"ce4bh292rcd13ifvqdf0","pricing_plan_id":"cebpf4jnsgd1na2vs0mg"},{"bike_id":"b8ac3d0c-3f3d-4727-91b6-27872b8dd6fb","system_id":"levelo_inurba_marseille","lat":43.29489,"lon":5.43311,"is_reserved":false,"is_disabled":true,"rental_uris":{"android":"levelo://app?vid=b8ac3d0c-3f3d-4727-91b6-27872b8dd6fb","ios":"levelo://app?vid=b8ac3d0c-3f3d-4727-91b6-27872b8dd6fb"},"vehicle_type_id":"4","last_reported":1771377319,"current_range_meters":0,"station_id":"st_d3j5ugp08ojc73fj9d10","pricing_plan_id":"cebpf4jnsgd1na2vs0mg"},{"bike_id":"04be899b-2bf3-41a7-943d-471f7537ff7e","system_id":"levelo_inurba_marseille","lat":43.31058,"lon":5.42466,"is_reserved":false,"is_disabled":false,"rental_uris":{"android":"levelo://app?vid=04be899b-2bf3-41a7-943d-471f7537ff7e","ios":"levelo://app?vid=04be899b-2bf3-41a7-943d-471f7537ff7e"},"vehicle_type_id":"4","last_reported":1771377319,"current_range_meters":38800,"station_id":"ce4bhp92rcd13ifvqhag","pricing_plan_id":"cebpf4jnsgd1na2vs0mg"},{"bike_id":"75782291-3ff1-4000-9f98-1b9a4245171a","system_id":"levelo_inurba_marseille","lat":43.27492,"lon":5.42446,"is_reserved":false,"is_disabled":false,"rental_uris":{"android":"levelo://app?vid=75782291-3ff1-4000-9f98-1b9a4245171a","ios":"levelo://app?vid=75782291-3ff1-4000-9f98-1b9a4245171a"},"vehicle_type_id":"4","last_reported":1771377319,"current_range_meters":32000,"station_id":"ce4bhn92rcd13ifvqgrg","pricing_plan_id":"cebpf4jnsgd1na2vs0mg"},{"bike_id":"3478dd0d-ea16-4f79-8090-13194be78ddb","system_id":"levelo_inurba_marseille","lat":43.28859,"lon":5.39349,"is_reserved":false,"is_disabled":false,"rental_uris":{"android":"levelo://app?vid=3478dd0d-ea16-4f79-8090-13194be78ddb","ios":"levelo://app?vid=3478dd0d-ea16-4f79-8090-13194be78ddb"},"vehicle_type_id":"4","last_reported":1771377319,"current_range_meters":40000,"station_id":"ce4bh2p2rcd13ifvqdi0","pricing_plan_id":"cebpf4jnsgd1na2vs0mg"},{"bike_id":"869f6273-8e61-4b23-8b68-c7faeb5866e7","system_id":"levelo_inurba_marseille","lat":43.2618,"lon":5.40484,"is_reserved":false,"is_disabled":false,"rental_uris":{"android":"levelo://app?vid=869f6273-8e61-4b23-8b68-c7faeb5866e7","ios":"levelo://app?vid=869f6273-8e61-4b23-8b68-c7faeb5866e7"},"vehicle_type_id":"4","last_reported":1771377319,"current_range_meters":31200,"station_id":"","pricing_plan_id":"cebpf4jnsgd1na2vs0mg"},{"bike_id":"c3335be4-801b-4c74-b30c-d36a9f3d25f9","system_id":"levelo_inurba_marseille","lat":43.31125,"lon":5.37756,"is_reserved":false,"is_disabled":false,"rental_uris":{"android":"levelo://app?vid=c3335be4-801b-4c74-b30c-d36a9f3d25f9","ios":"levelo://app?vid=c3335be4-801b-4c74-b30c-d36a9f3d25f9"},"vehicle_type_id":"4","last_reported":1771377319,"current_range_meters":38400,"station_id":"ce4bgt92rcd13ifvqcg0","pricing_plan_id":"cebpf4jnsgd1na2vs0mg"},{"bike_id":"3bee6e2f-370f-4b41-a2e8-9803216a3723","system_id":"levelo_inurba_marseille","lat":43.28151,"lon":5.42646,"is_reserved":false,"is_disabled":false,"rental_uris":{"android":"levelo://app?vid=3bee6e2f-370f-4b41-a2e8-9803216a3723","ios":"levelo://app?vid=3bee6e2f-370f-4b41-a2e8-9803216a3723"},"vehicle_type_id":"4","last_reported":1771377319,"current_range_meters":38000,"station_id":"ce4bhnh2rcd13ifvqgug","pricing_plan_id":"cebpf4jnsgd1na2vs0mg"},{"bike_id":"9bc4211b-f858-495b-be9d-c6a743f60241","system_id":"levelo_inurba_marseille","lat":43.246402,"lon":5.431396,"is_reserved":false,"is_disabled":false,"rental_uris":{"android":"levelo://app?vid=9bc4211b-f858-495b-be9d-c6a743f60241","ios":"levelo://app?vid=9bc4211b-f858-495b-be9d-c6a743f60241"},"vehicle_type_id":"4","last_reported":1771377319,"current_range_meters":10800,"station_id":"st_d2m6c4gdas8pm72e190g","pricing_plan_id":"cebpf4jnsgd1na2vs0mg"},{"bike_id":"a703c842-e919-4979-8c2e-97decab2b338","system_id":"levelo_inurba_marseille","lat":43.30957,"lon":5.38357,"is_reserved":false,"is_disabled":false,"rental_uris":{"android":"levelo://app?vid=a703c842-e919-4979-8c2e-97decab2b338","ios":"levelo://app?vid=a703c842-e919-4979-8c2e-97decab2b338"},"vehicle_type_id":"4","last_reported":1771377319,"current_range_meters":4800,"station_id":"","pricing_plan_id":"cebpf4jnsgd1na2vs0mg"},{"bike_id":"4e8df81a-d433-4673-9b22-1ea69511cb3e","system_id":"levelo_inurba_marseille","lat":43.2606,"lon":5.394,"is_reserved":false,"is_disabled":true,"rental_uris":{"android":"levelo://app?vid=4e8df81a-d433-4673-9b22-1ea69511cb3e","ios":"levelo://app?vid=4e8df81a-d433-4673-9b22-1ea69511cb3e"},"vehicle_type_id":"4","last_reported":1771377319,"current_range_meters":28000,"station_id":"ce4bhh92rcd13ifvqfj0","pricing_plan_id":"cebpf4jnsgd1na2vs0mg"},{"bike_id":"c7790546-c13d-418c-add0-c1b6c25e7465","system_id":"levelo_inurba_marseille","lat":43.29633,"lon":5.40587,"is_reserved":false,"is_disabled":false,"rental_uris":{"android":"levelo://app?vid=c7790546-c13d-418c-add0-c1b6c25e7465","ios":"levelo://app?vid=c7790546-c13d-418c-add0-c1b6c25e7465"},"vehicle_type_id":"4","last_reported":1771377319,"current_range_meters":40000,"station_id":"ce4bh0h2rcd13ifvqd60","pricing_plan_id":"cebpf4jnsgd1na2vs0mg"},{"bike_id":"61e3598a-bd9d-4be1-afad-9ec0db360775","system_id":"levelo_inurba_marseille","lat":43.2304,"lon":5.4029,"is_reserved":false,"is_disabled":false,"rental_uris":{"android":"levelo://app?vid=61e3598a-bd9d-4be1-afad-9ec0db360775","ios":"levelo://app?vid=61e3598a-bd9d-4be1-afad-9ec0db360775"},"vehicle_type_id":"4","last_reported":1771377319,"current_range_meters":27200,"station_id":"","pricing_plan_id":"cebpf4jnsgd1na2vs0mg"},{"bike_id":"f60ad4be-a5aa-40d5-b9af-ac73c3d433fd","system_id":"levelo_inurba_marseille","lat":43.29038,"lon":5.38119,"is_reserved":false,"is_disabled":false,"rental_uris":{"android":"levelo://app?vid=f60ad4be-a5aa-40d5-b9af-ac73c3d433fd","ios":"levelo://app?vid=f60ad4be-a5aa-40d5-b9af-ac73c3d433fd"},"vehicle_type_id":"4","last_reported":1771377319,"current_range_meters":36800,"station_id":"ce4bh4p2rcd13ifvqe1g","pricing_plan_id":"cebpf4jnsgd1na2vs0mg"},{"bike_id":"c789e924-fa62-4696-a1aa-c8969cdfe93a","system_id":"levelo_inurba_marseille","lat":43.30141,"lon":5.39834,"is_reserved":false,"is_disabled":false,"rental_uris":{"android":"levelo://app?vid=c789e924-fa62-4696-a1aa-c8969cdfe93a","ios":"levelo://app?vid=c789e924-fa62-4696-a1aa-c8969cdfe93a"},"vehicle_type_id":"4","last_reported":1771377319,"current_range_meters":3600,"station_id":"ce4bh0h2rcd13ifvqd40","pricing_plan_id":"cebpf4jnsgd1na2vs0mg"},{"bike_id":"68289007-3fd7-4326-b422-dd6c6b73f3f1","system_id":"levelo_inurba_marseille","lat":43.31221,"lon":5.36856,"is_reserved":false,"is_disabled":false,"rental_uris":{"android":"levelo://app?vid=68289007-3fd7-4326-b422-dd6c6b73f3f1","ios":"levelo://app?vid=68289007-3fd7-4326-b422-dd6c6b73f3f1"},"vehicle_type_id":"4","last_reported":1771377319,"current_range_meters":40000,"station_id":"ce4bgl92rcd13ifvqbq0","pricing_plan_id":"cebpf4jnsgd1na2vs0mg"},{"bike_id":"114f50e8-063a-427e-a5df-f03d0702cf61","system_id":"levelo_inurba_marseille","lat":43.33164,"lon":5.37692,"is_reserved":false,"is_disabled":false,"rental_uris":{"android":"levelo://app?vid=114f50e8-063a-427e-a5df-f03d0702cf61","ios":"levelo://app?vid=114f50e8-063a-427e-a5df-f03d0702cf61"},"vehicle_type_id":"4","last_reported":1771377319,"current_range_meters":36000,"station_id":"st_d46cu089ee8s73dldbu0","pricing_plan_id":"cebpf4jnsgd1na2vs0mg"},{"bike_id":"8d8853cf-5282-45cb-9596-b48674ef7c58","system_id":"levelo_inurba_marseille","lat":43.28679,"lon":5.35526,"is_reserved":false,"is_disabled":true,"rental_uris":{"android":"levelo://app?vid=8d8853cf-5282-45cb-9596-b48674ef7c58","ios":"levelo://app?vid=8d8853cf-5282-45cb-9596-b48674ef7c58"},"vehicle_type_id":"4","last_reported":1771377319,"current_range_meters":36800,"station_id":"","pricing_plan_id":"cebpf4jnsgd1na2vs0mg"},{"bike_id":"e802c517-6ed6-43f7-8949-762082d8628a","system_id":"levelo_inurba_marseille","lat":43.28604,"lon":5.39937,"is_reserved":false,"is_disabled":false,"rental_uris":{"android":"levelo://app?vid=e802c517-6ed6-43f7-8949-762082d8628a","ios":"levelo://app?vid=e802c517-6ed6-43f7-8949-762082d8628a"},"vehicle_type_id":"4","last_reported":1771377319,"current_range_meters":31200,"station_id":"","pricing_plan_id":"cebpf4jnsgd1na2vs0mg"},{"bike_id":"3dceb5b4-c425-40e6-9ff9-9d8681d0b33a","system_id":"levelo_inurba_marseille","lat":43.29559,"lon":5.37506,"is_reserved":false,"is_disabled":false,"rental_uris":{"android":"levelo://app?vid=3dceb5b4-c425-40e6-9ff9-9d8681d0b33a","ios":"levelo://app?vid=3dceb5b4-c425-40e6-9ff9-9d8681d0b33a"},"vehicle_type_id":"4","last_reported":1771377319,"current_range_meters":8400,"station_id":"ce4bgh92rcd13ifvqb50","pricing_plan_id":"cebpf4jnsgd1na2vs0mg"},{"bike_id":"7ca6bc7a-109b-4079-94cb-3876757396ae","system_id":"levelo_inurba_marseille","lat":43.291769,"lon":5.372031,"is_reserved":false,"is_disabled":false,"rental_uris":{"android":"levelo://app?vid=7ca6bc7a-109b-4079-94cb-3876757396ae","ios":"levelo://app?vid=7ca6bc7a-109b-4079-94cb-3876757396ae"},"vehicle_type_id":"4","last_reported":1771377319,"current_range_meters":33600,"station_id":"ce4bha92rcd13ifvqeh0","pricing_plan_id":"cebpf4jnsgd1na2vs0mg"},{"bike_id":"afb0e9b0-eb05-4038-bba4-c2b708d00db2","system_id":"levelo_inurba_marseille","lat":43.28613,"lon":5.35126,"is_reserved":false,"is_disabled":false,"rental_uris":{"android":"levelo://app?vid=afb0e9b0-eb05-4038-bba4-c2b708d00db2","ios":"levelo://app?vid=afb0e9b0-eb05-4038-bba4-c2b708d00db2"},"vehicle_type_id":"4","last_reported":1771377319,"current_range_meters":18800,"station_id":"ce4bhch2rcd13ifvqeug","pricing_plan_id":"cebpf4jnsgd1na2vs0mg"},{"bike_id":"85cec8f7-5595-4ecf-ab62-c1aebd5b564b","system_id":"levelo_inurba_marseille","lat":43.27455,"lon":5.42456,"is_reserved":false,"is_disabled":false,"rental_uris":{"android":"levelo://app?vid=85cec8f7-5595-4ecf-ab62-c1aebd5b564b","ios":"levelo://app?vid=85cec8f7-5595-4ecf-ab62-c1aebd5b564b"},"vehicle_type_id":"4","last_reported":1771377319,"current_range_meters":9200,"station_id":"","pricing_plan_id":"cebpf4jnsgd1na2vs0mg"},{"bike_id":"38269d91-4b9f-4586-a46e-98325207bf2d","system_id":"levelo_inurba_marseille","lat":43.30204,"lon":5.39466,"is_reserved":false,"is_disabled":false,"rental_uris":{"android":"levelo://app?vid=38269d91-4b9f-4586-a46e-98325207bf2d","ios":"levelo://app?vid=38269d91-4b9f-4586-a46e-98325207bf2d"},"vehicle_type_id":"4","last_reported":1771377319,"current_range_meters":23200,"station_id":"ce4bh0p2rcd13ifvqd70","pricing_plan_id":"cebpf4jnsgd1na2vs0mg"},{"bike_id":"97a00770-6364-48cb-a4b9-7d54bc04ff2e","system_id":"levelo_inurba_marseille","lat":43.30134,"lon":5.39864,"is_reserved":false,"is_disabled":false,"rental_uris":{"android":"levelo://app?vid=97a00770-6364-48cb-a4b9-7d54bc04ff2e","ios":"levelo://app?vid=97a00770-6364-48cb-a4b9-7d54bc04ff2e"},"vehicle_type_id":"4","last_reported":1771377319,"current_range_meters":38800,"station_id":"ce4bh0h2rcd13ifvqd40","pricing_plan_id":"cebpf4jnsgd1na2vs0mg"},{"bike_id":"72b9fed1-f36b-44f9-9d8f-23ffab559c8f","system_id":"levelo_inurba_marseille","lat":43.28662,"lon":5.36347,"is_reserved":false,"is_disabled":false,"rental_uris":{"android":"levelo://app?vid=72b9fed1-f36b-44f9-9d8f-23ffab559c8f","ios":"levelo://app?vid=72b9fed1-f36b-44f9-9d8f-23ffab559c8f"},"vehicle_type_id":"4","last_reported":1771377319,"current_range_meters":36800,"station_id":"ce4bhah2rcd13ifvqej0","pricing_plan_id":"cebpf4jnsgd1na2vs0mg"},{"bike_id":"680b9413-4350-4d72-8dc4-b9e4401892af","system_id":"levelo_inurba_marseille","lat":43.30324,"lon":5.40269,"is_reserved":false,"is_disabled":false,"rental_uris":{"android":"levelo://app?vid=680b9413-4350-4d72-8dc4-b9e4401892af","ios":"levelo://app?vid=680b9413-4350-4d72-8dc4-b9e4401892af"},"vehicle_type_id":"4","last_reported":1771377319,"current_range_meters":10000,"station_id":"","pricing_plan_id":"cebpf4jnsgd1na2vs0mg"},{"bike_id":"c3a313bb-8493-4765-b806-485ed691a170","system_id":"levelo_inurba_marseille","lat":43.23066,"lon":5.35504,"is_reserved":false,"is_disabled":false,"rental_uris":{"android":"levelo://app?vid=c3a313bb-8493-4765-b806-485ed691a170","ios":"levelo://app?vid=c3a313bb-8493-4765-b806-485ed691a170"},"vehicle_type_id":"4","last_reported":1771377319,"current_range_meters":39200,"station_id":"cpo3342slgdg3j2ifvpg","pricing_plan_id":"cebpf4jnsgd1na2vs0mg"},{"bike_id":"31eeb170-0fa4-479d-9066-ace2ce06f618","system_id":"levelo_inurba_marseille","lat":43.29601,"lon":5.38105,"is_reserved":false,"is_disabled":false,"rental_uris":{"android":"levelo://app?vid=31eeb170-0fa4-479d-9066-ace2ce06f618","ios":"levelo://app?vid=31eeb170-0fa4-479d-9066-ace2ce06f618"},"vehicle_type_id":"4","last_reported":1771377319,"current_range_meters":38000,"station_id":"ce4bgl12rcd13ifvqbo0","pricing_plan_id":"cebpf4jnsgd1na2vs0mg"},{"bike_id":"47de60cf-906d-4da5-928f-4cfc3a9702d6","system_id":"levelo_inurba_marseille","lat":43.24781,"lon":5.37442,"is_reserved":false,"is_disabled":false,"rental_uris":{"android":"levelo://app?vid=47de60cf-906d-4da5-928f-4cfc3a9702d6","ios":"levelo://app?vid=47de60cf-906d-4da5-928f-4cfc3a9702d6"},"vehicle_type_id":"4","last_reported":1771377319,"current_range_meters":38800,"station_id":"ce4bhgh2rcd13ifvqfb0","pricing_plan_id":"cebpf4jnsgd1na2vs0mg"},{"bike_id":"d25cebdf-23d9-4713-b2e6-4c1ac65213c4","system_id":"levelo_inurba_marseille","lat":43.313652,"lon":5.36703,"is_reserved":false,"is_disabled":true,"rental_uris":{"android":"levelo://app?vid=d25cebdf-23d9-4713-b2e6-4c1ac65213c4","ios":"levelo://app?vid=d25cebdf-23d9-4713-b2e6-4c1ac65213c4"},"vehicle_type_id":"4","last_reported":1771377319,"current_range_meters":28800,"station_id":"ce4bgrh2rcd13ifvqc8g","pricing_plan_id":"cebpf4jnsgd1na2vs0mg"},{"bike_id":"113d12f2-b9d7-48c7-86ec-764bf84918da","system_id":"levelo_inurba_marseille","lat":43.27809,"lon":5.40703,"is_reserved":false,"is_disabled":false,"rental_uris":{"android":"levelo://app?vid=113d12f2-b9d7-48c7-86ec-764bf84918da","ios":"levelo://app?vid=113d12f2-b9d7-48c7-86ec-764bf84918da"},"vehicle_type_id":"4","last_reported":1771377319,"current_range_meters":18800,"station_id":"ce4bhnh2rcd13ifvqgtg","pricing_plan_id":"cebpf4jnsgd1na2vs0mg"},{"bike_id":"e03158c1-0ca1-48e6-bd80-0c2d8c8a7598","system_id":"levelo_inurba_marseille","lat":43.28713,"lon":5.39987,"is_reserved":false,"is_disabled":false,"rental_uris":{"android":"levelo://app?vid=e03158c1-0ca1-48e6-bd80-0c2d8c8a7598","ios":"levelo://app?vid=e03158c1-0ca1-48e6-bd80-0c2d8c8a7598"},"vehicle_type_id":"4","last_reported":1771377319,"current_range_meters":39200,"station_id":"ce4bho92rcd13ifvqh3g","pricing_plan_id":"cebpf4jnsgd1na2vs0mg"},{"bike_id":"cf85bf8d-06f8-406f-9f41-1382fa98dcb8","system_id":"levelo_inurba_marseille","lat":43.25116,"lon":5.40321,"is_reserved":false,"is_disabled":false,"rental_uris":{"android":"levelo://app?vid=cf85bf8d-06f8-406f-9f41-1382fa98dcb8","ios":"levelo://app?vid=cf85bf8d-06f8-406f-9f41-1382fa98dcb8"},"vehicle_type_id":"4","last_reported":1771377319,"current_range_meters":38400,"station_id":"ce4bhlh2rcd13ifvqgig","pricing_plan_id":"cebpf4jnsgd1na2vs0mg"},{"bike_id":"5dc218bf-fe54-4b44-a3be-4982db0dd473","system_id":"levelo_inurba_marseille","lat":43.29802,"lon":5.38092,"is_reserved":false,"is_disabled":false,"rental_uris":{"android":"levelo://app?vid=5dc218bf-fe54-4b44-a3be-4982db0dd473","ios":"levelo://app?vid=5dc218bf-fe54-4b44-a3be-4982db0dd473"},"vehicle_type_id":"4","last_reported":1771377319,"current_range_meters":25200,"station_id":"ce4bgip2rcd13ifvqbb0","pricing_plan_id":"cebpf4jnsgd1na2vs0mg"},{"bike_id":"c556cca8-883f-4506-8cc8-a91c280cad46","system_id":"levelo_inurba_marseille","lat":43.28421,"lon":5.35,"is_reserved":false,"is_disabled":false,"rental_uris":{"android":"levelo://app?vid=c556cca8-883f-4506-8cc8-a91c280cad46","ios":"levelo://app?vid=c556cca8-883f-4506-8cc8-a91c280cad46"},"vehicle_type_id":"4","last_reported":1771377319,"current_range_meters":20800,"station_id":"ce4bhbh2rcd13ifvqepg","pricing_plan_id":"cebpf4jnsgd1na2vs0mg"},{"bike_id":"296d9662-256d-40b2-93b2-9dd6849bfb96","system_id":"levelo_inurba_marseille","lat":43.31886,"lon":5.4072,"is_reserved":false,"is_disabled":false,"rental_uris":{"android":"levelo://app?vid=296d9662-256d-40b2-93b2-9dd6849bfb96","ios":"levelo://app?vid=296d9662-256d-40b2-93b2-9dd6849bfb96"},"vehicle_type_id":"4","last_reported":1771377319,"current_range_meters":38400,"station_id":"ce4bhq12rcd13ifvqhig","pricing_plan_id":"cebpf4jnsgd1na2vs0mg"},{"bike_id":"863c1ce3-0376-46d4-a87d-b0d84fb4e607","system_id":"levelo_inurba_marseille","lat":43.23176,"lon":5.40005,"is_reserved":false,"is_disabled":false,"rental_uris":{"android":"levelo://app?vid=863c1ce3-0376-46d4-a87d-b0d84fb4e607","ios":"levelo://app?vid=863c1ce3-0376-46d4-a87d-b0d84fb4e607"},"vehicle_type_id":"4","last_reported":1771377319,"current_range_meters":8400,"station_id":"ce4bhn12rcd13ifvqgqg","pricing_plan_id":"cebpf4jnsgd1na2vs0mg"},{"bike_id":"66e61a79-5190-4401-9f60-c0ea79af2607","system_id":"levelo_inurba_marseille","lat":43.297079,"lon":5.366149,"is_reserved":false,"is_disabled":false,"rental_uris":{"android":"levelo://app?vid=66e61a79-5190-4401-9f60-c0ea79af2607","ios":"levelo://app?vid=66e61a79-5190-4401-9f60-c0ea79af2607"},"vehicle_type_id":"4","last_reported":1771377319,"current_range_meters":16000,"station_id":"ce4bgn12rcd13ifvqbt0","pricing_plan_id":"cebpf4jnsgd1na2vs0mg"},{"bike_id":"36f57eab-cc74-43f0-b01a-fd973ce3901b","system_id":"levelo_inurba_marseille","lat":43.29981,"lon":5.37175,"is_reserved":false,"is_disabled":false,"rental_uris":{"android":"levelo://app?vid=36f57eab-cc74-43f0-b01a-fd973ce3901b","ios":"levelo://app?vid=36f57eab-cc74-43f0-b01a-fd973ce3901b"},"vehicle_type_id":"4","last_reported":1771377319,"current_range_meters":38000,"station_id":"ce4bgr92rcd13ifvqc7g","pricing_plan_id":"cebpf4jnsgd1na2vs0mg"},{"bike_id":"6545beb6-83aa-422f-ad2a-89b68b27e9e2","system_id":"levelo_inurba_marseille","lat":43.24397,"lon":5.37076,"is_reserved":false,"is_disabled":false,"rental_uris":{"android":"levelo://app?vid=6545beb6-83aa-422f-ad2a-89b68b27e9e2","ios":"levelo://app?vid=6545beb6-83aa-422f-ad2a-89b68b27e9e2"},"vehicle_type_id":"4","last_reported":1771377319,"current_range_meters":24400,"station_id":"ce4bhhh2rcd13ifvqfk0","pricing_plan_id":"cebpf4jnsgd1na2vs0mg"},{"bike_id":"b7c724ed-41df-4801-9eb7-624821d37814","system_id":"levelo_inurba_marseille","lat":43.30776,"lon":5.37658,"is_reserved":false,"is_disabled":false,"rental_uris":{"android":"levelo://app?vid=b7c724ed-41df-4801-9eb7-624821d37814","ios":"levelo://app?vid=b7c724ed-41df-4801-9eb7-624821d37814"},"vehicle_type_id":"4","last_reported":1771377319,"current_range_meters":16000,"station_id":"ce4bgv92rcd13ifvqcq0","pricing_plan_id":"cebpf4jnsgd1na2vs0mg"},{"bike_id":"ba7b845e-d780-4c23-b13b-129beeba23d1","system_id":"levelo_inurba_marseille","lat":43.2799,"lon":5.40016,"is_reserved":false,"is_disabled":false,"rental_uris":{"android":"levelo://app?vid=ba7b845e-d780-4c23-b13b-129beeba23d1","ios":"levelo://app?vid=ba7b845e-d780-4c23-b13b-129beeba23d1"},"vehicle_type_id":"4","last_reported":1771377319,"current_range_meters":35200,"station_id":"ce4bho92rcd13ifvqh4g","pricing_plan_id":"cebpf4jnsgd1na2vs0mg"},{"bike_id":"9b1ac661-dc82-4109-8172-473a162fa2da","system_id":"levelo_inurba_marseille","lat":43.25574,"lon":5.38251,"is_reserved":false,"is_disabled":false,"rental_uris":{"android":"levelo://app?vid=9b1ac661-dc82-4109-8172-473a162fa2da","ios":"levelo://app?vid=9b1ac661-dc82-4109-8172-473a162fa2da"},"vehicle_type_id":"4","last_reported":1771377319,"current_range_meters":39200,"station_id":"ce4bhih2rcd13ifvqfs0","pricing_plan_id":"cebpf4jnsgd1na2vs0mg"},{"bike_id":"b953df1f-7ab1-4ae8-9dc0-1aac6b3ef1bf","system_id":"levelo_inurba_marseille","lat":43.2848,"lon":5.48405,"is_reserved":false,"is_disabled":false,"rental_uris":{"android":"levelo://app?vid=b953df1f-7ab1-4ae8-9dc0-1aac6b3ef1bf","ios":"levelo://app?vid=b953df1f-7ab1-4ae8-9dc0-1aac6b3ef1bf"},"vehicle_type_id":"4","last_reported":1771377319,"current_range_meters":29600,"station_id":"","pricing_plan_id":"cebpf4jnsgd1na2vs0mg"},{"bike_id":"9134309c-d02b-45a3-879c-de47e35491b2","system_id":"levelo_inurba_marseille","lat":43.24805,"lon":5.37473,"is_reserved":false,"is_disabled":false,"rental_uris":{"android":"levelo://app?vid=9134309c-d02b-45a3-879c-de47e35491b2","ios":"levelo://app?vid=9134309c-d02b-45a3-879c-de47e35491b2"},"vehicle_type_id":"4","last_reported":1771377319,"current_range_meters":30000,"station_id":"ce4bhgh2rcd13ifvqfb0","pricing_plan_id":"cebpf4jnsgd1na2vs0mg"},{"bike_id":"467479a7-76c2-4081-b4f4-117b1673c104","system_id":"levelo_inurba_marseille","lat":43.29615,"lon":5.40601,"is_reserved":false,"is_disabled":false,"rental_uris":{"android":"levelo://app?vid=467479a7-76c2-4081-b4f4-117b1673c104","ios":"levelo://app?vid=467479a7-76c2-4081-b4f4-117b1673c104"},"vehicle_type_id":"4","last_reported":1771377319,"current_range_meters":8800,"station_id":"ce4bh0h2rcd13ifvqd60","pricing_plan_id":"cebpf4jnsgd1na2vs0mg"},{"bike_id":"7372de73-f4b1-4ae3-a5ea-71c3b6cf6292","system_id":"levelo_inurba_marseille","lat":43.22551,"lon":5.41638,"is_reserved":false,"is_disabled":false,"rental_uris":{"android":"levelo://app?vid=7372de73-f4b1-4ae3-a5ea-71c3b6cf6292","ios":"levelo://app?vid=7372de73-f4b1-4ae3-a5ea-71c3b6cf6292"},"vehicle_type_id":"4","last_reported":1771377319,"current_range_meters":4000,"station_id":"st_d2o4gvlbi1j2169b742g","pricing_plan_id":"cebpf4jnsgd1na2vs0mg"},{"bike_id":"86f2ee6d-608d-44fd-b9c5-447856b2db8d","system_id":"levelo_inurba_marseille","lat":43.27322,"lon":5.39092,"is_reserved":false,"is_disabled":true,"rental_uris":{"android":"levelo://app?vid=86f2ee6d-608d-44fd-b9c5-447856b2db8d","ios":"levelo://app?vid=86f2ee6d-608d-44fd-b9c5-447856b2db8d"},"vehicle_type_id":"4","last_reported":1771377319,"current_range_meters":32000,"station_id":"ce4bhgp2rcd13ifvqfe0","pricing_plan_id":"cebpf4jnsgd1na2vs0mg"},{"bike_id":"9cefc9d6-ca2e-4f57-878f-ee5224fda78f","system_id":"levelo_inurba_marseille","lat":43.26495,"lon":5.39551,"is_reserved":false,"is_disabled":false,"rental_uris":{"android":"levelo://app?vid=9cefc9d6-ca2e-4f57-878f-ee5224fda78f","ios":"levelo://app?vid=9cefc9d6-ca2e-4f57-878f-ee5224fda78f"},"vehicle_type_id":"4","last_reported":1771377319,"current_range_meters":31200,"station_id":"ce4bhi12rcd13ifvqfq0","pricing_plan_id":"cebpf4jnsgd1na2vs0mg"},{"bike_id":"29256fc7-f2a4-4416-b52c-5d081818c792","system_id":"levelo_inurba_marseille","lat":43.31075,"lon":5.42436,"is_reserved":false,"is_disabled":false,"rental_uris":{"android":"levelo://app?vid=29256fc7-f2a4-4416-b52c-5d081818c792","ios":"levelo://app?vid=29256fc7-f2a4-4416-b52c-5d081818c792"},"vehicle_type_id":"4","last_reported":1771377319,"current_range_meters":23200,"station_id":"ce4bhp92rcd13ifvqhag","pricing_plan_id":"cebpf4jnsgd1na2vs0mg"},{"bike_id":"7e103bd1-f241-45ff-909b-c4967d5822f7","system_id":"levelo_inurba_marseille","lat":43.31118,"lon":5.3778,"is_reserved":false,"is_disabled":false,"rental_uris":{"android":"levelo://app?vid=7e103bd1-f241-45ff-909b-c4967d5822f7","ios":"levelo://app?vid=7e103bd1-f241-45ff-909b-c4967d5822f7"},"vehicle_type_id":"4","last_reported":1771377319,"current_range_meters":27600,"station_id":"ce4bgt92rcd13ifvqcg0","pricing_plan_id":"cebpf4jnsgd1na2vs0mg"},{"bike_id":"3ab70bf2-32c4-454b-ac23-fbea330ab9d8","system_id":"levelo_inurba_marseille","lat":43.30306,"lon":5.36886,"is_reserved":false,"is_disabled":false,"rental_uris":{"android":"levelo://app?vid=3ab70bf2-32c4-454b-ac23-fbea330ab9d8","ios":"levelo://app?vid=3ab70bf2-32c4-454b-ac23-fbea330ab9d8"},"vehicle_type_id":"4","last_reported":1771377319,"current_range_meters":22000,"station_id":"ce4bgqh2rcd13ifvqc5g","pricing_plan_id":"cebpf4jnsgd1na2vs0mg"},{"bike_id":"4a8093de-1a4c-4b21-a94a-8beb312be392","system_id":"levelo_inurba_marseille","lat":43.29143,"lon":5.35802,"is_reserved":false,"is_disabled":false,"rental_uris":{"android":"levelo://app?vid=4a8093de-1a4c-4b21-a94a-8beb312be392","ios":"levelo://app?vid=4a8093de-1a4c-4b21-a94a-8beb312be392"},"vehicle_type_id":"4","last_reported":1771377319,"current_range_meters":36400,"station_id":"","pricing_plan_id":"cebpf4jnsgd1na2vs0mg"},{"bike_id":"4697e412-2c7a-45e0-86f6-915a6065d454","system_id":"levelo_inurba_marseille","lat":43.29609,"lon":5.38105,"is_reserved":false,"is_disabled":false,"rental_uris":{"android":"levelo://app?vid=4697e412-2c7a-45e0-86f6-915a6065d454","ios":"levelo://app?vid=4697e412-2c7a-45e0-86f6-915a6065d454"},"vehicle_type_id":"4","last_reported":1771377319,"current_range_meters":34000,"station_id":"ce4bgl12rcd13ifvqbo0","pricing_plan_id":"cebpf4jnsgd1na2vs0mg"},{"bike_id":"2ee5fe47-0de4-4bb9-97b0-ee6e5f78bf84","system_id":"levelo_inurba_marseille","lat":43.282124,"lon":5.390553,"is_reserved":false,"is_disabled":true,"rental_uris":{"android":"levelo://app?vid=2ee5fe47-0de4-4bb9-97b0-ee6e5f78bf84","ios":"levelo://app?vid=2ee5fe47-0de4-4bb9-97b0-ee6e5f78bf84"},"vehicle_type_id":"4","last_reported":1771377319,"current_range_meters":0,"station_id":"ce4bhn92rcd13ifvqgsg","pricing_plan_id":"cebpf4jnsgd1na2vs0mg"},{"bike_id":"42a4b7bf-8f24-4799-9522-83c0f1ae0496","system_id":"levelo_inurba_marseille","lat":43.27575,"lon":5.38417,"is_reserved":false,"is_disabled":false,"rental_uris":{"android":"levelo://app?vid=42a4b7bf-8f24-4799-9522-83c0f1ae0496","ios":"levelo://app?vid=42a4b7bf-8f24-4799-9522-83c0f1ae0496"},"vehicle_type_id":"4","last_reported":1771377319,"current_range_meters":37600,"station_id":"ce4bhh92rcd13ifvqfi0","pricing_plan_id":"cebpf4jnsgd1na2vs0mg"},{"bike_id":"9e817176-6a4b-4ffe-bd7a-9370c1a8a8af","system_id":"levelo_inurba_marseille","lat":43.22931,"lon":5.35387,"is_reserved":false,"is_disabled":false,"rental_uris":{"android":"levelo://app?vid=9e817176-6a4b-4ffe-bd7a-9370c1a8a8af","ios":"levelo://app?vid=9e817176-6a4b-4ffe-bd7a-9370c1a8a8af"},"vehicle_type_id":"4","last_reported":1771377319,"current_range_meters":34800,"station_id":"cpo3532slgdg3j2ikp40","pricing_plan_id":"cebpf4jnsgd1na2vs0mg"},{"bike_id":"f4c37225-d0cb-4f09-bd8f-5c14a62c2ef1","system_id":"levelo_inurba_marseille","lat":43.295819,"lon":5.367451,"is_reserved":false,"is_disabled":false,"rental_uris":{"android":"levelo://app?vid=f4c37225-d0cb-4f09-bd8f-5c14a62c2ef1","ios":"levelo://app?vid=f4c37225-d0cb-4f09-bd8f-5c14a62c2ef1"},"vehicle_type_id":"4","last_reported":1771377319,"current_range_meters":4400,"station_id":"ce4bgph2rcd13ifvqc2g","pricing_plan_id":"cebpf4jnsgd1na2vs0mg"},{"bike_id":"fd3c7a2a-1bb9-4955-b469-1dd18fd680ae","system_id":"levelo_inurba_marseille","lat":43.2455,"lon":5.39506,"is_reserved":false,"is_disabled":false,"rental_uris":{"android":"levelo://app?vid=fd3c7a2a-1bb9-4955-b469-1dd18fd680ae","ios":"levelo://app?vid=fd3c7a2a-1bb9-4955-b469-1dd18fd680ae"},"vehicle_type_id":"4","last_reported":1771377319,"current_range_meters":35200,"station_id":"ce4bhlp2rcd13ifvqgjg","pricing_plan_id":"cebpf4jnsgd1na2vs0mg"},{"bike_id":"b24f8902-609b-4040-9398-38757832e3dc","system_id":"levelo_inurba_marseille","lat":43.26491,"lon":5.39552,"is_reserved":false,"is_disabled":false,"rental_uris":{"android":"levelo://app?vid=b24f8902-609b-4040-9398-38757832e3dc","ios":"levelo://app?vid=b24f8902-609b-4040-9398-38757832e3dc"},"vehicle_type_id":"4","last_reported":1771377319,"current_range_meters":39200,"station_id":"ce4bhi12rcd13ifvqfq0","pricing_plan_id":"cebpf4jnsgd1na2vs0mg"},{"bike_id":"192f740b-5b8e-4a95-b9c9-50f15118576a","system_id":"levelo_inurba_marseille","lat":43.31042,"lon":5.37164,"is_reserved":false,"is_disabled":true,"rental_uris":{"android":"levelo://app?vid=192f740b-5b8e-4a95-b9c9-50f15118576a","ios":"levelo://app?vid=192f740b-5b8e-4a95-b9c9-50f15118576a"},"vehicle_type_id":"4","last_reported":1771377319,"current_range_meters":38000,"station_id":"st_d4kl2rp97mjs73e7tdfg","pricing_plan_id":"cebpf4jnsgd1na2vs0mg"},{"bike_id":"eb08689f-58a6-4bfe-a7b3-6360cdd099c6","system_id":"levelo_inurba_marseille","lat":43.23187,"lon":5.39982,"is_reserved":false,"is_disabled":false,"rental_uris":{"android":"levelo://app?vid=eb08689f-58a6-4bfe-a7b3-6360cdd099c6","ios":"levelo://app?vid=eb08689f-58a6-4bfe-a7b3-6360cdd099c6"},"vehicle_type_id":"4","last_reported":1771377319,"current_range_meters":22000,"station_id":"ce4bhn12rcd13ifvqgqg","pricing_plan_id":"cebpf4jnsgd1na2vs0mg"},{"bike_id":"89cea057-5ae7-452d-9897-5bb6f57b9ebd","system_id":"levelo_inurba_marseille","lat":43.30771,"lon":5.37625,"is_reserved":false,"is_disabled":false,"rental_uris":{"android":"levelo://app?vid=89cea057-5ae7-452d-9897-5bb6f57b9ebd","ios":"levelo://app?vid=89cea057-5ae7-452d-9897-5bb6f57b9ebd"},"vehicle_type_id":"4","last_reported":1771377319,"current_range_meters":14800,"station_id":"ce4bgv92rcd13ifvqcq0","pricing_plan_id":"cebpf4jnsgd1na2vs0mg"},{"bike_id":"f2ae21d4-ef91-4525-82c6-ed2eddf0b504","system_id":"levelo_inurba_marseille","lat":43.29958,"lon":5.41326,"is_reserved":false,"is_disabled":false,"rental_uris":{"android":"levelo://app?vid=f2ae21d4-ef91-4525-82c6-ed2eddf0b504","ios":"levelo://app?vid=f2ae21d4-ef91-4525-82c6-ed2eddf0b504"},"vehicle_type_id":"4","last_reported":1771377319,"current_range_meters":29600,"station_id":"ce4bhp12rcd13ifvqh9g","pricing_plan_id":"cebpf4jnsgd1na2vs0mg"},{"bike_id":"f7880500-55c1-48a8-adc1-4ee49ca987be","system_id":"levelo_inurba_marseille","lat":43.30256,"lon":5.40057,"is_reserved":false,"is_disabled":false,"rental_uris":{"android":"levelo://app?vid=f7880500-55c1-48a8-adc1-4ee49ca987be","ios":"levelo://app?vid=f7880500-55c1-48a8-adc1-4ee49ca987be"},"vehicle_type_id":"4","last_reported":1771377319,"current_range_meters":8800,"station_id":"ce4bgvh2rcd13ifvqcs0","pricing_plan_id":"cebpf4jnsgd1na2vs0mg"},{"bike_id":"ef0cb467-8559-4338-9f1f-10ffc9d2f51a","system_id":"levelo_inurba_marseille","lat":43.284754,"lon":5.484027,"is_reserved":false,"is_disabled":false,"rental_uris":{"android":"levelo://app?vid=ef0cb467-8559-4338-9f1f-10ffc9d2f51a","ios":"levelo://app?vid=ef0cb467-8559-4338-9f1f-10ffc9d2f51a"},"vehicle_type_id":"4","last_reported":1771377319,"current_range_meters":16800,"station_id":"","pricing_plan_id":"cebpf4jnsgd1na2vs0mg"},{"bike_id":"18691689-4f4b-4b31-a85f-c956950534b1","system_id":"levelo_inurba_marseille","lat":43.28871,"lon":5.42535,"is_reserved":false,"is_disabled":false,"rental_uris":{"android":"levelo://app?vid=18691689-4f4b-4b31-a85f-c956950534b1","ios":"levelo://app?vid=18691689-4f4b-4b31-a85f-c956950534b1"},"vehicle_type_id":"4","last_reported":1771377319,"current_range_meters":39200,"station_id":"st_d3b462108ojc7389ooeg","pricing_plan_id":"cebpf4jnsgd1na2vs0mg"},{"bike_id":"101f8eaf-01f4-4658-a707-5187ae6ce8ac","system_id":"levelo_inurba_marseille","lat":43.28362,"lon":5.38629,"is_reserved":false,"is_disabled":false,"rental_uris":{"android":"levelo://app?vid=101f8eaf-01f4-4658-a707-5187ae6ce8ac","ios":"levelo://app?vid=101f8eaf-01f4-4658-a707-5187ae6ce8ac"},"vehicle_type_id":"4","last_reported":1771377319,"current_range_meters":27200,"station_id":"ce4bh8p2rcd13ifvqeb0","pricing_plan_id":"cebpf4jnsgd1na2vs0mg"},{"bike_id":"30f2887c-e103-480f-9005-841a6b0b144d","system_id":"levelo_inurba_marseille","lat":43.31132,"lon":5.37772,"is_reserved":false,"is_disabled":false,"rental_uris":{"android":"levelo://app?vid=30f2887c-e103-480f-9005-841a6b0b144d","ios":"levelo://app?vid=30f2887c-e103-480f-9005-841a6b0b144d"},"vehicle_type_id":"4","last_reported":1771377319,"current_range_meters":11200,"station_id":"","pricing_plan_id":"cebpf4jnsgd1na2vs0mg"},{"bike_id":"184211e2-87d0-4128-8d68-d406cc4babd1","system_id":"levelo_inurba_marseille","lat":43.24471,"lon":5.42531,"is_reserved":false,"is_disabled":false,"rental_uris":{"android":"levelo://app?vid=184211e2-87d0-4128-8d68-d406cc4babd1","ios":"levelo://app?vid=184211e2-87d0-4128-8d68-d406cc4babd1"},"vehicle_type_id":"4","last_reported":1771377319,"current_range_meters":22400,"station_id":"st_d4a3vfp97mjs738cd8kg","pricing_plan_id":"cebpf4jnsgd1na2vs0mg"},{"bike_id":"4cb59e3b-7b88-4287-ae5a-1efca0b8bbc4","system_id":"levelo_inurba_marseille","lat":43.29566,"lon":5.39985,"is_reserved":false,"is_disabled":false,"rental_uris":{"android":"levelo://app?vid=4cb59e3b-7b88-4287-ae5a-1efca0b8bbc4","ios":"levelo://app?vid=4cb59e3b-7b88-4287-ae5a-1efca0b8bbc4"},"vehicle_type_id":"4","last_reported":1771377319,"current_range_meters":37600,"station_id":"ce4bh312rcd13ifvqdj0","pricing_plan_id":"cebpf4jnsgd1na2vs0mg"},{"bike_id":"a698ed98-3b4e-4cf9-badc-f872dd2d255d","system_id":"levelo_inurba_marseille","lat":43.26571,"lon":5.39019,"is_reserved":false,"is_disabled":false,"rental_uris":{"android":"levelo://app?vid=a698ed98-3b4e-4cf9-badc-f872dd2d255d","ios":"levelo://app?vid=a698ed98-3b4e-4cf9-badc-f872dd2d255d"},"vehicle_type_id":"4","last_reported":1771377319,"current_range_meters":16000,"station_id":"ce4bhe12rcd13ifvqf30","pricing_plan_id":"cebpf4jnsgd1na2vs0mg"},{"bike_id":"b4b5304d-1f6c-4b50-b6a7-5de43f82906f","system_id":"levelo_inurba_marseille","lat":43.31595,"lon":5.38773,"is_reserved":false,"is_disabled":false,"rental_uris":{"android":"levelo://app?vid=b4b5304d-1f6c-4b50-b6a7-5de43f82906f","ios":"levelo://app?vid=b4b5304d-1f6c-4b50-b6a7-5de43f82906f"},"vehicle_type_id":"4","last_reported":1771377319,"current_range_meters":6000,"station_id":"","pricing_plan_id":"cebpf4jnsgd1na2vs0mg"},{"bike_id":"9fad9cfe-3c14-48d7-ae26-8819c8febf05","system_id":"levelo_inurba_marseille","lat":43.24176,"lon":5.36393,"is_reserved":false,"is_disabled":true,"rental_uris":{"android":"levelo://app?vid=9fad9cfe-3c14-48d7-ae26-8819c8febf05","ios":"levelo://app?vid=9fad9cfe-3c14-48d7-ae26-8819c8febf05"},"vehicle_type_id":"4","last_reported":1771377319,"current_range_meters":20000,"station_id":"cpo36qri1sfpv3e86is0","pricing_plan_id":"cebpf4jnsgd1na2vs0mg"},{"bike_id":"959b986f-46fe-4dd8-8964-3c02e59442ad","system_id":"levelo_inurba_marseille","lat":43.29583,"lon":5.40005,"is_reserved":false,"is_disabled":false,"rental_uris":{"android":"levelo://app?vid=959b986f-46fe-4dd8-8964-3c02e59442ad","ios":"levelo://app?vid=959b986f-46fe-4dd8-8964-3c02e59442ad"},"vehicle_type_id":"4","last_reported":1771377319,"current_range_meters":12000,"station_id":"ce4bh312rcd13ifvqdj0","pricing_plan_id":"cebpf4jnsgd1na2vs0mg"},{"bike_id":"ea294e3f-313b-4f2d-b5ef-9e993a4d0644","system_id":"levelo_inurba_marseille","lat":43.30325,"lon":5.40442,"is_reserved":false,"is_disabled":false,"rental_uris":{"android":"levelo://app?vid=ea294e3f-313b-4f2d-b5ef-9e993a4d0644","ios":"levelo://app?vid=ea294e3f-313b-4f2d-b5ef-9e993a4d0644"},"vehicle_type_id":"4","last_reported":1771377319,"current_range_meters":8000,"station_id":"ce4bh012rcd13ifvqd10","pricing_plan_id":"cebpf4jnsgd1na2vs0mg"},{"bike_id":"d26737e8-e4e1-43aa-a82e-29bd1a92a602","system_id":"levelo_inurba_marseille","lat":43.25554,"lon":5.38238,"is_reserved":false,"is_disabled":false,"rental_uris":{"android":"levelo://app?vid=d26737e8-e4e1-43aa-a82e-29bd1a92a602","ios":"levelo://app?vid=d26737e8-e4e1-43aa-a82e-29bd1a92a602"},"vehicle_type_id":"4","last_reported":1771377319,"current_range_meters":28000,"station_id":"ce4bhih2rcd13ifvqfs0","pricing_plan_id":"cebpf4jnsgd1na2vs0mg"},{"bike_id":"9cf4cf0c-4b46-4584-94ed-fcd0095b3da9","system_id":"levelo_inurba_marseille","lat":43.27379,"lon":5.36261,"is_reserved":false,"is_disabled":false,"rental_uris":{"android":"levelo://app?vid=9cf4cf0c-4b46-4584-94ed-fcd0095b3da9","ios":"levelo://app?vid=9cf4cf0c-4b46-4584-94ed-fcd0095b3da9"},"vehicle_type_id":"4","last_reported":1771377319,"current_range_meters":16400,"station_id":"ce4bhbh2rcd13ifvqeo0","pricing_plan_id":"cebpf4jnsgd1na2vs0mg"},{"bike_id":"3d132238-00e3-4393-a545-b37d9cb5fd55","system_id":"levelo_inurba_marseille","lat":43.31499,"lon":5.37301,"is_reserved":false,"is_disabled":false,"rental_uris":{"android":"levelo://app?vid=3d132238-00e3-4393-a545-b37d9cb5fd55","ios":"levelo://app?vid=3d132238-00e3-4393-a545-b37d9cb5fd55"},"vehicle_type_id":"4","last_reported":1771377319,"current_range_meters":32400,"station_id":"ce4bgt12rcd13ifvqcd0","pricing_plan_id":"cebpf4jnsgd1na2vs0mg"},{"bike_id":"9a95c6c9-ad33-491a-bddd-35a0f36f98dd","system_id":"levelo_inurba_marseille","lat":43.30608,"lon":5.37229,"is_reserved":false,"is_disabled":false,"rental_uris":{"android":"levelo://app?vid=9a95c6c9-ad33-491a-bddd-35a0f36f98dd","ios":"levelo://app?vid=9a95c6c9-ad33-491a-bddd-35a0f36f98dd"},"vehicle_type_id":"4","last_reported":1771377319,"current_range_meters":28800,"station_id":"ce4bgqh2rcd13ifvqc4g","pricing_plan_id":"cebpf4jnsgd1na2vs0mg"},{"bike_id":"5a94b04e-27bb-4405-81a6-7911c4af4f16","system_id":"levelo_inurba_marseille","lat":43.26057,"lon":5.394,"is_reserved":false,"is_disabled":false,"rental_uris":{"android":"levelo://app?vid=5a94b04e-27bb-4405-81a6-7911c4af4f16","ios":"levelo://app?vid=5a94b04e-27bb-4405-81a6-7911c4af4f16"},"vehicle_type_id":"4","last_reported":1771377319,"current_range_meters":39200,"station_id":"ce4bhh92rcd13ifvqfj0","pricing_plan_id":"cebpf4jnsgd1na2vs0mg"},{"bike_id":"cd382850-ff6b-4b44-a942-8b0166a22b18","system_id":"levelo_inurba_marseille","lat":43.2509,"lon":5.39516,"is_reserved":false,"is_disabled":false,"rental_uris":{"android":"levelo://app?vid=cd382850-ff6b-4b44-a942-8b0166a22b18","ios":"levelo://app?vid=cd382850-ff6b-4b44-a942-8b0166a22b18"},"vehicle_type_id":"4","last_reported":1771377319,"current_range_meters":39200,"station_id":"ce4bhm12rcd13ifvqgkg","pricing_plan_id":"cebpf4jnsgd1na2vs0mg"},{"bike_id":"c53334ca-515d-4927-b7ae-27cc5bed993f","system_id":"levelo_inurba_marseille","lat":43.27062,"lon":5.42281,"is_reserved":false,"is_disabled":false,"rental_uris":{"android":"levelo://app?vid=c53334ca-515d-4927-b7ae-27cc5bed993f","ios":"levelo://app?vid=c53334ca-515d-4927-b7ae-27cc5bed993f"},"vehicle_type_id":"4","last_reported":1771377319,"current_range_meters":39200,"station_id":"ce4bhk92rcd13ifvqgb0","pricing_plan_id":"cebpf4jnsgd1na2vs0mg"},{"bike_id":"51fbed16-d6d8-4b2b-a305-30f6c962d361","system_id":"levelo_inurba_marseille","lat":43.27841,"lon":5.39212,"is_reserved":false,"is_disabled":false,"rental_uris":{"android":"levelo://app?vid=51fbed16-d6d8-4b2b-a305-30f6c962d361","ios":"levelo://app?vid=51fbed16-d6d8-4b2b-a305-30f6c962d361"},"vehicle_type_id":"4","last_reported":1771377319,"current_range_meters":28000,"station_id":"ce4bhjp2rcd13ifvqga0","pricing_plan_id":"cebpf4jnsgd1na2vs0mg"},{"bike_id":"72aa74f9-1ac7-43f5-8522-825db71062c4","system_id":"levelo_inurba_marseille","lat":43.2709,"lon":5.42292,"is_reserved":false,"is_disabled":false,"rental_uris":{"android":"levelo://app?vid=72aa74f9-1ac7-43f5-8522-825db71062c4","ios":"levelo://app?vid=72aa74f9-1ac7-43f5-8522-825db71062c4"},"vehicle_type_id":"4","last_reported":1771377319,"current_range_meters":35200,"station_id":"ce4bhk92rcd13ifvqgb0","pricing_plan_id":"cebpf4jnsgd1na2vs0mg"},{"bike_id":"c805c8c6-37d9-442b-82c7-3c4240ef355e","system_id":"levelo_inurba_marseille","lat":43.31164,"lon":5.38719,"is_reserved":false,"is_disabled":false,"rental_uris":{"android":"levelo://app?vid=c805c8c6-37d9-442b-82c7-3c4240ef355e","ios":"levelo://app?vid=c805c8c6-37d9-442b-82c7-3c4240ef355e"},"vehicle_type_id":"4","last_reported":1771377319,"current_range_meters":19200,"station_id":"ce4bgv12rcd13ifvqcp0","pricing_plan_id":"cebpf4jnsgd1na2vs0mg"},{"bike_id":"0f6a18bc-079a-4934-b4ac-6e5eb21d4442","system_id":"levelo_inurba_marseille","lat":43.28846,"lon":5.39378,"is_reserved":false,"is_disabled":false,"rental_uris":{"android":"levelo://app?vid=0f6a18bc-079a-4934-b4ac-6e5eb21d4442","ios":"levelo://app?vid=0f6a18bc-079a-4934-b4ac-6e5eb21d4442"},"vehicle_type_id":"4","last_reported":1771377319,"current_range_meters":40000,"station_id":"ce4bh2p2rcd13ifvqdi0","pricing_plan_id":"cebpf4jnsgd1na2vs0mg"},{"bike_id":"6e5fd85f-505a-4dd8-a62d-ffa0eddb5f8a","system_id":"levelo_inurba_marseille","lat":43.29028,"lon":5.38627,"is_reserved":false,"is_disabled":false,"rental_uris":{"android":"levelo://app?vid=6e5fd85f-505a-4dd8-a62d-ffa0eddb5f8a","ios":"levelo://app?vid=6e5fd85f-505a-4dd8-a62d-ffa0eddb5f8a"},"vehicle_type_id":"4","last_reported":1771377319,"current_range_meters":39200,"station_id":"ce4bh4p2rcd13ifvqe0g","pricing_plan_id":"cebpf4jnsgd1na2vs0mg"},{"bike_id":"e7694ba8-ea5e-41a3-9631-c19b7004d8f3","system_id":"levelo_inurba_marseille","lat":43.28852,"lon":5.35838,"is_reserved":false,"is_disabled":false,"rental_uris":{"android":"levelo://app?vid=e7694ba8-ea5e-41a3-9631-c19b7004d8f3","ios":"levelo://app?vid=e7694ba8-ea5e-41a3-9631-c19b7004d8f3"},"vehicle_type_id":"4","last_reported":1771377319,"current_range_meters":36800,"station_id":"ce4bhb12rcd13ifvqem0","pricing_plan_id":"cebpf4jnsgd1na2vs0mg"},{"bike_id":"c479e2fc-dbcf-45d3-9bd7-d42c167cd6bc","system_id":"levelo_inurba_marseille","lat":43.289828,"lon":5.387531,"is_reserved":false,"is_disabled":false,"rental_uris":{"android":"levelo://app?vid=c479e2fc-dbcf-45d3-9bd7-d42c167cd6bc","ios":"levelo://app?vid=c479e2fc-dbcf-45d3-9bd7-d42c167cd6bc"},"vehicle_type_id":"4","last_reported":1771377319,"current_range_meters":3200,"station_id":"","pricing_plan_id":"cebpf4jnsgd1na2vs0mg"},{"bike_id":"4ba4b523-faf0-48a1-9141-7dc5d506ae17","system_id":"levelo_inurba_marseille","lat":43.28037,"lon":5.36949,"is_reserved":false,"is_disabled":false,"rental_uris":{"android":"levelo://app?vid=4ba4b523-faf0-48a1-9141-7dc5d506ae17","ios":"levelo://app?vid=4ba4b523-faf0-48a1-9141-7dc5d506ae17"},"vehicle_type_id":"4","last_reported":1771377319,"current_range_meters":39200,"station_id":"ce4bha12rcd13ifvqef0","pricing_plan_id":"cebpf4jnsgd1na2vs0mg"},{"bike_id":"76c8f22a-1e8a-40d8-bd99-9c7eca62bc68","system_id":"levelo_inurba_marseille","lat":43.26524,"lon":5.39542,"is_reserved":false,"is_disabled":false,"rental_uris":{"android":"levelo://app?vid=76c8f22a-1e8a-40d8-bd99-9c7eca62bc68","ios":"levelo://app?vid=76c8f22a-1e8a-40d8-bd99-9c7eca62bc68"},"vehicle_type_id":"4","last_reported":1771377319,"current_range_meters":16400,"station_id":"ce4bhi12rcd13ifvqfq0","pricing_plan_id":"cebpf4jnsgd1na2vs0mg"},{"bike_id":"ed83228a-88b7-46b4-8f2f-8c75a9f7a632","system_id":"levelo_inurba_marseille","lat":43.297003,"lon":5.376916,"is_reserved":false,"is_disabled":false,"rental_uris":{"android":"levelo://app?vid=ed83228a-88b7-46b4-8f2f-8c75a9f7a632","ios":"levelo://app?vid=ed83228a-88b7-46b4-8f2f-8c75a9f7a632"},"vehicle_type_id":"4","last_reported":1771377319,"current_range_meters":32400,"station_id":"ce4bh4p2rcd13ifvqe1g","pricing_plan_id":"cebpf4jnsgd1na2vs0mg"},{"bike_id":"5afb8e20-a832-48d6-9135-ff33191cb0f0","system_id":"levelo_inurba_marseille","lat":43.335439,"lon":5.374595,"is_reserved":false,"is_disabled":false,"rental_uris":{"android":"levelo://app?vid=5afb8e20-a832-48d6-9135-ff33191cb0f0","ios":"levelo://app?vid=5afb8e20-a832-48d6-9135-ff33191cb0f0"},"vehicle_type_id":"4","last_reported":1771377319,"current_range_meters":26800,"station_id":"st_d46tts09ee8s73dlu43g","pricing_plan_id":"cebpf4jnsgd1na2vs0mg"},{"bike_id":"373671b6-b405-4d5f-b6ee-87d9ee572cad","system_id":"levelo_inurba_marseille","lat":43.28542,"lon":5.3953,"is_reserved":false,"is_disabled":false,"rental_uris":{"android":"levelo://app?vid=373671b6-b405-4d5f-b6ee-87d9ee572cad","ios":"levelo://app?vid=373671b6-b405-4d5f-b6ee-87d9ee572cad"},"vehicle_type_id":"4","last_reported":1771377319,"current_range_meters":30800,"station_id":"ce4bh292rcd13ifvqdg0","pricing_plan_id":"cebpf4jnsgd1na2vs0mg"},{"bike_id":"b1d17f28-b56b-4f8c-8224-eead6ce68a0e","system_id":"levelo_inurba_marseille","lat":43.29752,"lon":5.42766,"is_reserved":false,"is_disabled":false,"rental_uris":{"android":"levelo://app?vid=b1d17f28-b56b-4f8c-8224-eead6ce68a0e","ios":"levelo://app?vid=b1d17f28-b56b-4f8c-8224-eead6ce68a0e"},"vehicle_type_id":"4","last_reported":1771377319,"current_range_meters":32800,"station_id":"st_d3md5207bmas73dh9klg","pricing_plan_id":"cebpf4jnsgd1na2vs0mg"},{"bike_id":"b29d2c96-06df-48ef-8dcb-1b020ec6425b","system_id":"levelo_inurba_marseille","lat":43.24811,"lon":5.37447,"is_reserved":false,"is_disabled":false,"rental_uris":{"android":"levelo://app?vid=b29d2c96-06df-48ef-8dcb-1b020ec6425b","ios":"levelo://app?vid=b29d2c96-06df-48ef-8dcb-1b020ec6425b"},"vehicle_type_id":"4","last_reported":1771377319,"current_range_meters":22000,"station_id":"ce4bhgh2rcd13ifvqfb0","pricing_plan_id":"cebpf4jnsgd1na2vs0mg"},{"bike_id":"5b1ce7c9-eecf-4c2c-87b4-ba25f971fb08","system_id":"levelo_inurba_marseille","lat":43.30297,"lon":5.39212,"is_reserved":false,"is_disabled":false,"rental_uris":{"android":"levelo://app?vid=5b1ce7c9-eecf-4c2c-87b4-ba25f971fb08","ios":"levelo://app?vid=5b1ce7c9-eecf-4c2c-87b4-ba25f971fb08"},"vehicle_type_id":"4","last_reported":1771377319,"current_range_meters":38000,"station_id":"ce4bgkh2rcd13ifvqbk0","pricing_plan_id":"cebpf4jnsgd1na2vs0mg"},{"bike_id":"18d1c11f-830f-4edd-9af5-867094902c2c","system_id":"levelo_inurba_marseille","lat":43.28001,"lon":5.41651,"is_reserved":false,"is_disabled":false,"rental_uris":{"android":"levelo://app?vid=18d1c11f-830f-4edd-9af5-867094902c2c","ios":"levelo://app?vid=18d1c11f-830f-4edd-9af5-867094902c2c"},"vehicle_type_id":"4","last_reported":1771377319,"current_range_meters":38000,"station_id":"ce4bho12rcd13ifvqh1g","pricing_plan_id":"cebpf4jnsgd1na2vs0mg"},{"bike_id":"b4b6560e-9cc2-4756-9a60-7653a4ed3f88","system_id":"levelo_inurba_marseille","lat":43.24821,"lon":5.37457,"is_reserved":false,"is_disabled":false,"rental_uris":{"android":"levelo://app?vid=b4b6560e-9cc2-4756-9a60-7653a4ed3f88","ios":"levelo://app?vid=b4b6560e-9cc2-4756-9a60-7653a4ed3f88"},"vehicle_type_id":"4","last_reported":1771377319,"current_range_meters":38800,"station_id":"ce4bhgh2rcd13ifvqfb0","pricing_plan_id":"cebpf4jnsgd1na2vs0mg"},{"bike_id":"07fb92a3-9fb5-4711-831e-66a2229ec104","system_id":"levelo_inurba_marseille","lat":43.33554,"lon":5.37478,"is_reserved":false,"is_disabled":false,"rental_uris":{"android":"levelo://app?vid=07fb92a3-9fb5-4711-831e-66a2229ec104","ios":"levelo://app?vid=07fb92a3-9fb5-4711-831e-66a2229ec104"},"vehicle_type_id":"4","last_reported":1771377319,"current_range_meters":27200,"station_id":"st_d46tts09ee8s73dlu43g","pricing_plan_id":"cebpf4jnsgd1na2vs0mg"},{"bike_id":"31cb092e-1c56-4b2d-a4e8-1ac16d4f750f","system_id":"levelo_inurba_marseille","lat":43.29951,"lon":5.3851,"is_reserved":false,"is_disabled":false,"rental_uris":{"android":"levelo://app?vid=31cb092e-1c56-4b2d-a4e8-1ac16d4f750f","ios":"levelo://app?vid=31cb092e-1c56-4b2d-a4e8-1ac16d4f750f"},"vehicle_type_id":"4","last_reported":1771377319,"current_range_meters":17200,"station_id":"ce4bgj92rcd13ifvqbd0","pricing_plan_id":"cebpf4jnsgd1na2vs0mg"},{"bike_id":"103a4cfe-f5bf-4072-825b-9a9ade9835cf","system_id":"levelo_inurba_marseille","lat":43.28657,"lon":5.36374,"is_reserved":false,"is_disabled":false,"rental_uris":{"android":"levelo://app?vid=103a4cfe-f5bf-4072-825b-9a9ade9835cf","ios":"levelo://app?vid=103a4cfe-f5bf-4072-825b-9a9ade9835cf"},"vehicle_type_id":"4","last_reported":1771377319,"current_range_meters":35200,"station_id":"ce4bhah2rcd13ifvqej0","pricing_plan_id":"cebpf4jnsgd1na2vs0mg"},{"bike_id":"94682d39-12d9-4b68-aa76-f028d91ee04b","system_id":"levelo_inurba_marseille","lat":43.33125,"lon":5.39271,"is_reserved":false,"is_disabled":false,"rental_uris":{"android":"levelo://app?vid=94682d39-12d9-4b68-aa76-f028d91ee04b","ios":"levelo://app?vid=94682d39-12d9-4b68-aa76-f028d91ee04b"},"vehicle_type_id":"4","last_reported":1771377319,"current_range_meters":18800,"station_id":"","pricing_plan_id":"cebpf4jnsgd1na2vs0mg"},{"bike_id":"f097e699-46e1-4a19-b73c-ffcf0cd8634c","system_id":"levelo_inurba_marseille","lat":43.28614,"lon":5.35104,"is_reserved":false,"is_disabled":false,"rental_uris":{"android":"levelo://app?vid=f097e699-46e1-4a19-b73c-ffcf0cd8634c","ios":"levelo://app?vid=f097e699-46e1-4a19-b73c-ffcf0cd8634c"},"vehicle_type_id":"4","last_reported":1771377319,"current_range_meters":10000,"station_id":"ce4bhch2rcd13ifvqeug","pricing_plan_id":"cebpf4jnsgd1na2vs0mg"},{"bike_id":"6913ce23-59d3-49f9-8b7d-d6bdffbe82b4","system_id":"levelo_inurba_marseille","lat":43.32071,"lon":5.36815,"is_reserved":false,"is_disabled":false,"rental_uris":{"android":"levelo://app?vid=6913ce23-59d3-49f9-8b7d-d6bdffbe82b4","ios":"levelo://app?vid=6913ce23-59d3-49f9-8b7d-d6bdffbe82b4"},"vehicle_type_id":"4","last_reported":1771377319,"current_range_meters":20800,"station_id":"ce4bhrh2rcd13ifvqhug","pricing_plan_id":"cebpf4jnsgd1na2vs0mg"},{"bike_id":"9df4e0f5-0e30-499d-869f-00d68e898e58","system_id":"levelo_inurba_marseille","lat":43.269491,"lon":5.386568,"is_reserved":false,"is_disabled":false,"rental_uris":{"android":"levelo://app?vid=9df4e0f5-0e30-499d-869f-00d68e898e58","ios":"levelo://app?vid=9df4e0f5-0e30-499d-869f-00d68e898e58"},"vehicle_type_id":"4","last_reported":1771377319,"current_range_meters":15200,"station_id":"ce4bhh92rcd13ifvqfh0","pricing_plan_id":"cebpf4jnsgd1na2vs0mg"},{"bike_id":"9b5b7c55-0224-4dc9-82be-bb1fbbfc7cf1","system_id":"levelo_inurba_marseille","lat":43.24673,"lon":5.38155,"is_reserved":false,"is_disabled":false,"rental_uris":{"android":"levelo://app?vid=9b5b7c55-0224-4dc9-82be-bb1fbbfc7cf1","ios":"levelo://app?vid=9b5b7c55-0224-4dc9-82be-bb1fbbfc7cf1"},"vehicle_type_id":"4","last_reported":1771377319,"current_range_meters":11600,"station_id":"ce4bhih2rcd13ifvqfr0","pricing_plan_id":"cebpf4jnsgd1na2vs0mg"},{"bike_id":"690ba4b7-ac7c-44bd-a062-317d172156f1","system_id":"levelo_inurba_marseille","lat":43.28633,"lon":5.35123,"is_reserved":false,"is_disabled":false,"rental_uris":{"android":"levelo://app?vid=690ba4b7-ac7c-44bd-a062-317d172156f1","ios":"levelo://app?vid=690ba4b7-ac7c-44bd-a062-317d172156f1"},"vehicle_type_id":"4","last_reported":1771377319,"current_range_meters":35600,"station_id":"ce4bhch2rcd13ifvqeug","pricing_plan_id":"cebpf4jnsgd1na2vs0mg"},{"bike_id":"b7c6ed32-ce29-4dda-b174-8c7161c845aa","system_id":"levelo_inurba_marseille","lat":43.28401,"lon":5.37525,"is_reserved":false,"is_disabled":false,"rental_uris":{"android":"levelo://app?vid=b7c6ed32-ce29-4dda-b174-8c7161c845aa","ios":"levelo://app?vid=b7c6ed32-ce29-4dda-b174-8c7161c845aa"},"vehicle_type_id":"4","last_reported":1771377319,"current_range_meters":8800,"station_id":"ce4bh412rcd13ifvqds0","pricing_plan_id":"cebpf4jnsgd1na2vs0mg"},{"bike_id":"4abe2057-85cb-4fc7-a137-4bf36f9fc812","system_id":"levelo_inurba_marseille","lat":43.25109,"lon":5.39465,"is_reserved":false,"is_disabled":false,"rental_uris":{"android":"levelo://app?vid=4abe2057-85cb-4fc7-a137-4bf36f9fc812","ios":"levelo://app?vid=4abe2057-85cb-4fc7-a137-4bf36f9fc812"},"vehicle_type_id":"4","last_reported":1771377319,"current_range_meters":3200,"station_id":"ce4bhm12rcd13ifvqgkg","pricing_plan_id":"cebpf4jnsgd1na2vs0mg"},{"bike_id":"afff3800-03a2-445f-8c9e-ee6d1e7a19d8","system_id":"levelo_inurba_marseille","lat":43.33536,"lon":5.37463,"is_reserved":false,"is_disabled":false,"rental_uris":{"android":"levelo://app?vid=afff3800-03a2-445f-8c9e-ee6d1e7a19d8","ios":"levelo://app?vid=afff3800-03a2-445f-8c9e-ee6d1e7a19d8"},"vehicle_type_id":"4","last_reported":1771377319,"current_range_meters":16400,"station_id":"st_d46tts09ee8s73dlu43g","pricing_plan_id":"cebpf4jnsgd1na2vs0mg"},{"bike_id":"6af3decf-f40a-402f-b0e3-73139c26681c","system_id":"levelo_inurba_marseille","lat":43.22921,"lon":5.35389,"is_reserved":false,"is_disabled":false,"rental_uris":{"android":"levelo://app?vid=6af3decf-f40a-402f-b0e3-73139c26681c","ios":"levelo://app?vid=6af3decf-f40a-402f-b0e3-73139c26681c"},"vehicle_type_id":"4","last_reported":1771377319,"current_range_meters":12000,"station_id":"cpo3532slgdg3j2ikp40","pricing_plan_id":"cebpf4jnsgd1na2vs0mg"},{"bike_id":"9dd06c09-5f81-47a1-ae90-5062017994f0","system_id":"levelo_inurba_marseille","lat":43.2535,"lon":5.42181,"is_reserved":false,"is_disabled":false,"rental_uris":{"android":"levelo://app?vid=9dd06c09-5f81-47a1-ae90-5062017994f0","ios":"levelo://app?vid=9dd06c09-5f81-47a1-ae90-5062017994f0"},"vehicle_type_id":"4","last_reported":1771377319,"current_range_meters":26800,"station_id":"st_d2m65c5bi1j21697t3ng","pricing_plan_id":"cebpf4jnsgd1na2vs0mg"},{"bike_id":"67277da1-12ed-4778-b406-7c2e9eee4f83","system_id":"levelo_inurba_marseille","lat":43.305502,"lon":5.365259,"is_reserved":false,"is_disabled":false,"rental_uris":{"android":"levelo://app?vid=67277da1-12ed-4778-b406-7c2e9eee4f83","ios":"levelo://app?vid=67277da1-12ed-4778-b406-7c2e9eee4f83"},"vehicle_type_id":"4","last_reported":1771377319,"current_range_meters":11600,"station_id":"ce4bgs12rcd13ifvqcag","pricing_plan_id":"cebpf4jnsgd1na2vs0mg"},{"bike_id":"87391fad-860f-4fa4-a57c-35c961b8617c","system_id":"levelo_inurba_marseille","lat":43.23222,"lon":5.35591,"is_reserved":false,"is_disabled":false,"rental_uris":{"android":"levelo://app?vid=87391fad-860f-4fa4-a57c-35c961b8617c","ios":"levelo://app?vid=87391fad-860f-4fa4-a57c-35c961b8617c"},"vehicle_type_id":"4","last_reported":1771377319,"current_range_meters":8000,"station_id":"ce4bhu92rcd13ifvqi70","pricing_plan_id":"cebpf4jnsgd1na2vs0mg"},{"bike_id":"561e809d-cd6a-4222-8925-ce16aa025bc1","system_id":"levelo_inurba_marseille","lat":43.28071,"lon":5.39622,"is_reserved":false,"is_disabled":false,"rental_uris":{"android":"levelo://app?vid=561e809d-cd6a-4222-8925-ce16aa025bc1","ios":"levelo://app?vid=561e809d-cd6a-4222-8925-ce16aa025bc1"},"vehicle_type_id":"4","last_reported":1771377319,"current_range_meters":39200,"station_id":"ce4bho12rcd13ifvqh2g","pricing_plan_id":"cebpf4jnsgd1na2vs0mg"},{"bike_id":"964ce02a-6824-4ea5-b232-7c7fcbfa13e7","system_id":"levelo_inurba_marseille","lat":43.25734,"lon":5.41117,"is_reserved":false,"is_disabled":false,"rental_uris":{"android":"levelo://app?vid=964ce02a-6824-4ea5-b232-7c7fcbfa13e7","ios":"levelo://app?vid=964ce02a-6824-4ea5-b232-7c7fcbfa13e7"},"vehicle_type_id":"4","last_reported":1771377319,"current_range_meters":29600,"station_id":"ce4bhkp2rcd13ifvqgd0","pricing_plan_id":"cebpf4jnsgd1na2vs0mg"},{"bike_id":"0ded2d71-f36a-4a3e-a53f-7a6b39f2391d","system_id":"levelo_inurba_marseille","lat":43.30937,"lon":5.40123,"is_reserved":false,"is_disabled":false,"rental_uris":{"android":"levelo://app?vid=0ded2d71-f36a-4a3e-a53f-7a6b39f2391d","ios":"levelo://app?vid=0ded2d71-f36a-4a3e-a53f-7a6b39f2391d"},"vehicle_type_id":"4","last_reported":1771377319,"current_range_meters":26800,"station_id":"ce4bgvp2rcd13ifvqct0","pricing_plan_id":"cebpf4jnsgd1na2vs0mg"},{"bike_id":"ca941c23-85ef-4e54-9d7d-a65bd7c9a99a","system_id":"levelo_inurba_marseille","lat":43.31288,"lon":5.4017,"is_reserved":false,"is_disabled":false,"rental_uris":{"android":"levelo://app?vid=ca941c23-85ef-4e54-9d7d-a65bd7c9a99a","ios":"levelo://app?vid=ca941c23-85ef-4e54-9d7d-a65bd7c9a99a"},"vehicle_type_id":"4","last_reported":1771377319,"current_range_meters":5600,"station_id":"ce4bh092rcd13ifvqd30","pricing_plan_id":"cebpf4jnsgd1na2vs0mg"},{"bike_id":"5e40af8a-0219-4ec6-b7fd-c99061c94907","system_id":"levelo_inurba_marseille","lat":43.24935,"lon":5.40493,"is_reserved":false,"is_disabled":false,"rental_uris":{"android":"levelo://app?vid=5e40af8a-0219-4ec6-b7fd-c99061c94907","ios":"levelo://app?vid=5e40af8a-0219-4ec6-b7fd-c99061c94907"},"vehicle_type_id":"4","last_reported":1771377319,"current_range_meters":27600,"station_id":"st_d2ngiaodas8pm72gd1h0","pricing_plan_id":"cebpf4jnsgd1na2vs0mg"},{"bike_id":"5bfaa88c-4b7e-4642-9223-22b0d6011a64","system_id":"levelo_inurba_marseille","lat":43.29812,"lon":5.44069,"is_reserved":false,"is_disabled":false,"rental_uris":{"android":"levelo://app?vid=5bfaa88c-4b7e-4642-9223-22b0d6011a64","ios":"levelo://app?vid=5bfaa88c-4b7e-4642-9223-22b0d6011a64"},"vehicle_type_id":"4","last_reported":1771377319,"current_range_meters":25600,"station_id":"st_d3jp68qikq2c7381ktn0","pricing_plan_id":"cebpf4jnsgd1na2vs0mg"},{"bike_id":"cd585594-4be0-426a-a8f6-9443b3c728db","system_id":"levelo_inurba_marseille","lat":43.29656,"lon":5.40637,"is_reserved":false,"is_disabled":false,"rental_uris":{"android":"levelo://app?vid=cd585594-4be0-426a-a8f6-9443b3c728db","ios":"levelo://app?vid=cd585594-4be0-426a-a8f6-9443b3c728db"},"vehicle_type_id":"4","last_reported":1771377319,"current_range_meters":36000,"station_id":"ce4bh0h2rcd13ifvqd60","pricing_plan_id":"cebpf4jnsgd1na2vs0mg"},{"bike_id":"c92a73a1-0041-46fb-87cb-f057646c61eb","system_id":"levelo_inurba_marseille","lat":43.270566,"lon":5.402624,"is_reserved":false,"is_disabled":true,"rental_uris":{"android":"levelo://app?vid=c92a73a1-0041-46fb-87cb-f057646c61eb","ios":"levelo://app?vid=c92a73a1-0041-46fb-87cb-f057646c61eb"},"vehicle_type_id":"4","last_reported":1771377319,"current_range_meters":32000,"station_id":"ce4bhk92rcd13ifvqgc0","pricing_plan_id":"cebpf4jnsgd1na2vs0mg"},{"bike_id":"fb1fd3a2-a98f-41a2-8afa-8a49193d968d","system_id":"levelo_inurba_marseille","lat":43.29443,"lon":5.39758,"is_reserved":false,"is_disabled":false,"rental_uris":{"android":"levelo://app?vid=fb1fd3a2-a98f-41a2-8afa-8a49193d968d","ios":"levelo://app?vid=fb1fd3a2-a98f-41a2-8afa-8a49193d968d"},"vehicle_type_id":"4","last_reported":1771377319,"current_range_meters":30000,"station_id":"ce4bh3h2rcd13ifvqdo0","pricing_plan_id":"cebpf4jnsgd1na2vs0mg"},{"bike_id":"32996b4d-49e8-47dd-adbb-20093f58b306","system_id":"levelo_inurba_marseille","lat":43.29541,"lon":5.37488,"is_reserved":false,"is_disabled":false,"rental_uris":{"android":"levelo://app?vid=32996b4d-49e8-47dd-adbb-20093f58b306","ios":"levelo://app?vid=32996b4d-49e8-47dd-adbb-20093f58b306"},"vehicle_type_id":"4","last_reported":1771377319,"current_range_meters":22800,"station_id":"ce4bgkp2rcd13ifvqbmg","pricing_plan_id":"cebpf4jnsgd1na2vs0mg"},{"bike_id":"82fad195-e75a-434e-9dad-e971218ca183","system_id":"levelo_inurba_marseille","lat":43.30137,"lon":5.38781,"is_reserved":false,"is_disabled":false,"rental_uris":{"android":"levelo://app?vid=82fad195-e75a-434e-9dad-e971218ca183","ios":"levelo://app?vid=82fad195-e75a-434e-9dad-e971218ca183"},"vehicle_type_id":"4","last_reported":1771377319,"current_range_meters":39200,"station_id":"ce4bghh2rcd13ifvqb60","pricing_plan_id":"cebpf4jnsgd1na2vs0mg"},{"bike_id":"cd48efb2-ed30-4218-888c-84759d09e4c5","system_id":"levelo_inurba_marseille","lat":43.2624,"lon":5.40473,"is_reserved":false,"is_disabled":false,"rental_uris":{"android":"levelo://app?vid=cd48efb2-ed30-4218-888c-84759d09e4c5","ios":"levelo://app?vid=cd48efb2-ed30-4218-888c-84759d09e4c5"},"vehicle_type_id":"4","last_reported":1771377319,"current_range_meters":38000,"station_id":"ce4bhmh2rcd13ifvqgmg","pricing_plan_id":"cebpf4jnsgd1na2vs0mg"},{"bike_id":"179e0650-63e1-4a83-9471-4debabe0e920","system_id":"levelo_inurba_marseille","lat":43.29576,"lon":5.43935,"is_reserved":false,"is_disabled":false,"rental_uris":{"android":"levelo://app?vid=179e0650-63e1-4a83-9471-4debabe0e920","ios":"levelo://app?vid=179e0650-63e1-4a83-9471-4debabe0e920"},"vehicle_type_id":"4","last_reported":1771377319,"current_range_meters":20400,"station_id":"","pricing_plan_id":"cebpf4jnsgd1na2vs0mg"},{"bike_id":"f8433f00-4cce-43dd-a624-88ddfaa7d5d3","system_id":"levelo_inurba_marseille","lat":43.280019,"lon":5.416631,"is_reserved":false,"is_disabled":false,"rental_uris":{"android":"levelo://app?vid=f8433f00-4cce-43dd-a624-88ddfaa7d5d3","ios":"levelo://app?vid=f8433f00-4cce-43dd-a624-88ddfaa7d5d3"},"vehicle_type_id":"4","last_reported":1771377319,"current_range_meters":10000,"station_id":"ce4bho12rcd13ifvqh1g","pricing_plan_id":"cebpf4jnsgd1na2vs0mg"},{"bike_id":"277b4958-262c-4ef6-b4be-ff655963fed0","system_id":"levelo_inurba_marseille","lat":43.28209,"lon":5.39056,"is_reserved":false,"is_disabled":false,"rental_uris":{"android":"levelo://app?vid=277b4958-262c-4ef6-b4be-ff655963fed0","ios":"levelo://app?vid=277b4958-262c-4ef6-b4be-ff655963fed0"},"vehicle_type_id":"4","last_reported":1771377319,"current_range_meters":20400,"station_id":"ce4bhn92rcd13ifvqgsg","pricing_plan_id":"cebpf4jnsgd1na2vs0mg"},{"bike_id":"5fb5e705-3202-4588-89e4-78298a0e7012","system_id":"levelo_inurba_marseille","lat":43.3017,"lon":5.36653,"is_reserved":false,"is_disabled":false,"rental_uris":{"android":"levelo://app?vid=5fb5e705-3202-4588-89e4-78298a0e7012","ios":"levelo://app?vid=5fb5e705-3202-4588-89e4-78298a0e7012"},"vehicle_type_id":"4","last_reported":1771377319,"current_range_meters":38400,"station_id":"ce4bgrh2rcd13ifvqc8g","pricing_plan_id":"cebpf4jnsgd1na2vs0mg"},{"bike_id":"e2e91256-8aba-4923-b55b-41265e2eee36","system_id":"levelo_inurba_marseille","lat":43.27954,"lon":5.38692,"is_reserved":false,"is_disabled":false,"rental_uris":{"android":"levelo://app?vid=e2e91256-8aba-4923-b55b-41265e2eee36","ios":"levelo://app?vid=e2e91256-8aba-4923-b55b-41265e2eee36"},"vehicle_type_id":"4","last_reported":1771377319,"current_range_meters":10000,"station_id":"ce4bhg12rcd13ifvqf80","pricing_plan_id":"cebpf4jnsgd1na2vs0mg"},{"bike_id":"d167da5e-127d-4396-a1ad-fe77572918e4","system_id":"levelo_inurba_marseille","lat":43.25736,"lon":5.41128,"is_reserved":false,"is_disabled":false,"rental_uris":{"android":"levelo://app?vid=d167da5e-127d-4396-a1ad-fe77572918e4","ios":"levelo://app?vid=d167da5e-127d-4396-a1ad-fe77572918e4"},"vehicle_type_id":"4","last_reported":1771377319,"current_range_meters":36400,"station_id":"ce4bhkp2rcd13ifvqgd0","pricing_plan_id":"cebpf4jnsgd1na2vs0mg"},{"bike_id":"b18cf4f0-0ae5-4ca5-9c86-dfa39a92e718","system_id":"levelo_inurba_marseille","lat":43.26059,"lon":5.39395,"is_reserved":false,"is_disabled":false,"rental_uris":{"android":"levelo://app?vid=b18cf4f0-0ae5-4ca5-9c86-dfa39a92e718","ios":"levelo://app?vid=b18cf4f0-0ae5-4ca5-9c86-dfa39a92e718"},"vehicle_type_id":"4","last_reported":1771377319,"current_range_meters":37600,"station_id":"","pricing_plan_id":"cebpf4jnsgd1na2vs0mg"},{"bike_id":"e42d0d1a-ff14-4a8f-8767-7c3f6ae93de5","system_id":"levelo_inurba_marseille","lat":43.27959,"lon":5.38717,"is_reserved":false,"is_disabled":true,"rental_uris":{"android":"levelo://app?vid=e42d0d1a-ff14-4a8f-8767-7c3f6ae93de5","ios":"levelo://app?vid=e42d0d1a-ff14-4a8f-8767-7c3f6ae93de5"},"vehicle_type_id":"4","last_reported":1771377319,"current_range_meters":17200,"station_id":"ce4bhg12rcd13ifvqf80","pricing_plan_id":"cebpf4jnsgd1na2vs0mg"},{"bike_id":"466c285d-e65b-4984-9d14-a6043824ae65","system_id":"levelo_inurba_marseille","lat":43.24643,"lon":5.38903,"is_reserved":false,"is_disabled":false,"rental_uris":{"android":"levelo://app?vid=466c285d-e65b-4984-9d14-a6043824ae65","ios":"levelo://app?vid=466c285d-e65b-4984-9d14-a6043824ae65"},"vehicle_type_id":"4","last_reported":1771377319,"current_range_meters":17200,"station_id":"ce4bhg12rcd13ifvqf60","pricing_plan_id":"cebpf4jnsgd1na2vs0mg"},{"bike_id":"4ae647e8-b6d2-4b53-bf12-11e2f4209c60","system_id":"levelo_inurba_marseille","lat":43.29521,"lon":5.3785,"is_reserved":false,"is_disabled":false,"rental_uris":{"android":"levelo://app?vid=4ae647e8-b6d2-4b53-bf12-11e2f4209c60","ios":"levelo://app?vid=4ae647e8-b6d2-4b53-bf12-11e2f4209c60"},"vehicle_type_id":"4","last_reported":1771377319,"current_range_meters":33600,"station_id":"","pricing_plan_id":"cebpf4jnsgd1na2vs0mg"},{"bike_id":"fb1fc767-b986-446a-9b80-377c84932aed","system_id":"levelo_inurba_marseille","lat":43.25346,"lon":5.42161,"is_reserved":false,"is_disabled":false,"rental_uris":{"android":"levelo://app?vid=fb1fc767-b986-446a-9b80-377c84932aed","ios":"levelo://app?vid=fb1fc767-b986-446a-9b80-377c84932aed"},"vehicle_type_id":"4","last_reported":1771377319,"current_range_meters":8000,"station_id":"st_d2m65c5bi1j21697t3ng","pricing_plan_id":"cebpf4jnsgd1na2vs0mg"},{"bike_id":"883dc276-629d-4710-910d-f0f6f1a928b9","system_id":"levelo_inurba_marseille","lat":43.29866,"lon":5.39734,"is_reserved":false,"is_disabled":false,"rental_uris":{"android":"levelo://app?vid=883dc276-629d-4710-910d-f0f6f1a928b9","ios":"levelo://app?vid=883dc276-629d-4710-910d-f0f6f1a928b9"},"vehicle_type_id":"4","last_reported":1771377319,"current_range_meters":9600,"station_id":"ce4bh0h2rcd13ifvqd50","pricing_plan_id":"cebpf4jnsgd1na2vs0mg"},{"bike_id":"eb22e2d0-fa7e-4c2d-ab3b-ba437584210f","system_id":"levelo_inurba_marseille","lat":43.25119,"lon":5.4032,"is_reserved":false,"is_disabled":false,"rental_uris":{"android":"levelo://app?vid=eb22e2d0-fa7e-4c2d-ab3b-ba437584210f","ios":"levelo://app?vid=eb22e2d0-fa7e-4c2d-ab3b-ba437584210f"},"vehicle_type_id":"4","last_reported":1771377319,"current_range_meters":20800,"station_id":"ce4bhlh2rcd13ifvqgig","pricing_plan_id":"cebpf4jnsgd1na2vs0mg"},{"bike_id":"a1a9b74a-80b0-4592-a923-f1bac9b51ed4","system_id":"levelo_inurba_marseille","lat":43.309324,"lon":5.401499,"is_reserved":false,"is_disabled":false,"rental_uris":{"android":"levelo://app?vid=a1a9b74a-80b0-4592-a923-f1bac9b51ed4","ios":"levelo://app?vid=a1a9b74a-80b0-4592-a923-f1bac9b51ed4"},"vehicle_type_id":"4","last_reported":1771377319,"current_range_meters":10000,"station_id":"ce4bgvp2rcd13ifvqct0","pricing_plan_id":"cebpf4jnsgd1na2vs0mg"},{"bike_id":"1ee60cac-0626-4f13-a3e3-732bdc45f1fa","system_id":"levelo_inurba_marseille","lat":43.28746,"lon":5.36079,"is_reserved":false,"is_disabled":false,"rental_uris":{"android":"levelo://app?vid=1ee60cac-0626-4f13-a3e3-732bdc45f1fa","ios":"levelo://app?vid=1ee60cac-0626-4f13-a3e3-732bdc45f1fa"},"vehicle_type_id":"4","last_reported":1771377319,"current_range_meters":17200,"station_id":"cki0cbj6b192h4jlfktg","pricing_plan_id":"cebpf4jnsgd1na2vs0mg"},{"bike_id":"0a1862e9-6273-4808-93e9-4a05042449bf","system_id":"levelo_inurba_marseille","lat":43.26215,"lon":5.40452,"is_reserved":false,"is_disabled":false,"rental_uris":{"android":"levelo://app?vid=0a1862e9-6273-4808-93e9-4a05042449bf","ios":"levelo://app?vid=0a1862e9-6273-4808-93e9-4a05042449bf"},"vehicle_type_id":"4","last_reported":1771377319,"current_range_meters":28800,"station_id":"ce4bhmh2rcd13ifvqgmg","pricing_plan_id":"cebpf4jnsgd1na2vs0mg"},{"bike_id":"0cdb37fd-f60f-430e-a245-d3a89d326500","system_id":"levelo_inurba_marseille","lat":43.29521,"lon":5.37514,"is_reserved":false,"is_disabled":false,"rental_uris":{"android":"levelo://app?vid=0cdb37fd-f60f-430e-a245-d3a89d326500","ios":"levelo://app?vid=0cdb37fd-f60f-430e-a245-d3a89d326500"},"vehicle_type_id":"4","last_reported":1771377319,"current_range_meters":25200,"station_id":"ce4bgkp2rcd13ifvqbmg","pricing_plan_id":"cebpf4jnsgd1na2vs0mg"},{"bike_id":"4df3feeb-b488-44dc-bfe2-e3dfefe6313a","system_id":"levelo_inurba_marseille","lat":43.29815,"lon":5.44058,"is_reserved":false,"is_disabled":false,"rental_uris":{"android":"levelo://app?vid=4df3feeb-b488-44dc-bfe2-e3dfefe6313a","ios":"levelo://app?vid=4df3feeb-b488-44dc-bfe2-e3dfefe6313a"},"vehicle_type_id":"4","last_reported":1771377319,"current_range_meters":7200,"station_id":"st_d3jp68qikq2c7381ktn0","pricing_plan_id":"cebpf4jnsgd1na2vs0mg"},{"bike_id":"ad34b565-8642-496a-85fd-34b4852f6fd0","system_id":"levelo_inurba_marseille","lat":43.29932,"lon":5.36529,"is_reserved":false,"is_disabled":false,"rental_uris":{"android":"levelo://app?vid=ad34b565-8642-496a-85fd-34b4852f6fd0","ios":"levelo://app?vid=ad34b565-8642-496a-85fd-34b4852f6fd0"},"vehicle_type_id":"4","last_reported":1771377319,"current_range_meters":36400,"station_id":"ce4bgm92rcd13ifvqbr0","pricing_plan_id":"cebpf4jnsgd1na2vs0mg"},{"bike_id":"d6e649fe-7d53-429f-ad31-028beff574e2","system_id":"levelo_inurba_marseille","lat":43.253466,"lon":5.421796,"is_reserved":false,"is_disabled":false,"rental_uris":{"android":"levelo://app?vid=d6e649fe-7d53-429f-ad31-028beff574e2","ios":"levelo://app?vid=d6e649fe-7d53-429f-ad31-028beff574e2"},"vehicle_type_id":"4","last_reported":1771377319,"current_range_meters":6000,"station_id":"st_d2m65c5bi1j21697t3ng","pricing_plan_id":"cebpf4jnsgd1na2vs0mg"},{"bike_id":"44575239-0d01-412c-a4b2-98f1c93c9899","system_id":"levelo_inurba_marseille","lat":43.28836,"lon":5.35858,"is_reserved":false,"is_disabled":false,"rental_uris":{"android":"levelo://app?vid=44575239-0d01-412c-a4b2-98f1c93c9899","ios":"levelo://app?vid=44575239-0d01-412c-a4b2-98f1c93c9899"},"vehicle_type_id":"4","last_reported":1771377319,"current_range_meters":38400,"station_id":"ce4bhb12rcd13ifvqem0","pricing_plan_id":"cebpf4jnsgd1na2vs0mg"},{"bike_id":"da3bbfc0-99c7-4876-a2ee-078a7dd23ab8","system_id":"levelo_inurba_marseille","lat":43.231956,"lon":5.355493,"is_reserved":false,"is_disabled":false,"rental_uris":{"android":"levelo://app?vid=da3bbfc0-99c7-4876-a2ee-078a7dd23ab8","ios":"levelo://app?vid=da3bbfc0-99c7-4876-a2ee-078a7dd23ab8"},"vehicle_type_id":"4","last_reported":1771377319,"current_range_meters":21600,"station_id":"ce4bhu92rcd13ifvqi70","pricing_plan_id":"cebpf4jnsgd1na2vs0mg"},{"bike_id":"f6d5c1e7-d501-4b37-b07a-e26fe5bacd1e","system_id":"levelo_inurba_marseille","lat":43.28466,"lon":5.48431,"is_reserved":false,"is_disabled":false,"rental_uris":{"android":"levelo://app?vid=f6d5c1e7-d501-4b37-b07a-e26fe5bacd1e","ios":"levelo://app?vid=f6d5c1e7-d501-4b37-b07a-e26fe5bacd1e"},"vehicle_type_id":"4","last_reported":1771377319,"current_range_meters":7200,"station_id":"st_d3svhcjqgbts73a3dn0g","pricing_plan_id":"cebpf4jnsgd1na2vs0mg"},{"bike_id":"af893c41-4639-4727-919a-4e67f3d6f928","system_id":"levelo_inurba_marseille","lat":43.24397,"lon":5.37055,"is_reserved":false,"is_disabled":false,"rental_uris":{"android":"levelo://app?vid=af893c41-4639-4727-919a-4e67f3d6f928","ios":"levelo://app?vid=af893c41-4639-4727-919a-4e67f3d6f928"},"vehicle_type_id":"4","last_reported":1771377319,"current_range_meters":27600,"station_id":"ce4bhhh2rcd13ifvqfk0","pricing_plan_id":"cebpf4jnsgd1na2vs0mg"},{"bike_id":"ab1eae3c-e257-4daf-b7ab-b7087ca9184f","system_id":"levelo_inurba_marseille","lat":43.30453,"lon":5.38887,"is_reserved":false,"is_disabled":false,"rental_uris":{"android":"levelo://app?vid=ab1eae3c-e257-4daf-b7ab-b7087ca9184f","ios":"levelo://app?vid=ab1eae3c-e257-4daf-b7ab-b7087ca9184f"},"vehicle_type_id":"4","last_reported":1771377319,"current_range_meters":9600,"station_id":"ce4bgk12rcd13ifvqbi0","pricing_plan_id":"cebpf4jnsgd1na2vs0mg"},{"bike_id":"289dd7c4-782f-46e3-8d0b-2f42364b8ecf","system_id":"levelo_inurba_marseille","lat":43.2855,"lon":5.39537,"is_reserved":false,"is_disabled":false,"rental_uris":{"android":"levelo://app?vid=289dd7c4-782f-46e3-8d0b-2f42364b8ecf","ios":"levelo://app?vid=289dd7c4-782f-46e3-8d0b-2f42364b8ecf"},"vehicle_type_id":"4","last_reported":1771377319,"current_range_meters":39200,"station_id":"ce4bh292rcd13ifvqdg0","pricing_plan_id":"cebpf4jnsgd1na2vs0mg"},{"bike_id":"8fe4839e-358e-47b4-b917-3e2dc67d8102","system_id":"levelo_inurba_marseille","lat":43.33764,"lon":5.3744,"is_reserved":false,"is_disabled":false,"rental_uris":{"android":"levelo://app?vid=8fe4839e-358e-47b4-b917-3e2dc67d8102","ios":"levelo://app?vid=8fe4839e-358e-47b4-b917-3e2dc67d8102"},"vehicle_type_id":"4","last_reported":1771377319,"current_range_meters":22800,"station_id":"","pricing_plan_id":"cebpf4jnsgd1na2vs0mg"},{"bike_id":"5d06f80c-de45-473d-937f-8c89c6ffa3b8","system_id":"levelo_inurba_marseille","lat":43.29865,"lon":5.39752,"is_reserved":false,"is_disabled":false,"rental_uris":{"android":"levelo://app?vid=5d06f80c-de45-473d-937f-8c89c6ffa3b8","ios":"levelo://app?vid=5d06f80c-de45-473d-937f-8c89c6ffa3b8"},"vehicle_type_id":"4","last_reported":1771377319,"current_range_meters":39200,"station_id":"ce4bh0h2rcd13ifvqd50","pricing_plan_id":"cebpf4jnsgd1na2vs0mg"},{"bike_id":"85e0a208-7ec9-4b81-bf57-d5a5039a9111","system_id":"levelo_inurba_marseille","lat":43.23153,"lon":5.43741,"is_reserved":false,"is_disabled":true,"rental_uris":{"android":"levelo://app?vid=85e0a208-7ec9-4b81-bf57-d5a5039a9111","ios":"levelo://app?vid=85e0a208-7ec9-4b81-bf57-d5a5039a9111"},"vehicle_type_id":"4","last_reported":1771377319,"current_range_meters":38800,"station_id":"ce4bhmp2rcd13ifvqgog","pricing_plan_id":"cebpf4jnsgd1na2vs0mg"},{"bike_id":"8c60f819-eb33-4baa-adf3-d22d262d0759","system_id":"levelo_inurba_marseille","lat":43.24061,"lon":5.37736,"is_reserved":false,"is_disabled":false,"rental_uris":{"android":"levelo://app?vid=8c60f819-eb33-4baa-adf3-d22d262d0759","ios":"levelo://app?vid=8c60f819-eb33-4baa-adf3-d22d262d0759"},"vehicle_type_id":"4","last_reported":1771377319,"current_range_meters":38400,"station_id":"ce4bhnp2rcd13ifvqgvg","pricing_plan_id":"cebpf4jnsgd1na2vs0mg"},{"bike_id":"abd40513-0873-4d41-899d-de8706bed8f2","system_id":"levelo_inurba_marseille","lat":43.2885,"lon":5.35842,"is_reserved":false,"is_disabled":false,"rental_uris":{"android":"levelo://app?vid=abd40513-0873-4d41-899d-de8706bed8f2","ios":"levelo://app?vid=abd40513-0873-4d41-899d-de8706bed8f2"},"vehicle_type_id":"4","last_reported":1771377319,"current_range_meters":20400,"station_id":"ce4bhb12rcd13ifvqem0","pricing_plan_id":"cebpf4jnsgd1na2vs0mg"},{"bike_id":"11717b33-3807-47c3-94ff-b2c03826c7f4","system_id":"levelo_inurba_marseille","lat":43.30133,"lon":5.39889,"is_reserved":false,"is_disabled":false,"rental_uris":{"android":"levelo://app?vid=11717b33-3807-47c3-94ff-b2c03826c7f4","ios":"levelo://app?vid=11717b33-3807-47c3-94ff-b2c03826c7f4"},"vehicle_type_id":"4","last_reported":1771377319,"current_range_meters":27200,"station_id":"ce4bh0h2rcd13ifvqd40","pricing_plan_id":"cebpf4jnsgd1na2vs0mg"},