{"last_updated":1736806067,"ttl":60,"version":"2.2","data":{"bikes":[{"bike_id":"f25e1845-30c9-49ee-8cf4-09353d397859","system_id":"levelo_inurba_marseille","lat":43.32497,"lon":5.36567,"is_reserved":false,"is_disabled":false,"rental_uris":{"android":"levelo://app?vid=f25e1845-30c9-49ee-8cf4-09353d397859","ios":"levelo://app?vid=f25e1845-30c9-49ee-8cf4-09353d397859"},"vehicle_type_id":"4","last_reported":1736806067,"current_range_meters":37600,"station_id":"ce4bhs12rcd13ifvqhvg","pricing_plan_id":"cebpf4jnsgd1na2vs0mg"},{"bike_id":"8b877a16-2c6f-4913-a8ea-b53aacb81218","system_id":"levelo_inurba_marseille","lat":43.28087,"lon":5.39652,"is_reserved":false,"is_disabled":false,"rental_uris":{"android":"levelo://app?vid=8b877a16-2c6f-4913-a8ea-b53aacb81218","ios":"levelo://app?vid=8b877a16-2c6f-4913-a8ea-b53aacb81218"},"vehicle_type_id":"4","last_reported":1736806067,"current_range_meters":38800,"station_id":"ce4bho12rcd13ifvqh2g","pricing_plan_id":"cebpf4jnsgd1na2vs0mg"},{"bike_id":"58749a2e-936f-483c-8729-901ef3c374d7","system_id":"levelo_inurba_marseille","lat":43.3083,"lon":5.38175,"is_reserved":false,"is_disabled":false,"rental_uris":{"android":"levelo://app?vid=58749a2e-936f-483c-8729-901ef3c374d7","ios":"levelo://app?vid=58749a2e-936f-483c-8729-901ef3c374d7"},"vehicle_type_id":"4","last_reported":1736806067,"current_range_meters":38000,"station_id":"ce4bgt12rcd13ifvqce0","pricing_plan_id":"cebpf4jnsgd1na2vs0mg"},{"bike_id":"ad246e4b-ae11-4800-84d7-528efb370d33","system_id":"levelo_inurba_marseille","lat":43.29277,"lon":5.40155,"is_reserved":false,"is_disabled":false,"rental_uris":{"android":"levelo://app?vid=ad246e4b-ae11-4800-84d7-528efb370d33","ios":"levelo://app?vid=ad246e4b-ae11-4800-84d7-528efb370d33"},"vehicle_type_id":"4","last_reported":1736806067,"current_range_meters":24800,"station_id":"ce4bh312rcd13ifvqdk0","pricing_plan_id":"cebpf4jnsgd1na2vs0mg"},{"bike_id":"c37eb154-eff9-4ed3-b5f8-4bec02466a3b","system_id":"levelo_inurba_marseille","lat":43.31365,"lon":5.38489,"is_reserved":false,"is_disabled":false,"rental_uris":{"android":"levelo://app?vid=c37eb154-eff9-4ed3-b5f8-4bec02466a3b","ios":"levelo://app?vid=c37eb154-eff9-4ed3-b5f8-4bec02466a3b"},"vehicle_type_id":"4","last_reported":1736806067,"current_range_meters":16400,"station_id":"ce4bgt92rcd13ifvqcf0","pricing_plan_id":"cebpf4jnsgd1na2vs0mg"},{"bike_id":"68254f1d-5cce-47b3-8eeb-489bd62106b0","system_id":"levelo_inurba_marseille","lat":43.28727,"lon":5.36106,"is_reserved":false,"is_disabled":false,"rental_uris":{"android":"levelo://app?vid=68254f1d-5cce-47b3-8eeb-489bd62106b0","ios":"levelo://app?vid=68254f1d-5cce-47b3-8eeb-489bd62106b0"},"vehicle_type_id":"4","last_reported":1736806067,"current_range_meters":38400,"station_id":"cki0cbj6b192h4jlfktg","pricing_plan_id":"cebpf4jnsgd1na2vs0mg"},{"bike_id":"3953439b-f509-49e5-bb8d-9b9887e5086e","system_id":"levelo_inurba_marseille","lat":43.31071,"lon":5.38343,"is_reserved":false,"is_disabled":false,"rental_uris":{"android":"levelo://app?vid=3953439b-f509-49e5-bb8d-9b9887e5086e","ios":"levelo://app?vid=3953439b-f509-49e5-bb8d-9b9887e5086e"},"vehicle_type_id":"4","last_reported":1736806067,"current_range_meters":30400,"station_id":"ce4bgv92rcd13ifvqcr0","pricing_plan_id":"cebpf4jnsgd1na2vs0mg"},{"bike_id":"a9caf45c-9b62-4fad-bb25-cf9cfd1dff86","system_id":"levelo_inurba_marseille","lat":43.33737,"lon":5.39163,"is_reserved":false,"is_disabled":false,"rental_uris":{"android":"levelo://app?vid=a9caf45c-9b62-4fad-bb25-cf9cfd1dff86","ios":"levelo://app?vid=a9caf45c-9b62-4fad-bb25-cf9cfd1dff86"},"vehicle_type_id":"4","last_reported":1736806067,"current_range_meters":38000,"station_id":"ce4bhr92rcd13ifvqhsg","pricing_plan_id":"cebpf4jnsgd1na2vs0mg"},{"bike_id":"8df66f74-b7b1-4730-a851-ab6b59f101e6","system_id":"levelo_inurba_marseille","lat":43.28624,"lon":5.35116,"is_reserved":false,"is_disabled":false,"rental_uris":{"android":"levelo://app?vid=8df66f74-b7b1-4730-a851-ab6b59f101e6","ios":"levelo://app?vid=8df66f74-b7b1-4730-a851-ab6b59f101e6"},"vehicle_type_id":"4","last_reported":1736806067,"current_range_meters":30800,"station_id":"ce4bhch2rcd13ifvqeug","pricing_plan_id":"cebpf4jnsgd1na2vs0mg"},{"bike_id":"5e0b46d4-53a6-4a9b-81ed-42b3629948b7","system_id":"levelo_inurba_marseille","lat":43.321017,"lon":5.368007,"is_reserved":false,"is_disabled":false,"rental_uris":{"android":"levelo://app?vid=5e0b46d4-53a6-4a9b-81ed-42b3629948b7","ios":"levelo://app?vid=5e0b46d4-53a6-4a9b-81ed-42b3629948b7"},"vehicle_type_id":"4","last_reported":1736806067,"current_range_meters":38800,"station_id":"ce4bhrh2rcd13ifvqhug","pricing_plan_id":"cebpf4jnsgd1na2vs0mg"},{"bike_id":"a6943742-818e-4008-acc6-cc0735fe9917","system_id":"levelo_inurba_marseille","lat":43.31502,"lon":5.38897,"is_reserved":false,"is_disabled":false,"rental_uris":{"android":"levelo://app?vid=a6943742-818e-4008-acc6-cc0735fe9917","ios":"levelo://app?vid=a6943742-818e-4008-acc6-cc0735fe9917"},"vehicle_type_id":"4","last_reported":1736806067,"current_range_meters":24400,"station_id":"","pricing_plan_id":"cebpf4jnsgd1na2vs0mg"},{"bike_id":"6f593e78-7c62-4312-9e37-109ef54a7a6f","system_id":"levelo_inurba_marseille","lat":43.28851,"lon":5.358462,"is_reserved":false,"is_disabled":false,"rental_uris":{"android":"levelo://app?vid=6f593e78-7c62-4312-9e37-109ef54a7a6f","ios":"levelo://app?vid=6f593e78-7c62-4312-9e37-109ef54a7a6f"},"vehicle_type_id":"4","last_reported":1736806067,"current_range_meters":20000,"station_id":"ce4bhb12rcd13ifvqem0","pricing_plan_id":"cebpf4jnsgd1na2vs0mg"},{"bike_id":"5772835d-a152-4036-9945-3ef2be70f9fa","system_id":"levelo_inurba_marseille","lat":43.29056,"lon":5.3589,"is_reserved":false,"is_disabled":false,"rental_uris":{"android":"levelo://app?vid=5772835d-a152-4036-9945-3ef2be70f9fa","ios":"levelo://app?vid=5772835d-a152-4036-9945-3ef2be70f9fa"},"vehicle_type_id":"4","last_reported":1736806067,"current_range_meters":39200,"station_id":"ce4bha92rcd13ifvqeg0","pricing_plan_id":"cebpf4jnsgd1na2vs0mg"},{"bike_id":"5bb5758f-37be-496e-ac0a-3712e6b43125","system_id":"levelo_inurba_marseille","lat":43.26194,"lon":5.37904,"is_reserved":false,"is_disabled":false,"rental_uris":{"android":"levelo://app?vid=5bb5758f-37be-496e-ac0a-3712e6b43125","ios":"levelo://app?vid=5bb5758f-37be-496e-ac0a-3712e6b43125"},"vehicle_type_id":"4","last_reported":1736806067,"current_range_meters":38800,"station_id":"ce4bhjp2rcd13ifvqg90","pricing_plan_id":"cebpf4jnsgd1na2vs0mg"},{"bike_id":"fbdc1be9-0896-4827-9983-8a84e7013511","system_id":"levelo_inurba_marseille","lat":43.25204,"lon":5.39081,"is_reserved":false,"is_disabled":false,"rental_uris":{"android":"levelo://app?vid=fbdc1be9-0896-4827-9983-8a84e7013511","ios":"levelo://app?vid=fbdc1be9-0896-4827-9983-8a84e7013511"},"vehicle_type_id":"4","last_reported":1736806067,"current_range_meters":35600,"station_id":"","pricing_plan_id":"cebpf4jnsgd1na2vs0mg"},{"bike_id":"47895ff9-2feb-423e-9fb3-4b3b221f759f","system_id":"levelo_inurba_marseille","lat":43.26065,"lon":5.39387,"is_reserved":false,"is_disabled":false,"rental_uris":{"android":"levelo://app?vid=47895ff9-2feb-423e-9fb3-4b3b221f759f","ios":"levelo://app?vid=47895ff9-2feb-423e-9fb3-4b3b221f759f"},"vehicle_type_id":"4","last_reported":1736806067,"current_range_meters":23200,"station_id":"ce4bhh92rcd13ifvqfj0","pricing_plan_id":"cebpf4jnsgd1na2vs0mg"},{"bike_id":"58a1f758-5be9-404d-9547-e5c57344ec44","system_id":"levelo_inurba_marseille","lat":43.2953,"lon":5.39412,"is_reserved":false,"is_disabled":false,"rental_uris":{"android":"levelo://app?vid=58a1f758-5be9-404d-9547-e5c57344ec44","ios":"levelo://app?vid=58a1f758-5be9-404d-9547-e5c57344ec44"},"vehicle_type_id":"4","last_reported":1736806067,"current_range_meters":28000,"station_id":"ce4bh292rcd13ifvqdf0","pricing_plan_id":"cebpf4jnsgd1na2vs0mg"},{"bike_id":"5404f601-338b-42b6-b222-0f8e6658aff2","system_id":"levelo_inurba_marseille","lat":43.28691,"lon":5.37393,"is_reserved":false,"is_disabled":false,"rental_uris":{"android":"levelo://app?vid=5404f601-338b-42b6-b222-0f8e6658aff2","ios":"levelo://app?vid=5404f601-338b-42b6-b222-0f8e6658aff2"},"vehicle_type_id":"4","last_reported":1736806067,"current_range_meters":22400,"station_id":"ce4bh3p2rcd13ifvqdq0","pricing_plan_id":"cebpf4jnsgd1na2vs0mg"},{"bike_id":"962cc5cc-fec7-46f8-84df-102fbfaf51f6","system_id":"levelo_inurba_marseille","lat":43.25921,"lon":5.40917,"is_reserved":false,"is_disabled":false,"rental_uris":{"android":"levelo://app?vid=962cc5cc-fec7-46f8-84df-102fbfaf51f6","ios":"levelo://app?vid=962cc5cc-fec7-46f8-84df-102fbfaf51f6"},"vehicle_type_id":"4","last_reported":1736806067,"current_range_meters":38800,"station_id":"ce4bhm92rcd13ifvqglg","pricing_plan_id":"cebpf4jnsgd1na2vs0mg"},{"bike_id":"82a6ba22-4fb6-4762-a475-80b36233bd6a","system_id":"levelo_inurba_marseille","lat":43.29794,"lon":5.3935,"is_reserved":false,"is_disabled":false,"rental_uris":{"android":"levelo://app?vid=82a6ba22-4fb6-4762-a475-80b36233bd6a","ios":"levelo://app?vid=82a6ba22-4fb6-4762-a475-80b36233bd6a"},"vehicle_type_id":"4","last_reported":1736806067,"current_range_meters":39200,"station_id":"chh1huq6cuj3fo74tm60","pricing_plan_id":"cebpf4jnsgd1na2vs0mg"},{"bike_id":"62ca94ae-f8fc-4f09-ac04-d26eba5804cc","system_id":"levelo_inurba_marseille","lat":43.33612,"lon":5.41029,"is_reserved":false,"is_disabled":false,"rental_uris":{"android":"levelo://app?vid=62ca94ae-f8fc-4f09-ac04-d26eba5804cc","ios":"levelo://app?vid=62ca94ae-f8fc-4f09-ac04-d26eba5804cc"},"vehicle_type_id":"4","last_reported":1736806067,"current_range_meters":39200,"station_id":"ce4bhqh2rcd13ifvqhmg","pricing_plan_id":"cebpf4jnsgd1na2vs0mg"},{"bike_id":"34ab4a2c-1cfd-44bc-8a6f-9e19f16ad438","system_id":"levelo_inurba_marseille","lat":43.27995,"lon":5.40023,"is_reserved":false,"is_disabled":false,"rental_uris":{"android":"levelo://app?vid=34ab4a2c-1cfd-44bc-8a6f-9e19f16ad438","ios":"levelo://app?vid=34ab4a2c-1cfd-44bc-8a6f-9e19f16ad438"},"vehicle_type_id":"4","last_reported":1736806067,"current_range_meters":26000,"station_id":"ce4bho92rcd13ifvqh4g","pricing_plan_id":"cebpf4jnsgd1na2vs0mg"},{"bike_id":"65e85a03-cf3e-4519-b8a8-200c5bb1b0c9","system_id":"levelo_inurba_marseille","lat":43.26197,"lon":5.37929,"is_reserved":false,"is_disabled":false,"rental_uris":{"android":"levelo://app?vid=65e85a03-cf3e-4519-b8a8-200c5bb1b0c9","ios":"levelo://app?vid=65e85a03-cf3e-4519-b8a8-200c5bb1b0c9"},"vehicle_type_id":"4","last_reported":1736806067,"current_range_meters":37600,"station_id":"ce4bhjp2rcd13ifvqg90","pricing_plan_id":"cebpf4jnsgd1na2vs0mg"},{"bike_id":"25201559-3be6-490e-b049-639df5366fcd","system_id":"levelo_inurba_marseille","lat":43.29967,"lon":5.38489,"is_reserved":false,"is_disabled":true,"rental_uris":{"android":"levelo://app?vid=25201559-3be6-490e-b049-639df5366fcd","ios":"levelo://app?vid=25201559-3be6-490e-b049-639df5366fcd"},"vehicle_type_id":"4","last_reported":1736806067,"current_range_meters":38400,"station_id":"ce4bgj92rcd13ifvqbd0","pricing_plan_id":"cebpf4jnsgd1na2vs0mg"},{"bike_id":"94440fca-9d66-4315-a057-b48311229f6d","system_id":"levelo_inurba_marseille","lat":43.33613,"lon":5.41024,"is_reserved":false,"is_disabled":true,"rental_uris":{"android":"levelo://app?vid=94440fca-9d66-4315-a057-b48311229f6d","ios":"levelo://app?vid=94440fca-9d66-4315-a057-b48311229f6d"},"vehicle_type_id":"4","last_reported":1736806067,"current_range_meters":36800,"station_id":"ce4bhqh2rcd13ifvqhmg","pricing_plan_id":"cebpf4jnsgd1na2vs0mg"},{"bike_id":"8c87b04e-7400-4d3c-8890-ca4ed5386a3c","system_id":"levelo_inurba_marseille","lat":43.3108,"lon":5.42432,"is_reserved":false,"is_disabled":false,"rental_uris":{"android":"levelo://app?vid=8c87b04e-7400-4d3c-8890-ca4ed5386a3c","ios":"levelo://app?vid=8c87b04e-7400-4d3c-8890-ca4ed5386a3c"},"vehicle_type_id":"4","last_reported":1736806067,"current_range_meters":32400,"station_id":"ce4bhp92rcd13ifvqhag","pricing_plan_id":"cebpf4jnsgd1na2vs0mg"},{"bike_id":"a2faf94a-ac42-466f-a186-76014e1ad540","system_id":"levelo_inurba_marseille","lat":43.30587,"lon":5.39356,"is_reserved":false,"is_disabled":false,"rental_uris":{"android":"levelo://app?vid=a2faf94a-ac42-466f-a186-76014e1ad540","ios":"levelo://app?vid=a2faf94a-ac42-466f-a186-76014e1ad540"},"vehicle_type_id":"4","last_reported":1736806067,"current_range_meters":33200,"station_id":"ce4bh0p2rcd13ifvqd80","pricing_plan_id":"cebpf4jnsgd1na2vs0mg"},{"bike_id":"43a19695-e4f2-46f6-b6c0-b6dbf1231a1a","system_id":"levelo_inurba_marseille","lat":43.28709,"lon":5.37386,"is_reserved":false,"is_disabled":false,"rental_uris":{"android":"levelo://app?vid=43a19695-e4f2-46f6-b6c0-b6dbf1231a1a","ios":"levelo://app?vid=43a19695-e4f2-46f6-b6c0-b6dbf1231a1a"},"vehicle_type_id":"4","last_reported":1736806067,"current_range_meters":12800,"station_id":"ce4bh3p2rcd13ifvqdq0","pricing_plan_id":"cebpf4jnsgd1na2vs0mg"},{"bike_id":"6a8dc65c-8c47-4239-8815-8efa2acdc338","system_id":"levelo_inurba_marseille","lat":43.279883,"lon":5.416517,"is_reserved":false,"is_disabled":true,"rental_uris":{"android":"levelo://app?vid=6a8dc65c-8c47-4239-8815-8efa2acdc338","ios":"levelo://app?vid=6a8dc65c-8c47-4239-8815-8efa2acdc338"},"vehicle_type_id":"4","last_reported":1736806067,"current_range_meters":1600,"station_id":"ce4bho12rcd13ifvqh1g","pricing_plan_id":"cebpf4jnsgd1na2vs0mg"},{"bike_id":"668b5521-8401-4825-bb92-e5dc1608eace","system_id":"levelo_inurba_marseille","lat":43.31325,"lon":5.39705,"is_reserved":false,"is_disabled":false,"rental_uris":{"android":"levelo://app?vid=668b5521-8401-4825-bb92-e5dc1608eace","ios":"levelo://app?vid=668b5521-8401-4825-bb92-e5dc1608eace"},"vehicle_type_id":"4","last_reported":1736806067,"current_range_meters":24400,"station_id":"ce4bgvp2rcd13ifvqcu0","pricing_plan_id":"cebpf4jnsgd1na2vs0mg"},{"bike_id":"94d00723-79f7-443c-bc62-0c89ddbb1d1c","system_id":"levelo_inurba_marseille","lat":43.28173,"lon":5.4264,"is_reserved":false,"is_disabled":true,"rental_uris":{"android":"levelo://app?vid=94d00723-79f7-443c-bc62-0c89ddbb1d1c","ios":"levelo://app?vid=94d00723-79f7-443c-bc62-0c89ddbb1d1c"},"vehicle_type_id":"4","last_reported":1736806067,"current_range_meters":18800,"station_id":"ce4bhnh2rcd13ifvqgug","pricing_plan_id":"cebpf4jnsgd1na2vs0mg"},{"bike_id":"7717b9e7-1bce-41f0-ad71-a5ec933f6467","system_id":"levelo_inurba_marseille","lat":43.28741,"lon":5.36069,"is_reserved":false,"is_disabled":false,"rental_uris":{"android":"levelo://app?vid=7717b9e7-1bce-41f0-ad71-a5ec933f6467","ios":"levelo://app?vid=7717b9e7-1bce-41f0-ad71-a5ec933f6467"},"vehicle_type_id":"4","last_reported":1736806067,"current_range_meters":36000,"station_id":"cki0cbj6b192h4jlfktg","pricing_plan_id":"cebpf4jnsgd1na2vs0mg"},{"bike_id":"c0e03a6d-7718-4e89-a31d-4257cb0ed095","system_id":"levelo_inurba_marseille","lat":43.29035,"lon":5.35942,"is_reserved":false,"is_disabled":false,"rental_uris":{"android":"levelo://app?vid=c0e03a6d-7718-4e89-a31d-4257cb0ed095","ios":"levelo://app?vid=c0e03a6d-7718-4e89-a31d-4257cb0ed095"},"vehicle_type_id":"4","last_reported":1736806067,"current_range_meters":32400,"station_id":"ce4bha92rcd13ifvqeg0","pricing_plan_id":"cebpf4jnsgd1na2vs0mg"},{"bike_id":"250e47ab-c040-40a7-87d8-19d50dea0ff4","system_id":"levelo_inurba_marseille","lat":43.29183,"lon":5.37166,"is_reserved":false,"is_disabled":false,"rental_uris":{"android":"levelo://app?vid=250e47ab-c040-40a7-87d8-19d50dea0ff4","ios":"levelo://app?vid=250e47ab-c040-40a7-87d8-19d50dea0ff4"},"vehicle_type_id":"4","last_reported":1736806067,"current_range_meters":36000,"station_id":"ce4bha92rcd13ifvqeh0","pricing_plan_id":"cebpf4jnsgd1na2vs0mg"},{"bike_id":"e35d110b-0ca6-4c99-b711-04ba364d3860","system_id":"levelo_inurba_marseille","lat":43.23191,"lon":5.35553,"is_reserved":false,"is_disabled":false,"rental_uris":{"android":"levelo://app?vid=e35d110b-0ca6-4c99-b711-04ba364d3860","ios":"levelo://app?vid=e35d110b-0ca6-4c99-b711-04ba364d3860"},"vehicle_type_id":"4","last_reported":1736806067,"current_range_meters":36800,"station_id":"ce4bhu92rcd13ifvqi70","pricing_plan_id":"cebpf4jnsgd1na2vs0mg"},{"bike_id":"73af179d-99fe-4317-b395-0826bb58db33","system_id":"levelo_inurba_marseille","lat":43.3013,"lon":5.39888,"is_reserved":false,"is_disabled":false,"rental_uris":{"android":"levelo://app?vid=73af179d-99fe-4317-b395-0826bb58db33","ios":"levelo://app?vid=73af179d-99fe-4317-b395-0826bb58db33"},"vehicle_type_id":"4","last_reported":1736806067,"current_range_meters":32000,"station_id":"ce4bh0h2rcd13ifvqd40","pricing_plan_id":"cebpf4jnsgd1na2vs0mg"},{"bike_id":"b4879bff-ffcc-4782-a97c-2d680ee280a9","system_id":"levelo_inurba_marseille","lat":43.3089,"lon":5.39619,"is_reserved":false,"is_disabled":false,"rental_uris":{"android":"levelo://app?vid=b4879bff-ffcc-4782-a97c-2d680ee280a9","ios":"levelo://app?vid=b4879bff-ffcc-4782-a97c-2d680ee280a9"},"vehicle_type_id":"4","last_reported":1736806067,"current_range_meters":6800,"station_id":"ce4bh012rcd13ifvqcv0","pricing_plan_id":"cebpf4jnsgd1na2vs0mg"},{"bike_id":"232f1013-ba46-436a-a6bb-20f0d99a0328","system_id":"levelo_inurba_marseille","lat":43.28674,"lon":5.3635,"is_reserved":false,"is_disabled":false,"rental_uris":{"android":"levelo://app?vid=232f1013-ba46-436a-a6bb-20f0d99a0328","ios":"levelo://app?vid=232f1013-ba46-436a-a6bb-20f0d99a0328"},"vehicle_type_id":"4","last_reported":1736806067,"current_range_meters":20800,"station_id":"ce4bhah2rcd13ifvqej0","pricing_plan_id":"cebpf4jnsgd1na2vs0mg"},{"bike_id":"04242d7d-6524-4840-9376-c0bce1fa64bb","system_id":"levelo_inurba_marseille","lat":43.254997,"lon":5.376474,"is_reserved":false,"is_disabled":false,"rental_uris":{"android":"levelo://app?vid=04242d7d-6524-4840-9376-c0bce1fa64bb","ios":"levelo://app?vid=04242d7d-6524-4840-9376-c0bce1fa64bb"},"vehicle_type_id":"4","last_reported":1736806067,"current_range_meters":16000,"station_id":"ce4bhh12rcd13ifvqff0","pricing_plan_id":"cebpf4jnsgd1na2vs0mg"},{"bike_id":"f628351a-247d-43b0-a86e-03619e157778","system_id":"levelo_inurba_marseille","lat":43.28266,"lon":5.35058,"is_reserved":false,"is_disabled":false,"rental_uris":{"android":"levelo://app?vid=f628351a-247d-43b0-a86e-03619e157778","ios":"levelo://app?vid=f628351a-247d-43b0-a86e-03619e157778"},"vehicle_type_id":"4","last_reported":1736806067,"current_range_meters":27200,"station_id":"ce4bhbp2rcd13ifvqerg","pricing_plan_id":"cebpf4jnsgd1na2vs0mg"},{"bike_id":"4ff57719-03f4-47bd-8538-0e0467c2c848","system_id":"levelo_inurba_marseille","lat":43.25863,"lon":5.39895,"is_reserved":false,"is_disabled":false,"rental_uris":{"android":"levelo://app?vid=4ff57719-03f4-47bd-8538-0e0467c2c848","ios":"levelo://app?vid=4ff57719-03f4-47bd-8538-0e0467c2c848"},"vehicle_type_id":"4","last_reported":1736806067,"current_range_meters":24000,"station_id":"ce4bhl92rcd13ifvqghg","pricing_plan_id":"cebpf4jnsgd1na2vs0mg"},{"bike_id":"7855b5cd-fbd6-4d6d-8731-19c257408fa0","system_id":"levelo_inurba_marseille","lat":43.24176,"lon":5.3973,"is_reserved":false,"is_disabled":false,"rental_uris":{"android":"levelo://app?vid=7855b5cd-fbd6-4d6d-8731-19c257408fa0","ios":"levelo://app?vid=7855b5cd-fbd6-4d6d-8731-19c257408fa0"},"vehicle_type_id":"4","last_reported":1736806067,"current_range_meters":28800,"station_id":"ce4bhn12rcd13ifvqgpg","pricing_plan_id":"cebpf4jnsgd1na2vs0mg"},{"bike_id":"b6bffee2-c6ed-4aa9-9fd9-c15567787e8b","system_id":"levelo_inurba_marseille","lat":43.30396,"lon":5.41276,"is_reserved":false,"is_disabled":false,"rental_uris":{"android":"levelo://app?vid=b6bffee2-c6ed-4aa9-9fd9-c15567787e8b","ios":"levelo://app?vid=b6bffee2-c6ed-4aa9-9fd9-c15567787e8b"},"vehicle_type_id":"4","last_reported":1736806067,"current_range_meters":38800,"station_id":"ce4bhop2rcd13ifvqh8g","pricing_plan_id":"cebpf4jnsgd1na2vs0mg"},{"bike_id":"c8e997c0-8580-4d0f-8d9f-0766596381e1","system_id":"levelo_inurba_marseille","lat":43.34008,"lon":5.37541,"is_reserved":false,"is_disabled":true,"rental_uris":{"android":"levelo://app?vid=c8e997c0-8580-4d0f-8d9f-0766596381e1","ios":"levelo://app?vid=c8e997c0-8580-4d0f-8d9f-0766596381e1"},"vehicle_type_id":"4","last_reported":1736806067,"current_range_meters":0,"station_id":"","pricing_plan_id":"cebpf4jnsgd1na2vs0mg"},{"bike_id":"c60791e5-c5b6-4b5f-a2b3-68e6dd491ea9","system_id":"levelo_inurba_marseille","lat":43.30481,"lon":5.37255,"is_reserved":false,"is_disabled":false,"rental_uris":{"android":"levelo://app?vid=c60791e5-c5b6-4b5f-a2b3-68e6dd491ea9","ios":"levelo://app?vid=c60791e5-c5b6-4b5f-a2b3-68e6dd491ea9"},"vehicle_type_id":"4","last_reported":1736806067,"current_range_meters":20400,"station_id":"","pricing_plan_id":"cebpf4jnsgd1na2vs0mg"},{"bike_id":"50ab075f-1d4d-4f4b-8c1d-f1c50b1ad071","system_id":"levelo_inurba_marseille","lat":43.27912,"lon":5.39592,"is_reserved":false,"is_disabled":false,"rental_uris":{"android":"levelo://app?vid=50ab075f-1d4d-4f4b-8c1d-f1c50b1ad071","ios":"levelo://app?vid=50ab075f-1d4d-4f4b-8c1d-f1c50b1ad071"},"vehicle_type_id":"4","last_reported":1736806067,"current_range_meters":28800,"station_id":"ce4bhf92rcd13ifvqf40","pricing_plan_id":"cebpf4jnsgd1na2vs0mg"},{"bike_id":"ba5df164-d25c-4a1c-8679-1bd1a1db0642","system_id":"levelo_inurba_marseille","lat":43.33734,"lon":5.39191,"is_reserved":false,"is_disabled":false,"rental_uris":{"android":"levelo://app?vid=ba5df164-d25c-4a1c-8679-1bd1a1db0642","ios":"levelo://app?vid=ba5df164-d25c-4a1c-8679-1bd1a1db0642"},"vehicle_type_id":"4","last_reported":1736806067,"current_range_meters":38000,"station_id":"ce4bhr92rcd13ifvqhsg","pricing_plan_id":"cebpf4jnsgd1na2vs0mg"},{"bike_id":"5d5bff6b-11b5-4077-b881-00d82a0c2472","system_id":"levelo_inurba_marseille","lat":43.31271,"lon":5.40166,"is_reserved":false,"is_disabled":false,"rental_uris":{"android":"levelo://app?vid=5d5bff6b-11b5-4077-b881-00d82a0c2472","ios":"levelo://app?vid=5d5bff6b-11b5-4077-b881-00d82a0c2472"},"vehicle_type_id":"4","last_reported":1736806067,"current_range_meters":30000,"station_id":"ce4bh092rcd13ifvqd30","pricing_plan_id":"cebpf4jnsgd1na2vs0mg"},{"bike_id":"f2d10143-3d8a-44b4-986d-b5c5dab280b3","system_id":"levelo_inurba_marseille","lat":43.2869,"lon":5.37378,"is_reserved":false,"is_disabled":false,"rental_uris":{"android":"levelo://app?vid=f2d10143-3d8a-44b4-986d-b5c5dab280b3","ios":"levelo://app?vid=f2d10143-3d8a-44b4-986d-b5c5dab280b3"},"vehicle_type_id":"4","last_reported":1736806067,"current_range_meters":18000,"station_id":"ce4bh3p2rcd13ifvqdq0","pricing_plan_id":"cebpf4jnsgd1na2vs0mg"},{"bike_id":"a3162289-c869-4e8a-944d-f0baa128cc74","system_id":"levelo_inurba_marseille","lat":43.23971,"lon":5.36648,"is_reserved":false,"is_disabled":false,"rental_uris":{"android":"levelo://app?vid=a3162289-c869-4e8a-944d-f0baa128cc74","ios":"levelo://app?vid=a3162289-c869-4e8a-944d-f0baa128cc74"},"vehicle_type_id":"4","last_reported":1736806067,"current_range_meters":37600,"station_id":"ce4bhi12rcd13ifvqfp0","pricing_plan_id":"cebpf4jnsgd1na2vs0mg"},{"bike_id":"7dd5dd5e-1d75-4c5b-b5b8-248a34302cca","system_id":"levelo_inurba_marseille","lat":43.304619,"lon":5.379021,"is_reserved":false,"is_disabled":true,"rental_uris":{"android":"levelo://app?vid=7dd5dd5e-1d75-4c5b-b5b8-248a34302cca","ios":"levelo://app?vid=7dd5dd5e-1d75-4c5b-b5b8-248a34302cca"},"vehicle_type_id":"4","last_reported":1736806067,"current_range_meters":25200,"station_id":"ce4bgup2rcd13ifvqcn0","pricing_plan_id":"cebpf4jnsgd1na2vs0mg"},{"bike_id":"9ff45d91-29d6-4e2b-a952-c5923c490e28","system_id":"levelo_inurba_marseille","lat":43.26031,"lon":5.37548,"is_reserved":false,"is_disabled":false,"rental_uris":{"android":"levelo://app?vid=9ff45d91-29d6-4e2b-a952-c5923c490e28","ios":"levelo://app?vid=9ff45d91-29d6-4e2b-a952-c5923c490e28"},"vehicle_type_id":"4","last_reported":1736806067,"current_range_meters":38800,"station_id":"ce4bhgh2rcd13ifvqfa0","pricing_plan_id":"cebpf4jnsgd1na2vs0mg"},{"bike_id":"d85a1d9b-f035-4b2a-858c-2526acab5ed6","system_id":"levelo_inurba_marseille","lat":43.30135,"lon":5.37344,"is_reserved":false,"is_disabled":true,"rental_uris":{"android":"levelo://app?vid=d85a1d9b-f035-4b2a-858c-2526acab5ed6","ios":"levelo://app?vid=d85a1d9b-f035-4b2a-858c-2526acab5ed6"},"vehicle_type_id":"4","last_reported":1736806067,"current_range_meters":36800,"station_id":"ce4bgs92rcd13ifvqcc0","pricing_plan_id":"cebpf4jnsgd1na2vs0mg"},{"bike_id":"66498db2-3621-434a-a3f0-595aef50f01c","system_id":"levelo_inurba_marseille","lat":43.257165,"lon":5.4111,"is_reserved":false,"is_disabled":false,"rental_uris":{"android":"levelo://app?vid=66498db2-3621-434a-a3f0-595aef50f01c","ios":"levelo://app?vid=66498db2-3621-434a-a3f0-595aef50f01c"},"vehicle_type_id":"4","last_reported":1736806067,"current_range_meters":23200,"station_id":"ce4bhkp2rcd13ifvqgd0","pricing_plan_id":"cebpf4jnsgd1na2vs0mg"},{"bike_id":"d68daa05-36ab-42c0-826d-99eeffb6e627","system_id":"levelo_inurba_marseille","lat":43.29062,"lon":5.35916,"is_reserved":false,"is_disabled":false,"rental_uris":{"android":"levelo://app?vid=d68daa05-36ab-42c0-826d-99eeffb6e627","ios":"levelo://app?vid=d68daa05-36ab-42c0-826d-99eeffb6e627"},"vehicle_type_id":"4","last_reported":1736806067,"current_range_meters":39200,"station_id":"ce4bha92rcd13ifvqeg0","pricing_plan_id":"cebpf4jnsgd1na2vs0mg"},{"bike_id":"42cfeef1-ded8-43ac-8888-284da4376b57","system_id":"levelo_inurba_marseille","lat":43.32466,"lon":5.36541,"is_reserved":false,"is_disabled":false,"rental_uris":{"android":"levelo://app?vid=42cfeef1-ded8-43ac-8888-284da4376b57","ios":"levelo://app?vid=42cfeef1-ded8-43ac-8888-284da4376b57"},"vehicle_type_id":"4","last_reported":1736806067,"current_range_meters":30400,"station_id":"ce4bhs12rcd13ifvqhvg","pricing_plan_id":"cebpf4jnsgd1na2vs0mg"},{"bike_id":"7cbb0683-5d35-461b-95a9-d0cf39d33c79","system_id":"levelo_inurba_marseille","lat":43.3067,"lon":5.40048,"is_reserved":false,"is_disabled":false,"rental_uris":{"android":"levelo://app?vid=7cbb0683-5d35-461b-95a9-d0cf39d33c79","ios":"levelo://app?vid=7cbb0683-5d35-461b-95a9-d0cf39d33c79"},"vehicle_type_id":"4","last_reported":1736806067,"current_range_meters":12800,"station_id":"","pricing_plan_id":"cebpf4jnsgd1na2vs0mg"},{"bike_id":"6ba8d844-4be9-4966-b91c-0b5bcfe6a94b","system_id":"levelo_inurba_marseille","lat":43.29179,"lon":5.37141,"is_reserved":false,"is_disabled":true,"rental_uris":{"android":"levelo://app?vid=6ba8d844-4be9-4966-b91c-0b5bcfe6a94b","ios":"levelo://app?vid=6ba8d844-4be9-4966-b91c-0b5bcfe6a94b"},"vehicle_type_id":"4","last_reported":1736806067,"current_range_meters":38800,"station_id":"ce4bha92rcd13ifvqeh0","pricing_plan_id":"cebpf4jnsgd1na2vs0mg"},{"bike_id":"9e141881-be97-45b4-8841-fa8c31378d17","system_id":"levelo_inurba_marseille","lat":43.29968,"lon":5.38493,"is_reserved":false,"is_disabled":false,"rental_uris":{"android":"levelo://app?vid=9e141881-be97-45b4-8841-fa8c31378d17","ios":"levelo://app?vid=9e141881-be97-45b4-8841-fa8c31378d17"},"vehicle_type_id":"4","last_reported":1736806067,"current_range_meters":38800,"station_id":"ce4bgj92rcd13ifvqbd0","pricing_plan_id":"cebpf4jnsgd1na2vs0mg"},{"bike_id":"59d914a9-7941-4d0c-ad3f-66ae0befc663","system_id":"levelo_inurba_marseille","lat":43.28038,"lon":5.36949,"is_reserved":false,"is_disabled":false,"rental_uris":{"android":"levelo://app?vid=59d914a9-7941-4d0c-ad3f-66ae0befc663","ios":"levelo://app?vid=59d914a9-7941-4d0c-ad3f-66ae0befc663"},"vehicle_type_id":"4","last_reported":1736806067,"current_range_meters":9600,"station_id":"ce4bha12rcd13ifvqef0","pricing_plan_id":"cebpf4jnsgd1na2vs0mg"},{"bike_id":"19206ddd-e8ec-4e4d-9d14-47c31db3a13b","system_id":"levelo_inurba_marseille","lat":43.27942,"lon":5.4104,"is_reserved":false,"is_disabled":false,"rental_uris":{"android":"levelo://app?vid=19206ddd-e8ec-4e4d-9d14-47c31db3a13b","ios":"levelo://app?vid=19206ddd-e8ec-4e4d-9d14-47c31db3a13b"},"vehicle_type_id":"4","last_reported":1736806067,"current_range_meters":8400,"station_id":"ce4bhnp2rcd13ifvqh0g","pricing_plan_id":"cebpf4jnsgd1na2vs0mg"},{"bike_id":"426ee80e-06b0-4d0f-86a5-ea8ad64aaa11","system_id":"levelo_inurba_marseille","lat":43.2891,"lon":5.43759,"is_reserved":false,"is_disabled":false,"rental_uris":{"android":"levelo://app?vid=426ee80e-06b0-4d0f-86a5-ea8ad64aaa11","ios":"levelo://app?vid=426ee80e-06b0-4d0f-86a5-ea8ad64aaa11"},"vehicle_type_id":"4","last_reported":1736806067,"current_range_meters":8000,"station_id":"","pricing_plan_id":"cebpf4jnsgd1na2vs0mg"},{"bike_id":"66ff2e3c-731b-4061-ad9b-60c35dd655cc","system_id":"levelo_inurba_marseille","lat":43.30541,"lon":5.38437,"is_reserved":false,"is_disabled":false,"rental_uris":{"android":"levelo://app?vid=66ff2e3c-731b-4061-ad9b-60c35dd655cc","ios":"levelo://app?vid=66ff2e3c-731b-4061-ad9b-60c35dd655cc"},"vehicle_type_id":"4","last_reported":1736806067,"current_range_meters":32000,"station_id":"ce4bgg92rcd13ifvqb30","pricing_plan_id":"cebpf4jnsgd1na2vs0mg"},{"bike_id":"02179588-d84e-46f2-95a6-fe0eee6fff76","system_id":"levelo_inurba_marseille","lat":43.32365,"lon":5.38881,"is_reserved":false,"is_disabled":false,"rental_uris":{"android":"levelo://app?vid=02179588-d84e-46f2-95a6-fe0eee6fff76","ios":"levelo://app?vid=02179588-d84e-46f2-95a6-fe0eee6fff76"},"vehicle_type_id":"4","last_reported":1736806067,"current_range_meters":16000,"station_id":"ce4bhqp2rcd13ifvqhog","pricing_plan_id":"cebpf4jnsgd1na2vs0mg"},{"bike_id":"264d1e22-4c63-472a-86e2-dff10b73ffa3","system_id":"levelo_inurba_marseille","lat":43.28465,"lon":5.35891,"is_reserved":false,"is_disabled":true,"rental_uris":{"android":"levelo://app?vid=264d1e22-4c63-472a-86e2-dff10b73ffa3","ios":"levelo://app?vid=264d1e22-4c63-472a-86e2-dff10b73ffa3"},"vehicle_type_id":"4","last_reported":1736806067,"current_range_meters":800,"station_id":"ce4bhah2rcd13ifvqei0","pricing_plan_id":"cebpf4jnsgd1na2vs0mg"},{"bike_id":"969e27ab-5a9e-459e-9526-3b57e6f57682","system_id":"levelo_inurba_marseille","lat":43.229314,"lon":5.353712,"is_reserved":false,"is_disabled":false,"rental_uris":{"android":"levelo://app?vid=969e27ab-5a9e-459e-9526-3b57e6f57682","ios":"levelo://app?vid=969e27ab-5a9e-459e-9526-3b57e6f57682"},"vehicle_type_id":"4","last_reported":1736806067,"current_range_meters":38800,"station_id":"cpo3532slgdg3j2ikp40","pricing_plan_id":"cebpf4jnsgd1na2vs0mg"},{"bike_id":"c1e88e2b-cb3a-46f5-b384-568d768adcfc","system_id":"levelo_inurba_marseille","lat":43.2909,"lon":5.38118,"is_reserved":false,"is_disabled":false,"rental_uris":{"android":"levelo://app?vid=c1e88e2b-cb3a-46f5-b384-568d768adcfc","ios":"levelo://app?vid=c1e88e2b-cb3a-46f5-b384-568d768adcfc"},"vehicle_type_id":"4","last_reported":1736806067,"current_range_meters":30000,"station_id":"ce4bh512rcd13ifvqe2g","pricing_plan_id":"cebpf4jnsgd1na2vs0mg"},{"bike_id":"13158c89-afea-48a0-8cca-57d2066a3d3b","system_id":"levelo_inurba_marseille","lat":43.29523,"lon":5.39035,"is_reserved":false,"is_disabled":false,"rental_uris":{"android":"levelo://app?vid=13158c89-afea-48a0-8cca-57d2066a3d3b","ios":"levelo://app?vid=13158c89-afea-48a0-8cca-57d2066a3d3b"},"vehicle_type_id":"4","last_reported":1736806067,"current_range_meters":37600,"station_id":"ce4bh3p2rcd13ifvqdp0","pricing_plan_id":"cebpf4jnsgd1na2vs0mg"},{"bike_id":"6232efdf-fe3b-44c0-831e-fcf2e6ef3405","system_id":"levelo_inurba_marseille","lat":43.31362,"lon":5.38488,"is_reserved":false,"is_disabled":false,"rental_uris":{"android":"levelo://app?vid=6232efdf-fe3b-44c0-831e-fcf2e6ef3405","ios":"levelo://app?vid=6232efdf-fe3b-44c0-831e-fcf2e6ef3405"},"vehicle_type_id":"4","last_reported":1736806067,"current_range_meters":38800,"station_id":"ce4bgt92rcd13ifvqcf0","pricing_plan_id":"cebpf4jnsgd1na2vs0mg"},{"bike_id":"cfcde360-1747-4611-b1bf-f98ab837f08a","system_id":"levelo_inurba_marseille","lat":43.30416,"lon":5.41275,"is_reserved":false,"is_disabled":false,"rental_uris":{"android":"levelo://app?vid=cfcde360-1747-4611-b1bf-f98ab837f08a","ios":"levelo://app?vid=cfcde360-1747-4611-b1bf-f98ab837f08a"},"vehicle_type_id":"4","last_reported":1736806067,"current_range_meters":14400,"station_id":"ce4bhop2rcd13ifvqh8g","pricing_plan_id":"cebpf4jnsgd1na2vs0mg"},{"bike_id":"ab10846d-13f2-4f21-8075-25b6583e29b0","system_id":"levelo_inurba_marseille","lat":43.25938,"lon":5.40905,"is_reserved":false,"is_disabled":false,"rental_uris":{"android":"levelo://app?vid=ab10846d-13f2-4f21-8075-25b6583e29b0","ios":"levelo://app?vid=ab10846d-13f2-4f21-8075-25b6583e29b0"},"vehicle_type_id":"4","last_reported":1736806067,"current_range_meters":22000,"station_id":"ce4bhm92rcd13ifvqglg","pricing_plan_id":"cebpf4jnsgd1na2vs0mg"},{"bike_id":"d31ee1ee-c230-4e1e-91e4-50de4be7609e","system_id":"levelo_inurba_marseille","lat":43.32368,"lon":5.38882,"is_reserved":false,"is_disabled":true,"rental_uris":{"android":"levelo://app?vid=d31ee1ee-c230-4e1e-91e4-50de4be7609e","ios":"levelo://app?vid=d31ee1ee-c230-4e1e-91e4-50de4be7609e"},"vehicle_type_id":"4","last_reported":1736806067,"current_range_meters":4800,"station_id":"ce4bhqp2rcd13ifvqhog","pricing_plan_id":"cebpf4jnsgd1na2vs0mg"},{"bike_id":"f4dbc556-58b0-4dfd-be99-18a51c032520","system_id":"levelo_inurba_marseille","lat":43.24183,"lon":5.3972,"is_reserved":false,"is_disabled":false,"rental_uris":{"android":"levelo://app?vid=f4dbc556-58b0-4dfd-be99-18a51c032520","ios":"levelo://app?vid=f4dbc556-58b0-4dfd-be99-18a51c032520"},"vehicle_type_id":"4","last_reported":1736806067,"current_range_meters":29600,"station_id":"ce4bhn12rcd13ifvqgpg","pricing_plan_id":"cebpf4jnsgd1na2vs0mg"},{"bike_id":"380d646b-61fc-4e1c-afce-e8fdac1ac7b4","system_id":"levelo_inurba_marseille","lat":43.30945,"lon":5.39034,"is_reserved":false,"is_disabled":false,"rental_uris":{"android":"levelo://app?vid=380d646b-61fc-4e1c-afce-e8fdac1ac7b4","ios":"levelo://app?vid=380d646b-61fc-4e1c-afce-e8fdac1ac7b4"},"vehicle_type_id":"4","last_reported":1736806067,"current_range_meters":36400,"station_id":"ce4bgup2rcd13ifvqco0","pricing_plan_id":"cebpf4jnsgd1na2vs0mg"},{"bike_id":"ea2d5cdd-f67f-4554-a2dc-498f7a01dc68","system_id":"levelo_inurba_marseille","lat":43.27398,"lon":5.39376,"is_reserved":false,"is_disabled":false,"rental_uris":{"android":"levelo://app?vid=ea2d5cdd-f67f-4554-a2dc-498f7a01dc68","ios":"levelo://app?vid=ea2d5cdd-f67f-4554-a2dc-498f7a01dc68"},"vehicle_type_id":"4","last_reported":1736806067,"current_range_meters":38400,"station_id":"ce4bhdp2rcd13ifvqf20","pricing_plan_id":"cebpf4jnsgd1na2vs0mg"},{"bike_id":"226b2d12-1a3f-4031-a0bf-aaf312b0cf20","system_id":"levelo_inurba_marseille","lat":43.28698,"lon":5.37388,"is_reserved":false,"is_disabled":false,"rental_uris":{"android":"levelo://app?vid=226b2d12-1a3f-4031-a0bf-aaf312b0cf20","ios":"levelo://app?vid=226b2d12-1a3f-4031-a0bf-aaf312b0cf20"},"vehicle_type_id":"4","last_reported":1736806067,"current_range_meters":32400,"station_id":"ce4bh3p2rcd13ifvqdq0","pricing_plan_id":"cebpf4jnsgd1na2vs0mg"},{"bike_id":"0f5c88b7-f1f8-4fb6-b68a-28fa5fce21d7","system_id":"levelo_inurba_marseille","lat":43.31726,"lon":5.42396,"is_reserved":false,"is_disabled":false,"rental_uris":{"android":"levelo://app?vid=0f5c88b7-f1f8-4fb6-b68a-28fa5fce21d7","ios":"levelo://app?vid=0f5c88b7-f1f8-4fb6-b68a-28fa5fce21d7"},"vehicle_type_id":"4","last_reported":1736806067,"current_range_meters":38000,"station_id":"ce4bhp92rcd13ifvqhbg","pricing_plan_id":"cebpf4jnsgd1na2vs0mg"},{"bike_id":"d51cc1ef-912e-4b91-b68a-8ef4a90a7b13","system_id":"levelo_inurba_marseille","lat":43.29188,"lon":5.39336,"is_reserved":false,"is_disabled":false,"rental_uris":{"android":"levelo://app?vid=d51cc1ef-912e-4b91-b68a-8ef4a90a7b13","ios":"levelo://app?vid=d51cc1ef-912e-4b91-b68a-8ef4a90a7b13"},"vehicle_type_id":"4","last_reported":1736806067,"current_range_meters":29600,"station_id":"ce4bh192rcd13ifvqdd0","pricing_plan_id":"cebpf4jnsgd1na2vs0mg"},{"bike_id":"3ab3bbf7-8c70-4649-ad84-8954557a86b5","system_id":"levelo_inurba_marseille","lat":43.280023,"lon":5.400119,"is_reserved":false,"is_disabled":false,"rental_uris":{"android":"levelo://app?vid=3ab3bbf7-8c70-4649-ad84-8954557a86b5","ios":"levelo://app?vid=3ab3bbf7-8c70-4649-ad84-8954557a86b5"},"vehicle_type_id":"4","last_reported":1736806067,"current_range_meters":30800,"station_id":"ce4bho92rcd13ifvqh4g","pricing_plan_id":"cebpf4jnsgd1na2vs0mg"},{"bike_id":"f51f3616-6c33-4a5f-8b28-980818697bb0","system_id":"levelo_inurba_marseille","lat":43.2319,"lon":5.39984,"is_reserved":false,"is_disabled":false,"rental_uris":{"android":"levelo://app?vid=f51f3616-6c33-4a5f-8b28-980818697bb0","ios":"levelo://app?vid=f51f3616-6c33-4a5f-8b28-980818697bb0"},"vehicle_type_id":"4","last_reported":1736806067,"current_range_meters":36400,"station_id":"ce4bhn12rcd13ifvqgqg","pricing_plan_id":"cebpf4jnsgd1na2vs0mg"},{"bike_id":"fc7b8363-82bb-4f33-830d-6f9c003541ea","system_id":"levelo_inurba_marseille","lat":43.31203,"lon":5.38715,"is_reserved":false,"is_disabled":false,"rental_uris":{"android":"levelo://app?vid=fc7b8363-82bb-4f33-830d-6f9c003541ea","ios":"levelo://app?vid=fc7b8363-82bb-4f33-830d-6f9c003541ea"},"vehicle_type_id":"4","last_reported":1736806067,"current_range_meters":39200,"station_id":"ce4bgv12rcd13ifvqcp0","pricing_plan_id":"cebpf4jnsgd1na2vs0mg"},{"bike_id":"200330d6-7641-4a28-ad1a-d50cc8af9482","system_id":"levelo_inurba_marseille","lat":43.28154,"lon":5.42637,"is_reserved":false,"is_disabled":false,"rental_uris":{"android":"levelo://app?vid=200330d6-7641-4a28-ad1a-d50cc8af9482","ios":"levelo://app?vid=200330d6-7641-4a28-ad1a-d50cc8af9482"},"vehicle_type_id":"4","last_reported":1736806067,"current_range_meters":8800,"station_id":"ce4bhnh2rcd13ifvqgug","pricing_plan_id":"cebpf4jnsgd1na2vs0mg"},{"bike_id":"ade1ffd7-379f-44ee-93e1-8c261178e187","system_id":"levelo_inurba_marseille","lat":43.24805,"lon":5.3747,"is_reserved":false,"is_disabled":false,"rental_uris":{"android":"levelo://app?vid=ade1ffd7-379f-44ee-93e1-8c261178e187","ios":"levelo://app?vid=ade1ffd7-379f-44ee-93e1-8c261178e187"},"vehicle_type_id":"4","last_reported":1736806067,"current_range_meters":24000,"station_id":"ce4bhgh2rcd13ifvqfb0","pricing_plan_id":"cebpf4jnsgd1na2vs0mg"},{"bike_id":"b73ceb5c-a971-44bb-8cf9-fefbcf76caac","system_id":"levelo_inurba_marseille","lat":43.285745,"lon":5.394984,"is_reserved":false,"is_disabled":false,"rental_uris":{"android":"levelo://app?vid=b73ceb5c-a971-44bb-8cf9-fefbcf76caac","ios":"levelo://app?vid=b73ceb5c-a971-44bb-8cf9-fefbcf76caac"},"vehicle_type_id":"4","last_reported":1736806067,"current_range_meters":38400,"station_id":"ce4bh292rcd13ifvqdg0","pricing_plan_id":"cebpf4jnsgd1na2vs0mg"},{"bike_id":"9f90ab46-c373-4698-9418-c8ef5e2133b0","system_id":"levelo_inurba_marseille","lat":43.23192,"lon":5.35557,"is_reserved":false,"is_disabled":false,"rental_uris":{"android":"levelo://app?vid=9f90ab46-c373-4698-9418-c8ef5e2133b0","ios":"levelo://app?vid=9f90ab46-c373-4698-9418-c8ef5e2133b0"},"vehicle_type_id":"4","last_reported":1736806067,"current_range_meters":20400,"station_id":"ce4bhu92rcd13ifvqi70","pricing_plan_id":"cebpf4jnsgd1na2vs0mg"},{"bike_id":"7a869afa-fc4c-4b30-aea6-e0d8b156eb83","system_id":"levelo_inurba_marseille","lat":43.24683,"lon":5.38169,"is_reserved":false,"is_disabled":true,"rental_uris":{"android":"levelo://app?vid=7a869afa-fc4c-4b30-aea6-e0d8b156eb83","ios":"levelo://app?vid=7a869afa-fc4c-4b30-aea6-e0d8b156eb83"},"vehicle_type_id":"4","last_reported":1736806067,"current_range_meters":30000,"station_id":"ce4bhih2rcd13ifvqfr0","pricing_plan_id":"cebpf4jnsgd1na2vs0mg"},{"bike_id":"755e5c0a-8de7-4ee5-9d4e-5ec609711170","system_id":"levelo_inurba_marseille","lat":43.29611,"lon":5.38089,"is_reserved":false,"is_disabled":true,"rental_uris":{"android":"levelo://app?vid=755e5c0a-8de7-4ee5-9d4e-5ec609711170","ios":"levelo://app?vid=755e5c0a-8de7-4ee5-9d4e-5ec609711170"},"vehicle_type_id":"4","last_reported":1736806067,"current_range_meters":33600,"station_id":"ce4bgl12rcd13ifvqbo0","pricing_plan_id":"cebpf4jnsgd1na2vs0mg"},{"bike_id":"88a38876-6e4c-460b-8e1d-ad00991b7093","system_id":"levelo_inurba_marseille","lat":43.28701,"lon":5.37389,"is_reserved":false,"is_disabled":false,"rental_uris":{"android":"levelo://app?vid=88a38876-6e4c-460b-8e1d-ad00991b7093","ios":"levelo://app?vid=88a38876-6e4c-460b-8e1d-ad00991b7093"},"vehicle_type_id":"4","last_reported":1736806067,"current_range_meters":28800,"station_id":"ce4bh3p2rcd13ifvqdq0","pricing_plan_id":"cebpf4jnsgd1na2vs0mg"},{"bike_id":"11ba34ad-8618-419b-b510-3c527e1cf8c3","system_id":"levelo_inurba_marseille","lat":43.28398,"lon":5.37521,"is_reserved":false,"is_disabled":true,"rental_uris":{"android":"levelo://app?vid=11ba34ad-8618-419b-b510-3c527e1cf8c3","ios":"levelo://app?vid=11ba34ad-8618-419b-b510-3c527e1cf8c3"},"vehicle_type_id":"4","last_reported":1736806067,"current_range_meters":5600,"station_id":"ce4bh412rcd13ifvqds0","pricing_plan_id":"cebpf4jnsgd1na2vs0mg"},{"bike_id":"941fe04b-1a6d-4c0e-ae47-f67263c42d46","system_id":"levelo_inurba_marseille","lat":43.25068,"lon":5.39498,"is_reserved":false,"is_disabled":false,"rental_uris":{"android":"levelo://app?vid=941fe04b-1a6d-4c0e-ae47-f67263c42d46","ios":"levelo://app?vid=941fe04b-1a6d-4c0e-ae47-f67263c42d46"},"vehicle_type_id":"4","last_reported":1736806067,"current_range_meters":8800,"station_id":"ce4bhm12rcd13ifvqgkg","pricing_plan_id":"cebpf4jnsgd1na2vs0mg"},{"bike_id":"d7aa8c0b-fcb1-482d-bd11-40a38eb2b0c9","system_id":"levelo_inurba_marseille","lat":43.28733,"lon":5.37351,"is_reserved":false,"is_disabled":false,"rental_uris":{"android":"levelo://app?vid=d7aa8c0b-fcb1-482d-bd11-40a38eb2b0c9","ios":"levelo://app?vid=d7aa8c0b-fcb1-482d-bd11-40a38eb2b0c9"},"vehicle_type_id":"4","last_reported":1736806067,"current_range_meters":27200,"station_id":"ce4bh3p2rcd13ifvqdq0","pricing_plan_id":"cebpf4jnsgd1na2vs0mg"},{"bike_id":"a15980ac-c225-4e68-8982-6cc8c4cbfd79","system_id":"levelo_inurba_marseille","lat":43.23192,"lon":5.35556,"is_reserved":false,"is_disabled":false,"rental_uris":{"android":"levelo://app?vid=a15980ac-c225-4e68-8982-6cc8c4cbfd79","ios":"levelo://app?vid=a15980ac-c225-4e68-8982-6cc8c4cbfd79"},"vehicle_type_id":"4","last_reported":1736806067,"current_range_meters":8000,"station_id":"ce4bhu92rcd13ifvqi70","pricing_plan_id":"cebpf4jnsgd1na2vs0mg"},{"bike_id":"ddb6fc04-2855-4930-8852-76b4803d8a8c","system_id":"levelo_inurba_marseille","lat":43.28729,"lon":5.36079,"is_reserved":false,"is_disabled":false,"rental_uris":{"android":"levelo://app?vid=ddb6fc04-2855-4930-8852-76b4803d8a8c","ios":"levelo://app?vid=ddb6fc04-2855-4930-8852-76b4803d8a8c"},"vehicle_type_id":"4","last_reported":1736806067,"current_range_meters":28400,"station_id":"cki0cbj6b192h4jlfktg","pricing_plan_id":"cebpf4jnsgd1na2vs0mg"},{"bike_id":"45910403-43fe-46b0-8271-3ee82162b96d","system_id":"levelo_inurba_marseille","lat":43.2846,"lon":5.35887,"is_reserved":false,"is_disabled":false,"rental_uris":{"android":"levelo://app?vid=45910403-43fe-46b0-8271-3ee82162b96d","ios":"levelo://app?vid=45910403-43fe-46b0-8271-3ee82162b96d"},"vehicle_type_id":"4","last_reported":1736806067,"current_range_meters":38800,"station_id":"ce4bhah2rcd13ifvqei0","pricing_plan_id":"cebpf4jnsgd1na2vs0mg"},{"bike_id":"da613b24-26d6-4c6d-b896-9737fe7dfa48","system_id":"levelo_inurba_marseille","lat":43.3128,"lon":5.40156,"is_reserved":false,"is_disabled":false,"rental_uris":{"android":"levelo://app?vid=da613b24-26d6-4c6d-b896-9737fe7dfa48","ios":"levelo://app?vid=da613b24-26d6-4c6d-b896-9737fe7dfa48"},"vehicle_type_id":"4","last_reported":1736806067,"current_range_meters":30800,"station_id":"ce4bh092rcd13ifvqd30","pricing_plan_id":"cebpf4jnsgd1na2vs0mg"},{"bike_id":"23ad71b9-eb48-4887-b019-8b6b4835ce0a","system_id":"levelo_inurba_marseille","lat":43.27943,"lon":5.41039,"is_reserved":false,"is_disabled":false,"rental_uris":{"android":"levelo://app?vid=23ad71b9-eb48-4887-b019-8b6b4835ce0a","ios":"levelo://app?vid=23ad71b9-eb48-4887-b019-8b6b4835ce0a"},"vehicle_type_id":"4","last_reported":1736806067,"current_range_meters":30000,"station_id":"ce4bhnp2rcd13ifvqh0g","pricing_plan_id":"cebpf4jnsgd1na2vs0mg"},{"bike_id":"3b74a056-c0cf-4f44-8772-22ed33115fcd","system_id":"levelo_inurba_marseille","lat":43.23187,"lon":5.39981,"is_reserved":false,"is_disabled":false,"rental_uris":{"android":"levelo://app?vid=3b74a056-c0cf-4f44-8772-22ed33115fcd","ios":"levelo://app?vid=3b74a056-c0cf-4f44-8772-22ed33115fcd"},"vehicle_type_id":"4","last_reported":1736806067,"current_range_meters":10000,"station_id":"ce4bhn12rcd13ifvqgqg","pricing_plan_id":"cebpf4jnsgd1na2vs0mg"},{"bike_id":"9eeade96-03d9-45d1-ac83-d886ce5a3469","system_id":"levelo_inurba_marseille","lat":43.30647,"lon":5.40056,"is_reserved":false,"is_disabled":false,"rental_uris":{"android":"levelo://app?vid=9eeade96-03d9-45d1-ac83-d886ce5a3469","ios":"levelo://app?vid=9eeade96-03d9-45d1-ac83-d886ce5a3469"},"vehicle_type_id":"4","last_reported":1736806067,"current_range_meters":35200,"station_id":"ce4bh112rcd13ifvqda0","pricing_plan_id":"cebpf4jnsgd1na2vs0mg"},{"bike_id":"fafce30c-dd33-4dac-8ce5-bcb60154099f","system_id":"levelo_inurba_marseille","lat":43.28454,"lon":5.35873,"is_reserved":false,"is_disabled":false,"rental_uris":{"android":"levelo://app?vid=fafce30c-dd33-4dac-8ce5-bcb60154099f","ios":"levelo://app?vid=fafce30c-dd33-4dac-8ce5-bcb60154099f"},"vehicle_type_id":"4","last_reported":1736806067,"current_range_meters":29600,"station_id":"ce4bhah2rcd13ifvqei0","pricing_plan_id":"cebpf4jnsgd1na2vs0mg"},{"bike_id":"3d617204-1d4c-440a-9621-81535c3b4d54","system_id":"levelo_inurba_marseille","lat":43.23967,"lon":5.36634,"is_reserved":false,"is_disabled":false,"rental_uris":{"android":"levelo://app?vid=3d617204-1d4c-440a-9621-81535c3b4d54","ios":"levelo://app?vid=3d617204-1d4c-440a-9621-81535c3b4d54"},"vehicle_type_id":"4","last_reported":1736806067,"current_range_meters":16400,"station_id":"ce4bhi12rcd13ifvqfp0","pricing_plan_id":"cebpf4jnsgd1na2vs0mg"},{"bike_id":"5d82b5f7-e9e4-4b0c-9f65-91fa3cf2a2ad","system_id":"levelo_inurba_marseille","lat":43.30257,"lon":5.40053,"is_reserved":false,"is_disabled":false,"rental_uris":{"android":"levelo://app?vid=5d82b5f7-e9e4-4b0c-9f65-91fa3cf2a2ad","ios":"levelo://app?vid=5d82b5f7-e9e4-4b0c-9f65-91fa3cf2a2ad"},"vehicle_type_id":"4","last_reported":1736806067,"current_range_meters":10800,"station_id":"ce4bgvh2rcd13ifvqcs0","pricing_plan_id":"cebpf4jnsgd1na2vs0mg"},{"bike_id":"00d1a624-7a3d-4d12-9335-8ba08948bc3d","system_id":"levelo_inurba_marseille","lat":43.30136,"lon":5.39868,"is_reserved":false,"is_disabled":false,"rental_uris":{"android":"levelo://app?vid=00d1a624-7a3d-4d12-9335-8ba08948bc3d","ios":"levelo://app?vid=00d1a624-7a3d-4d12-9335-8ba08948bc3d"},"vehicle_type_id":"4","last_reported":1736806067,"current_range_meters":38800,"station_id":"ce4bh0h2rcd13ifvqd40","pricing_plan_id":"cebpf4jnsgd1na2vs0mg"},{"bike_id":"51bb6953-dea8-4e82-96bf-52696267905f","system_id":"levelo_inurba_marseille","lat":43.23059,"lon":5.35524,"is_reserved":false,"is_disabled":false,"rental_uris":{"android":"levelo://app?vid=51bb6953-dea8-4e82-96bf-52696267905f","ios":"levelo://app?vid=51bb6953-dea8-4e82-96bf-52696267905f"},"vehicle_type_id":"4","last_reported":1736806067,"current_range_meters":10800,"station_id":"cpo3342slgdg3j2ifvpg","pricing_plan_id":"cebpf4jnsgd1na2vs0mg"},{"bike_id":"bb638dd3-eafe-4d0e-9089-d9e4a3d134ca","system_id":"levelo_inurba_marseille","lat":43.29529,"lon":5.39389,"is_reserved":false,"is_disabled":false,"rental_uris":{"android":"levelo://app?vid=bb638dd3-eafe-4d0e-9089-d9e4a3d134ca","ios":"levelo://app?vid=bb638dd3-eafe-4d0e-9089-d9e4a3d134ca"},"vehicle_type_id":"4","last_reported":1736806067,"current_range_meters":39200,"station_id":"ce4bh292rcd13ifvqdf0","pricing_plan_id":"cebpf4jnsgd1na2vs0mg"},{"bike_id":"ba1fe761-33cd-4480-91c0-d6193a980470","system_id":"levelo_inurba_marseille","lat":43.28561,"lon":5.39484,"is_reserved":false,"is_disabled":false,"rental_uris":{"android":"levelo://app?vid=ba1fe761-33cd-4480-91c0-d6193a980470","ios":"levelo://app?vid=ba1fe761-33cd-4480-91c0-d6193a980470"},"vehicle_type_id":"4","last_reported":1736806067,"current_range_meters":37600,"station_id":"ce4bh292rcd13ifvqdg0","pricing_plan_id":"cebpf4jnsgd1na2vs0mg"},{"bike_id":"dc388f0e-5ba4-4401-b2b7-3e59da087469","system_id":"levelo_inurba_marseille","lat":43.28599,"lon":5.35089,"is_reserved":false,"is_disabled":false,"rental_uris":{"android":"levelo://app?vid=dc388f0e-5ba4-4401-b2b7-3e59da087469","ios":"levelo://app?vid=dc388f0e-5ba4-4401-b2b7-3e59da087469"},"vehicle_type_id":"4","last_reported":1736806067,"current_range_meters":10000,"station_id":"ce4bhch2rcd13ifvqeug","pricing_plan_id":"cebpf4jnsgd1na2vs0mg"},{"bike_id":"efba344e-aa73-4edf-97b7-2e57544c3c4f","system_id":"levelo_inurba_marseille","lat":43.29877,"lon":5.38907,"is_reserved":false,"is_disabled":false,"rental_uris":{"android":"levelo://app?vid=efba344e-aa73-4edf-97b7-2e57544c3c4f","ios":"levelo://app?vid=efba344e-aa73-4edf-97b7-2e57544c3c4f"},"vehicle_type_id":"4","last_reported":1736806067,"current_range_meters":29600,"station_id":"ce4bh392rcd13ifvqdl0","pricing_plan_id":"cebpf4jnsgd1na2vs0mg"},{"bike_id":"a0feaf5a-0679-4497-bbc6-ed1a8362442b","system_id":"levelo_inurba_marseille","lat":43.3237,"lon":5.38884,"is_reserved":false,"is_disabled":false,"rental_uris":{"android":"levelo://app?vid=a0feaf5a-0679-4497-bbc6-ed1a8362442b","ios":"levelo://app?vid=a0feaf5a-0679-4497-bbc6-ed1a8362442b"},"vehicle_type_id":"4","last_reported":1736806067,"current_range_meters":16800,"station_id":"ce4bhqp2rcd13ifvqhog","pricing_plan_id":"cebpf4jnsgd1na2vs0mg"},{"bike_id":"c84c60ce-c7f6-42eb-bb3c-f11a697bd396","system_id":"levelo_inurba_marseille","lat":43.2996,"lon":5.38454,"is_reserved":false,"is_disabled":true,"rental_uris":{"android":"levelo://app?vid=c84c60ce-c7f6-42eb-bb3c-f11a697bd396","ios":"levelo://app?vid=c84c60ce-c7f6-42eb-bb3c-f11a697bd396"},"vehicle_type_id":"4","last_reported":1736806067,"current_range_meters":37600,"station_id":"ce4bgj92rcd13ifvqbd0","pricing_plan_id":"cebpf4jnsgd1na2vs0mg"},{"bike_id":"5b6f32ca-27c0-4ddf-ba56-69f237bfef76","system_id":"levelo_inurba_marseille","lat":43.28612,"lon":5.35102,"is_reserved":false,"is_disabled":false,"rental_uris":{"android":"levelo://app?vid=5b6f32ca-27c0-4ddf-ba56-69f237bfef76","ios":"levelo://app?vid=5b6f32ca-27c0-4ddf-ba56-69f237bfef76"},"vehicle_type_id":"4","last_reported":1736806067,"current_range_meters":33200,"station_id":"ce4bhch2rcd13ifvqeug","pricing_plan_id":"cebpf4jnsgd1na2vs0mg"},{"bike_id":"cca80981-2ecf-4328-9eb1-1f35c74484b1","system_id":"levelo_inurba_marseille","lat":43.27425,"lon":5.39419,"is_reserved":false,"is_disabled":false,"rental_uris":{"android":"levelo://app?vid=cca80981-2ecf-4328-9eb1-1f35c74484b1","ios":"levelo://app?vid=cca80981-2ecf-4328-9eb1-1f35c74484b1"},"vehicle_type_id":"4","last_reported":1736806067,"current_range_meters":27600,"station_id":"ce4bhdp2rcd13ifvqf20","pricing_plan_id":"cebpf4jnsgd1na2vs0mg"},{"bike_id":"44790104-cc7f-48f0-8cb1-6cfc7847c963","system_id":"levelo_inurba_marseille","lat":43.28363,"lon":5.38623,"is_reserved":false,"is_disabled":false,"rental_uris":{"android":"levelo://app?vid=44790104-cc7f-48f0-8cb1-6cfc7847c963","ios":"levelo://app?vid=44790104-cc7f-48f0-8cb1-6cfc7847c963"},"vehicle_type_id":"4","last_reported":1736806067,"current_range_meters":28400,"station_id":"ce4bh492rcd13ifvqdvg","pricing_plan_id":"cebpf4jnsgd1na2vs0mg"},{"bike_id":"60eb95fc-b90e-49ce-a432-7bfaaff8cec5","system_id":"levelo_inurba_marseille","lat":43.284574,"lon":5.358868,"is_reserved":false,"is_disabled":false,"rental_uris":{"android":"levelo://app?vid=60eb95fc-b90e-49ce-a432-7bfaaff8cec5","ios":"levelo://app?vid=60eb95fc-b90e-49ce-a432-7bfaaff8cec5"},"vehicle_type_id":"4","last_reported":1736806067,"current_range_meters":9200,"station_id":"ce4bhah2rcd13ifvqei0","pricing_plan_id":"cebpf4jnsgd1na2vs0mg"},{"bike_id":"56a37990-c381-414a-8c27-59f20eae88ce","system_id":"levelo_inurba_marseille","lat":43.25015,"lon":5.38912,"is_reserved":false,"is_disabled":false,"rental_uris":{"android":"levelo://app?vid=56a37990-c381-414a-8c27-59f20eae88ce","ios":"levelo://app?vid=56a37990-c381-414a-8c27-59f20eae88ce"},"vehicle_type_id":"4","last_reported":1736806067,"current_range_meters":8400,"station_id":"ce4bhgp2rcd13ifvqfd0","pricing_plan_id":"cebpf4jnsgd1na2vs0mg"},{"bike_id":"c1c51f67-6348-4482-a3d4-31704cefaf37","system_id":"levelo_inurba_marseille","lat":43.28617,"lon":5.35094,"is_reserved":false,"is_disabled":false,"rental_uris":{"android":"levelo://app?vid=c1c51f67-6348-4482-a3d4-31704cefaf37","ios":"levelo://app?vid=c1c51f67-6348-4482-a3d4-31704cefaf37"},"vehicle_type_id":"4","last_reported":1736806067,"current_range_meters":32000,"station_id":"ce4bhch2rcd13ifvqeug","pricing_plan_id":"cebpf4jnsgd1na2vs0mg"},{"bike_id":"e114c682-1978-4a27-880c-63e24c43365d","system_id":"levelo_inurba_marseille","lat":43.30882,"lon":5.37192,"is_reserved":false,"is_disabled":false,"rental_uris":{"android":"levelo://app?vid=e114c682-1978-4a27-880c-63e24c43365d","ios":"levelo://app?vid=e114c682-1978-4a27-880c-63e24c43365d"},"vehicle_type_id":"4","last_reported":1736806067,"current_range_meters":16800,"station_id":"ce4bguh2rcd13ifvqckg","pricing_plan_id":"cebpf4jnsgd1na2vs0mg"},{"bike_id":"a56bdef2-14b8-4e02-b3bc-538917283971","system_id":"levelo_inurba_marseille","lat":43.25081,"lon":5.39488,"is_reserved":false,"is_disabled":false,"rental_uris":{"android":"levelo://app?vid=a56bdef2-14b8-4e02-b3bc-538917283971","ios":"levelo://app?vid=a56bdef2-14b8-4e02-b3bc-538917283971"},"vehicle_type_id":"4","last_reported":1736806067,"current_range_meters":10800,"station_id":"ce4bhm12rcd13ifvqgkg","pricing_plan_id":"cebpf4jnsgd1na2vs0mg"},{"bike_id":"cfbb0279-36e9-4598-990f-c93deb718c69","system_id":"levelo_inurba_marseille","lat":43.31078,"lon":5.38353,"is_reserved":false,"is_disabled":false,"rental_uris":{"android":"levelo://app?vid=cfbb0279-36e9-4598-990f-c93deb718c69","ios":"levelo://app?vid=cfbb0279-36e9-4598-990f-c93deb718c69"},"vehicle_type_id":"4","last_reported":1736806067,"current_range_meters":20800,"station_id":"ce4bgv92rcd13ifvqcr0","pricing_plan_id":"cebpf4jnsgd1na2vs0mg"},{"bike_id":"315b51a2-7ea0-4300-9b20-5b0527089b0f","system_id":"levelo_inurba_marseille","lat":43.2558,"lon":5.38225,"is_reserved":false,"is_disabled":false,"rental_uris":{"android":"levelo://app?vid=315b51a2-7ea0-4300-9b20-5b0527089b0f","ios":"levelo://app?vid=315b51a2-7ea0-4300-9b20-5b0527089b0f"},"vehicle_type_id":"4","last_reported":1736806067,"current_range_meters":36000,"station_id":"ce4bhih2rcd13ifvqfs0","pricing_plan_id":"cebpf4jnsgd1na2vs0mg"},{"bike_id":"e9430f1b-8860-41e9-9b9f-1f3b253b57f9","system_id":"levelo_inurba_marseille","lat":43.26068,"lon":5.39392,"is_reserved":false,"is_disabled":false,"rental_uris":{"android":"levelo://app?vid=e9430f1b-8860-41e9-9b9f-1f3b253b57f9","ios":"levelo://app?vid=e9430f1b-8860-41e9-9b9f-1f3b253b57f9"},"vehicle_type_id":"4","last_reported":1736806067,"current_range_meters":38800,"station_id":"ce4bhh92rcd13ifvqfj0","pricing_plan_id":"cebpf4jnsgd1na2vs0mg"},{"bike_id":"11b5ef43-7a8b-43a6-8dc9-02e75f07b9e3","system_id":"levelo_inurba_marseille","lat":43.28693,"lon":5.37374,"is_reserved":false,"is_disabled":false,"rental_uris":{"android":"levelo://app?vid=11b5ef43-7a8b-43a6-8dc9-02e75f07b9e3","ios":"levelo://app?vid=11b5ef43-7a8b-43a6-8dc9-02e75f07b9e3"},"vehicle_type_id":"4","last_reported":1736806067,"current_range_meters":38800,"station_id":"ce4bh3p2rcd13ifvqdq0","pricing_plan_id":"cebpf4jnsgd1na2vs0mg"},{"bike_id":"8947eb80-ac07-4510-acbd-0bf64a06d6a8","system_id":"levelo_inurba_marseille","lat":43.29189,"lon":5.3932,"is_reserved":false,"is_disabled":false,"rental_uris":{"android":"levelo://app?vid=8947eb80-ac07-4510-acbd-0bf64a06d6a8","ios":"levelo://app?vid=8947eb80-ac07-4510-acbd-0bf64a06d6a8"},"vehicle_type_id":"4","last_reported":1736806067,"current_range_meters":32400,"station_id":"ce4bh192rcd13ifvqdd0","pricing_plan_id":"cebpf4jnsgd1na2vs0mg"},{"bike_id":"a754abf4-87cb-4915-a97f-0b4d0e8971f5","system_id":"levelo_inurba_marseille","lat":43.28617,"lon":5.35107,"is_reserved":false,"is_disabled":false,"rental_uris":{"android":"levelo://app?vid=a754abf4-87cb-4915-a97f-0b4d0e8971f5","ios":"levelo://app?vid=a754abf4-87cb-4915-a97f-0b4d0e8971f5"},"vehicle_type_id":"4","last_reported":1736806067,"current_range_meters":31200,"station_id":"ce4bhch2rcd13ifvqeug","pricing_plan_id":"cebpf4jnsgd1na2vs0mg"},{"bike_id":"b51b8509-c21e-40ac-802b-edd56e55cdd0","system_id":"levelo_inurba_marseille","lat":43.3037,"lon":5.41882,"is_reserved":false,"is_disabled":true,"rental_uris":{"android":"levelo://app?vid=b51b8509-c21e-40ac-802b-edd56e55cdd0","ios":"levelo://app?vid=b51b8509-c21e-40ac-802b-edd56e55cdd0"},"vehicle_type_id":"4","last_reported":1736806067,"current_range_meters":22800,"station_id":"ce4bhop2rcd13ifvqh7g","pricing_plan_id":"cebpf4jnsgd1na2vs0mg"},{"bike_id":"512c7bd5-5643-4f7d-a8c3-5cceff4f5ebd","system_id":"levelo_inurba_marseille","lat":43.27362,"lon":5.36268,"is_reserved":false,"is_disabled":false,"rental_uris":{"android":"levelo://app?vid=512c7bd5-5643-4f7d-a8c3-5cceff4f5ebd","ios":"levelo://app?vid=512c7bd5-5643-4f7d-a8c3-5cceff4f5ebd"},"vehicle_type_id":"4","last_reported":1736806067,"current_range_meters":11600,"station_id":"ce4bhbh2rcd13ifvqeo0","pricing_plan_id":"cebpf4jnsgd1na2vs0mg"},{"bike_id":"5578a007-81a4-46d9-83dc-5f1c3a9f018c","system_id":"levelo_inurba_marseille","lat":43.29443,"lon":5.39746,"is_reserved":false,"is_disabled":false,"rental_uris":{"android":"levelo://app?vid=5578a007-81a4-46d9-83dc-5f1c3a9f018c","ios":"levelo://app?vid=5578a007-81a4-46d9-83dc-5f1c3a9f018c"},"vehicle_type_id":"4","last_reported":1736806067,"current_range_meters":38000,"station_id":"ce4bh3h2rcd13ifvqdo0","pricing_plan_id":"cebpf4jnsgd1na2vs0mg"},{"bike_id":"78fc2529-851e-44ea-9e17-e5a76c9197b1","system_id":"levelo_inurba_marseille","lat":43.297318,"lon":5.376724,"is_reserved":false,"is_disabled":true,"rental_uris":{"android":"levelo://app?vid=78fc2529-851e-44ea-9e17-e5a76c9197b1","ios":"levelo://app?vid=78fc2529-851e-44ea-9e17-e5a76c9197b1"},"vehicle_type_id":"4","last_reported":1736806067,"current_range_meters":36800,"station_id":"ce4bgkh2rcd13ifvqbl0","pricing_plan_id":"cebpf4jnsgd1na2vs0mg"},{"bike_id":"190501cf-4906-474c-bef9-6ea2b092fabd","system_id":"levelo_inurba_marseille","lat":43.28614,"lon":5.35102,"is_reserved":false,"is_disabled":false,"rental_uris":{"android":"levelo://app?vid=190501cf-4906-474c-bef9-6ea2b092fabd","ios":"levelo://app?vid=190501cf-4906-474c-bef9-6ea2b092fabd"},"vehicle_type_id":"4","last_reported":1736806067,"current_range_meters":23200,"station_id":"ce4bhch2rcd13ifvqeug","pricing_plan_id":"cebpf4jnsgd1na2vs0mg"},{"bike_id":"7dba3aa6-00ce-461c-90e0-a5f67d17de08","system_id":"levelo_inurba_marseille","lat":43.29005,"lon":5.35607,"is_reserved":false,"is_disabled":false,"rental_uris":{"android":"levelo://app?vid=7dba3aa6-00ce-461c-90e0-a5f67d17de08","ios":"levelo://app?vid=7dba3aa6-00ce-461c-90e0-a5f67d17de08"},"vehicle_type_id":"4","last_reported":1736806067,"current_range_meters":38800,"station_id":"ce4bhb92rcd13ifvqen0","pricing_plan_id":"cebpf4jnsgd1na2vs0mg"},{"bike_id":"c82a1ac8-84bb-45b3-8d82-2e93e458f523","system_id":"levelo_inurba_marseille","lat":43.25115,"lon":5.40345,"is_reserved":false,"is_disabled":false,"rental_uris":{"android":"levelo://app?vid=c82a1ac8-84bb-45b3-8d82-2e93e458f523","ios":"levelo://app?vid=c82a1ac8-84bb-45b3-8d82-2e93e458f523"},"vehicle_type_id":"4","last_reported":1736806067,"current_range_meters":11200,"station_id":"ce4bhlh2rcd13ifvqgig","pricing_plan_id":"cebpf4jnsgd1na2vs0mg"},{"bike_id":"835e04ef-b77c-470b-bd8b-2ccb52ced68e","system_id":"levelo_inurba_marseille","lat":43.29764,"lon":5.3689,"is_reserved":false,"is_disabled":false,"rental_uris":{"android":"levelo://app?vid=835e04ef-b77c-470b-bd8b-2ccb52ced68e","ios":"levelo://app?vid=835e04ef-b77c-470b-bd8b-2ccb52ced68e"},"vehicle_type_id":"4","last_reported":1736806067,"current_range_meters":32400,"station_id":"ce4bgn12rcd13ifvqbt0","pricing_plan_id":"cebpf4jnsgd1na2vs0mg"},{"bike_id":"461bd958-bd98-4026-a052-ef310a6653da","system_id":"levelo_inurba_marseille","lat":43.24796,"lon":5.37443,"is_reserved":false,"is_disabled":false,"rental_uris":{"android":"levelo://app?vid=461bd958-bd98-4026-a052-ef310a6653da","ios":"levelo://app?vid=461bd958-bd98-4026-a052-ef310a6653da"},"vehicle_type_id":"4","last_reported":1736806067,"current_range_meters":6400,"station_id":"ce4bhgh2rcd13ifvqfb0","pricing_plan_id":"cebpf4jnsgd1na2vs0mg"},{"bike_id":"81894d57-6961-4ca9-8a73-3302ecbe940c","system_id":"levelo_inurba_marseille","lat":43.24797,"lon":5.37438,"is_reserved":false,"is_disabled":false,"rental_uris":{"android":"levelo://app?vid=81894d57-6961-4ca9-8a73-3302ecbe940c","ios":"levelo://app?vid=81894d57-6961-4ca9-8a73-3302ecbe940c"},"vehicle_type_id":"4","last_reported":1736806067,"current_range_meters":36800,"station_id":"ce4bhgh2rcd13ifvqfb0","pricing_plan_id":"cebpf4jnsgd1na2vs0mg"},{"bike_id":"894d14f4-d7f5-4f61-98eb-5bf4ed80a592","system_id":"levelo_inurba_marseille","lat":43.31756,"lon":5.39014,"is_reserved":false,"is_disabled":false,"rental_uris":{"android":"levelo://app?vid=894d14f4-d7f5-4f61-98eb-5bf4ed80a592","ios":"levelo://app?vid=894d14f4-d7f5-4f61-98eb-5bf4ed80a592"},"vehicle_type_id":"4","last_reported":1736806067,"current_range_meters":16400,"station_id":"ce4bhqp2rcd13ifvqhng","pricing_plan_id":"cebpf4jnsgd1na2vs0mg"},{"bike_id":"2e97710c-38d7-4cf4-aadf-33f66f41c611","system_id":"levelo_inurba_marseille","lat":43.28939,"lon":5.36402,"is_reserved":false,"is_disabled":false,"rental_uris":{"android":"levelo://app?vid=2e97710c-38d7-4cf4-aadf-33f66f41c611","ios":"levelo://app?vid=2e97710c-38d7-4cf4-aadf-33f66f41c611"},"vehicle_type_id":"4","last_reported":1736806067,"current_range_meters":32400,"station_id":"ce4bhc92rcd13ifvqetg","pricing_plan_id":"cebpf4jnsgd1na2vs0mg"},{"bike_id":"45324790-abcf-4a91-8b9e-6b7c17eae013","system_id":"levelo_inurba_marseille","lat":43.27366,"lon":5.36256,"is_reserved":false,"is_disabled":false,"rental_uris":{"android":"levelo://app?vid=45324790-abcf-4a91-8b9e-6b7c17eae013","ios":"levelo://app?vid=45324790-abcf-4a91-8b9e-6b7c17eae013"},"vehicle_type_id":"4","last_reported":1736806067,"current_range_meters":8000,"station_id":"ce4bhbh2rcd13ifvqeo0","pricing_plan_id":"cebpf4jnsgd1na2vs0mg"},{"bike_id":"458e751a-905c-4f8b-b3d3-ab8ec822e070","system_id":"levelo_inurba_marseille","lat":43.31706,"lon":5.39032,"is_reserved":false,"is_disabled":false,"rental_uris":{"android":"levelo://app?vid=458e751a-905c-4f8b-b3d3-ab8ec822e070","ios":"levelo://app?vid=458e751a-905c-4f8b-b3d3-ab8ec822e070"},"vehicle_type_id":"4","last_reported":1736806067,"current_range_meters":20800,"station_id":"","pricing_plan_id":"cebpf4jnsgd1na2vs0mg"},{"bike_id":"52b9c89b-59e1-4ffb-8f5b-c4403b64930a","system_id":"levelo_inurba_marseille","lat":43.24385,"lon":5.37053,"is_reserved":false,"is_disabled":false,"rental_uris":{"android":"levelo://app?vid=52b9c89b-59e1-4ffb-8f5b-c4403b64930a","ios":"levelo://app?vid=52b9c89b-59e1-4ffb-8f5b-c4403b64930a"},"vehicle_type_id":"4","last_reported":1736806067,"current_range_meters":10000,"station_id":"ce4bhhh2rcd13ifvqfk0","pricing_plan_id":"cebpf4jnsgd1na2vs0mg"},{"bike_id":"47f63191-6673-4167-8a58-1a164b7d4b7e","system_id":"levelo_inurba_marseille","lat":43.24069,"lon":5.37757,"is_reserved":false,"is_disabled":false,"rental_uris":{"android":"levelo://app?vid=47f63191-6673-4167-8a58-1a164b7d4b7e","ios":"levelo://app?vid=47f63191-6673-4167-8a58-1a164b7d4b7e"},"vehicle_type_id":"4","last_reported":1736806067,"current_range_meters":38000,"station_id":"ce4bhnp2rcd13ifvqgvg","pricing_plan_id":"cebpf4jnsgd1na2vs0mg"},{"bike_id":"eed6b634-12d1-4e79-b3d7-f213d0cd31b0","system_id":"levelo_inurba_marseille","lat":43.30412,"lon":5.41278,"is_reserved":false,"is_disabled":false,"rental_uris":{"android":"levelo://app?vid=eed6b634-12d1-4e79-b3d7-f213d0cd31b0","ios":"levelo://app?vid=eed6b634-12d1-4e79-b3d7-f213d0cd31b0"},"vehicle_type_id":"4","last_reported":1736806067,"current_range_meters":38800,"station_id":"ce4bhop2rcd13ifvqh8g","pricing_plan_id":"cebpf4jnsgd1na2vs0mg"},{"bike_id":"a86fe1f4-7545-4b33-8097-0e91725c0bb3","system_id":"levelo_inurba_marseille","lat":43.31407,"lon":5.37245,"is_reserved":false,"is_disabled":false,"rental_uris":{"android":"levelo://app?vid=a86fe1f4-7545-4b33-8097-0e91725c0bb3","ios":"levelo://app?vid=a86fe1f4-7545-4b33-8097-0e91725c0bb3"},"vehicle_type_id":"4","last_reported":1736806067,"current_range_meters":2800,"station_id":"","pricing_plan_id":"cebpf4jnsgd1na2vs0mg"},{"bike_id":"f79500fa-8208-4800-aa4c-2895d1446ae2","system_id":"levelo_inurba_marseille","lat":43.29858,"lon":5.38904,"is_reserved":false,"is_disabled":false,"rental_uris":{"android":"levelo://app?vid=f79500fa-8208-4800-aa4c-2895d1446ae2","ios":"levelo://app?vid=f79500fa-8208-4800-aa4c-2895d1446ae2"},"vehicle_type_id":"4","last_reported":1736806067,"current_range_meters":9200,"station_id":"ce4bh392rcd13ifvqdl0","pricing_plan_id":"cebpf4jnsgd1na2vs0mg"},{"bike_id":"d3212cff-9568-4752-b2a6-3db9ecfbcc71","system_id":"levelo_inurba_marseille","lat":43.31273,"lon":5.40165,"is_reserved":false,"is_disabled":false,"rental_uris":{"android":"levelo://app?vid=d3212cff-9568-4752-b2a6-3db9ecfbcc71","ios":"levelo://app?vid=d3212cff-9568-4752-b2a6-3db9ecfbcc71"},"vehicle_type_id":"4","last_reported":1736806067,"current_range_meters":27200,"station_id":"ce4bh092rcd13ifvqd30","pricing_plan_id":"cebpf4jnsgd1na2vs0mg"},{"bike_id":"f5e9cc21-a2e7-4c8b-a7a9-6e6bf6e6bb35","system_id":"levelo_inurba_marseille","lat":43.2571,"lon":5.41087,"is_reserved":false,"is_disabled":false,"rental_uris":{"android":"levelo://app?vid=f5e9cc21-a2e7-4c8b-a7a9-6e6bf6e6bb35","ios":"levelo://app?vid=f5e9cc21-a2e7-4c8b-a7a9-6e6bf6e6bb35"},"vehicle_type_id":"4","last_reported":1736806067,"current_range_meters":34800,"station_id":"ce4bhkp2rcd13ifvqgd0","pricing_plan_id":"cebpf4jnsgd1na2vs0mg"},{"bike_id":"ec3d992b-1b91-4efe-a3aa-ebcde3041682","system_id":"levelo_inurba_marseille","lat":43.28572,"lon":5.39504,"is_reserved":false,"is_disabled":false,"rental_uris":{"android":"levelo://app?vid=ec3d992b-1b91-4efe-a3aa-ebcde3041682","ios":"levelo://app?vid=ec3d992b-1b91-4efe-a3aa-ebcde3041682"},"vehicle_type_id":"4","last_reported":1736806067,"current_range_meters":8400,"station_id":"ce4bh292rcd13ifvqdg0","pricing_plan_id":"cebpf4jnsgd1na2vs0mg"},{"bike_id":"1ff4d6af-d168-4206-80a1-8f85ab0c0a00","system_id":"levelo_inurba_marseille","lat":43.25872,"lon":5.39894,"is_reserved":false,"is_disabled":false,"rental_uris":{"android":"levelo://app?vid=1ff4d6af-d168-4206-80a1-8f85ab0c0a00","ios":"levelo://app?vid=1ff4d6af-d168-4206-80a1-8f85ab0c0a00"},"vehicle_type_id":"4","last_reported":1736806067,"current_range_meters":38800,"station_id":"ce4bhl92rcd13ifvqghg","pricing_plan_id":"cebpf4jnsgd1na2vs0mg"},{"bike_id":"02f9c855-9b7c-4c4d-a998-251e38d370bb","system_id":"levelo_inurba_marseille","lat":43.31015,"lon":5.37915,"is_reserved":false,"is_disabled":false,"rental_uris":{"android":"levelo://app?vid=02f9c855-9b7c-4c4d-a998-251e38d370bb","ios":"levelo://app?vid=02f9c855-9b7c-4c4d-a998-251e38d370bb"},"vehicle_type_id":"4","last_reported":1736806067,"current_range_meters":29600,"station_id":"","pricing_plan_id":"cebpf4jnsgd1na2vs0mg"},{"bike_id":"d97ad6b4-c689-48bf-a0b5-0a64e623e699","system_id":"levelo_inurba_marseille","lat":43.28152,"lon":5.42669,"is_reserved":false,"is_disabled":false,"rental_uris":{"android":"levelo://app?vid=d97ad6b4-c689-48bf-a0b5-0a64e623e699","ios":"levelo://app?vid=d97ad6b4-c689-48bf-a0b5-0a64e623e699"},"vehicle_type_id":"4","last_reported":1736806067,"current_range_meters":34000,"station_id":"ce4bhnh2rcd13ifvqgug","pricing_plan_id":"cebpf4jnsgd1na2vs0mg"},{"bike_id":"edb1dfa6-b42c-4e1a-a554-53c2cc4e9e7e","system_id":"levelo_inurba_marseille","lat":43.29982,"lon":5.3717,"is_reserved":false,"is_disabled":false,"rental_uris":{"android":"levelo://app?vid=edb1dfa6-b42c-4e1a-a554-53c2cc4e9e7e","ios":"levelo://app?vid=edb1dfa6-b42c-4e1a-a554-53c2cc4e9e7e"},"vehicle_type_id":"4","last_reported":1736806067,"current_range_meters":39200,"station_id":"ce4bgr92rcd13ifvqc7g","pricing_plan_id":"cebpf4jnsgd1na2vs0mg"},{"bike_id":"4f33525b-ad77-45f3-a5ca-48f52317317a","system_id":"levelo_inurba_marseille","lat":43.29221,"lon":5.36056,"is_reserved":false,"is_disabled":true,"rental_uris":{"android":"levelo://app?vid=4f33525b-ad77-45f3-a5ca-48f52317317a","ios":"levelo://app?vid=4f33525b-ad77-45f3-a5ca-48f52317317a"},"vehicle_type_id":"4","last_reported":1736806067,"current_range_meters":0,"station_id":"ce4bhbh2rcd13ifvqeqg","pricing_plan_id":"cebpf4jnsgd1na2vs0mg"},{"bike_id":"f9a1bad4-08b5-4087-8bd3-54df8bd6dae4","system_id":"levelo_inurba_marseille","lat":43.25865,"lon":5.39899,"is_reserved":false,"is_disabled":false,"rental_uris":{"android":"levelo://app?vid=f9a1bad4-08b5-4087-8bd3-54df8bd6dae4","ios":"levelo://app?vid=f9a1bad4-08b5-4087-8bd3-54df8bd6dae4"},"vehicle_type_id":"4","last_reported":1736806067,"current_range_meters":13600,"station_id":"ce4bhl92rcd13ifvqghg","pricing_plan_id":"cebpf4jnsgd1na2vs0mg"},{"bike_id":"77c125dd-0570-435e-ae36-92a459b4cd7d","system_id":"levelo_inurba_marseille","lat":43.2582,"lon":5.39437,"is_reserved":false,"is_disabled":false,"rental_uris":{"android":"levelo://app?vid=77c125dd-0570-435e-ae36-92a459b4cd7d","ios":"levelo://app?vid=77c125dd-0570-435e-ae36-92a459b4cd7d"},"vehicle_type_id":"4","last_reported":1736806067,"current_range_meters":8400,"station_id":"ce4bhip2rcd13ifvqft0","pricing_plan_id":"cebpf4jnsgd1na2vs0mg"},{"bike_id":"4a7ce759-556b-40e7-a4b4-f7c4d5c9a079","system_id":"levelo_inurba_marseille","lat":43.30798,"lon":5.38161,"is_reserved":false,"is_disabled":false,"rental_uris":{"android":"levelo://app?vid=4a7ce759-556b-40e7-a4b4-f7c4d5c9a079","ios":"levelo://app?vid=4a7ce759-556b-40e7-a4b4-f7c4d5c9a079"},"vehicle_type_id":"4","last_reported":1736806067,"current_range_meters":36400,"station_id":"ce4bgt12rcd13ifvqce0","pricing_plan_id":"cebpf4jnsgd1na2vs0mg"},{"bike_id":"624fd665-76a1-4073-91c0-a4db8dfd6228","system_id":"levelo_inurba_marseille","lat":43.31313,"lon":5.36817,"is_reserved":false,"is_disabled":false,"rental_uris":{"android":"levelo://app?vid=624fd665-76a1-4073-91c0-a4db8dfd6228","ios":"levelo://app?vid=624fd665-76a1-4073-91c0-a4db8dfd6228"},"vehicle_type_id":"4","last_reported":1736806067,"current_range_meters":32000,"station_id":"","pricing_plan_id":"cebpf4jnsgd1na2vs0mg"},{"bike_id":"c7ad535d-a881-4876-b3ac-e988db081463","system_id":"levelo_inurba_marseille","lat":43.27945,"lon":5.41039,"is_reserved":false,"is_disabled":false,"rental_uris":{"android":"levelo://app?vid=c7ad535d-a881-4876-b3ac-e988db081463","ios":"levelo://app?vid=c7ad535d-a881-4876-b3ac-e988db081463"},"vehicle_type_id":"4","last_reported":1736806067,"current_range_meters":26000,"station_id":"ce4bhnp2rcd13ifvqh0g","pricing_plan_id":"cebpf4jnsgd1na2vs0mg"},{"bike_id":"acb789d3-c42d-465c-982b-20d6256e9026","system_id":"levelo_inurba_marseille","lat":43.24428,"lon":5.37055,"is_reserved":false,"is_disabled":false,"rental_uris":{"android":"levelo://app?vid=acb789d3-c42d-465c-982b-20d6256e9026","ios":"levelo://app?vid=acb789d3-c42d-465c-982b-20d6256e9026"},"vehicle_type_id":"4","last_reported":1736806067,"current_range_meters":38400,"station_id":"ce4bhhh2rcd13ifvqfk0","pricing_plan_id":"cebpf4jnsgd1na2vs0mg"},{"bike_id":"1bf14b3f-4ccb-4f9d-9f35-39b091193b88","system_id":"levelo_inurba_marseille","lat":43.30197,"lon":5.38897,"is_reserved":false,"is_disabled":false,"rental_uris":{"android":"levelo://app?vid=1bf14b3f-4ccb-4f9d-9f35-39b091193b88","ios":"levelo://app?vid=1bf14b3f-4ccb-4f9d-9f35-39b091193b88"},"vehicle_type_id":"4","last_reported":1736806067,"current_range_meters":11200,"station_id":"","pricing_plan_id":"cebpf4jnsgd1na2vs0mg"},{"bike_id":"d14c39c0-1954-45f6-ac5b-6b385370d083","system_id":"levelo_inurba_marseille","lat":43.28564,"lon":5.39505,"is_reserved":false,"is_disabled":false,"rental_uris":{"android":"levelo://app?vid=d14c39c0-1954-45f6-ac5b-6b385370d083","ios":"levelo://app?vid=d14c39c0-1954-45f6-ac5b-6b385370d083"},"vehicle_type_id":"4","last_reported":1736806067,"current_range_meters":27200,"station_id":"ce4bh292rcd13ifvqdg0","pricing_plan_id":"cebpf4jnsgd1na2vs0mg"},{"bike_id":"c2d5fd29-d5c7-4c17-84cd-2259421931b6","system_id":"levelo_inurba_marseille","lat":43.27491,"lon":5.42452,"is_reserved":false,"is_disabled":false,"rental_uris":{"android":"levelo://app?vid=c2d5fd29-d5c7-4c17-84cd-2259421931b6","ios":"levelo://app?vid=c2d5fd29-d5c7-4c17-84cd-2259421931b6"},"vehicle_type_id":"4","last_reported":1736806067,"current_range_meters":4000,"station_id":"ce4bhn92rcd13ifvqgrg","pricing_plan_id":"cebpf4jnsgd1na2vs0mg"},{"bike_id":"295bd26f-64bb-4f9a-b1ce-9227768f18ec","system_id":"levelo_inurba_marseille","lat":43.29169,"lon":5.37143,"is_reserved":false,"is_disabled":true,"rental_uris":{"android":"levelo://app?vid=295bd26f-64bb-4f9a-b1ce-9227768f18ec","ios":"levelo://app?vid=295bd26f-64bb-4f9a-b1ce-9227768f18ec"},"vehicle_type_id":"4","last_reported":1736806067,"current_range_meters":28000,"station_id":"ce4bha92rcd13ifvqeh0","pricing_plan_id":"cebpf4jnsgd1na2vs0mg"},{"bike_id":"1bff2bac-4883-4019-adbe-2dc598af8aad","system_id":"levelo_inurba_marseille","lat":43.27438,"lon":5.3937,"is_reserved":false,"is_disabled":false,"rental_uris":{"android":"levelo://app?vid=1bff2bac-4883-4019-adbe-2dc598af8aad","ios":"levelo://app?vid=1bff2bac-4883-4019-adbe-2dc598af8aad"},"vehicle_type_id":"4","last_reported":1736806067,"current_range_meters":19200,"station_id":"ce4bhdp2rcd13ifvqf20","pricing_plan_id":"cebpf4jnsgd1na2vs0mg"},{"bike_id":"ae29e0de-7b5a-45d6-ace3-313c5e88010a","system_id":"levelo_inurba_marseille","lat":43.27999,"lon":5.41663,"is_reserved":false,"is_disabled":false,"rental_uris":{"android":"levelo://app?vid=ae29e0de-7b5a-45d6-ace3-313c5e88010a","ios":"levelo://app?vid=ae29e0de-7b5a-45d6-ace3-313c5e88010a"},"vehicle_type_id":"4","last_reported":1736806067,"current_range_meters":38800,"station_id":"ce4bho12rcd13ifvqh1g","pricing_plan_id":"cebpf4jnsgd1na2vs0mg"},{"bike_id":"6c8f1a4a-6d49-4354-8fa4-7312da1e1397","system_id":"levelo_inurba_marseille","lat":43.28614,"lon":5.35091,"is_reserved":false,"is_disabled":false,"rental_uris":{"android":"levelo://app?vid=6c8f1a4a-6d49-4354-8fa4-7312da1e1397","ios":"levelo://app?vid=6c8f1a4a-6d49-4354-8fa4-7312da1e1397"},"vehicle_type_id":"4","last_reported":1736806067,"current_range_meters":36800,"station_id":"ce4bhch2rcd13ifvqeug","pricing_plan_id":"cebpf4jnsgd1na2vs0mg"},{"bike_id":"572f0254-11cf-4ef2-b3f9-66737ed8298a","system_id":"levelo_inurba_marseille","lat":43.28421,"lon":5.34987,"is_reserved":false,"is_disabled":true,"rental_uris":{"android":"levelo://app?vid=572f0254-11cf-4ef2-b3f9-66737ed8298a","ios":"levelo://app?vid=572f0254-11cf-4ef2-b3f9-66737ed8298a"},"vehicle_type_id":"4","last_reported":1736806067,"current_range_meters":0,"station_id":"ce4bhbh2rcd13ifvqepg","pricing_plan_id":"cebpf4jnsgd1na2vs0mg"},{"bike_id":"394c7962-e332-44b2-b196-c6959273f825","system_id":"levelo_inurba_marseille","lat":43.28455,"lon":5.35886,"is_reserved":false,"is_disabled":false,"rental_uris":{"android":"levelo://app?vid=394c7962-e332-44b2-b196-c6959273f825","ios":"levelo://app?vid=394c7962-e332-44b2-b196-c6959273f825"},"vehicle_type_id":"4","last_reported":1736806067,"current_range_meters":38800,"station_id":"ce4bhah2rcd13ifvqei0","pricing_plan_id":"cebpf4jnsgd1na2vs0mg"},{"bike_id":"60c48e84-151f-4edd-83cd-789ff87c7f63","system_id":"levelo_inurba_marseille","lat":43.287,"lon":5.37383,"is_reserved":false,"is_disabled":true,"rental_uris":{"android":"levelo://app?vid=60c48e84-151f-4edd-83cd-789ff87c7f63","ios":"levelo://app?vid=60c48e84-151f-4edd-83cd-789ff87c7f63"},"vehicle_type_id":"4","last_reported":1736806067,"current_range_meters":36400,"station_id":"ce4bh3p2rcd13ifvqdq0","pricing_plan_id":"cebpf4jnsgd1na2vs0mg"},{"bike_id":"b8014fe9-3b0e-4643-96c5-b77e26dd3881","system_id":"levelo_inurba_marseille","lat":43.27812,"lon":5.40729,"is_reserved":false,"is_disabled":false,"rental_uris":{"android":"levelo://app?vid=b8014fe9-3b0e-4643-96c5-b77e26dd3881","ios":"levelo://app?vid=b8014fe9-3b0e-4643-96c5-b77e26dd3881"},"vehicle_type_id":"4","last_reported":1736806067,"current_range_meters":8800,"station_id":"ce4bhnh2rcd13ifvqgtg","pricing_plan_id":"cebpf4jnsgd1na2vs0mg"},{"bike_id":"65e4bbbc-3a81-48a5-8ddf-1dbbd6fe93d5","system_id":"levelo_inurba_marseille","lat":43.29553,"lon":5.37449,"is_reserved":false,"is_disabled":true,"rental_uris":{"android":"levelo://app?vid=65e4bbbc-3a81-48a5-8ddf-1dbbd6fe93d5","ios":"levelo://app?vid=65e4bbbc-3a81-48a5-8ddf-1dbbd6fe93d5"},"vehicle_type_id":"4","last_reported":1736806067,"current_range_meters":6000,"station_id":"","pricing_plan_id":"cebpf4jnsgd1na2vs0mg"},{"bike_id":"d1dc4ad9-186b-444e-9d19-7e7fc8f9a273","system_id":"levelo_inurba_marseille","lat":43.25571,"lon":5.38253,"is_reserved":false,"is_disabled":false,"rental_uris":{"android":"levelo://app?vid=d1dc4ad9-186b-444e-9d19-7e7fc8f9a273","ios":"levelo://app?vid=d1dc4ad9-186b-444e-9d19-7e7fc8f9a273"},"vehicle_type_id":"4","last_reported":1736806067,"current_range_meters":38800,"station_id":"ce4bhih2rcd13ifvqfs0","pricing_plan_id":"cebpf4jnsgd1na2vs0mg"},{"bike_id":"6fcb3384-c9bc-4ab3-9c0b-f62a500684d1","system_id":"levelo_inurba_marseille","lat":43.29546,"lon":5.39021,"is_reserved":false,"is_disabled":true,"rental_uris":{"android":"levelo://app?vid=6fcb3384-c9bc-4ab3-9c0b-f62a500684d1","ios":"levelo://app?vid=6fcb3384-c9bc-4ab3-9c0b-f62a500684d1"},"vehicle_type_id":"4","last_reported":1736806067,"current_range_meters":28000,"station_id":"ce4bh3p2rcd13ifvqdp0","pricing_plan_id":"cebpf4jnsgd1na2vs0mg"},{"bike_id":"de05f028-7450-4792-8d5b-e268410faa9d","system_id":"levelo_inurba_marseille","lat":43.32132,"lon":5.36823,"is_reserved":false,"is_disabled":false,"rental_uris":{"android":"levelo://app?vid=de05f028-7450-4792-8d5b-e268410faa9d","ios":"levelo://app?vid=de05f028-7450-4792-8d5b-e268410faa9d"},"vehicle_type_id":"4","last_reported":1736806067,"current_range_meters":30800,"station_id":"ce4bhrh2rcd13ifvqhug","pricing_plan_id":"cebpf4jnsgd1na2vs0mg"},{"bike_id":"40ca92e2-89d4-42e2-bbb6-f9f0c7df0ac9","system_id":"levelo_inurba_marseille","lat":43.23197,"lon":5.39966,"is_reserved":false,"is_disabled":false,"rental_uris":{"android":"levelo://app?vid=40ca92e2-89d4-42e2-bbb6-f9f0c7df0ac9","ios":"levelo://app?vid=40ca92e2-89d4-42e2-bbb6-f9f0c7df0ac9"},"vehicle_type_id":"4","last_reported":1736806067,"current_range_meters":10000,"station_id":"ce4bhn12rcd13ifvqgqg","pricing_plan_id":"cebpf4jnsgd1na2vs0mg"},{"bike_id":"4218abb1-97a1-4e69-a779-b2859c95cf9a","system_id":"levelo_inurba_marseille","lat":43.23966,"lon":5.36617,"is_reserved":false,"is_disabled":false,"rental_uris":{"android":"levelo://app?vid=4218abb1-97a1-4e69-a779-b2859c95cf9a","ios":"levelo://app?vid=4218abb1-97a1-4e69-a779-b2859c95cf9a"},"vehicle_type_id":"4","last_reported":1736806067,"current_range_meters":17600,"station_id":"ce4bhi12rcd13ifvqfp0","pricing_plan_id":"cebpf4jnsgd1na2vs0mg"},{"bike_id":"7da73b08-06e3-43ca-8e0f-9447fe50ccbf","system_id":"levelo_inurba_marseille","lat":43.2749,"lon":5.42468,"is_reserved":false,"is_disabled":true,"rental_uris":{"android":"levelo://app?vid=7da73b08-06e3-43ca-8e0f-9447fe50ccbf","ios":"levelo://app?vid=7da73b08-06e3-43ca-8e0f-9447fe50ccbf"},"vehicle_type_id":"4","last_reported":1736806067,"current_range_meters":0,"station_id":"ce4bhn92rcd13ifvqgrg","pricing_plan_id":"cebpf4jnsgd1na2vs0mg"},{"bike_id":"f2af2ca6-447c-496c-ad3d-731c1377ca61","system_id":"levelo_inurba_marseille","lat":43.301,"lon":5.37285,"is_reserved":false,"is_disabled":false,"rental_uris":{"android":"levelo://app?vid=f2af2ca6-447c-496c-ad3d-731c1377ca61","ios":"levelo://app?vid=f2af2ca6-447c-496c-ad3d-731c1377ca61"},"vehicle_type_id":"4","last_reported":1736806067,"current_range_meters":13600,"station_id":"","pricing_plan_id":"cebpf4jnsgd1na2vs0mg"},{"bike_id":"85cfe1c0-40e0-4f59-b74d-562bdcdf0cee","system_id":"levelo_inurba_marseille","lat":43.28572,"lon":5.39501,"is_reserved":false,"is_disabled":false,"rental_uris":{"android":"levelo://app?vid=85cfe1c0-40e0-4f59-b74d-562bdcdf0cee","ios":"levelo://app?vid=85cfe1c0-40e0-4f59-b74d-562bdcdf0cee"},"vehicle_type_id":"4","last_reported":1736806067,"current_range_meters":38800,"station_id":"ce4bh292rcd13ifvqdg0","pricing_plan_id":"cebpf4jnsgd1na2vs0mg"},{"bike_id":"923cb395-45d4-4d53-bdd9-a34c0143ee2c","system_id":"levelo_inurba_marseille","lat":43.32306,"lon":5.38269,"is_reserved":false,"is_disabled":false,"rental_uris":{"android":"levelo://app?vid=923cb395-45d4-4d53-bdd9-a34c0143ee2c","ios":"levelo://app?vid=923cb395-45d4-4d53-bdd9-a34c0143ee2c"},"vehicle_type_id":"4","last_reported":1736806067,"current_range_meters":39200,"station_id":"ce4bhr12rcd13ifvqhqg","pricing_plan_id":"cebpf4jnsgd1na2vs0mg"},{"bike_id":"4702389e-6abe-4c8d-a8dd-2f727bc003cc","system_id":"levelo_inurba_marseille","lat":43.29057,"lon":5.35908,"is_reserved":false,"is_disabled":false,"rental_uris":{"android":"levelo://app?vid=4702389e-6abe-4c8d-a8dd-2f727bc003cc","ios":"levelo://app?vid=4702389e-6abe-4c8d-a8dd-2f727bc003cc"},"vehicle_type_id":"4","last_reported":1736806067,"current_range_meters":39200,"station_id":"ce4bha92rcd13ifvqeg0","pricing_plan_id":"cebpf4jnsgd1na2vs0mg"},{"bike_id":"34d1187a-0d2f-42da-8bcd-6376169d385a","system_id":"levelo_inurba_marseille","lat":43.25944,"lon":5.40916,"is_reserved":false,"is_disabled":false,"rental_uris":{"android":"levelo://app?vid=34d1187a-0d2f-42da-8bcd-6376169d385a","ios":"levelo://app?vid=34d1187a-0d2f-42da-8bcd-6376169d385a"},"vehicle_type_id":"4","last_reported":1736806067,"current_range_meters":38400,"station_id":"ce4bhm92rcd13ifvqglg","pricing_plan_id":"cebpf4jnsgd1na2vs0mg"},{"bike_id":"94e0cb27-f1b4-43a1-868c-02d30dad9f0e","system_id":"levelo_inurba_marseille","lat":43.28038,"lon":5.36949,"is_reserved":false,"is_disabled":false,"rental_uris":{"android":"levelo://app?vid=94e0cb27-f1b4-43a1-868c-02d30dad9f0e","ios":"levelo://app?vid=94e0cb27-f1b4-43a1-868c-02d30dad9f0e"},"vehicle_type_id":"4","last_reported":1736806067,"current_range_meters":3200,"station_id":"ce4bha12rcd13ifvqef0","pricing_plan_id":"cebpf4jnsgd1na2vs0mg"},{"bike_id":"b704bf42-2bc7-4506-b669-8ca7a3330fef","system_id":"levelo_inurba_marseille","lat":43.28133,"lon":5.42621,"is_reserved":false,"is_disabled":true,"rental_uris":{"android":"levelo://app?vid=b704bf42-2bc7-4506-b669-8ca7a3330fef","ios":"levelo://app?vid=b704bf42-2bc7-4506-b669-8ca7a3330fef"},"vehicle_type_id":"4","last_reported":1736806067,"current_range_meters":24000,"station_id":"ce4bhnh2rcd13ifvqgug","pricing_plan_id":"cebpf4jnsgd1na2vs0mg"},{"bike_id":"a93f4845-7702-478a-ab57-bf9c27df6116","system_id":"levelo_inurba_marseille","lat":43.28928,"lon":5.38372,"is_reserved":false,"is_disabled":false,"rental_uris":{"android":"levelo://app?vid=a93f4845-7702-478a-ab57-bf9c27df6116","ios":"levelo://app?vid=a93f4845-7702-478a-ab57-bf9c27df6116"},"vehicle_type_id":"4","last_reported":1736806067,"current_range_meters":38800,"station_id":"ce4bh612rcd13ifvqe6g","pricing_plan_id":"cebpf4jnsgd1na2vs0mg"},{"bike_id":"04173cf6-3f87-4de7-aec7-cb0b655b8a5f","system_id":"levelo_inurba_marseille","lat":43.28457,"lon":5.3589,"is_reserved":false,"is_disabled":false,"rental_uris":{"android":"levelo://app?vid=04173cf6-3f87-4de7-aec7-cb0b655b8a5f","ios":"levelo://app?vid=04173cf6-3f87-4de7-aec7-cb0b655b8a5f"},"vehicle_type_id":"4","last_reported":1736806067,"current_range_meters":38800,"station_id":"ce4bhah2rcd13ifvqei0","pricing_plan_id":"cebpf4jnsgd1na2vs0mg"},{"bike_id":"efdf6e72-46a9-4201-b253-5e7a8c8a3bbf","system_id":"levelo_inurba_marseille","lat":43.27176,"lon":5.40986,"is_reserved":false,"is_disabled":false,"rental_uris":{"android":"levelo://app?vid=efdf6e72-46a9-4201-b253-5e7a8c8a3bbf","ios":"levelo://app?vid=efdf6e72-46a9-4201-b253-5e7a8c8a3bbf"},"vehicle_type_id":"4","last_reported":1736806067,"current_range_meters":34000,"station_id":"ce4bhl12rcd13ifvqgf0","pricing_plan_id":"cebpf4jnsgd1na2vs0mg"},{"bike_id":"af387531-ee60-443d-a45e-a1c347f006cc","system_id":"levelo_inurba_marseille","lat":43.28384,"lon":5.40938,"is_reserved":false,"is_disabled":true,"rental_uris":{"android":"levelo://app?vid=af387531-ee60-443d-a45e-a1c347f006cc","ios":"levelo://app?vid=af387531-ee60-443d-a45e-a1c347f006cc"},"vehicle_type_id":"4","last_reported":1736806067,"current_range_meters":0,"station_id":"","pricing_plan_id":"cebpf4jnsgd1na2vs0mg"},{"bike_id":"71458971-9319-4e7a-88fb-9f8008410aeb","system_id":"levelo_inurba_marseille","lat":43.30414,"lon":5.41302,"is_reserved":false,"is_disabled":false,"rental_uris":{"android":"levelo://app?vid=71458971-9319-4e7a-88fb-9f8008410aeb","ios":"levelo://app?vid=71458971-9319-4e7a-88fb-9f8008410aeb"},"vehicle_type_id":"4","last_reported":1736806067,"current_range_meters":28000,"station_id":"ce4bhop2rcd13ifvqh8g","pricing_plan_id":"cebpf4jnsgd1na2vs0mg"},{"bike_id":"f62a7ed4-7c80-4ed8-9568-a4dea62069d1","system_id":"levelo_inurba_marseille","lat":43.28082,"lon":5.39656,"is_reserved":false,"is_disabled":false,"rental_uris":{"android":"levelo://app?vid=f62a7ed4-7c80-4ed8-9568-a4dea62069d1","ios":"levelo://app?vid=f62a7ed4-7c80-4ed8-9568-a4dea62069d1"},"vehicle_type_id":"4","last_reported":1736806067,"current_range_meters":27600,"station_id":"ce4bho12rcd13ifvqh2g","pricing_plan_id":"cebpf4jnsgd1na2vs0mg"},{"bike_id":"01a115ba-0c2d-4dc9-a8a5-403816873798","system_id":"levelo_inurba_marseille","lat":43.27918,"lon":5.39578,"is_reserved":false,"is_disabled":false,"rental_uris":{"android":"levelo://app?vid=01a115ba-0c2d-4dc9-a8a5-403816873798","ios":"levelo://app?vid=01a115ba-0c2d-4dc9-a8a5-403816873798"},"vehicle_type_id":"4","last_reported":1736806067,"current_range_meters":28000,"station_id":"ce4bhf92rcd13ifvqf40","pricing_plan_id":"cebpf4jnsgd1na2vs0mg"},{"bike_id":"8771d255-2a69-4ce2-b970-b912eeba4555","system_id":"levelo_inurba_marseille","lat":43.28025,"lon":5.36944,"is_reserved":false,"is_disabled":false,"rental_uris":{"android":"levelo://app?vid=8771d255-2a69-4ce2-b970-b912eeba4555","ios":"levelo://app?vid=8771d255-2a69-4ce2-b970-b912eeba4555"},"vehicle_type_id":"4","last_reported":1736806067,"current_range_meters":27600,"station_id":"ce4bha12rcd13ifvqef0","pricing_plan_id":"cebpf4jnsgd1na2vs0mg"},{"bike_id":"08d825bf-0254-4159-97d2-b26e46f7e8fb","system_id":"levelo_inurba_marseille","lat":43.295157,"lon":5.37495,"is_reserved":false,"is_disabled":false,"rental_uris":{"android":"levelo://app?vid=08d825bf-0254-4159-97d2-b26e46f7e8fb","ios":"levelo://app?vid=08d825bf-0254-4159-97d2-b26e46f7e8fb"},"vehicle_type_id":"4","last_reported":1736806067,"current_range_meters":3200,"station_id":"ce4bgup2rcd13ifvqco0","pricing_plan_id":"cebpf4jnsgd1na2vs0mg"},{"bike_id":"2ac5d086-ba2c-4c68-8515-9cd6aee6e212","system_id":"levelo_inurba_marseille","lat":43.31326,"lon":5.39695,"is_reserved":false,"is_disabled":false,"rental_uris":{"android":"levelo://app?vid=2ac5d086-ba2c-4c68-8515-9cd6aee6e212","ios":"levelo://app?vid=2ac5d086-ba2c-4c68-8515-9cd6aee6e212"},"vehicle_type_id":"4","last_reported":1736806067,"current_range_meters":8800,"station_id":"ce4bgvp2rcd13ifvqcu0","pricing_plan_id":"cebpf4jnsgd1na2vs0mg"},{"bike_id":"b560f55a-95c8-41f5-8bf0-866c9d6c5d56","system_id":"levelo_inurba_marseille","lat":43.27948,"lon":5.41048,"is_reserved":false,"is_disabled":false,"rental_uris":{"android":"levelo://app?vid=b560f55a-95c8-41f5-8bf0-866c9d6c5d56","ios":"levelo://app?vid=b560f55a-95c8-41f5-8bf0-866c9d6c5d56"},"vehicle_type_id":"4","last_reported":1736806067,"current_range_meters":12800,"station_id":"ce4bhnp2rcd13ifvqh0g","pricing_plan_id":"cebpf4jnsgd1na2vs0mg"},{"bike_id":"ed87c9a7-d71e-41c2-b72c-83746584ff44","system_id":"levelo_inurba_marseille","lat":43.30538,"lon":5.38401,"is_reserved":false,"is_disabled":false,"rental_uris":{"android":"levelo://app?vid=ed87c9a7-d71e-41c2-b72c-83746584ff44","ios":"levelo://app?vid=ed87c9a7-d71e-41c2-b72c-83746584ff44"},"vehicle_type_id":"4","last_reported":1736806067,"current_range_meters":25600,"station_id":"ce4bgg92rcd13ifvqb30","pricing_plan_id":"cebpf4jnsgd1na2vs0mg"},{"bike_id":"31240ca4-9f64-4406-9c52-14b4354e548c","system_id":"levelo_inurba_marseille","lat":43.28625,"lon":5.351,"is_reserved":false,"is_disabled":false,"rental_uris":{"android":"levelo://app?vid=31240ca4-9f64-4406-9c52-14b4354e548c","ios":"levelo://app?vid=31240ca4-9f64-4406-9c52-14b4354e548c"},"vehicle_type_id":"4","last_reported":1736806067,"current_range_meters":31200,"station_id":"ce4bhch2rcd13ifvqeug","pricing_plan_id":"cebpf4jnsgd1na2vs0mg"},{"bike_id":"4450aa92-2df8-4686-aa7c-57edfca71699","system_id":"levelo_inurba_marseille","lat":43.31714,"lon":5.43711,"is_reserved":false,"is_disabled":false,"rental_uris":{"android":"levelo://app?vid=4450aa92-2df8-4686-aa7c-57edfca71699","ios":"levelo://app?vid=4450aa92-2df8-4686-aa7c-57edfca71699"},"vehicle_type_id":"4","last_reported":1736806067,"current_range_meters":35200,"station_id":"ce4bhp92rcd13ifvqhcg","pricing_plan_id":"cebpf4jnsgd1na2vs0mg"},{"bike_id":"c57da018-bfbb-4cbc-9a23-aaed6c1fa365","system_id":"levelo_inurba_marseille","lat":43.27615,"lon":5.36099,"is_reserved":false,"is_disabled":false,"rental_uris":{"android":"levelo://app?vid=c57da018-bfbb-4cbc-9a23-aaed6c1fa365","ios":"levelo://app?vid=c57da018-bfbb-4cbc-9a23-aaed6c1fa365"},"vehicle_type_id":"4","last_reported":1736806067,"current_range_meters":36400,"station_id":"ce4bgj92rcd13ifvqbe0","pricing_plan_id":"cebpf4jnsgd1na2vs0mg"},{"bike_id":"221f4a6e-610a-4c65-84df-73db7b6350f1","system_id":"levelo_inurba_marseille","lat":43.26497,"lon":5.39538,"is_reserved":false,"is_disabled":false,"rental_uris":{"android":"levelo://app?vid=221f4a6e-610a-4c65-84df-73db7b6350f1","ios":"levelo://app?vid=221f4a6e-610a-4c65-84df-73db7b6350f1"},"vehicle_type_id":"4","last_reported":1736806067,"current_range_meters":14000,"station_id":"ce4bhi12rcd13ifvqfq0","pricing_plan_id":"cebpf4jnsgd1na2vs0mg"},{"bike_id":"3f339c5a-7436-4069-b8cf-eaa650bcb974","system_id":"levelo_inurba_marseille","lat":43.29045,"lon":5.37565,"is_reserved":false,"is_disabled":false,"rental_uris":{"android":"levelo://app?vid=3f339c5a-7436-4069-b8cf-eaa650bcb974","ios":"levelo://app?vid=3f339c5a-7436-4069-b8cf-eaa650bcb974"},"vehicle_type_id":"4","last_reported":1736806067,"current_range_meters":37600,"station_id":"ce4bh692rcd13ifvqe90","pricing_plan_id":"cebpf4jnsgd1na2vs0mg"},{"bike_id":"978cf5ba-7ca2-48b0-8fa5-79ef9769d0ae","system_id":"levelo_inurba_marseille","lat":43.25871,"lon":5.39917,"is_reserved":false,"is_disabled":false,"rental_uris":{"android":"levelo://app?vid=978cf5ba-7ca2-48b0-8fa5-79ef9769d0ae","ios":"levelo://app?vid=978cf5ba-7ca2-48b0-8fa5-79ef9769d0ae"},"vehicle_type_id":"4","last_reported":1736806067,"current_range_meters":38800,"station_id":"ce4bhl92rcd13ifvqghg","pricing_plan_id":"cebpf4jnsgd1na2vs0mg"},{"bike_id":"a7ef986d-d54a-4d7d-a996-fbacf775287a","system_id":"levelo_inurba_marseille","lat":43.28695,"lon":5.3739,"is_reserved":false,"is_disabled":false,"rental_uris":{"android":"levelo://app?vid=a7ef986d-d54a-4d7d-a996-fbacf775287a","ios":"levelo://app?vid=a7ef986d-d54a-4d7d-a996-fbacf775287a"},"vehicle_type_id":"4","last_reported":1736806067,"current_range_meters":20400,"station_id":"ce4bh3p2rcd13ifvqdq0","pricing_plan_id":"cebpf4jnsgd1na2vs0mg"},{"bike_id":"bc0fc0ae-91df-407f-93bf-ca0740b6d5e2","system_id":"levelo_inurba_marseille","lat":43.25498,"lon":5.37654,"is_reserved":false,"is_disabled":false,"rental_uris":{"android":"levelo://app?vid=bc0fc0ae-91df-407f-93bf-ca0740b6d5e2","ios":"levelo://app?vid=bc0fc0ae-91df-407f-93bf-ca0740b6d5e2"},"vehicle_type_id":"4","last_reported":1736806067,"current_range_meters":37600,"station_id":"ce4bhh12rcd13ifvqff0","pricing_plan_id":"cebpf4jnsgd1na2vs0mg"},{"bike_id":"7e1bcca0-321f-41b9-acd6-cae9926ed467","system_id":"levelo_inurba_marseille","lat":43.29039,"lon":5.37551,"is_reserved":false,"is_disabled":false,"rental_uris":{"android":"levelo://app?vid=7e1bcca0-321f-41b9-acd6-cae9926ed467","ios":"levelo://app?vid=7e1bcca0-321f-41b9-acd6-cae9926ed467"},"vehicle_type_id":"4","last_reported":1736806067,"current_range_meters":38800,"station_id":"ce4bh692rcd13ifvqe90","pricing_plan_id":"cebpf4jnsgd1na2vs0mg"},{"bike_id":"739b9309-56f3-4b21-b61d-ade9ae6cc990","system_id":"levelo_inurba_marseille","lat":43.29277,"lon":5.40144,"is_reserved":false,"is_disabled":true,"rental_uris":{"android":"levelo://app?vid=739b9309-56f3-4b21-b61d-ade9ae6cc990","ios":"levelo://app?vid=739b9309-56f3-4b21-b61d-ade9ae6cc990"},"vehicle_type_id":"4","last_reported":1736806067,"current_range_meters":37600,"station_id":"ce4bh312rcd13ifvqdk0","pricing_plan_id":"cebpf4jnsgd1na2vs0mg"},{"bike_id":"78d99d02-c0e6-4a39-87b7-bfa29bbc4c6d","system_id":"levelo_inurba_marseille","lat":43.30945,"lon":5.40125,"is_reserved":false,"is_disabled":false,"rental_uris":{"android":"levelo://app?vid=78d99d02-c0e6-4a39-87b7-bfa29bbc4c6d","ios":"levelo://app?vid=78d99d02-c0e6-4a39-87b7-bfa29bbc4c6d"},"vehicle_type_id":"4","last_reported":1736806067,"current_range_meters":24000,"station_id":"ce4bgvp2rcd13ifvqct0","pricing_plan_id":"cebpf4jnsgd1na2vs0mg"},{"bike_id":"f7e8f7f7-721b-47a0-aeb2-457ccd531561","system_id":"levelo_inurba_marseille","lat":43.32366,"lon":5.3888,"is_reserved":false,"is_disabled":false,"rental_uris":{"android":"levelo://app?vid=f7e8f7f7-721b-47a0-aeb2-457ccd531561","ios":"levelo://app?vid=f7e8f7f7-721b-47a0-aeb2-457ccd531561"},"vehicle_type_id":"4","last_reported":1736806067,"current_range_meters":29600,"station_id":"ce4bhqp2rcd13ifvqhog","pricing_plan_id":"cebpf4jnsgd1na2vs0mg"},{"bike_id":"3c3c287f-e835-4040-bdb7-259026d8f5b9","system_id":"levelo_inurba_marseille","lat":43.29033,"lon":5.38112,"is_reserved":false,"is_disabled":true,"rental_uris":{"android":"levelo://app?vid=3c3c287f-e835-4040-bdb7-259026d8f5b9","ios":"levelo://app?vid=3c3c287f-e835-4040-bdb7-259026d8f5b9"},"vehicle_type_id":"4","last_reported":1736806067,"current_range_meters":0,"station_id":"ce4bh4p2rcd13ifvqe1g","pricing_plan_id":"cebpf4jnsgd1na2vs0mg"},{"bike_id":"d93983d5-ce14-4453-adb6-eca901e85853","system_id":"levelo_inurba_marseille","lat":43.30629,"lon":5.40055,"is_reserved":false,"is_disabled":true,"rental_uris":{"android":"levelo://app?vid=d93983d5-ce14-4453-adb6-eca901e85853","ios":"levelo://app?vid=d93983d5-ce14-4453-adb6-eca901e85853"},"vehicle_type_id":"4","last_reported":1736806067,"current_range_meters":0,"station_id":"ce4bh112rcd13ifvqda0","pricing_plan_id":"cebpf4jnsgd1na2vs0mg"},{"bike_id":"2bb74b5d-beda-4c05-b1d6-b5ddeff2c2bc","system_id":"levelo_inurba_marseille","lat":43.31077,"lon":5.38353,"is_reserved":false,"is_disabled":false,"rental_uris":{"android":"levelo://app?vid=2bb74b5d-beda-4c05-b1d6-b5ddeff2c2bc","ios":"levelo://app?vid=2bb74b5d-beda-4c05-b1d6-b5ddeff2c2bc"},"vehicle_type_id":"4","last_reported":1736806067,"current_range_meters":36800,"station_id":"ce4bgv92rcd13ifvqcr0","pricing_plan_id":"cebpf4jnsgd1na2vs0mg"},{"bike_id":"9f490960-07dc-47e0-a08b-9e14360727a2","system_id":"levelo_inurba_marseille","lat":43.29523,"lon":5.39054,"is_reserved":false,"is_disabled":false,"rental_uris":{"android":"levelo://app?vid=9f490960-07dc-47e0-a08b-9e14360727a2","ios":"levelo://app?vid=9f490960-07dc-47e0-a08b-9e14360727a2"},"vehicle_type_id":"4","last_reported":1736806067,"current_range_meters":37600,"station_id":"ce4bh3p2rcd13ifvqdp0","pricing_plan_id":"cebpf4jnsgd1na2vs0mg"},{"bike_id":"f8e22307-a1e3-42d9-85c8-12a8587fea9b","system_id":"levelo_inurba_marseille","lat":43.3131,"lon":5.39707,"is_reserved":false,"is_disabled":false,"rental_uris":{"android":"levelo://app?vid=f8e22307-a1e3-42d9-85c8-12a8587fea9b","ios":"levelo://app?vid=f8e22307-a1e3-42d9-85c8-12a8587fea9b"},"vehicle_type_id":"4","last_reported":1736806067,"current_range_meters":38000,"station_id":"ce4bgvp2rcd13ifvqcu0","pricing_plan_id":"cebpf4jnsgd1na2vs0mg"},{"bike_id":"41922604-c7b8-4e93-9da5-3903771d7233","system_id":"levelo_inurba_marseille","lat":43.24801,"lon":5.37468,"is_reserved":false,"is_disabled":false,"rental_uris":{"android":"levelo://app?vid=41922604-c7b8-4e93-9da5-3903771d7233","ios":"levelo://app?vid=41922604-c7b8-4e93-9da5-3903771d7233"},"vehicle_type_id":"4","last_reported":1736806067,"current_range_meters":25200,"station_id":"ce4bhgh2rcd13ifvqfb0","pricing_plan_id":"cebpf4jnsgd1na2vs0mg"},{"bike_id":"b3989067-f48e-48e8-9f72-9d04db4132b9","system_id":"levelo_inurba_marseille","lat":43.30814,"lon":5.38145,"is_reserved":false,"is_disabled":true,"rental_uris":{"android":"levelo://app?vid=b3989067-f48e-48e8-9f72-9d04db4132b9","ios":"levelo://app?vid=b3989067-f48e-48e8-9f72-9d04db4132b9"},"vehicle_type_id":"4","last_reported":1736806067,"current_range_meters":31200,"station_id":"ce4bgt12rcd13ifvqce0","pricing_plan_id":"cebpf4jnsgd1na2vs0mg"},{"bike_id":"b11d8398-3e94-43f6-9dde-8830aae0586e","system_id":"levelo_inurba_marseille","lat":43.2857,"lon":5.39495,"is_reserved":false,"is_disabled":false,"rental_uris":{"android":"levelo://app?vid=b11d8398-3e94-43f6-9dde-8830aae0586e","ios":"levelo://app?vid=b11d8398-3e94-43f6-9dde-8830aae0586e"},"vehicle_type_id":"4","last_reported":1736806067,"current_range_meters":36800,"station_id":"ce4bh292rcd13ifvqdg0","pricing_plan_id":"cebpf4jnsgd1na2vs0mg"},{"bike_id":"de849d82-468f-4c9f-a8d3-e7ba994c7879","system_id":"levelo_inurba_marseille","lat":43.29864,"lon":5.36322,"is_reserved":false,"is_disabled":false,"rental_uris":{"android":"levelo://app?vid=de849d82-468f-4c9f-a8d3-e7ba994c7879","ios":"levelo://app?vid=de849d82-468f-4c9f-a8d3-e7ba994c7879"},"vehicle_type_id":"4","last_reported":1736806067,"current_range_meters":16000,"station_id":"ce4bgpp2rcd13ifvqc3g","pricing_plan_id":"cebpf4jnsgd1na2vs0mg"},{"bike_id":"6e4f728f-3b4d-4668-b57a-72588765c74a","system_id":"levelo_inurba_marseille","lat":43.29031,"lon":5.35915,"is_reserved":false,"is_disabled":false,"rental_uris":{"android":"levelo://app?vid=6e4f728f-3b4d-4668-b57a-72588765c74a","ios":"levelo://app?vid=6e4f728f-3b4d-4668-b57a-72588765c74a"},"vehicle_type_id":"4","last_reported":1736806067,"current_range_meters":36800,"station_id":"ce4bha92rcd13ifvqeg0","pricing_plan_id":"cebpf4jnsgd1na2vs0mg"},{"bike_id":"5e654fae-ac1d-4582-9b86-6c0db3e5680b","system_id":"levelo_inurba_marseille","lat":43.2857,"lon":5.39488,"is_reserved":false,"is_disabled":false,"rental_uris":{"android":"levelo://app?vid=5e654fae-ac1d-4582-9b86-6c0db3e5680b","ios":"levelo://app?vid=5e654fae-ac1d-4582-9b86-6c0db3e5680b"},"vehicle_type_id":"4","last_reported":1736806067,"current_range_meters":25600,"station_id":"ce4bh292rcd13ifvqdg0","pricing_plan_id":"cebpf4jnsgd1na2vs0mg"},{"bike_id":"8c7af2f1-12e8-47a0-a6ab-f2eea557c83c","system_id":"levelo_inurba_marseille","lat":43.25089,"lon":5.39514,"is_reserved":false,"is_disabled":false,"rental_uris":{"android":"levelo://app?vid=8c7af2f1-12e8-47a0-a6ab-f2eea557c83c","ios":"levelo://app?vid=8c7af2f1-12e8-47a0-a6ab-f2eea557c83c"},"vehicle_type_id":"4","last_reported":1736806067,"current_range_meters":20000,"station_id":"ce4bhm12rcd13ifvqgkg","pricing_plan_id":"cebpf4jnsgd1na2vs0mg"},{"bike_id":"317217f4-252a-4ff2-8a17-cbcec96dc79e","system_id":"levelo_inurba_marseille","lat":43.24064,"lon":5.37768,"is_reserved":false,"is_disabled":true,"rental_uris":{"android":"levelo://app?vid=317217f4-252a-4ff2-8a17-cbcec96dc79e","ios":"levelo://app?vid=317217f4-252a-4ff2-8a17-cbcec96dc79e"},"vehicle_type_id":"4","last_reported":1736806067,"current_range_meters":35200,"station_id":"ce4bhnp2rcd13ifvqgvg","pricing_plan_id":"cebpf4jnsgd1na2vs0mg"},{"bike_id":"49adb0fe-e9f5-4019-981e-182146de8d6a","system_id":"levelo_inurba_marseille","lat":43.28079,"lon":5.39645,"is_reserved":false,"is_disabled":false,"rental_uris":{"android":"levelo://app?vid=49adb0fe-e9f5-4019-981e-182146de8d6a","ios":"levelo://app?vid=49adb0fe-e9f5-4019-981e-182146de8d6a"},"vehicle_type_id":"4","last_reported":1736806067,"current_range_meters":9200,"station_id":"ce4bho12rcd13ifvqh2g","pricing_plan_id":"cebpf4jnsgd1na2vs0mg"},