{"last_updated":1700759181,"ttl":30,"version":"2.2","data":{"bikes":[{"bike_id":"0e78e100-df06-4bc0-8d18-ab455c75b1aa","system_id":"levelo_inurba_marseille","lat":43.31342,"lon":5.36735,"is_reserved":false,"is_disabled":false,"rental_uris":{"android":"levelo://app?vid=0e78e100-df06-4bc0-8d18-ab455c75b1aa","ios":"levelo://app?vid=0e78e100-df06-4bc0-8d18-ab455c75b1aa"},"vehicle_type_id":"4","last_reported":1700759181,"current_range_meters":8000,"station_id":"ce4bgr92rcd13ifvqc6g","pricing_plan_id":"free"},{"bike_id":"3fb14bf8-0126-4286-a21d-ea1800bfe259","system_id":"levelo_inurba_marseille","lat":43.311125,"lon":5.377624,"is_reserved":false,"is_disabled":false,"rental_uris":{"android":"levelo://app?vid=3fb14bf8-0126-4286-a21d-ea1800bfe259","ios":"levelo://app?vid=3fb14bf8-0126-4286-a21d-ea1800bfe259"},"vehicle_type_id":"4","last_reported":1700759181,"current_range_meters":27200,"station_id":"ce4bgt92rcd13ifvqcg0","pricing_plan_id":"free"},{"bike_id":"94c499a5-5012-4ae2-8224-2c8275fca8b2","system_id":"levelo_inurba_marseille","lat":43.311125,"lon":5.377624,"is_reserved":false,"is_disabled":false,"rental_uris":{"android":"levelo://app?vid=94c499a5-5012-4ae2-8224-2c8275fca8b2","ios":"levelo://app?vid=94c499a5-5012-4ae2-8224-2c8275fca8b2"},"vehicle_type_id":"4","last_reported":1700759181,"current_range_meters":1200,"station_id":"ce4bgt92rcd13ifvqcg0","pricing_plan_id":"free"},{"bike_id":"d881e285-ad96-4bf4-b333-a0026c9943c0","system_id":"levelo_inurba_marseille","lat":43.311125,"lon":5.377624,"is_reserved":false,"is_disabled":false,"rental_uris":{"android":"levelo://app?vid=d881e285-ad96-4bf4-b333-a0026c9943c0","ios":"levelo://app?vid=d881e285-ad96-4bf4-b333-a0026c9943c0"},"vehicle_type_id":"4","last_reported":1700759181,"current_range_meters":3600,"station_id":"ce4bgt92rcd13ifvqcg0","pricing_plan_id":"free"},{"bike_id":"5c8f6c16-0fd5-4424-bfe0-9c44610f648c","system_id":"levelo_inurba_marseille","lat":43.311125,"lon":5.377624,"is_reserved":false,"is_disabled":false,"rental_uris":{"android":"levelo://app?vid=5c8f6c16-0fd5-4424-bfe0-9c44610f648c","ios":"levelo://app?vid=5c8f6c16-0fd5-4424-bfe0-9c44610f648c"},"vehicle_type_id":"4","last_reported":1700759181,"current_range_meters":23600,"station_id":"ce4bgt92rcd13ifvqcg0","pricing_plan_id":"free"},{"bike_id":"cb831096-b78a-4b81-9642-df22882295e9","system_id":"levelo_inurba_marseille","lat":43.30821,"lon":5.3765,"is_reserved":false,"is_disabled":false,"rental_uris":{"android":"levelo://app?vid=cb831096-b78a-4b81-9642-df22882295e9","ios":"levelo://app?vid=cb831096-b78a-4b81-9642-df22882295e9"},"vehicle_type_id":"4","last_reported":1700759181,"current_range_meters":20000,"station_id":"ce4bgv92rcd13ifvqcq0","pricing_plan_id":"free"},{"bike_id":"acf2e61c-da7a-4535-afce-6dae5cd5d176","system_id":"levelo_inurba_marseille","lat":43.308151,"lon":5.376617,"is_reserved":false,"is_disabled":false,"rental_uris":{"android":"levelo://app?vid=acf2e61c-da7a-4535-afce-6dae5cd5d176","ios":"levelo://app?vid=acf2e61c-da7a-4535-afce-6dae5cd5d176"},"vehicle_type_id":"4","last_reported":1700759181,"current_range_meters":7200,"station_id":"ce4bgv92rcd13ifvqcq0","pricing_plan_id":"free"},{"bike_id":"c08f2b9c-b52a-4d4a-9e33-77a9505ddfb6","system_id":"levelo_inurba_marseille","lat":43.317075,"lon":5.377367,"is_reserved":false,"is_disabled":false,"rental_uris":{"android":"levelo://app?vid=c08f2b9c-b52a-4d4a-9e33-77a9505ddfb6","ios":"levelo://app?vid=c08f2b9c-b52a-4d4a-9e33-77a9505ddfb6"},"vehicle_type_id":"4","last_reported":1700759181,"current_range_meters":15200,"station_id":"ce4bgth2rcd13ifvqch0","pricing_plan_id":"free"},{"bike_id":"6688d18a-76b3-4d1f-a5d7-ff5674d61b67","system_id":"levelo_inurba_marseille","lat":43.303195,"lon":5.366405,"is_reserved":false,"is_disabled":false,"rental_uris":{"android":"levelo://app?vid=6688d18a-76b3-4d1f-a5d7-ff5674d61b67","ios":"levelo://app?vid=6688d18a-76b3-4d1f-a5d7-ff5674d61b67"},"vehicle_type_id":"4","last_reported":1700759181,"current_range_meters":0,"station_id":"","pricing_plan_id":"free"},{"bike_id":"11eb8de5-8c73-4c96-8f51-93e0181ec12d","system_id":"levelo_inurba_marseille","lat":43.303046,"lon":5.368981,"is_reserved":false,"is_disabled":false,"rental_uris":{"android":"levelo://app?vid=11eb8de5-8c73-4c96-8f51-93e0181ec12d","ios":"levelo://app?vid=11eb8de5-8c73-4c96-8f51-93e0181ec12d"},"vehicle_type_id":"4","last_reported":1700759181,"current_range_meters":1600,"station_id":"ce4bgqh2rcd13ifvqc5g","pricing_plan_id":"free"},{"bike_id":"5e949e9f-8542-4e41-9cc2-ec5dd02e546c","system_id":"levelo_inurba_marseille","lat":43.301939,"lon":5.366286,"is_reserved":false,"is_disabled":false,"rental_uris":{"android":"levelo://app?vid=5e949e9f-8542-4e41-9cc2-ec5dd02e546c","ios":"levelo://app?vid=5e949e9f-8542-4e41-9cc2-ec5dd02e546c"},"vehicle_type_id":"4","last_reported":1700759181,"current_range_meters":26400,"station_id":"ce4bgrh2rcd13ifvqc8g","pricing_plan_id":"free"},{"bike_id":"0327687b-f51e-4077-bf49-2ec73a6de092","system_id":"levelo_inurba_marseille","lat":43.322335,"lon":5.375636,"is_reserved":false,"is_disabled":false,"rental_uris":{"android":"levelo://app?vid=0327687b-f51e-4077-bf49-2ec73a6de092","ios":"levelo://app?vid=0327687b-f51e-4077-bf49-2ec73a6de092"},"vehicle_type_id":"4","last_reported":1700759181,"current_range_meters":10800,"station_id":"","pricing_plan_id":"free"},{"bike_id":"ed865094-d610-4403-87ad-aab620f8cfab","system_id":"levelo_inurba_marseille","lat":43.308012,"lon":5.381511,"is_reserved":false,"is_disabled":false,"rental_uris":{"android":"levelo://app?vid=ed865094-d610-4403-87ad-aab620f8cfab","ios":"levelo://app?vid=ed865094-d610-4403-87ad-aab620f8cfab"},"vehicle_type_id":"4","last_reported":1700759181,"current_range_meters":0,"station_id":"ce4bgt12rcd13ifvqce0","pricing_plan_id":"free"},{"bike_id":"9b23fc13-b691-4871-8306-cb52a4ca9417","system_id":"levelo_inurba_marseille","lat":43.32493,"lon":5.36571,"is_reserved":false,"is_disabled":false,"rental_uris":{"android":"levelo://app?vid=9b23fc13-b691-4871-8306-cb52a4ca9417","ios":"levelo://app?vid=9b23fc13-b691-4871-8306-cb52a4ca9417"},"vehicle_type_id":"4","last_reported":1700759181,"current_range_meters":4800,"station_id":"ce4bhs12rcd13ifvqhvg","pricing_plan_id":"free"},{"bike_id":"9b3ea4d2-5552-45d6-a8fe-0138f9039a41","system_id":"levelo_inurba_marseille","lat":43.319935,"lon":5.381699,"is_reserved":false,"is_disabled":false,"rental_uris":{"android":"levelo://app?vid=9b3ea4d2-5552-45d6-a8fe-0138f9039a41","ios":"levelo://app?vid=9b3ea4d2-5552-45d6-a8fe-0138f9039a41"},"vehicle_type_id":"4","last_reported":1700759181,"current_range_meters":16800,"station_id":"ce4bhr12rcd13ifvqhpg","pricing_plan_id":"free"},{"bike_id":"b1c6c7be-ddf3-47bd-b1d6-5f140017d5bf","system_id":"levelo_inurba_marseille","lat":43.31365,"lon":5.38488,"is_reserved":false,"is_disabled":false,"rental_uris":{"android":"levelo://app?vid=b1c6c7be-ddf3-47bd-b1d6-5f140017d5bf","ios":"levelo://app?vid=b1c6c7be-ddf3-47bd-b1d6-5f140017d5bf"},"vehicle_type_id":"4","last_reported":1700759181,"current_range_meters":2800,"station_id":"ce4bgt92rcd13ifvqcf0","pricing_plan_id":"free"},{"bike_id":"5ad6fb52-2fb8-4164-bb97-6c0faf35e158","system_id":"levelo_inurba_marseille","lat":43.298433,"lon":5.362774,"is_reserved":false,"is_disabled":false,"rental_uris":{"android":"levelo://app?vid=5ad6fb52-2fb8-4164-bb97-6c0faf35e158","ios":"levelo://app?vid=5ad6fb52-2fb8-4164-bb97-6c0faf35e158"},"vehicle_type_id":"4","last_reported":1700759181,"current_range_meters":25200,"station_id":"ce4bgpp2rcd13ifvqc3g","pricing_plan_id":"free"},{"bike_id":"8790fd58-a510-462e-a519-d92f2ae368bb","system_id":"levelo_inurba_marseille","lat":43.305364,"lon":5.384119,"is_reserved":false,"is_disabled":false,"rental_uris":{"android":"levelo://app?vid=8790fd58-a510-462e-a519-d92f2ae368bb","ios":"levelo://app?vid=8790fd58-a510-462e-a519-d92f2ae368bb"},"vehicle_type_id":"4","last_reported":1700759181,"current_range_meters":22400,"station_id":"ce4bgg92rcd13ifvqb30","pricing_plan_id":"free"},{"bike_id":"ddd3fff7-fc57-48f9-825f-f47d18d1dbee","system_id":"levelo_inurba_marseille","lat":43.328371,"lon":5.366909,"is_reserved":false,"is_disabled":false,"rental_uris":{"android":"levelo://app?vid=ddd3fff7-fc57-48f9-825f-f47d18d1dbee","ios":"levelo://app?vid=ddd3fff7-fc57-48f9-825f-f47d18d1dbee"},"vehicle_type_id":"4","last_reported":1700759181,"current_range_meters":0,"station_id":"ce4bhs92rcd13ifvqi0g","pricing_plan_id":"free"},{"bike_id":"bc37e7a8-18f2-4fc7-a068-8727b8448f64","system_id":"levelo_inurba_marseille","lat":43.29702,"lon":5.36609,"is_reserved":false,"is_disabled":false,"rental_uris":{"android":"levelo://app?vid=bc37e7a8-18f2-4fc7-a068-8727b8448f64","ios":"levelo://app?vid=bc37e7a8-18f2-4fc7-a068-8727b8448f64"},"vehicle_type_id":"4","last_reported":1700759181,"current_range_meters":0,"station_id":"ce4bgn12rcd13ifvqbt0","pricing_plan_id":"free"},{"bike_id":"4d7509f5-9559-42ca-a60d-bef9e80f0981","system_id":"levelo_inurba_marseille","lat":43.299601,"lon":5.379146,"is_reserved":false,"is_disabled":false,"rental_uris":{"android":"levelo://app?vid=4d7509f5-9559-42ca-a60d-bef9e80f0981","ios":"levelo://app?vid=4d7509f5-9559-42ca-a60d-bef9e80f0981"},"vehicle_type_id":"4","last_reported":1700759181,"current_range_meters":0,"station_id":"","pricing_plan_id":"free"},{"bike_id":"9b08bd7e-5fb3-4e1b-9ddf-51fe2542d627","system_id":"levelo_inurba_marseille","lat":43.29599,"lon":5.368013,"is_reserved":false,"is_disabled":false,"rental_uris":{"android":"levelo://app?vid=9b08bd7e-5fb3-4e1b-9ddf-51fe2542d627","ios":"levelo://app?vid=9b08bd7e-5fb3-4e1b-9ddf-51fe2542d627"},"vehicle_type_id":"4","last_reported":1700759181,"current_range_meters":23600,"station_id":"","pricing_plan_id":"free"},{"bike_id":"7e952860-1a8c-4cf5-a3f7-9be44bfd4179","system_id":"levelo_inurba_marseille","lat":43.299028,"lon":5.381509,"is_reserved":false,"is_disabled":false,"rental_uris":{"android":"levelo://app?vid=7e952860-1a8c-4cf5-a3f7-9be44bfd4179","ios":"levelo://app?vid=7e952860-1a8c-4cf5-a3f7-9be44bfd4179"},"vehicle_type_id":"4","last_reported":1700759181,"current_range_meters":0,"station_id":"ce4bgj12rcd13ifvqbc0","pricing_plan_id":"free"},{"bike_id":"fb13598d-7140-457a-b4d9-1a2254e806fb","system_id":"levelo_inurba_marseille","lat":43.317557,"lon":5.390173,"is_reserved":false,"is_disabled":false,"rental_uris":{"android":"levelo://app?vid=fb13598d-7140-457a-b4d9-1a2254e806fb","ios":"levelo://app?vid=fb13598d-7140-457a-b4d9-1a2254e806fb"},"vehicle_type_id":"4","last_reported":1700759181,"current_range_meters":31200,"station_id":"ce4bhqp2rcd13ifvqhng","pricing_plan_id":"free"},{"bike_id":"ea080739-67fe-4b29-ad93-68fd11146174","system_id":"levelo_inurba_marseille","lat":43.31753,"lon":5.39018,"is_reserved":false,"is_disabled":false,"rental_uris":{"android":"levelo://app?vid=ea080739-67fe-4b29-ad93-68fd11146174","ios":"levelo://app?vid=ea080739-67fe-4b29-ad93-68fd11146174"},"vehicle_type_id":"4","last_reported":1700759181,"current_range_meters":0,"station_id":"ce4bhqp2rcd13ifvqhng","pricing_plan_id":"free"},{"bike_id":"fb88f3fb-8f84-435c-b10c-1ee750979853","system_id":"levelo_inurba_marseille","lat":43.298037,"lon":5.381066,"is_reserved":false,"is_disabled":false,"rental_uris":{"android":"levelo://app?vid=fb88f3fb-8f84-435c-b10c-1ee750979853","ios":"levelo://app?vid=fb88f3fb-8f84-435c-b10c-1ee750979853"},"vehicle_type_id":"4","last_reported":1700759181,"current_range_meters":30800,"station_id":"ce4bgip2rcd13ifvqbb0","pricing_plan_id":"free"},{"bike_id":"bd98f550-2793-4099-8eed-c4f592ebbcce","system_id":"levelo_inurba_marseille","lat":43.296263,"lon":5.377094,"is_reserved":false,"is_disabled":false,"rental_uris":{"android":"levelo://app?vid=bd98f550-2793-4099-8eed-c4f592ebbcce","ios":"levelo://app?vid=bd98f550-2793-4099-8eed-c4f592ebbcce"},"vehicle_type_id":"4","last_reported":1700759181,"current_range_meters":18400,"station_id":"ce4bgi92rcd13ifvqb90","pricing_plan_id":"free"},{"bike_id":"6b621983-5e9e-42f7-990d-ad5a093820d2","system_id":"levelo_inurba_marseille","lat":43.293801,"lon":5.363066,"is_reserved":false,"is_disabled":false,"rental_uris":{"android":"levelo://app?vid=6b621983-5e9e-42f7-990d-ad5a093820d2","ios":"levelo://app?vid=6b621983-5e9e-42f7-990d-ad5a093820d2"},"vehicle_type_id":"4","last_reported":1700759181,"current_range_meters":7600,"station_id":"","pricing_plan_id":"free"},{"bike_id":"58224c8c-31e0-4c95-a8a6-95f258a9db07","system_id":"levelo_inurba_marseille","lat":43.293368,"lon":5.371594,"is_reserved":false,"is_disabled":false,"rental_uris":{"android":"levelo://app?vid=58224c8c-31e0-4c95-a8a6-95f258a9db07","ios":"levelo://app?vid=58224c8c-31e0-4c95-a8a6-95f258a9db07"},"vehicle_type_id":"4","last_reported":1700759181,"current_range_meters":400,"station_id":"","pricing_plan_id":"free"},{"bike_id":"aaedaee1-dc92-42f6-a73e-e1d720c2b8d6","system_id":"levelo_inurba_marseille","lat":43.2928,"lon":5.36846,"is_reserved":false,"is_disabled":false,"rental_uris":{"android":"levelo://app?vid=aaedaee1-dc92-42f6-a73e-e1d720c2b8d6","ios":"levelo://app?vid=aaedaee1-dc92-42f6-a73e-e1d720c2b8d6"},"vehicle_type_id":"4","last_reported":1700759181,"current_range_meters":29600,"station_id":"ce4bhbp2rcd13ifvqesg","pricing_plan_id":"free"},{"bike_id":"793f65bb-6e57-4aac-8396-cec621c7618a","system_id":"levelo_inurba_marseille","lat":43.2936,"lon":5.37835,"is_reserved":false,"is_disabled":false,"rental_uris":{"android":"levelo://app?vid=793f65bb-6e57-4aac-8396-cec621c7618a","ios":"levelo://app?vid=793f65bb-6e57-4aac-8396-cec621c7618a"},"vehicle_type_id":"4","last_reported":1700759181,"current_range_meters":15600,"station_id":"ce4bgjh2rcd13ifvqbf0","pricing_plan_id":"free"},{"bike_id":"b664086b-eac2-4b9a-8068-eaed9265637d","system_id":"levelo_inurba_marseille","lat":43.29388,"lon":5.3787,"is_reserved":false,"is_disabled":false,"rental_uris":{"android":"levelo://app?vid=b664086b-eac2-4b9a-8068-eaed9265637d","ios":"levelo://app?vid=b664086b-eac2-4b9a-8068-eaed9265637d"},"vehicle_type_id":"4","last_reported":1700759181,"current_range_meters":4000,"station_id":"","pricing_plan_id":"free"},{"bike_id":"2c8b05d1-72e5-45aa-8933-6b0062aace37","system_id":"levelo_inurba_marseille","lat":43.300852,"lon":5.390859,"is_reserved":false,"is_disabled":false,"rental_uris":{"android":"levelo://app?vid=2c8b05d1-72e5-45aa-8933-6b0062aace37","ios":"levelo://app?vid=2c8b05d1-72e5-45aa-8933-6b0062aace37"},"vehicle_type_id":"4","last_reported":1700759181,"current_range_meters":0,"station_id":"ce4bh192rcd13ifvqdb0","pricing_plan_id":"free"},{"bike_id":"32bb5ba6-4d62-48fa-ba40-ff7fd6b831cc","system_id":"levelo_inurba_marseille","lat":43.291671,"lon":5.371575,"is_reserved":false,"is_disabled":false,"rental_uris":{"android":"levelo://app?vid=32bb5ba6-4d62-48fa-ba40-ff7fd6b831cc","ios":"levelo://app?vid=32bb5ba6-4d62-48fa-ba40-ff7fd6b831cc"},"vehicle_type_id":"4","last_reported":1700759181,"current_range_meters":11600,"station_id":"ce4bha92rcd13ifvqeh0","pricing_plan_id":"free"},{"bike_id":"a439ddf2-4a46-4d4d-ad58-99b0fb807a41","system_id":"levelo_inurba_marseille","lat":43.31332,"lon":5.39689,"is_reserved":false,"is_disabled":false,"rental_uris":{"android":"levelo://app?vid=a439ddf2-4a46-4d4d-ad58-99b0fb807a41","ios":"levelo://app?vid=a439ddf2-4a46-4d4d-ad58-99b0fb807a41"},"vehicle_type_id":"4","last_reported":1700759181,"current_range_meters":8000,"station_id":"ce4bgvp2rcd13ifvqcu0","pricing_plan_id":"free"},{"bike_id":"370beec8-40c3-48fb-b2ec-0f747a2f6da4","system_id":"levelo_inurba_marseille","lat":43.313291,"lon":5.396838,"is_reserved":false,"is_disabled":false,"rental_uris":{"android":"levelo://app?vid=370beec8-40c3-48fb-b2ec-0f747a2f6da4","ios":"levelo://app?vid=370beec8-40c3-48fb-b2ec-0f747a2f6da4"},"vehicle_type_id":"4","last_reported":1700759181,"current_range_meters":14400,"station_id":"ce4bgvp2rcd13ifvqcu0","pricing_plan_id":"free"},{"bike_id":"a3ab05ca-a318-4240-a2b7-119331586899","system_id":"levelo_inurba_marseille","lat":43.31331,"lon":5.39692,"is_reserved":false,"is_disabled":false,"rental_uris":{"android":"levelo://app?vid=a3ab05ca-a318-4240-a2b7-119331586899","ios":"levelo://app?vid=a3ab05ca-a318-4240-a2b7-119331586899"},"vehicle_type_id":"4","last_reported":1700759181,"current_range_meters":16800,"station_id":"ce4bgvp2rcd13ifvqcu0","pricing_plan_id":"free"},{"bike_id":"7b231c78-e0f1-46d4-b9d3-de5f46c83a3f","system_id":"levelo_inurba_marseille","lat":43.309038,"lon":5.396546,"is_reserved":false,"is_disabled":false,"rental_uris":{"android":"levelo://app?vid=7b231c78-e0f1-46d4-b9d3-de5f46c83a3f","ios":"levelo://app?vid=7b231c78-e0f1-46d4-b9d3-de5f46c83a3f"},"vehicle_type_id":"4","last_reported":1700759181,"current_range_meters":25600,"station_id":"ce4bh012rcd13ifvqcv0","pricing_plan_id":"free"},{"bike_id":"bfeda098-ec27-4ff7-ba82-cc314a7b5c10","system_id":"levelo_inurba_marseille","lat":43.3133,"lon":5.396978,"is_reserved":false,"is_disabled":false,"rental_uris":{"android":"levelo://app?vid=bfeda098-ec27-4ff7-ba82-cc314a7b5c10","ios":"levelo://app?vid=bfeda098-ec27-4ff7-ba82-cc314a7b5c10"},"vehicle_type_id":"4","last_reported":1700759181,"current_range_meters":18800,"station_id":"ce4bgvp2rcd13ifvqcu0","pricing_plan_id":"free"},{"bike_id":"72d3541b-d0ba-4970-8e11-62588791666b","system_id":"levelo_inurba_marseille","lat":43.309038,"lon":5.396546,"is_reserved":false,"is_disabled":false,"rental_uris":{"android":"levelo://app?vid=72d3541b-d0ba-4970-8e11-62588791666b","ios":"levelo://app?vid=72d3541b-d0ba-4970-8e11-62588791666b"},"vehicle_type_id":"4","last_reported":1700759181,"current_range_meters":24400,"station_id":"ce4bh012rcd13ifvqcv0","pricing_plan_id":"free"},{"bike_id":"1d10a1b1-d55f-4279-928a-9c6858f32ca9","system_id":"levelo_inurba_marseille","lat":43.33211,"lon":5.38112,"is_reserved":false,"is_disabled":false,"rental_uris":{"android":"levelo://app?vid=1d10a1b1-d55f-4279-928a-9c6858f32ca9","ios":"levelo://app?vid=1d10a1b1-d55f-4279-928a-9c6858f32ca9"},"vehicle_type_id":"4","last_reported":1700759181,"current_range_meters":0,"station_id":"","pricing_plan_id":"free"},{"bike_id":"661631f1-21f7-4fa8-bfae-47d828737c71","system_id":"levelo_inurba_marseille","lat":43.290779,"lon":5.371482,"is_reserved":false,"is_disabled":false,"rental_uris":{"android":"levelo://app?vid=661631f1-21f7-4fa8-bfae-47d828737c71","ios":"levelo://app?vid=661631f1-21f7-4fa8-bfae-47d828737c71"},"vehicle_type_id":"4","last_reported":1700759181,"current_range_meters":8000,"station_id":"ce4bh5p2rcd13ifvqe4g","pricing_plan_id":"free"},{"bike_id":"44175427-5e51-4d88-9b59-7c471ece6ba5","system_id":"levelo_inurba_marseille","lat":43.302008,"lon":5.394694,"is_reserved":false,"is_disabled":false,"rental_uris":{"android":"levelo://app?vid=44175427-5e51-4d88-9b59-7c471ece6ba5","ios":"levelo://app?vid=44175427-5e51-4d88-9b59-7c471ece6ba5"},"vehicle_type_id":"4","last_reported":1700759181,"current_range_meters":12800,"station_id":"ce4bh0p2rcd13ifvqd70","pricing_plan_id":"free"},{"bike_id":"a805d190-1ad9-4359-8ad2-81d53086eb5a","system_id":"levelo_inurba_marseille","lat":43.29419,"lon":5.38626,"is_reserved":false,"is_disabled":false,"rental_uris":{"android":"levelo://app?vid=a805d190-1ad9-4359-8ad2-81d53086eb5a","ios":"levelo://app?vid=a805d190-1ad9-4359-8ad2-81d53086eb5a"},"vehicle_type_id":"4","last_reported":1700759181,"current_range_meters":0,"station_id":"ce4bh2h2rcd13ifvqdh0","pricing_plan_id":"free"},{"bike_id":"8a657e8c-efd3-494f-bd4b-195e95e72943","system_id":"levelo_inurba_marseille","lat":43.29271,"lon":5.38449,"is_reserved":false,"is_disabled":false,"rental_uris":{"android":"levelo://app?vid=8a657e8c-efd3-494f-bd4b-195e95e72943","ios":"levelo://app?vid=8a657e8c-efd3-494f-bd4b-195e95e72943"},"vehicle_type_id":"4","last_reported":1700759181,"current_range_meters":0,"station_id":"ce4bh692rcd13ifvqea0","pricing_plan_id":"free"},{"bike_id":"288fc8ff-74d1-40a1-83dd-c8be9d8bb365","system_id":"levelo_inurba_marseille","lat":43.33044,"lon":5.38918,"is_reserved":false,"is_disabled":false,"rental_uris":{"android":"levelo://app?vid=288fc8ff-74d1-40a1-83dd-c8be9d8bb365","ios":"levelo://app?vid=288fc8ff-74d1-40a1-83dd-c8be9d8bb365"},"vehicle_type_id":"4","last_reported":1700759181,"current_range_meters":400,"station_id":"ce4bhr92rcd13ifvqhrg","pricing_plan_id":"free"},{"bike_id":"f1410966-3e34-4b87-9346-d00b62128624","system_id":"levelo_inurba_marseille","lat":43.33047,"lon":5.38921,"is_reserved":false,"is_disabled":false,"rental_uris":{"android":"levelo://app?vid=f1410966-3e34-4b87-9346-d00b62128624","ios":"levelo://app?vid=f1410966-3e34-4b87-9346-d00b62128624"},"vehicle_type_id":"4","last_reported":1700759181,"current_range_meters":19200,"station_id":"ce4bhr92rcd13ifvqhrg","pricing_plan_id":"free"},{"bike_id":"aee126bc-4dd6-4eae-94c3-f2abe3391cd1","system_id":"levelo_inurba_marseille","lat":43.289743,"lon":5.378304,"is_reserved":false,"is_disabled":false,"rental_uris":{"android":"levelo://app?vid=aee126bc-4dd6-4eae-94c3-f2abe3391cd1","ios":"levelo://app?vid=aee126bc-4dd6-4eae-94c3-f2abe3391cd1"},"vehicle_type_id":"4","last_reported":1700759181,"current_range_meters":16400,"station_id":"ce4bh9p2rcd13ifvqed0","pricing_plan_id":"free"},{"bike_id":"93e1a5f2-69e9-492b-be92-bddc887871bf","system_id":"levelo_inurba_marseille","lat":43.297815,"lon":5.393548,"is_reserved":false,"is_disabled":false,"rental_uris":{"android":"levelo://app?vid=93e1a5f2-69e9-492b-be92-bddc887871bf","ios":"levelo://app?vid=93e1a5f2-69e9-492b-be92-bddc887871bf"},"vehicle_type_id":"4","last_reported":1700759181,"current_range_meters":17600,"station_id":"chh1huq6cuj3fo74tm60","pricing_plan_id":"free"},{"bike_id":"abbb8182-1a78-4d70-b671-161ac834f0fc","system_id":"levelo_inurba_marseille","lat":43.33102,"lon":5.38912,"is_reserved":false,"is_disabled":false,"rental_uris":{"android":"levelo://app?vid=abbb8182-1a78-4d70-b671-161ac834f0fc","ios":"levelo://app?vid=abbb8182-1a78-4d70-b671-161ac834f0fc"},"vehicle_type_id":"4","last_reported":1700759181,"current_range_meters":0,"station_id":"","pricing_plan_id":"free"},{"bike_id":"b4bc6c19-20e6-4b1e-b989-40d4ba171e93","system_id":"levelo_inurba_marseille","lat":43.33062,"lon":5.39051,"is_reserved":false,"is_disabled":false,"rental_uris":{"android":"levelo://app?vid=b4bc6c19-20e6-4b1e-b989-40d4ba171e93","ios":"levelo://app?vid=b4bc6c19-20e6-4b1e-b989-40d4ba171e93"},"vehicle_type_id":"4","last_reported":1700759181,"current_range_meters":5600,"station_id":"","pricing_plan_id":"free"},{"bike_id":"f4404fd2-6094-43a5-a34e-535d1f5dbb34","system_id":"levelo_inurba_marseille","lat":43.290094,"lon":5.381264,"is_reserved":false,"is_disabled":false,"rental_uris":{"android":"levelo://app?vid=f4404fd2-6094-43a5-a34e-535d1f5dbb34","ios":"levelo://app?vid=f4404fd2-6094-43a5-a34e-535d1f5dbb34"},"vehicle_type_id":"4","last_reported":1700759181,"current_range_meters":21200,"station_id":"ce4bh4p2rcd13ifvqe1g","pricing_plan_id":"free"},{"bike_id":"286a3a97-dad7-4337-a2a5-c1348e091087","system_id":"levelo_inurba_marseille","lat":43.290094,"lon":5.381264,"is_reserved":false,"is_disabled":false,"rental_uris":{"android":"levelo://app?vid=286a3a97-dad7-4337-a2a5-c1348e091087","ios":"levelo://app?vid=286a3a97-dad7-4337-a2a5-c1348e091087"},"vehicle_type_id":"4","last_reported":1700759181,"current_range_meters":25600,"station_id":"ce4bh4p2rcd13ifvqe1g","pricing_plan_id":"free"},{"bike_id":"193c33c3-8f7f-4746-8860-25c12dcea63d","system_id":"levelo_inurba_marseille","lat":43.312675,"lon":5.40169,"is_reserved":false,"is_disabled":false,"rental_uris":{"android":"levelo://app?vid=193c33c3-8f7f-4746-8860-25c12dcea63d","ios":"levelo://app?vid=193c33c3-8f7f-4746-8860-25c12dcea63d"},"vehicle_type_id":"4","last_reported":1700759181,"current_range_meters":29600,"station_id":"ce4bh092rcd13ifvqd30","pricing_plan_id":"free"},{"bike_id":"a893e8a4-4ad4-4559-9b44-43a3796f5654","system_id":"levelo_inurba_marseille","lat":43.33758,"lon":5.3748,"is_reserved":false,"is_disabled":false,"rental_uris":{"android":"levelo://app?vid=a893e8a4-4ad4-4559-9b44-43a3796f5654","ios":"levelo://app?vid=a893e8a4-4ad4-4559-9b44-43a3796f5654"},"vehicle_type_id":"4","last_reported":1700759181,"current_range_meters":26400,"station_id":"","pricing_plan_id":"free"},{"bike_id":"f7dae5ce-7920-44a6-8cd0-5979346a5e65","system_id":"levelo_inurba_marseille","lat":43.301117,"lon":5.398795,"is_reserved":false,"is_disabled":false,"rental_uris":{"android":"levelo://app?vid=f7dae5ce-7920-44a6-8cd0-5979346a5e65","ios":"levelo://app?vid=f7dae5ce-7920-44a6-8cd0-5979346a5e65"},"vehicle_type_id":"4","last_reported":1700759181,"current_range_meters":9600,"station_id":"ce4bh0h2rcd13ifvqd40","pricing_plan_id":"free"},{"bike_id":"0a004417-1040-4b49-a601-4c89ed7d8f4b","system_id":"levelo_inurba_marseille","lat":43.298681,"lon":5.397225,"is_reserved":false,"is_disabled":false,"rental_uris":{"android":"levelo://app?vid=0a004417-1040-4b49-a601-4c89ed7d8f4b","ios":"levelo://app?vid=0a004417-1040-4b49-a601-4c89ed7d8f4b"},"vehicle_type_id":"4","last_reported":1700759181,"current_range_meters":4800,"station_id":"ce4bh0h2rcd13ifvqd50","pricing_plan_id":"free"},{"bike_id":"749d5c89-7951-4fcd-8979-276e47e2bde4","system_id":"levelo_inurba_marseille","lat":43.298681,"lon":5.397225,"is_reserved":false,"is_disabled":false,"rental_uris":{"android":"levelo://app?vid=749d5c89-7951-4fcd-8979-276e47e2bde4","ios":"levelo://app?vid=749d5c89-7951-4fcd-8979-276e47e2bde4"},"vehicle_type_id":"4","last_reported":1700759181,"current_range_meters":31600,"station_id":"ce4bh0h2rcd13ifvqd50","pricing_plan_id":"free"},{"bike_id":"2ba1bb6e-9896-47aa-a8d7-0604ac753bb1","system_id":"levelo_inurba_marseille","lat":43.286961,"lon":5.373785,"is_reserved":false,"is_disabled":false,"rental_uris":{"android":"levelo://app?vid=2ba1bb6e-9896-47aa-a8d7-0604ac753bb1","ios":"levelo://app?vid=2ba1bb6e-9896-47aa-a8d7-0604ac753bb1"},"vehicle_type_id":"4","last_reported":1700759181,"current_range_meters":3200,"station_id":"ce4bh3p2rcd13ifvqdq0","pricing_plan_id":"free"},{"bike_id":"98f45f03-7663-4ee3-8023-38893cc7aabe","system_id":"levelo_inurba_marseille","lat":43.286593,"lon":5.363346,"is_reserved":false,"is_disabled":false,"rental_uris":{"android":"levelo://app?vid=98f45f03-7663-4ee3-8023-38893cc7aabe","ios":"levelo://app?vid=98f45f03-7663-4ee3-8023-38893cc7aabe"},"vehicle_type_id":"4","last_reported":1700759181,"current_range_meters":18800,"station_id":"ce4bhah2rcd13ifvqej0","pricing_plan_id":"free"},{"bike_id":"029c50e0-c6f5-4568-aa4e-d386a0bec503","system_id":"levelo_inurba_marseille","lat":43.289496,"lon":5.383931,"is_reserved":false,"is_disabled":false,"rental_uris":{"android":"levelo://app?vid=029c50e0-c6f5-4568-aa4e-d386a0bec503","ios":"levelo://app?vid=029c50e0-c6f5-4568-aa4e-d386a0bec503"},"vehicle_type_id":"4","last_reported":1700759181,"current_range_meters":3200,"station_id":"ce4bh612rcd13ifvqe6g","pricing_plan_id":"free"},{"bike_id":"afacb242-8d12-4225-84aa-1433e3885f76","system_id":"levelo_inurba_marseille","lat":43.28756,"lon":5.35225,"is_reserved":false,"is_disabled":false,"rental_uris":{"android":"levelo://app?vid=afacb242-8d12-4225-84aa-1433e3885f76","ios":"levelo://app?vid=afacb242-8d12-4225-84aa-1433e3885f76"},"vehicle_type_id":"4","last_reported":1700759181,"current_range_meters":23200,"station_id":"","pricing_plan_id":"free"},{"bike_id":"0c72b6bc-9f16-4897-841a-5835901e7e16","system_id":"levelo_inurba_marseille","lat":43.284538,"lon":5.358657,"is_reserved":false,"is_disabled":false,"rental_uris":{"android":"levelo://app?vid=0c72b6bc-9f16-4897-841a-5835901e7e16","ios":"levelo://app?vid=0c72b6bc-9f16-4897-841a-5835901e7e16"},"vehicle_type_id":"4","last_reported":1700759181,"current_range_meters":30000,"station_id":"ce4bhah2rcd13ifvqei0","pricing_plan_id":"free"},{"bike_id":"97a7b791-c306-480d-867e-557fe88dad46","system_id":"levelo_inurba_marseille","lat":43.284534,"lon":5.358662,"is_reserved":false,"is_disabled":false,"rental_uris":{"android":"levelo://app?vid=97a7b791-c306-480d-867e-557fe88dad46","ios":"levelo://app?vid=97a7b791-c306-480d-867e-557fe88dad46"},"vehicle_type_id":"4","last_reported":1700759181,"current_range_meters":18800,"station_id":"ce4bhah2rcd13ifvqei0","pricing_plan_id":"free"},{"bike_id":"d9935365-1567-4eff-80d1-ae04ed9c8687","system_id":"levelo_inurba_marseille","lat":43.284237,"lon":5.375107,"is_reserved":false,"is_disabled":false,"rental_uris":{"android":"levelo://app?vid=d9935365-1567-4eff-80d1-ae04ed9c8687","ios":"levelo://app?vid=d9935365-1567-4eff-80d1-ae04ed9c8687"},"vehicle_type_id":"4","last_reported":1700759181,"current_range_meters":11200,"station_id":"","pricing_plan_id":"free"},{"bike_id":"a87abbbe-4c53-4fd5-b9a3-7f13ce7ce1f7","system_id":"levelo_inurba_marseille","lat":43.295713,"lon":5.399639,"is_reserved":false,"is_disabled":false,"rental_uris":{"android":"levelo://app?vid=a87abbbe-4c53-4fd5-b9a3-7f13ce7ce1f7","ios":"levelo://app?vid=a87abbbe-4c53-4fd5-b9a3-7f13ce7ce1f7"},"vehicle_type_id":"4","last_reported":1700759181,"current_range_meters":28000,"station_id":"ce4bh312rcd13ifvqdj0","pricing_plan_id":"free"},{"bike_id":"adbd441f-44c4-4168-877a-9278b4bd7ceb","system_id":"levelo_inurba_marseille","lat":43.33155,"lon":5.3978,"is_reserved":false,"is_disabled":false,"rental_uris":{"android":"levelo://app?vid=adbd441f-44c4-4168-877a-9278b4bd7ceb","ios":"levelo://app?vid=adbd441f-44c4-4168-877a-9278b4bd7ceb"},"vehicle_type_id":"4","last_reported":1700759181,"current_range_meters":16800,"station_id":"","pricing_plan_id":"free"},{"bike_id":"b69b19f9-d916-401c-86d6-53f4d1d24c9a","system_id":"levelo_inurba_marseille","lat":43.28608,"lon":5.38457,"is_reserved":false,"is_disabled":false,"rental_uris":{"android":"levelo://app?vid=b69b19f9-d916-401c-86d6-53f4d1d24c9a","ios":"levelo://app?vid=b69b19f9-d916-401c-86d6-53f4d1d24c9a"},"vehicle_type_id":"4","last_reported":1700759181,"current_range_meters":15200,"station_id":"","pricing_plan_id":"free"},{"bike_id":"e581d0ed-b693-4a81-b3ec-fc20e83047a7","system_id":"levelo_inurba_marseille","lat":43.285051,"lon":5.384234,"is_reserved":false,"is_disabled":false,"rental_uris":{"android":"levelo://app?vid=e581d0ed-b693-4a81-b3ec-fc20e83047a7","ios":"levelo://app?vid=e581d0ed-b693-4a81-b3ec-fc20e83047a7"},"vehicle_type_id":"4","last_reported":1700759181,"current_range_meters":0,"station_id":"ce4bh512rcd13ifvqe3g","pricing_plan_id":"free"},{"bike_id":"d9785b0c-0523-4b8b-9f28-f29210b1a5eb","system_id":"levelo_inurba_marseille","lat":43.323464,"lon":5.406297,"is_reserved":false,"is_disabled":false,"rental_uris":{"android":"levelo://app?vid=d9785b0c-0523-4b8b-9f28-f29210b1a5eb","ios":"levelo://app?vid=d9785b0c-0523-4b8b-9f28-f29210b1a5eb"},"vehicle_type_id":"4","last_reported":1700759181,"current_range_meters":9200,"station_id":"ce4bhq92rcd13ifvqhjg","pricing_plan_id":"free"},{"bike_id":"a43af0c9-afdb-40da-84e8-262cd163fa8c","system_id":"levelo_inurba_marseille","lat":43.284793,"lon":5.384113,"is_reserved":false,"is_disabled":false,"rental_uris":{"android":"levelo://app?vid=a43af0c9-afdb-40da-84e8-262cd163fa8c","ios":"levelo://app?vid=a43af0c9-afdb-40da-84e8-262cd163fa8c"},"vehicle_type_id":"4","last_reported":1700759181,"current_range_meters":0,"station_id":"ce4bh512rcd13ifvqe3g","pricing_plan_id":"free"},{"bike_id":"9ed0518b-16d9-4d34-8bfe-ab8f0872241e","system_id":"levelo_inurba_marseille","lat":43.283494,"lon":5.380945,"is_reserved":false,"is_disabled":false,"rental_uris":{"android":"levelo://app?vid=9ed0518b-16d9-4d34-8bfe-ab8f0872241e","ios":"levelo://app?vid=9ed0518b-16d9-4d34-8bfe-ab8f0872241e"},"vehicle_type_id":"4","last_reported":1700759181,"current_range_meters":20000,"station_id":"ce4bh412rcd13ifvqdr0","pricing_plan_id":"free"},{"bike_id":"e2284003-4e46-4e0a-93e7-73d05c3666d9","system_id":"levelo_inurba_marseille","lat":43.33479,"lon":5.39788,"is_reserved":false,"is_disabled":false,"rental_uris":{"android":"levelo://app?vid=e2284003-4e46-4e0a-93e7-73d05c3666d9","ios":"levelo://app?vid=e2284003-4e46-4e0a-93e7-73d05c3666d9"},"vehicle_type_id":"4","last_reported":1700759181,"current_range_meters":26400,"station_id":"","pricing_plan_id":"free"},{"bike_id":"9f406700-c6fa-44c2-b209-2e781c68762e","system_id":"levelo_inurba_marseille","lat":43.28627,"lon":5.39143,"is_reserved":false,"is_disabled":false,"rental_uris":{"android":"levelo://app?vid=9f406700-c6fa-44c2-b209-2e781c68762e","ios":"levelo://app?vid=9f406700-c6fa-44c2-b209-2e781c68762e"},"vehicle_type_id":"4","last_reported":1700759181,"current_range_meters":7200,"station_id":"","pricing_plan_id":"free"},{"bike_id":"5170371a-1275-44d1-a82c-6596fe84f026","system_id":"levelo_inurba_marseille","lat":43.282754,"lon":5.350519,"is_reserved":false,"is_disabled":false,"rental_uris":{"android":"levelo://app?vid=5170371a-1275-44d1-a82c-6596fe84f026","ios":"levelo://app?vid=5170371a-1275-44d1-a82c-6596fe84f026"},"vehicle_type_id":"4","last_reported":1700759181,"current_range_meters":13200,"station_id":"ce4bhbp2rcd13ifvqerg","pricing_plan_id":"free"},{"bike_id":"df64af13-910f-43ba-b0d5-7dd466c66f06","system_id":"levelo_inurba_marseille","lat":43.282744,"lon":5.350533,"is_reserved":false,"is_disabled":false,"rental_uris":{"android":"levelo://app?vid=df64af13-910f-43ba-b0d5-7dd466c66f06","ios":"levelo://app?vid=df64af13-910f-43ba-b0d5-7dd466c66f06"},"vehicle_type_id":"4","last_reported":1700759181,"current_range_meters":18000,"station_id":"ce4bhbp2rcd13ifvqerg","pricing_plan_id":"free"},{"bike_id":"f50c15dc-63c9-4643-ba83-b41990c3c9c5","system_id":"levelo_inurba_marseille","lat":43.280382,"lon":5.369291,"is_reserved":false,"is_disabled":false,"rental_uris":{"android":"levelo://app?vid=f50c15dc-63c9-4643-ba83-b41990c3c9c5","ios":"levelo://app?vid=f50c15dc-63c9-4643-ba83-b41990c3c9c5"},"vehicle_type_id":"4","last_reported":1700759181,"current_range_meters":16400,"station_id":"ce4bha12rcd13ifvqef0","pricing_plan_id":"free"},{"bike_id":"120cf939-d266-42c6-8775-2faf5edf0692","system_id":"levelo_inurba_marseille","lat":43.28039,"lon":5.369297,"is_reserved":false,"is_disabled":false,"rental_uris":{"android":"levelo://app?vid=120cf939-d266-42c6-8775-2faf5edf0692","ios":"levelo://app?vid=120cf939-d266-42c6-8775-2faf5edf0692"},"vehicle_type_id":"4","last_reported":1700759181,"current_range_meters":26800,"station_id":"ce4bha12rcd13ifvqef0","pricing_plan_id":"free"},{"bike_id":"372eb93b-80ec-49ae-a74c-b0f24b6b592b","system_id":"levelo_inurba_marseille","lat":43.28035,"lon":5.3694,"is_reserved":false,"is_disabled":false,"rental_uris":{"android":"levelo://app?vid=372eb93b-80ec-49ae-a74c-b0f24b6b592b","ios":"levelo://app?vid=372eb93b-80ec-49ae-a74c-b0f24b6b592b"},"vehicle_type_id":"4","last_reported":1700759181,"current_range_meters":21600,"station_id":"ce4bha12rcd13ifvqef0","pricing_plan_id":"free"},{"bike_id":"10b61baf-f8f8-42d5-a665-1bb875f2864d","system_id":"levelo_inurba_marseille","lat":43.296263,"lon":5.40601,"is_reserved":false,"is_disabled":false,"rental_uris":{"android":"levelo://app?vid=10b61baf-f8f8-42d5-a665-1bb875f2864d","ios":"levelo://app?vid=10b61baf-f8f8-42d5-a665-1bb875f2864d"},"vehicle_type_id":"4","last_reported":1700759181,"current_range_meters":18800,"station_id":"ce4bh0h2rcd13ifvqd60","pricing_plan_id":"free"},{"bike_id":"594db242-24fc-46c7-a0bf-d3e211bf3ff5","system_id":"levelo_inurba_marseille","lat":43.281044,"lon":5.378308,"is_reserved":false,"is_disabled":false,"rental_uris":{"android":"levelo://app?vid=594db242-24fc-46c7-a0bf-d3e211bf3ff5","ios":"levelo://app?vid=594db242-24fc-46c7-a0bf-d3e211bf3ff5"},"vehicle_type_id":"4","last_reported":1700759181,"current_range_meters":1200,"station_id":"ce4bha12rcd13ifvqee0","pricing_plan_id":"free"},{"bike_id":"05351eda-6378-480c-a7fa-da3ff7655ec6","system_id":"levelo_inurba_marseille","lat":43.284462,"lon":5.392121,"is_reserved":false,"is_disabled":false,"rental_uris":{"android":"levelo://app?vid=05351eda-6378-480c-a7fa-da3ff7655ec6","ios":"levelo://app?vid=05351eda-6378-480c-a7fa-da3ff7655ec6"},"vehicle_type_id":"4","last_reported":1700759181,"current_range_meters":9600,"station_id":"ce4bhoh2rcd13ifvqh5g","pricing_plan_id":"free"},{"bike_id":"71dcd38d-c159-49f6-82cf-fa3efa1aa7c2","system_id":"levelo_inurba_marseille","lat":43.285742,"lon":5.395004,"is_reserved":false,"is_disabled":false,"rental_uris":{"android":"levelo://app?vid=71dcd38d-c159-49f6-82cf-fa3efa1aa7c2","ios":"levelo://app?vid=71dcd38d-c159-49f6-82cf-fa3efa1aa7c2"},"vehicle_type_id":"4","last_reported":1700759181,"current_range_meters":29200,"station_id":"ce4bh292rcd13ifvqdg0","pricing_plan_id":"free"},{"bike_id":"88a624b1-b633-4b62-b141-f367a382c638","system_id":"levelo_inurba_marseille","lat":43.30421,"lon":5.41273,"is_reserved":false,"is_disabled":false,"rental_uris":{"android":"levelo://app?vid=88a624b1-b633-4b62-b141-f367a382c638","ios":"levelo://app?vid=88a624b1-b633-4b62-b141-f367a382c638"},"vehicle_type_id":"4","last_reported":1700759181,"current_range_meters":15600,"station_id":"ce4bhop2rcd13ifvqh8g","pricing_plan_id":"free"},{"bike_id":"8e360a99-579d-498b-8373-2b154126c995","system_id":"levelo_inurba_marseille","lat":43.304188,"lon":5.412904,"is_reserved":false,"is_disabled":false,"rental_uris":{"android":"levelo://app?vid=8e360a99-579d-498b-8373-2b154126c995","ios":"levelo://app?vid=8e360a99-579d-498b-8373-2b154126c995"},"vehicle_type_id":"4","last_reported":1700759181,"current_range_meters":30400,"station_id":"ce4bhop2rcd13ifvqh8g","pricing_plan_id":"free"},{"bike_id":"6ef4d231-d4e9-4026-8af2-24c6ef37ad14","system_id":"levelo_inurba_marseille","lat":43.30408,"lon":5.41287,"is_reserved":false,"is_disabled":false,"rental_uris":{"android":"levelo://app?vid=6ef4d231-d4e9-4026-8af2-24c6ef37ad14","ios":"levelo://app?vid=6ef4d231-d4e9-4026-8af2-24c6ef37ad14"},"vehicle_type_id":"4","last_reported":1700759181,"current_range_meters":18000,"station_id":"ce4bhop2rcd13ifvqh8g","pricing_plan_id":"free"},{"bike_id":"80caf955-321b-4584-bd4c-4927560d2ea9","system_id":"levelo_inurba_marseille","lat":43.279087,"lon":5.380114,"is_reserved":false,"is_disabled":false,"rental_uris":{"android":"levelo://app?vid=80caf955-321b-4584-bd4c-4927560d2ea9","ios":"levelo://app?vid=80caf955-321b-4584-bd4c-4927560d2ea9"},"vehicle_type_id":"4","last_reported":1700759181,"current_range_meters":13200,"station_id":"ce4bhf92rcd13ifvqf50","pricing_plan_id":"free"},{"bike_id":"6e2c2465-4e40-4aae-912b-ca1fbcdf1978","system_id":"levelo_inurba_marseille","lat":43.327013,"lon":5.412397,"is_reserved":false,"is_disabled":false,"rental_uris":{"android":"levelo://app?vid=6e2c2465-4e40-4aae-912b-ca1fbcdf1978","ios":"levelo://app?vid=6e2c2465-4e40-4aae-912b-ca1fbcdf1978"},"vehicle_type_id":"4","last_reported":1700759181,"current_range_meters":0,"station_id":"","pricing_plan_id":"free"},{"bike_id":"a8e2b52b-9ba9-4b70-bcb4-1e1ad46ab6fe","system_id":"levelo_inurba_marseille","lat":43.29939,"lon":5.41321,"is_reserved":false,"is_disabled":false,"rental_uris":{"android":"levelo://app?vid=a8e2b52b-9ba9-4b70-bcb4-1e1ad46ab6fe","ios":"levelo://app?vid=a8e2b52b-9ba9-4b70-bcb4-1e1ad46ab6fe"},"vehicle_type_id":"4","last_reported":1700759181,"current_range_meters":30800,"station_id":"ce4bhp12rcd13ifvqh9g","pricing_plan_id":"free"},{"bike_id":"7011775b-c0e4-46dc-8231-7485425aba5f","system_id":"levelo_inurba_marseille","lat":43.29931,"lon":5.4133,"is_reserved":false,"is_disabled":false,"rental_uris":{"android":"levelo://app?vid=7011775b-c0e4-46dc-8231-7485425aba5f","ios":"levelo://app?vid=7011775b-c0e4-46dc-8231-7485425aba5f"},"vehicle_type_id":"4","last_reported":1700759181,"current_range_meters":26800,"station_id":"ce4bhp12rcd13ifvqh9g","pricing_plan_id":"free"},{"bike_id":"cf7c6503-d761-4e4a-b826-f55f74848caf","system_id":"levelo_inurba_marseille","lat":43.34882,"lon":5.37507,"is_reserved":false,"is_disabled":false,"rental_uris":{"android":"levelo://app?vid=cf7c6503-d761-4e4a-b826-f55f74848caf","ios":"levelo://app?vid=cf7c6503-d761-4e4a-b826-f55f74848caf"},"vehicle_type_id":"4","last_reported":1700759181,"current_range_meters":800,"station_id":"","pricing_plan_id":"free"},{"bike_id":"5abfb5a0-a55f-4e3e-a2b5-313aebc2ac67","system_id":"levelo_inurba_marseille","lat":43.292571,"lon":5.409107,"is_reserved":false,"is_disabled":false,"rental_uris":{"android":"levelo://app?vid=5abfb5a0-a55f-4e3e-a2b5-313aebc2ac67","ios":"levelo://app?vid=5abfb5a0-a55f-4e3e-a2b5-313aebc2ac67"},"vehicle_type_id":"4","last_reported":1700759181,"current_range_meters":13200,"station_id":"ce4bh192rcd13ifvqdc0","pricing_plan_id":"free"},{"bike_id":"976d134c-8b51-45f7-a4de-5ecdfbb5a98a","system_id":"levelo_inurba_marseille","lat":43.292571,"lon":5.409107,"is_reserved":false,"is_disabled":false,"rental_uris":{"android":"levelo://app?vid=976d134c-8b51-45f7-a4de-5ecdfbb5a98a","ios":"levelo://app?vid=976d134c-8b51-45f7-a4de-5ecdfbb5a98a"},"vehicle_type_id":"4","last_reported":1700759181,"current_range_meters":6400,"station_id":"ce4bh192rcd13ifvqdc0","pricing_plan_id":"free"},{"bike_id":"5ff9f7bf-ccf5-435c-90b9-e5c47049de57","system_id":"levelo_inurba_marseille","lat":43.2926,"lon":5.40913,"is_reserved":false,"is_disabled":false,"rental_uris":{"android":"levelo://app?vid=5ff9f7bf-ccf5-435c-90b9-e5c47049de57","ios":"levelo://app?vid=5ff9f7bf-ccf5-435c-90b9-e5c47049de57"},"vehicle_type_id":"4","last_reported":1700759181,"current_range_meters":16400,"station_id":"ce4bh192rcd13ifvqdc0","pricing_plan_id":"free"},{"bike_id":"cc0a7134-9611-436f-a747-69ba5aeaa6ab","system_id":"levelo_inurba_marseille","lat":43.292571,"lon":5.409107,"is_reserved":false,"is_disabled":false,"rental_uris":{"android":"levelo://app?vid=cc0a7134-9611-436f-a747-69ba5aeaa6ab","ios":"levelo://app?vid=cc0a7134-9611-436f-a747-69ba5aeaa6ab"},"vehicle_type_id":"4","last_reported":1700759181,"current_range_meters":16000,"station_id":"ce4bh192rcd13ifvqdc0","pricing_plan_id":"free"},{"bike_id":"292df432-9394-4e14-ac2d-bdfb1b986edc","system_id":"levelo_inurba_marseille","lat":43.303837,"lon":5.418724,"is_reserved":false,"is_disabled":false,"rental_uris":{"android":"levelo://app?vid=292df432-9394-4e14-ac2d-bdfb1b986edc","ios":"levelo://app?vid=292df432-9394-4e14-ac2d-bdfb1b986edc"},"vehicle_type_id":"4","last_reported":1700759181,"current_range_meters":14800,"station_id":"ce4bhop2rcd13ifvqh7g","pricing_plan_id":"free"},{"bike_id":"5fde1b99-b9af-467e-9ed8-a90209f098ff","system_id":"levelo_inurba_marseille","lat":43.303837,"lon":5.418724,"is_reserved":false,"is_disabled":false,"rental_uris":{"android":"levelo://app?vid=5fde1b99-b9af-467e-9ed8-a90209f098ff","ios":"levelo://app?vid=5fde1b99-b9af-467e-9ed8-a90209f098ff"},"vehicle_type_id":"4","last_reported":1700759181,"current_range_meters":25200,"station_id":"ce4bhop2rcd13ifvqh7g","pricing_plan_id":"free"},{"bike_id":"5e95cc5e-d9ff-4099-b6e5-3df4bbd0c3e1","system_id":"levelo_inurba_marseille","lat":43.303837,"lon":5.418724,"is_reserved":false,"is_disabled":false,"rental_uris":{"android":"levelo://app?vid=5e95cc5e-d9ff-4099-b6e5-3df4bbd0c3e1","ios":"levelo://app?vid=5e95cc5e-d9ff-4099-b6e5-3df4bbd0c3e1"},"vehicle_type_id":"4","last_reported":1700759181,"current_range_meters":800,"station_id":"ce4bhop2rcd13ifvqh7g","pricing_plan_id":"free"},{"bike_id":"d4d650cf-b9a0-41c8-b9f9-507ac3d8c6e5","system_id":"levelo_inurba_marseille","lat":43.278401,"lon":5.392152,"is_reserved":false,"is_disabled":false,"rental_uris":{"android":"levelo://app?vid=d4d650cf-b9a0-41c8-b9f9-507ac3d8c6e5","ios":"levelo://app?vid=d4d650cf-b9a0-41c8-b9f9-507ac3d8c6e5"},"vehicle_type_id":"4","last_reported":1700759181,"current_range_meters":10000,"station_id":"ce4bhjp2rcd13ifvqga0","pricing_plan_id":"free"},{"bike_id":"8f0208b2-0a46-4533-b376-c620dbbf4a25","system_id":"levelo_inurba_marseille","lat":43.278399,"lon":5.392139,"is_reserved":false,"is_disabled":false,"rental_uris":{"android":"levelo://app?vid=8f0208b2-0a46-4533-b376-c620dbbf4a25","ios":"levelo://app?vid=8f0208b2-0a46-4533-b376-c620dbbf4a25"},"vehicle_type_id":"4","last_reported":1700759181,"current_range_meters":30800,"station_id":"ce4bhjp2rcd13ifvqga0","pricing_plan_id":"free"},{"bike_id":"946ca798-21d7-4b91-b807-8efffd1dd770","system_id":"levelo_inurba_marseille","lat":43.278401,"lon":5.392152,"is_reserved":false,"is_disabled":false,"rental_uris":{"android":"levelo://app?vid=946ca798-21d7-4b91-b807-8efffd1dd770","ios":"levelo://app?vid=946ca798-21d7-4b91-b807-8efffd1dd770"},"vehicle_type_id":"4","last_reported":1700759181,"current_range_meters":24400,"station_id":"ce4bhjp2rcd13ifvqga0","pricing_plan_id":"free"},{"bike_id":"c12d82e6-eb8a-4fd9-b491-06ee3ca8a926","system_id":"levelo_inurba_marseille","lat":43.33612,"lon":5.410321,"is_reserved":false,"is_disabled":false,"rental_uris":{"android":"levelo://app?vid=c12d82e6-eb8a-4fd9-b491-06ee3ca8a926","ios":"levelo://app?vid=c12d82e6-eb8a-4fd9-b491-06ee3ca8a926"},"vehicle_type_id":"4","last_reported":1700759181,"current_range_meters":800,"station_id":"ce4bhqh2rcd13ifvqhmg","pricing_plan_id":"free"},{"bike_id":"0030aa4b-f1f4-40d6-b79a-0ef59785cafd","system_id":"levelo_inurba_marseille","lat":43.273609,"lon":5.362708,"is_reserved":false,"is_disabled":false,"rental_uris":{"android":"levelo://app?vid=0030aa4b-f1f4-40d6-b79a-0ef59785cafd","ios":"levelo://app?vid=0030aa4b-f1f4-40d6-b79a-0ef59785cafd"},"vehicle_type_id":"4","last_reported":1700759181,"current_range_meters":28400,"station_id":"ce4bhbh2rcd13ifvqeo0","pricing_plan_id":"free"},{"bike_id":"6e355201-14d4-4c25-b0d9-4503aceb4d8f","system_id":"levelo_inurba_marseille","lat":43.276771,"lon":5.388799,"is_reserved":false,"is_disabled":false,"rental_uris":{"android":"levelo://app?vid=6e355201-14d4-4c25-b0d9-4503aceb4d8f","ios":"levelo://app?vid=6e355201-14d4-4c25-b0d9-4503aceb4d8f"},"vehicle_type_id":"4","last_reported":1700759181,"current_range_meters":17600,"station_id":"ce4bhi12rcd13ifvqfo0","pricing_plan_id":"free"},{"bike_id":"f1900cb9-91aa-4f87-be96-dcbf7b8fdff1","system_id":"levelo_inurba_marseille","lat":43.279952,"lon":5.400085,"is_reserved":false,"is_disabled":false,"rental_uris":{"android":"levelo://app?vid=f1900cb9-91aa-4f87-be96-dcbf7b8fdff1","ios":"levelo://app?vid=f1900cb9-91aa-4f87-be96-dcbf7b8fdff1"},"vehicle_type_id":"4","last_reported":1700759181,"current_range_meters":17200,"station_id":"ce4bho92rcd13ifvqh4g","pricing_plan_id":"free"},{"bike_id":"a07c2d75-3c21-42ab-b08a-c12647aeebf7","system_id":"levelo_inurba_marseille","lat":43.317121,"lon":5.423936,"is_reserved":false,"is_disabled":false,"rental_uris":{"android":"levelo://app?vid=a07c2d75-3c21-42ab-b08a-c12647aeebf7","ios":"levelo://app?vid=a07c2d75-3c21-42ab-b08a-c12647aeebf7"},"vehicle_type_id":"4","last_reported":1700759181,"current_range_meters":15200,"station_id":"ce4bhp92rcd13ifvqhbg","pricing_plan_id":"free"},{"bike_id":"d3121ced-ccda-4621-820e-c3ab256ea4cb","system_id":"levelo_inurba_marseille","lat":43.273125,"lon":5.390731,"is_reserved":false,"is_disabled":false,"rental_uris":{"android":"levelo://app?vid=d3121ced-ccda-4621-820e-c3ab256ea4cb","ios":"levelo://app?vid=d3121ced-ccda-4621-820e-c3ab256ea4cb"},"vehicle_type_id":"4","last_reported":1700759181,"current_range_meters":12800,"station_id":"ce4bhgp2rcd13ifvqfe0","pricing_plan_id":"free"},{"bike_id":"d7910308-9c4d-4a6a-8156-ff59203f679b","system_id":"levelo_inurba_marseille","lat":43.295564,"lon":5.422931,"is_reserved":false,"is_disabled":false,"rental_uris":{"android":"levelo://app?vid=d7910308-9c4d-4a6a-8156-ff59203f679b","ios":"levelo://app?vid=d7910308-9c4d-4a6a-8156-ff59203f679b"},"vehicle_type_id":"4","last_reported":1700759181,"current_range_meters":6400,"station_id":"","pricing_plan_id":"free"},{"bike_id":"d78332c7-909e-4952-9894-c8b446999d9c","system_id":"levelo_inurba_marseille","lat":43.295511,"lon":5.422926,"is_reserved":false,"is_disabled":false,"rental_uris":{"android":"levelo://app?vid=d78332c7-909e-4952-9894-c8b446999d9c","ios":"levelo://app?vid=d78332c7-909e-4952-9894-c8b446999d9c"},"vehicle_type_id":"4","last_reported":1700759181,"current_range_meters":2400,"station_id":"ce4bhph2rcd13ifvqhdg","pricing_plan_id":"free"},{"bike_id":"aac6da5d-e32f-4895-b760-2c82e416f441","system_id":"levelo_inurba_marseille","lat":43.295511,"lon":5.422926,"is_reserved":false,"is_disabled":false,"rental_uris":{"android":"levelo://app?vid=aac6da5d-e32f-4895-b760-2c82e416f441","ios":"levelo://app?vid=aac6da5d-e32f-4895-b760-2c82e416f441"},"vehicle_type_id":"4","last_reported":1700759181,"current_range_meters":10400,"station_id":"ce4bhph2rcd13ifvqhdg","pricing_plan_id":"free"},{"bike_id":"b90e5607-0ae1-48ca-8bb3-2f867df2ac80","system_id":"levelo_inurba_marseille","lat":43.272116,"lon":5.391763,"is_reserved":false,"is_disabled":false,"rental_uris":{"android":"levelo://app?vid=b90e5607-0ae1-48ca-8bb3-2f867df2ac80","ios":"levelo://app?vid=b90e5607-0ae1-48ca-8bb3-2f867df2ac80"},"vehicle_type_id":"4","last_reported":1700759181,"current_range_meters":0,"station_id":"ce4bhhp2rcd13ifvqfm0","pricing_plan_id":"free"},{"bike_id":"48c1fbfb-e6c4-4c56-a75c-55416f8bb4c3","system_id":"levelo_inurba_marseille","lat":43.271918,"lon":5.392623,"is_reserved":false,"is_disabled":false,"rental_uris":{"android":"levelo://app?vid=48c1fbfb-e6c4-4c56-a75c-55416f8bb4c3","ios":"levelo://app?vid=48c1fbfb-e6c4-4c56-a75c-55416f8bb4c3"},"vehicle_type_id":"4","last_reported":1700759181,"current_range_meters":25200,"station_id":"","pricing_plan_id":"free"},{"bike_id":"4882d868-52cf-4f63-ba50-64d1b5eb33ff","system_id":"levelo_inurba_marseille","lat":43.27812,"lon":5.40704,"is_reserved":false,"is_disabled":false,"rental_uris":{"android":"levelo://app?vid=4882d868-52cf-4f63-ba50-64d1b5eb33ff","ios":"levelo://app?vid=4882d868-52cf-4f63-ba50-64d1b5eb33ff"},"vehicle_type_id":"4","last_reported":1700759181,"current_range_meters":0,"station_id":"ce4bhnh2rcd13ifvqgtg","pricing_plan_id":"free"},{"bike_id":"e4c8317d-ca7b-4279-b126-9e88a2246e18","system_id":"levelo_inurba_marseille","lat":43.278128,"lon":5.407195,"is_reserved":false,"is_disabled":false,"rental_uris":{"android":"levelo://app?vid=e4c8317d-ca7b-4279-b126-9e88a2246e18","ios":"levelo://app?vid=e4c8317d-ca7b-4279-b126-9e88a2246e18"},"vehicle_type_id":"4","last_reported":1700759181,"current_range_meters":25200,"station_id":"ce4bhnh2rcd13ifvqgtg","pricing_plan_id":"free"},{"bike_id":"ca3c9218-4f4b-476e-9482-d34af945f61a","system_id":"levelo_inurba_marseille","lat":43.278128,"lon":5.407195,"is_reserved":false,"is_disabled":false,"rental_uris":{"android":"levelo://app?vid=ca3c9218-4f4b-476e-9482-d34af945f61a","ios":"levelo://app?vid=ca3c9218-4f4b-476e-9482-d34af945f61a"},"vehicle_type_id":"4","last_reported":1700759181,"current_range_meters":10000,"station_id":"ce4bhnh2rcd13ifvqgtg","pricing_plan_id":"free"},{"bike_id":"8559ee83-fb25-424e-9c84-143a31bee04a","system_id":"levelo_inurba_marseille","lat":43.269467,"lon":5.386439,"is_reserved":false,"is_disabled":false,"rental_uris":{"android":"levelo://app?vid=8559ee83-fb25-424e-9c84-143a31bee04a","ios":"levelo://app?vid=8559ee83-fb25-424e-9c84-143a31bee04a"},"vehicle_type_id":"4","last_reported":1700759181,"current_range_meters":19200,"station_id":"ce4bhh92rcd13ifvqfh0","pricing_plan_id":"free"},{"bike_id":"69fed140-c330-4d53-9176-d6b979ed0ad0","system_id":"levelo_inurba_marseille","lat":43.269319,"lon":5.389397,"is_reserved":false,"is_disabled":false,"rental_uris":{"android":"levelo://app?vid=69fed140-c330-4d53-9176-d6b979ed0ad0","ios":"levelo://app?vid=69fed140-c330-4d53-9176-d6b979ed0ad0"},"vehicle_type_id":"4","last_reported":1700759181,"current_range_meters":16400,"station_id":"ce4bhhh2rcd13ifvqfl0","pricing_plan_id":"free"},{"bike_id":"43184471-de34-4bb7-a126-950cd147bee6","system_id":"levelo_inurba_marseille","lat":43.269319,"lon":5.389397,"is_reserved":false,"is_disabled":false,"rental_uris":{"android":"levelo://app?vid=43184471-de34-4bb7-a126-950cd147bee6","ios":"levelo://app?vid=43184471-de34-4bb7-a126-950cd147bee6"},"vehicle_type_id":"4","last_reported":1700759181,"current_range_meters":15200,"station_id":"ce4bhhh2rcd13ifvqfl0","pricing_plan_id":"free"},{"bike_id":"9a31796c-56e5-4649-82c7-f77894f07c18","system_id":"levelo_inurba_marseille","lat":43.26684,"lon":5.38271,"is_reserved":false,"is_disabled":false,"rental_uris":{"android":"levelo://app?vid=9a31796c-56e5-4649-82c7-f77894f07c18","ios":"levelo://app?vid=9a31796c-56e5-4649-82c7-f77894f07c18"},"vehicle_type_id":"4","last_reported":1700759181,"current_range_meters":0,"station_id":"","pricing_plan_id":"free"},{"bike_id":"bfe904a1-0797-4d3d-a5ff-de804deab32c","system_id":"levelo_inurba_marseille","lat":43.26681,"lon":5.382694,"is_reserved":false,"is_disabled":false,"rental_uris":{"android":"levelo://app?vid=bfe904a1-0797-4d3d-a5ff-de804deab32c","ios":"levelo://app?vid=bfe904a1-0797-4d3d-a5ff-de804deab32c"},"vehicle_type_id":"4","last_reported":1700759181,"current_range_meters":4000,"station_id":"ce4bhg92rcd13ifvqf90","pricing_plan_id":"free"},{"bike_id":"28e8ce00-6b21-4e06-9930-c7c4408cc650","system_id":"levelo_inurba_marseille","lat":43.326174,"lon":5.430584,"is_reserved":false,"is_disabled":false,"rental_uris":{"android":"levelo://app?vid=28e8ce00-6b21-4e06-9930-c7c4408cc650","ios":"levelo://app?vid=28e8ce00-6b21-4e06-9930-c7c4408cc650"},"vehicle_type_id":"4","last_reported":1700759181,"current_range_meters":2400,"station_id":"","pricing_plan_id":"free"},{"bike_id":"2b5f0b27-ae58-4e9e-bd76-c585f78e8a73","system_id":"levelo_inurba_marseille","lat":43.26386,"lon":5.37454,"is_reserved":false,"is_disabled":false,"rental_uris":{"android":"levelo://app?vid=2b5f0b27-ae58-4e9e-bd76-c585f78e8a73","ios":"levelo://app?vid=2b5f0b27-ae58-4e9e-bd76-c585f78e8a73"},"vehicle_type_id":"4","last_reported":1700759181,"current_range_meters":18000,"station_id":"","pricing_plan_id":"free"},{"bike_id":"d58fbab6-f62c-4619-8708-b997a87ded64","system_id":"levelo_inurba_marseille","lat":43.308051,"lon":5.43527,"is_reserved":false,"is_disabled":false,"rental_uris":{"android":"levelo://app?vid=d58fbab6-f62c-4619-8708-b997a87ded64","ios":"levelo://app?vid=d58fbab6-f62c-4619-8708-b997a87ded64"},"vehicle_type_id":"4","last_reported":1700759181,"current_range_meters":2800,"station_id":"ce4bhph2rcd13ifvqheg","pricing_plan_id":"free"},{"bike_id":"5a72c296-5d91-4ac5-a88b-5369e1512138","system_id":"levelo_inurba_marseille","lat":43.308051,"lon":5.43527,"is_reserved":false,"is_disabled":false,"rental_uris":{"android":"levelo://app?vid=5a72c296-5d91-4ac5-a88b-5369e1512138","ios":"levelo://app?vid=5a72c296-5d91-4ac5-a88b-5369e1512138"},"vehicle_type_id":"4","last_reported":1700759181,"current_range_meters":31200,"station_id":"ce4bhph2rcd13ifvqheg","pricing_plan_id":"free"},{"bike_id":"32df6f34-07fe-453b-a126-2833df6f203b","system_id":"levelo_inurba_marseille","lat":43.28972,"lon":5.42923,"is_reserved":false,"is_disabled":false,"rental_uris":{"android":"levelo://app?vid=32df6f34-07fe-453b-a126-2833df6f203b","ios":"levelo://app?vid=32df6f34-07fe-453b-a126-2833df6f203b"},"vehicle_type_id":"4","last_reported":1700759181,"current_range_meters":10000,"station_id":"","pricing_plan_id":"free"},{"bike_id":"cc460b4b-68ce-45ea-96e6-9329f132118c","system_id":"levelo_inurba_marseille","lat":43.317104,"lon":5.436818,"is_reserved":false,"is_disabled":false,"rental_uris":{"android":"levelo://app?vid=cc460b4b-68ce-45ea-96e6-9329f132118c","ios":"levelo://app?vid=cc460b4b-68ce-45ea-96e6-9329f132118c"},"vehicle_type_id":"4","last_reported":1700759181,"current_range_meters":22400,"station_id":"ce4bhp92rcd13ifvqhcg","pricing_plan_id":"free"},{"bike_id":"e0846328-f7a1-47e8-9cbe-57ca4b941595","system_id":"levelo_inurba_marseille","lat":43.317104,"lon":5.436818,"is_reserved":false,"is_disabled":false,"rental_uris":{"android":"levelo://app?vid=e0846328-f7a1-47e8-9cbe-57ca4b941595","ios":"levelo://app?vid=e0846328-f7a1-47e8-9cbe-57ca4b941595"},"vehicle_type_id":"4","last_reported":1700759181,"current_range_meters":30400,"station_id":"ce4bhp92rcd13ifvqhcg","pricing_plan_id":"free"},{"bike_id":"20650c99-8e22-4500-9d54-d01ffda1269c","system_id":"levelo_inurba_marseille","lat":43.27173,"lon":5.40991,"is_reserved":false,"is_disabled":false,"rental_uris":{"android":"levelo://app?vid=20650c99-8e22-4500-9d54-d01ffda1269c","ios":"levelo://app?vid=20650c99-8e22-4500-9d54-d01ffda1269c"},"vehicle_type_id":"4","last_reported":1700759181,"current_range_meters":0,"station_id":"ce4bhl12rcd13ifvqgf0","pricing_plan_id":"free"},{"bike_id":"b4434363-9523-495b-8c34-dff28aa6ad73","system_id":"levelo_inurba_marseille","lat":43.2681,"lon":5.40273,"is_reserved":false,"is_disabled":false,"rental_uris":{"android":"levelo://app?vid=b4434363-9523-495b-8c34-dff28aa6ad73","ios":"levelo://app?vid=b4434363-9523-495b-8c34-dff28aa6ad73"},"vehicle_type_id":"4","last_reported":1700759181,"current_range_meters":4800,"station_id":"","pricing_plan_id":"free"},{"bike_id":"56a3bc82-2961-4dd5-bd28-76069bfcfbd6","system_id":"levelo_inurba_marseille","lat":43.267959,"lon":5.402685,"is_reserved":false,"is_disabled":false,"rental_uris":{"android":"levelo://app?vid=56a3bc82-2961-4dd5-bd28-76069bfcfbd6","ios":"levelo://app?vid=56a3bc82-2961-4dd5-bd28-76069bfcfbd6"},"vehicle_type_id":"4","last_reported":1700759181,"current_range_meters":8400,"station_id":"ce501612rcd8frsf0b60","pricing_plan_id":"free"},{"bike_id":"cb16d7ee-4d8d-44c4-bc7a-142b1234ab63","system_id":"levelo_inurba_marseille","lat":43.31725,"lon":5.43786,"is_reserved":false,"is_disabled":false,"rental_uris":{"android":"levelo://app?vid=cb16d7ee-4d8d-44c4-bc7a-142b1234ab63","ios":"levelo://app?vid=cb16d7ee-4d8d-44c4-bc7a-142b1234ab63"},"vehicle_type_id":"4","last_reported":1700759181,"current_range_meters":0,"station_id":"","pricing_plan_id":"free"},{"bike_id":"d0bb53f7-f1b8-4609-a668-27efdac67f66","system_id":"levelo_inurba_marseille","lat":43.26301,"lon":5.38842,"is_reserved":false,"is_disabled":false,"rental_uris":{"android":"levelo://app?vid=d0bb53f7-f1b8-4609-a668-27efdac67f66","ios":"levelo://app?vid=d0bb53f7-f1b8-4609-a668-27efdac67f66"},"vehicle_type_id":"4","last_reported":1700759181,"current_range_meters":0,"station_id":"","pricing_plan_id":"free"},{"bike_id":"c8e0aad3-4462-4f8b-93ce-b770998879ce","system_id":"levelo_inurba_marseille","lat":43.29895,"lon":5.43662,"is_reserved":false,"is_disabled":false,"rental_uris":{"android":"levelo://app?vid=c8e0aad3-4462-4f8b-93ce-b770998879ce","ios":"levelo://app?vid=c8e0aad3-4462-4f8b-93ce-b770998879ce"},"vehicle_type_id":"4","last_reported":1700759181,"current_range_meters":31200,"station_id":"ce4bhpp2rcd13ifvqhfg","pricing_plan_id":"free"},{"bike_id":"895de8b6-6f51-45cd-a58a-c7983d56547d","system_id":"levelo_inurba_marseille","lat":43.298768,"lon":5.43643,"is_reserved":false,"is_disabled":false,"rental_uris":{"android":"levelo://app?vid=895de8b6-6f51-45cd-a58a-c7983d56547d","ios":"levelo://app?vid=895de8b6-6f51-45cd-a58a-c7983d56547d"},"vehicle_type_id":"4","last_reported":1700759181,"current_range_meters":29600,"station_id":"ce4bhpp2rcd13ifvqhfg","pricing_plan_id":"free"},{"bike_id":"5d2ae9e5-a287-4d89-b1b5-037642e0380a","system_id":"levelo_inurba_marseille","lat":43.275028,"lon":5.424534,"is_reserved":false,"is_disabled":false,"rental_uris":{"android":"levelo://app?vid=5d2ae9e5-a287-4d89-b1b5-037642e0380a","ios":"levelo://app?vid=5d2ae9e5-a287-4d89-b1b5-037642e0380a"},"vehicle_type_id":"4","last_reported":1700759181,"current_range_meters":8000,"station_id":"ce4bhn92rcd13ifvqgrg","pricing_plan_id":"free"},{"bike_id":"3a1f9022-bd46-49cc-bf47-98ffb6823c2e","system_id":"levelo_inurba_marseille","lat":43.25581,"lon":5.38229,"is_reserved":false,"is_disabled":false,"rental_uris":{"android":"levelo://app?vid=3a1f9022-bd46-49cc-bf47-98ffb6823c2e","ios":"levelo://app?vid=3a1f9022-bd46-49cc-bf47-98ffb6823c2e"},"vehicle_type_id":"4","last_reported":1700759181,"current_range_meters":16400,"station_id":"ce4bhih2rcd13ifvqfs0","pricing_plan_id":"free"},{"bike_id":"d8d5c5f4-e488-4199-ba56-90d87f507edd","system_id":"levelo_inurba_marseille","lat":43.25576,"lon":5.38225,"is_reserved":false,"is_disabled":false,"rental_uris":{"android":"levelo://app?vid=d8d5c5f4-e488-4199-ba56-90d87f507edd","ios":"levelo://app?vid=d8d5c5f4-e488-4199-ba56-90d87f507edd"},"vehicle_type_id":"4","last_reported":1700759181,"current_range_meters":16400,"station_id":"ce4bhih2rcd13ifvqfs0","pricing_plan_id":"free"},{"bike_id":"b58271b7-1ca2-4c49-8f3e-52f83be1885d","system_id":"levelo_inurba_marseille","lat":43.258224,"lon":5.394369,"is_reserved":false,"is_disabled":false,"rental_uris":{"android":"levelo://app?vid=b58271b7-1ca2-4c49-8f3e-52f83be1885d","ios":"levelo://app?vid=b58271b7-1ca2-4c49-8f3e-52f83be1885d"},"vehicle_type_id":"4","last_reported":1700759181,"current_range_meters":26400,"station_id":"ce4bhip2rcd13ifvqft0","pricing_plan_id":"free"},{"bike_id":"5e67d04d-997f-42cb-ba16-07473cc41e4a","system_id":"levelo_inurba_marseille","lat":43.258224,"lon":5.394369,"is_reserved":false,"is_disabled":false,"rental_uris":{"android":"levelo://app?vid=5e67d04d-997f-42cb-ba16-07473cc41e4a","ios":"levelo://app?vid=5e67d04d-997f-42cb-ba16-07473cc41e4a"},"vehicle_type_id":"4","last_reported":1700759181,"current_range_meters":17200,"station_id":"ce4bhip2rcd13ifvqft0","pricing_plan_id":"free"},{"bike_id":"9baca730-b89a-4145-b6c1-a8ee0471a90c","system_id":"levelo_inurba_marseille","lat":43.258224,"lon":5.394369,"is_reserved":false,"is_disabled":false,"rental_uris":{"android":"levelo://app?vid=9baca730-b89a-4145-b6c1-a8ee0471a90c","ios":"levelo://app?vid=9baca730-b89a-4145-b6c1-a8ee0471a90c"},"vehicle_type_id":"4","last_reported":1700759181,"current_range_meters":26400,"station_id":"ce4bhip2rcd13ifvqft0","pricing_plan_id":"free"},{"bike_id":"46b0c393-2152-40a1-9034-f16fc024102a","system_id":"levelo_inurba_marseille","lat":43.254947,"lon":5.376454,"is_reserved":false,"is_disabled":false,"rental_uris":{"android":"levelo://app?vid=46b0c393-2152-40a1-9034-f16fc024102a","ios":"levelo://app?vid=46b0c393-2152-40a1-9034-f16fc024102a"},"vehicle_type_id":"4","last_reported":1700759181,"current_range_meters":12400,"station_id":"ce4bhh12rcd13ifvqff0","pricing_plan_id":"free"},{"bike_id":"d56fa382-9414-4aab-89bb-ee94c6e7d537","system_id":"levelo_inurba_marseille","lat":43.259009,"lon":5.40929,"is_reserved":false,"is_disabled":false,"rental_uris":{"android":"levelo://app?vid=d56fa382-9414-4aab-89bb-ee94c6e7d537","ios":"levelo://app?vid=d56fa382-9414-4aab-89bb-ee94c6e7d537"},"vehicle_type_id":"4","last_reported":1700759181,"current_range_meters":3600,"station_id":"ce4bhm92rcd13ifvqglg","pricing_plan_id":"free"},{"bike_id":"1c2dab89-d93f-4fe4-a4f9-e2aed4149704","system_id":"levelo_inurba_marseille","lat":43.25289,"lon":5.39457,"is_reserved":false,"is_disabled":false,"rental_uris":{"android":"levelo://app?vid=1c2dab89-d93f-4fe4-a4f9-e2aed4149704","ios":"levelo://app?vid=1c2dab89-d93f-4fe4-a4f9-e2aed4149704"},"vehicle_type_id":"4","last_reported":1700759181,"current_range_meters":3600,"station_id":"","pricing_plan_id":"free"},{"bike_id":"97584902-988a-421a-8eb4-0aca6317a345","system_id":"levelo_inurba_marseille","lat":43.25723,"lon":5.4111,"is_reserved":false,"is_disabled":false,"rental_uris":{"android":"levelo://app?vid=97584902-988a-421a-8eb4-0aca6317a345","ios":"levelo://app?vid=97584902-988a-421a-8eb4-0aca6317a345"},"vehicle_type_id":"4","last_reported":1700759181,"current_range_meters":4000,"station_id":"ce4bhkp2rcd13ifvqgd0","pricing_plan_id":"free"},{"bike_id":"0259856c-3116-4919-8035-c8f01372ff94","system_id":"levelo_inurba_marseille","lat":43.25723,"lon":5.41111,"is_reserved":false,"is_disabled":false,"rental_uris":{"android":"levelo://app?vid=0259856c-3116-4919-8035-c8f01372ff94","ios":"levelo://app?vid=0259856c-3116-4919-8035-c8f01372ff94"},"vehicle_type_id":"4","last_reported":1700759181,"current_range_meters":6400,"station_id":"ce4bhkp2rcd13ifvqgd0","pricing_plan_id":"free"},{"bike_id":"d804be8d-2871-4d9b-8764-dd84778d1fab","system_id":"levelo_inurba_marseille","lat":43.2479,"lon":5.374457,"is_reserved":false,"is_disabled":false,"rental_uris":{"android":"levelo://app?vid=d804be8d-2871-4d9b-8764-dd84778d1fab","ios":"levelo://app?vid=d804be8d-2871-4d9b-8764-dd84778d1fab"},"vehicle_type_id":"4","last_reported":1700759181,"current_range_meters":20400,"station_id":"ce4bhgh2rcd13ifvqfb0","pricing_plan_id":"free"},{"bike_id":"586fa70e-076e-4787-800b-5ff7fa08fea3","system_id":"levelo_inurba_marseille","lat":43.246467,"lon":5.388984,"is_reserved":false,"is_disabled":false,"rental_uris":{"android":"levelo://app?vid=586fa70e-076e-4787-800b-5ff7fa08fea3","ios":"levelo://app?vid=586fa70e-076e-4787-800b-5ff7fa08fea3"},"vehicle_type_id":"4","last_reported":1700759181,"current_range_meters":4400,"station_id":"ce4bhg12rcd13ifvqf60","pricing_plan_id":"free"},{"bike_id":"dba09c0f-3607-4e6e-83e0-fbd080b4a763","system_id":"levelo_inurba_marseille","lat":43.243884,"lon":5.370737,"is_reserved":false,"is_disabled":false,"rental_uris":{"android":"levelo://app?vid=dba09c0f-3607-4e6e-83e0-fbd080b4a763","ios":"levelo://app?vid=dba09c0f-3607-4e6e-83e0-fbd080b4a763"},"vehicle_type_id":"4","last_reported":1700759181,"current_range_meters":13600,"station_id":"ce4bhhh2rcd13ifvqfk0","pricing_plan_id":"free"},{"bike_id":"ccee350b-bd78-4abc-930d-23bc7eca2deb","system_id":"levelo_inurba_marseille","lat":43.245581,"lon":5.395069,"is_reserved":false,"is_disabled":false,"rental_uris":{"android":"levelo://app?vid=ccee350b-bd78-4abc-930d-23bc7eca2deb","ios":"levelo://app?vid=ccee350b-bd78-4abc-930d-23bc7eca2deb"},"vehicle_type_id":"4","last_reported":1700759181,"current_range_meters":20800,"station_id":"ce4bhlp2rcd13ifvqgjg","pricing_plan_id":"free"},{"bike_id":"74946933-b2b7-48eb-9ae2-890f844b8c5f","system_id":"levelo_inurba_marseille","lat":43.239588,"lon":5.366238,"is_reserved":false,"is_disabled":false,"rental_uris":{"android":"levelo://app?vid=74946933-b2b7-48eb-9ae2-890f844b8c5f","ios":"levelo://app?vid=74946933-b2b7-48eb-9ae2-890f844b8c5f"},"vehicle_type_id":"4","last_reported":1700759181,"current_range_meters":25200,"station_id":"ce4bhi12rcd13ifvqfp0","pricing_plan_id":"free"},{"bike_id":"4ca74aac-a103-4b68-b4a6-27881d713399","system_id":"levelo_inurba_marseille","lat":43.239588,"lon":5.366238,"is_reserved":false,"is_disabled":false,"rental_uris":{"android":"levelo://app?vid=4ca74aac-a103-4b68-b4a6-27881d713399","ios":"levelo://app?vid=4ca74aac-a103-4b68-b4a6-27881d713399"},"vehicle_type_id":"4","last_reported":1700759181,"current_range_meters":12400,"station_id":"ce4bhi12rcd13ifvqfp0","pricing_plan_id":"free"},{"bike_id":"2c54862c-aff6-45d6-97d9-752ba2ae7638","system_id":"levelo_inurba_marseille","lat":43.239588,"lon":5.366238,"is_reserved":false,"is_disabled":false,"rental_uris":{"android":"levelo://app?vid=2c54862c-aff6-45d6-97d9-752ba2ae7638","ios":"levelo://app?vid=2c54862c-aff6-45d6-97d9-752ba2ae7638"},"vehicle_type_id":"4","last_reported":1700759181,"current_range_meters":2400,"station_id":"ce4bhi12rcd13ifvqfp0","pricing_plan_id":"free"},{"bike_id":"92467384-89bb-4cba-b408-b94f63527936","system_id":"levelo_inurba_marseille","lat":43.239588,"lon":5.366238,"is_reserved":false,"is_disabled":false,"rental_uris":{"android":"levelo://app?vid=92467384-89bb-4cba-b408-b94f63527936","ios":"levelo://app?vid=92467384-89bb-4cba-b408-b94f63527936"},"vehicle_type_id":"4","last_reported":1700759181,"current_range_meters":6800,"station_id":"ce4bhi12rcd13ifvqfp0","pricing_plan_id":"free"},{"bike_id":"5af44420-f288-487d-abf9-5f4de05fc437","system_id":"levelo_inurba_marseille","lat":43.239588,"lon":5.366238,"is_reserved":false,"is_disabled":false,"rental_uris":{"android":"levelo://app?vid=5af44420-f288-487d-abf9-5f4de05fc437","ios":"levelo://app?vid=5af44420-f288-487d-abf9-5f4de05fc437"},"vehicle_type_id":"4","last_reported":1700759181,"current_range_meters":27200,"station_id":"ce4bhi12rcd13ifvqfp0","pricing_plan_id":"free"},{"bike_id":"8b9f999b-91a0-4a46-b30d-7e729987032d","system_id":"levelo_inurba_marseille","lat":43.241782,"lon":5.397261,"is_reserved":false,"is_disabled":false,"rental_uris":{"android":"levelo://app?vid=8b9f999b-91a0-4a46-b30d-7e729987032d","ios":"levelo://app?vid=8b9f999b-91a0-4a46-b30d-7e729987032d"},"vehicle_type_id":"4","last_reported":1700759181,"current_range_meters":12800,"station_id":"ce4bhn12rcd13ifvqgpg","pricing_plan_id":"free"},{"bike_id":"c3facbb7-06a8-412a-9a80-52aeb0503e18","system_id":"levelo_inurba_marseille","lat":43.231923,"lon":5.355545,"is_reserved":false,"is_disabled":false,"rental_uris":{"android":"levelo://app?vid=c3facbb7-06a8-412a-9a80-52aeb0503e18","ios":"levelo://app?vid=c3facbb7-06a8-412a-9a80-52aeb0503e18"},"vehicle_type_id":"4","last_reported":1700759181,"current_range_meters":30800,"station_id":"ce4bhu92rcd13ifvqi70","pricing_plan_id":"free"},{"bike_id":"34700193-2b37-4988-81ab-1abafccd9969","system_id":"levelo_inurba_marseille","lat":43.231923,"lon":5.355545,"is_reserved":false,"is_disabled":false,"rental_uris":{"android":"levelo://app?vid=34700193-2b37-4988-81ab-1abafccd9969","ios":"levelo://app?vid=34700193-2b37-4988-81ab-1abafccd9969"},"vehicle_type_id":"4","last_reported":1700759181,"current_range_meters":28800,"station_id":"ce4bhu92rcd13ifvqi70","pricing_plan_id":"free"},{"bike_id":"15098f4a-57e6-48e8-846b-97856909e7a5","system_id":"levelo_inurba_marseille","lat":43.231919,"lon":5.355532,"is_reserved":false,"is_disabled":false,"rental_uris":{"android":"levelo://app?vid=15098f4a-57e6-48e8-846b-97856909e7a5","ios":"levelo://app?vid=15098f4a-57e6-48e8-846b-97856909e7a5"},"vehicle_type_id":"4","last_reported":1700759181,"current_range_meters":20400,"station_id":"ce4bhu92rcd13ifvqi70","pricing_plan_id":"free"},{"bike_id":"aeb874ed-5a67-45f7-94cd-1c1e110219bc","system_id":"levelo_inurba_marseille","lat":43.231919,"lon":5.355532,"is_reserved":false,"is_disabled":false,"rental_uris":{"android":"levelo://app?vid=aeb874ed-5a67-45f7-94cd-1c1e110219bc","ios":"levelo://app?vid=aeb874ed-5a67-45f7-94cd-1c1e110219bc"},"vehicle_type_id":"4","last_reported":1700759181,"current_range_meters":31200,"station_id":"ce4bhu92rcd13ifvqi70","pricing_plan_id":"free"},{"bike_id":"425d3457-d7b1-4bd6-af05-1b26bfd08345","system_id":"levelo_inurba_marseille","lat":43.231923,"lon":5.355545,"is_reserved":false,"is_disabled":false,"rental_uris":{"android":"levelo://app?vid=425d3457-d7b1-4bd6-af05-1b26bfd08345","ios":"levelo://app?vid=425d3457-d7b1-4bd6-af05-1b26bfd08345"},"vehicle_type_id":"4","last_reported":1700759181,"current_range_meters":31200,"station_id":"ce4bhu92rcd13ifvqi70","pricing_plan_id":"free"},{"bike_id":"9c2bf53e-bbf1-4349-bc38-b78a298e6986","system_id":"levelo_inurba_marseille","lat":43.231793,"lon":5.400044,"is_reserved":false,"is_disabled":false,"rental_uris":{"android":"levelo://app?vid=9c2bf53e-bbf1-4349-bc38-b78a298e6986","ios":"levelo://app?vid=9c2bf53e-bbf1-4349-bc38-b78a298e6986"},"vehicle_type_id":"4","last_reported":1700759181,"current_range_meters":12000,"station_id":"ce4bhn12rcd13ifvqgqg","pricing_plan_id":"free"},{"bike_id":"42b71bb2-3e67-452d-bdb5-18d18eec3243","system_id":"levelo_inurba_marseille","lat":43.231794,"lon":5.400052,"is_reserved":false,"is_disabled":false,"rental_uris":{"android":"levelo://app?vid=42b71bb2-3e67-452d-bdb5-18d18eec3243","ios":"levelo://app?vid=42b71bb2-3e67-452d-bdb5-18d18eec3243"},"vehicle_type_id":"4","last_reported":1700759181,"current_range_meters":26800,"station_id":"ce4bhn12rcd13ifvqgqg","pricing_plan_id":"free"},{"bike_id":"ba6d79c0-6a21-43e4-a3e7-c61b28164239","system_id":"levelo_inurba_marseille","lat":43.231793,"lon":5.400044,"is_reserved":false,"is_disabled":false,"rental_uris":{"android":"levelo://app?vid=ba6d79c0-6a21-43e4-a3e7-c61b28164239","ios":"levelo://app?vid=ba6d79c0-6a21-43e4-a3e7-c61b28164239"},"vehicle_type_id":"4","last_reported":1700759181,"current_range_meters":400,"station_id":"ce4bhn12rcd13ifvqgqg","pricing_plan_id":"free"},{"bike_id":"62d0079e-a6d1-4abb-8137-335ef37b5185","system_id":"levelo_inurba_marseille","lat":43.2318,"lon":5.39981,"is_reserved":false,"is_disabled":false,"rental_uris":{"android":"levelo://app?vid=62d0079e-a6d1-4abb-8137-335ef37b5185","ios":"levelo://app?vid=62d0079e-a6d1-4abb-8137-335ef37b5185"},"vehicle_type_id":"4","last_reported":1700759181,"current_range_meters":25200,"station_id":"ce4bhn12rcd13ifvqgqg","pricing_plan_id":"free"},{"bike_id":"0d65e76d-9880-4e2c-a36d-b8425499c90e","system_id":"levelo_inurba_marseille","lat":43.231793,"lon":5.400044,"is_reserved":false,"is_disabled":false,"rental_uris":{"android":"levelo://app?vid=0d65e76d-9880-4e2c-a36d-b8425499c90e","ios":"levelo://app?vid=0d65e76d-9880-4e2c-a36d-b8425499c90e"},"vehicle_type_id":"4","last_reported":1700759181,"current_range_meters":22000,"station_id":"ce4bhn12rcd13ifvqgqg","pricing_plan_id":"free"},{"bike_id":"0ac3e6f0-b012-41ac-a04d-1110541c6da0","system_id":"levelo_inurba_marseille","lat":43.231794,"lon":5.400052,"is_reserved":false,"is_disabled":false,"rental_uris":{"android":"levelo://app?vid=0ac3e6f0-b012-41ac-a04d-1110541c6da0","ios":"levelo://app?vid=0ac3e6f0-b012-41ac-a04d-1110541c6da0"},"vehicle_type_id":"4","last_reported":1700759181,"current_range_meters":29600,"station_id":"ce4bhn12rcd13ifvqgqg","pricing_plan_id":"free"},{"bike_id":"df7e6c4d-a3bc-48a2-a471-a72390a84d34","system_id":"levelo_inurba_marseille","lat":43.231793,"lon":5.400044,"is_reserved":false,"is_disabled":false,"rental_uris":{"android":"levelo://app?vid=df7e6c4d-a3bc-48a2-a471-a72390a84d34","ios":"levelo://app?vid=df7e6c4d-a3bc-48a2-a471-a72390a84d34"},"vehicle_type_id":"4","last_reported":1700759181,"current_range_meters":26400,"station_id":"ce4bhn12rcd13ifvqgqg","pricing_plan_id":"free"}]}}