{"last_updated":1746793182,"ttl":60,"version":"2.2","data":{"bikes":[{"bike_id":"9c5be583-1336-4ba5-aea0-d24f759aba42","system_id":"levelo_inurba_marseille","lat":43.27495,"lon":5.4245,"is_reserved":false,"is_disabled":true,"rental_uris":{"android":"levelo://app?vid=9c5be583-1336-4ba5-aea0-d24f759aba42","ios":"levelo://app?vid=9c5be583-1336-4ba5-aea0-d24f759aba42"},"vehicle_type_id":"4","last_reported":1746793183,"current_range_meters":800,"station_id":"ce4bhn92rcd13ifvqgrg","pricing_plan_id":"cebpf4jnsgd1na2vs0mg"},{"bike_id":"0f37e8d0-aff9-4e1b-b51f-36aa28adfa32","system_id":"levelo_inurba_marseille","lat":43.3088,"lon":5.39632,"is_reserved":false,"is_disabled":true,"rental_uris":{"android":"levelo://app?vid=0f37e8d0-aff9-4e1b-b51f-36aa28adfa32","ios":"levelo://app?vid=0f37e8d0-aff9-4e1b-b51f-36aa28adfa32"},"vehicle_type_id":"4","last_reported":1746793183,"current_range_meters":1200,"station_id":"ce4bh012rcd13ifvqcv0","pricing_plan_id":"cebpf4jnsgd1na2vs0mg"},{"bike_id":"0d173c4c-c1ed-4b96-bb13-2067d524918e","system_id":"levelo_inurba_marseille","lat":43.28993,"lon":5.3783,"is_reserved":false,"is_disabled":true,"rental_uris":{"android":"levelo://app?vid=0d173c4c-c1ed-4b96-bb13-2067d524918e","ios":"levelo://app?vid=0d173c4c-c1ed-4b96-bb13-2067d524918e"},"vehicle_type_id":"4","last_reported":1746793183,"current_range_meters":1200,"station_id":"ce4bh9p2rcd13ifvqed0","pricing_plan_id":"cebpf4jnsgd1na2vs0mg"},{"bike_id":"283c096d-9775-40df-9ef5-3ff56b9146cb","system_id":"levelo_inurba_marseille","lat":43.21695,"lon":5.346023,"is_reserved":false,"is_disabled":true,"rental_uris":{"android":"levelo://app?vid=283c096d-9775-40df-9ef5-3ff56b9146cb","ios":"levelo://app?vid=283c096d-9775-40df-9ef5-3ff56b9146cb"},"vehicle_type_id":"4","last_reported":1746793183,"current_range_meters":2000,"station_id":"ce4bhch2rcd13ifvqeug","pricing_plan_id":"cebpf4jnsgd1na2vs0mg"},{"bike_id":"50672469-dcfd-4293-bfb4-38c2e769fc12","system_id":"levelo_inurba_marseille","lat":43.26785,"lon":5.39412,"is_reserved":false,"is_disabled":true,"rental_uris":{"android":"levelo://app?vid=50672469-dcfd-4293-bfb4-38c2e769fc12","ios":"levelo://app?vid=50672469-dcfd-4293-bfb4-38c2e769fc12"},"vehicle_type_id":"4","last_reported":1746793183,"current_range_meters":2000,"station_id":"ce4bhh12rcd13ifvqfg0","pricing_plan_id":"cebpf4jnsgd1na2vs0mg"},{"bike_id":"faed18a2-4553-4a38-91a8-7f48ec590d33","system_id":"levelo_inurba_marseille","lat":43.25944,"lon":5.40899,"is_reserved":false,"is_disabled":true,"rental_uris":{"android":"levelo://app?vid=faed18a2-4553-4a38-91a8-7f48ec590d33","ios":"levelo://app?vid=faed18a2-4553-4a38-91a8-7f48ec590d33"},"vehicle_type_id":"4","last_reported":1746793183,"current_range_meters":2000,"station_id":"ce4bhm92rcd13ifvqglg","pricing_plan_id":"cebpf4jnsgd1na2vs0mg"},{"bike_id":"c70d4a6d-02ef-492a-bb8e-eec7a4433262","system_id":"levelo_inurba_marseille","lat":43.22501,"lon":5.34789,"is_reserved":false,"is_disabled":false,"rental_uris":{"android":"levelo://app?vid=c70d4a6d-02ef-492a-bb8e-eec7a4433262","ios":"levelo://app?vid=c70d4a6d-02ef-492a-bb8e-eec7a4433262"},"vehicle_type_id":"4","last_reported":1746793183,"current_range_meters":2800,"station_id":"st_cvj5dfep6f1abm77gieg","pricing_plan_id":"cebpf4jnsgd1na2vs0mg"},{"bike_id":"db90afc0-096c-4c13-9b46-963199b64201","system_id":"levelo_inurba_marseille","lat":43.21749,"lon":5.34627,"is_reserved":false,"is_disabled":false,"rental_uris":{"android":"levelo://app?vid=db90afc0-096c-4c13-9b46-963199b64201","ios":"levelo://app?vid=db90afc0-096c-4c13-9b46-963199b64201"},"vehicle_type_id":"4","last_reported":1746793183,"current_range_meters":3600,"station_id":"st_cvj6r9ubvosntc0bgbag","pricing_plan_id":"cebpf4jnsgd1na2vs0mg"},{"bike_id":"8dcf11af-d8f8-4a78-b766-56ee425f08bb","system_id":"levelo_inurba_marseille","lat":43.29448,"lon":5.39171,"is_reserved":false,"is_disabled":false,"rental_uris":{"android":"levelo://app?vid=8dcf11af-d8f8-4a78-b766-56ee425f08bb","ios":"levelo://app?vid=8dcf11af-d8f8-4a78-b766-56ee425f08bb"},"vehicle_type_id":"4","last_reported":1746793183,"current_range_meters":4000,"station_id":"","pricing_plan_id":"cebpf4jnsgd1na2vs0mg"},{"bike_id":"339bff89-ae7c-454a-b7e7-764cee8ed13b","system_id":"levelo_inurba_marseille","lat":43.24078,"lon":5.37754,"is_reserved":false,"is_disabled":false,"rental_uris":{"android":"levelo://app?vid=339bff89-ae7c-454a-b7e7-764cee8ed13b","ios":"levelo://app?vid=339bff89-ae7c-454a-b7e7-764cee8ed13b"},"vehicle_type_id":"4","last_reported":1746793183,"current_range_meters":4000,"station_id":"ce4bhnp2rcd13ifvqgvg","pricing_plan_id":"cebpf4jnsgd1na2vs0mg"},{"bike_id":"e70a6cc7-17eb-4c4e-8e7c-f66b5cfc0fab","system_id":"levelo_inurba_marseille","lat":43.2119,"lon":5.35086,"is_reserved":false,"is_disabled":false,"rental_uris":{"android":"levelo://app?vid=e70a6cc7-17eb-4c4e-8e7c-f66b5cfc0fab","ios":"levelo://app?vid=e70a6cc7-17eb-4c4e-8e7c-f66b5cfc0fab"},"vehicle_type_id":"4","last_reported":1746793183,"current_range_meters":4400,"station_id":"st_cvj6sg6p6f1abm77japg","pricing_plan_id":"cebpf4jnsgd1na2vs0mg"},{"bike_id":"f422e94b-fde0-4ff4-87f6-c497bb51c460","system_id":"levelo_inurba_marseille","lat":43.27118,"lon":5.39253,"is_reserved":false,"is_disabled":false,"rental_uris":{"android":"levelo://app?vid=f422e94b-fde0-4ff4-87f6-c497bb51c460","ios":"levelo://app?vid=f422e94b-fde0-4ff4-87f6-c497bb51c460"},"vehicle_type_id":"4","last_reported":1746793183,"current_range_meters":4800,"station_id":"","pricing_plan_id":"cebpf4jnsgd1na2vs0mg"},{"bike_id":"53c2ff06-311f-4526-b78d-6205806b3167","system_id":"levelo_inurba_marseille","lat":43.25936,"lon":5.40904,"is_reserved":false,"is_disabled":false,"rental_uris":{"android":"levelo://app?vid=53c2ff06-311f-4526-b78d-6205806b3167","ios":"levelo://app?vid=53c2ff06-311f-4526-b78d-6205806b3167"},"vehicle_type_id":"4","last_reported":1746793183,"current_range_meters":4800,"station_id":"ce4bhm92rcd13ifvqglg","pricing_plan_id":"cebpf4jnsgd1na2vs0mg"},{"bike_id":"b15fe93b-1059-4d75-abd3-040e349ce402","system_id":"levelo_inurba_marseille","lat":43.301,"lon":5.37015,"is_reserved":false,"is_disabled":false,"rental_uris":{"android":"levelo://app?vid=b15fe93b-1059-4d75-abd3-040e349ce402","ios":"levelo://app?vid=b15fe93b-1059-4d75-abd3-040e349ce402"},"vehicle_type_id":"4","last_reported":1746793183,"current_range_meters":5600,"station_id":"","pricing_plan_id":"cebpf4jnsgd1na2vs0mg"},{"bike_id":"fcc8b52d-0b0f-403b-80e0-f52f14aced48","system_id":"levelo_inurba_marseille","lat":43.31126,"lon":5.37771,"is_reserved":false,"is_disabled":false,"rental_uris":{"android":"levelo://app?vid=fcc8b52d-0b0f-403b-80e0-f52f14aced48","ios":"levelo://app?vid=fcc8b52d-0b0f-403b-80e0-f52f14aced48"},"vehicle_type_id":"4","last_reported":1746793183,"current_range_meters":5600,"station_id":"ce4bgt92rcd13ifvqcg0","pricing_plan_id":"cebpf4jnsgd1na2vs0mg"},{"bike_id":"e52bfd82-0d4c-4ec9-a63b-aa566ebda16e","system_id":"levelo_inurba_marseille","lat":43.31807,"lon":5.3681,"is_reserved":false,"is_disabled":false,"rental_uris":{"android":"levelo://app?vid=e52bfd82-0d4c-4ec9-a63b-aa566ebda16e","ios":"levelo://app?vid=e52bfd82-0d4c-4ec9-a63b-aa566ebda16e"},"vehicle_type_id":"4","last_reported":1746793183,"current_range_meters":6400,"station_id":"","pricing_plan_id":"cebpf4jnsgd1na2vs0mg"},{"bike_id":"c43ed3ca-340d-43d7-8ad5-7e6b2386ac59","system_id":"levelo_inurba_marseille","lat":43.29897,"lon":5.43666,"is_reserved":false,"is_disabled":false,"rental_uris":{"android":"levelo://app?vid=c43ed3ca-340d-43d7-8ad5-7e6b2386ac59","ios":"levelo://app?vid=c43ed3ca-340d-43d7-8ad5-7e6b2386ac59"},"vehicle_type_id":"4","last_reported":1746793183,"current_range_meters":6400,"station_id":"ce4bhpp2rcd13ifvqhfg","pricing_plan_id":"cebpf4jnsgd1na2vs0mg"},{"bike_id":"1f281ed5-8e05-43ba-b583-cf4e73bd4cb4","system_id":"levelo_inurba_marseille","lat":43.321176,"lon":5.367764,"is_reserved":false,"is_disabled":false,"rental_uris":{"android":"levelo://app?vid=1f281ed5-8e05-43ba-b583-cf4e73bd4cb4","ios":"levelo://app?vid=1f281ed5-8e05-43ba-b583-cf4e73bd4cb4"},"vehicle_type_id":"4","last_reported":1746793183,"current_range_meters":6400,"station_id":"ce4bhrh2rcd13ifvqhug","pricing_plan_id":"cebpf4jnsgd1na2vs0mg"},{"bike_id":"24a02016-a932-4bb5-b40e-e65338592af4","system_id":"levelo_inurba_marseille","lat":43.249929,"lon":5.389329,"is_reserved":false,"is_disabled":false,"rental_uris":{"android":"levelo://app?vid=24a02016-a932-4bb5-b40e-e65338592af4","ios":"levelo://app?vid=24a02016-a932-4bb5-b40e-e65338592af4"},"vehicle_type_id":"4","last_reported":1746793183,"current_range_meters":6800,"station_id":"ce4bhgp2rcd13ifvqfd0","pricing_plan_id":"cebpf4jnsgd1na2vs0mg"},{"bike_id":"35f36335-51c7-48bf-a321-437e1aea77da","system_id":"levelo_inurba_marseille","lat":43.3237,"lon":5.36768,"is_reserved":false,"is_disabled":false,"rental_uris":{"android":"levelo://app?vid=35f36335-51c7-48bf-a321-437e1aea77da","ios":"levelo://app?vid=35f36335-51c7-48bf-a321-437e1aea77da"},"vehicle_type_id":"4","last_reported":1746793183,"current_range_meters":7200,"station_id":"ce4bhsh2rcd13ifvqi2g","pricing_plan_id":"cebpf4jnsgd1na2vs0mg"},{"bike_id":"6b436cc5-7026-4c76-a439-affd21c03016","system_id":"levelo_inurba_marseille","lat":43.305493,"lon":5.36534,"is_reserved":false,"is_disabled":false,"rental_uris":{"android":"levelo://app?vid=6b436cc5-7026-4c76-a439-affd21c03016","ios":"levelo://app?vid=6b436cc5-7026-4c76-a439-affd21c03016"},"vehicle_type_id":"4","last_reported":1746793183,"current_range_meters":8000,"station_id":"ce4bgs12rcd13ifvqcag","pricing_plan_id":"cebpf4jnsgd1na2vs0mg"},{"bike_id":"88a39f4d-0bd9-459c-a687-8d6dbefb2d12","system_id":"levelo_inurba_marseille","lat":43.28081,"lon":5.39658,"is_reserved":false,"is_disabled":false,"rental_uris":{"android":"levelo://app?vid=88a39f4d-0bd9-459c-a687-8d6dbefb2d12","ios":"levelo://app?vid=88a39f4d-0bd9-459c-a687-8d6dbefb2d12"},"vehicle_type_id":"4","last_reported":1746793183,"current_range_meters":8000,"station_id":"ce4bho12rcd13ifvqh2g","pricing_plan_id":"cebpf4jnsgd1na2vs0mg"},{"bike_id":"3311c1f1-091b-4394-846c-138bab96fa5d","system_id":"levelo_inurba_marseille","lat":43.27907,"lon":5.380052,"is_reserved":false,"is_disabled":false,"rental_uris":{"android":"levelo://app?vid=3311c1f1-091b-4394-846c-138bab96fa5d","ios":"levelo://app?vid=3311c1f1-091b-4394-846c-138bab96fa5d"},"vehicle_type_id":"4","last_reported":1746793183,"current_range_meters":8400,"station_id":"ce4bhf92rcd13ifvqf50","pricing_plan_id":"cebpf4jnsgd1na2vs0mg"},{"bike_id":"c45d6409-1e88-4967-a046-3484aa035774","system_id":"levelo_inurba_marseille","lat":43.28158,"lon":5.42648,"is_reserved":false,"is_disabled":false,"rental_uris":{"android":"levelo://app?vid=c45d6409-1e88-4967-a046-3484aa035774","ios":"levelo://app?vid=c45d6409-1e88-4967-a046-3484aa035774"},"vehicle_type_id":"4","last_reported":1746793183,"current_range_meters":8400,"station_id":"ce4bhnh2rcd13ifvqgug","pricing_plan_id":"cebpf4jnsgd1na2vs0mg"},{"bike_id":"5e7e769b-e5fd-4b02-bcea-179a39850b74","system_id":"levelo_inurba_marseille","lat":43.27941,"lon":5.41043,"is_reserved":false,"is_disabled":false,"rental_uris":{"android":"levelo://app?vid=5e7e769b-e5fd-4b02-bcea-179a39850b74","ios":"levelo://app?vid=5e7e769b-e5fd-4b02-bcea-179a39850b74"},"vehicle_type_id":"4","last_reported":1746793183,"current_range_meters":8400,"station_id":"ce4bhnp2rcd13ifvqh0g","pricing_plan_id":"cebpf4jnsgd1na2vs0mg"},{"bike_id":"809c8673-c032-46b9-aa07-62c38e26d44e","system_id":"levelo_inurba_marseille","lat":43.25057,"lon":5.38791,"is_reserved":false,"is_disabled":false,"rental_uris":{"android":"levelo://app?vid=809c8673-c032-46b9-aa07-62c38e26d44e","ios":"levelo://app?vid=809c8673-c032-46b9-aa07-62c38e26d44e"},"vehicle_type_id":"4","last_reported":1746793183,"current_range_meters":8800,"station_id":"","pricing_plan_id":"cebpf4jnsgd1na2vs0mg"},{"bike_id":"47bb6f34-9c89-4a6c-b2ec-6a2d3e007f08","system_id":"levelo_inurba_marseille","lat":43.25721,"lon":5.41019,"is_reserved":false,"is_disabled":false,"rental_uris":{"android":"levelo://app?vid=47bb6f34-9c89-4a6c-b2ec-6a2d3e007f08","ios":"levelo://app?vid=47bb6f34-9c89-4a6c-b2ec-6a2d3e007f08"},"vehicle_type_id":"4","last_reported":1746793183,"current_range_meters":8800,"station_id":"","pricing_plan_id":"cebpf4jnsgd1na2vs0mg"},{"bike_id":"caf9033d-5f00-49c3-b1ee-1328b62008dc","system_id":"levelo_inurba_marseille","lat":43.33595,"lon":5.42798,"is_reserved":false,"is_disabled":false,"rental_uris":{"android":"levelo://app?vid=caf9033d-5f00-49c3-b1ee-1328b62008dc","ios":"levelo://app?vid=caf9033d-5f00-49c3-b1ee-1328b62008dc"},"vehicle_type_id":"4","last_reported":1746793183,"current_range_meters":8800,"station_id":"","pricing_plan_id":"cebpf4jnsgd1na2vs0mg"},{"bike_id":"03964064-8c11-4d7f-b38e-90be29e52e46","system_id":"levelo_inurba_marseille","lat":43.296204,"lon":5.377303,"is_reserved":false,"is_disabled":false,"rental_uris":{"android":"levelo://app?vid=03964064-8c11-4d7f-b38e-90be29e52e46","ios":"levelo://app?vid=03964064-8c11-4d7f-b38e-90be29e52e46"},"vehicle_type_id":"4","last_reported":1746793183,"current_range_meters":8800,"station_id":"ce4bgi92rcd13ifvqb90","pricing_plan_id":"cebpf4jnsgd1na2vs0mg"},{"bike_id":"f673a50d-776a-4d4f-8bc2-0f75017ffb52","system_id":"levelo_inurba_marseille","lat":43.284499,"lon":5.358347,"is_reserved":false,"is_disabled":false,"rental_uris":{"android":"levelo://app?vid=f673a50d-776a-4d4f-8bc2-0f75017ffb52","ios":"levelo://app?vid=f673a50d-776a-4d4f-8bc2-0f75017ffb52"},"vehicle_type_id":"4","last_reported":1746793183,"current_range_meters":8800,"station_id":"ce4bhah2rcd13ifvqei0","pricing_plan_id":"cebpf4jnsgd1na2vs0mg"},{"bike_id":"294e5e93-618a-4492-9bac-02c9b5b12a80","system_id":"levelo_inurba_marseille","lat":43.32111,"lon":5.36765,"is_reserved":false,"is_disabled":false,"rental_uris":{"android":"levelo://app?vid=294e5e93-618a-4492-9bac-02c9b5b12a80","ios":"levelo://app?vid=294e5e93-618a-4492-9bac-02c9b5b12a80"},"vehicle_type_id":"4","last_reported":1746793183,"current_range_meters":8800,"station_id":"ce4bhrh2rcd13ifvqhug","pricing_plan_id":"cebpf4jnsgd1na2vs0mg"},{"bike_id":"812e31b7-42f9-4d63-b220-e99af5c192ed","system_id":"levelo_inurba_marseille","lat":43.31188,"lon":5.41597,"is_reserved":false,"is_disabled":false,"rental_uris":{"android":"levelo://app?vid=812e31b7-42f9-4d63-b220-e99af5c192ed","ios":"levelo://app?vid=812e31b7-42f9-4d63-b220-e99af5c192ed"},"vehicle_type_id":"4","last_reported":1746793183,"current_range_meters":9200,"station_id":"","pricing_plan_id":"cebpf4jnsgd1na2vs0mg"},{"bike_id":"315d2909-a4e1-4b60-995d-515d1c4cee1b","system_id":"levelo_inurba_marseille","lat":43.30884,"lon":5.39656,"is_reserved":false,"is_disabled":false,"rental_uris":{"android":"levelo://app?vid=315d2909-a4e1-4b60-995d-515d1c4cee1b","ios":"levelo://app?vid=315d2909-a4e1-4b60-995d-515d1c4cee1b"},"vehicle_type_id":"4","last_reported":1746793183,"current_range_meters":9200,"station_id":"ce4bh012rcd13ifvqcv0","pricing_plan_id":"cebpf4jnsgd1na2vs0mg"},{"bike_id":"02a1c0e3-805f-4fea-a307-0073415960b6","system_id":"levelo_inurba_marseille","lat":43.28943,"lon":5.36377,"is_reserved":false,"is_disabled":false,"rental_uris":{"android":"levelo://app?vid=02a1c0e3-805f-4fea-a307-0073415960b6","ios":"levelo://app?vid=02a1c0e3-805f-4fea-a307-0073415960b6"},"vehicle_type_id":"4","last_reported":1746793183,"current_range_meters":9200,"station_id":"ce4bhc92rcd13ifvqetg","pricing_plan_id":"cebpf4jnsgd1na2vs0mg"},{"bike_id":"bd313c50-ca03-447c-bb55-be613d408b29","system_id":"levelo_inurba_marseille","lat":43.2988,"lon":5.389015,"is_reserved":false,"is_disabled":false,"rental_uris":{"android":"levelo://app?vid=bd313c50-ca03-447c-bb55-be613d408b29","ios":"levelo://app?vid=bd313c50-ca03-447c-bb55-be613d408b29"},"vehicle_type_id":"4","last_reported":1746793183,"current_range_meters":9600,"station_id":"ce4bh392rcd13ifvqdl0","pricing_plan_id":"cebpf4jnsgd1na2vs0mg"},{"bike_id":"167d5592-acfa-492b-b15c-aab72a861d42","system_id":"levelo_inurba_marseille","lat":43.31089,"lon":5.42449,"is_reserved":false,"is_disabled":false,"rental_uris":{"android":"levelo://app?vid=167d5592-acfa-492b-b15c-aab72a861d42","ios":"levelo://app?vid=167d5592-acfa-492b-b15c-aab72a861d42"},"vehicle_type_id":"4","last_reported":1746793183,"current_range_meters":9600,"station_id":"ce4bhp92rcd13ifvqhag","pricing_plan_id":"cebpf4jnsgd1na2vs0mg"},{"bike_id":"a2309e80-b2ba-42c9-9c60-147f0babf9f9","system_id":"levelo_inurba_marseille","lat":43.30844,"lon":5.36976,"is_reserved":false,"is_disabled":false,"rental_uris":{"android":"levelo://app?vid=a2309e80-b2ba-42c9-9c60-147f0babf9f9","ios":"levelo://app?vid=a2309e80-b2ba-42c9-9c60-147f0babf9f9"},"vehicle_type_id":"4","last_reported":1746793183,"current_range_meters":10000,"station_id":"","pricing_plan_id":"cebpf4jnsgd1na2vs0mg"},{"bike_id":"caccb556-2ad0-45b8-84b8-819024dd44e6","system_id":"levelo_inurba_marseille","lat":43.29783,"lon":5.36788,"is_reserved":false,"is_disabled":false,"rental_uris":{"android":"levelo://app?vid=caccb556-2ad0-45b8-84b8-819024dd44e6","ios":"levelo://app?vid=caccb556-2ad0-45b8-84b8-819024dd44e6"},"vehicle_type_id":"4","last_reported":1746793183,"current_range_meters":10000,"station_id":"","pricing_plan_id":"cebpf4jnsgd1na2vs0mg"},{"bike_id":"7ffb369a-c208-40fe-98d6-6f71c1bae83b","system_id":"levelo_inurba_marseille","lat":43.25715,"lon":5.41117,"is_reserved":false,"is_disabled":false,"rental_uris":{"android":"levelo://app?vid=7ffb369a-c208-40fe-98d6-6f71c1bae83b","ios":"levelo://app?vid=7ffb369a-c208-40fe-98d6-6f71c1bae83b"},"vehicle_type_id":"4","last_reported":1746793183,"current_range_meters":10000,"station_id":"ce4bhkp2rcd13ifvqgd0","pricing_plan_id":"cebpf4jnsgd1na2vs0mg"},{"bike_id":"9e738258-5fe2-4d4d-b989-22f35e3bed87","system_id":"levelo_inurba_marseille","lat":43.24076,"lon":5.3776,"is_reserved":false,"is_disabled":false,"rental_uris":{"android":"levelo://app?vid=9e738258-5fe2-4d4d-b989-22f35e3bed87","ios":"levelo://app?vid=9e738258-5fe2-4d4d-b989-22f35e3bed87"},"vehicle_type_id":"4","last_reported":1746793183,"current_range_meters":10000,"station_id":"ce4bhnp2rcd13ifvqgvg","pricing_plan_id":"cebpf4jnsgd1na2vs0mg"},{"bike_id":"91312870-d6c6-4946-b631-c8be8e8cee46","system_id":"levelo_inurba_marseille","lat":43.21753,"lon":5.34604,"is_reserved":false,"is_disabled":false,"rental_uris":{"android":"levelo://app?vid=91312870-d6c6-4946-b631-c8be8e8cee46","ios":"levelo://app?vid=91312870-d6c6-4946-b631-c8be8e8cee46"},"vehicle_type_id":"4","last_reported":1746793183,"current_range_meters":10000,"station_id":"st_cvj6r9ubvosntc0bgbag","pricing_plan_id":"cebpf4jnsgd1na2vs0mg"},{"bike_id":"044478cb-8194-4092-b984-4fc9c042ef68","system_id":"levelo_inurba_marseille","lat":43.28714,"lon":5.46572,"is_reserved":false,"is_disabled":false,"rental_uris":{"android":"levelo://app?vid=044478cb-8194-4092-b984-4fc9c042ef68","ios":"levelo://app?vid=044478cb-8194-4092-b984-4fc9c042ef68"},"vehicle_type_id":"4","last_reported":1746793183,"current_range_meters":10800,"station_id":"","pricing_plan_id":"cebpf4jnsgd1na2vs0mg"},{"bike_id":"51929467-946e-4ac4-800a-2834edc3fcb8","system_id":"levelo_inurba_marseille","lat":43.2467,"lon":5.38155,"is_reserved":false,"is_disabled":false,"rental_uris":{"android":"levelo://app?vid=51929467-946e-4ac4-800a-2834edc3fcb8","ios":"levelo://app?vid=51929467-946e-4ac4-800a-2834edc3fcb8"},"vehicle_type_id":"4","last_reported":1746793183,"current_range_meters":10800,"station_id":"ce4bhih2rcd13ifvqfr0","pricing_plan_id":"cebpf4jnsgd1na2vs0mg"},{"bike_id":"b0c54ead-2c9a-4d45-904a-5e1b9abf7338","system_id":"levelo_inurba_marseille","lat":43.2789,"lon":5.44074,"is_reserved":false,"is_disabled":false,"rental_uris":{"android":"levelo://app?vid=b0c54ead-2c9a-4d45-904a-5e1b9abf7338","ios":"levelo://app?vid=b0c54ead-2c9a-4d45-904a-5e1b9abf7338"},"vehicle_type_id":"4","last_reported":1746793183,"current_range_meters":11200,"station_id":"","pricing_plan_id":"cebpf4jnsgd1na2vs0mg"},{"bike_id":"3ffbdbcc-7993-4224-a457-998febbb238c","system_id":"levelo_inurba_marseille","lat":43.29784,"lon":5.38087,"is_reserved":false,"is_disabled":false,"rental_uris":{"android":"levelo://app?vid=3ffbdbcc-7993-4224-a457-998febbb238c","ios":"levelo://app?vid=3ffbdbcc-7993-4224-a457-998febbb238c"},"vehicle_type_id":"4","last_reported":1746793183,"current_range_meters":11200,"station_id":"ce4bgip2rcd13ifvqbb0","pricing_plan_id":"cebpf4jnsgd1na2vs0mg"},{"bike_id":"35a607ca-b5aa-4250-884c-608bc6a32551","system_id":"levelo_inurba_marseille","lat":43.27617,"lon":5.36107,"is_reserved":false,"is_disabled":false,"rental_uris":{"android":"levelo://app?vid=35a607ca-b5aa-4250-884c-608bc6a32551","ios":"levelo://app?vid=35a607ca-b5aa-4250-884c-608bc6a32551"},"vehicle_type_id":"4","last_reported":1746793183,"current_range_meters":11200,"station_id":"ce4bgj92rcd13ifvqbe0","pricing_plan_id":"cebpf4jnsgd1na2vs0mg"},{"bike_id":"6fa74ce8-f299-4d6e-bae1-741bd54af124","system_id":"levelo_inurba_marseille","lat":43.27074,"lon":5.42262,"is_reserved":false,"is_disabled":false,"rental_uris":{"android":"levelo://app?vid=6fa74ce8-f299-4d6e-bae1-741bd54af124","ios":"levelo://app?vid=6fa74ce8-f299-4d6e-bae1-741bd54af124"},"vehicle_type_id":"4","last_reported":1746793183,"current_range_meters":11200,"station_id":"ce4bhk92rcd13ifvqgb0","pricing_plan_id":"cebpf4jnsgd1na2vs0mg"},{"bike_id":"cfb5f8ab-2814-4f4d-9d75-d10095b1f175","system_id":"levelo_inurba_marseille","lat":43.25917,"lon":5.40884,"is_reserved":false,"is_disabled":false,"rental_uris":{"android":"levelo://app?vid=cfb5f8ab-2814-4f4d-9d75-d10095b1f175","ios":"levelo://app?vid=cfb5f8ab-2814-4f4d-9d75-d10095b1f175"},"vehicle_type_id":"4","last_reported":1746793183,"current_range_meters":11200,"station_id":"ce4bhm92rcd13ifvqglg","pricing_plan_id":"cebpf4jnsgd1na2vs0mg"},{"bike_id":"d50c8c57-2d1b-4c70-9ce6-e602d4219a2a","system_id":"levelo_inurba_marseille","lat":43.30942,"lon":5.36828,"is_reserved":false,"is_disabled":false,"rental_uris":{"android":"levelo://app?vid=d50c8c57-2d1b-4c70-9ce6-e602d4219a2a","ios":"levelo://app?vid=d50c8c57-2d1b-4c70-9ce6-e602d4219a2a"},"vehicle_type_id":"4","last_reported":1746793183,"current_range_meters":11600,"station_id":"ce4bgn92rcd13ifvqbvg","pricing_plan_id":"cebpf4jnsgd1na2vs0mg"},{"bike_id":"87d635d1-95f9-49ba-8d80-ede6a6dfa1b1","system_id":"levelo_inurba_marseille","lat":43.30954,"lon":5.39032,"is_reserved":false,"is_disabled":false,"rental_uris":{"android":"levelo://app?vid=87d635d1-95f9-49ba-8d80-ede6a6dfa1b1","ios":"levelo://app?vid=87d635d1-95f9-49ba-8d80-ede6a6dfa1b1"},"vehicle_type_id":"4","last_reported":1746793183,"current_range_meters":11600,"station_id":"ce4bgup2rcd13ifvqco0","pricing_plan_id":"cebpf4jnsgd1na2vs0mg"},{"bike_id":"8f9f14f5-32c0-4abb-83fb-b1e302581157","system_id":"levelo_inurba_marseille","lat":43.259326,"lon":5.409031,"is_reserved":false,"is_disabled":false,"rental_uris":{"android":"levelo://app?vid=8f9f14f5-32c0-4abb-83fb-b1e302581157","ios":"levelo://app?vid=8f9f14f5-32c0-4abb-83fb-b1e302581157"},"vehicle_type_id":"4","last_reported":1746793183,"current_range_meters":11600,"station_id":"ce4bhm92rcd13ifvqglg","pricing_plan_id":"cebpf4jnsgd1na2vs0mg"},{"bike_id":"526ac06a-cd77-4007-acca-7871d3084f3b","system_id":"levelo_inurba_marseille","lat":43.30553,"lon":5.36507,"is_reserved":false,"is_disabled":false,"rental_uris":{"android":"levelo://app?vid=526ac06a-cd77-4007-acca-7871d3084f3b","ios":"levelo://app?vid=526ac06a-cd77-4007-acca-7871d3084f3b"},"vehicle_type_id":"4","last_reported":1746793183,"current_range_meters":12000,"station_id":"ce4bgs12rcd13ifvqcag","pricing_plan_id":"cebpf4jnsgd1na2vs0mg"},{"bike_id":"5fb72a9b-2161-40de-8248-0404676ac18e","system_id":"levelo_inurba_marseille","lat":43.29004,"lon":5.35613,"is_reserved":false,"is_disabled":false,"rental_uris":{"android":"levelo://app?vid=5fb72a9b-2161-40de-8248-0404676ac18e","ios":"levelo://app?vid=5fb72a9b-2161-40de-8248-0404676ac18e"},"vehicle_type_id":"4","last_reported":1746793183,"current_range_meters":12000,"station_id":"ce4bhb92rcd13ifvqen0","pricing_plan_id":"cebpf4jnsgd1na2vs0mg"},{"bike_id":"c88a963d-c066-47ea-9cc0-1803ced0299a","system_id":"levelo_inurba_marseille","lat":43.25721,"lon":5.41111,"is_reserved":false,"is_disabled":false,"rental_uris":{"android":"levelo://app?vid=c88a963d-c066-47ea-9cc0-1803ced0299a","ios":"levelo://app?vid=c88a963d-c066-47ea-9cc0-1803ced0299a"},"vehicle_type_id":"4","last_reported":1746793183,"current_range_meters":12000,"station_id":"ce4bhkp2rcd13ifvqgd0","pricing_plan_id":"cebpf4jnsgd1na2vs0mg"},{"bike_id":"35cd44c8-1d74-4da5-b64f-f93290c5c2a7","system_id":"levelo_inurba_marseille","lat":43.31534,"lon":5.38033,"is_reserved":false,"is_disabled":false,"rental_uris":{"android":"levelo://app?vid=35cd44c8-1d74-4da5-b64f-f93290c5c2a7","ios":"levelo://app?vid=35cd44c8-1d74-4da5-b64f-f93290c5c2a7"},"vehicle_type_id":"4","last_reported":1746793183,"current_range_meters":12000,"station_id":"ce4bhsp2rcd13ifvqi50","pricing_plan_id":"cebpf4jnsgd1na2vs0mg"},{"bike_id":"351797a0-ee3f-4e96-acf3-26e39630bfa6","system_id":"levelo_inurba_marseille","lat":43.28693,"lon":5.37391,"is_reserved":false,"is_disabled":false,"rental_uris":{"android":"levelo://app?vid=351797a0-ee3f-4e96-acf3-26e39630bfa6","ios":"levelo://app?vid=351797a0-ee3f-4e96-acf3-26e39630bfa6"},"vehicle_type_id":"4","last_reported":1746793183,"current_range_meters":12400,"station_id":"ce4bh3p2rcd13ifvqdq0","pricing_plan_id":"cebpf4jnsgd1na2vs0mg"},{"bike_id":"dc87e86b-52ac-43da-a967-3b3c20be364e","system_id":"levelo_inurba_marseille","lat":43.27314,"lon":5.39081,"is_reserved":false,"is_disabled":false,"rental_uris":{"android":"levelo://app?vid=dc87e86b-52ac-43da-a967-3b3c20be364e","ios":"levelo://app?vid=dc87e86b-52ac-43da-a967-3b3c20be364e"},"vehicle_type_id":"4","last_reported":1746793183,"current_range_meters":12400,"station_id":"ce4bhgp2rcd13ifvqfe0","pricing_plan_id":"cebpf4jnsgd1na2vs0mg"},{"bike_id":"a20a1240-7ac9-4476-9baa-68d9ee79a31b","system_id":"levelo_inurba_marseille","lat":43.325392,"lon":5.414512,"is_reserved":false,"is_disabled":false,"rental_uris":{"android":"levelo://app?vid=a20a1240-7ac9-4476-9baa-68d9ee79a31b","ios":"levelo://app?vid=a20a1240-7ac9-4476-9baa-68d9ee79a31b"},"vehicle_type_id":"4","last_reported":1746793183,"current_range_meters":12400,"station_id":"ce4bhq12rcd13ifvqhhg","pricing_plan_id":"cebpf4jnsgd1na2vs0mg"},{"bike_id":"9c71a337-1693-4bce-8cee-d56f90623fbe","system_id":"levelo_inurba_marseille","lat":43.30603,"lon":5.37234,"is_reserved":false,"is_disabled":false,"rental_uris":{"android":"levelo://app?vid=9c71a337-1693-4bce-8cee-d56f90623fbe","ios":"levelo://app?vid=9c71a337-1693-4bce-8cee-d56f90623fbe"},"vehicle_type_id":"4","last_reported":1746793183,"current_range_meters":13600,"station_id":"ce4bgqh2rcd13ifvqc4g","pricing_plan_id":"cebpf4jnsgd1na2vs0mg"},{"bike_id":"ea430058-b42f-46cc-a333-c2a7552bcc87","system_id":"levelo_inurba_marseille","lat":43.29626,"lon":5.4059,"is_reserved":false,"is_disabled":false,"rental_uris":{"android":"levelo://app?vid=ea430058-b42f-46cc-a333-c2a7552bcc87","ios":"levelo://app?vid=ea430058-b42f-46cc-a333-c2a7552bcc87"},"vehicle_type_id":"4","last_reported":1746793183,"current_range_meters":13600,"station_id":"ce4bh0h2rcd13ifvqd60","pricing_plan_id":"cebpf4jnsgd1na2vs0mg"},{"bike_id":"fbe94755-9415-49a0-acf1-3c4f4d277232","system_id":"levelo_inurba_marseille","lat":43.279498,"lon":5.410425,"is_reserved":false,"is_disabled":false,"rental_uris":{"android":"levelo://app?vid=fbe94755-9415-49a0-acf1-3c4f4d277232","ios":"levelo://app?vid=fbe94755-9415-49a0-acf1-3c4f4d277232"},"vehicle_type_id":"4","last_reported":1746793183,"current_range_meters":13600,"station_id":"ce4bhnp2rcd13ifvqh0g","pricing_plan_id":"cebpf4jnsgd1na2vs0mg"},{"bike_id":"94b1c6a7-a958-417d-853f-1e7583bcb7f5","system_id":"levelo_inurba_marseille","lat":43.323527,"lon":5.367667,"is_reserved":false,"is_disabled":false,"rental_uris":{"android":"levelo://app?vid=94b1c6a7-a958-417d-853f-1e7583bcb7f5","ios":"levelo://app?vid=94b1c6a7-a958-417d-853f-1e7583bcb7f5"},"vehicle_type_id":"4","last_reported":1746793183,"current_range_meters":13600,"station_id":"ce4bhsh2rcd13ifvqi2g","pricing_plan_id":"cebpf4jnsgd1na2vs0mg"},{"bike_id":"e6282093-23fb-41a9-859d-c0d9ad966535","system_id":"levelo_inurba_marseille","lat":43.31545,"lon":5.3823,"is_reserved":false,"is_disabled":false,"rental_uris":{"android":"levelo://app?vid=e6282093-23fb-41a9-859d-c0d9ad966535","ios":"levelo://app?vid=e6282093-23fb-41a9-859d-c0d9ad966535"},"vehicle_type_id":"4","last_reported":1746793183,"current_range_meters":14000,"station_id":"","pricing_plan_id":"cebpf4jnsgd1na2vs0mg"},{"bike_id":"4fc2916e-fd8a-4057-add3-fd7205558b49","system_id":"levelo_inurba_marseille","lat":43.31467,"lon":5.39084,"is_reserved":false,"is_disabled":false,"rental_uris":{"android":"levelo://app?vid=4fc2916e-fd8a-4057-add3-fd7205558b49","ios":"levelo://app?vid=4fc2916e-fd8a-4057-add3-fd7205558b49"},"vehicle_type_id":"4","last_reported":1746793183,"current_range_meters":14000,"station_id":"","pricing_plan_id":"cebpf4jnsgd1na2vs0mg"},{"bike_id":"514c9057-0071-4395-b8f1-e661f63e607c","system_id":"levelo_inurba_marseille","lat":43.29592,"lon":5.38115,"is_reserved":false,"is_disabled":false,"rental_uris":{"android":"levelo://app?vid=514c9057-0071-4395-b8f1-e661f63e607c","ios":"levelo://app?vid=514c9057-0071-4395-b8f1-e661f63e607c"},"vehicle_type_id":"4","last_reported":1746793183,"current_range_meters":14000,"station_id":"ce4bgl12rcd13ifvqbo0","pricing_plan_id":"cebpf4jnsgd1na2vs0mg"},{"bike_id":"545e2df5-ec09-4bd6-a25e-7fc49f1893c1","system_id":"levelo_inurba_marseille","lat":43.26225,"lon":5.40451,"is_reserved":false,"is_disabled":false,"rental_uris":{"android":"levelo://app?vid=545e2df5-ec09-4bd6-a25e-7fc49f1893c1","ios":"levelo://app?vid=545e2df5-ec09-4bd6-a25e-7fc49f1893c1"},"vehicle_type_id":"4","last_reported":1746793183,"current_range_meters":14000,"station_id":"ce4bhmh2rcd13ifvqgmg","pricing_plan_id":"cebpf4jnsgd1na2vs0mg"},{"bike_id":"ee6d1d8b-628b-4c6e-9acd-0b6c11d2900e","system_id":"levelo_inurba_marseille","lat":43.28956,"lon":5.39625,"is_reserved":false,"is_disabled":false,"rental_uris":{"android":"levelo://app?vid=ee6d1d8b-628b-4c6e-9acd-0b6c11d2900e","ios":"levelo://app?vid=ee6d1d8b-628b-4c6e-9acd-0b6c11d2900e"},"vehicle_type_id":"4","last_reported":1746793183,"current_range_meters":14400,"station_id":"ce4bh3h2rcd13ifvqdn0","pricing_plan_id":"cebpf4jnsgd1na2vs0mg"},{"bike_id":"3f283b15-ceab-4156-ac21-0095cb87045f","system_id":"levelo_inurba_marseille","lat":43.24071,"lon":5.37765,"is_reserved":false,"is_disabled":false,"rental_uris":{"android":"levelo://app?vid=3f283b15-ceab-4156-ac21-0095cb87045f","ios":"levelo://app?vid=3f283b15-ceab-4156-ac21-0095cb87045f"},"vehicle_type_id":"4","last_reported":1746793183,"current_range_meters":14400,"station_id":"ce4bhnp2rcd13ifvqgvg","pricing_plan_id":"cebpf4jnsgd1na2vs0mg"},{"bike_id":"fe6880e3-a4b8-47d8-acde-d67a75a60ab2","system_id":"levelo_inurba_marseille","lat":43.29784,"lon":5.38092,"is_reserved":false,"is_disabled":false,"rental_uris":{"android":"levelo://app?vid=fe6880e3-a4b8-47d8-acde-d67a75a60ab2","ios":"levelo://app?vid=fe6880e3-a4b8-47d8-acde-d67a75a60ab2"},"vehicle_type_id":"4","last_reported":1746793183,"current_range_meters":14800,"station_id":"ce4bgip2rcd13ifvqbb0","pricing_plan_id":"cebpf4jnsgd1na2vs0mg"},{"bike_id":"44355d28-d86b-44dd-a795-f92231357464","system_id":"levelo_inurba_marseille","lat":43.25927,"lon":5.40906,"is_reserved":false,"is_disabled":false,"rental_uris":{"android":"levelo://app?vid=44355d28-d86b-44dd-a795-f92231357464","ios":"levelo://app?vid=44355d28-d86b-44dd-a795-f92231357464"},"vehicle_type_id":"4","last_reported":1746793183,"current_range_meters":14800,"station_id":"ce4bhm92rcd13ifvqglg","pricing_plan_id":"cebpf4jnsgd1na2vs0mg"},{"bike_id":"f6ab14ef-a24a-4de3-88d6-ae3afdd8f1d9","system_id":"levelo_inurba_marseille","lat":43.2407,"lon":5.37765,"is_reserved":false,"is_disabled":false,"rental_uris":{"android":"levelo://app?vid=f6ab14ef-a24a-4de3-88d6-ae3afdd8f1d9","ios":"levelo://app?vid=f6ab14ef-a24a-4de3-88d6-ae3afdd8f1d9"},"vehicle_type_id":"4","last_reported":1746793183,"current_range_meters":14800,"station_id":"ce4bhnp2rcd13ifvqgvg","pricing_plan_id":"cebpf4jnsgd1na2vs0mg"},{"bike_id":"c5ea4853-e911-4ef7-a052-b7df1bb51574","system_id":"levelo_inurba_marseille","lat":43.26932,"lon":5.38917,"is_reserved":false,"is_disabled":false,"rental_uris":{"android":"levelo://app?vid=c5ea4853-e911-4ef7-a052-b7df1bb51574","ios":"levelo://app?vid=c5ea4853-e911-4ef7-a052-b7df1bb51574"},"vehicle_type_id":"4","last_reported":1746793183,"current_range_meters":15200,"station_id":"ce4bhhh2rcd13ifvqfl0","pricing_plan_id":"cebpf4jnsgd1na2vs0mg"},{"bike_id":"f969b97c-1c1a-4079-a8d8-16efa103018e","system_id":"levelo_inurba_marseille","lat":43.25908,"lon":5.40894,"is_reserved":false,"is_disabled":false,"rental_uris":{"android":"levelo://app?vid=f969b97c-1c1a-4079-a8d8-16efa103018e","ios":"levelo://app?vid=f969b97c-1c1a-4079-a8d8-16efa103018e"},"vehicle_type_id":"4","last_reported":1746793183,"current_range_meters":15200,"station_id":"ce4bhm92rcd13ifvqglg","pricing_plan_id":"cebpf4jnsgd1na2vs0mg"},{"bike_id":"d5ef6276-5c24-471b-8c1a-027971beff96","system_id":"levelo_inurba_marseille","lat":43.26217,"lon":5.37483,"is_reserved":false,"is_disabled":false,"rental_uris":{"android":"levelo://app?vid=d5ef6276-5c24-471b-8c1a-027971beff96","ios":"levelo://app?vid=d5ef6276-5c24-471b-8c1a-027971beff96"},"vehicle_type_id":"4","last_reported":1746793183,"current_range_meters":16000,"station_id":"","pricing_plan_id":"cebpf4jnsgd1na2vs0mg"},{"bike_id":"60493a38-b685-4086-9079-7c7f7a86cdf9","system_id":"levelo_inurba_marseille","lat":43.29719,"lon":5.38123,"is_reserved":false,"is_disabled":false,"rental_uris":{"android":"levelo://app?vid=60493a38-b685-4086-9079-7c7f7a86cdf9","ios":"levelo://app?vid=60493a38-b685-4086-9079-7c7f7a86cdf9"},"vehicle_type_id":"4","last_reported":1746793183,"current_range_meters":16000,"station_id":"ce4bgip2rcd13ifvqbb0","pricing_plan_id":"cebpf4jnsgd1na2vs0mg"},{"bike_id":"c500082b-b5c7-42b6-9de2-b21834a015d1","system_id":"levelo_inurba_marseille","lat":43.30893,"lon":5.36899,"is_reserved":false,"is_disabled":false,"rental_uris":{"android":"levelo://app?vid=c500082b-b5c7-42b6-9de2-b21834a015d1","ios":"levelo://app?vid=c500082b-b5c7-42b6-9de2-b21834a015d1"},"vehicle_type_id":"4","last_reported":1746793183,"current_range_meters":16000,"station_id":"ce4bgn92rcd13ifvqbvg","pricing_plan_id":"cebpf4jnsgd1na2vs0mg"},{"bike_id":"8313a27e-2faf-4929-87a9-6e2fb54d5482","system_id":"levelo_inurba_marseille","lat":43.282657,"lon":5.350511,"is_reserved":false,"is_disabled":false,"rental_uris":{"android":"levelo://app?vid=8313a27e-2faf-4929-87a9-6e2fb54d5482","ios":"levelo://app?vid=8313a27e-2faf-4929-87a9-6e2fb54d5482"},"vehicle_type_id":"4","last_reported":1746793183,"current_range_meters":16000,"station_id":"ce4bhbp2rcd13ifvqerg","pricing_plan_id":"cebpf4jnsgd1na2vs0mg"},{"bike_id":"0cb542d0-661d-4a86-904d-249f6866850a","system_id":"levelo_inurba_marseille","lat":43.25711,"lon":5.41134,"is_reserved":false,"is_disabled":false,"rental_uris":{"android":"levelo://app?vid=0cb542d0-661d-4a86-904d-249f6866850a","ios":"levelo://app?vid=0cb542d0-661d-4a86-904d-249f6866850a"},"vehicle_type_id":"4","last_reported":1746793183,"current_range_meters":16000,"station_id":"ce4bhkp2rcd13ifvqgd0","pricing_plan_id":"cebpf4jnsgd1na2vs0mg"},{"bike_id":"01859a2e-b217-4e2c-a80e-c73396fdcf4e","system_id":"levelo_inurba_marseille","lat":43.28005,"lon":5.40004,"is_reserved":false,"is_disabled":false,"rental_uris":{"android":"levelo://app?vid=01859a2e-b217-4e2c-a80e-c73396fdcf4e","ios":"levelo://app?vid=01859a2e-b217-4e2c-a80e-c73396fdcf4e"},"vehicle_type_id":"4","last_reported":1746793183,"current_range_meters":16000,"station_id":"ce4bho92rcd13ifvqh4g","pricing_plan_id":"cebpf4jnsgd1na2vs0mg"},{"bike_id":"228878a1-ba10-4a9d-8bd6-a2d0e5e4d6b0","system_id":"levelo_inurba_marseille","lat":43.279083,"lon":5.380071,"is_reserved":false,"is_disabled":false,"rental_uris":{"android":"levelo://app?vid=228878a1-ba10-4a9d-8bd6-a2d0e5e4d6b0","ios":"levelo://app?vid=228878a1-ba10-4a9d-8bd6-a2d0e5e4d6b0"},"vehicle_type_id":"4","last_reported":1746793183,"current_range_meters":16400,"station_id":"","pricing_plan_id":"cebpf4jnsgd1na2vs0mg"},{"bike_id":"d5ae9987-3c36-4197-a244-adc74140878e","system_id":"levelo_inurba_marseille","lat":43.31365,"lon":5.36729,"is_reserved":false,"is_disabled":false,"rental_uris":{"android":"levelo://app?vid=d5ae9987-3c36-4197-a244-adc74140878e","ios":"levelo://app?vid=d5ae9987-3c36-4197-a244-adc74140878e"},"vehicle_type_id":"4","last_reported":1746793183,"current_range_meters":16400,"station_id":"ce4bgr92rcd13ifvqc6g","pricing_plan_id":"cebpf4jnsgd1na2vs0mg"},{"bike_id":"17c53b35-a2f1-475d-b28d-2c3ab96850e4","system_id":"levelo_inurba_marseille","lat":43.25963,"lon":5.40888,"is_reserved":false,"is_disabled":false,"rental_uris":{"android":"levelo://app?vid=17c53b35-a2f1-475d-b28d-2c3ab96850e4","ios":"levelo://app?vid=17c53b35-a2f1-475d-b28d-2c3ab96850e4"},"vehicle_type_id":"4","last_reported":1746793183,"current_range_meters":16400,"station_id":"ce4bhm92rcd13ifvqglg","pricing_plan_id":"cebpf4jnsgd1na2vs0mg"},{"bike_id":"065eb45b-15d3-493f-93b7-8b1560af2c3c","system_id":"levelo_inurba_marseille","lat":43.28156,"lon":5.42644,"is_reserved":false,"is_disabled":false,"rental_uris":{"android":"levelo://app?vid=065eb45b-15d3-493f-93b7-8b1560af2c3c","ios":"levelo://app?vid=065eb45b-15d3-493f-93b7-8b1560af2c3c"},"vehicle_type_id":"4","last_reported":1746793183,"current_range_meters":16400,"station_id":"ce4bhnh2rcd13ifvqgug","pricing_plan_id":"cebpf4jnsgd1na2vs0mg"},{"bike_id":"39005936-d671-4d0a-9547-d8fb0f8d498d","system_id":"levelo_inurba_marseille","lat":43.33616,"lon":5.41029,"is_reserved":false,"is_disabled":false,"rental_uris":{"android":"levelo://app?vid=39005936-d671-4d0a-9547-d8fb0f8d498d","ios":"levelo://app?vid=39005936-d671-4d0a-9547-d8fb0f8d498d"},"vehicle_type_id":"4","last_reported":1746793183,"current_range_meters":16400,"station_id":"ce4bhqh2rcd13ifvqhmg","pricing_plan_id":"cebpf4jnsgd1na2vs0mg"},{"bike_id":"e4ad099f-2372-43b0-92fe-3e444217bb04","system_id":"levelo_inurba_marseille","lat":43.30212,"lon":5.39463,"is_reserved":false,"is_disabled":false,"rental_uris":{"android":"levelo://app?vid=e4ad099f-2372-43b0-92fe-3e444217bb04","ios":"levelo://app?vid=e4ad099f-2372-43b0-92fe-3e444217bb04"},"vehicle_type_id":"4","last_reported":1746793183,"current_range_meters":16800,"station_id":"ce4bh0p2rcd13ifvqd70","pricing_plan_id":"cebpf4jnsgd1na2vs0mg"},{"bike_id":"63465e41-21f7-431d-91d2-832e50cb8cec","system_id":"levelo_inurba_marseille","lat":43.24802,"lon":5.37456,"is_reserved":false,"is_disabled":false,"rental_uris":{"android":"levelo://app?vid=63465e41-21f7-431d-91d2-832e50cb8cec","ios":"levelo://app?vid=63465e41-21f7-431d-91d2-832e50cb8cec"},"vehicle_type_id":"4","last_reported":1746793183,"current_range_meters":16800,"station_id":"ce4bhgh2rcd13ifvqfb0","pricing_plan_id":"cebpf4jnsgd1na2vs0mg"},{"bike_id":"577b6fa1-01aa-4b90-beb1-386dce7ef354","system_id":"levelo_inurba_marseille","lat":43.2593,"lon":5.409,"is_reserved":false,"is_disabled":false,"rental_uris":{"android":"levelo://app?vid=577b6fa1-01aa-4b90-beb1-386dce7ef354","ios":"levelo://app?vid=577b6fa1-01aa-4b90-beb1-386dce7ef354"},"vehicle_type_id":"4","last_reported":1746793183,"current_range_meters":16800,"station_id":"ce4bhm92rcd13ifvqglg","pricing_plan_id":"cebpf4jnsgd1na2vs0mg"},{"bike_id":"7fc1829d-d006-4438-a4e0-ef73bf018d8d","system_id":"levelo_inurba_marseille","lat":43.27493,"lon":5.42452,"is_reserved":false,"is_disabled":false,"rental_uris":{"android":"levelo://app?vid=7fc1829d-d006-4438-a4e0-ef73bf018d8d","ios":"levelo://app?vid=7fc1829d-d006-4438-a4e0-ef73bf018d8d"},"vehicle_type_id":"4","last_reported":1746793183,"current_range_meters":16800,"station_id":"ce4bhn92rcd13ifvqgrg","pricing_plan_id":"cebpf4jnsgd1na2vs0mg"},{"bike_id":"c45b8261-bf18-4ab6-9823-267fb2012212","system_id":"levelo_inurba_marseille","lat":43.2815,"lon":5.42647,"is_reserved":false,"is_disabled":false,"rental_uris":{"android":"levelo://app?vid=c45b8261-bf18-4ab6-9823-267fb2012212","ios":"levelo://app?vid=c45b8261-bf18-4ab6-9823-267fb2012212"},"vehicle_type_id":"4","last_reported":1746793183,"current_range_meters":16800,"station_id":"ce4bhnh2rcd13ifvqgug","pricing_plan_id":"cebpf4jnsgd1na2vs0mg"},{"bike_id":"d740961f-c577-4112-980a-0a5d8b345ff9","system_id":"levelo_inurba_marseille","lat":43.29555,"lon":5.42268,"is_reserved":false,"is_disabled":false,"rental_uris":{"android":"levelo://app?vid=d740961f-c577-4112-980a-0a5d8b345ff9","ios":"levelo://app?vid=d740961f-c577-4112-980a-0a5d8b345ff9"},"vehicle_type_id":"4","last_reported":1746793183,"current_range_meters":16800,"station_id":"ce4bhph2rcd13ifvqhdg","pricing_plan_id":"cebpf4jnsgd1na2vs0mg"},{"bike_id":"9d5f51b6-844c-4d70-a1db-8fd8fc1a0846","system_id":"levelo_inurba_marseille","lat":43.32659,"lon":5.40992,"is_reserved":false,"is_disabled":false,"rental_uris":{"android":"levelo://app?vid=9d5f51b6-844c-4d70-a1db-8fd8fc1a0846","ios":"levelo://app?vid=9d5f51b6-844c-4d70-a1db-8fd8fc1a0846"},"vehicle_type_id":"4","last_reported":1746793183,"current_range_meters":16800,"station_id":"ce4bhpp2rcd13ifvqhgg","pricing_plan_id":"cebpf4jnsgd1na2vs0mg"},{"bike_id":"0bdcdff3-8294-49b9-80e9-145bbc1ad711","system_id":"levelo_inurba_marseille","lat":43.32257,"lon":5.36785,"is_reserved":false,"is_disabled":false,"rental_uris":{"android":"levelo://app?vid=0bdcdff3-8294-49b9-80e9-145bbc1ad711","ios":"levelo://app?vid=0bdcdff3-8294-49b9-80e9-145bbc1ad711"},"vehicle_type_id":"4","last_reported":1746793183,"current_range_meters":17200,"station_id":"","pricing_plan_id":"cebpf4jnsgd1na2vs0mg"},{"bike_id":"5f80f2dd-3741-468c-a68a-b12581b6d6dc","system_id":"levelo_inurba_marseille","lat":43.29726,"lon":5.37689,"is_reserved":false,"is_disabled":false,"rental_uris":{"android":"levelo://app?vid=5f80f2dd-3741-468c-a68a-b12581b6d6dc","ios":"levelo://app?vid=5f80f2dd-3741-468c-a68a-b12581b6d6dc"},"vehicle_type_id":"4","last_reported":1746793183,"current_range_meters":17200,"station_id":"ce4bgkh2rcd13ifvqbl0","pricing_plan_id":"cebpf4jnsgd1na2vs0mg"},{"bike_id":"853f7e14-6a93-46df-978e-81a3d7f36783","system_id":"levelo_inurba_marseille","lat":43.21749,"lon":5.34605,"is_reserved":false,"is_disabled":false,"rental_uris":{"android":"levelo://app?vid=853f7e14-6a93-46df-978e-81a3d7f36783","ios":"levelo://app?vid=853f7e14-6a93-46df-978e-81a3d7f36783"},"vehicle_type_id":"4","last_reported":1746793183,"current_range_meters":17200,"station_id":"st_cvj6r9ubvosntc0bgbag","pricing_plan_id":"cebpf4jnsgd1na2vs0mg"},{"bike_id":"db1d5f79-a0ff-42df-aeb5-73a9037e3c59","system_id":"levelo_inurba_marseille","lat":43.305525,"lon":5.365147,"is_reserved":false,"is_disabled":false,"rental_uris":{"android":"levelo://app?vid=db1d5f79-a0ff-42df-aeb5-73a9037e3c59","ios":"levelo://app?vid=db1d5f79-a0ff-42df-aeb5-73a9037e3c59"},"vehicle_type_id":"4","last_reported":1746793183,"current_range_meters":17600,"station_id":"ce4bgs12rcd13ifvqcag","pricing_plan_id":"cebpf4jnsgd1na2vs0mg"},{"bike_id":"19fbfea0-3b16-459f-b5df-95ecc2acee0f","system_id":"levelo_inurba_marseille","lat":43.270595,"lon":5.402573,"is_reserved":false,"is_disabled":false,"rental_uris":{"android":"levelo://app?vid=19fbfea0-3b16-459f-b5df-95ecc2acee0f","ios":"levelo://app?vid=19fbfea0-3b16-459f-b5df-95ecc2acee0f"},"vehicle_type_id":"4","last_reported":1746793183,"current_range_meters":17600,"station_id":"ce4bhk92rcd13ifvqgc0","pricing_plan_id":"cebpf4jnsgd1na2vs0mg"},{"bike_id":"9f81d7ae-b6fc-4e6b-b3bf-37321ac064e4","system_id":"levelo_inurba_marseille","lat":43.27502,"lon":5.42452,"is_reserved":false,"is_disabled":false,"rental_uris":{"android":"levelo://app?vid=9f81d7ae-b6fc-4e6b-b3bf-37321ac064e4","ios":"levelo://app?vid=9f81d7ae-b6fc-4e6b-b3bf-37321ac064e4"},"vehicle_type_id":"4","last_reported":1746793183,"current_range_meters":17600,"station_id":"ce4bhn92rcd13ifvqgrg","pricing_plan_id":"cebpf4jnsgd1na2vs0mg"},{"bike_id":"45f304c6-9beb-4caf-8dd4-5d48e6d65965","system_id":"levelo_inurba_marseille","lat":43.24073,"lon":5.3776,"is_reserved":false,"is_disabled":false,"rental_uris":{"android":"levelo://app?vid=45f304c6-9beb-4caf-8dd4-5d48e6d65965","ios":"levelo://app?vid=45f304c6-9beb-4caf-8dd4-5d48e6d65965"},"vehicle_type_id":"4","last_reported":1746793183,"current_range_meters":17600,"station_id":"ce4bhnp2rcd13ifvqgvg","pricing_plan_id":"cebpf4jnsgd1na2vs0mg"},{"bike_id":"3e7c6aae-b2bc-4dc1-ae18-e8b01d55045f","system_id":"levelo_inurba_marseille","lat":43.24645,"lon":5.43641,"is_reserved":false,"is_disabled":false,"rental_uris":{"android":"levelo://app?vid=3e7c6aae-b2bc-4dc1-ae18-e8b01d55045f","ios":"levelo://app?vid=3e7c6aae-b2bc-4dc1-ae18-e8b01d55045f"},"vehicle_type_id":"4","last_reported":1746793183,"current_range_meters":18000,"station_id":"","pricing_plan_id":"cebpf4jnsgd1na2vs0mg"},{"bike_id":"f47c354d-4df5-4764-bb37-f38c7275cd81","system_id":"levelo_inurba_marseille","lat":43.29517,"lon":5.38523,"is_reserved":false,"is_disabled":false,"rental_uris":{"android":"levelo://app?vid=f47c354d-4df5-4764-bb37-f38c7275cd81","ios":"levelo://app?vid=f47c354d-4df5-4764-bb37-f38c7275cd81"},"vehicle_type_id":"4","last_reported":1746793183,"current_range_meters":18000,"station_id":"ce4bgih2rcd13ifvqba0","pricing_plan_id":"cebpf4jnsgd1na2vs0mg"},{"bike_id":"f117d4e5-d346-423f-9f4e-8d4b579fc384","system_id":"levelo_inurba_marseille","lat":43.28714,"lon":5.37386,"is_reserved":false,"is_disabled":false,"rental_uris":{"android":"levelo://app?vid=f117d4e5-d346-423f-9f4e-8d4b579fc384","ios":"levelo://app?vid=f117d4e5-d346-423f-9f4e-8d4b579fc384"},"vehicle_type_id":"4","last_reported":1746793183,"current_range_meters":18000,"station_id":"ce4bh3p2rcd13ifvqdq0","pricing_plan_id":"cebpf4jnsgd1na2vs0mg"},{"bike_id":"0a1a2cf6-8ec4-4374-a505-7537295ab120","system_id":"levelo_inurba_marseille","lat":43.33607,"lon":5.4097,"is_reserved":false,"is_disabled":false,"rental_uris":{"android":"levelo://app?vid=0a1a2cf6-8ec4-4374-a505-7537295ab120","ios":"levelo://app?vid=0a1a2cf6-8ec4-4374-a505-7537295ab120"},"vehicle_type_id":"4","last_reported":1746793183,"current_range_meters":18800,"station_id":"","pricing_plan_id":"cebpf4jnsgd1na2vs0mg"},{"bike_id":"887229d0-0703-4b3c-b796-41918eccc2ab","system_id":"levelo_inurba_marseille","lat":43.27593,"lon":5.3611,"is_reserved":false,"is_disabled":false,"rental_uris":{"android":"levelo://app?vid=887229d0-0703-4b3c-b796-41918eccc2ab","ios":"levelo://app?vid=887229d0-0703-4b3c-b796-41918eccc2ab"},"vehicle_type_id":"4","last_reported":1746793183,"current_range_meters":18800,"station_id":"ce4bgj92rcd13ifvqbe0","pricing_plan_id":"cebpf4jnsgd1na2vs0mg"},{"bike_id":"040cb013-e167-414e-a82f-21c62ed1efa0","system_id":"levelo_inurba_marseille","lat":43.29587,"lon":5.36735,"is_reserved":false,"is_disabled":false,"rental_uris":{"android":"levelo://app?vid=040cb013-e167-414e-a82f-21c62ed1efa0","ios":"levelo://app?vid=040cb013-e167-414e-a82f-21c62ed1efa0"},"vehicle_type_id":"4","last_reported":1746793183,"current_range_meters":18800,"station_id":"ce4bgph2rcd13ifvqc2g","pricing_plan_id":"cebpf4jnsgd1na2vs0mg"},{"bike_id":"ab57908f-2357-4f42-821c-d939ac224854","system_id":"levelo_inurba_marseille","lat":43.28855,"lon":5.35851,"is_reserved":false,"is_disabled":false,"rental_uris":{"android":"levelo://app?vid=ab57908f-2357-4f42-821c-d939ac224854","ios":"levelo://app?vid=ab57908f-2357-4f42-821c-d939ac224854"},"vehicle_type_id":"4","last_reported":1746793183,"current_range_meters":18800,"station_id":"ce4bhb12rcd13ifvqem0","pricing_plan_id":"cebpf4jnsgd1na2vs0mg"},{"bike_id":"881c097a-b180-44f5-9d6b-1f54f714978b","system_id":"levelo_inurba_marseille","lat":43.270694,"lon":5.422918,"is_reserved":false,"is_disabled":false,"rental_uris":{"android":"levelo://app?vid=881c097a-b180-44f5-9d6b-1f54f714978b","ios":"levelo://app?vid=881c097a-b180-44f5-9d6b-1f54f714978b"},"vehicle_type_id":"4","last_reported":1746793183,"current_range_meters":18800,"station_id":"ce4bhk92rcd13ifvqgb0","pricing_plan_id":"cebpf4jnsgd1na2vs0mg"},{"bike_id":"c65732d7-d6e4-4134-b90d-85c2276db215","system_id":"levelo_inurba_marseille","lat":43.25907,"lon":5.40898,"is_reserved":false,"is_disabled":false,"rental_uris":{"android":"levelo://app?vid=c65732d7-d6e4-4134-b90d-85c2276db215","ios":"levelo://app?vid=c65732d7-d6e4-4134-b90d-85c2276db215"},"vehicle_type_id":"4","last_reported":1746793183,"current_range_meters":18800,"station_id":"ce4bhm92rcd13ifvqglg","pricing_plan_id":"cebpf4jnsgd1na2vs0mg"},{"bike_id":"624d3175-4cd8-4d4d-9282-7c42dbfe62ca","system_id":"levelo_inurba_marseille","lat":43.279392,"lon":5.410445,"is_reserved":false,"is_disabled":false,"rental_uris":{"android":"levelo://app?vid=624d3175-4cd8-4d4d-9282-7c42dbfe62ca","ios":"levelo://app?vid=624d3175-4cd8-4d4d-9282-7c42dbfe62ca"},"vehicle_type_id":"4","last_reported":1746793183,"current_range_meters":18800,"station_id":"ce4bhnp2rcd13ifvqh0g","pricing_plan_id":"cebpf4jnsgd1na2vs0mg"},{"bike_id":"5d3b5735-52d1-4688-95ef-4ce00bb900a3","system_id":"levelo_inurba_marseille","lat":43.30405,"lon":5.41736,"is_reserved":false,"is_disabled":false,"rental_uris":{"android":"levelo://app?vid=5d3b5735-52d1-4688-95ef-4ce00bb900a3","ios":"levelo://app?vid=5d3b5735-52d1-4688-95ef-4ce00bb900a3"},"vehicle_type_id":"4","last_reported":1746793183,"current_range_meters":18800,"station_id":"ce4bhop2rcd13ifvqh7g","pricing_plan_id":"cebpf4jnsgd1na2vs0mg"},{"bike_id":"e7d7da68-c00d-4d1e-971e-678a5e9bbc85","system_id":"levelo_inurba_marseille","lat":43.29926,"lon":5.36549,"is_reserved":false,"is_disabled":false,"rental_uris":{"android":"levelo://app?vid=e7d7da68-c00d-4d1e-971e-678a5e9bbc85","ios":"levelo://app?vid=e7d7da68-c00d-4d1e-971e-678a5e9bbc85"},"vehicle_type_id":"4","last_reported":1746793183,"current_range_meters":19200,"station_id":"","pricing_plan_id":"cebpf4jnsgd1na2vs0mg"},{"bike_id":"a3696baa-cc66-48e9-be59-6ae7ed7d7d04","system_id":"levelo_inurba_marseille","lat":43.32282,"lon":5.36769,"is_reserved":false,"is_disabled":false,"rental_uris":{"android":"levelo://app?vid=a3696baa-cc66-48e9-be59-6ae7ed7d7d04","ios":"levelo://app?vid=a3696baa-cc66-48e9-be59-6ae7ed7d7d04"},"vehicle_type_id":"4","last_reported":1746793183,"current_range_meters":19200,"station_id":"","pricing_plan_id":"cebpf4jnsgd1na2vs0mg"},{"bike_id":"545e5687-b7df-4883-81be-75a8925d5f91","system_id":"levelo_inurba_marseille","lat":43.337444,"lon":5.374475,"is_reserved":false,"is_disabled":false,"rental_uris":{"android":"levelo://app?vid=545e5687-b7df-4883-81be-75a8925d5f91","ios":"levelo://app?vid=545e5687-b7df-4883-81be-75a8925d5f91"},"vehicle_type_id":"4","last_reported":1746793183,"current_range_meters":19200,"station_id":"","pricing_plan_id":"cebpf4jnsgd1na2vs0mg"},{"bike_id":"8d013404-2553-48ab-8026-6ed37891fe5d","system_id":"levelo_inurba_marseille","lat":43.297793,"lon":5.381204,"is_reserved":false,"is_disabled":false,"rental_uris":{"android":"levelo://app?vid=8d013404-2553-48ab-8026-6ed37891fe5d","ios":"levelo://app?vid=8d013404-2553-48ab-8026-6ed37891fe5d"},"vehicle_type_id":"4","last_reported":1746793183,"current_range_meters":19200,"station_id":"ce4bgip2rcd13ifvqbb0","pricing_plan_id":"cebpf4jnsgd1na2vs0mg"},{"bike_id":"a8472821-ac6c-4cb3-aea8-6d5dd2cc3a4c","system_id":"levelo_inurba_marseille","lat":43.30536,"lon":5.36694,"is_reserved":false,"is_disabled":false,"rental_uris":{"android":"levelo://app?vid=a8472821-ac6c-4cb3-aea8-6d5dd2cc3a4c","ios":"levelo://app?vid=a8472821-ac6c-4cb3-aea8-6d5dd2cc3a4c"},"vehicle_type_id":"4","last_reported":1746793183,"current_range_meters":19200,"station_id":"ce4bgrp2rcd13ifvqc9g","pricing_plan_id":"cebpf4jnsgd1na2vs0mg"},{"bike_id":"7add9e39-d572-4f5d-bf63-b79a864705ff","system_id":"levelo_inurba_marseille","lat":43.301254,"lon":5.398569,"is_reserved":false,"is_disabled":false,"rental_uris":{"android":"levelo://app?vid=7add9e39-d572-4f5d-bf63-b79a864705ff","ios":"levelo://app?vid=7add9e39-d572-4f5d-bf63-b79a864705ff"},"vehicle_type_id":"4","last_reported":1746793183,"current_range_meters":19200,"station_id":"ce4bh0h2rcd13ifvqd40","pricing_plan_id":"cebpf4jnsgd1na2vs0mg"},{"bike_id":"1977d9e3-7773-4069-9bb2-5953557f1100","system_id":"levelo_inurba_marseille","lat":43.29008,"lon":5.35611,"is_reserved":false,"is_disabled":false,"rental_uris":{"android":"levelo://app?vid=1977d9e3-7773-4069-9bb2-5953557f1100","ios":"levelo://app?vid=1977d9e3-7773-4069-9bb2-5953557f1100"},"vehicle_type_id":"4","last_reported":1746793183,"current_range_meters":19200,"station_id":"ce4bhb92rcd13ifvqen0","pricing_plan_id":"cebpf4jnsgd1na2vs0mg"},{"bike_id":"70446a6e-b434-4818-b3e3-97dc15c1542d","system_id":"levelo_inurba_marseille","lat":43.27687,"lon":5.38865,"is_reserved":false,"is_disabled":false,"rental_uris":{"android":"levelo://app?vid=70446a6e-b434-4818-b3e3-97dc15c1542d","ios":"levelo://app?vid=70446a6e-b434-4818-b3e3-97dc15c1542d"},"vehicle_type_id":"4","last_reported":1746793183,"current_range_meters":19200,"station_id":"ce4bhi12rcd13ifvqfo0","pricing_plan_id":"cebpf4jnsgd1na2vs0mg"},{"bike_id":"2b695556-5fdc-4725-a789-9b7b81b7a3a6","system_id":"levelo_inurba_marseille","lat":43.32355,"lon":5.367505,"is_reserved":false,"is_disabled":false,"rental_uris":{"android":"levelo://app?vid=2b695556-5fdc-4725-a789-9b7b81b7a3a6","ios":"levelo://app?vid=2b695556-5fdc-4725-a789-9b7b81b7a3a6"},"vehicle_type_id":"4","last_reported":1746793183,"current_range_meters":19200,"station_id":"ce4bhsh2rcd13ifvqi2g","pricing_plan_id":"cebpf4jnsgd1na2vs0mg"},{"bike_id":"fa1b1f66-7519-42e8-92aa-be43cf3d9e34","system_id":"levelo_inurba_marseille","lat":43.22506,"lon":5.3477,"is_reserved":false,"is_disabled":false,"rental_uris":{"android":"levelo://app?vid=fa1b1f66-7519-42e8-92aa-be43cf3d9e34","ios":"levelo://app?vid=fa1b1f66-7519-42e8-92aa-be43cf3d9e34"},"vehicle_type_id":"4","last_reported":1746793183,"current_range_meters":19200,"station_id":"st_cvj5dfep6f1abm77gieg","pricing_plan_id":"cebpf4jnsgd1na2vs0mg"},{"bike_id":"ce87aad3-e673-482d-89d2-65d4551f4afb","system_id":"levelo_inurba_marseille","lat":43.21748,"lon":5.34601,"is_reserved":false,"is_disabled":false,"rental_uris":{"android":"levelo://app?vid=ce87aad3-e673-482d-89d2-65d4551f4afb","ios":"levelo://app?vid=ce87aad3-e673-482d-89d2-65d4551f4afb"},"vehicle_type_id":"4","last_reported":1746793183,"current_range_meters":19200,"station_id":"st_cvj6r9ubvosntc0bgbag","pricing_plan_id":"cebpf4jnsgd1na2vs0mg"},{"bike_id":"fc2577e7-1497-425b-9d4f-ab8d7dc843c6","system_id":"levelo_inurba_marseille","lat":43.33771,"lon":5.37485,"is_reserved":false,"is_disabled":false,"rental_uris":{"android":"levelo://app?vid=fc2577e7-1497-425b-9d4f-ab8d7dc843c6","ios":"levelo://app?vid=fc2577e7-1497-425b-9d4f-ab8d7dc843c6"},"vehicle_type_id":"4","last_reported":1746793183,"current_range_meters":19600,"station_id":"","pricing_plan_id":"cebpf4jnsgd1na2vs0mg"},{"bike_id":"edd60f3c-8f20-43fd-b8a1-002c70da4042","system_id":"levelo_inurba_marseille","lat":43.24523,"lon":5.39573,"is_reserved":false,"is_disabled":false,"rental_uris":{"android":"levelo://app?vid=edd60f3c-8f20-43fd-b8a1-002c70da4042","ios":"levelo://app?vid=edd60f3c-8f20-43fd-b8a1-002c70da4042"},"vehicle_type_id":"4","last_reported":1746793183,"current_range_meters":19600,"station_id":"","pricing_plan_id":"cebpf4jnsgd1na2vs0mg"},{"bike_id":"66d39f5f-1aac-423b-9ea7-bf9c1b0e5079","system_id":"levelo_inurba_marseille","lat":43.2751,"lon":5.41126,"is_reserved":false,"is_disabled":false,"rental_uris":{"android":"levelo://app?vid=66d39f5f-1aac-423b-9ea7-bf9c1b0e5079","ios":"levelo://app?vid=66d39f5f-1aac-423b-9ea7-bf9c1b0e5079"},"vehicle_type_id":"4","last_reported":1746793183,"current_range_meters":19600,"station_id":"","pricing_plan_id":"cebpf4jnsgd1na2vs0mg"},{"bike_id":"0bc6ce9b-9564-43cc-a0b9-25a692a136eb","system_id":"levelo_inurba_marseille","lat":43.30131,"lon":5.38059,"is_reserved":false,"is_disabled":false,"rental_uris":{"android":"levelo://app?vid=0bc6ce9b-9564-43cc-a0b9-25a692a136eb","ios":"levelo://app?vid=0bc6ce9b-9564-43cc-a0b9-25a692a136eb"},"vehicle_type_id":"4","last_reported":1746793183,"current_range_meters":19600,"station_id":"ce4bgjp2rcd13ifvqbh0","pricing_plan_id":"cebpf4jnsgd1na2vs0mg"},{"bike_id":"976230e3-599c-405c-9f03-17b3ae4e6c44","system_id":"levelo_inurba_marseille","lat":43.30802,"lon":5.37652,"is_reserved":false,"is_disabled":false,"rental_uris":{"android":"levelo://app?vid=976230e3-599c-405c-9f03-17b3ae4e6c44","ios":"levelo://app?vid=976230e3-599c-405c-9f03-17b3ae4e6c44"},"vehicle_type_id":"4","last_reported":1746793183,"current_range_meters":19600,"station_id":"ce4bgv92rcd13ifvqcq0","pricing_plan_id":"cebpf4jnsgd1na2vs0mg"},{"bike_id":"9ee683af-8fd7-4f4f-8e73-9c641bd5dcae","system_id":"levelo_inurba_marseille","lat":43.289456,"lon":5.366414,"is_reserved":false,"is_disabled":false,"rental_uris":{"android":"levelo://app?vid=9ee683af-8fd7-4f4f-8e73-9c641bd5dcae","ios":"levelo://app?vid=9ee683af-8fd7-4f4f-8e73-9c641bd5dcae"},"vehicle_type_id":"4","last_reported":1746793183,"current_range_meters":19600,"station_id":"ce4bhap2rcd13ifvqek0","pricing_plan_id":"cebpf4jnsgd1na2vs0mg"},{"bike_id":"4d9e1017-1f04-4820-a2ac-c118c1438864","system_id":"levelo_inurba_marseille","lat":43.26563,"lon":5.39002,"is_reserved":false,"is_disabled":false,"rental_uris":{"android":"levelo://app?vid=4d9e1017-1f04-4820-a2ac-c118c1438864","ios":"levelo://app?vid=4d9e1017-1f04-4820-a2ac-c118c1438864"},"vehicle_type_id":"4","last_reported":1746793183,"current_range_meters":19600,"station_id":"ce4bhe12rcd13ifvqf30","pricing_plan_id":"cebpf4jnsgd1na2vs0mg"},{"bike_id":"a86d99db-8639-438b-b58b-8e88ded1f2ab","system_id":"levelo_inurba_marseille","lat":43.22499,"lon":5.3478,"is_reserved":false,"is_disabled":false,"rental_uris":{"android":"levelo://app?vid=a86d99db-8639-438b-b58b-8e88ded1f2ab","ios":"levelo://app?vid=a86d99db-8639-438b-b58b-8e88ded1f2ab"},"vehicle_type_id":"4","last_reported":1746793183,"current_range_meters":19600,"station_id":"st_cvj5dfep6f1abm77gieg","pricing_plan_id":"cebpf4jnsgd1na2vs0mg"},{"bike_id":"c8142ff4-c608-4b73-ac6a-4859689a35ab","system_id":"levelo_inurba_marseille","lat":43.30959,"lon":5.39031,"is_reserved":false,"is_disabled":false,"rental_uris":{"android":"levelo://app?vid=c8142ff4-c608-4b73-ac6a-4859689a35ab","ios":"levelo://app?vid=c8142ff4-c608-4b73-ac6a-4859689a35ab"},"vehicle_type_id":"4","last_reported":1746793183,"current_range_meters":20000,"station_id":"ce4bgup2rcd13ifvqco0","pricing_plan_id":"cebpf4jnsgd1na2vs0mg"},{"bike_id":"9b84e65f-2424-4f8e-b51b-21355d123536","system_id":"levelo_inurba_marseille","lat":43.31507,"lon":5.37251,"is_reserved":false,"is_disabled":false,"rental_uris":{"android":"levelo://app?vid=9b84e65f-2424-4f8e-b51b-21355d123536","ios":"levelo://app?vid=9b84e65f-2424-4f8e-b51b-21355d123536"},"vehicle_type_id":"4","last_reported":1746793183,"current_range_meters":20400,"station_id":"","pricing_plan_id":"cebpf4jnsgd1na2vs0mg"},{"bike_id":"31a2d2c8-f240-4ce3-9c3c-76d38878780b","system_id":"levelo_inurba_marseille","lat":43.3011,"lon":5.38786,"is_reserved":false,"is_disabled":false,"rental_uris":{"android":"levelo://app?vid=31a2d2c8-f240-4ce3-9c3c-76d38878780b","ios":"levelo://app?vid=31a2d2c8-f240-4ce3-9c3c-76d38878780b"},"vehicle_type_id":"4","last_reported":1746793183,"current_range_meters":20400,"station_id":"","pricing_plan_id":"cebpf4jnsgd1na2vs0mg"},{"bike_id":"a1121b36-b5cd-4dda-96ef-13a3dfaa55e1","system_id":"levelo_inurba_marseille","lat":43.301401,"lon":5.387791,"is_reserved":false,"is_disabled":false,"rental_uris":{"android":"levelo://app?vid=a1121b36-b5cd-4dda-96ef-13a3dfaa55e1","ios":"levelo://app?vid=a1121b36-b5cd-4dda-96ef-13a3dfaa55e1"},"vehicle_type_id":"4","last_reported":1746793183,"current_range_meters":20800,"station_id":"","pricing_plan_id":"cebpf4jnsgd1na2vs0mg"},{"bike_id":"488221fe-e0d3-4610-8ad0-2e0cc87fca2d","system_id":"levelo_inurba_marseille","lat":43.30211,"lon":5.39461,"is_reserved":false,"is_disabled":false,"rental_uris":{"android":"levelo://app?vid=488221fe-e0d3-4610-8ad0-2e0cc87fca2d","ios":"levelo://app?vid=488221fe-e0d3-4610-8ad0-2e0cc87fca2d"},"vehicle_type_id":"4","last_reported":1746793183,"current_range_meters":20800,"station_id":"ce4bh0p2rcd13ifvqd70","pricing_plan_id":"cebpf4jnsgd1na2vs0mg"},{"bike_id":"6a843f17-6a48-4935-bd02-241b430c9896","system_id":"levelo_inurba_marseille","lat":43.2573,"lon":5.41103,"is_reserved":false,"is_disabled":false,"rental_uris":{"android":"levelo://app?vid=6a843f17-6a48-4935-bd02-241b430c9896","ios":"levelo://app?vid=6a843f17-6a48-4935-bd02-241b430c9896"},"vehicle_type_id":"4","last_reported":1746793183,"current_range_meters":21600,"station_id":"ce4bhkp2rcd13ifvqgd0","pricing_plan_id":"cebpf4jnsgd1na2vs0mg"},{"bike_id":"a7ad83d4-b109-4b29-aaf3-aaaf261d1a57","system_id":"levelo_inurba_marseille","lat":43.25933,"lon":5.40902,"is_reserved":false,"is_disabled":false,"rental_uris":{"android":"levelo://app?vid=a7ad83d4-b109-4b29-aaf3-aaaf261d1a57","ios":"levelo://app?vid=a7ad83d4-b109-4b29-aaf3-aaaf261d1a57"},"vehicle_type_id":"4","last_reported":1746793183,"current_range_meters":21600,"station_id":"ce4bhm92rcd13ifvqglg","pricing_plan_id":"cebpf4jnsgd1na2vs0mg"},{"bike_id":"85f19639-897f-4954-bb9a-6b54d2e69953","system_id":"levelo_inurba_marseille","lat":43.23184,"lon":5.39969,"is_reserved":false,"is_disabled":false,"rental_uris":{"android":"levelo://app?vid=85f19639-897f-4954-bb9a-6b54d2e69953","ios":"levelo://app?vid=85f19639-897f-4954-bb9a-6b54d2e69953"},"vehicle_type_id":"4","last_reported":1746793183,"current_range_meters":21600,"station_id":"ce4bhn12rcd13ifvqgqg","pricing_plan_id":"cebpf4jnsgd1na2vs0mg"},{"bike_id":"a363fb4f-bbf2-435c-8d18-361876ada10d","system_id":"levelo_inurba_marseille","lat":43.21194,"lon":5.35073,"is_reserved":false,"is_disabled":false,"rental_uris":{"android":"levelo://app?vid=a363fb4f-bbf2-435c-8d18-361876ada10d","ios":"levelo://app?vid=a363fb4f-bbf2-435c-8d18-361876ada10d"},"vehicle_type_id":"4","last_reported":1746793183,"current_range_meters":21600,"station_id":"st_cvj6sg6p6f1abm77japg","pricing_plan_id":"cebpf4jnsgd1na2vs0mg"},{"bike_id":"d34b8047-ad1f-4a20-99a2-82c80676028b","system_id":"levelo_inurba_marseille","lat":43.29415,"lon":5.39754,"is_reserved":false,"is_disabled":false,"rental_uris":{"android":"levelo://app?vid=d34b8047-ad1f-4a20-99a2-82c80676028b","ios":"levelo://app?vid=d34b8047-ad1f-4a20-99a2-82c80676028b"},"vehicle_type_id":"4","last_reported":1746793183,"current_range_meters":22000,"station_id":"ce4bh3h2rcd13ifvqdo0","pricing_plan_id":"cebpf4jnsgd1na2vs0mg"},{"bike_id":"9c15ab48-4668-437d-b799-bcc6b68f2dd2","system_id":"levelo_inurba_marseille","lat":43.27919,"lon":5.39576,"is_reserved":false,"is_disabled":false,"rental_uris":{"android":"levelo://app?vid=9c15ab48-4668-437d-b799-bcc6b68f2dd2","ios":"levelo://app?vid=9c15ab48-4668-437d-b799-bcc6b68f2dd2"},"vehicle_type_id":"4","last_reported":1746793183,"current_range_meters":22000,"station_id":"ce4bhf92rcd13ifvqf40","pricing_plan_id":"cebpf4jnsgd1na2vs0mg"},{"bike_id":"2d6856ac-db8e-4729-a56c-d8940dfaff9b","system_id":"levelo_inurba_marseille","lat":43.259393,"lon":5.409039,"is_reserved":false,"is_disabled":false,"rental_uris":{"android":"levelo://app?vid=2d6856ac-db8e-4729-a56c-d8940dfaff9b","ios":"levelo://app?vid=2d6856ac-db8e-4729-a56c-d8940dfaff9b"},"vehicle_type_id":"4","last_reported":1746793183,"current_range_meters":22000,"station_id":"ce4bhm92rcd13ifvqglg","pricing_plan_id":"cebpf4jnsgd1na2vs0mg"},{"bike_id":"fcc5a475-5ad9-4783-93a7-f0efcfc89c98","system_id":"levelo_inurba_marseille","lat":43.29605,"lon":5.38108,"is_reserved":false,"is_disabled":false,"rental_uris":{"android":"levelo://app?vid=fcc5a475-5ad9-4783-93a7-f0efcfc89c98","ios":"levelo://app?vid=fcc5a475-5ad9-4783-93a7-f0efcfc89c98"},"vehicle_type_id":"4","last_reported":1746793183,"current_range_meters":22400,"station_id":"ce4bgl12rcd13ifvqbo0","pricing_plan_id":"cebpf4jnsgd1na2vs0mg"},{"bike_id":"7f26b5c9-fc01-4daf-94dd-4f64f2a168d1","system_id":"levelo_inurba_marseille","lat":43.295998,"lon":5.38104,"is_reserved":false,"is_disabled":false,"rental_uris":{"android":"levelo://app?vid=7f26b5c9-fc01-4daf-94dd-4f64f2a168d1","ios":"levelo://app?vid=7f26b5c9-fc01-4daf-94dd-4f64f2a168d1"},"vehicle_type_id":"4","last_reported":1746793183,"current_range_meters":22400,"station_id":"ce4bgl12rcd13ifvqbo0","pricing_plan_id":"cebpf4jnsgd1na2vs0mg"},{"bike_id":"80dcfcd5-f380-4cf6-840c-680c32e8b9e3","system_id":"levelo_inurba_marseille","lat":43.28466,"lon":5.35887,"is_reserved":false,"is_disabled":false,"rental_uris":{"android":"levelo://app?vid=80dcfcd5-f380-4cf6-840c-680c32e8b9e3","ios":"levelo://app?vid=80dcfcd5-f380-4cf6-840c-680c32e8b9e3"},"vehicle_type_id":"4","last_reported":1746793183,"current_range_meters":22400,"station_id":"ce4bhah2rcd13ifvqei0","pricing_plan_id":"cebpf4jnsgd1na2vs0mg"},{"bike_id":"589be833-6fc8-4c7e-abe3-20b2a016c12e","system_id":"levelo_inurba_marseille","lat":43.211911,"lon":5.350798,"is_reserved":false,"is_disabled":false,"rental_uris":{"android":"levelo://app?vid=589be833-6fc8-4c7e-abe3-20b2a016c12e","ios":"levelo://app?vid=589be833-6fc8-4c7e-abe3-20b2a016c12e"},"vehicle_type_id":"4","last_reported":1746793183,"current_range_meters":22400,"station_id":"st_cvj6sg6p6f1abm77japg","pricing_plan_id":"cebpf4jnsgd1na2vs0mg"},{"bike_id":"737d6b9e-1201-43d3-ade4-1cdf6e01a511","system_id":"levelo_inurba_marseille","lat":43.21189,"lon":5.35078,"is_reserved":false,"is_disabled":false,"rental_uris":{"android":"levelo://app?vid=737d6b9e-1201-43d3-ade4-1cdf6e01a511","ios":"levelo://app?vid=737d6b9e-1201-43d3-ade4-1cdf6e01a511"},"vehicle_type_id":"4","last_reported":1746793183,"current_range_meters":22400,"station_id":"st_cvj6sg6p6f1abm77japg","pricing_plan_id":"cebpf4jnsgd1na2vs0mg"},{"bike_id":"cdadda26-7251-4243-9f97-72602bf95900","system_id":"levelo_inurba_marseille","lat":43.2926,"lon":5.37622,"is_reserved":false,"is_disabled":false,"rental_uris":{"android":"levelo://app?vid=cdadda26-7251-4243-9f97-72602bf95900","ios":"levelo://app?vid=cdadda26-7251-4243-9f97-72602bf95900"},"vehicle_type_id":"4","last_reported":1746793183,"current_range_meters":22800,"station_id":"ce4bgi12rcd13ifvqb80","pricing_plan_id":"cebpf4jnsgd1na2vs0mg"},{"bike_id":"24c84b32-cbc7-4528-be97-f3e1ec6a5282","system_id":"levelo_inurba_marseille","lat":43.337444,"lon":5.374475,"is_reserved":false,"is_disabled":false,"rental_uris":{"android":"levelo://app?vid=24c84b32-cbc7-4528-be97-f3e1ec6a5282","ios":"levelo://app?vid=24c84b32-cbc7-4528-be97-f3e1ec6a5282"},"vehicle_type_id":"4","last_reported":1746793183,"current_range_meters":22800,"station_id":"ce4bgph2rcd13ifvqc2g","pricing_plan_id":"cebpf4jnsgd1na2vs0mg"},{"bike_id":"68dc225f-26f9-459e-80c2-20f21d359767","system_id":"levelo_inurba_marseille","lat":43.3033,"lon":5.40437,"is_reserved":false,"is_disabled":false,"rental_uris":{"android":"levelo://app?vid=68dc225f-26f9-459e-80c2-20f21d359767","ios":"levelo://app?vid=68dc225f-26f9-459e-80c2-20f21d359767"},"vehicle_type_id":"4","last_reported":1746793183,"current_range_meters":22800,"station_id":"ce4bh012rcd13ifvqd10","pricing_plan_id":"cebpf4jnsgd1na2vs0mg"},{"bike_id":"5d0baac8-2d99-4df1-9cc8-0d8195d10439","system_id":"levelo_inurba_marseille","lat":43.28425,"lon":5.34982,"is_reserved":false,"is_disabled":false,"rental_uris":{"android":"levelo://app?vid=5d0baac8-2d99-4df1-9cc8-0d8195d10439","ios":"levelo://app?vid=5d0baac8-2d99-4df1-9cc8-0d8195d10439"},"vehicle_type_id":"4","last_reported":1746793183,"current_range_meters":22800,"station_id":"ce4bhbh2rcd13ifvqepg","pricing_plan_id":"cebpf4jnsgd1na2vs0mg"},{"bike_id":"3b8aa428-be44-4b7c-bc5b-5f40f1b3ad78","system_id":"levelo_inurba_marseille","lat":43.25909,"lon":5.40895,"is_reserved":false,"is_disabled":false,"rental_uris":{"android":"levelo://app?vid=3b8aa428-be44-4b7c-bc5b-5f40f1b3ad78","ios":"levelo://app?vid=3b8aa428-be44-4b7c-bc5b-5f40f1b3ad78"},"vehicle_type_id":"4","last_reported":1746793183,"current_range_meters":22800,"station_id":"ce4bhm92rcd13ifvqglg","pricing_plan_id":"cebpf4jnsgd1na2vs0mg"},{"bike_id":"52756607-7827-4f61-8695-3cabe7ff1d7c","system_id":"levelo_inurba_marseille","lat":43.24158,"lon":5.39722,"is_reserved":false,"is_disabled":false,"rental_uris":{"android":"levelo://app?vid=52756607-7827-4f61-8695-3cabe7ff1d7c","ios":"levelo://app?vid=52756607-7827-4f61-8695-3cabe7ff1d7c"},"vehicle_type_id":"4","last_reported":1746793183,"current_range_meters":22800,"station_id":"ce4bhn12rcd13ifvqgpg","pricing_plan_id":"cebpf4jnsgd1na2vs0mg"},{"bike_id":"9064b38d-bcdb-4be1-b489-ce67e3b1bec7","system_id":"levelo_inurba_marseille","lat":43.27497,"lon":5.42449,"is_reserved":false,"is_disabled":false,"rental_uris":{"android":"levelo://app?vid=9064b38d-bcdb-4be1-b489-ce67e3b1bec7","ios":"levelo://app?vid=9064b38d-bcdb-4be1-b489-ce67e3b1bec7"},"vehicle_type_id":"4","last_reported":1746793183,"current_range_meters":22800,"station_id":"ce4bhn92rcd13ifvqgrg","pricing_plan_id":"cebpf4jnsgd1na2vs0mg"},{"bike_id":"e452c63a-c77f-4b5c-9712-2be0fc8111c4","system_id":"levelo_inurba_marseille","lat":43.325429,"lon":5.414299,"is_reserved":false,"is_disabled":false,"rental_uris":{"android":"levelo://app?vid=e452c63a-c77f-4b5c-9712-2be0fc8111c4","ios":"levelo://app?vid=e452c63a-c77f-4b5c-9712-2be0fc8111c4"},"vehicle_type_id":"4","last_reported":1746793183,"current_range_meters":22800,"station_id":"ce4bhq12rcd13ifvqhhg","pricing_plan_id":"cebpf4jnsgd1na2vs0mg"},{"bike_id":"b29d91df-e2cb-4a9b-b982-cdf67db12468","system_id":"levelo_inurba_marseille","lat":43.21749,"lon":5.34591,"is_reserved":false,"is_disabled":false,"rental_uris":{"android":"levelo://app?vid=b29d91df-e2cb-4a9b-b982-cdf67db12468","ios":"levelo://app?vid=b29d91df-e2cb-4a9b-b982-cdf67db12468"},"vehicle_type_id":"4","last_reported":1746793183,"current_range_meters":22800,"station_id":"st_cvj6r9ubvosntc0bgbag","pricing_plan_id":"cebpf4jnsgd1na2vs0mg"},{"bike_id":"ebd9cd36-3e01-451e-87f1-e01cc8b6b7fe","system_id":"levelo_inurba_marseille","lat":43.290159,"lon":5.381299,"is_reserved":false,"is_disabled":false,"rental_uris":{"android":"levelo://app?vid=ebd9cd36-3e01-451e-87f1-e01cc8b6b7fe","ios":"levelo://app?vid=ebd9cd36-3e01-451e-87f1-e01cc8b6b7fe"},"vehicle_type_id":"4","last_reported":1746793183,"current_range_meters":23200,"station_id":"","pricing_plan_id":"cebpf4jnsgd1na2vs0mg"},{"bike_id":"c732f0bf-c716-4d9a-acbd-ca09fa6c2922","system_id":"levelo_inurba_marseille","lat":43.29947,"lon":5.37457,"is_reserved":false,"is_disabled":false,"rental_uris":{"android":"levelo://app?vid=c732f0bf-c716-4d9a-acbd-ca09fa6c2922","ios":"levelo://app?vid=c732f0bf-c716-4d9a-acbd-ca09fa6c2922"},"vehicle_type_id":"4","last_reported":1746793183,"current_range_meters":23200,"station_id":"ce4bgjh2rcd13ifvqbg0","pricing_plan_id":"cebpf4jnsgd1na2vs0mg"},{"bike_id":"229359d9-1c94-4966-917d-184906ea0e90","system_id":"levelo_inurba_marseille","lat":43.29553,"lon":5.37474,"is_reserved":false,"is_disabled":false,"rental_uris":{"android":"levelo://app?vid=229359d9-1c94-4966-917d-184906ea0e90","ios":"levelo://app?vid=229359d9-1c94-4966-917d-184906ea0e90"},"vehicle_type_id":"4","last_reported":1746793183,"current_range_meters":23200,"station_id":"ce4bgkp2rcd13ifvqbmg","pricing_plan_id":"cebpf4jnsgd1na2vs0mg"},{"bike_id":"f8adaeb3-3ebe-43fc-a534-d87a58e08537","system_id":"levelo_inurba_marseille","lat":43.306,"lon":5.37222,"is_reserved":false,"is_disabled":false,"rental_uris":{"android":"levelo://app?vid=f8adaeb3-3ebe-43fc-a534-d87a58e08537","ios":"levelo://app?vid=f8adaeb3-3ebe-43fc-a534-d87a58e08537"},"vehicle_type_id":"4","last_reported":1746793183,"current_range_meters":23200,"station_id":"ce4bgqh2rcd13ifvqc4g","pricing_plan_id":"cebpf4jnsgd1na2vs0mg"},{"bike_id":"e4fdaf39-6f56-4fe3-be8e-8d1c0ff87f78","system_id":"levelo_inurba_marseille","lat":43.28936,"lon":5.36627,"is_reserved":false,"is_disabled":false,"rental_uris":{"android":"levelo://app?vid=e4fdaf39-6f56-4fe3-be8e-8d1c0ff87f78","ios":"levelo://app?vid=e4fdaf39-6f56-4fe3-be8e-8d1c0ff87f78"},"vehicle_type_id":"4","last_reported":1746793183,"current_range_meters":23200,"station_id":"ce4bhap2rcd13ifvqek0","pricing_plan_id":"cebpf4jnsgd1na2vs0mg"},{"bike_id":"7365be41-1046-4ddc-b6a7-e28a1ad56b2a","system_id":"levelo_inurba_marseille","lat":43.325483,"lon":5.414466,"is_reserved":false,"is_disabled":false,"rental_uris":{"android":"levelo://app?vid=7365be41-1046-4ddc-b6a7-e28a1ad56b2a","ios":"levelo://app?vid=7365be41-1046-4ddc-b6a7-e28a1ad56b2a"},"vehicle_type_id":"4","last_reported":1746793183,"current_range_meters":23200,"station_id":"ce4bhq12rcd13ifvqhhg","pricing_plan_id":"cebpf4jnsgd1na2vs0mg"},{"bike_id":"11bac9a6-0e04-4c68-9615-f13539342864","system_id":"levelo_inurba_marseille","lat":43.21193,"lon":5.35073,"is_reserved":false,"is_disabled":false,"rental_uris":{"android":"levelo://app?vid=11bac9a6-0e04-4c68-9615-f13539342864","ios":"levelo://app?vid=11bac9a6-0e04-4c68-9615-f13539342864"},"vehicle_type_id":"4","last_reported":1746793183,"current_range_meters":23200,"station_id":"st_cvj6sg6p6f1abm77japg","pricing_plan_id":"cebpf4jnsgd1na2vs0mg"},{"bike_id":"941c045f-3f4f-446e-84e5-87f9fe70ba48","system_id":"levelo_inurba_marseille","lat":43.30529,"lon":5.36561,"is_reserved":false,"is_disabled":false,"rental_uris":{"android":"levelo://app?vid=941c045f-3f4f-446e-84e5-87f9fe70ba48","ios":"levelo://app?vid=941c045f-3f4f-446e-84e5-87f9fe70ba48"},"vehicle_type_id":"4","last_reported":1746793183,"current_range_meters":24000,"station_id":"ce4bgs12rcd13ifvqcag","pricing_plan_id":"cebpf4jnsgd1na2vs0mg"},{"bike_id":"6013788c-8886-4213-9701-e5ef7f86dfb4","system_id":"levelo_inurba_marseille","lat":43.2894,"lon":5.3664,"is_reserved":false,"is_disabled":false,"rental_uris":{"android":"levelo://app?vid=6013788c-8886-4213-9701-e5ef7f86dfb4","ios":"levelo://app?vid=6013788c-8886-4213-9701-e5ef7f86dfb4"},"vehicle_type_id":"4","last_reported":1746793183,"current_range_meters":24000,"station_id":"ce4bhap2rcd13ifvqek0","pricing_plan_id":"cebpf4jnsgd1na2vs0mg"},{"bike_id":"12e66151-36a7-466f-91cb-e261fd4567f4","system_id":"levelo_inurba_marseille","lat":43.2826,"lon":5.35067,"is_reserved":false,"is_disabled":false,"rental_uris":{"android":"levelo://app?vid=12e66151-36a7-466f-91cb-e261fd4567f4","ios":"levelo://app?vid=12e66151-36a7-466f-91cb-e261fd4567f4"},"vehicle_type_id":"4","last_reported":1746793183,"current_range_meters":24000,"station_id":"ce4bhbp2rcd13ifvqerg","pricing_plan_id":"cebpf4jnsgd1na2vs0mg"},{"bike_id":"152aadb7-05ab-41de-8a93-0a2e89ca3081","system_id":"levelo_inurba_marseille","lat":43.25919,"lon":5.40899,"is_reserved":false,"is_disabled":false,"rental_uris":{"android":"levelo://app?vid=152aadb7-05ab-41de-8a93-0a2e89ca3081","ios":"levelo://app?vid=152aadb7-05ab-41de-8a93-0a2e89ca3081"},"vehicle_type_id":"4","last_reported":1746793183,"current_range_meters":24000,"station_id":"ce4bhm92rcd13ifvqglg","pricing_plan_id":"cebpf4jnsgd1na2vs0mg"},{"bike_id":"b5ddd1e4-e644-4753-80a4-3d1cc06ff4a5","system_id":"levelo_inurba_marseille","lat":43.31086,"lon":5.424285,"is_reserved":false,"is_disabled":false,"rental_uris":{"android":"levelo://app?vid=b5ddd1e4-e644-4753-80a4-3d1cc06ff4a5","ios":"levelo://app?vid=b5ddd1e4-e644-4753-80a4-3d1cc06ff4a5"},"vehicle_type_id":"4","last_reported":1746793183,"current_range_meters":24000,"station_id":"ce4bhp92rcd13ifvqhag","pricing_plan_id":"cebpf4jnsgd1na2vs0mg"},{"bike_id":"c1a49ae2-abe6-4462-af59-da3fa37a7598","system_id":"levelo_inurba_marseille","lat":43.31756,"lon":5.39013,"is_reserved":false,"is_disabled":false,"rental_uris":{"android":"levelo://app?vid=c1a49ae2-abe6-4462-af59-da3fa37a7598","ios":"levelo://app?vid=c1a49ae2-abe6-4462-af59-da3fa37a7598"},"vehicle_type_id":"4","last_reported":1746793183,"current_range_meters":24000,"station_id":"ce4bhqp2rcd13ifvqhng","pricing_plan_id":"cebpf4jnsgd1na2vs0mg"},{"bike_id":"f5e4d53b-010b-4958-9cf7-a9a597e2d9b5","system_id":"levelo_inurba_marseille","lat":43.32276,"lon":5.3673,"is_reserved":false,"is_disabled":false,"rental_uris":{"android":"levelo://app?vid=f5e4d53b-010b-4958-9cf7-a9a597e2d9b5","ios":"levelo://app?vid=f5e4d53b-010b-4958-9cf7-a9a597e2d9b5"},"vehicle_type_id":"4","last_reported":1746793183,"current_range_meters":24400,"station_id":"","pricing_plan_id":"cebpf4jnsgd1na2vs0mg"},{"bike_id":"0d48673a-c05b-4f24-8e37-3eab7126502e","system_id":"levelo_inurba_marseille","lat":43.3138,"lon":5.38505,"is_reserved":false,"is_disabled":false,"rental_uris":{"android":"levelo://app?vid=0d48673a-c05b-4f24-8e37-3eab7126502e","ios":"levelo://app?vid=0d48673a-c05b-4f24-8e37-3eab7126502e"},"vehicle_type_id":"4","last_reported":1746793183,"current_range_meters":24400,"station_id":"ce4bgt92rcd13ifvqcf0","pricing_plan_id":"cebpf4jnsgd1na2vs0mg"},{"bike_id":"6e3ee9cc-044f-46f0-bd78-d7860946c72a","system_id":"levelo_inurba_marseille","lat":43.29042,"lon":5.39938,"is_reserved":false,"is_disabled":false,"rental_uris":{"android":"levelo://app?vid=6e3ee9cc-044f-46f0-bd78-d7860946c72a","ios":"levelo://app?vid=6e3ee9cc-044f-46f0-bd78-d7860946c72a"},"vehicle_type_id":"4","last_reported":1746793183,"current_range_meters":24400,"station_id":"ce4bh392rcd13ifvqdm0","pricing_plan_id":"cebpf4jnsgd1na2vs0mg"},{"bike_id":"9271e97a-613b-453c-8487-833ef6dfacb2","system_id":"levelo_inurba_marseille","lat":43.29038,"lon":5.37551,"is_reserved":false,"is_disabled":false,"rental_uris":{"android":"levelo://app?vid=9271e97a-613b-453c-8487-833ef6dfacb2","ios":"levelo://app?vid=9271e97a-613b-453c-8487-833ef6dfacb2"},"vehicle_type_id":"4","last_reported":1746793183,"current_range_meters":24400,"station_id":"ce4bh692rcd13ifvqe90","pricing_plan_id":"cebpf4jnsgd1na2vs0mg"},{"bike_id":"1b3a3f5a-9427-4910-8b15-abdfbb230571","system_id":"levelo_inurba_marseille","lat":43.26574,"lon":5.39035,"is_reserved":false,"is_disabled":false,"rental_uris":{"android":"levelo://app?vid=1b3a3f5a-9427-4910-8b15-abdfbb230571","ios":"levelo://app?vid=1b3a3f5a-9427-4910-8b15-abdfbb230571"},"vehicle_type_id":"4","last_reported":1746793183,"current_range_meters":24400,"station_id":"ce4bhe12rcd13ifvqf30","pricing_plan_id":"cebpf4jnsgd1na2vs0mg"},{"bike_id":"58df9785-e93f-4fb3-85c1-2fa95fe8309c","system_id":"levelo_inurba_marseille","lat":43.28003,"lon":5.40013,"is_reserved":false,"is_disabled":false,"rental_uris":{"android":"levelo://app?vid=58df9785-e93f-4fb3-85c1-2fa95fe8309c","ios":"levelo://app?vid=58df9785-e93f-4fb3-85c1-2fa95fe8309c"},"vehicle_type_id":"4","last_reported":1746793183,"current_range_meters":24400,"station_id":"ce4bho92rcd13ifvqh4g","pricing_plan_id":"cebpf4jnsgd1na2vs0mg"},{"bike_id":"d995c097-7163-4161-b21c-4a3153346d93","system_id":"levelo_inurba_marseille","lat":43.31712,"lon":5.43711,"is_reserved":false,"is_disabled":false,"rental_uris":{"android":"levelo://app?vid=d995c097-7163-4161-b21c-4a3153346d93","ios":"levelo://app?vid=d995c097-7163-4161-b21c-4a3153346d93"},"vehicle_type_id":"4","last_reported":1746793183,"current_range_meters":24400,"station_id":"ce4bhp92rcd13ifvqhcg","pricing_plan_id":"cebpf4jnsgd1na2vs0mg"},{"bike_id":"f52c819d-ca4b-4640-b458-b877db1bf990","system_id":"levelo_inurba_marseille","lat":43.29889,"lon":5.41032,"is_reserved":false,"is_disabled":false,"rental_uris":{"android":"levelo://app?vid=f52c819d-ca4b-4640-b458-b877db1bf990","ios":"levelo://app?vid=f52c819d-ca4b-4640-b458-b877db1bf990"},"vehicle_type_id":"4","last_reported":1746793183,"current_range_meters":24800,"station_id":"","pricing_plan_id":"cebpf4jnsgd1na2vs0mg"},{"bike_id":"db5c40b3-b343-4a74-b1e8-cafb84f98649","system_id":"levelo_inurba_marseille","lat":43.22351,"lon":5.34671,"is_reserved":false,"is_disabled":false,"rental_uris":{"android":"levelo://app?vid=db5c40b3-b343-4a74-b1e8-cafb84f98649","ios":"levelo://app?vid=db5c40b3-b343-4a74-b1e8-cafb84f98649"},"vehicle_type_id":"4","last_reported":1746793183,"current_range_meters":24800,"station_id":"","pricing_plan_id":"cebpf4jnsgd1na2vs0mg"},{"bike_id":"020b7142-3123-4bc9-884a-308b5142e38a","system_id":"levelo_inurba_marseille","lat":43.29974,"lon":5.38511,"is_reserved":false,"is_disabled":false,"rental_uris":{"android":"levelo://app?vid=020b7142-3123-4bc9-884a-308b5142e38a","ios":"levelo://app?vid=020b7142-3123-4bc9-884a-308b5142e38a"},"vehicle_type_id":"4","last_reported":1746793183,"current_range_meters":24800,"station_id":"ce4bgj92rcd13ifvqbd0","pricing_plan_id":"cebpf4jnsgd1na2vs0mg"},{"bike_id":"a6dea811-f996-4595-81ec-efa22a05d318","system_id":"levelo_inurba_marseille","lat":43.31232,"lon":5.36853,"is_reserved":false,"is_disabled":false,"rental_uris":{"android":"levelo://app?vid=a6dea811-f996-4595-81ec-efa22a05d318","ios":"levelo://app?vid=a6dea811-f996-4595-81ec-efa22a05d318"},"vehicle_type_id":"4","last_reported":1746793183,"current_range_meters":24800,"station_id":"ce4bgl92rcd13ifvqbq0","pricing_plan_id":"cebpf4jnsgd1na2vs0mg"},{"bike_id":"f0943fa2-0a49-45fc-84c1-5bbf38e96efd","system_id":"levelo_inurba_marseille","lat":43.312294,"lon":5.368501,"is_reserved":false,"is_disabled":false,"rental_uris":{"android":"levelo://app?vid=f0943fa2-0a49-45fc-84c1-5bbf38e96efd","ios":"levelo://app?vid=f0943fa2-0a49-45fc-84c1-5bbf38e96efd"},"vehicle_type_id":"4","last_reported":1746793183,"current_range_meters":24800,"station_id":"ce4bgl92rcd13ifvqbq0","pricing_plan_id":"cebpf4jnsgd1na2vs0mg"},{"bike_id":"26813e2d-e812-4f71-bccf-8b94cb04d36b","system_id":"levelo_inurba_marseille","lat":43.3133,"lon":5.36741,"is_reserved":false,"is_disabled":false,"rental_uris":{"android":"levelo://app?vid=26813e2d-e812-4f71-bccf-8b94cb04d36b","ios":"levelo://app?vid=26813e2d-e812-4f71-bccf-8b94cb04d36b"},"vehicle_type_id":"4","last_reported":1746793183,"current_range_meters":24800,"station_id":"ce4bgr92rcd13ifvqc6g","pricing_plan_id":"cebpf4jnsgd1na2vs0mg"},{"bike_id":"9d49c52d-cca8-4728-9c0b-2e2e8cc25e34","system_id":"levelo_inurba_marseille","lat":43.2997,"lon":5.37178,"is_reserved":false,"is_disabled":false,"rental_uris":{"android":"levelo://app?vid=9d49c52d-cca8-4728-9c0b-2e2e8cc25e34","ios":"levelo://app?vid=9d49c52d-cca8-4728-9c0b-2e2e8cc25e34"},"vehicle_type_id":"4","last_reported":1746793183,"current_range_meters":24800,"station_id":"ce4bgr92rcd13ifvqc7g","pricing_plan_id":"cebpf4jnsgd1na2vs0mg"},{"bike_id":"a0fc2312-df4f-4760-a22e-bf95e9a12ffd","system_id":"levelo_inurba_marseille","lat":43.29414,"lon":5.38627,"is_reserved":false,"is_disabled":false,"rental_uris":{"android":"levelo://app?vid=a0fc2312-df4f-4760-a22e-bf95e9a12ffd","ios":"levelo://app?vid=a0fc2312-df4f-4760-a22e-bf95e9a12ffd"},"vehicle_type_id":"4","last_reported":1746793183,"current_range_meters":24800,"station_id":"ce4bh2h2rcd13ifvqdh0","pricing_plan_id":"cebpf4jnsgd1na2vs0mg"},{"bike_id":"ff20cfb7-f752-4ead-8b1f-edac8f11b441","system_id":"levelo_inurba_marseille","lat":43.259399,"lon":5.409059,"is_reserved":false,"is_disabled":false,"rental_uris":{"android":"levelo://app?vid=ff20cfb7-f752-4ead-8b1f-edac8f11b441","ios":"levelo://app?vid=ff20cfb7-f752-4ead-8b1f-edac8f11b441"},"vehicle_type_id":"4","last_reported":1746793183,"current_range_meters":24800,"station_id":"ce4bhm92rcd13ifvqglg","pricing_plan_id":"cebpf4jnsgd1na2vs0mg"},{"bike_id":"7af65dfd-5893-47c6-a222-320ae5f370e7","system_id":"levelo_inurba_marseille","lat":43.24169,"lon":5.39739,"is_reserved":false,"is_disabled":false,"rental_uris":{"android":"levelo://app?vid=7af65dfd-5893-47c6-a222-320ae5f370e7","ios":"levelo://app?vid=7af65dfd-5893-47c6-a222-320ae5f370e7"},"vehicle_type_id":"4","last_reported":1746793183,"current_range_meters":24800,"station_id":"ce4bhn12rcd13ifvqgpg","pricing_plan_id":"cebpf4jnsgd1na2vs0mg"},{"bike_id":"61aff41c-8ba3-41ec-af9e-2de143a1b3a7","system_id":"levelo_inurba_marseille","lat":43.27486,"lon":5.42457,"is_reserved":false,"is_disabled":false,"rental_uris":{"android":"levelo://app?vid=61aff41c-8ba3-41ec-af9e-2de143a1b3a7","ios":"levelo://app?vid=61aff41c-8ba3-41ec-af9e-2de143a1b3a7"},"vehicle_type_id":"4","last_reported":1746793183,"current_range_meters":24800,"station_id":"ce4bhn92rcd13ifvqgrg","pricing_plan_id":"cebpf4jnsgd1na2vs0mg"},{"bike_id":"830ca2f3-14a2-40d4-b14d-f14634d8ac66","system_id":"levelo_inurba_marseille","lat":43.31717,"lon":5.43708,"is_reserved":false,"is_disabled":false,"rental_uris":{"android":"levelo://app?vid=830ca2f3-14a2-40d4-b14d-f14634d8ac66","ios":"levelo://app?vid=830ca2f3-14a2-40d4-b14d-f14634d8ac66"},"vehicle_type_id":"4","last_reported":1746793183,"current_range_meters":24800,"station_id":"ce4bhp92rcd13ifvqhcg","pricing_plan_id":"cebpf4jnsgd1na2vs0mg"},{"bike_id":"c685de6c-7e1c-4f6d-a85e-677faf50b2ff","system_id":"levelo_inurba_marseille","lat":43.21192,"lon":5.35069,"is_reserved":false,"is_disabled":false,"rental_uris":{"android":"levelo://app?vid=c685de6c-7e1c-4f6d-a85e-677faf50b2ff","ios":"levelo://app?vid=c685de6c-7e1c-4f6d-a85e-677faf50b2ff"},"vehicle_type_id":"4","last_reported":1746793183,"current_range_meters":24800,"station_id":"st_cvj6sg6p6f1abm77japg","pricing_plan_id":"cebpf4jnsgd1na2vs0mg"},{"bike_id":"27797606-9faf-4019-89eb-342800ead423","system_id":"levelo_inurba_marseille","lat":43.29413,"lon":5.38618,"is_reserved":false,"is_disabled":false,"rental_uris":{"android":"levelo://app?vid=27797606-9faf-4019-89eb-342800ead423","ios":"levelo://app?vid=27797606-9faf-4019-89eb-342800ead423"},"vehicle_type_id":"4","last_reported":1746793183,"current_range_meters":25200,"station_id":"ce4bh2h2rcd13ifvqdh0","pricing_plan_id":"cebpf4jnsgd1na2vs0mg"},{"bike_id":"e1d43eec-84a4-4e20-9657-a1fc8b9773c0","system_id":"levelo_inurba_marseille","lat":43.2836,"lon":5.38112,"is_reserved":false,"is_disabled":false,"rental_uris":{"android":"levelo://app?vid=e1d43eec-84a4-4e20-9657-a1fc8b9773c0","ios":"levelo://app?vid=e1d43eec-84a4-4e20-9657-a1fc8b9773c0"},"vehicle_type_id":"4","last_reported":1746793183,"current_range_meters":25200,"station_id":"ce4bh412rcd13ifvqdr0","pricing_plan_id":"cebpf4jnsgd1na2vs0mg"},{"bike_id":"8e31c718-56bd-4b96-8e4f-81ae2c5186e4","system_id":"levelo_inurba_marseille","lat":43.28355,"lon":5.38115,"is_reserved":false,"is_disabled":false,"rental_uris":{"android":"levelo://app?vid=8e31c718-56bd-4b96-8e4f-81ae2c5186e4","ios":"levelo://app?vid=8e31c718-56bd-4b96-8e4f-81ae2c5186e4"},"vehicle_type_id":"4","last_reported":1746793183,"current_range_meters":25200,"station_id":"ce4bh412rcd13ifvqdr0","pricing_plan_id":"cebpf4jnsgd1na2vs0mg"},{"bike_id":"6ee9e064-5566-4610-bb27-537690d1b5e5","system_id":"levelo_inurba_marseille","lat":43.26561,"lon":5.38999,"is_reserved":false,"is_disabled":false,"rental_uris":{"android":"levelo://app?vid=6ee9e064-5566-4610-bb27-537690d1b5e5","ios":"levelo://app?vid=6ee9e064-5566-4610-bb27-537690d1b5e5"},"vehicle_type_id":"4","last_reported":1746793183,"current_range_meters":25200,"station_id":"ce4bhe12rcd13ifvqf30","pricing_plan_id":"cebpf4jnsgd1na2vs0mg"},{"bike_id":"9e8475cf-6228-4f7b-a452-b41cca7a8d9d","system_id":"levelo_inurba_marseille","lat":43.26197,"lon":5.37931,"is_reserved":false,"is_disabled":false,"rental_uris":{"android":"levelo://app?vid=9e8475cf-6228-4f7b-a452-b41cca7a8d9d","ios":"levelo://app?vid=9e8475cf-6228-4f7b-a452-b41cca7a8d9d"},"vehicle_type_id":"4","last_reported":1746793183,"current_range_meters":25200,"station_id":"ce4bhjp2rcd13ifvqg90","pricing_plan_id":"cebpf4jnsgd1na2vs0mg"},{"bike_id":"cfca2e29-0951-4903-8d3e-c4a54f72d139","system_id":"levelo_inurba_marseille","lat":43.27482,"lon":5.42412,"is_reserved":false,"is_disabled":false,"rental_uris":{"android":"levelo://app?vid=cfca2e29-0951-4903-8d3e-c4a54f72d139","ios":"levelo://app?vid=cfca2e29-0951-4903-8d3e-c4a54f72d139"},"vehicle_type_id":"4","last_reported":1746793183,"current_range_meters":25200,"station_id":"ce4bhn92rcd13ifvqgrg","pricing_plan_id":"cebpf4jnsgd1na2vs0mg"},{"bike_id":"5be72db2-916b-4bad-8978-a2756d855067","system_id":"levelo_inurba_marseille","lat":43.31224,"lon":5.36865,"is_reserved":false,"is_disabled":false,"rental_uris":{"android":"levelo://app?vid=5be72db2-916b-4bad-8978-a2756d855067","ios":"levelo://app?vid=5be72db2-916b-4bad-8978-a2756d855067"},"vehicle_type_id":"4","last_reported":1746793183,"current_range_meters":25600,"station_id":"ce4bgl92rcd13ifvqbq0","pricing_plan_id":"cebpf4jnsgd1na2vs0mg"},{"bike_id":"645d52c4-523a-4f0c-992d-13a0e612c8a6","system_id":"levelo_inurba_marseille","lat":43.308067,"lon":5.4352,"is_reserved":false,"is_disabled":false,"rental_uris":{"android":"levelo://app?vid=645d52c4-523a-4f0c-992d-13a0e612c8a6","ios":"levelo://app?vid=645d52c4-523a-4f0c-992d-13a0e612c8a6"},"vehicle_type_id":"4","last_reported":1746793183,"current_range_meters":25600,"station_id":"ce4bhph2rcd13ifvqheg","pricing_plan_id":"cebpf4jnsgd1na2vs0mg"},{"bike_id":"02bac07a-9186-49eb-a666-f70d86d99978","system_id":"levelo_inurba_marseille","lat":43.211949,"lon":5.350766,"is_reserved":false,"is_disabled":false,"rental_uris":{"android":"levelo://app?vid=02bac07a-9186-49eb-a666-f70d86d99978","ios":"levelo://app?vid=02bac07a-9186-49eb-a666-f70d86d99978"},"vehicle_type_id":"4","last_reported":1746793183,"current_range_meters":25600,"station_id":"st_cvj6sg6p6f1abm77japg","pricing_plan_id":"cebpf4jnsgd1na2vs0mg"},{"bike_id":"48ed43fb-4ad0-4001-acee-f6ea4523cfc5","system_id":"levelo_inurba_marseille","lat":43.28601,"lon":5.477006,"is_reserved":false,"is_disabled":false,"rental_uris":{"android":"levelo://app?vid=48ed43fb-4ad0-4001-acee-f6ea4523cfc5","ios":"levelo://app?vid=48ed43fb-4ad0-4001-acee-f6ea4523cfc5"},"vehicle_type_id":"4","last_reported":1746793183,"current_range_meters":26000,"station_id":"","pricing_plan_id":"cebpf4jnsgd1na2vs0mg"},{"bike_id":"e698b53d-2fca-4879-af67-256da47fcced","system_id":"levelo_inurba_marseille","lat":43.29998,"lon":5.37364,"is_reserved":false,"is_disabled":false,"rental_uris":{"android":"levelo://app?vid=e698b53d-2fca-4879-af67-256da47fcced","ios":"levelo://app?vid=e698b53d-2fca-4879-af67-256da47fcced"},"vehicle_type_id":"4","last_reported":1746793183,"current_range_meters":26000,"station_id":"","pricing_plan_id":"cebpf4jnsgd1na2vs0mg"},{"bike_id":"409c8e81-0b8e-40d7-a0ce-fe8eb549d842","system_id":"levelo_inurba_marseille","lat":43.31329,"lon":5.36701,"is_reserved":false,"is_disabled":false,"rental_uris":{"android":"levelo://app?vid=409c8e81-0b8e-40d7-a0ce-fe8eb549d842","ios":"levelo://app?vid=409c8e81-0b8e-40d7-a0ce-fe8eb549d842"},"vehicle_type_id":"4","last_reported":1746793183,"current_range_meters":26000,"station_id":"ce4bgr92rcd13ifvqc6g","pricing_plan_id":"cebpf4jnsgd1na2vs0mg"},{"bike_id":"8bf5a608-55f2-40d4-b0c1-a14aa7b7f168","system_id":"levelo_inurba_marseille","lat":43.31359,"lon":5.38492,"is_reserved":false,"is_disabled":false,"rental_uris":{"android":"levelo://app?vid=8bf5a608-55f2-40d4-b0c1-a14aa7b7f168","ios":"levelo://app?vid=8bf5a608-55f2-40d4-b0c1-a14aa7b7f168"},"vehicle_type_id":"4","last_reported":1746793183,"current_range_meters":26000,"station_id":"ce4bgt92rcd13ifvqcf0","pricing_plan_id":"cebpf4jnsgd1na2vs0mg"},{"bike_id":"6db7031e-54fc-4b2f-b005-bf585ea0e17e","system_id":"levelo_inurba_marseille","lat":43.28403,"lon":5.37515,"is_reserved":false,"is_disabled":false,"rental_uris":{"android":"levelo://app?vid=6db7031e-54fc-4b2f-b005-bf585ea0e17e","ios":"levelo://app?vid=6db7031e-54fc-4b2f-b005-bf585ea0e17e"},"vehicle_type_id":"4","last_reported":1746793183,"current_range_meters":26000,"station_id":"ce4bh412rcd13ifvqds0","pricing_plan_id":"cebpf4jnsgd1na2vs0mg"},{"bike_id":"6056d7eb-beeb-429e-b45c-de5ff3df49f3","system_id":"levelo_inurba_marseille","lat":43.259459,"lon":5.409028,"is_reserved":false,"is_disabled":false,"rental_uris":{"android":"levelo://app?vid=6056d7eb-beeb-429e-b45c-de5ff3df49f3","ios":"levelo://app?vid=6056d7eb-beeb-429e-b45c-de5ff3df49f3"},"vehicle_type_id":"4","last_reported":1746793183,"current_range_meters":26000,"station_id":"ce4bhm92rcd13ifvqglg","pricing_plan_id":"cebpf4jnsgd1na2vs0mg"},{"bike_id":"68618caa-50bc-43f5-93b1-b8d3a9e2ef7f","system_id":"levelo_inurba_marseille","lat":43.241687,"lon":5.397133,"is_reserved":false,"is_disabled":false,"rental_uris":{"android":"levelo://app?vid=68618caa-50bc-43f5-93b1-b8d3a9e2ef7f","ios":"levelo://app?vid=68618caa-50bc-43f5-93b1-b8d3a9e2ef7f"},"vehicle_type_id":"4","last_reported":1746793183,"current_range_meters":26000,"station_id":"ce4bhn12rcd13ifvqgpg","pricing_plan_id":"cebpf4jnsgd1na2vs0mg"},{"bike_id":"8867767b-adfd-4cd5-9328-66464da04cf5","system_id":"levelo_inurba_marseille","lat":43.27498,"lon":5.42447,"is_reserved":false,"is_disabled":false,"rental_uris":{"android":"levelo://app?vid=8867767b-adfd-4cd5-9328-66464da04cf5","ios":"levelo://app?vid=8867767b-adfd-4cd5-9328-66464da04cf5"},"vehicle_type_id":"4","last_reported":1746793183,"current_range_meters":26000,"station_id":"ce4bhn92rcd13ifvqgrg","pricing_plan_id":"cebpf4jnsgd1na2vs0mg"},{"bike_id":"17239759-3263-4a3b-92c4-4700bbbec4ed","system_id":"levelo_inurba_marseille","lat":43.32555,"lon":5.41419,"is_reserved":false,"is_disabled":false,"rental_uris":{"android":"levelo://app?vid=17239759-3263-4a3b-92c4-4700bbbec4ed","ios":"levelo://app?vid=17239759-3263-4a3b-92c4-4700bbbec4ed"},"vehicle_type_id":"4","last_reported":1746793183,"current_range_meters":26000,"station_id":"ce4bhq12rcd13ifvqhhg","pricing_plan_id":"cebpf4jnsgd1na2vs0mg"},{"bike_id":"e82bedf9-93fa-4d8c-abab-50aba4b34b5a","system_id":"levelo_inurba_marseille","lat":43.30561,"lon":5.36681,"is_reserved":false,"is_disabled":false,"rental_uris":{"android":"levelo://app?vid=e82bedf9-93fa-4d8c-abab-50aba4b34b5a","ios":"levelo://app?vid=e82bedf9-93fa-4d8c-abab-50aba4b34b5a"},"vehicle_type_id":"4","last_reported":1746793183,"current_range_meters":26800,"station_id":"","pricing_plan_id":"cebpf4jnsgd1na2vs0mg"},{"bike_id":"60c4e89d-b14b-4a37-b8a6-6ec602d9bf66","system_id":"levelo_inurba_marseille","lat":43.31389,"lon":5.36717,"is_reserved":false,"is_disabled":false,"rental_uris":{"android":"levelo://app?vid=60c4e89d-b14b-4a37-b8a6-6ec602d9bf66","ios":"levelo://app?vid=60c4e89d-b14b-4a37-b8a6-6ec602d9bf66"},"vehicle_type_id":"4","last_reported":1746793183,"current_range_meters":26800,"station_id":"","pricing_plan_id":"cebpf4jnsgd1na2vs0mg"},{"bike_id":"1c304be6-2678-4c38-b6bf-47f06657d93b","system_id":"levelo_inurba_marseille","lat":43.31377,"lon":5.36713,"is_reserved":false,"is_disabled":false,"rental_uris":{"android":"levelo://app?vid=1c304be6-2678-4c38-b6bf-47f06657d93b","ios":"levelo://app?vid=1c304be6-2678-4c38-b6bf-47f06657d93b"},"vehicle_type_id":"4","last_reported":1746793183,"current_range_meters":26800,"station_id":"ce4bgr92rcd13ifvqc6g","pricing_plan_id":"cebpf4jnsgd1na2vs0mg"},{"bike_id":"1ac7d5d8-7ba7-4a57-8500-f283e1ef6353","system_id":"levelo_inurba_marseille","lat":43.31325,"lon":5.39692,"is_reserved":false,"is_disabled":false,"rental_uris":{"android":"levelo://app?vid=1ac7d5d8-7ba7-4a57-8500-f283e1ef6353","ios":"levelo://app?vid=1ac7d5d8-7ba7-4a57-8500-f283e1ef6353"},"vehicle_type_id":"4","last_reported":1746793183,"current_range_meters":26800,"station_id":"ce4bgvp2rcd13ifvqcu0","pricing_plan_id":"cebpf4jnsgd1na2vs0mg"},{"bike_id":"cdaa69d0-a0e8-459a-8239-dce28653a1c7","system_id":"levelo_inurba_marseille","lat":43.274295,"lon":5.394125,"is_reserved":false,"is_disabled":false,"rental_uris":{"android":"levelo://app?vid=cdaa69d0-a0e8-459a-8239-dce28653a1c7","ios":"levelo://app?vid=cdaa69d0-a0e8-459a-8239-dce28653a1c7"},"vehicle_type_id":"4","last_reported":1746793183,"current_range_meters":26800,"station_id":"ce4bhdp2rcd13ifvqf20","pricing_plan_id":"cebpf4jnsgd1na2vs0mg"},{"bike_id":"bcdd3532-a4bf-4036-8926-95fb7e398779","system_id":"levelo_inurba_marseille","lat":43.25715,"lon":5.41112,"is_reserved":false,"is_disabled":false,"rental_uris":{"android":"levelo://app?vid=bcdd3532-a4bf-4036-8926-95fb7e398779","ios":"levelo://app?vid=bcdd3532-a4bf-4036-8926-95fb7e398779"},"vehicle_type_id":"4","last_reported":1746793183,"current_range_meters":26800,"station_id":"ce4bhkp2rcd13ifvqgd0","pricing_plan_id":"cebpf4jnsgd1na2vs0mg"},{"bike_id":"17d04247-5bd2-4457-b4ce-76163cce39e3","system_id":"levelo_inurba_marseille","lat":43.25946,"lon":5.40889,"is_reserved":false,"is_disabled":false,"rental_uris":{"android":"levelo://app?vid=17d04247-5bd2-4457-b4ce-76163cce39e3","ios":"levelo://app?vid=17d04247-5bd2-4457-b4ce-76163cce39e3"},"vehicle_type_id":"4","last_reported":1746793183,"current_range_meters":26800,"station_id":"ce4bhm92rcd13ifvqglg","pricing_plan_id":"cebpf4jnsgd1na2vs0mg"},{"bike_id":"84f549c5-c9da-40cb-8295-0d4cb420c8e6","system_id":"levelo_inurba_marseille","lat":43.275,"lon":5.42459,"is_reserved":false,"is_disabled":false,"rental_uris":{"android":"levelo://app?vid=84f549c5-c9da-40cb-8295-0d4cb420c8e6","ios":"levelo://app?vid=84f549c5-c9da-40cb-8295-0d4cb420c8e6"},"vehicle_type_id":"4","last_reported":1746793183,"current_range_meters":26800,"station_id":"ce4bhn92rcd13ifvqgrg","pricing_plan_id":"cebpf4jnsgd1na2vs0mg"},{"bike_id":"7ac1c79f-c3a1-44d2-9a37-0be16ad2ba1d","system_id":"levelo_inurba_marseille","lat":43.21194,"lon":5.35072,"is_reserved":false,"is_disabled":false,"rental_uris":{"android":"levelo://app?vid=7ac1c79f-c3a1-44d2-9a37-0be16ad2ba1d","ios":"levelo://app?vid=7ac1c79f-c3a1-44d2-9a37-0be16ad2ba1d"},"vehicle_type_id":"4","last_reported":1746793183,"current_range_meters":26800,"station_id":"st_cvj6sg6p6f1abm77japg","pricing_plan_id":"cebpf4jnsgd1na2vs0mg"},{"bike_id":"0b9ca4fb-f893-43f8-9caf-c2f90dbde54a","system_id":"levelo_inurba_marseille","lat":43.28803,"lon":5.3635,"is_reserved":false,"is_disabled":false,"rental_uris":{"android":"levelo://app?vid=0b9ca4fb-f893-43f8-9caf-c2f90dbde54a","ios":"levelo://app?vid=0b9ca4fb-f893-43f8-9caf-c2f90dbde54a"},"vehicle_type_id":"4","last_reported":1746793183,"current_range_meters":27200,"station_id":"","pricing_plan_id":"cebpf4jnsgd1na2vs0mg"},{"bike_id":"79881728-c053-45e3-b27a-0996fd1f9b13","system_id":"levelo_inurba_marseille","lat":43.31471,"lon":5.37303,"is_reserved":false,"is_disabled":false,"rental_uris":{"android":"levelo://app?vid=79881728-c053-45e3-b27a-0996fd1f9b13","ios":"levelo://app?vid=79881728-c053-45e3-b27a-0996fd1f9b13"},"vehicle_type_id":"4","last_reported":1746793183,"current_range_meters":27200,"station_id":"ce4bgt12rcd13ifvqcd0","pricing_plan_id":"cebpf4jnsgd1na2vs0mg"},{"bike_id":"72319148-53fa-455c-9a35-cbdc009ce0f3","system_id":"levelo_inurba_marseille","lat":43.28033,"lon":5.36942,"is_reserved":false,"is_disabled":false,"rental_uris":{"android":"levelo://app?vid=72319148-53fa-455c-9a35-cbdc009ce0f3","ios":"levelo://app?vid=72319148-53fa-455c-9a35-cbdc009ce0f3"},"vehicle_type_id":"4","last_reported":1746793183,"current_range_meters":27200,"station_id":"ce4bha12rcd13ifvqef0","pricing_plan_id":"cebpf4jnsgd1na2vs0mg"},{"bike_id":"f80309f2-8165-47e3-b2b0-b4ac532c9656","system_id":"levelo_inurba_marseille","lat":43.25003,"lon":5.38922,"is_reserved":false,"is_disabled":false,"rental_uris":{"android":"levelo://app?vid=f80309f2-8165-47e3-b2b0-b4ac532c9656","ios":"levelo://app?vid=f80309f2-8165-47e3-b2b0-b4ac532c9656"},"vehicle_type_id":"4","last_reported":1746793183,"current_range_meters":27200,"station_id":"ce4bhgp2rcd13ifvqfd0","pricing_plan_id":"cebpf4jnsgd1na2vs0mg"},{"bike_id":"34d87231-94f0-49c2-bf31-b5b3085816ad","system_id":"levelo_inurba_marseille","lat":43.31718,"lon":5.42392,"is_reserved":false,"is_disabled":false,"rental_uris":{"android":"levelo://app?vid=34d87231-94f0-49c2-bf31-b5b3085816ad","ios":"levelo://app?vid=34d87231-94f0-49c2-bf31-b5b3085816ad"},"vehicle_type_id":"4","last_reported":1746793183,"current_range_meters":27200,"station_id":"ce4bhp92rcd13ifvqhbg","pricing_plan_id":"cebpf4jnsgd1na2vs0mg"},{"bike_id":"6cc28e11-0777-4b1a-aab8-261fe24ec40c","system_id":"levelo_inurba_marseille","lat":43.29315,"lon":5.37437,"is_reserved":false,"is_disabled":false,"rental_uris":{"android":"levelo://app?vid=6cc28e11-0777-4b1a-aab8-261fe24ec40c","ios":"levelo://app?vid=6cc28e11-0777-4b1a-aab8-261fe24ec40c"},"vehicle_type_id":"4","last_reported":1746793183,"current_range_meters":27600,"station_id":"ce4bgi12rcd13ifvqb70","pricing_plan_id":"cebpf4jnsgd1na2vs0mg"},