{"last_updated":1693670850,"ttl":30,"version":"2.2","data":{"bikes":[{"bike_id":"c0aee6a6-efa3-4381-91ad-14c080edacbc","system_id":"levelo_inurba_marseille","lat":43.31341,"lon":5.367098,"is_reserved":false,"is_disabled":false,"rental_uris":{"android":"levelo://app?vid=c0aee6a6-efa3-4381-91ad-14c080edacbc","ios":"levelo://app?vid=c0aee6a6-efa3-4381-91ad-14c080edacbc"},"vehicle_type_id":"4","last_reported":1693670850,"current_range_meters":24800,"station_id":"ce4bgr92rcd13ifvqc6g","pricing_plan_id":"free"},{"bike_id":"c260b7d5-516d-4cb8-ba93-d442199ba3bb","system_id":"levelo_inurba_marseille","lat":43.313391,"lon":5.36706,"is_reserved":false,"is_disabled":false,"rental_uris":{"android":"levelo://app?vid=c260b7d5-516d-4cb8-ba93-d442199ba3bb","ios":"levelo://app?vid=c260b7d5-516d-4cb8-ba93-d442199ba3bb"},"vehicle_type_id":"4","last_reported":1693670850,"current_range_meters":30400,"station_id":"ce4bgr92rcd13ifvqc6g","pricing_plan_id":"free"},{"bike_id":"052d837d-4e87-4a53-9b4b-dcd62223e12f","system_id":"levelo_inurba_marseille","lat":43.31341,"lon":5.367098,"is_reserved":false,"is_disabled":false,"rental_uris":{"android":"levelo://app?vid=052d837d-4e87-4a53-9b4b-dcd62223e12f","ios":"levelo://app?vid=052d837d-4e87-4a53-9b4b-dcd62223e12f"},"vehicle_type_id":"4","last_reported":1693670850,"current_range_meters":29600,"station_id":"ce4bgr92rcd13ifvqc6g","pricing_plan_id":"free"},{"bike_id":"47c13954-68cb-4b60-9be9-c94367e157ac","system_id":"levelo_inurba_marseille","lat":43.31341,"lon":5.367098,"is_reserved":false,"is_disabled":false,"rental_uris":{"android":"levelo://app?vid=47c13954-68cb-4b60-9be9-c94367e157ac","ios":"levelo://app?vid=47c13954-68cb-4b60-9be9-c94367e157ac"},"vehicle_type_id":"4","last_reported":1693670850,"current_range_meters":30800,"station_id":"ce4bgr92rcd13ifvqc6g","pricing_plan_id":"free"},{"bike_id":"a1f05f32-a983-4537-8599-75beed90de86","system_id":"levelo_inurba_marseille","lat":43.312239,"lon":5.368562,"is_reserved":false,"is_disabled":false,"rental_uris":{"android":"levelo://app?vid=a1f05f32-a983-4537-8599-75beed90de86","ios":"levelo://app?vid=a1f05f32-a983-4537-8599-75beed90de86"},"vehicle_type_id":"4","last_reported":1693670850,"current_range_meters":6400,"station_id":"ce4bgl92rcd13ifvqbq0","pricing_plan_id":"free"},{"bike_id":"20125d92-d556-4986-9d40-21354bf533d4","system_id":"levelo_inurba_marseille","lat":43.312239,"lon":5.368562,"is_reserved":false,"is_disabled":false,"rental_uris":{"android":"levelo://app?vid=20125d92-d556-4986-9d40-21354bf533d4","ios":"levelo://app?vid=20125d92-d556-4986-9d40-21354bf533d4"},"vehicle_type_id":"4","last_reported":1693670850,"current_range_meters":0,"station_id":"ce4bgl92rcd13ifvqbq0","pricing_plan_id":"free"},{"bike_id":"d2be997d-44d2-40a5-bb20-02aeaaf65fa5","system_id":"levelo_inurba_marseille","lat":43.314811,"lon":5.373104,"is_reserved":false,"is_disabled":false,"rental_uris":{"android":"levelo://app?vid=d2be997d-44d2-40a5-bb20-02aeaaf65fa5","ios":"levelo://app?vid=d2be997d-44d2-40a5-bb20-02aeaaf65fa5"},"vehicle_type_id":"4","last_reported":1693670850,"current_range_meters":30400,"station_id":"ce4bgt12rcd13ifvqcd0","pricing_plan_id":"free"},{"bike_id":"dbdfb9f1-27ea-41a9-8aaa-8528b50c591b","system_id":"levelo_inurba_marseille","lat":43.30887,"lon":5.37186,"is_reserved":false,"is_disabled":false,"rental_uris":{"android":"levelo://app?vid=dbdfb9f1-27ea-41a9-8aaa-8528b50c591b","ios":"levelo://app?vid=dbdfb9f1-27ea-41a9-8aaa-8528b50c591b"},"vehicle_type_id":"4","last_reported":1693670850,"current_range_meters":19600,"station_id":"ce4bguh2rcd13ifvqckg","pricing_plan_id":"free"},{"bike_id":"bfd40a79-1629-4137-bf95-44c3d0c67da5","system_id":"levelo_inurba_marseille","lat":43.30539,"lon":5.36549,"is_reserved":false,"is_disabled":false,"rental_uris":{"android":"levelo://app?vid=bfd40a79-1629-4137-bf95-44c3d0c67da5","ios":"levelo://app?vid=bfd40a79-1629-4137-bf95-44c3d0c67da5"},"vehicle_type_id":"4","last_reported":1693670850,"current_range_meters":3200,"station_id":"ce4bgs12rcd13ifvqcag","pricing_plan_id":"free"},{"bike_id":"e8bb9fcd-9724-47a9-acc5-98fff2c4f92b","system_id":"levelo_inurba_marseille","lat":43.305989,"lon":5.37225,"is_reserved":false,"is_disabled":false,"rental_uris":{"android":"levelo://app?vid=e8bb9fcd-9724-47a9-acc5-98fff2c4f92b","ios":"levelo://app?vid=e8bb9fcd-9724-47a9-acc5-98fff2c4f92b"},"vehicle_type_id":"4","last_reported":1693670850,"current_range_meters":30400,"station_id":"ce4bgqh2rcd13ifvqc4g","pricing_plan_id":"free"},{"bike_id":"9b1461c3-4b03-4c54-ab96-3aa470b5a620","system_id":"levelo_inurba_marseille","lat":43.305989,"lon":5.37225,"is_reserved":false,"is_disabled":false,"rental_uris":{"android":"levelo://app?vid=9b1461c3-4b03-4c54-ab96-3aa470b5a620","ios":"levelo://app?vid=9b1461c3-4b03-4c54-ab96-3aa470b5a620"},"vehicle_type_id":"4","last_reported":1693670850,"current_range_meters":9200,"station_id":"ce4bgqh2rcd13ifvqc4g","pricing_plan_id":"free"},{"bike_id":"894ba461-b8bf-4572-aeef-090fa3736ee9","system_id":"levelo_inurba_marseille","lat":43.311222,"lon":5.377815,"is_reserved":false,"is_disabled":false,"rental_uris":{"android":"levelo://app?vid=894ba461-b8bf-4572-aeef-090fa3736ee9","ios":"levelo://app?vid=894ba461-b8bf-4572-aeef-090fa3736ee9"},"vehicle_type_id":"4","last_reported":1693670850,"current_range_meters":26800,"station_id":"ce4bgup2rcd13ifvqcn0","pricing_plan_id":"free"},{"bike_id":"8941e37b-b31a-42b0-8548-ff3f9ddcc073","system_id":"levelo_inurba_marseille","lat":43.317075,"lon":5.377367,"is_reserved":false,"is_disabled":false,"rental_uris":{"android":"levelo://app?vid=8941e37b-b31a-42b0-8548-ff3f9ddcc073","ios":"levelo://app?vid=8941e37b-b31a-42b0-8548-ff3f9ddcc073"},"vehicle_type_id":"4","last_reported":1693670850,"current_range_meters":23600,"station_id":"ce4bgth2rcd13ifvqch0","pricing_plan_id":"free"},{"bike_id":"be6df8ec-367a-4fea-9b25-0d5589f80e60","system_id":"levelo_inurba_marseille","lat":43.317075,"lon":5.377367,"is_reserved":false,"is_disabled":false,"rental_uris":{"android":"levelo://app?vid=be6df8ec-367a-4fea-9b25-0d5589f80e60","ios":"levelo://app?vid=be6df8ec-367a-4fea-9b25-0d5589f80e60"},"vehicle_type_id":"4","last_reported":1693670850,"current_range_meters":7600,"station_id":"ce4bgth2rcd13ifvqch0","pricing_plan_id":"free"},{"bike_id":"cd2430b5-d827-457f-a12a-f29afa394529","system_id":"levelo_inurba_marseille","lat":43.317075,"lon":5.377367,"is_reserved":false,"is_disabled":false,"rental_uris":{"android":"levelo://app?vid=cd2430b5-d827-457f-a12a-f29afa394529","ios":"levelo://app?vid=cd2430b5-d827-457f-a12a-f29afa394529"},"vehicle_type_id":"4","last_reported":1693670850,"current_range_meters":20800,"station_id":"ce4bgth2rcd13ifvqch0","pricing_plan_id":"free"},{"bike_id":"0d5cca95-c27d-448d-823b-b578aa130290","system_id":"levelo_inurba_marseille","lat":43.30288,"lon":5.37423,"is_reserved":false,"is_disabled":false,"rental_uris":{"android":"levelo://app?vid=0d5cca95-c27d-448d-823b-b578aa130290","ios":"levelo://app?vid=0d5cca95-c27d-448d-823b-b578aa130290"},"vehicle_type_id":"4","last_reported":1693670850,"current_range_meters":25200,"station_id":"","pricing_plan_id":"free"},{"bike_id":"f48d042a-a959-4a67-861e-2d8b089cee71","system_id":"levelo_inurba_marseille","lat":43.304606,"lon":5.379026,"is_reserved":false,"is_disabled":false,"rental_uris":{"android":"levelo://app?vid=f48d042a-a959-4a67-861e-2d8b089cee71","ios":"levelo://app?vid=f48d042a-a959-4a67-861e-2d8b089cee71"},"vehicle_type_id":"4","last_reported":1693670850,"current_range_meters":3600,"station_id":"ce4bgup2rcd13ifvqcn0","pricing_plan_id":"free"},{"bike_id":"ecef6e6b-19c1-4cc1-8fe8-bb33386bb6e6","system_id":"levelo_inurba_marseille","lat":43.302784,"lon":5.377158,"is_reserved":false,"is_disabled":false,"rental_uris":{"android":"levelo://app?vid=ecef6e6b-19c1-4cc1-8fe8-bb33386bb6e6","ios":"levelo://app?vid=ecef6e6b-19c1-4cc1-8fe8-bb33386bb6e6"},"vehicle_type_id":"4","last_reported":1693670850,"current_range_meters":26000,"station_id":"ce4bguh2rcd13ifvqcj0","pricing_plan_id":"free"},{"bike_id":"bf89ebac-5888-4cdd-a2ac-eaf38a6cbf01","system_id":"levelo_inurba_marseille","lat":43.302784,"lon":5.377158,"is_reserved":false,"is_disabled":false,"rental_uris":{"android":"levelo://app?vid=bf89ebac-5888-4cdd-a2ac-eaf38a6cbf01","ios":"levelo://app?vid=bf89ebac-5888-4cdd-a2ac-eaf38a6cbf01"},"vehicle_type_id":"4","last_reported":1693670850,"current_range_meters":13200,"station_id":"ce4bguh2rcd13ifvqcj0","pricing_plan_id":"free"},{"bike_id":"5a9fc39a-4592-4997-8907-c5956611a40e","system_id":"levelo_inurba_marseille","lat":43.302784,"lon":5.377158,"is_reserved":false,"is_disabled":false,"rental_uris":{"android":"levelo://app?vid=5a9fc39a-4592-4997-8907-c5956611a40e","ios":"levelo://app?vid=5a9fc39a-4592-4997-8907-c5956611a40e"},"vehicle_type_id":"4","last_reported":1693670850,"current_range_meters":19600,"station_id":"ce4bguh2rcd13ifvqcj0","pricing_plan_id":"free"},{"bike_id":"77cc4a87-903a-4ac8-836f-05d771ccc1e4","system_id":"levelo_inurba_marseille","lat":43.31997,"lon":5.38144,"is_reserved":false,"is_disabled":false,"rental_uris":{"android":"levelo://app?vid=77cc4a87-903a-4ac8-836f-05d771ccc1e4","ios":"levelo://app?vid=77cc4a87-903a-4ac8-836f-05d771ccc1e4"},"vehicle_type_id":"4","last_reported":1693670850,"current_range_meters":22800,"station_id":"ce4bhr12rcd13ifvqhpg","pricing_plan_id":"free"},{"bike_id":"cc28612f-b913-4e07-81a1-e8a4df49747b","system_id":"levelo_inurba_marseille","lat":43.31996,"lon":5.38146,"is_reserved":false,"is_disabled":false,"rental_uris":{"android":"levelo://app?vid=cc28612f-b913-4e07-81a1-e8a4df49747b","ios":"levelo://app?vid=cc28612f-b913-4e07-81a1-e8a4df49747b"},"vehicle_type_id":"4","last_reported":1693670850,"current_range_meters":12400,"station_id":"ce4bhr12rcd13ifvqhpg","pricing_plan_id":"free"},{"bike_id":"d13e2fc0-5196-41d3-8d49-bf9314309b08","system_id":"levelo_inurba_marseille","lat":43.32,"lon":5.38144,"is_reserved":false,"is_disabled":false,"rental_uris":{"android":"levelo://app?vid=d13e2fc0-5196-41d3-8d49-bf9314309b08","ios":"levelo://app?vid=d13e2fc0-5196-41d3-8d49-bf9314309b08"},"vehicle_type_id":"4","last_reported":1693670850,"current_range_meters":29200,"station_id":"ce4bhr12rcd13ifvqhpg","pricing_plan_id":"free"},{"bike_id":"3ce12e8d-2187-433e-90ea-725012bee47a","system_id":"levelo_inurba_marseille","lat":43.31999,"lon":5.38149,"is_reserved":false,"is_disabled":false,"rental_uris":{"android":"levelo://app?vid=3ce12e8d-2187-433e-90ea-725012bee47a","ios":"levelo://app?vid=3ce12e8d-2187-433e-90ea-725012bee47a"},"vehicle_type_id":"4","last_reported":1693670850,"current_range_meters":22400,"station_id":"ce4bhr12rcd13ifvqhpg","pricing_plan_id":"free"},{"bike_id":"23000983-4d38-4593-a967-68c83bf6d94b","system_id":"levelo_inurba_marseille","lat":43.313571,"lon":5.384829,"is_reserved":false,"is_disabled":false,"rental_uris":{"android":"levelo://app?vid=23000983-4d38-4593-a967-68c83bf6d94b","ios":"levelo://app?vid=23000983-4d38-4593-a967-68c83bf6d94b"},"vehicle_type_id":"4","last_reported":1693670850,"current_range_meters":6400,"station_id":"ce4bgt92rcd13ifvqcf0","pricing_plan_id":"free"},{"bike_id":"2f6bec47-ebe5-41e7-96e0-71f1e636393b","system_id":"levelo_inurba_marseille","lat":43.313571,"lon":5.384829,"is_reserved":false,"is_disabled":false,"rental_uris":{"android":"levelo://app?vid=2f6bec47-ebe5-41e7-96e0-71f1e636393b","ios":"levelo://app?vid=2f6bec47-ebe5-41e7-96e0-71f1e636393b"},"vehicle_type_id":"4","last_reported":1693670850,"current_range_meters":6800,"station_id":"ce4bgt92rcd13ifvqcf0","pricing_plan_id":"free"},{"bike_id":"54162816-c7cf-4d15-80d8-1401c8b9dee6","system_id":"levelo_inurba_marseille","lat":43.3003,"lon":5.37418,"is_reserved":false,"is_disabled":false,"rental_uris":{"android":"levelo://app?vid=54162816-c7cf-4d15-80d8-1401c8b9dee6","ios":"levelo://app?vid=54162816-c7cf-4d15-80d8-1401c8b9dee6"},"vehicle_type_id":"4","last_reported":1693670850,"current_range_meters":25200,"station_id":"","pricing_plan_id":"free"},{"bike_id":"717a489d-53b6-4c42-8424-1ba6aaf96a04","system_id":"levelo_inurba_marseille","lat":43.299724,"lon":5.371829,"is_reserved":false,"is_disabled":false,"rental_uris":{"android":"levelo://app?vid=717a489d-53b6-4c42-8424-1ba6aaf96a04","ios":"levelo://app?vid=717a489d-53b6-4c42-8424-1ba6aaf96a04"},"vehicle_type_id":"4","last_reported":1693670850,"current_range_meters":28400,"station_id":"ce4bgr92rcd13ifvqc7g","pricing_plan_id":"free"},{"bike_id":"3de3cbb4-6e98-4bbf-8d3a-ea74e97ab865","system_id":"levelo_inurba_marseille","lat":43.3054,"lon":5.38408,"is_reserved":false,"is_disabled":false,"rental_uris":{"android":"levelo://app?vid=3de3cbb4-6e98-4bbf-8d3a-ea74e97ab865","ios":"levelo://app?vid=3de3cbb4-6e98-4bbf-8d3a-ea74e97ab865"},"vehicle_type_id":"4","last_reported":1693670850,"current_range_meters":2000,"station_id":"ce4bgg92rcd13ifvqb30","pricing_plan_id":"free"},{"bike_id":"8fea3535-ff6e-4134-a910-5161363e624d","system_id":"levelo_inurba_marseille","lat":43.298433,"lon":5.362774,"is_reserved":false,"is_disabled":false,"rental_uris":{"android":"levelo://app?vid=8fea3535-ff6e-4134-a910-5161363e624d","ios":"levelo://app?vid=8fea3535-ff6e-4134-a910-5161363e624d"},"vehicle_type_id":"4","last_reported":1693670850,"current_range_meters":19200,"station_id":"ce4bgpp2rcd13ifvqc3g","pricing_plan_id":"free"},{"bike_id":"924d6452-f7f7-4baa-af9a-49926af70474","system_id":"levelo_inurba_marseille","lat":43.297794,"lon":5.370888,"is_reserved":false,"is_disabled":false,"rental_uris":{"android":"levelo://app?vid=924d6452-f7f7-4baa-af9a-49926af70474","ios":"levelo://app?vid=924d6452-f7f7-4baa-af9a-49926af70474"},"vehicle_type_id":"4","last_reported":1693670850,"current_range_meters":28400,"station_id":"ce4bgop2rcd13ifvqc1g","pricing_plan_id":"free"},{"bike_id":"493eebc3-194d-4c6f-bf70-c25708192350","system_id":"levelo_inurba_marseille","lat":43.29793,"lon":5.37108,"is_reserved":false,"is_disabled":false,"rental_uris":{"android":"levelo://app?vid=493eebc3-194d-4c6f-bf70-c25708192350","ios":"levelo://app?vid=493eebc3-194d-4c6f-bf70-c25708192350"},"vehicle_type_id":"4","last_reported":1693670850,"current_range_meters":0,"station_id":"ce4bgop2rcd13ifvqc1g","pricing_plan_id":"free"},{"bike_id":"8143ebd5-c5c5-467f-a353-1c0066f90341","system_id":"levelo_inurba_marseille","lat":43.2979,"lon":5.37097,"is_reserved":false,"is_disabled":false,"rental_uris":{"android":"levelo://app?vid=8143ebd5-c5c5-467f-a353-1c0066f90341","ios":"levelo://app?vid=8143ebd5-c5c5-467f-a353-1c0066f90341"},"vehicle_type_id":"4","last_reported":1693670850,"current_range_meters":31200,"station_id":"ce4bgop2rcd13ifvqc1g","pricing_plan_id":"free"},{"bike_id":"861ddcb2-5d21-4c0c-940a-10e70dfd4672","system_id":"levelo_inurba_marseille","lat":43.297774,"lon":5.370875,"is_reserved":false,"is_disabled":false,"rental_uris":{"android":"levelo://app?vid=861ddcb2-5d21-4c0c-940a-10e70dfd4672","ios":"levelo://app?vid=861ddcb2-5d21-4c0c-940a-10e70dfd4672"},"vehicle_type_id":"4","last_reported":1693670850,"current_range_meters":15200,"station_id":"ce4bgop2rcd13ifvqc1g","pricing_plan_id":"free"},{"bike_id":"0732df54-7bbd-4634-a475-4f6ee58d615a","system_id":"levelo_inurba_marseille","lat":43.32293,"lon":5.38262,"is_reserved":false,"is_disabled":false,"rental_uris":{"android":"levelo://app?vid=0732df54-7bbd-4634-a475-4f6ee58d615a","ios":"levelo://app?vid=0732df54-7bbd-4634-a475-4f6ee58d615a"},"vehicle_type_id":"4","last_reported":1693670850,"current_range_meters":10000,"station_id":"ce4bhr12rcd13ifvqhqg","pricing_plan_id":"free"},{"bike_id":"3d2a691c-74eb-4958-aebd-9ebc95f3d8a8","system_id":"levelo_inurba_marseille","lat":43.322872,"lon":5.382756,"is_reserved":false,"is_disabled":false,"rental_uris":{"android":"levelo://app?vid=3d2a691c-74eb-4958-aebd-9ebc95f3d8a8","ios":"levelo://app?vid=3d2a691c-74eb-4958-aebd-9ebc95f3d8a8"},"vehicle_type_id":"4","last_reported":1693670850,"current_range_meters":13600,"station_id":"ce4bhr12rcd13ifvqhqg","pricing_plan_id":"free"},{"bike_id":"c29114e8-dc25-4be3-832f-1611beb9061c","system_id":"levelo_inurba_marseille","lat":43.322872,"lon":5.382756,"is_reserved":false,"is_disabled":false,"rental_uris":{"android":"levelo://app?vid=c29114e8-dc25-4be3-832f-1611beb9061c","ios":"levelo://app?vid=c29114e8-dc25-4be3-832f-1611beb9061c"},"vehicle_type_id":"4","last_reported":1693670850,"current_range_meters":22000,"station_id":"ce4bhr12rcd13ifvqhqg","pricing_plan_id":"free"},{"bike_id":"bd0bd295-6ecc-40c4-a4d0-89f645593756","system_id":"levelo_inurba_marseille","lat":43.29716,"lon":5.36609,"is_reserved":false,"is_disabled":false,"rental_uris":{"android":"levelo://app?vid=bd0bd295-6ecc-40c4-a4d0-89f645593756","ios":"levelo://app?vid=bd0bd295-6ecc-40c4-a4d0-89f645593756"},"vehicle_type_id":"4","last_reported":1693670850,"current_range_meters":21200,"station_id":"ce4bgn12rcd13ifvqbt0","pricing_plan_id":"free"},{"bike_id":"dd789220-e7b5-42c1-b9dc-dc4243148021","system_id":"levelo_inurba_marseille","lat":43.29707,"lon":5.36608,"is_reserved":false,"is_disabled":false,"rental_uris":{"android":"levelo://app?vid=dd789220-e7b5-42c1-b9dc-dc4243148021","ios":"levelo://app?vid=dd789220-e7b5-42c1-b9dc-dc4243148021"},"vehicle_type_id":"4","last_reported":1693670850,"current_range_meters":31200,"station_id":"ce4bgn12rcd13ifvqbt0","pricing_plan_id":"free"},{"bike_id":"c003b777-ae77-404d-9ec4-50255840f476","system_id":"levelo_inurba_marseille","lat":43.2968,"lon":5.37291,"is_reserved":false,"is_disabled":false,"rental_uris":{"android":"levelo://app?vid=c003b777-ae77-404d-9ec4-50255840f476","ios":"levelo://app?vid=c003b777-ae77-404d-9ec4-50255840f476"},"vehicle_type_id":"4","last_reported":1693670850,"current_range_meters":20400,"station_id":"ce4bgk12rcd13ifvqbj0","pricing_plan_id":"free"},{"bike_id":"d3139180-8ba9-4c91-b6e4-8baae3c22113","system_id":"levelo_inurba_marseille","lat":43.296131,"lon":5.370773,"is_reserved":false,"is_disabled":false,"rental_uris":{"android":"levelo://app?vid=d3139180-8ba9-4c91-b6e4-8baae3c22113","ios":"levelo://app?vid=d3139180-8ba9-4c91-b6e4-8baae3c22113"},"vehicle_type_id":"4","last_reported":1693670850,"current_range_meters":31200,"station_id":"ce4bgnh2rcd13ifvqc0g","pricing_plan_id":"free"},{"bike_id":"61b80983-88b4-4888-bd20-6351413f0a54","system_id":"levelo_inurba_marseille","lat":43.29573,"lon":5.367355,"is_reserved":false,"is_disabled":false,"rental_uris":{"android":"levelo://app?vid=61b80983-88b4-4888-bd20-6351413f0a54","ios":"levelo://app?vid=61b80983-88b4-4888-bd20-6351413f0a54"},"vehicle_type_id":"4","last_reported":1693670850,"current_range_meters":5200,"station_id":"ce4bgph2rcd13ifvqc2g","pricing_plan_id":"free"},{"bike_id":"65d934c8-ea94-404c-b991-a012f59c0b64","system_id":"levelo_inurba_marseille","lat":43.29609,"lon":5.3711,"is_reserved":false,"is_disabled":false,"rental_uris":{"android":"levelo://app?vid=65d934c8-ea94-404c-b991-a012f59c0b64","ios":"levelo://app?vid=65d934c8-ea94-404c-b991-a012f59c0b64"},"vehicle_type_id":"4","last_reported":1693670850,"current_range_meters":26400,"station_id":"ce4bgnh2rcd13ifvqc0g","pricing_plan_id":"free"},{"bike_id":"81013bcc-2046-4450-90ec-eb15817d95dc","system_id":"levelo_inurba_marseille","lat":43.29573,"lon":5.367355,"is_reserved":false,"is_disabled":false,"rental_uris":{"android":"levelo://app?vid=81013bcc-2046-4450-90ec-eb15817d95dc","ios":"levelo://app?vid=81013bcc-2046-4450-90ec-eb15817d95dc"},"vehicle_type_id":"4","last_reported":1693670850,"current_range_meters":6800,"station_id":"ce4bgph2rcd13ifvqc2g","pricing_plan_id":"free"},{"bike_id":"2d2b7670-a93a-4879-a1f7-81c0f7ad3db5","system_id":"levelo_inurba_marseille","lat":43.29573,"lon":5.367355,"is_reserved":false,"is_disabled":false,"rental_uris":{"android":"levelo://app?vid=2d2b7670-a93a-4879-a1f7-81c0f7ad3db5","ios":"levelo://app?vid=2d2b7670-a93a-4879-a1f7-81c0f7ad3db5"},"vehicle_type_id":"4","last_reported":1693670850,"current_range_meters":12400,"station_id":"ce4bgph2rcd13ifvqc2g","pricing_plan_id":"free"},{"bike_id":"2c93ce6f-c5e1-4ec9-9941-ebb7469bb8f2","system_id":"levelo_inurba_marseille","lat":43.31763,"lon":5.39005,"is_reserved":false,"is_disabled":false,"rental_uris":{"android":"levelo://app?vid=2c93ce6f-c5e1-4ec9-9941-ebb7469bb8f2","ios":"levelo://app?vid=2c93ce6f-c5e1-4ec9-9941-ebb7469bb8f2"},"vehicle_type_id":"4","last_reported":1693670850,"current_range_meters":15600,"station_id":"ce4bhqp2rcd13ifvqhng","pricing_plan_id":"free"},{"bike_id":"17cf817f-749d-4138-8514-2c0349d96259","system_id":"levelo_inurba_marseille","lat":43.317557,"lon":5.390173,"is_reserved":false,"is_disabled":false,"rental_uris":{"android":"levelo://app?vid=17cf817f-749d-4138-8514-2c0349d96259","ios":"levelo://app?vid=17cf817f-749d-4138-8514-2c0349d96259"},"vehicle_type_id":"4","last_reported":1693670850,"current_range_meters":2400,"station_id":"ce4bhqp2rcd13ifvqhng","pricing_plan_id":"free"},{"bike_id":"86d37462-6f2c-4ee1-b5e1-16f3e9285866","system_id":"levelo_inurba_marseille","lat":43.31755,"lon":5.39023,"is_reserved":false,"is_disabled":false,"rental_uris":{"android":"levelo://app?vid=86d37462-6f2c-4ee1-b5e1-16f3e9285866","ios":"levelo://app?vid=86d37462-6f2c-4ee1-b5e1-16f3e9285866"},"vehicle_type_id":"4","last_reported":1693670850,"current_range_meters":16000,"station_id":"ce4bhqp2rcd13ifvqhng","pricing_plan_id":"free"},{"bike_id":"2d38d843-9501-4a8b-8d1e-e53e054245cc","system_id":"levelo_inurba_marseille","lat":43.29702,"lon":5.37811,"is_reserved":false,"is_disabled":false,"rental_uris":{"android":"levelo://app?vid=2d38d843-9501-4a8b-8d1e-e53e054245cc","ios":"levelo://app?vid=2d38d843-9501-4a8b-8d1e-e53e054245cc"},"vehicle_type_id":"4","last_reported":1693670850,"current_range_meters":29600,"station_id":"","pricing_plan_id":"free"},{"bike_id":"e713b172-2b31-4478-accb-2d72e5979a36","system_id":"levelo_inurba_marseille","lat":43.30435,"lon":5.38892,"is_reserved":false,"is_disabled":false,"rental_uris":{"android":"levelo://app?vid=e713b172-2b31-4478-accb-2d72e5979a36","ios":"levelo://app?vid=e713b172-2b31-4478-accb-2d72e5979a36"},"vehicle_type_id":"4","last_reported":1693670850,"current_range_meters":16800,"station_id":"ce4bgk12rcd13ifvqbi0","pricing_plan_id":"free"},{"bike_id":"102d93b3-4df6-4813-b3ad-e108aed24719","system_id":"levelo_inurba_marseille","lat":43.29526,"lon":5.375,"is_reserved":false,"is_disabled":false,"rental_uris":{"android":"levelo://app?vid=102d93b3-4df6-4813-b3ad-e108aed24719","ios":"levelo://app?vid=102d93b3-4df6-4813-b3ad-e108aed24719"},"vehicle_type_id":"4","last_reported":1693670850,"current_range_meters":14400,"station_id":"ce4bgkp2rcd13ifvqbmg","pricing_plan_id":"free"},{"bike_id":"a2a54199-5255-4a71-b567-a7b3ac7c2f6b","system_id":"levelo_inurba_marseille","lat":43.29524,"lon":5.37492,"is_reserved":false,"is_disabled":false,"rental_uris":{"android":"levelo://app?vid=a2a54199-5255-4a71-b567-a7b3ac7c2f6b","ios":"levelo://app?vid=a2a54199-5255-4a71-b567-a7b3ac7c2f6b"},"vehicle_type_id":"4","last_reported":1693670850,"current_range_meters":21200,"station_id":"ce4bgkp2rcd13ifvqbmg","pricing_plan_id":"free"},{"bike_id":"ac2d9faa-751f-476a-a201-d593e4250526","system_id":"levelo_inurba_marseille","lat":43.299717,"lon":5.384845,"is_reserved":false,"is_disabled":false,"rental_uris":{"android":"levelo://app?vid=ac2d9faa-751f-476a-a201-d593e4250526","ios":"levelo://app?vid=ac2d9faa-751f-476a-a201-d593e4250526"},"vehicle_type_id":"4","last_reported":1693670850,"current_range_meters":17200,"station_id":"ce4bgj92rcd13ifvqbd0","pricing_plan_id":"free"},{"bike_id":"df89e0ad-9ac5-4d8c-9181-83c1d4b49783","system_id":"levelo_inurba_marseille","lat":43.32367,"lon":5.388836,"is_reserved":false,"is_disabled":false,"rental_uris":{"android":"levelo://app?vid=df89e0ad-9ac5-4d8c-9181-83c1d4b49783","ios":"levelo://app?vid=df89e0ad-9ac5-4d8c-9181-83c1d4b49783"},"vehicle_type_id":"4","last_reported":1693670850,"current_range_meters":14000,"station_id":"ce4bhqp2rcd13ifvqhog","pricing_plan_id":"free"},{"bike_id":"899db4cf-53c9-490f-9588-c2dabe0e6d13","system_id":"levelo_inurba_marseille","lat":43.32373,"lon":5.38871,"is_reserved":false,"is_disabled":false,"rental_uris":{"android":"levelo://app?vid=899db4cf-53c9-490f-9588-c2dabe0e6d13","ios":"levelo://app?vid=899db4cf-53c9-490f-9588-c2dabe0e6d13"},"vehicle_type_id":"4","last_reported":1693670850,"current_range_meters":30400,"station_id":"ce4bhqp2rcd13ifvqhog","pricing_plan_id":"free"},{"bike_id":"04bd86b5-0561-4cf7-b54e-88dfd8a933b3","system_id":"levelo_inurba_marseille","lat":43.32364,"lon":5.38883,"is_reserved":false,"is_disabled":false,"rental_uris":{"android":"levelo://app?vid=04bd86b5-0561-4cf7-b54e-88dfd8a933b3","ios":"levelo://app?vid=04bd86b5-0561-4cf7-b54e-88dfd8a933b3"},"vehicle_type_id":"4","last_reported":1693670850,"current_range_meters":26000,"station_id":"ce4bhqp2rcd13ifvqhog","pricing_plan_id":"free"},{"bike_id":"7765e955-4e3e-4602-aebe-3f00c71fe745","system_id":"levelo_inurba_marseille","lat":43.32371,"lon":5.38882,"is_reserved":false,"is_disabled":false,"rental_uris":{"android":"levelo://app?vid=7765e955-4e3e-4602-aebe-3f00c71fe745","ios":"levelo://app?vid=7765e955-4e3e-4602-aebe-3f00c71fe745"},"vehicle_type_id":"4","last_reported":1693670850,"current_range_meters":17600,"station_id":"ce4bhqp2rcd13ifvqhog","pricing_plan_id":"free"},{"bike_id":"16f73c68-eedf-4c86-8504-c4dcfb449b32","system_id":"levelo_inurba_marseille","lat":43.32371,"lon":5.38886,"is_reserved":false,"is_disabled":false,"rental_uris":{"android":"levelo://app?vid=16f73c68-eedf-4c86-8504-c4dcfb449b32","ios":"levelo://app?vid=16f73c68-eedf-4c86-8504-c4dcfb449b32"},"vehicle_type_id":"4","last_reported":1693670850,"current_range_meters":31200,"station_id":"ce4bhqp2rcd13ifvqhog","pricing_plan_id":"free"},{"bike_id":"9180c84f-0f25-4355-8dec-d34711128242","system_id":"levelo_inurba_marseille","lat":43.32371,"lon":5.38889,"is_reserved":false,"is_disabled":false,"rental_uris":{"android":"levelo://app?vid=9180c84f-0f25-4355-8dec-d34711128242","ios":"levelo://app?vid=9180c84f-0f25-4355-8dec-d34711128242"},"vehicle_type_id":"4","last_reported":1693670850,"current_range_meters":20000,"station_id":"ce4bhqp2rcd13ifvqhog","pricing_plan_id":"free"},{"bike_id":"9ec32442-fea7-49c9-bd3c-235cb3b6e5a9","system_id":"levelo_inurba_marseille","lat":43.29298,"lon":5.37166,"is_reserved":false,"is_disabled":false,"rental_uris":{"android":"levelo://app?vid=9ec32442-fea7-49c9-bd3c-235cb3b6e5a9","ios":"levelo://app?vid=9ec32442-fea7-49c9-bd3c-235cb3b6e5a9"},"vehicle_type_id":"4","last_reported":1693670850,"current_range_meters":7600,"station_id":"ce4bgh92rcd13ifvqb40","pricing_plan_id":"free"},{"bike_id":"cffc90a7-0c78-4879-8bec-f6f3baec5b42","system_id":"levelo_inurba_marseille","lat":43.292982,"lon":5.371676,"is_reserved":false,"is_disabled":false,"rental_uris":{"android":"levelo://app?vid=cffc90a7-0c78-4879-8bec-f6f3baec5b42","ios":"levelo://app?vid=cffc90a7-0c78-4879-8bec-f6f3baec5b42"},"vehicle_type_id":"4","last_reported":1693670850,"current_range_meters":4400,"station_id":"ce4bgh92rcd13ifvqb40","pricing_plan_id":"free"},{"bike_id":"af378848-4ab5-4a0c-a75c-c290cd6c3483","system_id":"levelo_inurba_marseille","lat":43.32459,"lon":5.38946,"is_reserved":false,"is_disabled":false,"rental_uris":{"android":"levelo://app?vid=af378848-4ab5-4a0c-a75c-c290cd6c3483","ios":"levelo://app?vid=af378848-4ab5-4a0c-a75c-c290cd6c3483"},"vehicle_type_id":"4","last_reported":1693670850,"current_range_meters":0,"station_id":"","pricing_plan_id":"free"},{"bike_id":"b4091e7e-2a96-45a2-8abe-59c7b5a10fc1","system_id":"levelo_inurba_marseille","lat":43.305994,"lon":5.393687,"is_reserved":false,"is_disabled":false,"rental_uris":{"android":"levelo://app?vid=b4091e7e-2a96-45a2-8abe-59c7b5a10fc1","ios":"levelo://app?vid=b4091e7e-2a96-45a2-8abe-59c7b5a10fc1"},"vehicle_type_id":"4","last_reported":1693670850,"current_range_meters":0,"station_id":"ce4bh0p2rcd13ifvqd80","pricing_plan_id":"free"},{"bike_id":"96aa8eae-68a7-41cd-8f53-14c192bace2e","system_id":"levelo_inurba_marseille","lat":43.29956,"lon":5.38883,"is_reserved":false,"is_disabled":false,"rental_uris":{"android":"levelo://app?vid=96aa8eae-68a7-41cd-8f53-14c192bace2e","ios":"levelo://app?vid=96aa8eae-68a7-41cd-8f53-14c192bace2e"},"vehicle_type_id":"4","last_reported":1693670850,"current_range_meters":24000,"station_id":"","pricing_plan_id":"free"},{"bike_id":"9f90bcb0-143c-434e-b359-7550a118cded","system_id":"levelo_inurba_marseille","lat":43.32231,"lon":5.39214,"is_reserved":false,"is_disabled":false,"rental_uris":{"android":"levelo://app?vid=9f90bcb0-143c-434e-b359-7550a118cded","ios":"levelo://app?vid=9f90bcb0-143c-434e-b359-7550a118cded"},"vehicle_type_id":"4","last_reported":1693670850,"current_range_meters":30400,"station_id":"","pricing_plan_id":"free"},{"bike_id":"59d4a7cc-c4d8-47e1-a63f-2e26b5d209c3","system_id":"levelo_inurba_marseille","lat":43.2936,"lon":5.37835,"is_reserved":false,"is_disabled":false,"rental_uris":{"android":"levelo://app?vid=59d4a7cc-c4d8-47e1-a63f-2e26b5d209c3","ios":"levelo://app?vid=59d4a7cc-c4d8-47e1-a63f-2e26b5d209c3"},"vehicle_type_id":"4","last_reported":1693670850,"current_range_meters":29200,"station_id":"ce4bgjh2rcd13ifvqbf0","pricing_plan_id":"free"},{"bike_id":"0ae7ac11-e9a7-45b1-bece-d3b75ea0c386","system_id":"levelo_inurba_marseille","lat":43.32232,"lon":5.39217,"is_reserved":false,"is_disabled":false,"rental_uris":{"android":"levelo://app?vid=0ae7ac11-e9a7-45b1-bece-d3b75ea0c386","ios":"levelo://app?vid=0ae7ac11-e9a7-45b1-bece-d3b75ea0c386"},"vehicle_type_id":"4","last_reported":1693670850,"current_range_meters":28400,"station_id":"","pricing_plan_id":"free"},{"bike_id":"0724f352-a262-45b7-9b71-9a09ff17d945","system_id":"levelo_inurba_marseille","lat":43.302992,"lon":5.392136,"is_reserved":false,"is_disabled":false,"rental_uris":{"android":"levelo://app?vid=0724f352-a262-45b7-9b71-9a09ff17d945","ios":"levelo://app?vid=0724f352-a262-45b7-9b71-9a09ff17d945"},"vehicle_type_id":"4","last_reported":1693670850,"current_range_meters":21600,"station_id":"ce4bgkh2rcd13ifvqbk0","pricing_plan_id":"free"},{"bike_id":"38fef587-7cc5-4800-b069-87b8f296a10a","system_id":"levelo_inurba_marseille","lat":43.30301,"lon":5.39211,"is_reserved":false,"is_disabled":false,"rental_uris":{"android":"levelo://app?vid=38fef587-7cc5-4800-b069-87b8f296a10a","ios":"levelo://app?vid=38fef587-7cc5-4800-b069-87b8f296a10a"},"vehicle_type_id":"4","last_reported":1693670850,"current_range_meters":19600,"station_id":"ce4bgkh2rcd13ifvqbk0","pricing_plan_id":"free"},{"bike_id":"e4c957cd-020e-4e84-b9bb-5fffc97029e3","system_id":"levelo_inurba_marseille","lat":43.32242,"lon":5.3923,"is_reserved":false,"is_disabled":false,"rental_uris":{"android":"levelo://app?vid=e4c957cd-020e-4e84-b9bb-5fffc97029e3","ios":"levelo://app?vid=e4c957cd-020e-4e84-b9bb-5fffc97029e3"},"vehicle_type_id":"4","last_reported":1693670850,"current_range_meters":16400,"station_id":"","pricing_plan_id":"free"},{"bike_id":"27f8b542-340e-4dd3-b8a0-8b8064ce9656","system_id":"levelo_inurba_marseille","lat":43.29363,"lon":5.37859,"is_reserved":false,"is_disabled":false,"rental_uris":{"android":"levelo://app?vid=27f8b542-340e-4dd3-b8a0-8b8064ce9656","ios":"levelo://app?vid=27f8b542-340e-4dd3-b8a0-8b8064ce9656"},"vehicle_type_id":"4","last_reported":1693670850,"current_range_meters":0,"station_id":"ce4bgjh2rcd13ifvqbf0","pricing_plan_id":"free"},{"bike_id":"caea9423-58ac-495d-b035-55aad14c53e0","system_id":"levelo_inurba_marseille","lat":43.298764,"lon":5.388973,"is_reserved":false,"is_disabled":false,"rental_uris":{"android":"levelo://app?vid=caea9423-58ac-495d-b035-55aad14c53e0","ios":"levelo://app?vid=caea9423-58ac-495d-b035-55aad14c53e0"},"vehicle_type_id":"4","last_reported":1693670850,"current_range_meters":14800,"station_id":"ce4bh392rcd13ifvqdl0","pricing_plan_id":"free"},{"bike_id":"24db4d2e-5da5-4710-ab4c-d5e978bf5092","system_id":"levelo_inurba_marseille","lat":43.298793,"lon":5.389027,"is_reserved":false,"is_disabled":false,"rental_uris":{"android":"levelo://app?vid=24db4d2e-5da5-4710-ab4c-d5e978bf5092","ios":"levelo://app?vid=24db4d2e-5da5-4710-ab4c-d5e978bf5092"},"vehicle_type_id":"4","last_reported":1693670850,"current_range_meters":26000,"station_id":"","pricing_plan_id":"free"},{"bike_id":"b127cb02-a67f-4944-955b-2653cb69db42","system_id":"levelo_inurba_marseille","lat":43.29142,"lon":5.36689,"is_reserved":false,"is_disabled":false,"rental_uris":{"android":"levelo://app?vid=b127cb02-a67f-4944-955b-2653cb69db42","ios":"levelo://app?vid=b127cb02-a67f-4944-955b-2653cb69db42"},"vehicle_type_id":"4","last_reported":1693670850,"current_range_meters":21600,"station_id":"ce4bhc92rcd13ifvqetg","pricing_plan_id":"free"},{"bike_id":"0d962e12-b732-4464-bc89-f40845207671","system_id":"levelo_inurba_marseille","lat":43.33226,"lon":5.38007,"is_reserved":false,"is_disabled":false,"rental_uris":{"android":"levelo://app?vid=0d962e12-b732-4464-bc89-f40845207671","ios":"levelo://app?vid=0d962e12-b732-4464-bc89-f40845207671"},"vehicle_type_id":"4","last_reported":1693670850,"current_range_meters":6000,"station_id":"","pricing_plan_id":"free"},{"bike_id":"3e720724-07d0-40cc-947b-2225654e20fb","system_id":"levelo_inurba_marseille","lat":43.29234,"lon":5.37744,"is_reserved":false,"is_disabled":false,"rental_uris":{"android":"levelo://app?vid=3e720724-07d0-40cc-947b-2225654e20fb","ios":"levelo://app?vid=3e720724-07d0-40cc-947b-2225654e20fb"},"vehicle_type_id":"4","last_reported":1693670850,"current_range_meters":21200,"station_id":"","pricing_plan_id":"free"},{"bike_id":"73c2e0c0-a939-4bc3-943a-e52094180bff","system_id":"levelo_inurba_marseille","lat":43.291994,"lon":5.357886,"is_reserved":false,"is_disabled":false,"rental_uris":{"android":"levelo://app?vid=73c2e0c0-a939-4bc3-943a-e52094180bff","ios":"levelo://app?vid=73c2e0c0-a939-4bc3-943a-e52094180bff"},"vehicle_type_id":"4","last_reported":1693670850,"current_range_meters":17600,"station_id":"ce4bhb12rcd13ifvqel0","pricing_plan_id":"free"},{"bike_id":"eed59751-0840-4c49-8de8-7218cd5affc8","system_id":"levelo_inurba_marseille","lat":43.313291,"lon":5.396838,"is_reserved":false,"is_disabled":false,"rental_uris":{"android":"levelo://app?vid=eed59751-0840-4c49-8de8-7218cd5affc8","ios":"levelo://app?vid=eed59751-0840-4c49-8de8-7218cd5affc8"},"vehicle_type_id":"4","last_reported":1693670850,"current_range_meters":15600,"station_id":"ce4bgvp2rcd13ifvqcu0","pricing_plan_id":"free"},{"bike_id":"90833b77-4f64-4c03-b563-4437357e5931","system_id":"levelo_inurba_marseille","lat":43.29529,"lon":5.385581,"is_reserved":false,"is_disabled":false,"rental_uris":{"android":"levelo://app?vid=90833b77-4f64-4c03-b563-4437357e5931","ios":"levelo://app?vid=90833b77-4f64-4c03-b563-4437357e5931"},"vehicle_type_id":"4","last_reported":1693670850,"current_range_meters":9200,"station_id":"ce4bgih2rcd13ifvqba0","pricing_plan_id":"free"},{"bike_id":"b3b645c1-34d6-4e6a-a9df-0f9974e1b9cd","system_id":"levelo_inurba_marseille","lat":43.29529,"lon":5.385581,"is_reserved":false,"is_disabled":false,"rental_uris":{"android":"levelo://app?vid=b3b645c1-34d6-4e6a-a9df-0f9974e1b9cd","ios":"levelo://app?vid=b3b645c1-34d6-4e6a-a9df-0f9974e1b9cd"},"vehicle_type_id":"4","last_reported":1693670850,"current_range_meters":400,"station_id":"ce4bgih2rcd13ifvqba0","pricing_plan_id":"free"},{"bike_id":"d5d13290-2ca0-4b86-a676-5ec880f17748","system_id":"levelo_inurba_marseille","lat":43.29529,"lon":5.385581,"is_reserved":false,"is_disabled":false,"rental_uris":{"android":"levelo://app?vid=d5d13290-2ca0-4b86-a676-5ec880f17748","ios":"levelo://app?vid=d5d13290-2ca0-4b86-a676-5ec880f17748"},"vehicle_type_id":"4","last_reported":1693670850,"current_range_meters":18800,"station_id":"ce4bgih2rcd13ifvqba0","pricing_plan_id":"free"},{"bike_id":"92531861-08b4-4b10-a6a6-ef4e09c57125","system_id":"levelo_inurba_marseille","lat":43.29079,"lon":5.37178,"is_reserved":false,"is_disabled":false,"rental_uris":{"android":"levelo://app?vid=92531861-08b4-4b10-a6a6-ef4e09c57125","ios":"levelo://app?vid=92531861-08b4-4b10-a6a6-ef4e09c57125"},"vehicle_type_id":"4","last_reported":1693670850,"current_range_meters":1200,"station_id":"","pricing_plan_id":"free"},{"bike_id":"3155c7e4-db14-48f8-a722-d4d4091c710e","system_id":"levelo_inurba_marseille","lat":43.294153,"lon":5.386305,"is_reserved":false,"is_disabled":false,"rental_uris":{"android":"levelo://app?vid=3155c7e4-db14-48f8-a722-d4d4091c710e","ios":"levelo://app?vid=3155c7e4-db14-48f8-a722-d4d4091c710e"},"vehicle_type_id":"4","last_reported":1693670850,"current_range_meters":19200,"station_id":"ce4bh2h2rcd13ifvqdh0","pricing_plan_id":"free"},{"bike_id":"2f93318d-a393-4e93-88c9-60d3ec241b0e","system_id":"levelo_inurba_marseille","lat":43.28942,"lon":5.36632,"is_reserved":false,"is_disabled":false,"rental_uris":{"android":"levelo://app?vid=2f93318d-a393-4e93-88c9-60d3ec241b0e","ios":"levelo://app?vid=2f93318d-a393-4e93-88c9-60d3ec241b0e"},"vehicle_type_id":"4","last_reported":1693670850,"current_range_meters":29600,"station_id":"ce4bhap2rcd13ifvqek0","pricing_plan_id":"free"},{"bike_id":"269a04b3-c2a8-4fde-9261-bf5386c70079","system_id":"levelo_inurba_marseille","lat":43.29029,"lon":5.37562,"is_reserved":false,"is_disabled":false,"rental_uris":{"android":"levelo://app?vid=269a04b3-c2a8-4fde-9261-bf5386c70079","ios":"levelo://app?vid=269a04b3-c2a8-4fde-9261-bf5386c70079"},"vehicle_type_id":"4","last_reported":1693670850,"current_range_meters":0,"station_id":"ce4bh692rcd13ifvqe90","pricing_plan_id":"free"},{"bike_id":"546e098b-f3e9-470b-853b-06c8f826e22e","system_id":"levelo_inurba_marseille","lat":43.294162,"lon":5.386292,"is_reserved":false,"is_disabled":false,"rental_uris":{"android":"levelo://app?vid=546e098b-f3e9-470b-853b-06c8f826e22e","ios":"levelo://app?vid=546e098b-f3e9-470b-853b-06c8f826e22e"},"vehicle_type_id":"4","last_reported":1693670850,"current_range_meters":2000,"station_id":"ce4bh2h2rcd13ifvqdh0","pricing_plan_id":"free"},{"bike_id":"07b8673c-f81d-4796-b0e0-1fff74ca1941","system_id":"levelo_inurba_marseille","lat":43.292642,"lon":5.384254,"is_reserved":false,"is_disabled":false,"rental_uris":{"android":"levelo://app?vid=07b8673c-f81d-4796-b0e0-1fff74ca1941","ios":"levelo://app?vid=07b8673c-f81d-4796-b0e0-1fff74ca1941"},"vehicle_type_id":"4","last_reported":1693670850,"current_range_meters":30400,"station_id":"ce4bh692rcd13ifvqea0","pricing_plan_id":"free"},{"bike_id":"3e0449ec-e32f-417c-946f-951095c26cc1","system_id":"levelo_inurba_marseille","lat":43.3304,"lon":5.38913,"is_reserved":false,"is_disabled":false,"rental_uris":{"android":"levelo://app?vid=3e0449ec-e32f-417c-946f-951095c26cc1","ios":"levelo://app?vid=3e0449ec-e32f-417c-946f-951095c26cc1"},"vehicle_type_id":"4","last_reported":1693670850,"current_range_meters":26400,"station_id":"ce4bhr92rcd13ifvqhrg","pricing_plan_id":"free"},{"bike_id":"276df892-9a2a-40a9-929d-29c6fe2dac65","system_id":"levelo_inurba_marseille","lat":43.33041,"lon":5.38917,"is_reserved":false,"is_disabled":false,"rental_uris":{"android":"levelo://app?vid=276df892-9a2a-40a9-929d-29c6fe2dac65","ios":"levelo://app?vid=276df892-9a2a-40a9-929d-29c6fe2dac65"},"vehicle_type_id":"4","last_reported":1693670850,"current_range_meters":22000,"station_id":"ce4bhr92rcd13ifvqhrg","pricing_plan_id":"free"},{"bike_id":"46946f53-efc3-4c4a-955d-dabfa3c8bfb3","system_id":"levelo_inurba_marseille","lat":43.3304,"lon":5.38919,"is_reserved":false,"is_disabled":false,"rental_uris":{"android":"levelo://app?vid=46946f53-efc3-4c4a-955d-dabfa3c8bfb3","ios":"levelo://app?vid=46946f53-efc3-4c4a-955d-dabfa3c8bfb3"},"vehicle_type_id":"4","last_reported":1693670850,"current_range_meters":19600,"station_id":"ce4bhr92rcd13ifvqhrg","pricing_plan_id":"free"},{"bike_id":"978b0ff4-c9df-43ed-a4e7-ec9b1854c595","system_id":"levelo_inurba_marseille","lat":43.33041,"lon":5.38918,"is_reserved":false,"is_disabled":false,"rental_uris":{"android":"levelo://app?vid=978b0ff4-c9df-43ed-a4e7-ec9b1854c595","ios":"levelo://app?vid=978b0ff4-c9df-43ed-a4e7-ec9b1854c595"},"vehicle_type_id":"4","last_reported":1693670850,"current_range_meters":16000,"station_id":"ce4bhr92rcd13ifvqhrg","pricing_plan_id":"free"},{"bike_id":"d346ead7-ea15-4af0-898b-f25c067a214a","system_id":"levelo_inurba_marseille","lat":43.33042,"lon":5.3892,"is_reserved":false,"is_disabled":false,"rental_uris":{"android":"levelo://app?vid=d346ead7-ea15-4af0-898b-f25c067a214a","ios":"levelo://app?vid=d346ead7-ea15-4af0-898b-f25c067a214a"},"vehicle_type_id":"4","last_reported":1693670850,"current_range_meters":15200,"station_id":"ce4bhr92rcd13ifvqhrg","pricing_plan_id":"free"},{"bike_id":"1895038e-acdb-4d35-aa35-e1291f23a30a","system_id":"levelo_inurba_marseille","lat":43.29006,"lon":5.35617,"is_reserved":false,"is_disabled":false,"rental_uris":{"android":"levelo://app?vid=1895038e-acdb-4d35-aa35-e1291f23a30a","ios":"levelo://app?vid=1895038e-acdb-4d35-aa35-e1291f23a30a"},"vehicle_type_id":"4","last_reported":1693670850,"current_range_meters":31200,"station_id":"ce4bhb92rcd13ifvqen0","pricing_plan_id":"free"},{"bike_id":"8077604d-b9d4-4aae-b42f-6a79c8cc4721","system_id":"levelo_inurba_marseille","lat":43.33046,"lon":5.38917,"is_reserved":false,"is_disabled":false,"rental_uris":{"android":"levelo://app?vid=8077604d-b9d4-4aae-b42f-6a79c8cc4721","ios":"levelo://app?vid=8077604d-b9d4-4aae-b42f-6a79c8cc4721"},"vehicle_type_id":"4","last_reported":1693670850,"current_range_meters":23200,"station_id":"ce4bhr92rcd13ifvqhrg","pricing_plan_id":"free"},{"bike_id":"90f1fc97-49d0-4df8-9f32-3dfcd4a32851","system_id":"levelo_inurba_marseille","lat":43.33041,"lon":5.38925,"is_reserved":false,"is_disabled":false,"rental_uris":{"android":"levelo://app?vid=90f1fc97-49d0-4df8-9f32-3dfcd4a32851","ios":"levelo://app?vid=90f1fc97-49d0-4df8-9f32-3dfcd4a32851"},"vehicle_type_id":"4","last_reported":1693670850,"current_range_meters":14400,"station_id":"ce4bhr92rcd13ifvqhrg","pricing_plan_id":"free"},{"bike_id":"e7c8cfe2-9bdf-4363-a136-3e02a3639875","system_id":"levelo_inurba_marseille","lat":43.33047,"lon":5.38916,"is_reserved":false,"is_disabled":false,"rental_uris":{"android":"levelo://app?vid=e7c8cfe2-9bdf-4363-a136-3e02a3639875","ios":"levelo://app?vid=e7c8cfe2-9bdf-4363-a136-3e02a3639875"},"vehicle_type_id":"4","last_reported":1693670850,"current_range_meters":9200,"station_id":"ce4bhr92rcd13ifvqhrg","pricing_plan_id":"free"},{"bike_id":"d7932d52-0b99-415c-88dc-561d5faa16a4","system_id":"levelo_inurba_marseille","lat":43.290104,"lon":5.356111,"is_reserved":false,"is_disabled":false,"rental_uris":{"android":"levelo://app?vid=d7932d52-0b99-415c-88dc-561d5faa16a4","ios":"levelo://app?vid=d7932d52-0b99-415c-88dc-561d5faa16a4"},"vehicle_type_id":"4","last_reported":1693670850,"current_range_meters":31200,"station_id":"ce4bhb92rcd13ifvqen0","pricing_plan_id":"free"},{"bike_id":"028b16b4-c861-455c-93e2-214442c48086","system_id":"levelo_inurba_marseille","lat":43.29004,"lon":5.356,"is_reserved":false,"is_disabled":false,"rental_uris":{"android":"levelo://app?vid=028b16b4-c861-455c-93e2-214442c48086","ios":"levelo://app?vid=028b16b4-c861-455c-93e2-214442c48086"},"vehicle_type_id":"4","last_reported":1693670850,"current_range_meters":30400,"station_id":"ce4bhb92rcd13ifvqen0","pricing_plan_id":"free"},{"bike_id":"e74e8195-a597-4fbb-91c0-c2222b1014a7","system_id":"levelo_inurba_marseille","lat":43.290995,"lon":5.381361,"is_reserved":false,"is_disabled":false,"rental_uris":{"android":"levelo://app?vid=e74e8195-a597-4fbb-91c0-c2222b1014a7","ios":"levelo://app?vid=e74e8195-a597-4fbb-91c0-c2222b1014a7"},"vehicle_type_id":"4","last_reported":1693670850,"current_range_meters":22800,"station_id":"ce4bh512rcd13ifvqe2g","pricing_plan_id":"free"},{"bike_id":"772474f7-4610-4502-afcf-df3f7ead76ef","system_id":"levelo_inurba_marseille","lat":43.28856,"lon":5.358371,"is_reserved":false,"is_disabled":false,"rental_uris":{"android":"levelo://app?vid=772474f7-4610-4502-afcf-df3f7ead76ef","ios":"levelo://app?vid=772474f7-4610-4502-afcf-df3f7ead76ef"},"vehicle_type_id":"4","last_reported":1693670850,"current_range_meters":15200,"station_id":"ce4bhb12rcd13ifvqem0","pricing_plan_id":"free"},{"bike_id":"d0385827-8c78-41b5-9191-e5618dd0979c","system_id":"levelo_inurba_marseille","lat":43.31277,"lon":5.40171,"is_reserved":false,"is_disabled":false,"rental_uris":{"android":"levelo://app?vid=d0385827-8c78-41b5-9191-e5618dd0979c","ios":"levelo://app?vid=d0385827-8c78-41b5-9191-e5618dd0979c"},"vehicle_type_id":"4","last_reported":1693670850,"current_range_meters":2800,"station_id":"ce4bh092rcd13ifvqd30","pricing_plan_id":"free"},{"bike_id":"48e0a47b-a9d6-4c7d-8e93-c73765aae831","system_id":"levelo_inurba_marseille","lat":43.3128,"lon":5.40179,"is_reserved":false,"is_disabled":false,"rental_uris":{"android":"levelo://app?vid=48e0a47b-a9d6-4c7d-8e93-c73765aae831","ios":"levelo://app?vid=48e0a47b-a9d6-4c7d-8e93-c73765aae831"},"vehicle_type_id":"4","last_reported":1693670850,"current_range_meters":27600,"station_id":"ce4bh092rcd13ifvqd30","pricing_plan_id":"free"},{"bike_id":"5e0b65a3-4830-4efe-8df2-f90e6871cc74","system_id":"levelo_inurba_marseille","lat":43.30642,"lon":5.401031,"is_reserved":false,"is_disabled":false,"rental_uris":{"android":"levelo://app?vid=5e0b65a3-4830-4efe-8df2-f90e6871cc74","ios":"levelo://app?vid=5e0b65a3-4830-4efe-8df2-f90e6871cc74"},"vehicle_type_id":"4","last_reported":1693670850,"current_range_meters":24800,"station_id":"ce4bh112rcd13ifvqda0","pricing_plan_id":"free"},{"bike_id":"5acb2d2d-bd95-4e69-b6df-58bb75d8acab","system_id":"levelo_inurba_marseille","lat":43.30642,"lon":5.401031,"is_reserved":false,"is_disabled":false,"rental_uris":{"android":"levelo://app?vid=5acb2d2d-bd95-4e69-b6df-58bb75d8acab","ios":"levelo://app?vid=5acb2d2d-bd95-4e69-b6df-58bb75d8acab"},"vehicle_type_id":"4","last_reported":1693670850,"current_range_meters":16400,"station_id":"ce4bh112rcd13ifvqda0","pricing_plan_id":"free"},{"bike_id":"7370a4bd-e536-44f3-9cb6-8c4dff038d32","system_id":"levelo_inurba_marseille","lat":43.28672,"lon":5.36345,"is_reserved":false,"is_disabled":false,"rental_uris":{"android":"levelo://app?vid=7370a4bd-e536-44f3-9cb6-8c4dff038d32","ios":"levelo://app?vid=7370a4bd-e536-44f3-9cb6-8c4dff038d32"},"vehicle_type_id":"4","last_reported":1693670850,"current_range_meters":11200,"station_id":"ce4bhah2rcd13ifvqej0","pricing_plan_id":"free"},{"bike_id":"03502d65-9404-4193-b1fd-02a256b179e1","system_id":"levelo_inurba_marseille","lat":43.28668,"lon":5.3636,"is_reserved":false,"is_disabled":false,"rental_uris":{"android":"levelo://app?vid=03502d65-9404-4193-b1fd-02a256b179e1","ios":"levelo://app?vid=03502d65-9404-4193-b1fd-02a256b179e1"},"vehicle_type_id":"4","last_reported":1693670850,"current_range_meters":22000,"station_id":"ce4bhah2rcd13ifvqej0","pricing_plan_id":"free"},{"bike_id":"f16fe87e-067a-4db3-bb41-b9abf64ec1e6","system_id":"levelo_inurba_marseille","lat":43.28666,"lon":5.36345,"is_reserved":false,"is_disabled":false,"rental_uris":{"android":"levelo://app?vid=f16fe87e-067a-4db3-bb41-b9abf64ec1e6","ios":"levelo://app?vid=f16fe87e-067a-4db3-bb41-b9abf64ec1e6"},"vehicle_type_id":"4","last_reported":1693670850,"current_range_meters":21600,"station_id":"ce4bhah2rcd13ifvqej0","pricing_plan_id":"free"},{"bike_id":"75199276-b705-4ad7-b6a9-49aeaa84628a","system_id":"levelo_inurba_marseille","lat":43.286591,"lon":5.363346,"is_reserved":false,"is_disabled":false,"rental_uris":{"android":"levelo://app?vid=75199276-b705-4ad7-b6a9-49aeaa84628a","ios":"levelo://app?vid=75199276-b705-4ad7-b6a9-49aeaa84628a"},"vehicle_type_id":"4","last_reported":1693670850,"current_range_meters":28800,"station_id":"ce4bhah2rcd13ifvqej0","pricing_plan_id":"free"},{"bike_id":"01a85c1d-b011-4c01-ad2a-ce5ddb2d90ed","system_id":"levelo_inurba_marseille","lat":43.28662,"lon":5.36354,"is_reserved":false,"is_disabled":false,"rental_uris":{"android":"levelo://app?vid=01a85c1d-b011-4c01-ad2a-ce5ddb2d90ed","ios":"levelo://app?vid=01a85c1d-b011-4c01-ad2a-ce5ddb2d90ed"},"vehicle_type_id":"4","last_reported":1693670850,"current_range_meters":2000,"station_id":"ce4bhah2rcd13ifvqej0","pricing_plan_id":"free"},{"bike_id":"cd4f9e97-01a0-492c-806e-7a2b0e525824","system_id":"levelo_inurba_marseille","lat":43.28661,"lon":5.36355,"is_reserved":false,"is_disabled":false,"rental_uris":{"android":"levelo://app?vid=cd4f9e97-01a0-492c-806e-7a2b0e525824","ios":"levelo://app?vid=cd4f9e97-01a0-492c-806e-7a2b0e525824"},"vehicle_type_id":"4","last_reported":1693670850,"current_range_meters":0,"station_id":"ce4bhah2rcd13ifvqej0","pricing_plan_id":"free"},{"bike_id":"1b1deeca-aa90-49e5-95cc-808f022e22fb","system_id":"levelo_inurba_marseille","lat":43.286591,"lon":5.363346,"is_reserved":false,"is_disabled":false,"rental_uris":{"android":"levelo://app?vid=1b1deeca-aa90-49e5-95cc-808f022e22fb","ios":"levelo://app?vid=1b1deeca-aa90-49e5-95cc-808f022e22fb"},"vehicle_type_id":"4","last_reported":1693670850,"current_range_meters":2400,"station_id":"ce4bhah2rcd13ifvqej0","pricing_plan_id":"free"},{"bike_id":"2365150f-73ab-4507-aea4-76016e6109c8","system_id":"levelo_inurba_marseille","lat":43.286591,"lon":5.363346,"is_reserved":false,"is_disabled":false,"rental_uris":{"android":"levelo://app?vid=2365150f-73ab-4507-aea4-76016e6109c8","ios":"levelo://app?vid=2365150f-73ab-4507-aea4-76016e6109c8"},"vehicle_type_id":"4","last_reported":1693670850,"current_range_meters":25200,"station_id":"ce4bhah2rcd13ifvqej0","pricing_plan_id":"free"},{"bike_id":"0fa34064-e264-4f8b-bcbf-02ee775e27f4","system_id":"levelo_inurba_marseille","lat":43.29033,"lon":5.38645,"is_reserved":false,"is_disabled":false,"rental_uris":{"android":"levelo://app?vid=0fa34064-e264-4f8b-bcbf-02ee775e27f4","ios":"levelo://app?vid=0fa34064-e264-4f8b-bcbf-02ee775e27f4"},"vehicle_type_id":"4","last_reported":1693670850,"current_range_meters":17600,"station_id":"ce4bh4p2rcd13ifvqe0g","pricing_plan_id":"free"},{"bike_id":"9a0e2785-9e55-4816-9dff-e9888bc94ded","system_id":"levelo_inurba_marseille","lat":43.291994,"lon":5.392907,"is_reserved":false,"is_disabled":false,"rental_uris":{"android":"levelo://app?vid=9a0e2785-9e55-4816-9dff-e9888bc94ded","ios":"levelo://app?vid=9a0e2785-9e55-4816-9dff-e9888bc94ded"},"vehicle_type_id":"4","last_reported":1693670850,"current_range_meters":24400,"station_id":"ce4bh192rcd13ifvqdd0","pricing_plan_id":"free"},{"bike_id":"ad159380-a4ca-4c5b-b237-81b5b9030c88","system_id":"levelo_inurba_marseille","lat":43.294314,"lon":5.397498,"is_reserved":false,"is_disabled":false,"rental_uris":{"android":"levelo://app?vid=ad159380-a4ca-4c5b-b237-81b5b9030c88","ios":"levelo://app?vid=ad159380-a4ca-4c5b-b237-81b5b9030c88"},"vehicle_type_id":"4","last_reported":1693670850,"current_range_meters":23200,"station_id":"ce4bh3h2rcd13ifvqdo0","pricing_plan_id":"free"},{"bike_id":"21115981-ec30-4e00-aa9a-586ae66c2b04","system_id":"levelo_inurba_marseille","lat":43.295713,"lon":5.399639,"is_reserved":false,"is_disabled":false,"rental_uris":{"android":"levelo://app?vid=21115981-ec30-4e00-aa9a-586ae66c2b04","ios":"levelo://app?vid=21115981-ec30-4e00-aa9a-586ae66c2b04"},"vehicle_type_id":"4","last_reported":1693670850,"current_range_meters":19200,"station_id":"ce4bh312rcd13ifvqdj0","pricing_plan_id":"free"},{"bike_id":"670f4b55-dd0b-4c50-a68b-f9eae2864878","system_id":"levelo_inurba_marseille","lat":43.295713,"lon":5.399639,"is_reserved":false,"is_disabled":false,"rental_uris":{"android":"levelo://app?vid=670f4b55-dd0b-4c50-a68b-f9eae2864878","ios":"levelo://app?vid=670f4b55-dd0b-4c50-a68b-f9eae2864878"},"vehicle_type_id":"4","last_reported":1693670850,"current_range_meters":30800,"station_id":"ce4bh312rcd13ifvqdj0","pricing_plan_id":"free"},{"bike_id":"0b48a1d4-36a5-486c-b3f6-fe5cc7a9575a","system_id":"levelo_inurba_marseille","lat":43.286961,"lon":5.373785,"is_reserved":false,"is_disabled":false,"rental_uris":{"android":"levelo://app?vid=0b48a1d4-36a5-486c-b3f6-fe5cc7a9575a","ios":"levelo://app?vid=0b48a1d4-36a5-486c-b3f6-fe5cc7a9575a"},"vehicle_type_id":"4","last_reported":1693670850,"current_range_meters":6800,"station_id":"ce4bh3p2rcd13ifvqdq0","pricing_plan_id":"free"},{"bike_id":"406a353d-ace2-456d-ac26-66795f09a492","system_id":"levelo_inurba_marseille","lat":43.28406,"lon":5.37517,"is_reserved":false,"is_disabled":false,"rental_uris":{"android":"levelo://app?vid=406a353d-ace2-456d-ac26-66795f09a492","ios":"levelo://app?vid=406a353d-ace2-456d-ac26-66795f09a492"},"vehicle_type_id":"4","last_reported":1693670850,"current_range_meters":14400,"station_id":"ce4bh412rcd13ifvqds0","pricing_plan_id":"free"},{"bike_id":"9b28ac1e-b379-48ea-a328-3f7adc37d50d","system_id":"levelo_inurba_marseille","lat":43.295713,"lon":5.399639,"is_reserved":false,"is_disabled":false,"rental_uris":{"android":"levelo://app?vid=9b28ac1e-b379-48ea-a328-3f7adc37d50d","ios":"levelo://app?vid=9b28ac1e-b379-48ea-a328-3f7adc37d50d"},"vehicle_type_id":"4","last_reported":1693670850,"current_range_meters":8000,"station_id":"ce4bh312rcd13ifvqdj0","pricing_plan_id":"free"},{"bike_id":"82dc821e-8ff8-4e9f-a8c6-f837817238bb","system_id":"levelo_inurba_marseille","lat":43.33725,"lon":5.39178,"is_reserved":false,"is_disabled":false,"rental_uris":{"android":"levelo://app?vid=82dc821e-8ff8-4e9f-a8c6-f837817238bb","ios":"levelo://app?vid=82dc821e-8ff8-4e9f-a8c6-f837817238bb"},"vehicle_type_id":"4","last_reported":1693670850,"current_range_meters":28800,"station_id":"ce4bhr92rcd13ifvqhsg","pricing_plan_id":"free"},{"bike_id":"3efe053d-0b92-41d8-8acd-c3a1490d76ae","system_id":"levelo_inurba_marseille","lat":43.33726,"lon":5.39178,"is_reserved":false,"is_disabled":false,"rental_uris":{"android":"levelo://app?vid=3efe053d-0b92-41d8-8acd-c3a1490d76ae","ios":"levelo://app?vid=3efe053d-0b92-41d8-8acd-c3a1490d76ae"},"vehicle_type_id":"4","last_reported":1693670850,"current_range_meters":21200,"station_id":"ce4bhr92rcd13ifvqhsg","pricing_plan_id":"free"},{"bike_id":"03994755-8379-4630-aa7b-504e87579b11","system_id":"levelo_inurba_marseille","lat":43.33724,"lon":5.39182,"is_reserved":false,"is_disabled":false,"rental_uris":{"android":"levelo://app?vid=03994755-8379-4630-aa7b-504e87579b11","ios":"levelo://app?vid=03994755-8379-4630-aa7b-504e87579b11"},"vehicle_type_id":"4","last_reported":1693670850,"current_range_meters":21200,"station_id":"ce4bhr92rcd13ifvqhsg","pricing_plan_id":"free"},{"bike_id":"cc4fce76-98bd-4ead-9d50-a1511a378d9d","system_id":"levelo_inurba_marseille","lat":43.33726,"lon":5.39179,"is_reserved":false,"is_disabled":false,"rental_uris":{"android":"levelo://app?vid=cc4fce76-98bd-4ead-9d50-a1511a378d9d","ios":"levelo://app?vid=cc4fce76-98bd-4ead-9d50-a1511a378d9d"},"vehicle_type_id":"4","last_reported":1693670850,"current_range_meters":2400,"station_id":"ce4bhr92rcd13ifvqhsg","pricing_plan_id":"free"},{"bike_id":"d4f8fdc8-dd11-460b-848b-d6bb0dc31981","system_id":"levelo_inurba_marseille","lat":43.33725,"lon":5.39182,"is_reserved":false,"is_disabled":false,"rental_uris":{"android":"levelo://app?vid=d4f8fdc8-dd11-460b-848b-d6bb0dc31981","ios":"levelo://app?vid=d4f8fdc8-dd11-460b-848b-d6bb0dc31981"},"vehicle_type_id":"4","last_reported":1693670850,"current_range_meters":22400,"station_id":"ce4bhr92rcd13ifvqhsg","pricing_plan_id":"free"},{"bike_id":"a3265c5d-9193-4674-a355-7ea902063f90","system_id":"levelo_inurba_marseille","lat":43.33727,"lon":5.39179,"is_reserved":false,"is_disabled":false,"rental_uris":{"android":"levelo://app?vid=a3265c5d-9193-4674-a355-7ea902063f90","ios":"levelo://app?vid=a3265c5d-9193-4674-a355-7ea902063f90"},"vehicle_type_id":"4","last_reported":1693670850,"current_range_meters":22000,"station_id":"ce4bhr92rcd13ifvqhsg","pricing_plan_id":"free"},{"bike_id":"326b6a09-50a1-48be-8aa7-5bcb858da8c7","system_id":"levelo_inurba_marseille","lat":43.33727,"lon":5.39183,"is_reserved":false,"is_disabled":false,"rental_uris":{"android":"levelo://app?vid=326b6a09-50a1-48be-8aa7-5bcb858da8c7","ios":"levelo://app?vid=326b6a09-50a1-48be-8aa7-5bcb858da8c7"},"vehicle_type_id":"4","last_reported":1693670850,"current_range_meters":26400,"station_id":"ce4bhr92rcd13ifvqhsg","pricing_plan_id":"free"},{"bike_id":"625d2051-4351-4010-bc78-8959de2ee300","system_id":"levelo_inurba_marseille","lat":43.33725,"lon":5.39187,"is_reserved":false,"is_disabled":false,"rental_uris":{"android":"levelo://app?vid=625d2051-4351-4010-bc78-8959de2ee300","ios":"levelo://app?vid=625d2051-4351-4010-bc78-8959de2ee300"},"vehicle_type_id":"4","last_reported":1693670850,"current_range_meters":30800,"station_id":"ce4bhr92rcd13ifvqhsg","pricing_plan_id":"free"},{"bike_id":"1d5f8301-80fc-4f72-9154-2f94c86e60d7","system_id":"levelo_inurba_marseille","lat":43.33727,"lon":5.39184,"is_reserved":false,"is_disabled":false,"rental_uris":{"android":"levelo://app?vid=1d5f8301-80fc-4f72-9154-2f94c86e60d7","ios":"levelo://app?vid=1d5f8301-80fc-4f72-9154-2f94c86e60d7"},"vehicle_type_id":"4","last_reported":1693670850,"current_range_meters":28800,"station_id":"ce4bhr92rcd13ifvqhsg","pricing_plan_id":"free"},{"bike_id":"2cac6c8c-a6ef-47c4-a9aa-c02f983fb281","system_id":"levelo_inurba_marseille","lat":43.33729,"lon":5.39183,"is_reserved":false,"is_disabled":false,"rental_uris":{"android":"levelo://app?vid=2cac6c8c-a6ef-47c4-a9aa-c02f983fb281","ios":"levelo://app?vid=2cac6c8c-a6ef-47c4-a9aa-c02f983fb281"},"vehicle_type_id":"4","last_reported":1693670850,"current_range_meters":30800,"station_id":"ce4bhr92rcd13ifvqhsg","pricing_plan_id":"free"},{"bike_id":"1dc0b252-8e49-4fb3-a9e2-81bb2f821949","system_id":"levelo_inurba_marseille","lat":43.33729,"lon":5.39184,"is_reserved":false,"is_disabled":false,"rental_uris":{"android":"levelo://app?vid=1dc0b252-8e49-4fb3-a9e2-81bb2f821949","ios":"levelo://app?vid=1dc0b252-8e49-4fb3-a9e2-81bb2f821949"},"vehicle_type_id":"4","last_reported":1693670850,"current_range_meters":24800,"station_id":"ce4bhr92rcd13ifvqhsg","pricing_plan_id":"free"},{"bike_id":"db938565-58f0-4345-ae80-fe4b442fc76d","system_id":"levelo_inurba_marseille","lat":43.33731,"lon":5.39183,"is_reserved":false,"is_disabled":false,"rental_uris":{"android":"levelo://app?vid=db938565-58f0-4345-ae80-fe4b442fc76d","ios":"levelo://app?vid=db938565-58f0-4345-ae80-fe4b442fc76d"},"vehicle_type_id":"4","last_reported":1693670850,"current_range_meters":27600,"station_id":"ce4bhr92rcd13ifvqhsg","pricing_plan_id":"free"},{"bike_id":"8e3edc88-68be-4a10-bfe6-c89fadb438fd","system_id":"levelo_inurba_marseille","lat":43.32339,"lon":5.40626,"is_reserved":false,"is_disabled":false,"rental_uris":{"android":"levelo://app?vid=8e3edc88-68be-4a10-bfe6-c89fadb438fd","ios":"levelo://app?vid=8e3edc88-68be-4a10-bfe6-c89fadb438fd"},"vehicle_type_id":"4","last_reported":1693670850,"current_range_meters":21200,"station_id":"ce4bhq92rcd13ifvqhjg","pricing_plan_id":"free"},{"bike_id":"962967fe-5cee-43b2-b0cd-c482cdde2008","system_id":"levelo_inurba_marseille","lat":43.33732,"lon":5.39183,"is_reserved":false,"is_disabled":false,"rental_uris":{"android":"levelo://app?vid=962967fe-5cee-43b2-b0cd-c482cdde2008","ios":"levelo://app?vid=962967fe-5cee-43b2-b0cd-c482cdde2008"},"vehicle_type_id":"4","last_reported":1693670850,"current_range_meters":24400,"station_id":"ce4bhr92rcd13ifvqhsg","pricing_plan_id":"free"},{"bike_id":"9cb19bf1-9533-4964-adf8-1993a9a8cdcb","system_id":"levelo_inurba_marseille","lat":43.3373,"lon":5.39187,"is_reserved":false,"is_disabled":false,"rental_uris":{"android":"levelo://app?vid=9cb19bf1-9533-4964-adf8-1993a9a8cdcb","ios":"levelo://app?vid=9cb19bf1-9533-4964-adf8-1993a9a8cdcb"},"vehicle_type_id":"4","last_reported":1693670850,"current_range_meters":30000,"station_id":"ce4bhr92rcd13ifvqhsg","pricing_plan_id":"free"},{"bike_id":"f54c5a62-88c4-4894-b7bc-7181d892d1fb","system_id":"levelo_inurba_marseille","lat":43.3373,"lon":5.39187,"is_reserved":false,"is_disabled":false,"rental_uris":{"android":"levelo://app?vid=f54c5a62-88c4-4894-b7bc-7181d892d1fb","ios":"levelo://app?vid=f54c5a62-88c4-4894-b7bc-7181d892d1fb"},"vehicle_type_id":"4","last_reported":1693670850,"current_range_meters":27200,"station_id":"ce4bhr92rcd13ifvqhsg","pricing_plan_id":"free"},{"bike_id":"414290bd-353b-41b2-bd9a-1d3c2c5739df","system_id":"levelo_inurba_marseille","lat":43.284793,"lon":5.384113,"is_reserved":false,"is_disabled":false,"rental_uris":{"android":"levelo://app?vid=414290bd-353b-41b2-bd9a-1d3c2c5739df","ios":"levelo://app?vid=414290bd-353b-41b2-bd9a-1d3c2c5739df"},"vehicle_type_id":"4","last_reported":1693670850,"current_range_meters":28400,"station_id":"ce4bh512rcd13ifvqe3g","pricing_plan_id":"free"},{"bike_id":"9d4cddf2-03f7-449a-9abd-cff3ff82fb78","system_id":"levelo_inurba_marseille","lat":43.284793,"lon":5.384119,"is_reserved":false,"is_disabled":false,"rental_uris":{"android":"levelo://app?vid=9d4cddf2-03f7-449a-9abd-cff3ff82fb78","ios":"levelo://app?vid=9d4cddf2-03f7-449a-9abd-cff3ff82fb78"},"vehicle_type_id":"4","last_reported":1693670850,"current_range_meters":20400,"station_id":"ce4bh512rcd13ifvqe3g","pricing_plan_id":"free"},{"bike_id":"81207e02-e329-4cea-9b6c-33ba9c0267d2","system_id":"levelo_inurba_marseille","lat":43.284787,"lon":5.384116,"is_reserved":false,"is_disabled":false,"rental_uris":{"android":"levelo://app?vid=81207e02-e329-4cea-9b6c-33ba9c0267d2","ios":"levelo://app?vid=81207e02-e329-4cea-9b6c-33ba9c0267d2"},"vehicle_type_id":"4","last_reported":1693670850,"current_range_meters":31200,"station_id":"ce4bh512rcd13ifvqe3g","pricing_plan_id":"free"},{"bike_id":"e6445585-18dc-4920-8568-26063a192b39","system_id":"levelo_inurba_marseille","lat":43.284787,"lon":5.384116,"is_reserved":false,"is_disabled":false,"rental_uris":{"android":"levelo://app?vid=e6445585-18dc-4920-8568-26063a192b39","ios":"levelo://app?vid=e6445585-18dc-4920-8568-26063a192b39"},"vehicle_type_id":"4","last_reported":1693670850,"current_range_meters":4000,"station_id":"ce4bh512rcd13ifvqe3g","pricing_plan_id":"free"},{"bike_id":"bb61ab60-08f4-4ca4-85f2-1776c72e6c66","system_id":"levelo_inurba_marseille","lat":43.288497,"lon":5.393089,"is_reserved":false,"is_disabled":false,"rental_uris":{"android":"levelo://app?vid=bb61ab60-08f4-4ca4-85f2-1776c72e6c66","ios":"levelo://app?vid=bb61ab60-08f4-4ca4-85f2-1776c72e6c66"},"vehicle_type_id":"4","last_reported":1693670850,"current_range_meters":23200,"station_id":"ce4bh2p2rcd13ifvqdi0","pricing_plan_id":"free"},{"bike_id":"dde35934-46df-48a3-92ed-5b2f8a9e9fb6","system_id":"levelo_inurba_marseille","lat":43.28356,"lon":5.38095,"is_reserved":false,"is_disabled":false,"rental_uris":{"android":"levelo://app?vid=dde35934-46df-48a3-92ed-5b2f8a9e9fb6","ios":"levelo://app?vid=dde35934-46df-48a3-92ed-5b2f8a9e9fb6"},"vehicle_type_id":"4","last_reported":1693670850,"current_range_meters":11600,"station_id":"ce4bh412rcd13ifvqdr0","pricing_plan_id":"free"},{"bike_id":"6fe04de3-cb02-4a46-87f3-7f6fe822fe74","system_id":"levelo_inurba_marseille","lat":43.28845,"lon":5.39323,"is_reserved":false,"is_disabled":false,"rental_uris":{"android":"levelo://app?vid=6fe04de3-cb02-4a46-87f3-7f6fe822fe74","ios":"levelo://app?vid=6fe04de3-cb02-4a46-87f3-7f6fe822fe74"},"vehicle_type_id":"4","last_reported":1693670850,"current_range_meters":0,"station_id":"ce4bh2p2rcd13ifvqdi0","pricing_plan_id":"free"},{"bike_id":"9269a1f8-7e71-4a71-a46f-30bd3932350c","system_id":"levelo_inurba_marseille","lat":43.283498,"lon":5.380948,"is_reserved":false,"is_disabled":false,"rental_uris":{"android":"levelo://app?vid=9269a1f8-7e71-4a71-a46f-30bd3932350c","ios":"levelo://app?vid=9269a1f8-7e71-4a71-a46f-30bd3932350c"},"vehicle_type_id":"4","last_reported":1693670850,"current_range_meters":3200,"station_id":"ce4bh412rcd13ifvqdr0","pricing_plan_id":"free"},{"bike_id":"4af541b6-a4d0-462f-9233-401ffaedbe5d","system_id":"levelo_inurba_marseille","lat":43.28355,"lon":5.381071,"is_reserved":false,"is_disabled":false,"rental_uris":{"android":"levelo://app?vid=4af541b6-a4d0-462f-9233-401ffaedbe5d","ios":"levelo://app?vid=4af541b6-a4d0-462f-9233-401ffaedbe5d"},"vehicle_type_id":"4","last_reported":1693670850,"current_range_meters":25600,"station_id":"ce4bh412rcd13ifvqdr0","pricing_plan_id":"free"},{"bike_id":"768a154f-efef-4b8b-9435-81c4047e969f","system_id":"levelo_inurba_marseille","lat":43.28427,"lon":5.34986,"is_reserved":false,"is_disabled":false,"rental_uris":{"android":"levelo://app?vid=768a154f-efef-4b8b-9435-81c4047e969f","ios":"levelo://app?vid=768a154f-efef-4b8b-9435-81c4047e969f"},"vehicle_type_id":"4","last_reported":1693670850,"current_range_meters":30800,"station_id":"ce4bhbh2rcd13ifvqepg","pricing_plan_id":"free"},{"bike_id":"414c24a5-4c78-4dd3-b056-a32bbc3553a8","system_id":"levelo_inurba_marseille","lat":43.28425,"lon":5.34986,"is_reserved":false,"is_disabled":false,"rental_uris":{"android":"levelo://app?vid=414c24a5-4c78-4dd3-b056-a32bbc3553a8","ios":"levelo://app?vid=414c24a5-4c78-4dd3-b056-a32bbc3553a8"},"vehicle_type_id":"4","last_reported":1693670850,"current_range_meters":16800,"station_id":"ce4bhbh2rcd13ifvqepg","pricing_plan_id":"free"},{"bike_id":"c99c29f1-44a7-4fdc-9143-ec561320cf12","system_id":"levelo_inurba_marseille","lat":43.28424,"lon":5.34982,"is_reserved":false,"is_disabled":false,"rental_uris":{"android":"levelo://app?vid=c99c29f1-44a7-4fdc-9143-ec561320cf12","ios":"levelo://app?vid=c99c29f1-44a7-4fdc-9143-ec561320cf12"},"vehicle_type_id":"4","last_reported":1693670850,"current_range_meters":31200,"station_id":"ce4bhbh2rcd13ifvqepg","pricing_plan_id":"free"},{"bike_id":"9691a5e5-2677-42a8-a125-460c330038be","system_id":"levelo_inurba_marseille","lat":43.284219,"lon":5.3497,"is_reserved":false,"is_disabled":false,"rental_uris":{"android":"levelo://app?vid=9691a5e5-2677-42a8-a125-460c330038be","ios":"levelo://app?vid=9691a5e5-2677-42a8-a125-460c330038be"},"vehicle_type_id":"4","last_reported":1693670850,"current_range_meters":7200,"station_id":"ce4bhbh2rcd13ifvqepg","pricing_plan_id":"free"},{"bike_id":"f50aca5f-cf5b-4020-925f-826a2e34874f","system_id":"levelo_inurba_marseille","lat":43.289363,"lon":5.396322,"is_reserved":false,"is_disabled":false,"rental_uris":{"android":"levelo://app?vid=f50aca5f-cf5b-4020-925f-826a2e34874f","ios":"levelo://app?vid=f50aca5f-cf5b-4020-925f-826a2e34874f"},"vehicle_type_id":"4","last_reported":1693670850,"current_range_meters":30000,"station_id":"ce4bh3h2rcd13ifvqdn0","pricing_plan_id":"free"},{"bike_id":"987db66b-379c-4673-8da7-0fd6971f4a76","system_id":"levelo_inurba_marseille","lat":43.28278,"lon":5.35067,"is_reserved":false,"is_disabled":false,"rental_uris":{"android":"levelo://app?vid=987db66b-379c-4673-8da7-0fd6971f4a76","ios":"levelo://app?vid=987db66b-379c-4673-8da7-0fd6971f4a76"},"vehicle_type_id":"4","last_reported":1693670850,"current_range_meters":31200,"station_id":"ce4bhbp2rcd13ifvqerg","pricing_plan_id":"free"},{"bike_id":"e19e5df0-097a-4ae0-8645-cd74b72afc1f","system_id":"levelo_inurba_marseille","lat":43.28272,"lon":5.35074,"is_reserved":false,"is_disabled":false,"rental_uris":{"android":"levelo://app?vid=e19e5df0-097a-4ae0-8645-cd74b72afc1f","ios":"levelo://app?vid=e19e5df0-097a-4ae0-8645-cd74b72afc1f"},"vehicle_type_id":"4","last_reported":1693670850,"current_range_meters":25600,"station_id":"ce4bhbp2rcd13ifvqerg","pricing_plan_id":"free"},{"bike_id":"1ba7aadd-3910-4e75-b01e-825937f1986d","system_id":"levelo_inurba_marseille","lat":43.282754,"lon":5.350519,"is_reserved":false,"is_disabled":false,"rental_uris":{"android":"levelo://app?vid=1ba7aadd-3910-4e75-b01e-825937f1986d","ios":"levelo://app?vid=1ba7aadd-3910-4e75-b01e-825937f1986d"},"vehicle_type_id":"4","last_reported":1693670850,"current_range_meters":2800,"station_id":"ce4bhbp2rcd13ifvqerg","pricing_plan_id":"free"},{"bike_id":"9f46cfde-4f76-4076-bade-5765c2d3d473","system_id":"levelo_inurba_marseille","lat":43.280382,"lon":5.369291,"is_reserved":false,"is_disabled":false,"rental_uris":{"android":"levelo://app?vid=9f46cfde-4f76-4076-bade-5765c2d3d473","ios":"levelo://app?vid=9f46cfde-4f76-4076-bade-5765c2d3d473"},"vehicle_type_id":"4","last_reported":1693670850,"current_range_meters":31200,"station_id":"ce4bha12rcd13ifvqef0","pricing_plan_id":"free"},{"bike_id":"1ba42cd0-2225-4b6c-815d-519a8da535cf","system_id":"levelo_inurba_marseille","lat":43.28109,"lon":5.3784,"is_reserved":false,"is_disabled":false,"rental_uris":{"android":"levelo://app?vid=1ba42cd0-2225-4b6c-815d-519a8da535cf","ios":"levelo://app?vid=1ba42cd0-2225-4b6c-815d-519a8da535cf"},"vehicle_type_id":"4","last_reported":1693670850,"current_range_meters":31200,"station_id":"ce4bha12rcd13ifvqee0","pricing_plan_id":"free"},{"bike_id":"28abf920-6160-452e-b515-1bf80641ce4f","system_id":"levelo_inurba_marseille","lat":43.28101,"lon":5.37838,"is_reserved":false,"is_disabled":false,"rental_uris":{"android":"levelo://app?vid=28abf920-6160-452e-b515-1bf80641ce4f","ios":"levelo://app?vid=28abf920-6160-452e-b515-1bf80641ce4f"},"vehicle_type_id":"4","last_reported":1693670850,"current_range_meters":31200,"station_id":"ce4bha12rcd13ifvqee0","pricing_plan_id":"free"},{"bike_id":"5249830d-68be-4a83-b57a-55ab96cae111","system_id":"levelo_inurba_marseille","lat":43.28573,"lon":5.394992,"is_reserved":false,"is_disabled":false,"rental_uris":{"android":"levelo://app?vid=5249830d-68be-4a83-b57a-55ab96cae111","ios":"levelo://app?vid=5249830d-68be-4a83-b57a-55ab96cae111"},"vehicle_type_id":"4","last_reported":1693670850,"current_range_meters":3600,"station_id":"ce4bh292rcd13ifvqdg0","pricing_plan_id":"free"},{"bike_id":"10024aec-f9aa-4cdc-a87f-512fe154911b","system_id":"levelo_inurba_marseille","lat":43.32662,"lon":5.40983,"is_reserved":false,"is_disabled":false,"rental_uris":{"android":"levelo://app?vid=10024aec-f9aa-4cdc-a87f-512fe154911b","ios":"levelo://app?vid=10024aec-f9aa-4cdc-a87f-512fe154911b"},"vehicle_type_id":"4","last_reported":1693670850,"current_range_meters":20800,"station_id":"ce4bhpp2rcd13ifvqhgg","pricing_plan_id":"free"},{"bike_id":"94b4e3d4-67ab-482f-81f1-ea0451a18ce4","system_id":"levelo_inurba_marseille","lat":43.3266,"lon":5.40985,"is_reserved":false,"is_disabled":false,"rental_uris":{"android":"levelo://app?vid=94b4e3d4-67ab-482f-81f1-ea0451a18ce4","ios":"levelo://app?vid=94b4e3d4-67ab-482f-81f1-ea0451a18ce4"},"vehicle_type_id":"4","last_reported":1693670850,"current_range_meters":23200,"station_id":"ce4bhpp2rcd13ifvqhgg","pricing_plan_id":"free"},{"bike_id":"2967e8f7-2a5c-44cb-a5f5-00cd1b832d66","system_id":"levelo_inurba_marseille","lat":43.32661,"lon":5.4099,"is_reserved":false,"is_disabled":false,"rental_uris":{"android":"levelo://app?vid=2967e8f7-2a5c-44cb-a5f5-00cd1b832d66","ios":"levelo://app?vid=2967e8f7-2a5c-44cb-a5f5-00cd1b832d66"},"vehicle_type_id":"4","last_reported":1693670850,"current_range_meters":28800,"station_id":"ce4bhpp2rcd13ifvqhgg","pricing_plan_id":"free"},{"bike_id":"db4fa881-c725-4e21-9287-51981cb7cbe1","system_id":"levelo_inurba_marseille","lat":43.326605,"lon":5.409903,"is_reserved":false,"is_disabled":false,"rental_uris":{"android":"levelo://app?vid=db4fa881-c725-4e21-9287-51981cb7cbe1","ios":"levelo://app?vid=db4fa881-c725-4e21-9287-51981cb7cbe1"},"vehicle_type_id":"4","last_reported":1693670850,"current_range_meters":0,"station_id":"ce4bhpp2rcd13ifvqhgg","pricing_plan_id":"free"},{"bike_id":"47607cfb-32cc-4da0-b0c2-a3149ce5dfa2","system_id":"levelo_inurba_marseille","lat":43.304188,"lon":5.412904,"is_reserved":false,"is_disabled":false,"rental_uris":{"android":"levelo://app?vid=47607cfb-32cc-4da0-b0c2-a3149ce5dfa2","ios":"levelo://app?vid=47607cfb-32cc-4da0-b0c2-a3149ce5dfa2"},"vehicle_type_id":"4","last_reported":1693670850,"current_range_meters":25200,"station_id":"ce4bhop2rcd13ifvqh8g","pricing_plan_id":"free"},{"bike_id":"7bd86006-f669-4835-b638-6e04ebc4b46d","system_id":"levelo_inurba_marseille","lat":43.304188,"lon":5.412904,"is_reserved":false,"is_disabled":false,"rental_uris":{"android":"levelo://app?vid=7bd86006-f669-4835-b638-6e04ebc4b46d","ios":"levelo://app?vid=7bd86006-f669-4835-b638-6e04ebc4b46d"},"vehicle_type_id":"4","last_reported":1693670850,"current_range_meters":23600,"station_id":"ce4bhop2rcd13ifvqh8g","pricing_plan_id":"free"},{"bike_id":"c4379cb0-f892-473b-a2f5-ad6fae331a94","system_id":"levelo_inurba_marseille","lat":43.304188,"lon":5.412904,"is_reserved":false,"is_disabled":false,"rental_uris":{"android":"levelo://app?vid=c4379cb0-f892-473b-a2f5-ad6fae331a94","ios":"levelo://app?vid=c4379cb0-f892-473b-a2f5-ad6fae331a94"},"vehicle_type_id":"4","last_reported":1693670850,"current_range_meters":15200,"station_id":"ce4bhop2rcd13ifvqh8g","pricing_plan_id":"free"},{"bike_id":"69c6b3e6-ccd3-43bf-ac70-c5b23f2e27e6","system_id":"levelo_inurba_marseille","lat":43.30421,"lon":5.41282,"is_reserved":false,"is_disabled":false,"rental_uris":{"android":"levelo://app?vid=69c6b3e6-ccd3-43bf-ac70-c5b23f2e27e6","ios":"levelo://app?vid=69c6b3e6-ccd3-43bf-ac70-c5b23f2e27e6"},"vehicle_type_id":"4","last_reported":1693670850,"current_range_meters":4800,"station_id":"ce4bhop2rcd13ifvqh8g","pricing_plan_id":"free"},{"bike_id":"5f3f1925-03f9-435e-b903-6834655774ed","system_id":"levelo_inurba_marseille","lat":43.304188,"lon":5.412904,"is_reserved":false,"is_disabled":false,"rental_uris":{"android":"levelo://app?vid=5f3f1925-03f9-435e-b903-6834655774ed","ios":"levelo://app?vid=5f3f1925-03f9-435e-b903-6834655774ed"},"vehicle_type_id":"4","last_reported":1693670850,"current_range_meters":8000,"station_id":"ce4bhop2rcd13ifvqh8g","pricing_plan_id":"free"},{"bike_id":"eb246eca-74c8-4d3e-9f95-f601532b6bd3","system_id":"levelo_inurba_marseille","lat":43.279087,"lon":5.380114,"is_reserved":false,"is_disabled":false,"rental_uris":{"android":"levelo://app?vid=eb246eca-74c8-4d3e-9f95-f601532b6bd3","ios":"levelo://app?vid=eb246eca-74c8-4d3e-9f95-f601532b6bd3"},"vehicle_type_id":"4","last_reported":1693670850,"current_range_meters":29200,"station_id":"ce4bhf92rcd13ifvqf50","pricing_plan_id":"free"},{"bike_id":"48f77d0c-f0e2-49c8-ab8a-1fc7c8cd2353","system_id":"levelo_inurba_marseille","lat":43.287154,"lon":5.399979,"is_reserved":false,"is_disabled":false,"rental_uris":{"android":"levelo://app?vid=48f77d0c-f0e2-49c8-ab8a-1fc7c8cd2353","ios":"levelo://app?vid=48f77d0c-f0e2-49c8-ab8a-1fc7c8cd2353"},"vehicle_type_id":"4","last_reported":1693670850,"current_range_meters":31200,"station_id":"ce4bho92rcd13ifvqh3g","pricing_plan_id":"free"},{"bike_id":"7093fdcd-6b83-4dc0-a25b-9053323d5d76","system_id":"levelo_inurba_marseille","lat":43.32041,"lon":5.41535,"is_reserved":false,"is_disabled":false,"rental_uris":{"android":"levelo://app?vid=7093fdcd-6b83-4dc0-a25b-9053323d5d76","ios":"levelo://app?vid=7093fdcd-6b83-4dc0-a25b-9053323d5d76"},"vehicle_type_id":"4","last_reported":1693670850,"current_range_meters":21600,"station_id":"","pricing_plan_id":"free"},{"bike_id":"3fb3c448-67e1-4431-93dc-d55438495f41","system_id":"levelo_inurba_marseille","lat":43.320045,"lon":5.415046,"is_reserved":false,"is_disabled":false,"rental_uris":{"android":"levelo://app?vid=3fb3c448-67e1-4431-93dc-d55438495f41","ios":"levelo://app?vid=3fb3c448-67e1-4431-93dc-d55438495f41"},"vehicle_type_id":"4","last_reported":1693670850,"current_range_meters":31200,"station_id":"ce4bhq92rcd13ifvqhkg","pricing_plan_id":"free"},{"bike_id":"c327718a-8fe6-4791-a349-aba0f8f94e82","system_id":"levelo_inurba_marseille","lat":43.279742,"lon":5.38744,"is_reserved":false,"is_disabled":false,"rental_uris":{"android":"levelo://app?vid=c327718a-8fe6-4791-a349-aba0f8f94e82","ios":"levelo://app?vid=c327718a-8fe6-4791-a349-aba0f8f94e82"},"vehicle_type_id":"4","last_reported":1693670850,"current_range_meters":22000,"station_id":"ce4bhg12rcd13ifvqf80","pricing_plan_id":"free"},{"bike_id":"bbf37dbd-9366-4875-8c58-8fe6570ee16d","system_id":"levelo_inurba_marseille","lat":43.292571,"lon":5.409107,"is_reserved":false,"is_disabled":false,"rental_uris":{"android":"levelo://app?vid=bbf37dbd-9366-4875-8c58-8fe6570ee16d","ios":"levelo://app?vid=bbf37dbd-9366-4875-8c58-8fe6570ee16d"},"vehicle_type_id":"4","last_reported":1693670850,"current_range_meters":22400,"station_id":"ce4bh192rcd13ifvqdc0","pricing_plan_id":"free"},{"bike_id":"e937028f-b4fb-4f03-a0dd-e1ec83a9c232","system_id":"levelo_inurba_marseille","lat":43.292571,"lon":5.409107,"is_reserved":false,"is_disabled":false,"rental_uris":{"android":"levelo://app?vid=e937028f-b4fb-4f03-a0dd-e1ec83a9c232","ios":"levelo://app?vid=e937028f-b4fb-4f03-a0dd-e1ec83a9c232"},"vehicle_type_id":"4","last_reported":1693670850,"current_range_meters":3200,"station_id":"ce4bh192rcd13ifvqdc0","pricing_plan_id":"free"},{"bike_id":"d43648e6-bb70-447e-b4a4-c74d1128cd12","system_id":"levelo_inurba_marseille","lat":43.325233,"lon":5.414318,"is_reserved":false,"is_disabled":false,"rental_uris":{"android":"levelo://app?vid=d43648e6-bb70-447e-b4a4-c74d1128cd12","ios":"levelo://app?vid=d43648e6-bb70-447e-b4a4-c74d1128cd12"},"vehicle_type_id":"4","last_reported":1693670850,"current_range_meters":30000,"station_id":"ce4bhq12rcd13ifvqhhg","pricing_plan_id":"free"},{"bike_id":"4929a1eb-d433-4a26-a10e-43f37eae5185","system_id":"levelo_inurba_marseille","lat":43.27619,"lon":5.36108,"is_reserved":false,"is_disabled":false,"rental_uris":{"android":"levelo://app?vid=4929a1eb-d433-4a26-a10e-43f37eae5185","ios":"levelo://app?vid=4929a1eb-d433-4a26-a10e-43f37eae5185"},"vehicle_type_id":"4","last_reported":1693670850,"current_range_meters":15200,"station_id":"ce4bgj92rcd13ifvqbe0","pricing_plan_id":"free"},{"bike_id":"f9978c80-b01c-4159-91b5-d53ceda68038","system_id":"levelo_inurba_marseille","lat":43.27617,"lon":5.3611,"is_reserved":false,"is_disabled":false,"rental_uris":{"android":"levelo://app?vid=f9978c80-b01c-4159-91b5-d53ceda68038","ios":"levelo://app?vid=f9978c80-b01c-4159-91b5-d53ceda68038"},"vehicle_type_id":"4","last_reported":1693670850,"current_range_meters":24400,"station_id":"ce4bgj92rcd13ifvqbe0","pricing_plan_id":"free"},{"bike_id":"9f3ee89b-5d3c-4027-ad93-4e5315bc07e8","system_id":"levelo_inurba_marseille","lat":43.276179,"lon":5.361009,"is_reserved":false,"is_disabled":false,"rental_uris":{"android":"levelo://app?vid=9f3ee89b-5d3c-4027-ad93-4e5315bc07e8","ios":"levelo://app?vid=9f3ee89b-5d3c-4027-ad93-4e5315bc07e8"},"vehicle_type_id":"4","last_reported":1693670850,"current_range_meters":28800,"station_id":"ce4bgj92rcd13ifvqbe0","pricing_plan_id":"free"},{"bike_id":"012a4c64-c5ce-4d86-829c-a5404eb71c9c","system_id":"levelo_inurba_marseille","lat":43.32539,"lon":5.41451,"is_reserved":false,"is_disabled":false,"rental_uris":{"android":"levelo://app?vid=012a4c64-c5ce-4d86-829c-a5404eb71c9c","ios":"levelo://app?vid=012a4c64-c5ce-4d86-829c-a5404eb71c9c"},"vehicle_type_id":"4","last_reported":1693670850,"current_range_meters":25200,"station_id":"ce4bhq12rcd13ifvqhhg","pricing_plan_id":"free"},{"bike_id":"619a2bd1-3c7e-4ff6-9334-5ce003088a98","system_id":"levelo_inurba_marseille","lat":43.325233,"lon":5.414318,"is_reserved":false,"is_disabled":false,"rental_uris":{"android":"levelo://app?vid=619a2bd1-3c7e-4ff6-9334-5ce003088a98","ios":"levelo://app?vid=619a2bd1-3c7e-4ff6-9334-5ce003088a98"},"vehicle_type_id":"4","last_reported":1693670850,"current_range_meters":25600,"station_id":"ce4bhq12rcd13ifvqhhg","pricing_plan_id":"free"},{"bike_id":"42870bf7-537e-40bd-a342-63c55bb5ebe8","system_id":"levelo_inurba_marseille","lat":43.27611,"lon":5.36106,"is_reserved":false,"is_disabled":false,"rental_uris":{"android":"levelo://app?vid=42870bf7-537e-40bd-a342-63c55bb5ebe8","ios":"levelo://app?vid=42870bf7-537e-40bd-a342-63c55bb5ebe8"},"vehicle_type_id":"4","last_reported":1693670850,"current_range_meters":30000,"station_id":"ce4bgj92rcd13ifvqbe0","pricing_plan_id":"free"},{"bike_id":"228a49f7-e44a-4457-824f-4af82856526d","system_id":"levelo_inurba_marseille","lat":43.276179,"lon":5.361009,"is_reserved":false,"is_disabled":false,"rental_uris":{"android":"levelo://app?vid=228a49f7-e44a-4457-824f-4af82856526d","ios":"levelo://app?vid=228a49f7-e44a-4457-824f-4af82856526d"},"vehicle_type_id":"4","last_reported":1693670850,"current_range_meters":30000,"station_id":"ce4bgj92rcd13ifvqbe0","pricing_plan_id":"free"},{"bike_id":"7ec8fe6e-6764-4096-92b9-819a60c9f134","system_id":"levelo_inurba_marseille","lat":43.276179,"lon":5.361009,"is_reserved":false,"is_disabled":false,"rental_uris":{"android":"levelo://app?vid=7ec8fe6e-6764-4096-92b9-819a60c9f134","ios":"levelo://app?vid=7ec8fe6e-6764-4096-92b9-819a60c9f134"},"vehicle_type_id":"4","last_reported":1693670850,"current_range_meters":22400,"station_id":"ce4bgj92rcd13ifvqbe0","pricing_plan_id":"free"},{"bike_id":"efa285f1-5f2b-4848-9597-ee57241e58f8","system_id":"levelo_inurba_marseille","lat":43.28079,"lon":5.39654,"is_reserved":false,"is_disabled":false,"rental_uris":{"android":"levelo://app?vid=efa285f1-5f2b-4848-9597-ee57241e58f8","ios":"levelo://app?vid=efa285f1-5f2b-4848-9597-ee57241e58f8"},"vehicle_type_id":"4","last_reported":1693670850,"current_range_meters":22000,"station_id":"ce4bho12rcd13ifvqh2g","pricing_plan_id":"free"},{"bike_id":"177b3628-ebbe-429f-ab41-65bfc80a4442","system_id":"levelo_inurba_marseille","lat":43.303837,"lon":5.418724,"is_reserved":false,"is_disabled":false,"rental_uris":{"android":"levelo://app?vid=177b3628-ebbe-429f-ab41-65bfc80a4442","ios":"levelo://app?vid=177b3628-ebbe-429f-ab41-65bfc80a4442"},"vehicle_type_id":"4","last_reported":1693670850,"current_range_meters":0,"station_id":"ce4bhop2rcd13ifvqh7g","pricing_plan_id":"free"},{"bike_id":"22a5e764-5d9c-422c-9853-04622b91983b","system_id":"levelo_inurba_marseille","lat":43.273613,"lon":5.362705,"is_reserved":false,"is_disabled":false,"rental_uris":{"android":"levelo://app?vid=22a5e764-5d9c-422c-9853-04622b91983b","ios":"levelo://app?vid=22a5e764-5d9c-422c-9853-04622b91983b"},"vehicle_type_id":"4","last_reported":1693670850,"current_range_meters":4400,"station_id":"ce4bhbh2rcd13ifvqeo0","pricing_plan_id":"free"},{"bike_id":"85d9f450-2166-45e7-8a1f-d22241012358","system_id":"levelo_inurba_marseille","lat":43.27378,"lon":5.36251,"is_reserved":false,"is_disabled":false,"rental_uris":{"android":"levelo://app?vid=85d9f450-2166-45e7-8a1f-d22241012358","ios":"levelo://app?vid=85d9f450-2166-45e7-8a1f-d22241012358"},"vehicle_type_id":"4","last_reported":1693670850,"current_range_meters":30400,"station_id":"ce4bhbh2rcd13ifvqeo0","pricing_plan_id":"free"},{"bike_id":"ee198a51-afc9-48c9-82f2-9e5b9a0bd052","system_id":"levelo_inurba_marseille","lat":43.27377,"lon":5.36252,"is_reserved":false,"is_disabled":false,"rental_uris":{"android":"levelo://app?vid=ee198a51-afc9-48c9-82f2-9e5b9a0bd052","ios":"levelo://app?vid=ee198a51-afc9-48c9-82f2-9e5b9a0bd052"},"vehicle_type_id":"4","last_reported":1693670850,"current_range_meters":31200,"station_id":"ce4bhbh2rcd13ifvqeo0","pricing_plan_id":"free"},{"bike_id":"82b1ca30-0cea-4772-95b4-e3916548c8ea","system_id":"levelo_inurba_marseille","lat":43.273613,"lon":5.362705,"is_reserved":false,"is_disabled":false,"rental_uris":{"android":"levelo://app?vid=82b1ca30-0cea-4772-95b4-e3916548c8ea","ios":"levelo://app?vid=82b1ca30-0cea-4772-95b4-e3916548c8ea"},"vehicle_type_id":"4","last_reported":1693670850,"current_range_meters":31200,"station_id":"ce4bhbh2rcd13ifvqeo0","pricing_plan_id":"free"},{"bike_id":"e6c70e06-5907-44f9-b60a-bb74caedaf7e","system_id":"levelo_inurba_marseille","lat":43.27375,"lon":5.36266,"is_reserved":false,"is_disabled":false,"rental_uris":{"android":"levelo://app?vid=e6c70e06-5907-44f9-b60a-bb74caedaf7e","ios":"levelo://app?vid=e6c70e06-5907-44f9-b60a-bb74caedaf7e"},"vehicle_type_id":"4","last_reported":1693670850,"current_range_meters":27600,"station_id":"ce4bhbh2rcd13ifvqeo0","pricing_plan_id":"free"},{"bike_id":"f6f8a970-a0d0-435b-b401-0e0f39ee3397","system_id":"levelo_inurba_marseille","lat":43.27373,"lon":5.36227,"is_reserved":false,"is_disabled":false,"rental_uris":{"android":"levelo://app?vid=f6f8a970-a0d0-435b-b401-0e0f39ee3397","ios":"levelo://app?vid=f6f8a970-a0d0-435b-b401-0e0f39ee3397"},"vehicle_type_id":"4","last_reported":1693670850,"current_range_meters":30400,"station_id":"ce4bhbh2rcd13ifvqeo0","pricing_plan_id":"free"},{"bike_id":"bd115f69-ae60-4e8e-bf0f-5af062289a14","system_id":"levelo_inurba_marseille","lat":43.33609,"lon":5.41027,"is_reserved":false,"is_disabled":false,"rental_uris":{"android":"levelo://app?vid=bd115f69-ae60-4e8e-bf0f-5af062289a14","ios":"levelo://app?vid=bd115f69-ae60-4e8e-bf0f-5af062289a14"},"vehicle_type_id":"4","last_reported":1693670850,"current_range_meters":22000,"station_id":"ce4bhqh2rcd13ifvqhmg","pricing_plan_id":"free"},{"bike_id":"39b5b5cf-86ef-48ea-a176-58e554756417","system_id":"levelo_inurba_marseille","lat":43.273609,"lon":5.362708,"is_reserved":false,"is_disabled":false,"rental_uris":{"android":"levelo://app?vid=39b5b5cf-86ef-48ea-a176-58e554756417","ios":"levelo://app?vid=39b5b5cf-86ef-48ea-a176-58e554756417"},"vehicle_type_id":"4","last_reported":1693670850,"current_range_meters":31200,"station_id":"ce4bhbh2rcd13ifvqeo0","pricing_plan_id":"free"},{"bike_id":"2c002134-e4d2-41d1-b436-28e8e2ea24ca","system_id":"levelo_inurba_marseille","lat":43.276769,"lon":5.388787,"is_reserved":false,"is_disabled":false,"rental_uris":{"android":"levelo://app?vid=2c002134-e4d2-41d1-b436-28e8e2ea24ca","ios":"levelo://app?vid=2c002134-e4d2-41d1-b436-28e8e2ea24ca"},"vehicle_type_id":"4","last_reported":1693670850,"current_range_meters":28000,"station_id":"ce4bhi12rcd13ifvqfo0","pricing_plan_id":"free"},{"bike_id":"0e4cb02d-45f7-41ac-b9bc-1134d8a73af1","system_id":"levelo_inurba_marseille","lat":43.317121,"lon":5.423936,"is_reserved":false,"is_disabled":false,"rental_uris":{"android":"levelo://app?vid=0e4cb02d-45f7-41ac-b9bc-1134d8a73af1","ios":"levelo://app?vid=0e4cb02d-45f7-41ac-b9bc-1134d8a73af1"},"vehicle_type_id":"4","last_reported":1693670850,"current_range_meters":11600,"station_id":"ce4bhp92rcd13ifvqhbg","pricing_plan_id":"free"},{"bike_id":"9a0370e7-fb25-49b6-8ae8-2cfdb64f59f0","system_id":"levelo_inurba_marseille","lat":43.317121,"lon":5.423936,"is_reserved":false,"is_disabled":false,"rental_uris":{"android":"levelo://app?vid=9a0370e7-fb25-49b6-8ae8-2cfdb64f59f0","ios":"levelo://app?vid=9a0370e7-fb25-49b6-8ae8-2cfdb64f59f0"},"vehicle_type_id":"4","last_reported":1693670850,"current_range_meters":12800,"station_id":"ce4bhp92rcd13ifvqhbg","pricing_plan_id":"free"},{"bike_id":"be2a8eb9-79fa-4e35-847e-30c276a95af9","system_id":"levelo_inurba_marseille","lat":43.31727,"lon":5.42397,"is_reserved":false,"is_disabled":false,"rental_uris":{"android":"levelo://app?vid=be2a8eb9-79fa-4e35-847e-30c276a95af9","ios":"levelo://app?vid=be2a8eb9-79fa-4e35-847e-30c276a95af9"},"vehicle_type_id":"4","last_reported":1693670850,"current_range_meters":9200,"station_id":"ce4bhp92rcd13ifvqhbg","pricing_plan_id":"free"},{"bike_id":"9716dc3f-c497-46ea-b378-af98a8744c04","system_id":"levelo_inurba_marseille","lat":43.310785,"lon":5.424305,"is_reserved":false,"is_disabled":false,"rental_uris":{"android":"levelo://app?vid=9716dc3f-c497-46ea-b378-af98a8744c04","ios":"levelo://app?vid=9716dc3f-c497-46ea-b378-af98a8744c04"},"vehicle_type_id":"4","last_reported":1693670850,"current_range_meters":16400,"station_id":"ce4bhp92rcd13ifvqhag","pricing_plan_id":"free"},{"bike_id":"9e1b75ef-9c6d-41fd-980d-cd3c637889ef","system_id":"levelo_inurba_marseille","lat":43.31723,"lon":5.42402,"is_reserved":false,"is_disabled":false,"rental_uris":{"android":"levelo://app?vid=9e1b75ef-9c6d-41fd-980d-cd3c637889ef","ios":"levelo://app?vid=9e1b75ef-9c6d-41fd-980d-cd3c637889ef"},"vehicle_type_id":"4","last_reported":1693670850,"current_range_meters":29200,"station_id":"ce4bhp92rcd13ifvqhbg","pricing_plan_id":"free"},{"bike_id":"8b7a8e6c-b8d3-462e-aafa-c5275b4b0ee5","system_id":"levelo_inurba_marseille","lat":43.310785,"lon":5.424305,"is_reserved":false,"is_disabled":false,"rental_uris":{"android":"levelo://app?vid=8b7a8e6c-b8d3-462e-aafa-c5275b4b0ee5","ios":"levelo://app?vid=8b7a8e6c-b8d3-462e-aafa-c5275b4b0ee5"},"vehicle_type_id":"4","last_reported":1693670850,"current_range_meters":29200,"station_id":"ce4bhp92rcd13ifvqhag","pricing_plan_id":"free"},{"bike_id":"0bd7d5b4-b1bb-49dd-97c4-fd9ae0b48a63","system_id":"levelo_inurba_marseille","lat":43.31082,"lon":5.42433,"is_reserved":false,"is_disabled":false,"rental_uris":{"android":"levelo://app?vid=0bd7d5b4-b1bb-49dd-97c4-fd9ae0b48a63","ios":"levelo://app?vid=0bd7d5b4-b1bb-49dd-97c4-fd9ae0b48a63"},"vehicle_type_id":"4","last_reported":1693670850,"current_range_meters":7200,"station_id":"ce4bhp92rcd13ifvqhag","pricing_plan_id":"free"},{"bike_id":"4b604f4d-e0bf-4434-b5ce-bd47f97df2ab","system_id":"levelo_inurba_marseille","lat":43.3414,"lon":5.40901,"is_reserved":false,"is_disabled":false,"rental_uris":{"android":"levelo://app?vid=4b604f4d-e0bf-4434-b5ce-bd47f97df2ab","ios":"levelo://app?vid=4b604f4d-e0bf-4434-b5ce-bd47f97df2ab"},"vehicle_type_id":"4","last_reported":1693670850,"current_range_meters":25200,"station_id":"ce4bhqh2rcd13ifvqhlg","pricing_plan_id":"free"},{"bike_id":"56fae68c-5275-441a-9dc9-be69facb353e","system_id":"levelo_inurba_marseille","lat":43.340804,"lon":5.410219,"is_reserved":false,"is_disabled":false,"rental_uris":{"android":"levelo://app?vid=56fae68c-5275-441a-9dc9-be69facb353e","ios":"levelo://app?vid=56fae68c-5275-441a-9dc9-be69facb353e"},"vehicle_type_id":"4","last_reported":1693670850,"current_range_meters":10400,"station_id":"ce4bhqh2rcd13ifvqhlg","pricing_plan_id":"free"},{"bike_id":"5b7591b5-d36b-4c83-921a-22f2a6d62a29","system_id":"levelo_inurba_marseille","lat":43.27323,"lon":5.39103,"is_reserved":false,"is_disabled":false,"rental_uris":{"android":"levelo://app?vid=5b7591b5-d36b-4c83-921a-22f2a6d62a29","ios":"levelo://app?vid=5b7591b5-d36b-4c83-921a-22f2a6d62a29"},"vehicle_type_id":"4","last_reported":1693670850,"current_range_meters":28800,"station_id":"ce4bhgp2rcd13ifvqfe0","pricing_plan_id":"free"},{"bike_id":"9e1965ab-ee5a-459a-8e10-a00b20f28ada","system_id":"levelo_inurba_marseille","lat":43.295523,"lon":5.422926,"is_reserved":false,"is_disabled":false,"rental_uris":{"android":"levelo://app?vid=9e1965ab-ee5a-459a-8e10-a00b20f28ada","ios":"levelo://app?vid=9e1965ab-ee5a-459a-8e10-a00b20f28ada"},"vehicle_type_id":"4","last_reported":1693670850,"current_range_meters":30800,"station_id":"ce4bhph2rcd13ifvqhdg","pricing_plan_id":"free"},{"bike_id":"bd6e9b91-23fb-42aa-8ce9-1bc0e257e36a","system_id":"levelo_inurba_marseille","lat":43.295523,"lon":5.422926,"is_reserved":false,"is_disabled":false,"rental_uris":{"android":"levelo://app?vid=bd6e9b91-23fb-42aa-8ce9-1bc0e257e36a","ios":"levelo://app?vid=bd6e9b91-23fb-42aa-8ce9-1bc0e257e36a"},"vehicle_type_id":"4","last_reported":1693670850,"current_range_meters":29600,"station_id":"ce4bhph2rcd13ifvqhdg","pricing_plan_id":"free"},{"bike_id":"fc4ff5fd-a624-4423-a91b-71b2e162ecea","system_id":"levelo_inurba_marseille","lat":43.295511,"lon":5.422926,"is_reserved":false,"is_disabled":false,"rental_uris":{"android":"levelo://app?vid=fc4ff5fd-a624-4423-a91b-71b2e162ecea","ios":"levelo://app?vid=fc4ff5fd-a624-4423-a91b-71b2e162ecea"},"vehicle_type_id":"4","last_reported":1693670850,"current_range_meters":14800,"station_id":"ce4bhph2rcd13ifvqhdg","pricing_plan_id":"free"},{"bike_id":"2059369e-4428-4279-b789-f9d28ebccbc3","system_id":"levelo_inurba_marseille","lat":43.29556,"lon":5.42296,"is_reserved":false,"is_disabled":false,"rental_uris":{"android":"levelo://app?vid=2059369e-4428-4279-b789-f9d28ebccbc3","ios":"levelo://app?vid=2059369e-4428-4279-b789-f9d28ebccbc3"},"vehicle_type_id":"4","last_reported":1693670850,"current_range_meters":18400,"station_id":"ce4bhph2rcd13ifvqhdg","pricing_plan_id":"free"},{"bike_id":"f16145e1-1551-4700-b563-f1e21d1a3d27","system_id":"levelo_inurba_marseille","lat":43.27204,"lon":5.39188,"is_reserved":false,"is_disabled":false,"rental_uris":{"android":"levelo://app?vid=f16145e1-1551-4700-b563-f1e21d1a3d27","ios":"levelo://app?vid=f16145e1-1551-4700-b563-f1e21d1a3d27"},"vehicle_type_id":"4","last_reported":1693670850,"current_range_meters":31200,"station_id":"ce4bhhp2rcd13ifvqfm0","pricing_plan_id":"free"},{"bike_id":"93ea3261-0952-4ac3-a27e-d0d9f5f9ad9d","system_id":"levelo_inurba_marseille","lat":43.272116,"lon":5.391747,"is_reserved":false,"is_disabled":false,"rental_uris":{"android":"levelo://app?vid=93ea3261-0952-4ac3-a27e-d0d9f5f9ad9d","ios":"levelo://app?vid=93ea3261-0952-4ac3-a27e-d0d9f5f9ad9d"},"vehicle_type_id":"4","last_reported":1693670850,"current_range_meters":800,"station_id":"ce4bhhp2rcd13ifvqfm0","pricing_plan_id":"free"},{"bike_id":"ce5ef27d-e13b-4b89-91c9-58904cd8c991","system_id":"levelo_inurba_marseille","lat":43.272116,"lon":5.391763,"is_reserved":false,"is_disabled":false,"rental_uris":{"android":"levelo://app?vid=ce5ef27d-e13b-4b89-91c9-58904cd8c991","ios":"levelo://app?vid=ce5ef27d-e13b-4b89-91c9-58904cd8c991"},"vehicle_type_id":"4","last_reported":1693670850,"current_range_meters":2800,"station_id":"ce4bhhp2rcd13ifvqfm0","pricing_plan_id":"free"},{"bike_id":"8a7c7936-e1ba-4b89-8b63-17209dc7f8ba","system_id":"levelo_inurba_marseille","lat":43.27815,"lon":5.40714,"is_reserved":false,"is_disabled":false,"rental_uris":{"android":"levelo://app?vid=8a7c7936-e1ba-4b89-8b63-17209dc7f8ba","ios":"levelo://app?vid=8a7c7936-e1ba-4b89-8b63-17209dc7f8ba"},"vehicle_type_id":"4","last_reported":1693670850,"current_range_meters":31200,"station_id":"ce4bhnh2rcd13ifvqgtg","pricing_plan_id":"free"},{"bike_id":"f7e9a106-8cb3-49a5-92fd-eac5dfe9c0fc","system_id":"levelo_inurba_marseille","lat":43.26681,"lon":5.382694,"is_reserved":false,"is_disabled":false,"rental_uris":{"android":"levelo://app?vid=f7e9a106-8cb3-49a5-92fd-eac5dfe9c0fc","ios":"levelo://app?vid=f7e9a106-8cb3-49a5-92fd-eac5dfe9c0fc"},"vehicle_type_id":"4","last_reported":1693670850,"current_range_meters":17600,"station_id":"ce4bhg92rcd13ifvqf90","pricing_plan_id":"free"},{"bike_id":"b27d7cd9-f2c3-432e-8d9b-58f5d064b21f","system_id":"levelo_inurba_marseille","lat":43.26681,"lon":5.382694,"is_reserved":false,"is_disabled":false,"rental_uris":{"android":"levelo://app?vid=b27d7cd9-f2c3-432e-8d9b-58f5d064b21f","ios":"levelo://app?vid=b27d7cd9-f2c3-432e-8d9b-58f5d064b21f"},"vehicle_type_id":"4","last_reported":1693670850,"current_range_meters":6000,"station_id":"ce4bhg92rcd13ifvqf90","pricing_plan_id":"free"},{"bike_id":"d1069aab-9de4-491a-8ca4-8e6afa5892f6","system_id":"levelo_inurba_marseille","lat":43.26681,"lon":5.382694,"is_reserved":false,"is_disabled":false,"rental_uris":{"android":"levelo://app?vid=d1069aab-9de4-491a-8ca4-8e6afa5892f6","ios":"levelo://app?vid=d1069aab-9de4-491a-8ca4-8e6afa5892f6"},"vehicle_type_id":"4","last_reported":1693670850,"current_range_meters":1600,"station_id":"ce4bhg92rcd13ifvqf90","pricing_plan_id":"free"},{"bike_id":"237db5b3-b8fb-4b9b-952e-2225a6c758a3","system_id":"levelo_inurba_marseille","lat":43.26552,"lon":5.3729,"is_reserved":false,"is_disabled":false,"rental_uris":{"android":"levelo://app?vid=237db5b3-b8fb-4b9b-952e-2225a6c758a3","ios":"levelo://app?vid=237db5b3-b8fb-4b9b-952e-2225a6c758a3"},"vehicle_type_id":"4","last_reported":1693670850,"current_range_meters":29600,"station_id":"ce4bhg12rcd13ifvqf70","pricing_plan_id":"free"},{"bike_id":"5f271ff1-82e5-4a20-8810-f3cc6a0ba1ca","system_id":"levelo_inurba_marseille","lat":43.2655,"lon":5.37287,"is_reserved":false,"is_disabled":false,"rental_uris":{"android":"levelo://app?vid=5f271ff1-82e5-4a20-8810-f3cc6a0ba1ca","ios":"levelo://app?vid=5f271ff1-82e5-4a20-8810-f3cc6a0ba1ca"},"vehicle_type_id":"4","last_reported":1693670850,"current_range_meters":31200,"station_id":"ce4bhg12rcd13ifvqf70","pricing_plan_id":"free"},{"bike_id":"15f4e2d8-66c4-4e68-8533-e36b48dfee49","system_id":"levelo_inurba_marseille","lat":43.27995,"lon":5.41664,"is_reserved":false,"is_disabled":false,"rental_uris":{"android":"levelo://app?vid=15f4e2d8-66c4-4e68-8533-e36b48dfee49","ios":"levelo://app?vid=15f4e2d8-66c4-4e68-8533-e36b48dfee49"},"vehicle_type_id":"4","last_reported":1693670850,"current_range_meters":14000,"station_id":"ce4bho12rcd13ifvqh1g","pricing_plan_id":"free"},{"bike_id":"b2c120fe-61b5-4490-82c5-e2678f511072","system_id":"levelo_inurba_marseille","lat":43.279975,"lon":5.416768,"is_reserved":false,"is_disabled":false,"rental_uris":{"android":"levelo://app?vid=b2c120fe-61b5-4490-82c5-e2678f511072","ios":"levelo://app?vid=b2c120fe-61b5-4490-82c5-e2678f511072"},"vehicle_type_id":"4","last_reported":1693670850,"current_range_meters":7200,"station_id":"","pricing_plan_id":"free"},{"bike_id":"f2c5720e-a06b-48fa-9a6e-b95da0039e58","system_id":"levelo_inurba_marseille","lat":43.265571,"lon":5.390032,"is_reserved":false,"is_disabled":false,"rental_uris":{"android":"levelo://app?vid=f2c5720e-a06b-48fa-9a6e-b95da0039e58","ios":"levelo://app?vid=f2c5720e-a06b-48fa-9a6e-b95da0039e58"},"vehicle_type_id":"4","last_reported":1693670850,"current_range_meters":15200,"station_id":"ce4bhe12rcd13ifvqf30","pricing_plan_id":"free"},{"bike_id":"2398eb32-dfb2-4410-8ce7-8129aca71209","system_id":"levelo_inurba_marseille","lat":43.26566,"lon":5.38997,"is_reserved":false,"is_disabled":false,"rental_uris":{"android":"levelo://app?vid=2398eb32-dfb2-4410-8ce7-8129aca71209","ios":"levelo://app?vid=2398eb32-dfb2-4410-8ce7-8129aca71209"},"vehicle_type_id":"4","last_reported":1693670850,"current_range_meters":21600,"station_id":"ce4bhe12rcd13ifvqf30","pricing_plan_id":"free"},{"bike_id":"df6fe33e-32d4-4852-9a82-bf0d73699d74","system_id":"levelo_inurba_marseille","lat":43.26566,"lon":5.3901,"is_reserved":false,"is_disabled":false,"rental_uris":{"android":"levelo://app?vid=df6fe33e-32d4-4852-9a82-bf0d73699d74","ios":"levelo://app?vid=df6fe33e-32d4-4852-9a82-bf0d73699d74"},"vehicle_type_id":"4","last_reported":1693670850,"current_range_meters":0,"station_id":"ce4bhe12rcd13ifvqf30","pricing_plan_id":"free"},{"bike_id":"86cfc155-a152-432e-80f4-b69575b2e33a","system_id":"levelo_inurba_marseille","lat":43.26942,"lon":5.40248,"is_reserved":false,"is_disabled":false,"rental_uris":{"android":"levelo://app?vid=86cfc155-a152-432e-80f4-b69575b2e33a","ios":"levelo://app?vid=86cfc155-a152-432e-80f4-b69575b2e33a"},"vehicle_type_id":"4","last_reported":1693670850,"current_range_meters":23600,"station_id":"cjm6bp8fraef2m0cb0m0","pricing_plan_id":"free"},{"bike_id":"0a9d6b34-fdad-42a2-92a2-bd4e81a04b9d","system_id":"levelo_inurba_marseille","lat":43.26949,"lon":5.40262,"is_reserved":false,"is_disabled":false,"rental_uris":{"android":"levelo://app?vid=0a9d6b34-fdad-42a2-92a2-bd4e81a04b9d","ios":"levelo://app?vid=0a9d6b34-fdad-42a2-92a2-bd4e81a04b9d"},"vehicle_type_id":"4","last_reported":1693670850,"current_range_meters":17200,"station_id":"cjm6bp8fraef2m0cb0m0","pricing_plan_id":"free"},{"bike_id":"7910c27e-1ec8-4c83-bd4b-3f50cf512fac","system_id":"levelo_inurba_marseille","lat":43.26942,"lon":5.4025,"is_reserved":false,"is_disabled":false,"rental_uris":{"android":"levelo://app?vid=7910c27e-1ec8-4c83-bd4b-3f50cf512fac","ios":"levelo://app?vid=7910c27e-1ec8-4c83-bd4b-3f50cf512fac"},"vehicle_type_id":"4","last_reported":1693670850,"current_range_meters":22800,"station_id":"cjm6bp8fraef2m0cb0m0","pricing_plan_id":"free"},{"bike_id":"9b30ae18-db0b-4427-8d90-c268a93daabd","system_id":"levelo_inurba_marseille","lat":43.261782,"lon":5.374515,"is_reserved":false,"is_disabled":false,"rental_uris":{"android":"levelo://app?vid=9b30ae18-db0b-4427-8d90-c268a93daabd","ios":"levelo://app?vid=9b30ae18-db0b-4427-8d90-c268a93daabd"},"vehicle_type_id":"4","last_reported":1693670850,"current_range_meters":400,"station_id":"ce4bhgp2rcd13ifvqfc0","pricing_plan_id":"free"},{"bike_id":"0bbe9bdc-d131-40e3-bc6c-0b2b98928703","system_id":"levelo_inurba_marseille","lat":43.261782,"lon":5.374515,"is_reserved":false,"is_disabled":false,"rental_uris":{"android":"levelo://app?vid=0bbe9bdc-d131-40e3-bc6c-0b2b98928703","ios":"levelo://app?vid=0bbe9bdc-d131-40e3-bc6c-0b2b98928703"},"vehicle_type_id":"4","last_reported":1693670850,"current_range_meters":26000,"station_id":"ce4bhgp2rcd13ifvqfc0","pricing_plan_id":"free"},{"bike_id":"fb98e10b-2c58-4d20-9209-64ab1fdf50bd","system_id":"levelo_inurba_marseille","lat":43.261782,"lon":5.374515,"is_reserved":false,"is_disabled":false,"rental_uris":{"android":"levelo://app?vid=fb98e10b-2c58-4d20-9209-64ab1fdf50bd","ios":"levelo://app?vid=fb98e10b-2c58-4d20-9209-64ab1fdf50bd"},"vehicle_type_id":"4","last_reported":1693670850,"current_range_meters":400,"station_id":"ce4bhgp2rcd13ifvqfc0","pricing_plan_id":"free"},