{"last_updated":1728630545,"ttl":60,"version":"2.2","data":{"bikes":[{"bike_id":"2e022589-322b-4976-99cd-592204bc0aaa","system_id":"levelo_inurba_marseille","lat":43.24075,"lon":5.37753,"is_reserved":false,"is_disabled":false,"rental_uris":{"android":"levelo://app?vid=2e022589-322b-4976-99cd-592204bc0aaa","ios":"levelo://app?vid=2e022589-322b-4976-99cd-592204bc0aaa"},"vehicle_type_id":"4","last_reported":1728630545,"current_range_meters":36400,"station_id":"ce4bhnp2rcd13ifvqgvg","pricing_plan_id":"cebpf4jnsgd1na2vs0mg"},{"bike_id":"aabfad40-8505-40ce-9267-07d9b83d8188","system_id":"levelo_inurba_marseille","lat":43.29925,"lon":5.37473,"is_reserved":false,"is_disabled":false,"rental_uris":{"android":"levelo://app?vid=aabfad40-8505-40ce-9267-07d9b83d8188","ios":"levelo://app?vid=aabfad40-8505-40ce-9267-07d9b83d8188"},"vehicle_type_id":"4","last_reported":1728630545,"current_range_meters":16000,"station_id":"ce4bgjh2rcd13ifvqbg0","pricing_plan_id":"cebpf4jnsgd1na2vs0mg"},{"bike_id":"790ab9fa-a1fb-4f9c-962d-dc7f66763007","system_id":"levelo_inurba_marseille","lat":43.29077,"lon":5.355897,"is_reserved":false,"is_disabled":false,"rental_uris":{"android":"levelo://app?vid=790ab9fa-a1fb-4f9c-962d-dc7f66763007","ios":"levelo://app?vid=790ab9fa-a1fb-4f9c-962d-dc7f66763007"},"vehicle_type_id":"4","last_reported":1728630545,"current_range_meters":22800,"station_id":"ce4bhb92rcd13ifvqen0","pricing_plan_id":"cebpf4jnsgd1na2vs0mg"},{"bike_id":"24e1921a-3717-41f5-9f2d-6e166fd96770","system_id":"levelo_inurba_marseille","lat":43.30548,"lon":5.36703,"is_reserved":false,"is_disabled":false,"rental_uris":{"android":"levelo://app?vid=24e1921a-3717-41f5-9f2d-6e166fd96770","ios":"levelo://app?vid=24e1921a-3717-41f5-9f2d-6e166fd96770"},"vehicle_type_id":"4","last_reported":1728630545,"current_range_meters":16000,"station_id":"ce4bgrp2rcd13ifvqc9g","pricing_plan_id":"cebpf4jnsgd1na2vs0mg"},{"bike_id":"798430c4-9d38-4016-8e47-8689eec2e7a0","system_id":"levelo_inurba_marseille","lat":43.28943,"lon":5.36414,"is_reserved":false,"is_disabled":false,"rental_uris":{"android":"levelo://app?vid=798430c4-9d38-4016-8e47-8689eec2e7a0","ios":"levelo://app?vid=798430c4-9d38-4016-8e47-8689eec2e7a0"},"vehicle_type_id":"4","last_reported":1728630545,"current_range_meters":23200,"station_id":"ce4bhc92rcd13ifvqetg","pricing_plan_id":"cebpf4jnsgd1na2vs0mg"},{"bike_id":"81a94aa0-1345-4656-900c-180819b6bae9","system_id":"levelo_inurba_marseille","lat":43.33612,"lon":5.41034,"is_reserved":false,"is_disabled":false,"rental_uris":{"android":"levelo://app?vid=81a94aa0-1345-4656-900c-180819b6bae9","ios":"levelo://app?vid=81a94aa0-1345-4656-900c-180819b6bae9"},"vehicle_type_id":"4","last_reported":1728630545,"current_range_meters":36400,"station_id":"ce4bhqh2rcd13ifvqhmg","pricing_plan_id":"cebpf4jnsgd1na2vs0mg"},{"bike_id":"d3ec245f-0a3f-416b-a911-c82b4c789946","system_id":"levelo_inurba_marseille","lat":43.25579,"lon":5.38226,"is_reserved":false,"is_disabled":false,"rental_uris":{"android":"levelo://app?vid=d3ec245f-0a3f-416b-a911-c82b4c789946","ios":"levelo://app?vid=d3ec245f-0a3f-416b-a911-c82b4c789946"},"vehicle_type_id":"4","last_reported":1728630545,"current_range_meters":27600,"station_id":"ce4bhih2rcd13ifvqfs0","pricing_plan_id":"cebpf4jnsgd1na2vs0mg"},{"bike_id":"614fcf33-fe92-4b08-b7e2-229ca4310cc8","system_id":"levelo_inurba_marseille","lat":43.30946,"lon":5.39027,"is_reserved":false,"is_disabled":false,"rental_uris":{"android":"levelo://app?vid=614fcf33-fe92-4b08-b7e2-229ca4310cc8","ios":"levelo://app?vid=614fcf33-fe92-4b08-b7e2-229ca4310cc8"},"vehicle_type_id":"4","last_reported":1728630545,"current_range_meters":2000,"station_id":"ce4bgup2rcd13ifvqco0","pricing_plan_id":"cebpf4jnsgd1na2vs0mg"},{"bike_id":"77689480-1102-4362-9bd6-4215d753152c","system_id":"levelo_inurba_marseille","lat":43.24077,"lon":5.37756,"is_reserved":false,"is_disabled":false,"rental_uris":{"android":"levelo://app?vid=77689480-1102-4362-9bd6-4215d753152c","ios":"levelo://app?vid=77689480-1102-4362-9bd6-4215d753152c"},"vehicle_type_id":"4","last_reported":1728630545,"current_range_meters":18800,"station_id":"ce4bhnp2rcd13ifvqgvg","pricing_plan_id":"cebpf4jnsgd1na2vs0mg"},{"bike_id":"0183368c-96d7-4f89-82c5-74922cac2536","system_id":"levelo_inurba_marseille","lat":43.24075,"lon":5.37763,"is_reserved":false,"is_disabled":false,"rental_uris":{"android":"levelo://app?vid=0183368c-96d7-4f89-82c5-74922cac2536","ios":"levelo://app?vid=0183368c-96d7-4f89-82c5-74922cac2536"},"vehicle_type_id":"4","last_reported":1728630545,"current_range_meters":19600,"station_id":"ce4bhnp2rcd13ifvqgvg","pricing_plan_id":"cebpf4jnsgd1na2vs0mg"},{"bike_id":"a5647427-7621-4ca3-b106-42c99639cf54","system_id":"levelo_inurba_marseille","lat":43.29076,"lon":5.37174,"is_reserved":false,"is_disabled":false,"rental_uris":{"android":"levelo://app?vid=a5647427-7621-4ca3-b106-42c99639cf54","ios":"levelo://app?vid=a5647427-7621-4ca3-b106-42c99639cf54"},"vehicle_type_id":"4","last_reported":1728630545,"current_range_meters":22400,"station_id":"ce4bh5p2rcd13ifvqe4g","pricing_plan_id":"cebpf4jnsgd1na2vs0mg"},{"bike_id":"85cf2ae9-9474-4a4e-b0a1-a14e92ed8e06","system_id":"levelo_inurba_marseille","lat":43.27489,"lon":5.42448,"is_reserved":false,"is_disabled":false,"rental_uris":{"android":"levelo://app?vid=85cf2ae9-9474-4a4e-b0a1-a14e92ed8e06","ios":"levelo://app?vid=85cf2ae9-9474-4a4e-b0a1-a14e92ed8e06"},"vehicle_type_id":"4","last_reported":1728630545,"current_range_meters":12400,"station_id":"ce4bhn92rcd13ifvqgrg","pricing_plan_id":"cebpf4jnsgd1na2vs0mg"},{"bike_id":"78545a56-8c6d-4801-87b8-fc882a3cb7a0","system_id":"levelo_inurba_marseille","lat":43.25007,"lon":5.38193,"is_reserved":false,"is_disabled":false,"rental_uris":{"android":"levelo://app?vid=78545a56-8c6d-4801-87b8-fc882a3cb7a0","ios":"levelo://app?vid=78545a56-8c6d-4801-87b8-fc882a3cb7a0"},"vehicle_type_id":"4","last_reported":1728630545,"current_range_meters":26000,"station_id":"","pricing_plan_id":"cebpf4jnsgd1na2vs0mg"},{"bike_id":"58714ee7-544a-4419-b22f-d7e363d45639","system_id":"levelo_inurba_marseille","lat":43.24084,"lon":5.37753,"is_reserved":false,"is_disabled":false,"rental_uris":{"android":"levelo://app?vid=58714ee7-544a-4419-b22f-d7e363d45639","ios":"levelo://app?vid=58714ee7-544a-4419-b22f-d7e363d45639"},"vehicle_type_id":"4","last_reported":1728630545,"current_range_meters":17200,"station_id":"ce4bhnp2rcd13ifvqgvg","pricing_plan_id":"cebpf4jnsgd1na2vs0mg"},{"bike_id":"12982886-975d-46e6-a78a-b3609167b1bd","system_id":"levelo_inurba_marseille","lat":43.3019,"lon":5.39361,"is_reserved":false,"is_disabled":false,"rental_uris":{"android":"levelo://app?vid=12982886-975d-46e6-a78a-b3609167b1bd","ios":"levelo://app?vid=12982886-975d-46e6-a78a-b3609167b1bd"},"vehicle_type_id":"4","last_reported":1728630545,"current_range_meters":18800,"station_id":"ce4bh192rcd13ifvqdd0","pricing_plan_id":"cebpf4jnsgd1na2vs0mg"},{"bike_id":"5ce2a66a-b949-4239-ae17-6ee1644fc5f2","system_id":"levelo_inurba_marseille","lat":43.25495,"lon":5.37637,"is_reserved":false,"is_disabled":false,"rental_uris":{"android":"levelo://app?vid=5ce2a66a-b949-4239-ae17-6ee1644fc5f2","ios":"levelo://app?vid=5ce2a66a-b949-4239-ae17-6ee1644fc5f2"},"vehicle_type_id":"4","last_reported":1728630545,"current_range_meters":16000,"station_id":"ce4bhh12rcd13ifvqff0","pricing_plan_id":"cebpf4jnsgd1na2vs0mg"},{"bike_id":"6cb2fd54-0aca-4f7d-aadb-bc057dc4fb59","system_id":"levelo_inurba_marseille","lat":43.23067,"lon":5.35491,"is_reserved":false,"is_disabled":false,"rental_uris":{"android":"levelo://app?vid=6cb2fd54-0aca-4f7d-aadb-bc057dc4fb59","ios":"levelo://app?vid=6cb2fd54-0aca-4f7d-aadb-bc057dc4fb59"},"vehicle_type_id":"4","last_reported":1728630545,"current_range_meters":28800,"station_id":"cpo3342slgdg3j2ifvpg","pricing_plan_id":"cebpf4jnsgd1na2vs0mg"},{"bike_id":"d20b4248-35bc-4039-8d5f-bfdece89d8fb","system_id":"levelo_inurba_marseille","lat":43.31222,"lon":5.36844,"is_reserved":false,"is_disabled":false,"rental_uris":{"android":"levelo://app?vid=d20b4248-35bc-4039-8d5f-bfdece89d8fb","ios":"levelo://app?vid=d20b4248-35bc-4039-8d5f-bfdece89d8fb"},"vehicle_type_id":"4","last_reported":1728630545,"current_range_meters":20000,"station_id":"ce4bgl92rcd13ifvqbq0","pricing_plan_id":"cebpf4jnsgd1na2vs0mg"},{"bike_id":"01573a1f-932c-4ee1-8ea5-df6b7a042c38","system_id":"levelo_inurba_marseille","lat":43.27185,"lon":5.41009,"is_reserved":false,"is_disabled":false,"rental_uris":{"android":"levelo://app?vid=01573a1f-932c-4ee1-8ea5-df6b7a042c38","ios":"levelo://app?vid=01573a1f-932c-4ee1-8ea5-df6b7a042c38"},"vehicle_type_id":"4","last_reported":1728630545,"current_range_meters":33600,"station_id":"ce4bhl12rcd13ifvqgf0","pricing_plan_id":"cebpf4jnsgd1na2vs0mg"},{"bike_id":"976dc33d-4f90-4788-ac00-33c358d3c2e8","system_id":"levelo_inurba_marseille","lat":43.30478,"lon":5.37908,"is_reserved":false,"is_disabled":false,"rental_uris":{"android":"levelo://app?vid=976dc33d-4f90-4788-ac00-33c358d3c2e8","ios":"levelo://app?vid=976dc33d-4f90-4788-ac00-33c358d3c2e8"},"vehicle_type_id":"4","last_reported":1728630545,"current_range_meters":30800,"station_id":"ce4bgup2rcd13ifvqcn0","pricing_plan_id":"cebpf4jnsgd1na2vs0mg"},{"bike_id":"7ae79265-a4f3-408c-9c9a-ba4aa51d6423","system_id":"levelo_inurba_marseille","lat":43.24675,"lon":5.38153,"is_reserved":false,"is_disabled":false,"rental_uris":{"android":"levelo://app?vid=7ae79265-a4f3-408c-9c9a-ba4aa51d6423","ios":"levelo://app?vid=7ae79265-a4f3-408c-9c9a-ba4aa51d6423"},"vehicle_type_id":"4","last_reported":1728630545,"current_range_meters":36000,"station_id":"ce4bhih2rcd13ifvqfr0","pricing_plan_id":"cebpf4jnsgd1na2vs0mg"},{"bike_id":"2909648b-39f2-4b1f-bb7d-ba41a7b3f5aa","system_id":"levelo_inurba_marseille","lat":43.28451,"lon":5.38408,"is_reserved":false,"is_disabled":false,"rental_uris":{"android":"levelo://app?vid=2909648b-39f2-4b1f-bb7d-ba41a7b3f5aa","ios":"levelo://app?vid=2909648b-39f2-4b1f-bb7d-ba41a7b3f5aa"},"vehicle_type_id":"4","last_reported":1728630545,"current_range_meters":8400,"station_id":"ce4bh512rcd13ifvqe3g","pricing_plan_id":"cebpf4jnsgd1na2vs0mg"},{"bike_id":"8fbba600-e710-4b1a-9f18-9688fa573f8c","system_id":"levelo_inurba_marseille","lat":43.3013,"lon":5.38775,"is_reserved":false,"is_disabled":false,"rental_uris":{"android":"levelo://app?vid=8fbba600-e710-4b1a-9f18-9688fa573f8c","ios":"levelo://app?vid=8fbba600-e710-4b1a-9f18-9688fa573f8c"},"vehicle_type_id":"4","last_reported":1728630545,"current_range_meters":29600,"station_id":"ce4bghh2rcd13ifvqb60","pricing_plan_id":"cebpf4jnsgd1na2vs0mg"},{"bike_id":"155a479a-53f8-4090-bf0e-5d55fd1d151a","system_id":"levelo_inurba_marseille","lat":43.28718,"lon":5.37935,"is_reserved":false,"is_disabled":false,"rental_uris":{"android":"levelo://app?vid=155a479a-53f8-4090-bf0e-5d55fd1d151a","ios":"levelo://app?vid=155a479a-53f8-4090-bf0e-5d55fd1d151a"},"vehicle_type_id":"4","last_reported":1728630545,"current_range_meters":29600,"station_id":"ce4bh9p2rcd13ifvqec0","pricing_plan_id":"cebpf4jnsgd1na2vs0mg"},{"bike_id":"0187423b-1007-4577-ba76-46b5a1b4833b","system_id":"levelo_inurba_marseille","lat":43.30473,"lon":5.37895,"is_reserved":false,"is_disabled":false,"rental_uris":{"android":"levelo://app?vid=0187423b-1007-4577-ba76-46b5a1b4833b","ios":"levelo://app?vid=0187423b-1007-4577-ba76-46b5a1b4833b"},"vehicle_type_id":"4","last_reported":1728630545,"current_range_meters":24800,"station_id":"ce4bgup2rcd13ifvqcn0","pricing_plan_id":"cebpf4jnsgd1na2vs0mg"},{"bike_id":"7f667109-b042-44bb-b00f-5f2e609d7214","system_id":"levelo_inurba_marseille","lat":43.26929,"lon":5.38918,"is_reserved":false,"is_disabled":false,"rental_uris":{"android":"levelo://app?vid=7f667109-b042-44bb-b00f-5f2e609d7214","ios":"levelo://app?vid=7f667109-b042-44bb-b00f-5f2e609d7214"},"vehicle_type_id":"4","last_reported":1728630545,"current_range_meters":14000,"station_id":"ce4bhhh2rcd13ifvqfl0","pricing_plan_id":"cebpf4jnsgd1na2vs0mg"},{"bike_id":"b1506b2f-63d6-4e59-9e59-7ce6b862262a","system_id":"levelo_inurba_marseille","lat":43.324921,"lon":5.366917,"is_reserved":false,"is_disabled":false,"rental_uris":{"android":"levelo://app?vid=b1506b2f-63d6-4e59-9e59-7ce6b862262a","ios":"levelo://app?vid=b1506b2f-63d6-4e59-9e59-7ce6b862262a"},"vehicle_type_id":"4","last_reported":1728630545,"current_range_meters":22400,"station_id":"ce4bhs12rcd13ifvqhvg","pricing_plan_id":"cebpf4jnsgd1na2vs0mg"},{"bike_id":"f21ff7cf-a5e7-4036-9a78-a2aa83b6340b","system_id":"levelo_inurba_marseille","lat":43.23196,"lon":5.35547,"is_reserved":false,"is_disabled":false,"rental_uris":{"android":"levelo://app?vid=f21ff7cf-a5e7-4036-9a78-a2aa83b6340b","ios":"levelo://app?vid=f21ff7cf-a5e7-4036-9a78-a2aa83b6340b"},"vehicle_type_id":"4","last_reported":1728630545,"current_range_meters":37600,"station_id":"ce4bhu92rcd13ifvqi70","pricing_plan_id":"cebpf4jnsgd1na2vs0mg"},{"bike_id":"bcaaa51d-ad25-473b-b5f0-7f594e008a4c","system_id":"levelo_inurba_marseille","lat":43.28355,"lon":5.38641,"is_reserved":false,"is_disabled":false,"rental_uris":{"android":"levelo://app?vid=bcaaa51d-ad25-473b-b5f0-7f594e008a4c","ios":"levelo://app?vid=bcaaa51d-ad25-473b-b5f0-7f594e008a4c"},"vehicle_type_id":"4","last_reported":1728630545,"current_range_meters":23200,"station_id":"ce4bh492rcd13ifvqdvg","pricing_plan_id":"cebpf4jnsgd1na2vs0mg"},{"bike_id":"128684c8-a24d-4e86-b999-fc47fbedfff3","system_id":"levelo_inurba_marseille","lat":43.27663,"lon":5.38904,"is_reserved":false,"is_disabled":false,"rental_uris":{"android":"levelo://app?vid=128684c8-a24d-4e86-b999-fc47fbedfff3","ios":"levelo://app?vid=128684c8-a24d-4e86-b999-fc47fbedfff3"},"vehicle_type_id":"4","last_reported":1728630545,"current_range_meters":38800,"station_id":"ce4bhi12rcd13ifvqfo0","pricing_plan_id":"cebpf4jnsgd1na2vs0mg"},{"bike_id":"58670b42-e2a3-4d53-b097-cebf5e851be7","system_id":"levelo_inurba_marseille","lat":43.33751,"lon":5.37455,"is_reserved":false,"is_disabled":false,"rental_uris":{"android":"levelo://app?vid=58670b42-e2a3-4d53-b097-cebf5e851be7","ios":"levelo://app?vid=58670b42-e2a3-4d53-b097-cebf5e851be7"},"vehicle_type_id":"4","last_reported":1728630545,"current_range_meters":29600,"station_id":"","pricing_plan_id":"cebpf4jnsgd1na2vs0mg"},{"bike_id":"cff5374c-aa07-46df-a0b1-ce6c4e44bddd","system_id":"levelo_inurba_marseille","lat":43.26693,"lon":5.38281,"is_reserved":false,"is_disabled":false,"rental_uris":{"android":"levelo://app?vid=cff5374c-aa07-46df-a0b1-ce6c4e44bddd","ios":"levelo://app?vid=cff5374c-aa07-46df-a0b1-ce6c4e44bddd"},"vehicle_type_id":"4","last_reported":1728630545,"current_range_meters":29600,"station_id":"ce4bhg92rcd13ifvqf90","pricing_plan_id":"cebpf4jnsgd1na2vs0mg"},{"bike_id":"dbaf4daf-bb17-4efd-8cea-cd94262b1bde","system_id":"levelo_inurba_marseille","lat":43.31221,"lon":5.36865,"is_reserved":false,"is_disabled":false,"rental_uris":{"android":"levelo://app?vid=dbaf4daf-bb17-4efd-8cea-cd94262b1bde","ios":"levelo://app?vid=dbaf4daf-bb17-4efd-8cea-cd94262b1bde"},"vehicle_type_id":"4","last_reported":1728630545,"current_range_meters":28000,"station_id":"ce4bgl92rcd13ifvqbq0","pricing_plan_id":"cebpf4jnsgd1na2vs0mg"},{"bike_id":"e05e04f4-e651-424c-a6aa-8f864e46be12","system_id":"levelo_inurba_marseille","lat":43.29218,"lon":5.3613,"is_reserved":false,"is_disabled":false,"rental_uris":{"android":"levelo://app?vid=e05e04f4-e651-424c-a6aa-8f864e46be12","ios":"levelo://app?vid=e05e04f4-e651-424c-a6aa-8f864e46be12"},"vehicle_type_id":"4","last_reported":1728630545,"current_range_meters":8000,"station_id":"ce4bhbh2rcd13ifvqepg","pricing_plan_id":"cebpf4jnsgd1na2vs0mg"},{"bike_id":"82e67fec-2a76-4bf9-acb4-a8a0bef84de9","system_id":"levelo_inurba_marseille","lat":43.33775,"lon":5.37451,"is_reserved":false,"is_disabled":false,"rental_uris":{"android":"levelo://app?vid=82e67fec-2a76-4bf9-acb4-a8a0bef84de9","ios":"levelo://app?vid=82e67fec-2a76-4bf9-acb4-a8a0bef84de9"},"vehicle_type_id":"4","last_reported":1728630545,"current_range_meters":37600,"station_id":"","pricing_plan_id":"cebpf4jnsgd1na2vs0mg"},{"bike_id":"a0efacd8-e569-45d0-a5c7-9ef3274c0675","system_id":"levelo_inurba_marseille","lat":43.231488,"lon":5.437065,"is_reserved":false,"is_disabled":false,"rental_uris":{"android":"levelo://app?vid=a0efacd8-e569-45d0-a5c7-9ef3274c0675","ios":"levelo://app?vid=a0efacd8-e569-45d0-a5c7-9ef3274c0675"},"vehicle_type_id":"4","last_reported":1728630545,"current_range_meters":25600,"station_id":"ce4bhmp2rcd13ifvqgog","pricing_plan_id":"cebpf4jnsgd1na2vs0mg"},{"bike_id":"db8b05a0-3cd8-457c-9b3e-a9525e27d8be","system_id":"levelo_inurba_marseille","lat":43.30479,"lon":5.3791,"is_reserved":false,"is_disabled":false,"rental_uris":{"android":"levelo://app?vid=db8b05a0-3cd8-457c-9b3e-a9525e27d8be","ios":"levelo://app?vid=db8b05a0-3cd8-457c-9b3e-a9525e27d8be"},"vehicle_type_id":"4","last_reported":1728630545,"current_range_meters":37600,"station_id":"ce4bgup2rcd13ifvqcn0","pricing_plan_id":"cebpf4jnsgd1na2vs0mg"},{"bike_id":"b0a5be3e-a728-492c-958f-20c81aee20b1","system_id":"levelo_inurba_marseille","lat":43.24073,"lon":5.3776,"is_reserved":false,"is_disabled":false,"rental_uris":{"android":"levelo://app?vid=b0a5be3e-a728-492c-958f-20c81aee20b1","ios":"levelo://app?vid=b0a5be3e-a728-492c-958f-20c81aee20b1"},"vehicle_type_id":"4","last_reported":1728630545,"current_range_meters":21600,"station_id":"ce4bhnp2rcd13ifvqgvg","pricing_plan_id":"cebpf4jnsgd1na2vs0mg"},{"bike_id":"11cd2fc4-6767-4eb4-a46a-dbfed9cc2b42","system_id":"levelo_inurba_marseille","lat":43.30531,"lon":5.36703,"is_reserved":false,"is_disabled":false,"rental_uris":{"android":"levelo://app?vid=11cd2fc4-6767-4eb4-a46a-dbfed9cc2b42","ios":"levelo://app?vid=11cd2fc4-6767-4eb4-a46a-dbfed9cc2b42"},"vehicle_type_id":"4","last_reported":1728630545,"current_range_meters":4800,"station_id":"ce4bgrp2rcd13ifvqc9g","pricing_plan_id":"cebpf4jnsgd1na2vs0mg"},{"bike_id":"e1992700-0980-4cec-a5b7-a335bfc99b7d","system_id":"levelo_inurba_marseille","lat":43.28345,"lon":5.38108,"is_reserved":false,"is_disabled":false,"rental_uris":{"android":"levelo://app?vid=e1992700-0980-4cec-a5b7-a335bfc99b7d","ios":"levelo://app?vid=e1992700-0980-4cec-a5b7-a335bfc99b7d"},"vehicle_type_id":"4","last_reported":1728630545,"current_range_meters":33600,"station_id":"ce4bh412rcd13ifvqdr0","pricing_plan_id":"cebpf4jnsgd1na2vs0mg"},{"bike_id":"9db4d985-7949-4b7f-b898-6a0ca7ba3693","system_id":"levelo_inurba_marseille","lat":43.29125,"lon":5.3638,"is_reserved":false,"is_disabled":false,"rental_uris":{"android":"levelo://app?vid=9db4d985-7949-4b7f-b898-6a0ca7ba3693","ios":"levelo://app?vid=9db4d985-7949-4b7f-b898-6a0ca7ba3693"},"vehicle_type_id":"4","last_reported":1728630545,"current_range_meters":30800,"station_id":"ce4bhbh2rcd13ifvqepg","pricing_plan_id":"cebpf4jnsgd1na2vs0mg"},{"bike_id":"56df2194-08cb-456a-a9a1-fc94d8660aec","system_id":"levelo_inurba_marseille","lat":43.24173,"lon":5.39732,"is_reserved":false,"is_disabled":false,"rental_uris":{"android":"levelo://app?vid=56df2194-08cb-456a-a9a1-fc94d8660aec","ios":"levelo://app?vid=56df2194-08cb-456a-a9a1-fc94d8660aec"},"vehicle_type_id":"4","last_reported":1728630545,"current_range_meters":25600,"station_id":"ce4bhn12rcd13ifvqgpg","pricing_plan_id":"cebpf4jnsgd1na2vs0mg"},{"bike_id":"0f26fbcc-6594-4e72-bd84-0b3e53dc6ed8","system_id":"levelo_inurba_marseille","lat":43.29574,"lon":5.37514,"is_reserved":false,"is_disabled":false,"rental_uris":{"android":"levelo://app?vid=0f26fbcc-6594-4e72-bd84-0b3e53dc6ed8","ios":"levelo://app?vid=0f26fbcc-6594-4e72-bd84-0b3e53dc6ed8"},"vehicle_type_id":"4","last_reported":1728630545,"current_range_meters":27600,"station_id":"ce4bgh92rcd13ifvqb50","pricing_plan_id":"cebpf4jnsgd1na2vs0mg"},{"bike_id":"ea5b5bd1-0b4f-4a12-a0ee-9b4706353047","system_id":"levelo_inurba_marseille","lat":43.28953,"lon":5.36399,"is_reserved":false,"is_disabled":false,"rental_uris":{"android":"levelo://app?vid=ea5b5bd1-0b4f-4a12-a0ee-9b4706353047","ios":"levelo://app?vid=ea5b5bd1-0b4f-4a12-a0ee-9b4706353047"},"vehicle_type_id":"4","last_reported":1728630545,"current_range_meters":26800,"station_id":"ce4bhc92rcd13ifvqetg","pricing_plan_id":"cebpf4jnsgd1na2vs0mg"},{"bike_id":"efaeca4a-6799-413c-9dfa-9f56be9b4d5c","system_id":"levelo_inurba_marseille","lat":43.30915,"lon":5.36858,"is_reserved":false,"is_disabled":false,"rental_uris":{"android":"levelo://app?vid=efaeca4a-6799-413c-9dfa-9f56be9b4d5c","ios":"levelo://app?vid=efaeca4a-6799-413c-9dfa-9f56be9b4d5c"},"vehicle_type_id":"4","last_reported":1728630545,"current_range_meters":38000,"station_id":"ce4bgn92rcd13ifvqbvg","pricing_plan_id":"cebpf4jnsgd1na2vs0mg"},{"bike_id":"a36eb572-6a51-41d8-98a6-8a2436fa2d19","system_id":"levelo_inurba_marseille","lat":43.30915,"lon":5.36855,"is_reserved":false,"is_disabled":false,"rental_uris":{"android":"levelo://app?vid=a36eb572-6a51-41d8-98a6-8a2436fa2d19","ios":"levelo://app?vid=a36eb572-6a51-41d8-98a6-8a2436fa2d19"},"vehicle_type_id":"4","last_reported":1728630545,"current_range_meters":28000,"station_id":"ce4bgn92rcd13ifvqbvg","pricing_plan_id":"cebpf4jnsgd1na2vs0mg"},{"bike_id":"25b1fb8d-043b-40f4-aa3f-c415f5d84a10","system_id":"levelo_inurba_marseille","lat":43.31352,"lon":5.36728,"is_reserved":false,"is_disabled":false,"rental_uris":{"android":"levelo://app?vid=25b1fb8d-043b-40f4-aa3f-c415f5d84a10","ios":"levelo://app?vid=25b1fb8d-043b-40f4-aa3f-c415f5d84a10"},"vehicle_type_id":"4","last_reported":1728630545,"current_range_meters":39200,"station_id":"ce4bgr92rcd13ifvqc6g","pricing_plan_id":"cebpf4jnsgd1na2vs0mg"},{"bike_id":"ed051ef4-e38d-45a2-bdfc-c26d5d73ec3b","system_id":"levelo_inurba_marseille","lat":43.276458,"lon":5.361315,"is_reserved":false,"is_disabled":false,"rental_uris":{"android":"levelo://app?vid=ed051ef4-e38d-45a2-bdfc-c26d5d73ec3b","ios":"levelo://app?vid=ed051ef4-e38d-45a2-bdfc-c26d5d73ec3b"},"vehicle_type_id":"4","last_reported":1728630545,"current_range_meters":29600,"station_id":"ce4bgj92rcd13ifvqbe0","pricing_plan_id":"cebpf4jnsgd1na2vs0mg"},{"bike_id":"41d318f8-04cf-4a78-b42b-d497b265a78e","system_id":"levelo_inurba_marseille","lat":43.29169,"lon":5.37167,"is_reserved":false,"is_disabled":false,"rental_uris":{"android":"levelo://app?vid=41d318f8-04cf-4a78-b42b-d497b265a78e","ios":"levelo://app?vid=41d318f8-04cf-4a78-b42b-d497b265a78e"},"vehicle_type_id":"4","last_reported":1728630545,"current_range_meters":38000,"station_id":"ce4bha92rcd13ifvqeh0","pricing_plan_id":"cebpf4jnsgd1na2vs0mg"},{"bike_id":"c2709d8c-182c-4c66-9678-32143d413767","system_id":"levelo_inurba_marseille","lat":43.22934,"lon":5.35381,"is_reserved":false,"is_disabled":false,"rental_uris":{"android":"levelo://app?vid=c2709d8c-182c-4c66-9678-32143d413767","ios":"levelo://app?vid=c2709d8c-182c-4c66-9678-32143d413767"},"vehicle_type_id":"4","last_reported":1728630545,"current_range_meters":32400,"station_id":"cpo3532slgdg3j2ikp40","pricing_plan_id":"cebpf4jnsgd1na2vs0mg"},{"bike_id":"2822d8f5-494d-4160-bda7-2004d28b4b0a","system_id":"levelo_inurba_marseille","lat":43.32533,"lon":5.4143,"is_reserved":false,"is_disabled":false,"rental_uris":{"android":"levelo://app?vid=2822d8f5-494d-4160-bda7-2004d28b4b0a","ios":"levelo://app?vid=2822d8f5-494d-4160-bda7-2004d28b4b0a"},"vehicle_type_id":"4","last_reported":1728630545,"current_range_meters":25200,"station_id":"ce4bhq12rcd13ifvqhhg","pricing_plan_id":"cebpf4jnsgd1na2vs0mg"},{"bike_id":"06d1f44d-bb6c-4374-8db9-6c0fc6ef35d8","system_id":"levelo_inurba_marseille","lat":43.31692,"lon":5.40452,"is_reserved":false,"is_disabled":false,"rental_uris":{"android":"levelo://app?vid=06d1f44d-bb6c-4374-8db9-6c0fc6ef35d8","ios":"levelo://app?vid=06d1f44d-bb6c-4374-8db9-6c0fc6ef35d8"},"vehicle_type_id":"4","last_reported":1728630545,"current_range_meters":36400,"station_id":"ce4bh012rcd13ifvqd00","pricing_plan_id":"cebpf4jnsgd1na2vs0mg"},{"bike_id":"092023c4-00ce-4107-9e99-3058d7161d52","system_id":"levelo_inurba_marseille","lat":43.24079,"lon":5.37754,"is_reserved":false,"is_disabled":false,"rental_uris":{"android":"levelo://app?vid=092023c4-00ce-4107-9e99-3058d7161d52","ios":"levelo://app?vid=092023c4-00ce-4107-9e99-3058d7161d52"},"vehicle_type_id":"4","last_reported":1728630545,"current_range_meters":32400,"station_id":"ce4bhnp2rcd13ifvqgvg","pricing_plan_id":"cebpf4jnsgd1na2vs0mg"},{"bike_id":"a20f3734-876e-4aab-87a4-43604cfbdd6a","system_id":"levelo_inurba_marseille","lat":43.28468,"lon":5.38417,"is_reserved":false,"is_disabled":false,"rental_uris":{"android":"levelo://app?vid=a20f3734-876e-4aab-87a4-43604cfbdd6a","ios":"levelo://app?vid=a20f3734-876e-4aab-87a4-43604cfbdd6a"},"vehicle_type_id":"4","last_reported":1728630545,"current_range_meters":32000,"station_id":"ce4bh512rcd13ifvqe3g","pricing_plan_id":"cebpf4jnsgd1na2vs0mg"},{"bike_id":"72fc0f9d-3ae6-4c25-9f46-d936a2911609","system_id":"levelo_inurba_marseille","lat":43.32538,"lon":5.41452,"is_reserved":false,"is_disabled":false,"rental_uris":{"android":"levelo://app?vid=72fc0f9d-3ae6-4c25-9f46-d936a2911609","ios":"levelo://app?vid=72fc0f9d-3ae6-4c25-9f46-d936a2911609"},"vehicle_type_id":"4","last_reported":1728630545,"current_range_meters":37600,"station_id":"ce4bhq12rcd13ifvqhhg","pricing_plan_id":"cebpf4jnsgd1na2vs0mg"},{"bike_id":"14b07fed-aacd-4f67-bc2e-4b35e6570c46","system_id":"levelo_inurba_marseille","lat":43.292146,"lon":5.399946,"is_reserved":false,"is_disabled":false,"rental_uris":{"android":"levelo://app?vid=14b07fed-aacd-4f67-bc2e-4b35e6570c46","ios":"levelo://app?vid=14b07fed-aacd-4f67-bc2e-4b35e6570c46"},"vehicle_type_id":"4","last_reported":1728630545,"current_range_meters":9200,"station_id":"","pricing_plan_id":"cebpf4jnsgd1na2vs0mg"},{"bike_id":"480aee4b-d516-4b03-874e-995df5f32160","system_id":"levelo_inurba_marseille","lat":43.28346,"lon":5.381,"is_reserved":false,"is_disabled":false,"rental_uris":{"android":"levelo://app?vid=480aee4b-d516-4b03-874e-995df5f32160","ios":"levelo://app?vid=480aee4b-d516-4b03-874e-995df5f32160"},"vehicle_type_id":"4","last_reported":1728630545,"current_range_meters":39200,"station_id":"ce4bh412rcd13ifvqdr0","pricing_plan_id":"cebpf4jnsgd1na2vs0mg"},{"bike_id":"2ff77181-16e1-4173-bb2b-a7c52612f8d5","system_id":"levelo_inurba_marseille","lat":43.29627,"lon":5.37157,"is_reserved":false,"is_disabled":false,"rental_uris":{"android":"levelo://app?vid=2ff77181-16e1-4173-bb2b-a7c52612f8d5","ios":"levelo://app?vid=2ff77181-16e1-4173-bb2b-a7c52612f8d5"},"vehicle_type_id":"4","last_reported":1728630545,"current_range_meters":33200,"station_id":"ce4bgnh2rcd13ifvqc0g","pricing_plan_id":"cebpf4jnsgd1na2vs0mg"},{"bike_id":"2f8db975-0884-4dc5-a4df-cb34c6827e2a","system_id":"levelo_inurba_marseille","lat":43.28472,"lon":5.38402,"is_reserved":false,"is_disabled":false,"rental_uris":{"android":"levelo://app?vid=2f8db975-0884-4dc5-a4df-cb34c6827e2a","ios":"levelo://app?vid=2f8db975-0884-4dc5-a4df-cb34c6827e2a"},"vehicle_type_id":"4","last_reported":1728630545,"current_range_meters":8000,"station_id":"ce4bh512rcd13ifvqe3g","pricing_plan_id":"cebpf4jnsgd1na2vs0mg"},{"bike_id":"2ac9413c-f14b-42cd-8d52-024759e0e6b8","system_id":"levelo_inurba_marseille","lat":43.28609,"lon":5.35095,"is_reserved":false,"is_disabled":false,"rental_uris":{"android":"levelo://app?vid=2ac9413c-f14b-42cd-8d52-024759e0e6b8","ios":"levelo://app?vid=2ac9413c-f14b-42cd-8d52-024759e0e6b8"},"vehicle_type_id":"4","last_reported":1728630545,"current_range_meters":6400,"station_id":"ce4bhch2rcd13ifvqeug","pricing_plan_id":"cebpf4jnsgd1na2vs0mg"},{"bike_id":"f92a9fb8-9f73-4cf9-bc9b-2bdf5b520248","system_id":"levelo_inurba_marseille","lat":43.32536,"lon":5.41463,"is_reserved":false,"is_disabled":false,"rental_uris":{"android":"levelo://app?vid=f92a9fb8-9f73-4cf9-bc9b-2bdf5b520248","ios":"levelo://app?vid=f92a9fb8-9f73-4cf9-bc9b-2bdf5b520248"},"vehicle_type_id":"4","last_reported":1728630545,"current_range_meters":38000,"station_id":"ce4bhq12rcd13ifvqhhg","pricing_plan_id":"cebpf4jnsgd1na2vs0mg"},{"bike_id":"2f5f3f97-7515-4583-a368-fc4adf2cf4d5","system_id":"levelo_inurba_marseille","lat":43.34144,"lon":5.40904,"is_reserved":false,"is_disabled":false,"rental_uris":{"android":"levelo://app?vid=2f5f3f97-7515-4583-a368-fc4adf2cf4d5","ios":"levelo://app?vid=2f5f3f97-7515-4583-a368-fc4adf2cf4d5"},"vehicle_type_id":"4","last_reported":1728630545,"current_range_meters":28400,"station_id":"ce4bhqh2rcd13ifvqhlg","pricing_plan_id":"cebpf4jnsgd1na2vs0mg"},{"bike_id":"f9f33ea3-4b0b-4df9-9e92-944a7b235baf","system_id":"levelo_inurba_marseille","lat":43.29531,"lon":5.38546,"is_reserved":false,"is_disabled":false,"rental_uris":{"android":"levelo://app?vid=f9f33ea3-4b0b-4df9-9e92-944a7b235baf","ios":"levelo://app?vid=f9f33ea3-4b0b-4df9-9e92-944a7b235baf"},"vehicle_type_id":"4","last_reported":1728630545,"current_range_meters":16000,"station_id":"ce4bgih2rcd13ifvqba0","pricing_plan_id":"cebpf4jnsgd1na2vs0mg"},{"bike_id":"a12253a9-751c-4f18-9a20-da6dc257c40e","system_id":"levelo_inurba_marseille","lat":43.30556,"lon":5.3653,"is_reserved":false,"is_disabled":false,"rental_uris":{"android":"levelo://app?vid=a12253a9-751c-4f18-9a20-da6dc257c40e","ios":"levelo://app?vid=a12253a9-751c-4f18-9a20-da6dc257c40e"},"vehicle_type_id":"4","last_reported":1728630545,"current_range_meters":23200,"station_id":"ce4bgs12rcd13ifvqcag","pricing_plan_id":"cebpf4jnsgd1na2vs0mg"},{"bike_id":"66e15261-b982-4dbf-a8a5-76a158a9c1bd","system_id":"levelo_inurba_marseille","lat":43.34147,"lon":5.40911,"is_reserved":false,"is_disabled":false,"rental_uris":{"android":"levelo://app?vid=66e15261-b982-4dbf-a8a5-76a158a9c1bd","ios":"levelo://app?vid=66e15261-b982-4dbf-a8a5-76a158a9c1bd"},"vehicle_type_id":"4","last_reported":1728630545,"current_range_meters":12000,"station_id":"ce4bhqh2rcd13ifvqhlg","pricing_plan_id":"cebpf4jnsgd1na2vs0mg"},{"bike_id":"c70219f7-6d6e-423c-b782-64f1171e967e","system_id":"levelo_inurba_marseille","lat":43.28499,"lon":5.38416,"is_reserved":false,"is_disabled":false,"rental_uris":{"android":"levelo://app?vid=c70219f7-6d6e-423c-b782-64f1171e967e","ios":"levelo://app?vid=c70219f7-6d6e-423c-b782-64f1171e967e"},"vehicle_type_id":"4","last_reported":1728630545,"current_range_meters":6800,"station_id":"ce4bh512rcd13ifvqe3g","pricing_plan_id":"cebpf4jnsgd1na2vs0mg"},{"bike_id":"71afc88c-f31a-4d35-8f41-3a6da9afe2a7","system_id":"levelo_inurba_marseille","lat":43.3373,"lon":5.39175,"is_reserved":false,"is_disabled":false,"rental_uris":{"android":"levelo://app?vid=71afc88c-f31a-4d35-8f41-3a6da9afe2a7","ios":"levelo://app?vid=71afc88c-f31a-4d35-8f41-3a6da9afe2a7"},"vehicle_type_id":"4","last_reported":1728630545,"current_range_meters":29600,"station_id":"ce4bhr92rcd13ifvqhsg","pricing_plan_id":"cebpf4jnsgd1na2vs0mg"},{"bike_id":"50aa4af7-94b4-48c9-959d-eeec3eaec001","system_id":"levelo_inurba_marseille","lat":43.23197,"lon":5.35547,"is_reserved":false,"is_disabled":false,"rental_uris":{"android":"levelo://app?vid=50aa4af7-94b4-48c9-959d-eeec3eaec001","ios":"levelo://app?vid=50aa4af7-94b4-48c9-959d-eeec3eaec001"},"vehicle_type_id":"4","last_reported":1728630545,"current_range_meters":37600,"station_id":"ce4bhu92rcd13ifvqi70","pricing_plan_id":"cebpf4jnsgd1na2vs0mg"},{"bike_id":"64fd08c1-fd5b-4678-95c9-a29fdbf470ac","system_id":"levelo_inurba_marseille","lat":43.30213,"lon":5.39481,"is_reserved":false,"is_disabled":false,"rental_uris":{"android":"levelo://app?vid=64fd08c1-fd5b-4678-95c9-a29fdbf470ac","ios":"levelo://app?vid=64fd08c1-fd5b-4678-95c9-a29fdbf470ac"},"vehicle_type_id":"4","last_reported":1728630545,"current_range_meters":38000,"station_id":"","pricing_plan_id":"cebpf4jnsgd1na2vs0mg"},{"bike_id":"dade3d2f-3f22-4b1e-92c9-4504fc72033e","system_id":"levelo_inurba_marseille","lat":43.26948,"lon":5.38623,"is_reserved":false,"is_disabled":false,"rental_uris":{"android":"levelo://app?vid=dade3d2f-3f22-4b1e-92c9-4504fc72033e","ios":"levelo://app?vid=dade3d2f-3f22-4b1e-92c9-4504fc72033e"},"vehicle_type_id":"4","last_reported":1728630545,"current_range_meters":28000,"station_id":"ce4bhh92rcd13ifvqfh0","pricing_plan_id":"cebpf4jnsgd1na2vs0mg"},{"bike_id":"38811800-990c-4b4f-93b0-519c6d818a43","system_id":"levelo_inurba_marseille","lat":43.33601,"lon":5.41028,"is_reserved":false,"is_disabled":false,"rental_uris":{"android":"levelo://app?vid=38811800-990c-4b4f-93b0-519c6d818a43","ios":"levelo://app?vid=38811800-990c-4b4f-93b0-519c6d818a43"},"vehicle_type_id":"4","last_reported":1728630545,"current_range_meters":38000,"station_id":"ce4bhqh2rcd13ifvqhmg","pricing_plan_id":"cebpf4jnsgd1na2vs0mg"},{"bike_id":"3d213d2d-aa7b-4e3f-a2d6-9349069da6da","system_id":"levelo_inurba_marseille","lat":43.29972,"lon":5.38475,"is_reserved":false,"is_disabled":false,"rental_uris":{"android":"levelo://app?vid=3d213d2d-aa7b-4e3f-a2d6-9349069da6da","ios":"levelo://app?vid=3d213d2d-aa7b-4e3f-a2d6-9349069da6da"},"vehicle_type_id":"4","last_reported":1728630545,"current_range_meters":28800,"station_id":"ce4bgj92rcd13ifvqbd0","pricing_plan_id":"cebpf4jnsgd1na2vs0mg"},{"bike_id":"84c30ed3-60f2-43c6-a6ef-72b2abd8f6b1","system_id":"levelo_inurba_marseille","lat":43.26687,"lon":5.38265,"is_reserved":false,"is_disabled":false,"rental_uris":{"android":"levelo://app?vid=84c30ed3-60f2-43c6-a6ef-72b2abd8f6b1","ios":"levelo://app?vid=84c30ed3-60f2-43c6-a6ef-72b2abd8f6b1"},"vehicle_type_id":"4","last_reported":1728630545,"current_range_meters":34000,"station_id":"ce4bhg92rcd13ifvqf90","pricing_plan_id":"cebpf4jnsgd1na2vs0mg"},{"bike_id":"3d819519-2feb-41f9-9ba5-7980c2cc54aa","system_id":"levelo_inurba_marseille","lat":43.30548,"lon":5.3653,"is_reserved":false,"is_disabled":false,"rental_uris":{"android":"levelo://app?vid=3d819519-2feb-41f9-9ba5-7980c2cc54aa","ios":"levelo://app?vid=3d819519-2feb-41f9-9ba5-7980c2cc54aa"},"vehicle_type_id":"4","last_reported":1728630545,"current_range_meters":39200,"station_id":"ce4bgs12rcd13ifvqcag","pricing_plan_id":"cebpf4jnsgd1na2vs0mg"},{"bike_id":"0222f96e-7126-4972-b50f-fe703e11e9f5","system_id":"levelo_inurba_marseille","lat":43.27177,"lon":5.40996,"is_reserved":false,"is_disabled":false,"rental_uris":{"android":"levelo://app?vid=0222f96e-7126-4972-b50f-fe703e11e9f5","ios":"levelo://app?vid=0222f96e-7126-4972-b50f-fe703e11e9f5"},"vehicle_type_id":"4","last_reported":1728630545,"current_range_meters":22400,"station_id":"ce4bhl12rcd13ifvqgf0","pricing_plan_id":"cebpf4jnsgd1na2vs0mg"},{"bike_id":"255093a8-c98a-4773-851f-60ca2d6fabdf","system_id":"levelo_inurba_marseille","lat":43.32114,"lon":5.36757,"is_reserved":false,"is_disabled":false,"rental_uris":{"android":"levelo://app?vid=255093a8-c98a-4773-851f-60ca2d6fabdf","ios":"levelo://app?vid=255093a8-c98a-4773-851f-60ca2d6fabdf"},"vehicle_type_id":"4","last_reported":1728630545,"current_range_meters":34000,"station_id":"ce4bhrh2rcd13ifvqhug","pricing_plan_id":"cebpf4jnsgd1na2vs0mg"},{"bike_id":"536a50c8-63d4-40cf-aa16-728a969f5121","system_id":"levelo_inurba_marseille","lat":43.27493,"lon":5.42453,"is_reserved":false,"is_disabled":false,"rental_uris":{"android":"levelo://app?vid=536a50c8-63d4-40cf-aa16-728a969f5121","ios":"levelo://app?vid=536a50c8-63d4-40cf-aa16-728a969f5121"},"vehicle_type_id":"4","last_reported":1728630545,"current_range_meters":36800,"station_id":"ce4bhn92rcd13ifvqgrg","pricing_plan_id":"cebpf4jnsgd1na2vs0mg"},{"bike_id":"e3cc55ec-82ab-4c88-aa2f-71a4741aeb97","system_id":"levelo_inurba_marseille","lat":43.28429,"lon":5.34991,"is_reserved":false,"is_disabled":false,"rental_uris":{"android":"levelo://app?vid=e3cc55ec-82ab-4c88-aa2f-71a4741aeb97","ios":"levelo://app?vid=e3cc55ec-82ab-4c88-aa2f-71a4741aeb97"},"vehicle_type_id":"4","last_reported":1728630545,"current_range_meters":2000,"station_id":"ce4bhbh2rcd13ifvqepg","pricing_plan_id":"cebpf4jnsgd1na2vs0mg"},{"bike_id":"bdd13584-5919-4377-a956-063b652d6283","system_id":"levelo_inurba_marseille","lat":43.29618,"lon":5.37153,"is_reserved":false,"is_disabled":false,"rental_uris":{"android":"levelo://app?vid=bdd13584-5919-4377-a956-063b652d6283","ios":"levelo://app?vid=bdd13584-5919-4377-a956-063b652d6283"},"vehicle_type_id":"4","last_reported":1728630545,"current_range_meters":16000,"station_id":"ce4bgnh2rcd13ifvqc0g","pricing_plan_id":"cebpf4jnsgd1na2vs0mg"},{"bike_id":"7b2cd92b-d547-4af1-88e2-2874efb02009","system_id":"levelo_inurba_marseille","lat":43.3055,"lon":5.3653,"is_reserved":false,"is_disabled":false,"rental_uris":{"android":"levelo://app?vid=7b2cd92b-d547-4af1-88e2-2874efb02009","ios":"levelo://app?vid=7b2cd92b-d547-4af1-88e2-2874efb02009"},"vehicle_type_id":"4","last_reported":1728630545,"current_range_meters":36400,"station_id":"ce4bgs12rcd13ifvqcag","pricing_plan_id":"cebpf4jnsgd1na2vs0mg"},{"bike_id":"ff68b789-7173-415f-860f-fb58c1b9d01d","system_id":"levelo_inurba_marseille","lat":43.22929,"lon":5.3538,"is_reserved":false,"is_disabled":false,"rental_uris":{"android":"levelo://app?vid=ff68b789-7173-415f-860f-fb58c1b9d01d","ios":"levelo://app?vid=ff68b789-7173-415f-860f-fb58c1b9d01d"},"vehicle_type_id":"4","last_reported":1728630545,"current_range_meters":32000,"station_id":"cpo3532slgdg3j2ikp40","pricing_plan_id":"cebpf4jnsgd1na2vs0mg"},{"bike_id":"cab964bc-e57f-4882-9c3b-4fe78f7ac2ed","system_id":"levelo_inurba_marseille","lat":43.2695,"lon":5.38632,"is_reserved":false,"is_disabled":false,"rental_uris":{"android":"levelo://app?vid=cab964bc-e57f-4882-9c3b-4fe78f7ac2ed","ios":"levelo://app?vid=cab964bc-e57f-4882-9c3b-4fe78f7ac2ed"},"vehicle_type_id":"4","last_reported":1728630545,"current_range_meters":38800,"station_id":"ce4bhh92rcd13ifvqfh0","pricing_plan_id":"cebpf4jnsgd1na2vs0mg"},{"bike_id":"2217b65a-9e72-45d5-b077-4446f20164c2","system_id":"levelo_inurba_marseille","lat":43.24077,"lon":5.37763,"is_reserved":false,"is_disabled":false,"rental_uris":{"android":"levelo://app?vid=2217b65a-9e72-45d5-b077-4446f20164c2","ios":"levelo://app?vid=2217b65a-9e72-45d5-b077-4446f20164c2"},"vehicle_type_id":"4","last_reported":1728630545,"current_range_meters":19600,"station_id":"ce4bhnp2rcd13ifvqgvg","pricing_plan_id":"cebpf4jnsgd1na2vs0mg"},{"bike_id":"d09a9fcf-fb9f-4373-a651-bf0e08460105","system_id":"levelo_inurba_marseille","lat":43.27173,"lon":5.40985,"is_reserved":false,"is_disabled":false,"rental_uris":{"android":"levelo://app?vid=d09a9fcf-fb9f-4373-a651-bf0e08460105","ios":"levelo://app?vid=d09a9fcf-fb9f-4373-a651-bf0e08460105"},"vehicle_type_id":"4","last_reported":1728630545,"current_range_meters":37600,"station_id":"ce4bhl12rcd13ifvqgf0","pricing_plan_id":"cebpf4jnsgd1na2vs0mg"},{"bike_id":"6bdd4e00-8834-4802-b257-516c74179753","system_id":"levelo_inurba_marseille","lat":43.30472,"lon":5.37906,"is_reserved":false,"is_disabled":false,"rental_uris":{"android":"levelo://app?vid=6bdd4e00-8834-4802-b257-516c74179753","ios":"levelo://app?vid=6bdd4e00-8834-4802-b257-516c74179753"},"vehicle_type_id":"4","last_reported":1728630545,"current_range_meters":34000,"station_id":"ce4bgup2rcd13ifvqcn0","pricing_plan_id":"cebpf4jnsgd1na2vs0mg"},{"bike_id":"6cb5b02c-2401-484a-8b7d-b4d2106d6b08","system_id":"levelo_inurba_marseille","lat":43.23191,"lon":5.35554,"is_reserved":false,"is_disabled":false,"rental_uris":{"android":"levelo://app?vid=6cb5b02c-2401-484a-8b7d-b4d2106d6b08","ios":"levelo://app?vid=6cb5b02c-2401-484a-8b7d-b4d2106d6b08"},"vehicle_type_id":"4","last_reported":1728630545,"current_range_meters":36400,"station_id":"ce4bhu92rcd13ifvqi70","pricing_plan_id":"cebpf4jnsgd1na2vs0mg"},{"bike_id":"efd588d8-d969-4ce7-8835-d733b94cce7a","system_id":"levelo_inurba_marseille","lat":43.32472,"lon":5.36565,"is_reserved":false,"is_disabled":false,"rental_uris":{"android":"levelo://app?vid=efd588d8-d969-4ce7-8835-d733b94cce7a","ios":"levelo://app?vid=efd588d8-d969-4ce7-8835-d733b94cce7a"},"vehicle_type_id":"4","last_reported":1728630545,"current_range_meters":10000,"station_id":"ce4bhs12rcd13ifvqhvg","pricing_plan_id":"cebpf4jnsgd1na2vs0mg"},{"bike_id":"ecdc3729-4716-4bd9-8f28-d7d92e06d811","system_id":"levelo_inurba_marseille","lat":43.29079,"lon":5.37181,"is_reserved":false,"is_disabled":false,"rental_uris":{"android":"levelo://app?vid=ecdc3729-4716-4bd9-8f28-d7d92e06d811","ios":"levelo://app?vid=ecdc3729-4716-4bd9-8f28-d7d92e06d811"},"vehicle_type_id":"4","last_reported":1728630545,"current_range_meters":22800,"station_id":"ce4bh5p2rcd13ifvqe4g","pricing_plan_id":"cebpf4jnsgd1na2vs0mg"},{"bike_id":"44f15e4f-bcec-4cd2-8c1c-3ebf9fc6ffff","system_id":"levelo_inurba_marseille","lat":43.30162,"lon":5.38078,"is_reserved":false,"is_disabled":false,"rental_uris":{"android":"levelo://app?vid=44f15e4f-bcec-4cd2-8c1c-3ebf9fc6ffff","ios":"levelo://app?vid=44f15e4f-bcec-4cd2-8c1c-3ebf9fc6ffff"},"vehicle_type_id":"4","last_reported":1728630545,"current_range_meters":36000,"station_id":"ce4bgjp2rcd13ifvqbh0","pricing_plan_id":"cebpf4jnsgd1na2vs0mg"},{"bike_id":"91260ca4-e27f-45c6-a790-b736af6f451e","system_id":"levelo_inurba_marseille","lat":43.30475,"lon":5.37898,"is_reserved":false,"is_disabled":false,"rental_uris":{"android":"levelo://app?vid=91260ca4-e27f-45c6-a790-b736af6f451e","ios":"levelo://app?vid=91260ca4-e27f-45c6-a790-b736af6f451e"},"vehicle_type_id":"4","last_reported":1728630545,"current_range_meters":26800,"station_id":"ce4bgup2rcd13ifvqcn0","pricing_plan_id":"cebpf4jnsgd1na2vs0mg"},{"bike_id":"c417019c-5367-4191-a213-8153b6c2ea08","system_id":"levelo_inurba_marseille","lat":43.3248,"lon":5.3657,"is_reserved":false,"is_disabled":false,"rental_uris":{"android":"levelo://app?vid=c417019c-5367-4191-a213-8153b6c2ea08","ios":"levelo://app?vid=c417019c-5367-4191-a213-8153b6c2ea08"},"vehicle_type_id":"4","last_reported":1728630545,"current_range_meters":24400,"station_id":"ce4bhs12rcd13ifvqhvg","pricing_plan_id":"cebpf4jnsgd1na2vs0mg"},{"bike_id":"70e8d9e5-8396-4d7d-be39-1fc17a440db7","system_id":"levelo_inurba_marseille","lat":43.33614,"lon":5.4103,"is_reserved":false,"is_disabled":false,"rental_uris":{"android":"levelo://app?vid=70e8d9e5-8396-4d7d-be39-1fc17a440db7","ios":"levelo://app?vid=70e8d9e5-8396-4d7d-be39-1fc17a440db7"},"vehicle_type_id":"4","last_reported":1728630545,"current_range_meters":39200,"station_id":"ce4bhqh2rcd13ifvqhmg","pricing_plan_id":"cebpf4jnsgd1na2vs0mg"},{"bike_id":"2b5b10f7-d639-4519-b838-5652c1f7df24","system_id":"levelo_inurba_marseille","lat":43.30135,"lon":5.37421,"is_reserved":false,"is_disabled":false,"rental_uris":{"android":"levelo://app?vid=2b5b10f7-d639-4519-b838-5652c1f7df24","ios":"levelo://app?vid=2b5b10f7-d639-4519-b838-5652c1f7df24"},"vehicle_type_id":"4","last_reported":1728630545,"current_range_meters":4400,"station_id":"ce4bgs92rcd13ifvqcc0","pricing_plan_id":"cebpf4jnsgd1na2vs0mg"},{"bike_id":"7feda03c-1689-4827-a0fb-310bf8a90726","system_id":"levelo_inurba_marseille","lat":43.24998,"lon":5.38916,"is_reserved":false,"is_disabled":false,"rental_uris":{"android":"levelo://app?vid=7feda03c-1689-4827-a0fb-310bf8a90726","ios":"levelo://app?vid=7feda03c-1689-4827-a0fb-310bf8a90726"},"vehicle_type_id":"4","last_reported":1728630545,"current_range_meters":39200,"station_id":"ce4bhgp2rcd13ifvqfd0","pricing_plan_id":"cebpf4jnsgd1na2vs0mg"},{"bike_id":"9bab9d3e-37a4-49a5-a75a-86966f750570","system_id":"levelo_inurba_marseille","lat":43.32113,"lon":5.36774,"is_reserved":false,"is_disabled":false,"rental_uris":{"android":"levelo://app?vid=9bab9d3e-37a4-49a5-a75a-86966f750570","ios":"levelo://app?vid=9bab9d3e-37a4-49a5-a75a-86966f750570"},"vehicle_type_id":"4","last_reported":1728630545,"current_range_meters":6400,"station_id":"ce4bhrh2rcd13ifvqhug","pricing_plan_id":"cebpf4jnsgd1na2vs0mg"},{"bike_id":"02cfbe68-27e3-4e61-b6a5-8cd0a29507b4","system_id":"levelo_inurba_marseille","lat":43.29526,"lon":5.37487,"is_reserved":false,"is_disabled":false,"rental_uris":{"android":"levelo://app?vid=02cfbe68-27e3-4e61-b6a5-8cd0a29507b4","ios":"levelo://app?vid=02cfbe68-27e3-4e61-b6a5-8cd0a29507b4"},"vehicle_type_id":"4","last_reported":1728630545,"current_range_meters":26000,"station_id":"ce4bgkp2rcd13ifvqbmg","pricing_plan_id":"cebpf4jnsgd1na2vs0mg"},{"bike_id":"92757d9b-8978-49be-978c-1e911dec0b22","system_id":"levelo_inurba_marseille","lat":43.29369,"lon":5.37831,"is_reserved":false,"is_disabled":false,"rental_uris":{"android":"levelo://app?vid=92757d9b-8978-49be-978c-1e911dec0b22","ios":"levelo://app?vid=92757d9b-8978-49be-978c-1e911dec0b22"},"vehicle_type_id":"4","last_reported":1728630545,"current_range_meters":37600,"station_id":"ce4bgjh2rcd13ifvqbf0","pricing_plan_id":"cebpf4jnsgd1na2vs0mg"},{"bike_id":"c0fa442b-8066-4ddb-a113-21e760726cdb","system_id":"levelo_inurba_marseille","lat":43.30465,"lon":5.37906,"is_reserved":false,"is_disabled":false,"rental_uris":{"android":"levelo://app?vid=c0fa442b-8066-4ddb-a113-21e760726cdb","ios":"levelo://app?vid=c0fa442b-8066-4ddb-a113-21e760726cdb"},"vehicle_type_id":"4","last_reported":1728630545,"current_range_meters":27600,"station_id":"ce4bgup2rcd13ifvqcn0","pricing_plan_id":"cebpf4jnsgd1na2vs0mg"},{"bike_id":"094f27a8-0ae0-45f6-a946-b4e9fed288f7","system_id":"levelo_inurba_marseille","lat":43.26948,"lon":5.38637,"is_reserved":false,"is_disabled":false,"rental_uris":{"android":"levelo://app?vid=094f27a8-0ae0-45f6-a946-b4e9fed288f7","ios":"levelo://app?vid=094f27a8-0ae0-45f6-a946-b4e9fed288f7"},"vehicle_type_id":"4","last_reported":1728630545,"current_range_meters":33200,"station_id":"ce4bhh92rcd13ifvqfh0","pricing_plan_id":"cebpf4jnsgd1na2vs0mg"},{"bike_id":"465286eb-14c0-45d3-a52a-0c19aa419bfb","system_id":"levelo_inurba_marseille","lat":43.337444,"lon":5.374475,"is_reserved":false,"is_disabled":false,"rental_uris":{"android":"levelo://app?vid=465286eb-14c0-45d3-a52a-0c19aa419bfb","ios":"levelo://app?vid=465286eb-14c0-45d3-a52a-0c19aa419bfb"},"vehicle_type_id":"4","last_reported":1728630545,"current_range_meters":38800,"station_id":"ce4bhbh2rcd13ifvqepg","pricing_plan_id":"cebpf4jnsgd1na2vs0mg"},{"bike_id":"496738b5-0df2-4243-b0f2-d09e93ec0783","system_id":"levelo_inurba_marseille","lat":43.24655,"lon":5.38164,"is_reserved":false,"is_disabled":false,"rental_uris":{"android":"levelo://app?vid=496738b5-0df2-4243-b0f2-d09e93ec0783","ios":"levelo://app?vid=496738b5-0df2-4243-b0f2-d09e93ec0783"},"vehicle_type_id":"4","last_reported":1728630545,"current_range_meters":16400,"station_id":"ce4bhih2rcd13ifvqfr0","pricing_plan_id":"cebpf4jnsgd1na2vs0mg"},{"bike_id":"f5025c91-10ce-417c-b0cc-aa63fb454c26","system_id":"levelo_inurba_marseille","lat":43.24654,"lon":5.38894,"is_reserved":false,"is_disabled":false,"rental_uris":{"android":"levelo://app?vid=f5025c91-10ce-417c-b0cc-aa63fb454c26","ios":"levelo://app?vid=f5025c91-10ce-417c-b0cc-aa63fb454c26"},"vehicle_type_id":"4","last_reported":1728630545,"current_range_meters":36000,"station_id":"ce4bhg12rcd13ifvqf60","pricing_plan_id":"cebpf4jnsgd1na2vs0mg"},{"bike_id":"1bf39129-7013-4caa-8d33-ef279b792ee7","system_id":"levelo_inurba_marseille","lat":43.25573,"lon":5.38239,"is_reserved":false,"is_disabled":false,"rental_uris":{"android":"levelo://app?vid=1bf39129-7013-4caa-8d33-ef279b792ee7","ios":"levelo://app?vid=1bf39129-7013-4caa-8d33-ef279b792ee7"},"vehicle_type_id":"4","last_reported":1728630545,"current_range_meters":8000,"station_id":"ce4bhih2rcd13ifvqfs0","pricing_plan_id":"cebpf4jnsgd1na2vs0mg"},{"bike_id":"b34cc09c-0d03-41b4-9161-fcdfbf83155a","system_id":"levelo_inurba_marseille","lat":43.30532,"lon":5.36724,"is_reserved":false,"is_disabled":false,"rental_uris":{"android":"levelo://app?vid=b34cc09c-0d03-41b4-9161-fcdfbf83155a","ios":"levelo://app?vid=b34cc09c-0d03-41b4-9161-fcdfbf83155a"},"vehicle_type_id":"4","last_reported":1728630545,"current_range_meters":6400,"station_id":"ce4bgrp2rcd13ifvqc9g","pricing_plan_id":"cebpf4jnsgd1na2vs0mg"},{"bike_id":"31a7ad63-dd0d-46bb-8650-17b0e172ecd3","system_id":"levelo_inurba_marseille","lat":43.27495,"lon":5.42451,"is_reserved":false,"is_disabled":false,"rental_uris":{"android":"levelo://app?vid=31a7ad63-dd0d-46bb-8650-17b0e172ecd3","ios":"levelo://app?vid=31a7ad63-dd0d-46bb-8650-17b0e172ecd3"},"vehicle_type_id":"4","last_reported":1728630545,"current_range_meters":12400,"station_id":"ce4bhn92rcd13ifvqgrg","pricing_plan_id":"cebpf4jnsgd1na2vs0mg"},{"bike_id":"0b326781-6a80-460a-a32f-195ea80a69ee","system_id":"levelo_inurba_marseille","lat":43.27494,"lon":5.42447,"is_reserved":false,"is_disabled":false,"rental_uris":{"android":"levelo://app?vid=0b326781-6a80-460a-a32f-195ea80a69ee","ios":"levelo://app?vid=0b326781-6a80-460a-a32f-195ea80a69ee"},"vehicle_type_id":"4","last_reported":1728630545,"current_range_meters":33600,"station_id":"ce4bhn92rcd13ifvqgrg","pricing_plan_id":"cebpf4jnsgd1na2vs0mg"},{"bike_id":"f5bc53fb-4be7-4462-8efb-e3a87649f7e1","system_id":"levelo_inurba_marseille","lat":43.28472,"lon":5.38416,"is_reserved":false,"is_disabled":false,"rental_uris":{"android":"levelo://app?vid=f5bc53fb-4be7-4462-8efb-e3a87649f7e1","ios":"levelo://app?vid=f5bc53fb-4be7-4462-8efb-e3a87649f7e1"},"vehicle_type_id":"4","last_reported":1728630545,"current_range_meters":26800,"station_id":"ce4bh512rcd13ifvqe3g","pricing_plan_id":"cebpf4jnsgd1na2vs0mg"},{"bike_id":"8e0d82f5-dc5a-40d3-b3c8-d132597d7d63","system_id":"levelo_inurba_marseille","lat":43.28947,"lon":5.36392,"is_reserved":false,"is_disabled":false,"rental_uris":{"android":"levelo://app?vid=8e0d82f5-dc5a-40d3-b3c8-d132597d7d63","ios":"levelo://app?vid=8e0d82f5-dc5a-40d3-b3c8-d132597d7d63"},"vehicle_type_id":"4","last_reported":1728630545,"current_range_meters":22000,"station_id":"ce4bhc92rcd13ifvqetg","pricing_plan_id":"cebpf4jnsgd1na2vs0mg"},{"bike_id":"814ef43a-cb9e-434d-ba46-8edd132367e6","system_id":"levelo_inurba_marseille","lat":43.3048,"lon":5.37904,"is_reserved":false,"is_disabled":false,"rental_uris":{"android":"levelo://app?vid=814ef43a-cb9e-434d-ba46-8edd132367e6","ios":"levelo://app?vid=814ef43a-cb9e-434d-ba46-8edd132367e6"},"vehicle_type_id":"4","last_reported":1728630545,"current_range_meters":36800,"station_id":"ce4bgup2rcd13ifvqcn0","pricing_plan_id":"cebpf4jnsgd1na2vs0mg"},{"bike_id":"f466101f-20e6-4308-a797-d934c7d94647","system_id":"levelo_inurba_marseille","lat":43.25575,"lon":5.3823,"is_reserved":false,"is_disabled":false,"rental_uris":{"android":"levelo://app?vid=f466101f-20e6-4308-a797-d934c7d94647","ios":"levelo://app?vid=f466101f-20e6-4308-a797-d934c7d94647"},"vehicle_type_id":"4","last_reported":1728630545,"current_range_meters":38400,"station_id":"ce4bhih2rcd13ifvqfs0","pricing_plan_id":"cebpf4jnsgd1na2vs0mg"},{"bike_id":"1430f6f2-73dd-42ca-8307-5f209eb4a512","system_id":"levelo_inurba_marseille","lat":43.29453,"lon":5.37627,"is_reserved":false,"is_disabled":false,"rental_uris":{"android":"levelo://app?vid=1430f6f2-73dd-42ca-8307-5f209eb4a512","ios":"levelo://app?vid=1430f6f2-73dd-42ca-8307-5f209eb4a512"},"vehicle_type_id":"4","last_reported":1728630545,"current_range_meters":8000,"station_id":"","pricing_plan_id":"cebpf4jnsgd1na2vs0mg"},{"bike_id":"368d7ba9-3fda-4cfa-80f9-9fae25e4944d","system_id":"levelo_inurba_marseille","lat":43.33716,"lon":5.3919,"is_reserved":false,"is_disabled":false,"rental_uris":{"android":"levelo://app?vid=368d7ba9-3fda-4cfa-80f9-9fae25e4944d","ios":"levelo://app?vid=368d7ba9-3fda-4cfa-80f9-9fae25e4944d"},"vehicle_type_id":"4","last_reported":1728630545,"current_range_meters":25200,"station_id":"ce4bhr92rcd13ifvqhsg","pricing_plan_id":"cebpf4jnsgd1na2vs0mg"},{"bike_id":"484a4c63-4ef1-4433-b27a-9a9ca5ad2f9a","system_id":"levelo_inurba_marseille","lat":43.22932,"lon":5.35371,"is_reserved":false,"is_disabled":false,"rental_uris":{"android":"levelo://app?vid=484a4c63-4ef1-4433-b27a-9a9ca5ad2f9a","ios":"levelo://app?vid=484a4c63-4ef1-4433-b27a-9a9ca5ad2f9a"},"vehicle_type_id":"4","last_reported":1728630545,"current_range_meters":17600,"station_id":"cpo3532slgdg3j2ikp40","pricing_plan_id":"cebpf4jnsgd1na2vs0mg"},{"bike_id":"bf9a8dbd-a3ff-4226-a25b-1015d3103cd4","system_id":"levelo_inurba_marseille","lat":43.30357,"lon":5.4188,"is_reserved":false,"is_disabled":false,"rental_uris":{"android":"levelo://app?vid=bf9a8dbd-a3ff-4226-a25b-1015d3103cd4","ios":"levelo://app?vid=bf9a8dbd-a3ff-4226-a25b-1015d3103cd4"},"vehicle_type_id":"4","last_reported":1728630545,"current_range_meters":4400,"station_id":"ce4bhop2rcd13ifvqh7g","pricing_plan_id":"cebpf4jnsgd1na2vs0mg"},{"bike_id":"e9dbe7eb-f8ae-4355-b074-c08cae0a1bab","system_id":"levelo_inurba_marseille","lat":43.28366,"lon":5.38127,"is_reserved":false,"is_disabled":false,"rental_uris":{"android":"levelo://app?vid=e9dbe7eb-f8ae-4355-b074-c08cae0a1bab","ios":"levelo://app?vid=e9dbe7eb-f8ae-4355-b074-c08cae0a1bab"},"vehicle_type_id":"4","last_reported":1728630545,"current_range_meters":34000,"station_id":"ce4bh412rcd13ifvqdr0","pricing_plan_id":"cebpf4jnsgd1na2vs0mg"},{"bike_id":"bc01cffb-b762-40bf-a578-65b2ec728731","system_id":"levelo_inurba_marseille","lat":43.24073,"lon":5.37765,"is_reserved":false,"is_disabled":false,"rental_uris":{"android":"levelo://app?vid=bc01cffb-b762-40bf-a578-65b2ec728731","ios":"levelo://app?vid=bc01cffb-b762-40bf-a578-65b2ec728731"},"vehicle_type_id":"4","last_reported":1728630545,"current_range_meters":23200,"station_id":"ce4bhnp2rcd13ifvqgvg","pricing_plan_id":"cebpf4jnsgd1na2vs0mg"},{"bike_id":"eb2e1e47-5a1c-4945-9947-3632f7ce44fd","system_id":"levelo_inurba_marseille","lat":43.28766,"lon":5.35236,"is_reserved":false,"is_disabled":false,"rental_uris":{"android":"levelo://app?vid=eb2e1e47-5a1c-4945-9947-3632f7ce44fd","ios":"levelo://app?vid=eb2e1e47-5a1c-4945-9947-3632f7ce44fd"},"vehicle_type_id":"4","last_reported":1728630545,"current_range_meters":14000,"station_id":"","pricing_plan_id":"cebpf4jnsgd1na2vs0mg"},{"bike_id":"bbbbc871-92da-4653-aa76-f59be91aa962","system_id":"levelo_inurba_marseille","lat":43.30539,"lon":5.36557,"is_reserved":false,"is_disabled":false,"rental_uris":{"android":"levelo://app?vid=bbbbc871-92da-4653-aa76-f59be91aa962","ios":"levelo://app?vid=bbbbc871-92da-4653-aa76-f59be91aa962"},"vehicle_type_id":"4","last_reported":1728630545,"current_range_meters":22800,"station_id":"ce4bgs12rcd13ifvqcag","pricing_plan_id":"cebpf4jnsgd1na2vs0mg"},{"bike_id":"65987b29-aa2c-4733-be91-82374c8ff43b","system_id":"levelo_inurba_marseille","lat":43.27495,"lon":5.42453,"is_reserved":false,"is_disabled":false,"rental_uris":{"android":"levelo://app?vid=65987b29-aa2c-4733-be91-82374c8ff43b","ios":"levelo://app?vid=65987b29-aa2c-4733-be91-82374c8ff43b"},"vehicle_type_id":"4","last_reported":1728630545,"current_range_meters":6800,"station_id":"ce4bhn92rcd13ifvqgrg","pricing_plan_id":"cebpf4jnsgd1na2vs0mg"},{"bike_id":"1a77e98a-356c-44c1-a180-5d2a812667a3","system_id":"levelo_inurba_marseille","lat":43.2985,"lon":5.38073,"is_reserved":false,"is_disabled":false,"rental_uris":{"android":"levelo://app?vid=1a77e98a-356c-44c1-a180-5d2a812667a3","ios":"levelo://app?vid=1a77e98a-356c-44c1-a180-5d2a812667a3"},"vehicle_type_id":"4","last_reported":1728630545,"current_range_meters":32400,"station_id":"ce4bgip2rcd13ifvqbb0","pricing_plan_id":"cebpf4jnsgd1na2vs0mg"},{"bike_id":"c92fba34-aea6-4d2c-b710-21b825d7faaa","system_id":"levelo_inurba_marseille","lat":43.305443,"lon":5.36702,"is_reserved":false,"is_disabled":false,"rental_uris":{"android":"levelo://app?vid=c92fba34-aea6-4d2c-b710-21b825d7faaa","ios":"levelo://app?vid=c92fba34-aea6-4d2c-b710-21b825d7faaa"},"vehicle_type_id":"4","last_reported":1728630545,"current_range_meters":38800,"station_id":"ce4bgrp2rcd13ifvqc9g","pricing_plan_id":"cebpf4jnsgd1na2vs0mg"},{"bike_id":"016cc7db-a2a8-4cef-b1be-651ffed90720","system_id":"levelo_inurba_marseille","lat":43.32532,"lon":5.41434,"is_reserved":false,"is_disabled":false,"rental_uris":{"android":"levelo://app?vid=016cc7db-a2a8-4cef-b1be-651ffed90720","ios":"levelo://app?vid=016cc7db-a2a8-4cef-b1be-651ffed90720"},"vehicle_type_id":"4","last_reported":1728630545,"current_range_meters":7200,"station_id":"ce4bhq12rcd13ifvqhhg","pricing_plan_id":"cebpf4jnsgd1na2vs0mg"},{"bike_id":"5a5649e8-a9bc-4d0f-be41-ed6fc56a9baf","system_id":"levelo_inurba_marseille","lat":43.22925,"lon":5.35374,"is_reserved":false,"is_disabled":false,"rental_uris":{"android":"levelo://app?vid=5a5649e8-a9bc-4d0f-be41-ed6fc56a9baf","ios":"levelo://app?vid=5a5649e8-a9bc-4d0f-be41-ed6fc56a9baf"},"vehicle_type_id":"4","last_reported":1728630545,"current_range_meters":37600,"station_id":"cpo3532slgdg3j2ikp40","pricing_plan_id":"cebpf4jnsgd1na2vs0mg"},{"bike_id":"4d80ff99-3d68-46ff-b173-ab6806ac288c","system_id":"levelo_inurba_marseille","lat":43.2668,"lon":5.38264,"is_reserved":false,"is_disabled":false,"rental_uris":{"android":"levelo://app?vid=4d80ff99-3d68-46ff-b173-ab6806ac288c","ios":"levelo://app?vid=4d80ff99-3d68-46ff-b173-ab6806ac288c"},"vehicle_type_id":"4","last_reported":1728630545,"current_range_meters":38400,"station_id":"ce4bhg92rcd13ifvqf90","pricing_plan_id":"cebpf4jnsgd1na2vs0mg"},{"bike_id":"104dce3b-2862-44f7-bb64-f1cb1800c635","system_id":"levelo_inurba_marseille","lat":43.33602,"lon":5.41019,"is_reserved":false,"is_disabled":false,"rental_uris":{"android":"levelo://app?vid=104dce3b-2862-44f7-bb64-f1cb1800c635","ios":"levelo://app?vid=104dce3b-2862-44f7-bb64-f1cb1800c635"},"vehicle_type_id":"4","last_reported":1728630545,"current_range_meters":39200,"station_id":"ce4bhqh2rcd13ifvqhmg","pricing_plan_id":"cebpf4jnsgd1na2vs0mg"},{"bike_id":"f0434810-a555-42c3-b13e-8b05b41ed638","system_id":"levelo_inurba_marseille","lat":43.2408,"lon":5.3775,"is_reserved":false,"is_disabled":false,"rental_uris":{"android":"levelo://app?vid=f0434810-a555-42c3-b13e-8b05b41ed638","ios":"levelo://app?vid=f0434810-a555-42c3-b13e-8b05b41ed638"},"vehicle_type_id":"4","last_reported":1728630545,"current_range_meters":24000,"station_id":"ce4bhnp2rcd13ifvqgvg","pricing_plan_id":"cebpf4jnsgd1na2vs0mg"},{"bike_id":"52ba39b7-b52f-491a-ba65-25e180de383f","system_id":"levelo_inurba_marseille","lat":43.2782,"lon":5.40708,"is_reserved":false,"is_disabled":false,"rental_uris":{"android":"levelo://app?vid=52ba39b7-b52f-491a-ba65-25e180de383f","ios":"levelo://app?vid=52ba39b7-b52f-491a-ba65-25e180de383f"},"vehicle_type_id":"4","last_reported":1728630545,"current_range_meters":36000,"station_id":"ce4bhnh2rcd13ifvqgtg","pricing_plan_id":"cebpf4jnsgd1na2vs0mg"},{"bike_id":"2579bf5b-ca40-401c-b64e-f3ca24374040","system_id":"levelo_inurba_marseille","lat":43.30148,"lon":5.37414,"is_reserved":false,"is_disabled":false,"rental_uris":{"android":"levelo://app?vid=2579bf5b-ca40-401c-b64e-f3ca24374040","ios":"levelo://app?vid=2579bf5b-ca40-401c-b64e-f3ca24374040"},"vehicle_type_id":"4","last_reported":1728630545,"current_range_meters":26800,"station_id":"ce4bgs92rcd13ifvqcc0","pricing_plan_id":"cebpf4jnsgd1na2vs0mg"},{"bike_id":"a15cb93a-bcea-44d8-bf83-c38a29a4a489","system_id":"levelo_inurba_marseille","lat":43.25492,"lon":5.37644,"is_reserved":false,"is_disabled":false,"rental_uris":{"android":"levelo://app?vid=a15cb93a-bcea-44d8-bf83-c38a29a4a489","ios":"levelo://app?vid=a15cb93a-bcea-44d8-bf83-c38a29a4a489"},"vehicle_type_id":"4","last_reported":1728630545,"current_range_meters":39200,"station_id":"ce4bhh12rcd13ifvqff0","pricing_plan_id":"cebpf4jnsgd1na2vs0mg"},{"bike_id":"df97f6ce-50ef-4e46-9e5e-930330d7e696","system_id":"levelo_inurba_marseille","lat":43.2593,"lon":5.40907,"is_reserved":false,"is_disabled":false,"rental_uris":{"android":"levelo://app?vid=df97f6ce-50ef-4e46-9e5e-930330d7e696","ios":"levelo://app?vid=df97f6ce-50ef-4e46-9e5e-930330d7e696"},"vehicle_type_id":"4","last_reported":1728630545,"current_range_meters":16800,"station_id":"ce4bhm92rcd13ifvqglg","pricing_plan_id":"cebpf4jnsgd1na2vs0mg"},{"bike_id":"5c991a41-13f6-4e60-b946-b44f35cf9d2e","system_id":"levelo_inurba_marseille","lat":43.32657,"lon":5.40995,"is_reserved":false,"is_disabled":false,"rental_uris":{"android":"levelo://app?vid=5c991a41-13f6-4e60-b946-b44f35cf9d2e","ios":"levelo://app?vid=5c991a41-13f6-4e60-b946-b44f35cf9d2e"},"vehicle_type_id":"4","last_reported":1728630545,"current_range_meters":25600,"station_id":"ce4bhpp2rcd13ifvqhgg","pricing_plan_id":"cebpf4jnsgd1na2vs0mg"},{"bike_id":"f5666380-bac5-4d6f-b567-2b74a9a60259","system_id":"levelo_inurba_marseille","lat":43.29783,"lon":5.37109,"is_reserved":false,"is_disabled":false,"rental_uris":{"android":"levelo://app?vid=f5666380-bac5-4d6f-b567-2b74a9a60259","ios":"levelo://app?vid=f5666380-bac5-4d6f-b567-2b74a9a60259"},"vehicle_type_id":"4","last_reported":1728630545,"current_range_meters":29600,"station_id":"ce4bgop2rcd13ifvqc1g","pricing_plan_id":"cebpf4jnsgd1na2vs0mg"},{"bike_id":"8fb2b431-bcb9-46ba-80fb-e26e84592fc5","system_id":"levelo_inurba_marseille","lat":43.231888,"lon":5.35556,"is_reserved":false,"is_disabled":false,"rental_uris":{"android":"levelo://app?vid=8fb2b431-bcb9-46ba-80fb-e26e84592fc5","ios":"levelo://app?vid=8fb2b431-bcb9-46ba-80fb-e26e84592fc5"},"vehicle_type_id":"4","last_reported":1728630545,"current_range_meters":37600,"station_id":"ce4bhu92rcd13ifvqi70","pricing_plan_id":"cebpf4jnsgd1na2vs0mg"},{"bike_id":"0505e1cf-8f9b-4c0d-af15-071b9742f141","system_id":"levelo_inurba_marseille","lat":43.24084,"lon":5.37752,"is_reserved":false,"is_disabled":false,"rental_uris":{"android":"levelo://app?vid=0505e1cf-8f9b-4c0d-af15-071b9742f141","ios":"levelo://app?vid=0505e1cf-8f9b-4c0d-af15-071b9742f141"},"vehicle_type_id":"4","last_reported":1728630545,"current_range_meters":36800,"station_id":"ce4bhnp2rcd13ifvqgvg","pricing_plan_id":"cebpf4jnsgd1na2vs0mg"},{"bike_id":"0d9b18a8-1890-46f0-9c7d-ec63264d2696","system_id":"levelo_inurba_marseille","lat":43.28713,"lon":5.37942,"is_reserved":false,"is_disabled":false,"rental_uris":{"android":"levelo://app?vid=0d9b18a8-1890-46f0-9c7d-ec63264d2696","ios":"levelo://app?vid=0d9b18a8-1890-46f0-9c7d-ec63264d2696"},"vehicle_type_id":"4","last_reported":1728630545,"current_range_meters":27200,"station_id":"ce4bh9p2rcd13ifvqec0","pricing_plan_id":"cebpf4jnsgd1na2vs0mg"},{"bike_id":"c93e3bf4-3ad2-4eee-a665-24b508403712","system_id":"levelo_inurba_marseille","lat":43.30129,"lon":5.39873,"is_reserved":false,"is_disabled":false,"rental_uris":{"android":"levelo://app?vid=c93e3bf4-3ad2-4eee-a665-24b508403712","ios":"levelo://app?vid=c93e3bf4-3ad2-4eee-a665-24b508403712"},"vehicle_type_id":"4","last_reported":1728630545,"current_range_meters":36800,"station_id":"ce4bh0h2rcd13ifvqd40","pricing_plan_id":"cebpf4jnsgd1na2vs0mg"},{"bike_id":"76d70c97-537b-4f0e-bfab-4b726cb7ce7b","system_id":"levelo_inurba_marseille","lat":43.28472,"lon":5.38422,"is_reserved":false,"is_disabled":false,"rental_uris":{"android":"levelo://app?vid=76d70c97-537b-4f0e-bfab-4b726cb7ce7b","ios":"levelo://app?vid=76d70c97-537b-4f0e-bfab-4b726cb7ce7b"},"vehicle_type_id":"4","last_reported":1728630545,"current_range_meters":10000,"station_id":"ce4bh512rcd13ifvqe3g","pricing_plan_id":"cebpf4jnsgd1na2vs0mg"},{"bike_id":"9d7ed1cc-c333-491e-a46d-24f7fd8f2a0f","system_id":"levelo_inurba_marseille","lat":43.3048,"lon":5.37915,"is_reserved":false,"is_disabled":false,"rental_uris":{"android":"levelo://app?vid=9d7ed1cc-c333-491e-a46d-24f7fd8f2a0f","ios":"levelo://app?vid=9d7ed1cc-c333-491e-a46d-24f7fd8f2a0f"},"vehicle_type_id":"4","last_reported":1728630545,"current_range_meters":28800,"station_id":"ce4bgup2rcd13ifvqcn0","pricing_plan_id":"cebpf4jnsgd1na2vs0mg"},{"bike_id":"bb071bcd-2f53-415d-94b0-d7c42ca3770b","system_id":"levelo_inurba_marseille","lat":43.3091,"lon":5.36856,"is_reserved":false,"is_disabled":false,"rental_uris":{"android":"levelo://app?vid=bb071bcd-2f53-415d-94b0-d7c42ca3770b","ios":"levelo://app?vid=bb071bcd-2f53-415d-94b0-d7c42ca3770b"},"vehicle_type_id":"4","last_reported":1728630545,"current_range_meters":20000,"station_id":"ce4bgn92rcd13ifvqbvg","pricing_plan_id":"cebpf4jnsgd1na2vs0mg"},{"bike_id":"5167ceb0-39da-4ee2-86c9-e5de78016b46","system_id":"levelo_inurba_marseille","lat":43.27498,"lon":5.4245,"is_reserved":false,"is_disabled":false,"rental_uris":{"android":"levelo://app?vid=5167ceb0-39da-4ee2-86c9-e5de78016b46","ios":"levelo://app?vid=5167ceb0-39da-4ee2-86c9-e5de78016b46"},"vehicle_type_id":"4","last_reported":1728630545,"current_range_meters":6400,"station_id":"ce4bhn92rcd13ifvqgrg","pricing_plan_id":"cebpf4jnsgd1na2vs0mg"},{"bike_id":"f229bc2a-1881-4331-ac81-ea83e1d47c36","system_id":"levelo_inurba_marseille","lat":43.25913,"lon":5.40866,"is_reserved":false,"is_disabled":false,"rental_uris":{"android":"levelo://app?vid=f229bc2a-1881-4331-ac81-ea83e1d47c36","ios":"levelo://app?vid=f229bc2a-1881-4331-ac81-ea83e1d47c36"},"vehicle_type_id":"4","last_reported":1728630545,"current_range_meters":38800,"station_id":"ce4bhm92rcd13ifvqglg","pricing_plan_id":"cebpf4jnsgd1na2vs0mg"},{"bike_id":"a4cb411f-29e1-4f71-8933-280e7fc4b681","system_id":"levelo_inurba_marseille","lat":43.30215,"lon":5.39471,"is_reserved":false,"is_disabled":false,"rental_uris":{"android":"levelo://app?vid=a4cb411f-29e1-4f71-8933-280e7fc4b681","ios":"levelo://app?vid=a4cb411f-29e1-4f71-8933-280e7fc4b681"},"vehicle_type_id":"4","last_reported":1728630545,"current_range_meters":6800,"station_id":"ce4bh0p2rcd13ifvqd70","pricing_plan_id":"cebpf4jnsgd1na2vs0mg"},{"bike_id":"b5201cc6-22cd-4a35-ab7c-45b634371667","system_id":"levelo_inurba_marseille","lat":43.31358,"lon":5.36702,"is_reserved":false,"is_disabled":false,"rental_uris":{"android":"levelo://app?vid=b5201cc6-22cd-4a35-ab7c-45b634371667","ios":"levelo://app?vid=b5201cc6-22cd-4a35-ab7c-45b634371667"},"vehicle_type_id":"4","last_reported":1728630545,"current_range_meters":18800,"station_id":"ce4bgr92rcd13ifvqc6g","pricing_plan_id":"cebpf4jnsgd1na2vs0mg"},{"bike_id":"2e57e480-a324-489b-8946-f7d9d9edcf00","system_id":"levelo_inurba_marseille","lat":43.33614,"lon":5.41027,"is_reserved":false,"is_disabled":false,"rental_uris":{"android":"levelo://app?vid=2e57e480-a324-489b-8946-f7d9d9edcf00","ios":"levelo://app?vid=2e57e480-a324-489b-8946-f7d9d9edcf00"},"vehicle_type_id":"4","last_reported":1728630545,"current_range_meters":39200,"station_id":"ce4bhqh2rcd13ifvqhmg","pricing_plan_id":"cebpf4jnsgd1na2vs0mg"},{"bike_id":"fdd79d87-dcd5-4f2e-8d2e-035006594798","system_id":"levelo_inurba_marseille","lat":43.24391,"lon":5.37051,"is_reserved":false,"is_disabled":false,"rental_uris":{"android":"levelo://app?vid=fdd79d87-dcd5-4f2e-8d2e-035006594798","ios":"levelo://app?vid=fdd79d87-dcd5-4f2e-8d2e-035006594798"},"vehicle_type_id":"4","last_reported":1728630545,"current_range_meters":8400,"station_id":"ce4bhhh2rcd13ifvqfk0","pricing_plan_id":"cebpf4jnsgd1na2vs0mg"},{"bike_id":"d7904d32-0362-484b-a63a-cf15dc9c6117","system_id":"levelo_inurba_marseille","lat":43.28214,"lon":5.37906,"is_reserved":false,"is_disabled":false,"rental_uris":{"android":"levelo://app?vid=d7904d32-0362-484b-a63a-cf15dc9c6117","ios":"levelo://app?vid=d7904d32-0362-484b-a63a-cf15dc9c6117"},"vehicle_type_id":"4","last_reported":1728630545,"current_range_meters":3200,"station_id":"","pricing_plan_id":"cebpf4jnsgd1na2vs0mg"},{"bike_id":"e8f103c0-5dbb-47f2-b2c8-3be0143b48d2","system_id":"levelo_inurba_marseille","lat":43.28002,"lon":5.40013,"is_reserved":false,"is_disabled":false,"rental_uris":{"android":"levelo://app?vid=e8f103c0-5dbb-47f2-b2c8-3be0143b48d2","ios":"levelo://app?vid=e8f103c0-5dbb-47f2-b2c8-3be0143b48d2"},"vehicle_type_id":"4","last_reported":1728630545,"current_range_meters":37600,"station_id":"ce4bho92rcd13ifvqh4g","pricing_plan_id":"cebpf4jnsgd1na2vs0mg"},{"bike_id":"27ea83b5-2359-483a-8057-073cb72dabfc","system_id":"levelo_inurba_marseille","lat":43.28417,"lon":5.34979,"is_reserved":false,"is_disabled":false,"rental_uris":{"android":"levelo://app?vid=27ea83b5-2359-483a-8057-073cb72dabfc","ios":"levelo://app?vid=27ea83b5-2359-483a-8057-073cb72dabfc"},"vehicle_type_id":"4","last_reported":1728630545,"current_range_meters":22400,"station_id":"ce4bhbh2rcd13ifvqepg","pricing_plan_id":"cebpf4jnsgd1na2vs0mg"},{"bike_id":"1c31612e-dd60-4368-b992-3b1df59e1702","system_id":"levelo_inurba_marseille","lat":43.274957,"lon":5.424517,"is_reserved":false,"is_disabled":false,"rental_uris":{"android":"levelo://app?vid=1c31612e-dd60-4368-b992-3b1df59e1702","ios":"levelo://app?vid=1c31612e-dd60-4368-b992-3b1df59e1702"},"vehicle_type_id":"4","last_reported":1728630545,"current_range_meters":24400,"station_id":"ce4bhn92rcd13ifvqgrg","pricing_plan_id":"cebpf4jnsgd1na2vs0mg"},{"bike_id":"a16567ee-8663-415e-88a2-3a019332e0dc","system_id":"levelo_inurba_marseille","lat":43.25582,"lon":5.38232,"is_reserved":false,"is_disabled":false,"rental_uris":{"android":"levelo://app?vid=a16567ee-8663-415e-88a2-3a019332e0dc","ios":"levelo://app?vid=a16567ee-8663-415e-88a2-3a019332e0dc"},"vehicle_type_id":"4","last_reported":1728630545,"current_range_meters":29600,"station_id":"ce4bhih2rcd13ifvqfs0","pricing_plan_id":"cebpf4jnsgd1na2vs0mg"},{"bike_id":"eceb3357-b0ce-42a7-8054-02aad6699c4f","system_id":"levelo_inurba_marseille","lat":43.28349,"lon":5.38106,"is_reserved":false,"is_disabled":false,"rental_uris":{"android":"levelo://app?vid=eceb3357-b0ce-42a7-8054-02aad6699c4f","ios":"levelo://app?vid=eceb3357-b0ce-42a7-8054-02aad6699c4f"},"vehicle_type_id":"4","last_reported":1728630545,"current_range_meters":32000,"station_id":"ce4bh412rcd13ifvqdr0","pricing_plan_id":"cebpf4jnsgd1na2vs0mg"},{"bike_id":"3d6fde7a-2dbc-4211-8635-538e39a59e28","system_id":"levelo_inurba_marseille","lat":43.27666,"lon":5.38891,"is_reserved":false,"is_disabled":false,"rental_uris":{"android":"levelo://app?vid=3d6fde7a-2dbc-4211-8635-538e39a59e28","ios":"levelo://app?vid=3d6fde7a-2dbc-4211-8635-538e39a59e28"},"vehicle_type_id":"4","last_reported":1728630545,"current_range_meters":38800,"station_id":"ce4bhi12rcd13ifvqfo0","pricing_plan_id":"cebpf4jnsgd1na2vs0mg"},{"bike_id":"a486d943-bca3-4153-b3f9-032cfa69543b","system_id":"levelo_inurba_marseille","lat":43.3136,"lon":5.36721,"is_reserved":false,"is_disabled":false,"rental_uris":{"android":"levelo://app?vid=a486d943-bca3-4153-b3f9-032cfa69543b","ios":"levelo://app?vid=a486d943-bca3-4153-b3f9-032cfa69543b"},"vehicle_type_id":"4","last_reported":1728630545,"current_range_meters":20800,"station_id":"ce4bgr92rcd13ifvqc6g","pricing_plan_id":"cebpf4jnsgd1na2vs0mg"},{"bike_id":"d3268884-0618-4007-b26d-f3c9e27df9d9","system_id":"levelo_inurba_marseille","lat":43.30794,"lon":5.37636,"is_reserved":false,"is_disabled":false,"rental_uris":{"android":"levelo://app?vid=d3268884-0618-4007-b26d-f3c9e27df9d9","ios":"levelo://app?vid=d3268884-0618-4007-b26d-f3c9e27df9d9"},"vehicle_type_id":"4","last_reported":1728630545,"current_range_meters":25600,"station_id":"ce4bgv92rcd13ifvqcq0","pricing_plan_id":"cebpf4jnsgd1na2vs0mg"},{"bike_id":"614711f5-746e-4827-8a4a-9fbe9f82eb47","system_id":"levelo_inurba_marseille","lat":43.292,"lon":5.39336,"is_reserved":false,"is_disabled":false,"rental_uris":{"android":"levelo://app?vid=614711f5-746e-4827-8a4a-9fbe9f82eb47","ios":"levelo://app?vid=614711f5-746e-4827-8a4a-9fbe9f82eb47"},"vehicle_type_id":"4","last_reported":1728630545,"current_range_meters":19200,"station_id":"ce4bh192rcd13ifvqdd0","pricing_plan_id":"cebpf4jnsgd1na2vs0mg"},{"bike_id":"f3c1aba3-aa12-416a-b863-ce596e731442","system_id":"levelo_inurba_marseille","lat":43.24801,"lon":5.37456,"is_reserved":false,"is_disabled":false,"rental_uris":{"android":"levelo://app?vid=f3c1aba3-aa12-416a-b863-ce596e731442","ios":"levelo://app?vid=f3c1aba3-aa12-416a-b863-ce596e731442"},"vehicle_type_id":"4","last_reported":1728630545,"current_range_meters":28400,"station_id":"ce4bhgh2rcd13ifvqfb0","pricing_plan_id":"cebpf4jnsgd1na2vs0mg"},{"bike_id":"aa75c41c-1391-4d5a-b0ad-fb29c317877d","system_id":"levelo_inurba_marseille","lat":43.23071,"lon":5.35495,"is_reserved":false,"is_disabled":false,"rental_uris":{"android":"levelo://app?vid=aa75c41c-1391-4d5a-b0ad-fb29c317877d","ios":"levelo://app?vid=aa75c41c-1391-4d5a-b0ad-fb29c317877d"},"vehicle_type_id":"4","last_reported":1728630545,"current_range_meters":8000,"station_id":"cpo3342slgdg3j2ifvpg","pricing_plan_id":"cebpf4jnsgd1na2vs0mg"},{"bike_id":"773b10cd-4140-4e1a-af4b-72bc0c858471","system_id":"levelo_inurba_marseille","lat":43.3136,"lon":5.3672,"is_reserved":false,"is_disabled":false,"rental_uris":{"android":"levelo://app?vid=773b10cd-4140-4e1a-af4b-72bc0c858471","ios":"levelo://app?vid=773b10cd-4140-4e1a-af4b-72bc0c858471"},"vehicle_type_id":"4","last_reported":1728630545,"current_range_meters":37600,"station_id":"ce4bgr92rcd13ifvqc6g","pricing_plan_id":"cebpf4jnsgd1na2vs0mg"},{"bike_id":"184725ba-a587-42cc-a0d8-23c6d6e8daf1","system_id":"levelo_inurba_marseille","lat":43.30537,"lon":5.38427,"is_reserved":false,"is_disabled":false,"rental_uris":{"android":"levelo://app?vid=184725ba-a587-42cc-a0d8-23c6d6e8daf1","ios":"levelo://app?vid=184725ba-a587-42cc-a0d8-23c6d6e8daf1"},"vehicle_type_id":"4","last_reported":1728630545,"current_range_meters":38800,"station_id":"ce4bgg92rcd13ifvqb30","pricing_plan_id":"cebpf4jnsgd1na2vs0mg"},{"bike_id":"5afdb8c9-d96d-4c0e-b591-d8ec4a6bd3ae","system_id":"levelo_inurba_marseille","lat":43.26946,"lon":5.38629,"is_reserved":false,"is_disabled":false,"rental_uris":{"android":"levelo://app?vid=5afdb8c9-d96d-4c0e-b591-d8ec4a6bd3ae","ios":"levelo://app?vid=5afdb8c9-d96d-4c0e-b591-d8ec4a6bd3ae"},"vehicle_type_id":"4","last_reported":1728630545,"current_range_meters":32000,"station_id":"ce4bhh92rcd13ifvqfh0","pricing_plan_id":"cebpf4jnsgd1na2vs0mg"},{"bike_id":"a6144df5-4781-4c25-be51-b8e6ae72ebc8","system_id":"levelo_inurba_marseille","lat":43.30477,"lon":5.37902,"is_reserved":false,"is_disabled":false,"rental_uris":{"android":"levelo://app?vid=a6144df5-4781-4c25-be51-b8e6ae72ebc8","ios":"levelo://app?vid=a6144df5-4781-4c25-be51-b8e6ae72ebc8"},"vehicle_type_id":"4","last_reported":1728630545,"current_range_meters":14800,"station_id":"ce4bgup2rcd13ifvqcn0","pricing_plan_id":"cebpf4jnsgd1na2vs0mg"},{"bike_id":"8951881c-1844-4191-93f4-b5f46119ae77","system_id":"levelo_inurba_marseille","lat":43.30156,"lon":5.38088,"is_reserved":false,"is_disabled":false,"rental_uris":{"android":"levelo://app?vid=8951881c-1844-4191-93f4-b5f46119ae77","ios":"levelo://app?vid=8951881c-1844-4191-93f4-b5f46119ae77"},"vehicle_type_id":"4","last_reported":1728630545,"current_range_meters":8000,"station_id":"ce4bgjp2rcd13ifvqbh0","pricing_plan_id":"cebpf4jnsgd1na2vs0mg"},{"bike_id":"6ac0c957-14ec-463a-9313-78cac548e912","system_id":"levelo_inurba_marseille","lat":43.30537,"lon":5.36721,"is_reserved":false,"is_disabled":false,"rental_uris":{"android":"levelo://app?vid=6ac0c957-14ec-463a-9313-78cac548e912","ios":"levelo://app?vid=6ac0c957-14ec-463a-9313-78cac548e912"},"vehicle_type_id":"4","last_reported":1728630545,"current_range_meters":30800,"station_id":"ce4bgrp2rcd13ifvqc9g","pricing_plan_id":"cebpf4jnsgd1na2vs0mg"},{"bike_id":"9c1428d8-a757-481f-9ddd-8061907a7c92","system_id":"levelo_inurba_marseille","lat":43.23967,"lon":5.36636,"is_reserved":false,"is_disabled":false,"rental_uris":{"android":"levelo://app?vid=9c1428d8-a757-481f-9ddd-8061907a7c92","ios":"levelo://app?vid=9c1428d8-a757-481f-9ddd-8061907a7c92"},"vehicle_type_id":"4","last_reported":1728630545,"current_range_meters":24000,"station_id":"ce4bhi12rcd13ifvqfp0","pricing_plan_id":"cebpf4jnsgd1na2vs0mg"},{"bike_id":"d4e7c199-5b07-4cc4-b4e1-e0fc91d98728","system_id":"levelo_inurba_marseille","lat":43.255781,"lon":5.382381,"is_reserved":false,"is_disabled":false,"rental_uris":{"android":"levelo://app?vid=d4e7c199-5b07-4cc4-b4e1-e0fc91d98728","ios":"levelo://app?vid=d4e7c199-5b07-4cc4-b4e1-e0fc91d98728"},"vehicle_type_id":"4","last_reported":1728630545,"current_range_meters":38000,"station_id":"ce4bhih2rcd13ifvqfs0","pricing_plan_id":"cebpf4jnsgd1na2vs0mg"},{"bike_id":"b1009450-6152-462c-a724-90df51eeb6db","system_id":"levelo_inurba_marseille","lat":43.32382,"lon":5.38917,"is_reserved":false,"is_disabled":false,"rental_uris":{"android":"levelo://app?vid=b1009450-6152-462c-a724-90df51eeb6db","ios":"levelo://app?vid=b1009450-6152-462c-a724-90df51eeb6db"},"vehicle_type_id":"4","last_reported":1728630545,"current_range_meters":6800,"station_id":"ce4bhqp2rcd13ifvqhog","pricing_plan_id":"cebpf4jnsgd1na2vs0mg"},{"bike_id":"e7ff8a71-08f6-4d85-81cd-23e686b45531","system_id":"levelo_inurba_marseille","lat":43.23196,"lon":5.35553,"is_reserved":false,"is_disabled":false,"rental_uris":{"android":"levelo://app?vid=e7ff8a71-08f6-4d85-81cd-23e686b45531","ios":"levelo://app?vid=e7ff8a71-08f6-4d85-81cd-23e686b45531"},"vehicle_type_id":"4","last_reported":1728630545,"current_range_meters":26000,"station_id":"ce4bhu92rcd13ifvqi70","pricing_plan_id":"cebpf4jnsgd1na2vs0mg"},{"bike_id":"2e4d4c3a-c61a-4b9f-8c71-beec979e460a","system_id":"levelo_inurba_marseille","lat":43.29274,"lon":5.36839,"is_reserved":false,"is_disabled":false,"rental_uris":{"android":"levelo://app?vid=2e4d4c3a-c61a-4b9f-8c71-beec979e460a","ios":"levelo://app?vid=2e4d4c3a-c61a-4b9f-8c71-beec979e460a"},"vehicle_type_id":"4","last_reported":1728630545,"current_range_meters":19200,"station_id":"ce4bhbp2rcd13ifvqesg","pricing_plan_id":"cebpf4jnsgd1na2vs0mg"},{"bike_id":"ac88c9c3-7b97-4b15-9d64-52646be3df0e","system_id":"levelo_inurba_marseille","lat":43.300559,"lon":5.374383,"is_reserved":false,"is_disabled":false,"rental_uris":{"android":"levelo://app?vid=ac88c9c3-7b97-4b15-9d64-52646be3df0e","ios":"levelo://app?vid=ac88c9c3-7b97-4b15-9d64-52646be3df0e"},"vehicle_type_id":"4","last_reported":1728630545,"current_range_meters":8400,"station_id":"ce4bgs92rcd13ifvqcc0","pricing_plan_id":"cebpf4jnsgd1na2vs0mg"},{"bike_id":"195047fa-c069-4041-bc61-19dec6727ad5","system_id":"levelo_inurba_marseille","lat":43.30604,"lon":5.39359,"is_reserved":false,"is_disabled":false,"rental_uris":{"android":"levelo://app?vid=195047fa-c069-4041-bc61-19dec6727ad5","ios":"levelo://app?vid=195047fa-c069-4041-bc61-19dec6727ad5"},"vehicle_type_id":"4","last_reported":1728630545,"current_range_meters":24000,"station_id":"ce4bh0p2rcd13ifvqd80","pricing_plan_id":"cebpf4jnsgd1na2vs0mg"},{"bike_id":"144fa27b-4393-4404-953e-b972f1542b01","system_id":"levelo_inurba_marseille","lat":43.28088,"lon":5.38647,"is_reserved":false,"is_disabled":false,"rental_uris":{"android":"levelo://app?vid=144fa27b-4393-4404-953e-b972f1542b01","ios":"levelo://app?vid=144fa27b-4393-4404-953e-b972f1542b01"},"vehicle_type_id":"4","last_reported":1728630545,"current_range_meters":35600,"station_id":"ce4bh512rcd13ifvqe3g","pricing_plan_id":"cebpf4jnsgd1na2vs0mg"},{"bike_id":"3a118c4b-fd62-476e-8485-ac2c33d4f61c","system_id":"levelo_inurba_marseille","lat":43.27496,"lon":5.42454,"is_reserved":false,"is_disabled":false,"rental_uris":{"android":"levelo://app?vid=3a118c4b-fd62-476e-8485-ac2c33d4f61c","ios":"levelo://app?vid=3a118c4b-fd62-476e-8485-ac2c33d4f61c"},"vehicle_type_id":"4","last_reported":1728630545,"current_range_meters":38400,"station_id":"ce4bhn92rcd13ifvqgrg","pricing_plan_id":"cebpf4jnsgd1na2vs0mg"},{"bike_id":"feafa29c-9e30-4c2f-9a7f-aad1c72e0469","system_id":"levelo_inurba_marseille","lat":43.27967,"lon":5.38751,"is_reserved":false,"is_disabled":false,"rental_uris":{"android":"levelo://app?vid=feafa29c-9e30-4c2f-9a7f-aad1c72e0469","ios":"levelo://app?vid=feafa29c-9e30-4c2f-9a7f-aad1c72e0469"},"vehicle_type_id":"4","last_reported":1728630545,"current_range_meters":37600,"station_id":"ce4bhg12rcd13ifvqf80","pricing_plan_id":"cebpf4jnsgd1na2vs0mg"},{"bike_id":"980338e1-fc6f-426a-a1ae-2070a2be68d3","system_id":"levelo_inurba_marseille","lat":43.28264,"lon":5.35074,"is_reserved":false,"is_disabled":false,"rental_uris":{"android":"levelo://app?vid=980338e1-fc6f-426a-a1ae-2070a2be68d3","ios":"levelo://app?vid=980338e1-fc6f-426a-a1ae-2070a2be68d3"},"vehicle_type_id":"4","last_reported":1728630545,"current_range_meters":4800,"station_id":"ce4bhbp2rcd13ifvqerg","pricing_plan_id":"cebpf4jnsgd1na2vs0mg"},{"bike_id":"c1026e17-f5ee-4be7-a518-ef0d91a846d4","system_id":"levelo_inurba_marseille","lat":43.28943,"lon":5.3639,"is_reserved":false,"is_disabled":false,"rental_uris":{"android":"levelo://app?vid=c1026e17-f5ee-4be7-a518-ef0d91a846d4","ios":"levelo://app?vid=c1026e17-f5ee-4be7-a518-ef0d91a846d4"},"vehicle_type_id":"4","last_reported":1728630545,"current_range_meters":38000,"station_id":"ce4bhc92rcd13ifvqetg","pricing_plan_id":"cebpf4jnsgd1na2vs0mg"},{"bike_id":"a1f9acd4-c2e4-45fc-b38b-0e0aceb1d442","system_id":"levelo_inurba_marseille","lat":43.24663,"lon":5.38161,"is_reserved":false,"is_disabled":false,"rental_uris":{"android":"levelo://app?vid=a1f9acd4-c2e4-45fc-b38b-0e0aceb1d442","ios":"levelo://app?vid=a1f9acd4-c2e4-45fc-b38b-0e0aceb1d442"},"vehicle_type_id":"4","last_reported":1728630545,"current_range_meters":9200,"station_id":"ce4bhih2rcd13ifvqfr0","pricing_plan_id":"cebpf4jnsgd1na2vs0mg"},{"bike_id":"d4f74aac-acd7-4ac5-81c4-bd8bc3860e5a","system_id":"levelo_inurba_marseille","lat":43.28481,"lon":5.3842,"is_reserved":false,"is_disabled":false,"rental_uris":{"android":"levelo://app?vid=d4f74aac-acd7-4ac5-81c4-bd8bc3860e5a","ios":"levelo://app?vid=d4f74aac-acd7-4ac5-81c4-bd8bc3860e5a"},"vehicle_type_id":"4","last_reported":1728630545,"current_range_meters":6400,"station_id":"ce4bh512rcd13ifvqe3g","pricing_plan_id":"cebpf4jnsgd1na2vs0mg"},{"bike_id":"2cb019ee-27e4-4377-90ad-12a1579b5c9e","system_id":"levelo_inurba_marseille","lat":43.29967,"lon":5.38488,"is_reserved":false,"is_disabled":false,"rental_uris":{"android":"levelo://app?vid=2cb019ee-27e4-4377-90ad-12a1579b5c9e","ios":"levelo://app?vid=2cb019ee-27e4-4377-90ad-12a1579b5c9e"},"vehicle_type_id":"4","last_reported":1728630545,"current_range_meters":30800,"station_id":"ce4bgj92rcd13ifvqbd0","pricing_plan_id":"cebpf4jnsgd1na2vs0mg"},{"bike_id":"7254e48d-f618-4e1b-8031-58b858919a12","system_id":"levelo_inurba_marseille","lat":43.27172,"lon":5.40995,"is_reserved":false,"is_disabled":false,"rental_uris":{"android":"levelo://app?vid=7254e48d-f618-4e1b-8031-58b858919a12","ios":"levelo://app?vid=7254e48d-f618-4e1b-8031-58b858919a12"},"vehicle_type_id":"4","last_reported":1728630545,"current_range_meters":21600,"station_id":"ce4bhl12rcd13ifvqgf0","pricing_plan_id":"cebpf4jnsgd1na2vs0mg"},{"bike_id":"41668484-5402-4801-8dbc-dc927890f218","system_id":"levelo_inurba_marseille","lat":43.27499,"lon":5.42448,"is_reserved":false,"is_disabled":false,"rental_uris":{"android":"levelo://app?vid=41668484-5402-4801-8dbc-dc927890f218","ios":"levelo://app?vid=41668484-5402-4801-8dbc-dc927890f218"},"vehicle_type_id":"4","last_reported":1728630545,"current_range_meters":24000,"station_id":"ce4bhn92rcd13ifvqgrg","pricing_plan_id":"cebpf4jnsgd1na2vs0mg"},{"bike_id":"ed4ff37c-7b37-4616-af17-dad19155e98d","system_id":"levelo_inurba_marseille","lat":43.30146,"lon":5.37419,"is_reserved":false,"is_disabled":false,"rental_uris":{"android":"levelo://app?vid=ed4ff37c-7b37-4616-af17-dad19155e98d","ios":"levelo://app?vid=ed4ff37c-7b37-4616-af17-dad19155e98d"},"vehicle_type_id":"4","last_reported":1728630545,"current_range_meters":30000,"station_id":"ce4bgs92rcd13ifvqcc0","pricing_plan_id":"cebpf4jnsgd1na2vs0mg"},{"bike_id":"81196289-94df-4393-8094-9c7d1bb7a7f0","system_id":"levelo_inurba_marseille","lat":43.28947,"lon":5.36405,"is_reserved":false,"is_disabled":false,"rental_uris":{"android":"levelo://app?vid=81196289-94df-4393-8094-9c7d1bb7a7f0","ios":"levelo://app?vid=81196289-94df-4393-8094-9c7d1bb7a7f0"},"vehicle_type_id":"4","last_reported":1728630545,"current_range_meters":26000,"station_id":"ce4bhc92rcd13ifvqetg","pricing_plan_id":"cebpf4jnsgd1na2vs0mg"},{"bike_id":"f067f1c2-4c2c-45a8-873d-45919df56b88","system_id":"levelo_inurba_marseille","lat":43.25578,"lon":5.3823,"is_reserved":false,"is_disabled":false,"rental_uris":{"android":"levelo://app?vid=f067f1c2-4c2c-45a8-873d-45919df56b88","ios":"levelo://app?vid=f067f1c2-4c2c-45a8-873d-45919df56b88"},"vehicle_type_id":"4","last_reported":1728630545,"current_range_meters":38000,"station_id":"ce4bhih2rcd13ifvqfs0","pricing_plan_id":"cebpf4jnsgd1na2vs0mg"},{"bike_id":"eabaafd4-ab60-47f8-89ce-ef0e72c20579","system_id":"levelo_inurba_marseille","lat":43.33721,"lon":5.39171,"is_reserved":false,"is_disabled":false,"rental_uris":{"android":"levelo://app?vid=eabaafd4-ab60-47f8-89ce-ef0e72c20579","ios":"levelo://app?vid=eabaafd4-ab60-47f8-89ce-ef0e72c20579"},"vehicle_type_id":"4","last_reported":1728630545,"current_range_meters":39200,"station_id":"ce4bhr92rcd13ifvqhsg","pricing_plan_id":"cebpf4jnsgd1na2vs0mg"},{"bike_id":"3bbda213-8da4-4e29-8cf1-2cbd02b9b5a8","system_id":"levelo_inurba_marseille","lat":43.29979,"lon":5.38482,"is_reserved":false,"is_disabled":false,"rental_uris":{"android":"levelo://app?vid=3bbda213-8da4-4e29-8cf1-2cbd02b9b5a8","ios":"levelo://app?vid=3bbda213-8da4-4e29-8cf1-2cbd02b9b5a8"},"vehicle_type_id":"4","last_reported":1728630545,"current_range_meters":30000,"station_id":"ce4bgj92rcd13ifvqbd0","pricing_plan_id":"cebpf4jnsgd1na2vs0mg"},{"bike_id":"7cf81f3f-937d-445e-8722-f142709f106a","system_id":"levelo_inurba_marseille","lat":43.293814,"lon":5.371934,"is_reserved":false,"is_disabled":false,"rental_uris":{"android":"levelo://app?vid=7cf81f3f-937d-445e-8722-f142709f106a","ios":"levelo://app?vid=7cf81f3f-937d-445e-8722-f142709f106a"},"vehicle_type_id":"4","last_reported":1728630545,"current_range_meters":22400,"station_id":"ce4bgnh2rcd13ifvqc0g","pricing_plan_id":"cebpf4jnsgd1na2vs0mg"},{"bike_id":"08fc8c91-d2c9-499e-808b-81e455f4e3b3","system_id":"levelo_inurba_marseille","lat":43.24084,"lon":5.37761,"is_reserved":false,"is_disabled":false,"rental_uris":{"android":"levelo://app?vid=08fc8c91-d2c9-499e-808b-81e455f4e3b3","ios":"levelo://app?vid=08fc8c91-d2c9-499e-808b-81e455f4e3b3"},"vehicle_type_id":"4","last_reported":1728630545,"current_range_meters":35600,"station_id":"ce4bhnp2rcd13ifvqgvg","pricing_plan_id":"cebpf4jnsgd1na2vs0mg"},{"bike_id":"ce04f614-a320-42df-8776-6146f8ec634d","system_id":"levelo_inurba_marseille","lat":43.25579,"lon":5.38223,"is_reserved":false,"is_disabled":false,"rental_uris":{"android":"levelo://app?vid=ce04f614-a320-42df-8776-6146f8ec634d","ios":"levelo://app?vid=ce04f614-a320-42df-8776-6146f8ec634d"},"vehicle_type_id":"4","last_reported":1728630545,"current_range_meters":37600,"station_id":"ce4bhih2rcd13ifvqfs0","pricing_plan_id":"cebpf4jnsgd1na2vs0mg"},{"bike_id":"31d0db0e-bef6-49bb-9ed6-4328dc531c70","system_id":"levelo_inurba_marseille","lat":43.30536,"lon":5.36545,"is_reserved":false,"is_disabled":false,"rental_uris":{"android":"levelo://app?vid=31d0db0e-bef6-49bb-9ed6-4328dc531c70","ios":"levelo://app?vid=31d0db0e-bef6-49bb-9ed6-4328dc531c70"},"vehicle_type_id":"4","last_reported":1728630545,"current_range_meters":33600,"station_id":"ce4bgs12rcd13ifvqcag","pricing_plan_id":"cebpf4jnsgd1na2vs0mg"},{"bike_id":"a3b9279b-6de2-4caf-b3b4-c8f1c46ba6cd","system_id":"levelo_inurba_marseille","lat":43.28716,"lon":5.37935,"is_reserved":false,"is_disabled":false,"rental_uris":{"android":"levelo://app?vid=a3b9279b-6de2-4caf-b3b4-c8f1c46ba6cd","ios":"levelo://app?vid=a3b9279b-6de2-4caf-b3b4-c8f1c46ba6cd"},"vehicle_type_id":"4","last_reported":1728630545,"current_range_meters":17600,"station_id":"ce4bh9p2rcd13ifvqec0","pricing_plan_id":"cebpf4jnsgd1na2vs0mg"},{"bike_id":"a3c352fd-45ea-4724-b189-65034c65ee55","system_id":"levelo_inurba_marseille","lat":43.30266,"lon":5.37725,"is_reserved":false,"is_disabled":false,"rental_uris":{"android":"levelo://app?vid=a3c352fd-45ea-4724-b189-65034c65ee55","ios":"levelo://app?vid=a3c352fd-45ea-4724-b189-65034c65ee55"},"vehicle_type_id":"4","last_reported":1728630545,"current_range_meters":9200,"station_id":"ce4bguh2rcd13ifvqcj0","pricing_plan_id":"cebpf4jnsgd1na2vs0mg"},{"bike_id":"fc3204ab-bb50-4bf4-97fa-5fb281d3a2eb","system_id":"levelo_inurba_marseille","lat":43.26999,"lon":5.387677,"is_reserved":false,"is_disabled":false,"rental_uris":{"android":"levelo://app?vid=fc3204ab-bb50-4bf4-97fa-5fb281d3a2eb","ios":"levelo://app?vid=fc3204ab-bb50-4bf4-97fa-5fb281d3a2eb"},"vehicle_type_id":"4","last_reported":1728630545,"current_range_meters":24400,"station_id":"ce4bhg92rcd13ifvqf90","pricing_plan_id":"cebpf4jnsgd1na2vs0mg"},{"bike_id":"0b189e28-cf34-4863-ac40-37fdf7f96e2e","system_id":"levelo_inurba_marseille","lat":43.28441,"lon":5.39209,"is_reserved":false,"is_disabled":false,"rental_uris":{"android":"levelo://app?vid=0b189e28-cf34-4863-ac40-37fdf7f96e2e","ios":"levelo://app?vid=0b189e28-cf34-4863-ac40-37fdf7f96e2e"},"vehicle_type_id":"4","last_reported":1728630545,"current_range_meters":24000,"station_id":"ce4bhoh2rcd13ifvqh5g","pricing_plan_id":"cebpf4jnsgd1na2vs0mg"},{"bike_id":"a95529f2-2129-4a9b-a5db-1cf3f96206f6","system_id":"levelo_inurba_marseille","lat":43.26804,"lon":5.40264,"is_reserved":false,"is_disabled":false,"rental_uris":{"android":"levelo://app?vid=a95529f2-2129-4a9b-a5db-1cf3f96206f6","ios":"levelo://app?vid=a95529f2-2129-4a9b-a5db-1cf3f96206f6"},"vehicle_type_id":"4","last_reported":1728630545,"current_range_meters":28800,"station_id":"ce501612rcd8frsf0b60","pricing_plan_id":"cebpf4jnsgd1na2vs0mg"},{"bike_id":"d3ff0d1e-0602-460e-a6ac-f922034d10ae","system_id":"levelo_inurba_marseille","lat":43.27496,"lon":5.4245,"is_reserved":false,"is_disabled":false,"rental_uris":{"android":"levelo://app?vid=d3ff0d1e-0602-460e-a6ac-f922034d10ae","ios":"levelo://app?vid=d3ff0d1e-0602-460e-a6ac-f922034d10ae"},"vehicle_type_id":"4","last_reported":1728630545,"current_range_meters":22800,"station_id":"ce4bhn92rcd13ifvqgrg","pricing_plan_id":"cebpf4jnsgd1na2vs0mg"},{"bike_id":"0f603dff-7ff9-4b27-9cd4-f4a53b947a28","system_id":"levelo_inurba_marseille","lat":43.30304,"lon":5.392159,"is_reserved":false,"is_disabled":false,"rental_uris":{"android":"levelo://app?vid=0f603dff-7ff9-4b27-9cd4-f4a53b947a28","ios":"levelo://app?vid=0f603dff-7ff9-4b27-9cd4-f4a53b947a28"},"vehicle_type_id":"4","last_reported":1728630545,"current_range_meters":22800,"station_id":"ce4bgkh2rcd13ifvqbk0","pricing_plan_id":"cebpf4jnsgd1na2vs0mg"},{"bike_id":"d55108dd-87b6-40df-ab17-8aefce6fa80a","system_id":"levelo_inurba_marseille","lat":43.29275,"lon":5.36847,"is_reserved":false,"is_disabled":false,"rental_uris":{"android":"levelo://app?vid=d55108dd-87b6-40df-ab17-8aefce6fa80a","ios":"levelo://app?vid=d55108dd-87b6-40df-ab17-8aefce6fa80a"},"vehicle_type_id":"4","last_reported":1728630545,"current_range_meters":3600,"station_id":"ce4bhbp2rcd13ifvqesg","pricing_plan_id":"cebpf4jnsgd1na2vs0mg"},{"bike_id":"bba6feaf-c739-4e64-afef-2ed6cedffab1","system_id":"levelo_inurba_marseille","lat":43.28474,"lon":5.38406,"is_reserved":false,"is_disabled":false,"rental_uris":{"android":"levelo://app?vid=bba6feaf-c739-4e64-afef-2ed6cedffab1","ios":"levelo://app?vid=bba6feaf-c739-4e64-afef-2ed6cedffab1"},"vehicle_type_id":"4","last_reported":1728630545,"current_range_meters":10000,"station_id":"ce4bh512rcd13ifvqe3g","pricing_plan_id":"cebpf4jnsgd1na2vs0mg"},{"bike_id":"a2e9c23e-f074-4cd4-b283-5bb2ac31d22c","system_id":"levelo_inurba_marseille","lat":43.29569,"lon":5.3753,"is_reserved":false,"is_disabled":false,"rental_uris":{"android":"levelo://app?vid=a2e9c23e-f074-4cd4-b283-5bb2ac31d22c","ios":"levelo://app?vid=a2e9c23e-f074-4cd4-b283-5bb2ac31d22c"},"vehicle_type_id":"4","last_reported":1728630545,"current_range_meters":38000,"station_id":"ce4bgh92rcd13ifvqb50","pricing_plan_id":"cebpf4jnsgd1na2vs0mg"},{"bike_id":"a9e96e67-4bf5-497d-b94c-a24fe84b8bcf","system_id":"levelo_inurba_marseille","lat":43.30915,"lon":5.36862,"is_reserved":false,"is_disabled":false,"rental_uris":{"android":"levelo://app?vid=a9e96e67-4bf5-497d-b94c-a24fe84b8bcf","ios":"levelo://app?vid=a9e96e67-4bf5-497d-b94c-a24fe84b8bcf"},"vehicle_type_id":"4","last_reported":1728630545,"current_range_meters":33600,"station_id":"ce4bgn92rcd13ifvqbvg","pricing_plan_id":"cebpf4jnsgd1na2vs0mg"},{"bike_id":"ad77db50-9cd8-4105-892f-89425f22722a","system_id":"levelo_inurba_marseille","lat":43.28479,"lon":5.38414,"is_reserved":false,"is_disabled":false,"rental_uris":{"android":"levelo://app?vid=ad77db50-9cd8-4105-892f-89425f22722a","ios":"levelo://app?vid=ad77db50-9cd8-4105-892f-89425f22722a"},"vehicle_type_id":"4","last_reported":1728630545,"current_range_meters":26000,"station_id":"ce4bh512rcd13ifvqe3g","pricing_plan_id":"cebpf4jnsgd1na2vs0mg"},{"bike_id":"e0fecdab-56be-4d52-80bd-5fb9d655ce2f","system_id":"levelo_inurba_marseille","lat":43.283433,"lon":5.380998,"is_reserved":false,"is_disabled":false,"rental_uris":{"android":"levelo://app?vid=e0fecdab-56be-4d52-80bd-5fb9d655ce2f","ios":"levelo://app?vid=e0fecdab-56be-4d52-80bd-5fb9d655ce2f"},"vehicle_type_id":"4","last_reported":1728630545,"current_range_meters":8400,"station_id":"ce4bh412rcd13ifvqdr0","pricing_plan_id":"cebpf4jnsgd1na2vs0mg"},{"bike_id":"9c1fc4b3-c2e0-4ef8-93a6-d070c200736b","system_id":"levelo_inurba_marseille","lat":43.28476,"lon":5.38415,"is_reserved":false,"is_disabled":false,"rental_uris":{"android":"levelo://app?vid=9c1fc4b3-c2e0-4ef8-93a6-d070c200736b","ios":"levelo://app?vid=9c1fc4b3-c2e0-4ef8-93a6-d070c200736b"},"vehicle_type_id":"4","last_reported":1728630545,"current_range_meters":20000,"station_id":"ce4bh512rcd13ifvqe3g","pricing_plan_id":"cebpf4jnsgd1na2vs0mg"},{"bike_id":"8097301a-ef50-41a1-9fab-046be0ed1371","system_id":"levelo_inurba_marseille","lat":43.2315,"lon":5.43725,"is_reserved":false,"is_disabled":false,"rental_uris":{"android":"levelo://app?vid=8097301a-ef50-41a1-9fab-046be0ed1371","ios":"levelo://app?vid=8097301a-ef50-41a1-9fab-046be0ed1371"},"vehicle_type_id":"4","last_reported":1728630545,"current_range_meters":24400,"station_id":"ce4bhmp2rcd13ifvqgog","pricing_plan_id":"cebpf4jnsgd1na2vs0mg"},{"bike_id":"5a8608c4-3dd2-4689-abc1-ef7e80c35ca9","system_id":"levelo_inurba_marseille","lat":43.31347,"lon":5.36709,"is_reserved":false,"is_disabled":false,"rental_uris":{"android":"levelo://app?vid=5a8608c4-3dd2-4689-abc1-ef7e80c35ca9","ios":"levelo://app?vid=5a8608c4-3dd2-4689-abc1-ef7e80c35ca9"},"vehicle_type_id":"4","last_reported":1728630545,"current_range_meters":39200,"station_id":"ce4bgr92rcd13ifvqc6g","pricing_plan_id":"cebpf4jnsgd1na2vs0mg"},{"bike_id":"2b416ee2-858f-4cf5-8039-204c864447ea","system_id":"levelo_inurba_marseille","lat":43.28941,"lon":5.39638,"is_reserved":false,"is_disabled":false,"rental_uris":{"android":"levelo://app?vid=2b416ee2-858f-4cf5-8039-204c864447ea","ios":"levelo://app?vid=2b416ee2-858f-4cf5-8039-204c864447ea"},"vehicle_type_id":"4","last_reported":1728630545,"current_range_meters":36800,"station_id":"ce4bh3h2rcd13ifvqdn0","pricing_plan_id":"cebpf4jnsgd1na2vs0mg"},{"bike_id":"d6a085e4-bfbf-4510-968c-e4cc0766c2f4","system_id":"levelo_inurba_marseille","lat":43.30198,"lon":5.3761,"is_reserved":false,"is_disabled":false,"rental_uris":{"android":"levelo://app?vid=d6a085e4-bfbf-4510-968c-e4cc0766c2f4","ios":"levelo://app?vid=d6a085e4-bfbf-4510-968c-e4cc0766c2f4"},"vehicle_type_id":"4","last_reported":1728630545,"current_range_meters":34000,"station_id":"ce4bguh2rcd13ifvqcj0","pricing_plan_id":"cebpf4jnsgd1na2vs0mg"},{"bike_id":"25cdf752-0104-49c8-a408-1289c5f40ced","system_id":"levelo_inurba_marseille","lat":43.31221,"lon":5.36856,"is_reserved":false,"is_disabled":false,"rental_uris":{"android":"levelo://app?vid=25cdf752-0104-49c8-a408-1289c5f40ced","ios":"levelo://app?vid=25cdf752-0104-49c8-a408-1289c5f40ced"},"vehicle_type_id":"4","last_reported":1728630545,"current_range_meters":36400,"station_id":"ce4bgl92rcd13ifvqbq0","pricing_plan_id":"cebpf4jnsgd1na2vs0mg"},{"bike_id":"d3515cc2-9931-4d17-a2b9-231072d9e4d2","system_id":"levelo_inurba_marseille","lat":43.232,"lon":5.35549,"is_reserved":false,"is_disabled":false,"rental_uris":{"android":"levelo://app?vid=d3515cc2-9931-4d17-a2b9-231072d9e4d2","ios":"levelo://app?vid=d3515cc2-9931-4d17-a2b9-231072d9e4d2"},"vehicle_type_id":"4","last_reported":1728630545,"current_range_meters":24800,"station_id":"ce4bhu92rcd13ifvqi70","pricing_plan_id":"cebpf4jnsgd1na2vs0mg"},{"bike_id":"bdad09d3-e21a-4fa5-9fb4-b33e28c5c35a","system_id":"levelo_inurba_marseille","lat":43.28715,"lon":5.37945,"is_reserved":false,"is_disabled":false,"rental_uris":{"android":"levelo://app?vid=bdad09d3-e21a-4fa5-9fb4-b33e28c5c35a","ios":"levelo://app?vid=bdad09d3-e21a-4fa5-9fb4-b33e28c5c35a"},"vehicle_type_id":"4","last_reported":1728630545,"current_range_meters":28400,"station_id":"ce4bh9p2rcd13ifvqec0","pricing_plan_id":"cebpf4jnsgd1na2vs0mg"},{"bike_id":"163dc779-b369-4c0a-9c1e-0dd326e44fcf","system_id":"levelo_inurba_marseille","lat":43.33021,"lon":5.39041,"is_reserved":false,"is_disabled":false,"rental_uris":{"android":"levelo://app?vid=163dc779-b369-4c0a-9c1e-0dd326e44fcf","ios":"levelo://app?vid=163dc779-b369-4c0a-9c1e-0dd326e44fcf"},"vehicle_type_id":"4","last_reported":1728630545,"current_range_meters":22000,"station_id":"ce4bhr92rcd13ifvqhrg","pricing_plan_id":"cebpf4jnsgd1na2vs0mg"},{"bike_id":"cad105d5-02d1-4129-8602-329f356e7204","system_id":"levelo_inurba_marseille","lat":43.34143,"lon":5.40904,"is_reserved":false,"is_disabled":false,"rental_uris":{"android":"levelo://app?vid=cad105d5-02d1-4129-8602-329f356e7204","ios":"levelo://app?vid=cad105d5-02d1-4129-8602-329f356e7204"},"vehicle_type_id":"4","last_reported":1728630545,"current_range_meters":33200,"station_id":"ce4bhqh2rcd13ifvqhlg","pricing_plan_id":"cebpf4jnsgd1na2vs0mg"},{"bike_id":"5af4e8cc-8b66-4aaf-9921-b17f6203f68f","system_id":"levelo_inurba_marseille","lat":43.30578,"lon":5.38382,"is_reserved":false,"is_disabled":false,"rental_uris":{"android":"levelo://app?vid=5af4e8cc-8b66-4aaf-9921-b17f6203f68f","ios":"levelo://app?vid=5af4e8cc-8b66-4aaf-9921-b17f6203f68f"},"vehicle_type_id":"4","last_reported":1728630545,"current_range_meters":28800,"station_id":"ce4bgup2rcd13ifvqco0","pricing_plan_id":"cebpf4jnsgd1na2vs0mg"},{"bike_id":"a4e38e61-da4a-4cc3-8dce-5b4bd2e5c23a","system_id":"levelo_inurba_marseille","lat":43.27496,"lon":5.4245,"is_reserved":false,"is_disabled":false,"rental_uris":{"android":"levelo://app?vid=a4e38e61-da4a-4cc3-8dce-5b4bd2e5c23a","ios":"levelo://app?vid=a4e38e61-da4a-4cc3-8dce-5b4bd2e5c23a"},"vehicle_type_id":"4","last_reported":1728630545,"current_range_meters":33600,"station_id":"ce4bhn92rcd13ifvqgrg","pricing_plan_id":"cebpf4jnsgd1na2vs0mg"},{"bike_id":"0e19a455-8bc9-46ed-9a32-cb27ddcc8d40","system_id":"levelo_inurba_marseille","lat":43.26683,"lon":5.38271,"is_reserved":false,"is_disabled":false,"rental_uris":{"android":"levelo://app?vid=0e19a455-8bc9-46ed-9a32-cb27ddcc8d40","ios":"levelo://app?vid=0e19a455-8bc9-46ed-9a32-cb27ddcc8d40"},"vehicle_type_id":"4","last_reported":1728630545,"current_range_meters":22000,"station_id":"ce4bhg92rcd13ifvqf90","pricing_plan_id":"cebpf4jnsgd1na2vs0mg"},{"bike_id":"c7e53417-8c31-48e6-814f-b364d6ab3242","system_id":"levelo_inurba_marseille","lat":43.30476,"lon":5.37907,"is_reserved":false,"is_disabled":false,"rental_uris":{"android":"levelo://app?vid=c7e53417-8c31-48e6-814f-b364d6ab3242","ios":"levelo://app?vid=c7e53417-8c31-48e6-814f-b364d6ab3242"},"vehicle_type_id":"4","last_reported":1728630545,"current_range_meters":38000,"station_id":"ce4bgup2rcd13ifvqcn0","pricing_plan_id":"cebpf4jnsgd1na2vs0mg"},{"bike_id":"3717b788-bca7-4f01-b7bf-138858b28426","system_id":"levelo_inurba_marseille","lat":43.33608,"lon":5.41019,"is_reserved":false,"is_disabled":false,"rental_uris":{"android":"levelo://app?vid=3717b788-bca7-4f01-b7bf-138858b28426","ios":"levelo://app?vid=3717b788-bca7-4f01-b7bf-138858b28426"},"vehicle_type_id":"4","last_reported":1728630545,"current_range_meters":9200,"station_id":"ce4bhqh2rcd13ifvqhmg","pricing_plan_id":"cebpf4jnsgd1na2vs0mg"},{"bike_id":"7a47995f-c30f-433c-865c-89bc7d7aee74","system_id":"levelo_inurba_marseille","lat":43.30476,"lon":5.37903,"is_reserved":false,"is_disabled":false,"rental_uris":{"android":"levelo://app?vid=7a47995f-c30f-433c-865c-89bc7d7aee74","ios":"levelo://app?vid=7a47995f-c30f-433c-865c-89bc7d7aee74"},"vehicle_type_id":"4","last_reported":1728630545,"current_range_meters":37600,"station_id":"ce4bgup2rcd13ifvqcn0","pricing_plan_id":"cebpf4jnsgd1na2vs0mg"},{"bike_id":"1a723e6a-28e6-41fb-aac5-024c7de244b0","system_id":"levelo_inurba_marseille","lat":43.31343,"lon":5.36729,"is_reserved":false,"is_disabled":false,"rental_uris":{"android":"levelo://app?vid=1a723e6a-28e6-41fb-aac5-024c7de244b0","ios":"levelo://app?vid=1a723e6a-28e6-41fb-aac5-024c7de244b0"},"vehicle_type_id":"4","last_reported":1728630545,"current_range_meters":22800,"station_id":"ce4bgr92rcd13ifvqc6g","pricing_plan_id":"cebpf4jnsgd1na2vs0mg"},