{"last_updated":1713377375,"ttl":30,"version":"2.2","data":{"bikes":[{"bike_id":"270ef4ac-873c-45af-b24b-b9c6dfeca1f8","system_id":"levelo_inurba_marseille","lat":43.312239,"lon":5.368562,"is_reserved":false,"is_disabled":false,"rental_uris":{"android":"levelo://app?vid=270ef4ac-873c-45af-b24b-b9c6dfeca1f8","ios":"levelo://app?vid=270ef4ac-873c-45af-b24b-b9c6dfeca1f8"},"vehicle_type_id":"4","last_reported":1713377375,"current_range_meters":0,"station_id":"ce4bgl92rcd13ifvqbq0","pricing_plan_id":"cebpf4jnsgd1na2vs0mg"},{"bike_id":"79fe3d02-a0b5-40b5-8e4a-e35efa3c39d3","system_id":"levelo_inurba_marseille","lat":43.312239,"lon":5.368562,"is_reserved":false,"is_disabled":false,"rental_uris":{"android":"levelo://app?vid=79fe3d02-a0b5-40b5-8e4a-e35efa3c39d3","ios":"levelo://app?vid=79fe3d02-a0b5-40b5-8e4a-e35efa3c39d3"},"vehicle_type_id":"4","last_reported":1713377375,"current_range_meters":800,"station_id":"ce4bgl92rcd13ifvqbq0","pricing_plan_id":"cebpf4jnsgd1na2vs0mg"},{"bike_id":"7a76ac97-9ab4-48ee-a466-9be8d7b9f7b6","system_id":"levelo_inurba_marseille","lat":43.31339,"lon":5.37282,"is_reserved":false,"is_disabled":false,"rental_uris":{"android":"levelo://app?vid=7a76ac97-9ab4-48ee-a466-9be8d7b9f7b6","ios":"levelo://app?vid=7a76ac97-9ab4-48ee-a466-9be8d7b9f7b6"},"vehicle_type_id":"4","last_reported":1713377375,"current_range_meters":14800,"station_id":"","pricing_plan_id":"cebpf4jnsgd1na2vs0mg"},{"bike_id":"28f13534-6591-48fe-9e12-cfb5575a38d8","system_id":"levelo_inurba_marseille","lat":43.314811,"lon":5.373103,"is_reserved":false,"is_disabled":false,"rental_uris":{"android":"levelo://app?vid=28f13534-6591-48fe-9e12-cfb5575a38d8","ios":"levelo://app?vid=28f13534-6591-48fe-9e12-cfb5575a38d8"},"vehicle_type_id":"4","last_reported":1713377375,"current_range_meters":16400,"station_id":"ce4bgt12rcd13ifvqcd0","pricing_plan_id":"cebpf4jnsgd1na2vs0mg"},{"bike_id":"177707c3-58ca-4ff0-bd6b-d1734ca96a50","system_id":"levelo_inurba_marseille","lat":43.314811,"lon":5.373103,"is_reserved":false,"is_disabled":false,"rental_uris":{"android":"levelo://app?vid=177707c3-58ca-4ff0-bd6b-d1734ca96a50","ios":"levelo://app?vid=177707c3-58ca-4ff0-bd6b-d1734ca96a50"},"vehicle_type_id":"4","last_reported":1713377375,"current_range_meters":9200,"station_id":"ce4bgt12rcd13ifvqcd0","pricing_plan_id":"cebpf4jnsgd1na2vs0mg"},{"bike_id":"c3747298-89e9-4696-8734-23022a727c5d","system_id":"levelo_inurba_marseille","lat":43.314811,"lon":5.373103,"is_reserved":false,"is_disabled":false,"rental_uris":{"android":"levelo://app?vid=c3747298-89e9-4696-8734-23022a727c5d","ios":"levelo://app?vid=c3747298-89e9-4696-8734-23022a727c5d"},"vehicle_type_id":"4","last_reported":1713377375,"current_range_meters":13600,"station_id":"ce4bgt12rcd13ifvqcd0","pricing_plan_id":"cebpf4jnsgd1na2vs0mg"},{"bike_id":"f0f7546b-1185-441d-9e2a-b71030ead603","system_id":"levelo_inurba_marseille","lat":43.314811,"lon":5.373103,"is_reserved":false,"is_disabled":false,"rental_uris":{"android":"levelo://app?vid=f0f7546b-1185-441d-9e2a-b71030ead603","ios":"levelo://app?vid=f0f7546b-1185-441d-9e2a-b71030ead603"},"vehicle_type_id":"4","last_reported":1713377375,"current_range_meters":0,"station_id":"ce4bgt12rcd13ifvqcd0","pricing_plan_id":"cebpf4jnsgd1na2vs0mg"},{"bike_id":"af856ece-e12d-45e0-ba6d-f199a631d00c","system_id":"levelo_inurba_marseille","lat":43.314811,"lon":5.373104,"is_reserved":false,"is_disabled":false,"rental_uris":{"android":"levelo://app?vid=af856ece-e12d-45e0-ba6d-f199a631d00c","ios":"levelo://app?vid=af856ece-e12d-45e0-ba6d-f199a631d00c"},"vehicle_type_id":"4","last_reported":1713377375,"current_range_meters":16800,"station_id":"ce4bgt12rcd13ifvqcd0","pricing_plan_id":"cebpf4jnsgd1na2vs0mg"},{"bike_id":"fa91ec88-44e2-44b7-9f64-9e3fbb05b723","system_id":"levelo_inurba_marseille","lat":43.309034,"lon":5.371783,"is_reserved":false,"is_disabled":false,"rental_uris":{"android":"levelo://app?vid=fa91ec88-44e2-44b7-9f64-9e3fbb05b723","ios":"levelo://app?vid=fa91ec88-44e2-44b7-9f64-9e3fbb05b723"},"vehicle_type_id":"4","last_reported":1713377375,"current_range_meters":28800,"station_id":"ce4bguh2rcd13ifvqckg","pricing_plan_id":"cebpf4jnsgd1na2vs0mg"},{"bike_id":"52f22b5a-486d-4c62-a4ac-137bfb2f235e","system_id":"levelo_inurba_marseille","lat":43.30554,"lon":5.36534,"is_reserved":false,"is_disabled":false,"rental_uris":{"android":"levelo://app?vid=52f22b5a-486d-4c62-a4ac-137bfb2f235e","ios":"levelo://app?vid=52f22b5a-486d-4c62-a4ac-137bfb2f235e"},"vehicle_type_id":"4","last_reported":1713377375,"current_range_meters":29200,"station_id":"","pricing_plan_id":"cebpf4jnsgd1na2vs0mg"},{"bike_id":"1c1aca7d-9724-4062-bacd-be219b38a550","system_id":"levelo_inurba_marseille","lat":43.305989,"lon":5.37225,"is_reserved":false,"is_disabled":false,"rental_uris":{"android":"levelo://app?vid=1c1aca7d-9724-4062-bacd-be219b38a550","ios":"levelo://app?vid=1c1aca7d-9724-4062-bacd-be219b38a550"},"vehicle_type_id":"4","last_reported":1713377375,"current_range_meters":6000,"station_id":"ce4bgqh2rcd13ifvqc4g","pricing_plan_id":"cebpf4jnsgd1na2vs0mg"},{"bike_id":"412cfb99-789d-48a7-a1fa-72d8774bc3ea","system_id":"levelo_inurba_marseille","lat":43.305989,"lon":5.37225,"is_reserved":false,"is_disabled":false,"rental_uris":{"android":"levelo://app?vid=412cfb99-789d-48a7-a1fa-72d8774bc3ea","ios":"levelo://app?vid=412cfb99-789d-48a7-a1fa-72d8774bc3ea"},"vehicle_type_id":"4","last_reported":1713377375,"current_range_meters":20400,"station_id":"ce4bgqh2rcd13ifvqc4g","pricing_plan_id":"cebpf4jnsgd1na2vs0mg"},{"bike_id":"6efc5b78-c513-4bae-8ba4-e1dd5d92f736","system_id":"levelo_inurba_marseille","lat":43.305989,"lon":5.37225,"is_reserved":false,"is_disabled":false,"rental_uris":{"android":"levelo://app?vid=6efc5b78-c513-4bae-8ba4-e1dd5d92f736","ios":"levelo://app?vid=6efc5b78-c513-4bae-8ba4-e1dd5d92f736"},"vehicle_type_id":"4","last_reported":1713377375,"current_range_meters":18800,"station_id":"ce4bgqh2rcd13ifvqc4g","pricing_plan_id":"cebpf4jnsgd1na2vs0mg"},{"bike_id":"8cd28707-e8cf-46d7-80cc-a309603c9931","system_id":"levelo_inurba_marseille","lat":43.311125,"lon":5.377624,"is_reserved":false,"is_disabled":false,"rental_uris":{"android":"levelo://app?vid=8cd28707-e8cf-46d7-80cc-a309603c9931","ios":"levelo://app?vid=8cd28707-e8cf-46d7-80cc-a309603c9931"},"vehicle_type_id":"4","last_reported":1713377375,"current_range_meters":0,"station_id":"ce4bgt92rcd13ifvqcg0","pricing_plan_id":"cebpf4jnsgd1na2vs0mg"},{"bike_id":"d31a6f2a-0a05-43be-b5f1-fbc34dfe1f30","system_id":"levelo_inurba_marseille","lat":43.317075,"lon":5.377367,"is_reserved":false,"is_disabled":false,"rental_uris":{"android":"levelo://app?vid=d31a6f2a-0a05-43be-b5f1-fbc34dfe1f30","ios":"levelo://app?vid=d31a6f2a-0a05-43be-b5f1-fbc34dfe1f30"},"vehicle_type_id":"4","last_reported":1713377375,"current_range_meters":4400,"station_id":"ce4bgth2rcd13ifvqch0","pricing_plan_id":"cebpf4jnsgd1na2vs0mg"},{"bike_id":"92b3a246-182a-4308-9023-ecf6dc4000bb","system_id":"levelo_inurba_marseille","lat":43.317027,"lon":5.376901,"is_reserved":false,"is_disabled":false,"rental_uris":{"android":"levelo://app?vid=92b3a246-182a-4308-9023-ecf6dc4000bb","ios":"levelo://app?vid=92b3a246-182a-4308-9023-ecf6dc4000bb"},"vehicle_type_id":"4","last_reported":1713377375,"current_range_meters":800,"station_id":"ce4bgth2rcd13ifvqch0","pricing_plan_id":"cebpf4jnsgd1na2vs0mg"},{"bike_id":"8e1342a2-de23-4fa6-a10f-010afc912687","system_id":"levelo_inurba_marseille","lat":43.317075,"lon":5.377367,"is_reserved":false,"is_disabled":false,"rental_uris":{"android":"levelo://app?vid=8e1342a2-de23-4fa6-a10f-010afc912687","ios":"levelo://app?vid=8e1342a2-de23-4fa6-a10f-010afc912687"},"vehicle_type_id":"4","last_reported":1713377375,"current_range_meters":11200,"station_id":"ce4bgth2rcd13ifvqch0","pricing_plan_id":"cebpf4jnsgd1na2vs0mg"},{"bike_id":"07e5cb09-e881-4558-a2a1-fb27af06892d","system_id":"levelo_inurba_marseille","lat":43.317075,"lon":5.377367,"is_reserved":false,"is_disabled":false,"rental_uris":{"android":"levelo://app?vid=07e5cb09-e881-4558-a2a1-fb27af06892d","ios":"levelo://app?vid=07e5cb09-e881-4558-a2a1-fb27af06892d"},"vehicle_type_id":"4","last_reported":1713377375,"current_range_meters":17200,"station_id":"ce4bgth2rcd13ifvqch0","pricing_plan_id":"cebpf4jnsgd1na2vs0mg"},{"bike_id":"bee8e9da-0701-47bf-afcd-9c04190ff22c","system_id":"levelo_inurba_marseille","lat":43.317075,"lon":5.377367,"is_reserved":false,"is_disabled":false,"rental_uris":{"android":"levelo://app?vid=bee8e9da-0701-47bf-afcd-9c04190ff22c","ios":"levelo://app?vid=bee8e9da-0701-47bf-afcd-9c04190ff22c"},"vehicle_type_id":"4","last_reported":1713377375,"current_range_meters":6000,"station_id":"ce4bgth2rcd13ifvqch0","pricing_plan_id":"cebpf4jnsgd1na2vs0mg"},{"bike_id":"e00f5c9c-82f1-4595-be09-fbbeee63189b","system_id":"levelo_inurba_marseille","lat":43.317075,"lon":5.377367,"is_reserved":false,"is_disabled":false,"rental_uris":{"android":"levelo://app?vid=e00f5c9c-82f1-4595-be09-fbbeee63189b","ios":"levelo://app?vid=e00f5c9c-82f1-4595-be09-fbbeee63189b"},"vehicle_type_id":"4","last_reported":1713377375,"current_range_meters":31200,"station_id":"ce4bgth2rcd13ifvqch0","pricing_plan_id":"cebpf4jnsgd1na2vs0mg"},{"bike_id":"e07c981e-638b-4ba6-ac96-fe5ee9e5a164","system_id":"levelo_inurba_marseille","lat":43.317075,"lon":5.377367,"is_reserved":false,"is_disabled":false,"rental_uris":{"android":"levelo://app?vid=e07c981e-638b-4ba6-ac96-fe5ee9e5a164","ios":"levelo://app?vid=e07c981e-638b-4ba6-ac96-fe5ee9e5a164"},"vehicle_type_id":"4","last_reported":1713377375,"current_range_meters":31600,"station_id":"ce4bgth2rcd13ifvqch0","pricing_plan_id":"cebpf4jnsgd1na2vs0mg"},{"bike_id":"af121c7d-0da1-405c-8b31-1d7369540008","system_id":"levelo_inurba_marseille","lat":43.30953,"lon":5.37921,"is_reserved":false,"is_disabled":false,"rental_uris":{"android":"levelo://app?vid=af121c7d-0da1-405c-8b31-1d7369540008","ios":"levelo://app?vid=af121c7d-0da1-405c-8b31-1d7369540008"},"vehicle_type_id":"4","last_reported":1713377375,"current_range_meters":22400,"station_id":"","pricing_plan_id":"cebpf4jnsgd1na2vs0mg"},{"bike_id":"871ff71b-fc1e-4b72-8b96-cafdcb7b4844","system_id":"levelo_inurba_marseille","lat":43.315289,"lon":5.380349,"is_reserved":false,"is_disabled":false,"rental_uris":{"android":"levelo://app?vid=871ff71b-fc1e-4b72-8b96-cafdcb7b4844","ios":"levelo://app?vid=871ff71b-fc1e-4b72-8b96-cafdcb7b4844"},"vehicle_type_id":"4","last_reported":1713377375,"current_range_meters":4400,"station_id":"ce4bhsp2rcd13ifvqi50","pricing_plan_id":"cebpf4jnsgd1na2vs0mg"},{"bike_id":"2a66eb3f-0f91-40aa-8f69-acee2753c0c7","system_id":"levelo_inurba_marseille","lat":43.30807,"lon":5.38163,"is_reserved":false,"is_disabled":false,"rental_uris":{"android":"levelo://app?vid=2a66eb3f-0f91-40aa-8f69-acee2753c0c7","ios":"levelo://app?vid=2a66eb3f-0f91-40aa-8f69-acee2753c0c7"},"vehicle_type_id":"4","last_reported":1713377375,"current_range_meters":0,"station_id":"ce4bgt12rcd13ifvqce0","pricing_plan_id":"cebpf4jnsgd1na2vs0mg"},{"bike_id":"f2001e85-52e5-423f-a67e-ac0e3318ccb2","system_id":"levelo_inurba_marseille","lat":43.308012,"lon":5.381511,"is_reserved":false,"is_disabled":false,"rental_uris":{"android":"levelo://app?vid=f2001e85-52e5-423f-a67e-ac0e3318ccb2","ios":"levelo://app?vid=f2001e85-52e5-423f-a67e-ac0e3318ccb2"},"vehicle_type_id":"4","last_reported":1713377375,"current_range_meters":2400,"station_id":"ce4bgt12rcd13ifvqce0","pricing_plan_id":"cebpf4jnsgd1na2vs0mg"},{"bike_id":"622dbaee-9dd2-4e0b-977c-bf1cb84d6a71","system_id":"levelo_inurba_marseille","lat":43.304606,"lon":5.379026,"is_reserved":false,"is_disabled":false,"rental_uris":{"android":"levelo://app?vid=622dbaee-9dd2-4e0b-977c-bf1cb84d6a71","ios":"levelo://app?vid=622dbaee-9dd2-4e0b-977c-bf1cb84d6a71"},"vehicle_type_id":"4","last_reported":1713377375,"current_range_meters":8400,"station_id":"ce4bgup2rcd13ifvqcn0","pricing_plan_id":"cebpf4jnsgd1na2vs0mg"},{"bike_id":"bdd5fc7e-d9fd-4a61-a4e9-353797c4a696","system_id":"levelo_inurba_marseille","lat":43.324771,"lon":5.36557,"is_reserved":false,"is_disabled":false,"rental_uris":{"android":"levelo://app?vid=bdd5fc7e-d9fd-4a61-a4e9-353797c4a696","ios":"levelo://app?vid=bdd5fc7e-d9fd-4a61-a4e9-353797c4a696"},"vehicle_type_id":"4","last_reported":1713377375,"current_range_meters":15200,"station_id":"ce4bhs12rcd13ifvqhvg","pricing_plan_id":"cebpf4jnsgd1na2vs0mg"},{"bike_id":"2361f870-47a0-4ae4-a065-afb3cf02f8b1","system_id":"levelo_inurba_marseille","lat":43.324771,"lon":5.36557,"is_reserved":false,"is_disabled":false,"rental_uris":{"android":"levelo://app?vid=2361f870-47a0-4ae4-a065-afb3cf02f8b1","ios":"levelo://app?vid=2361f870-47a0-4ae4-a065-afb3cf02f8b1"},"vehicle_type_id":"4","last_reported":1713377375,"current_range_meters":18000,"station_id":"ce4bhs12rcd13ifvqhvg","pricing_plan_id":"cebpf4jnsgd1na2vs0mg"},{"bike_id":"6850d3ac-6118-46b8-87a3-283cb8f13775","system_id":"levelo_inurba_marseille","lat":43.324771,"lon":5.36557,"is_reserved":false,"is_disabled":false,"rental_uris":{"android":"levelo://app?vid=6850d3ac-6118-46b8-87a3-283cb8f13775","ios":"levelo://app?vid=6850d3ac-6118-46b8-87a3-283cb8f13775"},"vehicle_type_id":"4","last_reported":1713377375,"current_range_meters":10000,"station_id":"ce4bhs12rcd13ifvqhvg","pricing_plan_id":"cebpf4jnsgd1na2vs0mg"},{"bike_id":"732115dd-fc36-4cea-9cd6-0e4cc350a9d7","system_id":"levelo_inurba_marseille","lat":43.324771,"lon":5.36557,"is_reserved":false,"is_disabled":false,"rental_uris":{"android":"levelo://app?vid=732115dd-fc36-4cea-9cd6-0e4cc350a9d7","ios":"levelo://app?vid=732115dd-fc36-4cea-9cd6-0e4cc350a9d7"},"vehicle_type_id":"4","last_reported":1713377375,"current_range_meters":21200,"station_id":"ce4bhs12rcd13ifvqhvg","pricing_plan_id":"cebpf4jnsgd1na2vs0mg"},{"bike_id":"bada93fb-f3e7-4072-b03f-debca43b0142","system_id":"levelo_inurba_marseille","lat":43.32484,"lon":5.3657,"is_reserved":false,"is_disabled":false,"rental_uris":{"android":"levelo://app?vid=bada93fb-f3e7-4072-b03f-debca43b0142","ios":"levelo://app?vid=bada93fb-f3e7-4072-b03f-debca43b0142"},"vehicle_type_id":"4","last_reported":1713377375,"current_range_meters":800,"station_id":"ce4bhs12rcd13ifvqhvg","pricing_plan_id":"cebpf4jnsgd1na2vs0mg"},{"bike_id":"9650e995-0d72-455f-838e-dca00d5136ce","system_id":"levelo_inurba_marseille","lat":43.324771,"lon":5.36557,"is_reserved":false,"is_disabled":false,"rental_uris":{"android":"levelo://app?vid=9650e995-0d72-455f-838e-dca00d5136ce","ios":"levelo://app?vid=9650e995-0d72-455f-838e-dca00d5136ce"},"vehicle_type_id":"4","last_reported":1713377375,"current_range_meters":24800,"station_id":"ce4bhs12rcd13ifvqhvg","pricing_plan_id":"cebpf4jnsgd1na2vs0mg"},{"bike_id":"a51b9dbd-b6b4-4e62-aede-beb536c98b5a","system_id":"levelo_inurba_marseille","lat":43.32485,"lon":5.36559,"is_reserved":false,"is_disabled":false,"rental_uris":{"android":"levelo://app?vid=a51b9dbd-b6b4-4e62-aede-beb536c98b5a","ios":"levelo://app?vid=a51b9dbd-b6b4-4e62-aede-beb536c98b5a"},"vehicle_type_id":"4","last_reported":1713377375,"current_range_meters":6800,"station_id":"ce4bhs12rcd13ifvqhvg","pricing_plan_id":"cebpf4jnsgd1na2vs0mg"},{"bike_id":"e95d4325-b11d-40d2-9368-4619f00b928c","system_id":"levelo_inurba_marseille","lat":43.310804,"lon":5.38359,"is_reserved":false,"is_disabled":false,"rental_uris":{"android":"levelo://app?vid=e95d4325-b11d-40d2-9368-4619f00b928c","ios":"levelo://app?vid=e95d4325-b11d-40d2-9368-4619f00b928c"},"vehicle_type_id":"4","last_reported":1713377375,"current_range_meters":5200,"station_id":"ce4bgv92rcd13ifvqcr0","pricing_plan_id":"cebpf4jnsgd1na2vs0mg"},{"bike_id":"8f5a870e-a81b-47b5-adbd-05a828769d28","system_id":"levelo_inurba_marseille","lat":43.30142,"lon":5.37416,"is_reserved":false,"is_disabled":false,"rental_uris":{"android":"levelo://app?vid=8f5a870e-a81b-47b5-adbd-05a828769d28","ios":"levelo://app?vid=8f5a870e-a81b-47b5-adbd-05a828769d28"},"vehicle_type_id":"4","last_reported":1713377375,"current_range_meters":0,"station_id":"ce4bgs92rcd13ifvqcc0","pricing_plan_id":"cebpf4jnsgd1na2vs0mg"},{"bike_id":"5e0422c4-4db2-4cd5-8ec6-f1a5f73617e2","system_id":"levelo_inurba_marseille","lat":43.305615,"lon":5.381375,"is_reserved":false,"is_disabled":false,"rental_uris":{"android":"levelo://app?vid=5e0422c4-4db2-4cd5-8ec6-f1a5f73617e2","ios":"levelo://app?vid=5e0422c4-4db2-4cd5-8ec6-f1a5f73617e2"},"vehicle_type_id":"4","last_reported":1713377375,"current_range_meters":18400,"station_id":"","pricing_plan_id":"cebpf4jnsgd1na2vs0mg"},{"bike_id":"334e3407-4f9b-4b57-a5ef-39033f25d948","system_id":"levelo_inurba_marseille","lat":43.319935,"lon":5.381699,"is_reserved":false,"is_disabled":false,"rental_uris":{"android":"levelo://app?vid=334e3407-4f9b-4b57-a5ef-39033f25d948","ios":"levelo://app?vid=334e3407-4f9b-4b57-a5ef-39033f25d948"},"vehicle_type_id":"4","last_reported":1713377375,"current_range_meters":20400,"station_id":"ce4bhr12rcd13ifvqhpg","pricing_plan_id":"cebpf4jnsgd1na2vs0mg"},{"bike_id":"d212c281-3522-420a-b06f-b80966290c73","system_id":"levelo_inurba_marseille","lat":43.319935,"lon":5.381699,"is_reserved":false,"is_disabled":false,"rental_uris":{"android":"levelo://app?vid=d212c281-3522-420a-b06f-b80966290c73","ios":"levelo://app?vid=d212c281-3522-420a-b06f-b80966290c73"},"vehicle_type_id":"4","last_reported":1713377375,"current_range_meters":24000,"station_id":"ce4bhr12rcd13ifvqhpg","pricing_plan_id":"cebpf4jnsgd1na2vs0mg"},{"bike_id":"b81b1e3e-2172-4dfd-8720-aafb0057bf12","system_id":"levelo_inurba_marseille","lat":43.319935,"lon":5.381699,"is_reserved":false,"is_disabled":false,"rental_uris":{"android":"levelo://app?vid=b81b1e3e-2172-4dfd-8720-aafb0057bf12","ios":"levelo://app?vid=b81b1e3e-2172-4dfd-8720-aafb0057bf12"},"vehicle_type_id":"4","last_reported":1713377375,"current_range_meters":9200,"station_id":"ce4bhr12rcd13ifvqhpg","pricing_plan_id":"cebpf4jnsgd1na2vs0mg"},{"bike_id":"eb084826-c14b-4714-abc5-e75cc896773b","system_id":"levelo_inurba_marseille","lat":43.319935,"lon":5.381699,"is_reserved":false,"is_disabled":false,"rental_uris":{"android":"levelo://app?vid=eb084826-c14b-4714-abc5-e75cc896773b","ios":"levelo://app?vid=eb084826-c14b-4714-abc5-e75cc896773b"},"vehicle_type_id":"4","last_reported":1713377375,"current_range_meters":9600,"station_id":"ce4bhr12rcd13ifvqhpg","pricing_plan_id":"cebpf4jnsgd1na2vs0mg"},{"bike_id":"f020809e-e197-4eb4-9e13-8310c8f35000","system_id":"levelo_inurba_marseille","lat":43.31991,"lon":5.38165,"is_reserved":false,"is_disabled":false,"rental_uris":{"android":"levelo://app?vid=f020809e-e197-4eb4-9e13-8310c8f35000","ios":"levelo://app?vid=f020809e-e197-4eb4-9e13-8310c8f35000"},"vehicle_type_id":"4","last_reported":1713377375,"current_range_meters":9600,"station_id":"ce4bhr12rcd13ifvqhpg","pricing_plan_id":"cebpf4jnsgd1na2vs0mg"},{"bike_id":"daa56114-b9d2-4cb0-a61b-57407ec02a89","system_id":"levelo_inurba_marseille","lat":43.32001,"lon":5.38159,"is_reserved":false,"is_disabled":false,"rental_uris":{"android":"levelo://app?vid=daa56114-b9d2-4cb0-a61b-57407ec02a89","ios":"levelo://app?vid=daa56114-b9d2-4cb0-a61b-57407ec02a89"},"vehicle_type_id":"4","last_reported":1713377375,"current_range_meters":0,"station_id":"ce4bhr12rcd13ifvqhpg","pricing_plan_id":"cebpf4jnsgd1na2vs0mg"},{"bike_id":"ce7fa476-bb4f-43d3-8318-023d7f9567ab","system_id":"levelo_inurba_marseille","lat":43.319935,"lon":5.381699,"is_reserved":false,"is_disabled":false,"rental_uris":{"android":"levelo://app?vid=ce7fa476-bb4f-43d3-8318-023d7f9567ab","ios":"levelo://app?vid=ce7fa476-bb4f-43d3-8318-023d7f9567ab"},"vehicle_type_id":"4","last_reported":1713377375,"current_range_meters":19600,"station_id":"ce4bhr12rcd13ifvqhpg","pricing_plan_id":"cebpf4jnsgd1na2vs0mg"},{"bike_id":"5c026dd9-dc0d-4d2d-afb2-234d12612baf","system_id":"levelo_inurba_marseille","lat":43.313571,"lon":5.384829,"is_reserved":false,"is_disabled":false,"rental_uris":{"android":"levelo://app?vid=5c026dd9-dc0d-4d2d-afb2-234d12612baf","ios":"levelo://app?vid=5c026dd9-dc0d-4d2d-afb2-234d12612baf"},"vehicle_type_id":"4","last_reported":1713377375,"current_range_meters":18400,"station_id":"ce4bgt92rcd13ifvqcf0","pricing_plan_id":"cebpf4jnsgd1na2vs0mg"},{"bike_id":"4664667a-6d9b-4bc6-b814-ab28e9a382cd","system_id":"levelo_inurba_marseille","lat":43.313571,"lon":5.384829,"is_reserved":false,"is_disabled":false,"rental_uris":{"android":"levelo://app?vid=4664667a-6d9b-4bc6-b814-ab28e9a382cd","ios":"levelo://app?vid=4664667a-6d9b-4bc6-b814-ab28e9a382cd"},"vehicle_type_id":"4","last_reported":1713377375,"current_range_meters":1200,"station_id":"ce4bgt92rcd13ifvqcf0","pricing_plan_id":"cebpf4jnsgd1na2vs0mg"},{"bike_id":"3efafc78-abec-43f0-9659-df20b378bc3a","system_id":"levelo_inurba_marseille","lat":43.31363,"lon":5.3849,"is_reserved":false,"is_disabled":false,"rental_uris":{"android":"levelo://app?vid=3efafc78-abec-43f0-9659-df20b378bc3a","ios":"levelo://app?vid=3efafc78-abec-43f0-9659-df20b378bc3a"},"vehicle_type_id":"4","last_reported":1713377375,"current_range_meters":0,"station_id":"ce4bgt92rcd13ifvqcf0","pricing_plan_id":"cebpf4jnsgd1na2vs0mg"},{"bike_id":"a7bd767a-1aaa-4fc7-86bf-849fbd9fd873","system_id":"levelo_inurba_marseille","lat":43.323464,"lon":5.406297,"is_reserved":false,"is_disabled":false,"rental_uris":{"android":"levelo://app?vid=a7bd767a-1aaa-4fc7-86bf-849fbd9fd873","ios":"levelo://app?vid=a7bd767a-1aaa-4fc7-86bf-849fbd9fd873"},"vehicle_type_id":"4","last_reported":1713377375,"current_range_meters":0,"station_id":"ce4bhq92rcd13ifvqhjg","pricing_plan_id":"cebpf4jnsgd1na2vs0mg"},{"bike_id":"95350f56-5907-41e5-805f-c7203266b629","system_id":"levelo_inurba_marseille","lat":43.313571,"lon":5.384829,"is_reserved":false,"is_disabled":false,"rental_uris":{"android":"levelo://app?vid=95350f56-5907-41e5-805f-c7203266b629","ios":"levelo://app?vid=95350f56-5907-41e5-805f-c7203266b629"},"vehicle_type_id":"4","last_reported":1713377375,"current_range_meters":23200,"station_id":"ce4bgt92rcd13ifvqcf0","pricing_plan_id":"cebpf4jnsgd1na2vs0mg"},{"bike_id":"8fd526c7-fd41-444b-b44c-0a9293c76ea0","system_id":"levelo_inurba_marseille","lat":43.313571,"lon":5.384829,"is_reserved":false,"is_disabled":false,"rental_uris":{"android":"levelo://app?vid=8fd526c7-fd41-444b-b44c-0a9293c76ea0","ios":"levelo://app?vid=8fd526c7-fd41-444b-b44c-0a9293c76ea0"},"vehicle_type_id":"4","last_reported":1713377375,"current_range_meters":15200,"station_id":"ce4bgt92rcd13ifvqcf0","pricing_plan_id":"cebpf4jnsgd1na2vs0mg"},{"bike_id":"fbb25730-9fbe-4b2a-b1b7-ef4f3a30bff8","system_id":"levelo_inurba_marseille","lat":43.299222,"lon":5.365554,"is_reserved":false,"is_disabled":false,"rental_uris":{"android":"levelo://app?vid=fbb25730-9fbe-4b2a-b1b7-ef4f3a30bff8","ios":"levelo://app?vid=fbb25730-9fbe-4b2a-b1b7-ef4f3a30bff8"},"vehicle_type_id":"4","last_reported":1713377375,"current_range_meters":0,"station_id":"ce4bgm92rcd13ifvqbr0","pricing_plan_id":"cebpf4jnsgd1na2vs0mg"},{"bike_id":"3753b1ce-a44d-42b8-9ac1-d5fa7c6eb3ec","system_id":"levelo_inurba_marseille","lat":43.299724,"lon":5.371829,"is_reserved":false,"is_disabled":false,"rental_uris":{"android":"levelo://app?vid=3753b1ce-a44d-42b8-9ac1-d5fa7c6eb3ec","ios":"levelo://app?vid=3753b1ce-a44d-42b8-9ac1-d5fa7c6eb3ec"},"vehicle_type_id":"4","last_reported":1713377375,"current_range_meters":25600,"station_id":"ce4bgr92rcd13ifvqc7g","pricing_plan_id":"cebpf4jnsgd1na2vs0mg"},{"bike_id":"0cfc62e7-2ad7-435e-9f4e-5576818400a0","system_id":"levelo_inurba_marseille","lat":43.30211,"lon":5.37966,"is_reserved":false,"is_disabled":false,"rental_uris":{"android":"levelo://app?vid=0cfc62e7-2ad7-435e-9f4e-5576818400a0","ios":"levelo://app?vid=0cfc62e7-2ad7-435e-9f4e-5576818400a0"},"vehicle_type_id":"4","last_reported":1713377375,"current_range_meters":18400,"station_id":"","pricing_plan_id":"cebpf4jnsgd1na2vs0mg"},{"bike_id":"79b1484c-7ca2-4a8d-b15b-2987062d3cb2","system_id":"levelo_inurba_marseille","lat":43.300151,"lon":5.376564,"is_reserved":false,"is_disabled":false,"rental_uris":{"android":"levelo://app?vid=79b1484c-7ca2-4a8d-b15b-2987062d3cb2","ios":"levelo://app?vid=79b1484c-7ca2-4a8d-b15b-2987062d3cb2"},"vehicle_type_id":"4","last_reported":1713377375,"current_range_meters":24400,"station_id":"","pricing_plan_id":"cebpf4jnsgd1na2vs0mg"},{"bike_id":"111968f3-81b1-4f5b-b016-4ec3dd3fa79a","system_id":"levelo_inurba_marseille","lat":43.311785,"lon":5.386853,"is_reserved":false,"is_disabled":false,"rental_uris":{"android":"levelo://app?vid=111968f3-81b1-4f5b-b016-4ec3dd3fa79a","ios":"levelo://app?vid=111968f3-81b1-4f5b-b016-4ec3dd3fa79a"},"vehicle_type_id":"4","last_reported":1713377375,"current_range_meters":0,"station_id":"ce4bgv12rcd13ifvqcp0","pricing_plan_id":"cebpf4jnsgd1na2vs0mg"},{"bike_id":"64d3cfbe-4a2e-40b7-87b0-3795982e1e9b","system_id":"levelo_inurba_marseille","lat":43.298433,"lon":5.362774,"is_reserved":false,"is_disabled":false,"rental_uris":{"android":"levelo://app?vid=64d3cfbe-4a2e-40b7-87b0-3795982e1e9b","ios":"levelo://app?vid=64d3cfbe-4a2e-40b7-87b0-3795982e1e9b"},"vehicle_type_id":"4","last_reported":1713377375,"current_range_meters":11200,"station_id":"ce4bgpp2rcd13ifvqc3g","pricing_plan_id":"cebpf4jnsgd1na2vs0mg"},{"bike_id":"715a5bad-e41e-4ba1-b412-f29cf484f816","system_id":"levelo_inurba_marseille","lat":43.298433,"lon":5.362774,"is_reserved":false,"is_disabled":false,"rental_uris":{"android":"levelo://app?vid=715a5bad-e41e-4ba1-b412-f29cf484f816","ios":"levelo://app?vid=715a5bad-e41e-4ba1-b412-f29cf484f816"},"vehicle_type_id":"4","last_reported":1713377375,"current_range_meters":0,"station_id":"ce4bgpp2rcd13ifvqc3g","pricing_plan_id":"cebpf4jnsgd1na2vs0mg"},{"bike_id":"cf116e02-f748-4135-aa70-baffe1dfc642","system_id":"levelo_inurba_marseille","lat":43.299243,"lon":5.374807,"is_reserved":false,"is_disabled":false,"rental_uris":{"android":"levelo://app?vid=cf116e02-f748-4135-aa70-baffe1dfc642","ios":"levelo://app?vid=cf116e02-f748-4135-aa70-baffe1dfc642"},"vehicle_type_id":"4","last_reported":1713377375,"current_range_meters":0,"station_id":"ce4bgjh2rcd13ifvqbg0","pricing_plan_id":"cebpf4jnsgd1na2vs0mg"},{"bike_id":"c875199d-816c-4a56-8bf2-5baf6ddfe1ac","system_id":"levelo_inurba_marseille","lat":43.31171,"lon":5.38707,"is_reserved":false,"is_disabled":false,"rental_uris":{"android":"levelo://app?vid=c875199d-816c-4a56-8bf2-5baf6ddfe1ac","ios":"levelo://app?vid=c875199d-816c-4a56-8bf2-5baf6ddfe1ac"},"vehicle_type_id":"4","last_reported":1713377375,"current_range_meters":10800,"station_id":"ce4bgv12rcd13ifvqcp0","pricing_plan_id":"cebpf4jnsgd1na2vs0mg"},{"bike_id":"4cfbd3ed-b5e4-4c1f-85d7-c345aafc9af8","system_id":"levelo_inurba_marseille","lat":43.31169,"lon":5.38713,"is_reserved":false,"is_disabled":false,"rental_uris":{"android":"levelo://app?vid=4cfbd3ed-b5e4-4c1f-85d7-c345aafc9af8","ios":"levelo://app?vid=4cfbd3ed-b5e4-4c1f-85d7-c345aafc9af8"},"vehicle_type_id":"4","last_reported":1713377375,"current_range_meters":0,"station_id":"ce4bgv12rcd13ifvqcp0","pricing_plan_id":"cebpf4jnsgd1na2vs0mg"},{"bike_id":"2d4dffc1-d210-4e46-8538-df7acbc5d313","system_id":"levelo_inurba_marseille","lat":43.311707,"lon":5.387257,"is_reserved":false,"is_disabled":false,"rental_uris":{"android":"levelo://app?vid=2d4dffc1-d210-4e46-8538-df7acbc5d313","ios":"levelo://app?vid=2d4dffc1-d210-4e46-8538-df7acbc5d313"},"vehicle_type_id":"4","last_reported":1713377375,"current_range_meters":19200,"station_id":"ce4bgv12rcd13ifvqcp0","pricing_plan_id":"cebpf4jnsgd1na2vs0mg"},{"bike_id":"45ba53e9-37fb-4905-8af7-57d6ea8ad7c7","system_id":"levelo_inurba_marseille","lat":43.299243,"lon":5.37481,"is_reserved":false,"is_disabled":false,"rental_uris":{"android":"levelo://app?vid=45ba53e9-37fb-4905-8af7-57d6ea8ad7c7","ios":"levelo://app?vid=45ba53e9-37fb-4905-8af7-57d6ea8ad7c7"},"vehicle_type_id":"4","last_reported":1713377375,"current_range_meters":10800,"station_id":"ce4bgjh2rcd13ifvqbg0","pricing_plan_id":"cebpf4jnsgd1na2vs0mg"},{"bike_id":"7d5fd475-d045-43ea-a449-bbf319400056","system_id":"levelo_inurba_marseille","lat":43.30218,"lon":5.3819,"is_reserved":false,"is_disabled":false,"rental_uris":{"android":"levelo://app?vid=7d5fd475-d045-43ea-a449-bbf319400056","ios":"levelo://app?vid=7d5fd475-d045-43ea-a449-bbf319400056"},"vehicle_type_id":"4","last_reported":1713377375,"current_range_meters":8000,"station_id":"","pricing_plan_id":"cebpf4jnsgd1na2vs0mg"},{"bike_id":"cbb848c4-d837-44aa-9133-6c74b8abb0ce","system_id":"levelo_inurba_marseille","lat":43.322872,"lon":5.382756,"is_reserved":false,"is_disabled":false,"rental_uris":{"android":"levelo://app?vid=cbb848c4-d837-44aa-9133-6c74b8abb0ce","ios":"levelo://app?vid=cbb848c4-d837-44aa-9133-6c74b8abb0ce"},"vehicle_type_id":"4","last_reported":1713377375,"current_range_meters":1600,"station_id":"ce4bhr12rcd13ifvqhqg","pricing_plan_id":"cebpf4jnsgd1na2vs0mg"},{"bike_id":"50c48fd1-1d17-430a-a7e2-4475109305e2","system_id":"levelo_inurba_marseille","lat":43.322872,"lon":5.382756,"is_reserved":false,"is_disabled":false,"rental_uris":{"android":"levelo://app?vid=50c48fd1-1d17-430a-a7e2-4475109305e2","ios":"levelo://app?vid=50c48fd1-1d17-430a-a7e2-4475109305e2"},"vehicle_type_id":"4","last_reported":1713377375,"current_range_meters":20000,"station_id":"ce4bhr12rcd13ifvqhqg","pricing_plan_id":"cebpf4jnsgd1na2vs0mg"},{"bike_id":"e6ab72cf-f560-4717-91c1-42b63f3ee6c8","system_id":"levelo_inurba_marseille","lat":43.322872,"lon":5.382756,"is_reserved":false,"is_disabled":false,"rental_uris":{"android":"levelo://app?vid=e6ab72cf-f560-4717-91c1-42b63f3ee6c8","ios":"levelo://app?vid=e6ab72cf-f560-4717-91c1-42b63f3ee6c8"},"vehicle_type_id":"4","last_reported":1713377375,"current_range_meters":12800,"station_id":"ce4bhr12rcd13ifvqhqg","pricing_plan_id":"cebpf4jnsgd1na2vs0mg"},{"bike_id":"6c4d1a0b-97b3-4e86-87c5-6e727d67c919","system_id":"levelo_inurba_marseille","lat":43.322872,"lon":5.382756,"is_reserved":false,"is_disabled":false,"rental_uris":{"android":"levelo://app?vid=6c4d1a0b-97b3-4e86-87c5-6e727d67c919","ios":"levelo://app?vid=6c4d1a0b-97b3-4e86-87c5-6e727d67c919"},"vehicle_type_id":"4","last_reported":1713377375,"current_range_meters":30400,"station_id":"ce4bhr12rcd13ifvqhqg","pricing_plan_id":"cebpf4jnsgd1na2vs0mg"},{"bike_id":"d4d44fb3-dc45-497c-8070-1576e4e7d6dc","system_id":"levelo_inurba_marseille","lat":43.286595,"lon":5.386795,"is_reserved":false,"is_disabled":false,"rental_uris":{"android":"levelo://app?vid=d4d44fb3-dc45-497c-8070-1576e4e7d6dc","ios":"levelo://app?vid=d4d44fb3-dc45-497c-8070-1576e4e7d6dc"},"vehicle_type_id":"4","last_reported":1713377375,"current_range_meters":22000,"station_id":"ce4bh492rcd13ifvqdug","pricing_plan_id":"cebpf4jnsgd1na2vs0mg"},{"bike_id":"ac62520b-c264-47a0-9909-2ac734443bce","system_id":"levelo_inurba_marseille","lat":43.286595,"lon":5.386795,"is_reserved":false,"is_disabled":false,"rental_uris":{"android":"levelo://app?vid=ac62520b-c264-47a0-9909-2ac734443bce","ios":"levelo://app?vid=ac62520b-c264-47a0-9909-2ac734443bce"},"vehicle_type_id":"4","last_reported":1713377375,"current_range_meters":1600,"station_id":"ce4bh492rcd13ifvqdug","pricing_plan_id":"cebpf4jnsgd1na2vs0mg"},{"bike_id":"1cc726d2-01cc-429b-b0fd-5be1debcde9f","system_id":"levelo_inurba_marseille","lat":43.297163,"lon":5.365866,"is_reserved":false,"is_disabled":false,"rental_uris":{"android":"levelo://app?vid=1cc726d2-01cc-429b-b0fd-5be1debcde9f","ios":"levelo://app?vid=1cc726d2-01cc-429b-b0fd-5be1debcde9f"},"vehicle_type_id":"4","last_reported":1713377375,"current_range_meters":19600,"station_id":"ce4bgn12rcd13ifvqbt0","pricing_plan_id":"cebpf4jnsgd1na2vs0mg"},{"bike_id":"9326f1af-4117-43b8-a8dd-22cff636f94e","system_id":"levelo_inurba_marseille","lat":43.297163,"lon":5.365866,"is_reserved":false,"is_disabled":false,"rental_uris":{"android":"levelo://app?vid=9326f1af-4117-43b8-a8dd-22cff636f94e","ios":"levelo://app?vid=9326f1af-4117-43b8-a8dd-22cff636f94e"},"vehicle_type_id":"4","last_reported":1713377375,"current_range_meters":3600,"station_id":"ce4bgn12rcd13ifvqbt0","pricing_plan_id":"cebpf4jnsgd1na2vs0mg"},{"bike_id":"84f76966-43c5-4907-87fa-24c5e23f698e","system_id":"levelo_inurba_marseille","lat":43.296131,"lon":5.370791,"is_reserved":false,"is_disabled":false,"rental_uris":{"android":"levelo://app?vid=84f76966-43c5-4907-87fa-24c5e23f698e","ios":"levelo://app?vid=84f76966-43c5-4907-87fa-24c5e23f698e"},"vehicle_type_id":"4","last_reported":1713377375,"current_range_meters":19200,"station_id":"ce4bgnh2rcd13ifvqc0g","pricing_plan_id":"cebpf4jnsgd1na2vs0mg"},{"bike_id":"b1390a59-7c49-42d9-ab0a-a50c1ac59020","system_id":"levelo_inurba_marseille","lat":43.296131,"lon":5.370791,"is_reserved":false,"is_disabled":false,"rental_uris":{"android":"levelo://app?vid=b1390a59-7c49-42d9-ab0a-a50c1ac59020","ios":"levelo://app?vid=b1390a59-7c49-42d9-ab0a-a50c1ac59020"},"vehicle_type_id":"4","last_reported":1713377375,"current_range_meters":18800,"station_id":"ce4bgnh2rcd13ifvqc0g","pricing_plan_id":"cebpf4jnsgd1na2vs0mg"},{"bike_id":"8b0b5ed8-afc8-469b-b374-6fce6bce6fa8","system_id":"levelo_inurba_marseille","lat":43.296129,"lon":5.370777,"is_reserved":false,"is_disabled":false,"rental_uris":{"android":"levelo://app?vid=8b0b5ed8-afc8-469b-b374-6fce6bce6fa8","ios":"levelo://app?vid=8b0b5ed8-afc8-469b-b374-6fce6bce6fa8"},"vehicle_type_id":"4","last_reported":1713377375,"current_range_meters":4800,"station_id":"ce4bgnh2rcd13ifvqc0g","pricing_plan_id":"cebpf4jnsgd1na2vs0mg"},{"bike_id":"b0f8da80-c9af-46f6-bc62-79c780baaf46","system_id":"levelo_inurba_marseille","lat":43.296129,"lon":5.370777,"is_reserved":false,"is_disabled":false,"rental_uris":{"android":"levelo://app?vid=b0f8da80-c9af-46f6-bc62-79c780baaf46","ios":"levelo://app?vid=b0f8da80-c9af-46f6-bc62-79c780baaf46"},"vehicle_type_id":"4","last_reported":1713377375,"current_range_meters":4400,"station_id":"ce4bgnh2rcd13ifvqc0g","pricing_plan_id":"cebpf4jnsgd1na2vs0mg"},{"bike_id":"35c9a6e3-999b-4810-b54c-c37495d278d8","system_id":"levelo_inurba_marseille","lat":43.299028,"lon":5.381509,"is_reserved":false,"is_disabled":false,"rental_uris":{"android":"levelo://app?vid=35c9a6e3-999b-4810-b54c-c37495d278d8","ios":"levelo://app?vid=35c9a6e3-999b-4810-b54c-c37495d278d8"},"vehicle_type_id":"4","last_reported":1713377375,"current_range_meters":1200,"station_id":"ce4bgj12rcd13ifvqbc0","pricing_plan_id":"cebpf4jnsgd1na2vs0mg"},{"bike_id":"7bee203a-ac66-4fa1-849d-cdef31128d58","system_id":"levelo_inurba_marseille","lat":43.317557,"lon":5.390173,"is_reserved":false,"is_disabled":false,"rental_uris":{"android":"levelo://app?vid=7bee203a-ac66-4fa1-849d-cdef31128d58","ios":"levelo://app?vid=7bee203a-ac66-4fa1-849d-cdef31128d58"},"vehicle_type_id":"4","last_reported":1713377375,"current_range_meters":31200,"station_id":"ce4bhqp2rcd13ifvqhng","pricing_plan_id":"cebpf4jnsgd1na2vs0mg"},{"bike_id":"3e04abb7-f4a7-4603-bb36-ed0f46c8b93c","system_id":"levelo_inurba_marseille","lat":43.317557,"lon":5.390173,"is_reserved":false,"is_disabled":false,"rental_uris":{"android":"levelo://app?vid=3e04abb7-f4a7-4603-bb36-ed0f46c8b93c","ios":"levelo://app?vid=3e04abb7-f4a7-4603-bb36-ed0f46c8b93c"},"vehicle_type_id":"4","last_reported":1713377375,"current_range_meters":17200,"station_id":"ce4bhqp2rcd13ifvqhng","pricing_plan_id":"cebpf4jnsgd1na2vs0mg"},{"bike_id":"4f88b022-d0ca-451b-a1c5-39f8e7daa70a","system_id":"levelo_inurba_marseille","lat":43.309589,"lon":5.390258,"is_reserved":false,"is_disabled":false,"rental_uris":{"android":"levelo://app?vid=4f88b022-d0ca-451b-a1c5-39f8e7daa70a","ios":"levelo://app?vid=4f88b022-d0ca-451b-a1c5-39f8e7daa70a"},"vehicle_type_id":"4","last_reported":1713377375,"current_range_meters":5200,"station_id":"ce4bgup2rcd13ifvqco0","pricing_plan_id":"cebpf4jnsgd1na2vs0mg"},{"bike_id":"e25b838b-0275-4e62-9ec4-fd95fa8ce51f","system_id":"levelo_inurba_marseille","lat":43.274103,"lon":5.394016,"is_reserved":false,"is_disabled":false,"rental_uris":{"android":"levelo://app?vid=e25b838b-0275-4e62-9ec4-fd95fa8ce51f","ios":"levelo://app?vid=e25b838b-0275-4e62-9ec4-fd95fa8ce51f"},"vehicle_type_id":"4","last_reported":1713377375,"current_range_meters":7200,"station_id":"ce4bhdp2rcd13ifvqf20","pricing_plan_id":"cebpf4jnsgd1na2vs0mg"},{"bike_id":"f238fab4-b0d4-4f38-b773-281ddc56500b","system_id":"levelo_inurba_marseille","lat":43.297163,"lon":5.365866,"is_reserved":false,"is_disabled":false,"rental_uris":{"android":"levelo://app?vid=f238fab4-b0d4-4f38-b773-281ddc56500b","ios":"levelo://app?vid=f238fab4-b0d4-4f38-b773-281ddc56500b"},"vehicle_type_id":"4","last_reported":1713377375,"current_range_meters":28000,"station_id":"ce4bgn12rcd13ifvqbt0","pricing_plan_id":"cebpf4jnsgd1na2vs0mg"},{"bike_id":"aec8f9d2-39cf-4eee-a5c8-ee4c2fad61b2","system_id":"levelo_inurba_marseille","lat":43.288497,"lon":5.393089,"is_reserved":false,"is_disabled":false,"rental_uris":{"android":"levelo://app?vid=aec8f9d2-39cf-4eee-a5c8-ee4c2fad61b2","ios":"levelo://app?vid=aec8f9d2-39cf-4eee-a5c8-ee4c2fad61b2"},"vehicle_type_id":"4","last_reported":1713377375,"current_range_meters":18400,"station_id":"ce4bh2p2rcd13ifvqdi0","pricing_plan_id":"cebpf4jnsgd1na2vs0mg"},{"bike_id":"d410cfa7-a5de-4b2d-8c02-4e9c77bb2e3d","system_id":"levelo_inurba_marseille","lat":43.304278,"lon":5.388868,"is_reserved":false,"is_disabled":false,"rental_uris":{"android":"levelo://app?vid=d410cfa7-a5de-4b2d-8c02-4e9c77bb2e3d","ios":"levelo://app?vid=d410cfa7-a5de-4b2d-8c02-4e9c77bb2e3d"},"vehicle_type_id":"4","last_reported":1713377375,"current_range_meters":24800,"station_id":"ce4bgk12rcd13ifvqbi0","pricing_plan_id":"cebpf4jnsgd1na2vs0mg"},{"bike_id":"e91a0a73-cb58-4735-baae-795cf6534366","system_id":"levelo_inurba_marseille","lat":43.304274,"lon":5.388873,"is_reserved":false,"is_disabled":false,"rental_uris":{"android":"levelo://app?vid=e91a0a73-cb58-4735-baae-795cf6534366","ios":"levelo://app?vid=e91a0a73-cb58-4735-baae-795cf6534366"},"vehicle_type_id":"4","last_reported":1713377375,"current_range_meters":4400,"station_id":"ce4bgk12rcd13ifvqbi0","pricing_plan_id":"cebpf4jnsgd1na2vs0mg"},{"bike_id":"f21a9b4f-6e3d-4f8a-9207-c1c3b4582b4b","system_id":"levelo_inurba_marseille","lat":43.292005,"lon":5.357875,"is_reserved":false,"is_disabled":false,"rental_uris":{"android":"levelo://app?vid=f21a9b4f-6e3d-4f8a-9207-c1c3b4582b4b","ios":"levelo://app?vid=f21a9b4f-6e3d-4f8a-9207-c1c3b4582b4b"},"vehicle_type_id":"4","last_reported":1713377375,"current_range_meters":3200,"station_id":"ce4bhb12rcd13ifvqel0","pricing_plan_id":"cebpf4jnsgd1na2vs0mg"},{"bike_id":"00da2596-436a-4464-aa67-85b6075f9216","system_id":"levelo_inurba_marseille","lat":43.296277,"lon":5.377108,"is_reserved":false,"is_disabled":false,"rental_uris":{"android":"levelo://app?vid=00da2596-436a-4464-aa67-85b6075f9216","ios":"levelo://app?vid=00da2596-436a-4464-aa67-85b6075f9216"},"vehicle_type_id":"4","last_reported":1713377375,"current_range_meters":0,"station_id":"ce4bgi92rcd13ifvqb90","pricing_plan_id":"cebpf4jnsgd1na2vs0mg"},{"bike_id":"bc35b6f8-1897-43b5-917f-eb69079ee8f4","system_id":"levelo_inurba_marseille","lat":43.289363,"lon":5.396322,"is_reserved":false,"is_disabled":false,"rental_uris":{"android":"levelo://app?vid=bc35b6f8-1897-43b5-917f-eb69079ee8f4","ios":"levelo://app?vid=bc35b6f8-1897-43b5-917f-eb69079ee8f4"},"vehicle_type_id":"4","last_reported":1713377375,"current_range_meters":6400,"station_id":"ce4bh3h2rcd13ifvqdn0","pricing_plan_id":"cebpf4jnsgd1na2vs0mg"},{"bike_id":"1609b739-13c5-407d-8c5d-4931ed2016a4","system_id":"levelo_inurba_marseille","lat":43.304601,"lon":5.38959,"is_reserved":false,"is_disabled":false,"rental_uris":{"android":"levelo://app?vid=1609b739-13c5-407d-8c5d-4931ed2016a4","ios":"levelo://app?vid=1609b739-13c5-407d-8c5d-4931ed2016a4"},"vehicle_type_id":"4","last_reported":1713377375,"current_range_meters":0,"station_id":"ce4bgk12rcd13ifvqbi0","pricing_plan_id":"cebpf4jnsgd1na2vs0mg"},{"bike_id":"0c724782-e687-44dd-9374-23c5f9002236","system_id":"levelo_inurba_marseille","lat":43.299707,"lon":5.384859,"is_reserved":false,"is_disabled":false,"rental_uris":{"android":"levelo://app?vid=0c724782-e687-44dd-9374-23c5f9002236","ios":"levelo://app?vid=0c724782-e687-44dd-9374-23c5f9002236"},"vehicle_type_id":"4","last_reported":1713377375,"current_range_meters":400,"station_id":"ce4bgj92rcd13ifvqbd0","pricing_plan_id":"cebpf4jnsgd1na2vs0mg"},{"bike_id":"403c3eb4-f29e-458b-aa8b-0bcd36f03df8","system_id":"levelo_inurba_marseille","lat":43.309038,"lon":5.396546,"is_reserved":false,"is_disabled":false,"rental_uris":{"android":"levelo://app?vid=403c3eb4-f29e-458b-aa8b-0bcd36f03df8","ios":"levelo://app?vid=403c3eb4-f29e-458b-aa8b-0bcd36f03df8"},"vehicle_type_id":"4","last_reported":1713377375,"current_range_meters":15600,"station_id":"ce4bh012rcd13ifvqcv0","pricing_plan_id":"cebpf4jnsgd1na2vs0mg"},{"bike_id":"d22ceeaf-0a05-4ff1-855b-73063c67aad6","system_id":"levelo_inurba_marseille","lat":43.304479,"lon":5.38985,"is_reserved":false,"is_disabled":false,"rental_uris":{"android":"levelo://app?vid=d22ceeaf-0a05-4ff1-855b-73063c67aad6","ios":"levelo://app?vid=d22ceeaf-0a05-4ff1-855b-73063c67aad6"},"vehicle_type_id":"4","last_reported":1713377375,"current_range_meters":4800,"station_id":"ce4bgk12rcd13ifvqbi0","pricing_plan_id":"cebpf4jnsgd1na2vs0mg"},{"bike_id":"8f0ebe8c-6a33-4bde-945f-e02902579d9b","system_id":"levelo_inurba_marseille","lat":43.319179,"lon":5.407725,"is_reserved":false,"is_disabled":false,"rental_uris":{"android":"levelo://app?vid=8f0ebe8c-6a33-4bde-945f-e02902579d9b","ios":"levelo://app?vid=8f0ebe8c-6a33-4bde-945f-e02902579d9b"},"vehicle_type_id":"4","last_reported":1713377375,"current_range_meters":12000,"station_id":"ce4bhq12rcd13ifvqhig","pricing_plan_id":"cebpf4jnsgd1na2vs0mg"},{"bike_id":"0bc15042-2101-4575-a35d-b1fda68d401e","system_id":"levelo_inurba_marseille","lat":43.285856,"lon":5.350771,"is_reserved":false,"is_disabled":false,"rental_uris":{"android":"levelo://app?vid=0bc15042-2101-4575-a35d-b1fda68d401e","ios":"levelo://app?vid=0bc15042-2101-4575-a35d-b1fda68d401e"},"vehicle_type_id":"4","last_reported":1713377375,"current_range_meters":18400,"station_id":"ce4bhch2rcd13ifvqeug","pricing_plan_id":"cebpf4jnsgd1na2vs0mg"},{"bike_id":"47cea0d7-d32f-4905-99ee-66d9522440d5","system_id":"levelo_inurba_marseille","lat":43.32367,"lon":5.388836,"is_reserved":false,"is_disabled":false,"rental_uris":{"android":"levelo://app?vid=47cea0d7-d32f-4905-99ee-66d9522440d5","ios":"levelo://app?vid=47cea0d7-d32f-4905-99ee-66d9522440d5"},"vehicle_type_id":"4","last_reported":1713377375,"current_range_meters":15200,"station_id":"ce4bhqp2rcd13ifvqhog","pricing_plan_id":"cebpf4jnsgd1na2vs0mg"},{"bike_id":"567908ff-af7a-470f-a67e-14cb4efdd25b","system_id":"levelo_inurba_marseille","lat":43.32367,"lon":5.388836,"is_reserved":false,"is_disabled":false,"rental_uris":{"android":"levelo://app?vid=567908ff-af7a-470f-a67e-14cb4efdd25b","ios":"levelo://app?vid=567908ff-af7a-470f-a67e-14cb4efdd25b"},"vehicle_type_id":"4","last_reported":1713377375,"current_range_meters":0,"station_id":"ce4bhqp2rcd13ifvqhog","pricing_plan_id":"cebpf4jnsgd1na2vs0mg"},{"bike_id":"75cc8542-b788-4483-ac3a-4ef892a7377e","system_id":"levelo_inurba_marseille","lat":43.2961,"lon":5.38095,"is_reserved":false,"is_disabled":false,"rental_uris":{"android":"levelo://app?vid=75cc8542-b788-4483-ac3a-4ef892a7377e","ios":"levelo://app?vid=75cc8542-b788-4483-ac3a-4ef892a7377e"},"vehicle_type_id":"4","last_reported":1713377375,"current_range_meters":0,"station_id":"ce4bgl12rcd13ifvqbo0","pricing_plan_id":"cebpf4jnsgd1na2vs0mg"},{"bike_id":"395d2778-8ed5-43fe-b2c8-12609c169c01","system_id":"levelo_inurba_marseille","lat":43.29602,"lon":5.381084,"is_reserved":false,"is_disabled":false,"rental_uris":{"android":"levelo://app?vid=395d2778-8ed5-43fe-b2c8-12609c169c01","ios":"levelo://app?vid=395d2778-8ed5-43fe-b2c8-12609c169c01"},"vehicle_type_id":"4","last_reported":1713377375,"current_range_meters":2000,"station_id":"ce4bgl12rcd13ifvqbo0","pricing_plan_id":"cebpf4jnsgd1na2vs0mg"},{"bike_id":"aa41082c-89d3-474d-8dce-e82a58813abc","system_id":"levelo_inurba_marseille","lat":43.29602,"lon":5.381084,"is_reserved":false,"is_disabled":false,"rental_uris":{"android":"levelo://app?vid=aa41082c-89d3-474d-8dce-e82a58813abc","ios":"levelo://app?vid=aa41082c-89d3-474d-8dce-e82a58813abc"},"vehicle_type_id":"4","last_reported":1713377375,"current_range_meters":19200,"station_id":"ce4bgl12rcd13ifvqbo0","pricing_plan_id":"cebpf4jnsgd1na2vs0mg"},{"bike_id":"b6de20cf-fd38-41e3-a267-8434aed6615b","system_id":"levelo_inurba_marseille","lat":43.292749,"lon":5.368398,"is_reserved":false,"is_disabled":false,"rental_uris":{"android":"levelo://app?vid=b6de20cf-fd38-41e3-a267-8434aed6615b","ios":"levelo://app?vid=b6de20cf-fd38-41e3-a267-8434aed6615b"},"vehicle_type_id":"4","last_reported":1713377375,"current_range_meters":20800,"station_id":"ce4bhbp2rcd13ifvqesg","pricing_plan_id":"cebpf4jnsgd1na2vs0mg"},{"bike_id":"166b2780-898c-4651-be25-61411444b34b","system_id":"levelo_inurba_marseille","lat":43.293259,"lon":5.371586,"is_reserved":false,"is_disabled":false,"rental_uris":{"android":"levelo://app?vid=166b2780-898c-4651-be25-61411444b34b","ios":"levelo://app?vid=166b2780-898c-4651-be25-61411444b34b"},"vehicle_type_id":"4","last_reported":1713377375,"current_range_meters":10000,"station_id":"ce4bgh92rcd13ifvqb40","pricing_plan_id":"cebpf4jnsgd1na2vs0mg"},{"bike_id":"c5fbdaae-981b-488a-9b2c-824dcb8c69f1","system_id":"levelo_inurba_marseille","lat":43.293259,"lon":5.371586,"is_reserved":false,"is_disabled":false,"rental_uris":{"android":"levelo://app?vid=c5fbdaae-981b-488a-9b2c-824dcb8c69f1","ios":"levelo://app?vid=c5fbdaae-981b-488a-9b2c-824dcb8c69f1"},"vehicle_type_id":"4","last_reported":1713377375,"current_range_meters":4000,"station_id":"ce4bgh92rcd13ifvqb40","pricing_plan_id":"cebpf4jnsgd1na2vs0mg"},{"bike_id":"672391c7-d7ed-4ba6-970c-25129cc93e2c","system_id":"levelo_inurba_marseille","lat":43.293259,"lon":5.371586,"is_reserved":false,"is_disabled":false,"rental_uris":{"android":"levelo://app?vid=672391c7-d7ed-4ba6-970c-25129cc93e2c","ios":"levelo://app?vid=672391c7-d7ed-4ba6-970c-25129cc93e2c"},"vehicle_type_id":"4","last_reported":1713377375,"current_range_meters":2400,"station_id":"ce4bgh92rcd13ifvqb40","pricing_plan_id":"cebpf4jnsgd1na2vs0mg"},{"bike_id":"d60a1bf3-72a6-4741-81cf-46604372743a","system_id":"levelo_inurba_marseille","lat":43.293009,"lon":5.374584,"is_reserved":false,"is_disabled":false,"rental_uris":{"android":"levelo://app?vid=d60a1bf3-72a6-4741-81cf-46604372743a","ios":"levelo://app?vid=d60a1bf3-72a6-4741-81cf-46604372743a"},"vehicle_type_id":"4","last_reported":1713377375,"current_range_meters":7600,"station_id":"ce4bgi12rcd13ifvqb70","pricing_plan_id":"cebpf4jnsgd1na2vs0mg"},{"bike_id":"d1c046c9-165b-4e7d-af07-f2513eae4bc8","system_id":"levelo_inurba_marseille","lat":43.29309,"lon":5.3744,"is_reserved":false,"is_disabled":false,"rental_uris":{"android":"levelo://app?vid=d1c046c9-165b-4e7d-af07-f2513eae4bc8","ios":"levelo://app?vid=d1c046c9-165b-4e7d-af07-f2513eae4bc8"},"vehicle_type_id":"4","last_reported":1713377375,"current_range_meters":4400,"station_id":"ce4bgi12rcd13ifvqb70","pricing_plan_id":"cebpf4jnsgd1na2vs0mg"},{"bike_id":"1b831755-9969-444a-85fd-5991a9d8d994","system_id":"levelo_inurba_marseille","lat":43.275625,"lon":5.384392,"is_reserved":false,"is_disabled":false,"rental_uris":{"android":"levelo://app?vid=1b831755-9969-444a-85fd-5991a9d8d994","ios":"levelo://app?vid=1b831755-9969-444a-85fd-5991a9d8d994"},"vehicle_type_id":"4","last_reported":1713377375,"current_range_meters":22000,"station_id":"ce4bhh92rcd13ifvqfi0","pricing_plan_id":"cebpf4jnsgd1na2vs0mg"},{"bike_id":"fd82c5b7-102d-48ec-8409-234284861877","system_id":"levelo_inurba_marseille","lat":43.293009,"lon":5.374584,"is_reserved":false,"is_disabled":false,"rental_uris":{"android":"levelo://app?vid=fd82c5b7-102d-48ec-8409-234284861877","ios":"levelo://app?vid=fd82c5b7-102d-48ec-8409-234284861877"},"vehicle_type_id":"4","last_reported":1713377375,"current_range_meters":6400,"station_id":"ce4bgi12rcd13ifvqb70","pricing_plan_id":"cebpf4jnsgd1na2vs0mg"},{"bike_id":"7c3d6b31-4787-469a-ba32-2f33aa6604ca","system_id":"levelo_inurba_marseille","lat":43.305994,"lon":5.393687,"is_reserved":false,"is_disabled":false,"rental_uris":{"android":"levelo://app?vid=7c3d6b31-4787-469a-ba32-2f33aa6604ca","ios":"levelo://app?vid=7c3d6b31-4787-469a-ba32-2f33aa6604ca"},"vehicle_type_id":"4","last_reported":1713377375,"current_range_meters":0,"station_id":"ce4bh0p2rcd13ifvqd80","pricing_plan_id":"cebpf4jnsgd1na2vs0mg"},{"bike_id":"a82429c4-d956-4d13-b7e4-c143bc5360d0","system_id":"levelo_inurba_marseille","lat":43.2938,"lon":5.37857,"is_reserved":false,"is_disabled":false,"rental_uris":{"android":"levelo://app?vid=a82429c4-d956-4d13-b7e4-c143bc5360d0","ios":"levelo://app?vid=a82429c4-d956-4d13-b7e4-c143bc5360d0"},"vehicle_type_id":"4","last_reported":1713377375,"current_range_meters":29200,"station_id":"ce4bgjh2rcd13ifvqbf0","pricing_plan_id":"cebpf4jnsgd1na2vs0mg"},{"bike_id":"d550198c-cdc2-4899-a13a-b9940b6e75c1","system_id":"levelo_inurba_marseille","lat":43.292311,"lon":5.360731,"is_reserved":false,"is_disabled":false,"rental_uris":{"android":"levelo://app?vid=d550198c-cdc2-4899-a13a-b9940b6e75c1","ios":"levelo://app?vid=d550198c-cdc2-4899-a13a-b9940b6e75c1"},"vehicle_type_id":"4","last_reported":1713377375,"current_range_meters":6400,"station_id":"ce4bhbh2rcd13ifvqeqg","pricing_plan_id":"cebpf4jnsgd1na2vs0mg"},{"bike_id":"dc5a050d-b2cf-4a6e-be91-dba33ae9e444","system_id":"levelo_inurba_marseille","lat":43.315289,"lon":5.380349,"is_reserved":false,"is_disabled":false,"rental_uris":{"android":"levelo://app?vid=dc5a050d-b2cf-4a6e-be91-dba33ae9e444","ios":"levelo://app?vid=dc5a050d-b2cf-4a6e-be91-dba33ae9e444"},"vehicle_type_id":"4","last_reported":1713377375,"current_range_meters":3200,"station_id":"ce4bhsp2rcd13ifvqi50","pricing_plan_id":"cebpf4jnsgd1na2vs0mg"},{"bike_id":"dea9f558-691f-4ffe-b040-e8f6f8d30486","system_id":"levelo_inurba_marseille","lat":43.292311,"lon":5.360731,"is_reserved":false,"is_disabled":false,"rental_uris":{"android":"levelo://app?vid=dea9f558-691f-4ffe-b040-e8f6f8d30486","ios":"levelo://app?vid=dea9f558-691f-4ffe-b040-e8f6f8d30486"},"vehicle_type_id":"4","last_reported":1713377375,"current_range_meters":800,"station_id":"ce4bhbh2rcd13ifvqeqg","pricing_plan_id":"cebpf4jnsgd1na2vs0mg"},{"bike_id":"0f388a68-1825-4022-a9d8-3d258f15019a","system_id":"levelo_inurba_marseille","lat":43.300852,"lon":5.390859,"is_reserved":false,"is_disabled":false,"rental_uris":{"android":"levelo://app?vid=0f388a68-1825-4022-a9d8-3d258f15019a","ios":"levelo://app?vid=0f388a68-1825-4022-a9d8-3d258f15019a"},"vehicle_type_id":"4","last_reported":1713377375,"current_range_meters":1600,"station_id":"ce4bh192rcd13ifvqdb0","pricing_plan_id":"cebpf4jnsgd1na2vs0mg"},{"bike_id":"e245b515-d6ec-4b84-a370-024fb02939cc","system_id":"levelo_inurba_marseille","lat":43.292224,"lon":5.360506,"is_reserved":false,"is_disabled":false,"rental_uris":{"android":"levelo://app?vid=e245b515-d6ec-4b84-a370-024fb02939cc","ios":"levelo://app?vid=e245b515-d6ec-4b84-a370-024fb02939cc"},"vehicle_type_id":"4","last_reported":1713377375,"current_range_meters":0,"station_id":"ce4bhbh2rcd13ifvqeqg","pricing_plan_id":"cebpf4jnsgd1na2vs0mg"},{"bike_id":"8083fe2b-4389-4116-b6dd-414b31b5a1e5","system_id":"levelo_inurba_marseille","lat":43.298764,"lon":5.388973,"is_reserved":false,"is_disabled":false,"rental_uris":{"android":"levelo://app?vid=8083fe2b-4389-4116-b6dd-414b31b5a1e5","ios":"levelo://app?vid=8083fe2b-4389-4116-b6dd-414b31b5a1e5"},"vehicle_type_id":"4","last_reported":1713377375,"current_range_meters":800,"station_id":"ce4bh392rcd13ifvqdl0","pricing_plan_id":"cebpf4jnsgd1na2vs0mg"},{"bike_id":"dce654a9-7c86-45d1-8bee-b16b425b312a","system_id":"levelo_inurba_marseille","lat":43.302008,"lon":5.394694,"is_reserved":false,"is_disabled":false,"rental_uris":{"android":"levelo://app?vid=dce654a9-7c86-45d1-8bee-b16b425b312a","ios":"levelo://app?vid=dce654a9-7c86-45d1-8bee-b16b425b312a"},"vehicle_type_id":"4","last_reported":1713377375,"current_range_meters":27600,"station_id":"ce4bh0p2rcd13ifvqd70","pricing_plan_id":"cebpf4jnsgd1na2vs0mg"},{"bike_id":"3b9148c6-b0e2-4dea-a9ec-66da153b8b4f","system_id":"levelo_inurba_marseille","lat":43.291671,"lon":5.371575,"is_reserved":false,"is_disabled":false,"rental_uris":{"android":"levelo://app?vid=3b9148c6-b0e2-4dea-a9ec-66da153b8b4f","ios":"levelo://app?vid=3b9148c6-b0e2-4dea-a9ec-66da153b8b4f"},"vehicle_type_id":"4","last_reported":1713377375,"current_range_meters":0,"station_id":"ce4bha92rcd13ifvqeh0","pricing_plan_id":"cebpf4jnsgd1na2vs0mg"},{"bike_id":"c1aca0a6-06c8-43f3-bfea-844623006513","system_id":"levelo_inurba_marseille","lat":43.291675,"lon":5.371583,"is_reserved":false,"is_disabled":false,"rental_uris":{"android":"levelo://app?vid=c1aca0a6-06c8-43f3-bfea-844623006513","ios":"levelo://app?vid=c1aca0a6-06c8-43f3-bfea-844623006513"},"vehicle_type_id":"4","last_reported":1713377375,"current_range_meters":6400,"station_id":"ce4bha92rcd13ifvqeh0","pricing_plan_id":"cebpf4jnsgd1na2vs0mg"},{"bike_id":"02869303-044f-416e-b123-85611ac2c876","system_id":"levelo_inurba_marseille","lat":43.291675,"lon":5.371583,"is_reserved":false,"is_disabled":false,"rental_uris":{"android":"levelo://app?vid=02869303-044f-416e-b123-85611ac2c876","ios":"levelo://app?vid=02869303-044f-416e-b123-85611ac2c876"},"vehicle_type_id":"4","last_reported":1713377375,"current_range_meters":0,"station_id":"ce4bha92rcd13ifvqeh0","pricing_plan_id":"cebpf4jnsgd1na2vs0mg"},{"bike_id":"fb08ffd4-954e-404c-9d80-b5af432a6dca","system_id":"levelo_inurba_marseille","lat":43.291671,"lon":5.371575,"is_reserved":false,"is_disabled":false,"rental_uris":{"android":"levelo://app?vid=fb08ffd4-954e-404c-9d80-b5af432a6dca","ios":"levelo://app?vid=fb08ffd4-954e-404c-9d80-b5af432a6dca"},"vehicle_type_id":"4","last_reported":1713377375,"current_range_meters":10800,"station_id":"ce4bha92rcd13ifvqeh0","pricing_plan_id":"cebpf4jnsgd1na2vs0mg"},{"bike_id":"43cc5836-9eaa-44c0-9726-efb2513b4477","system_id":"levelo_inurba_marseille","lat":43.286591,"lon":5.363346,"is_reserved":false,"is_disabled":false,"rental_uris":{"android":"levelo://app?vid=43cc5836-9eaa-44c0-9726-efb2513b4477","ios":"levelo://app?vid=43cc5836-9eaa-44c0-9726-efb2513b4477"},"vehicle_type_id":"4","last_reported":1713377375,"current_range_meters":21600,"station_id":"ce4bhah2rcd13ifvqej0","pricing_plan_id":"cebpf4jnsgd1na2vs0mg"},{"bike_id":"9bd76d90-03eb-4937-b006-c8582232a03f","system_id":"levelo_inurba_marseille","lat":43.291671,"lon":5.371575,"is_reserved":false,"is_disabled":false,"rental_uris":{"android":"levelo://app?vid=9bd76d90-03eb-4937-b006-c8582232a03f","ios":"levelo://app?vid=9bd76d90-03eb-4937-b006-c8582232a03f"},"vehicle_type_id":"4","last_reported":1713377375,"current_range_meters":30000,"station_id":"ce4bha92rcd13ifvqeh0","pricing_plan_id":"cebpf4jnsgd1na2vs0mg"},{"bike_id":"6ffd7952-3014-419b-9767-6724d0df50c2","system_id":"levelo_inurba_marseille","lat":43.292005,"lon":5.357875,"is_reserved":false,"is_disabled":false,"rental_uris":{"android":"levelo://app?vid=6ffd7952-3014-419b-9767-6724d0df50c2","ios":"levelo://app?vid=6ffd7952-3014-419b-9767-6724d0df50c2"},"vehicle_type_id":"4","last_reported":1713377375,"current_range_meters":24400,"station_id":"ce4bhb12rcd13ifvqel0","pricing_plan_id":"cebpf4jnsgd1na2vs0mg"},{"bike_id":"8a1071b8-b013-4453-87cf-5b0fc79d58e9","system_id":"levelo_inurba_marseille","lat":43.313291,"lon":5.396838,"is_reserved":false,"is_disabled":false,"rental_uris":{"android":"levelo://app?vid=8a1071b8-b013-4453-87cf-5b0fc79d58e9","ios":"levelo://app?vid=8a1071b8-b013-4453-87cf-5b0fc79d58e9"},"vehicle_type_id":"4","last_reported":1713377375,"current_range_meters":0,"station_id":"ce4bgvp2rcd13ifvqcu0","pricing_plan_id":"cebpf4jnsgd1na2vs0mg"},{"bike_id":"a3fcb2ee-6ed7-4f39-86d3-4e29cf08480b","system_id":"levelo_inurba_marseille","lat":43.29188,"lon":5.35803,"is_reserved":false,"is_disabled":false,"rental_uris":{"android":"levelo://app?vid=a3fcb2ee-6ed7-4f39-86d3-4e29cf08480b","ios":"levelo://app?vid=a3fcb2ee-6ed7-4f39-86d3-4e29cf08480b"},"vehicle_type_id":"4","last_reported":1713377375,"current_range_meters":27200,"station_id":"ce4bhb12rcd13ifvqel0","pricing_plan_id":"cebpf4jnsgd1na2vs0mg"},{"bike_id":"f0d35847-9d5d-44d1-8728-a7b8550e0eaa","system_id":"levelo_inurba_marseille","lat":43.309047,"lon":5.396551,"is_reserved":false,"is_disabled":false,"rental_uris":{"android":"levelo://app?vid=f0d35847-9d5d-44d1-8728-a7b8550e0eaa","ios":"levelo://app?vid=f0d35847-9d5d-44d1-8728-a7b8550e0eaa"},"vehicle_type_id":"4","last_reported":1713377375,"current_range_meters":9600,"station_id":"ce4bh012rcd13ifvqcv0","pricing_plan_id":"cebpf4jnsgd1na2vs0mg"},{"bike_id":"57e2721c-d1a6-4596-9f5e-aa32afa21f10","system_id":"levelo_inurba_marseille","lat":43.309038,"lon":5.396546,"is_reserved":false,"is_disabled":false,"rental_uris":{"android":"levelo://app?vid=57e2721c-d1a6-4596-9f5e-aa32afa21f10","ios":"levelo://app?vid=57e2721c-d1a6-4596-9f5e-aa32afa21f10"},"vehicle_type_id":"4","last_reported":1713377375,"current_range_meters":14000,"station_id":"ce4bh012rcd13ifvqcv0","pricing_plan_id":"cebpf4jnsgd1na2vs0mg"},{"bike_id":"802b576a-8419-404c-a30c-ac5216bf02fe","system_id":"levelo_inurba_marseille","lat":43.309038,"lon":5.396546,"is_reserved":false,"is_disabled":false,"rental_uris":{"android":"levelo://app?vid=802b576a-8419-404c-a30c-ac5216bf02fe","ios":"levelo://app?vid=802b576a-8419-404c-a30c-ac5216bf02fe"},"vehicle_type_id":"4","last_reported":1713377375,"current_range_meters":4800,"station_id":"ce4bh012rcd13ifvqcv0","pricing_plan_id":"cebpf4jnsgd1na2vs0mg"},{"bike_id":"bfdeaaba-fe35-46de-b925-88b134a23a26","system_id":"levelo_inurba_marseille","lat":43.295284,"lon":5.38545,"is_reserved":false,"is_disabled":false,"rental_uris":{"android":"levelo://app?vid=bfdeaaba-fe35-46de-b925-88b134a23a26","ios":"levelo://app?vid=bfdeaaba-fe35-46de-b925-88b134a23a26"},"vehicle_type_id":"4","last_reported":1713377375,"current_range_meters":20800,"station_id":"","pricing_plan_id":"cebpf4jnsgd1na2vs0mg"},{"bike_id":"a04cd32d-f479-4037-9bb8-f99fac704131","system_id":"levelo_inurba_marseille","lat":43.294787,"lon":5.386049,"is_reserved":false,"is_disabled":false,"rental_uris":{"android":"levelo://app?vid=a04cd32d-f479-4037-9bb8-f99fac704131","ios":"levelo://app?vid=a04cd32d-f479-4037-9bb8-f99fac704131"},"vehicle_type_id":"4","last_reported":1713377375,"current_range_meters":3600,"station_id":"ce4bh2h2rcd13ifvqdh0","pricing_plan_id":"cebpf4jnsgd1na2vs0mg"},{"bike_id":"1233a182-f6d1-46b2-8f49-e4dd613afbcf","system_id":"levelo_inurba_marseille","lat":43.290631,"lon":5.359244,"is_reserved":false,"is_disabled":false,"rental_uris":{"android":"levelo://app?vid=1233a182-f6d1-46b2-8f49-e4dd613afbcf","ios":"levelo://app?vid=1233a182-f6d1-46b2-8f49-e4dd613afbcf"},"vehicle_type_id":"4","last_reported":1713377375,"current_range_meters":21200,"station_id":"ce4bha92rcd13ifvqeg0","pricing_plan_id":"cebpf4jnsgd1na2vs0mg"},{"bike_id":"2afcf7bf-a146-4549-aceb-716998525c6f","system_id":"levelo_inurba_marseille","lat":43.290631,"lon":5.359244,"is_reserved":false,"is_disabled":false,"rental_uris":{"android":"levelo://app?vid=2afcf7bf-a146-4549-aceb-716998525c6f","ios":"levelo://app?vid=2afcf7bf-a146-4549-aceb-716998525c6f"},"vehicle_type_id":"4","last_reported":1713377375,"current_range_meters":14800,"station_id":"ce4bha92rcd13ifvqeg0","pricing_plan_id":"cebpf4jnsgd1na2vs0mg"},{"bike_id":"58aa44e5-2a37-45f4-82b4-2173367a7b23","system_id":"levelo_inurba_marseille","lat":43.290624,"lon":5.359245,"is_reserved":false,"is_disabled":false,"rental_uris":{"android":"levelo://app?vid=58aa44e5-2a37-45f4-82b4-2173367a7b23","ios":"levelo://app?vid=58aa44e5-2a37-45f4-82b4-2173367a7b23"},"vehicle_type_id":"4","last_reported":1713377375,"current_range_meters":2400,"station_id":"ce4bha92rcd13ifvqeg0","pricing_plan_id":"cebpf4jnsgd1na2vs0mg"},{"bike_id":"9efa7784-60a8-40a0-82b8-e261484425ab","system_id":"levelo_inurba_marseille","lat":43.296131,"lon":5.370791,"is_reserved":false,"is_disabled":false,"rental_uris":{"android":"levelo://app?vid=9efa7784-60a8-40a0-82b8-e261484425ab","ios":"levelo://app?vid=9efa7784-60a8-40a0-82b8-e261484425ab"},"vehicle_type_id":"4","last_reported":1713377375,"current_range_meters":9600,"station_id":"ce4bgnh2rcd13ifvqc0g","pricing_plan_id":"cebpf4jnsgd1na2vs0mg"},{"bike_id":"83c99561-03aa-4f18-9760-e9c08ebc5759","system_id":"levelo_inurba_marseille","lat":43.294268,"lon":5.3859,"is_reserved":false,"is_disabled":false,"rental_uris":{"android":"levelo://app?vid=83c99561-03aa-4f18-9760-e9c08ebc5759","ios":"levelo://app?vid=83c99561-03aa-4f18-9760-e9c08ebc5759"},"vehicle_type_id":"4","last_reported":1713377375,"current_range_meters":18000,"station_id":"ce4bh2h2rcd13ifvqdh0","pricing_plan_id":"cebpf4jnsgd1na2vs0mg"},{"bike_id":"d4c31041-a05a-4f6b-ad35-7a1b4ff0ffb6","system_id":"levelo_inurba_marseille","lat":43.290631,"lon":5.359244,"is_reserved":false,"is_disabled":false,"rental_uris":{"android":"levelo://app?vid=d4c31041-a05a-4f6b-ad35-7a1b4ff0ffb6","ios":"levelo://app?vid=d4c31041-a05a-4f6b-ad35-7a1b4ff0ffb6"},"vehicle_type_id":"4","last_reported":1713377375,"current_range_meters":25600,"station_id":"ce4bha92rcd13ifvqeg0","pricing_plan_id":"cebpf4jnsgd1na2vs0mg"},{"bike_id":"2d496990-61ac-47ed-a7a1-dc06600bdd93","system_id":"levelo_inurba_marseille","lat":43.294371,"lon":5.386104,"is_reserved":false,"is_disabled":false,"rental_uris":{"android":"levelo://app?vid=2d496990-61ac-47ed-a7a1-dc06600bdd93","ios":"levelo://app?vid=2d496990-61ac-47ed-a7a1-dc06600bdd93"},"vehicle_type_id":"4","last_reported":1713377375,"current_range_meters":6800,"station_id":"ce4bh2h2rcd13ifvqdh0","pricing_plan_id":"cebpf4jnsgd1na2vs0mg"},{"bike_id":"35a93483-9622-425a-bc33-1dfec806100c","system_id":"levelo_inurba_marseille","lat":43.289184,"lon":5.366408,"is_reserved":false,"is_disabled":false,"rental_uris":{"android":"levelo://app?vid=35a93483-9622-425a-bc33-1dfec806100c","ios":"levelo://app?vid=35a93483-9622-425a-bc33-1dfec806100c"},"vehicle_type_id":"4","last_reported":1713377375,"current_range_meters":22400,"station_id":"ce4bhap2rcd13ifvqek0","pricing_plan_id":"cebpf4jnsgd1na2vs0mg"},{"bike_id":"bf8f0ad8-6ec9-4d96-9725-a8fa9ee0b8be","system_id":"levelo_inurba_marseille","lat":43.294238,"lon":5.386171,"is_reserved":false,"is_disabled":false,"rental_uris":{"android":"levelo://app?vid=bf8f0ad8-6ec9-4d96-9725-a8fa9ee0b8be","ios":"levelo://app?vid=bf8f0ad8-6ec9-4d96-9725-a8fa9ee0b8be"},"vehicle_type_id":"4","last_reported":1713377375,"current_range_meters":0,"station_id":"ce4bh2h2rcd13ifvqdh0","pricing_plan_id":"cebpf4jnsgd1na2vs0mg"},{"bike_id":"4e5e88aa-b19b-41d2-860a-9f2ff29dd4c6","system_id":"levelo_inurba_marseille","lat":43.2942,"lon":5.38616,"is_reserved":false,"is_disabled":false,"rental_uris":{"android":"levelo://app?vid=4e5e88aa-b19b-41d2-860a-9f2ff29dd4c6","ios":"levelo://app?vid=4e5e88aa-b19b-41d2-860a-9f2ff29dd4c6"},"vehicle_type_id":"4","last_reported":1713377375,"current_range_meters":18800,"station_id":"ce4bh2h2rcd13ifvqdh0","pricing_plan_id":"cebpf4jnsgd1na2vs0mg"},{"bike_id":"c5a17ec0-e80f-4269-9a62-deff34027c7e","system_id":"levelo_inurba_marseille","lat":43.294198,"lon":5.386195,"is_reserved":false,"is_disabled":false,"rental_uris":{"android":"levelo://app?vid=c5a17ec0-e80f-4269-9a62-deff34027c7e","ios":"levelo://app?vid=c5a17ec0-e80f-4269-9a62-deff34027c7e"},"vehicle_type_id":"4","last_reported":1713377375,"current_range_meters":19200,"station_id":"ce4bh2h2rcd13ifvqdh0","pricing_plan_id":"cebpf4jnsgd1na2vs0mg"},{"bike_id":"d2f534d6-3d1b-4f61-8cd7-5d7a943e5784","system_id":"levelo_inurba_marseille","lat":43.2943,"lon":5.38639,"is_reserved":false,"is_disabled":false,"rental_uris":{"android":"levelo://app?vid=d2f534d6-3d1b-4f61-8cd7-5d7a943e5784","ios":"levelo://app?vid=d2f534d6-3d1b-4f61-8cd7-5d7a943e5784"},"vehicle_type_id":"4","last_reported":1713377375,"current_range_meters":24400,"station_id":"ce4bh2h2rcd13ifvqdh0","pricing_plan_id":"cebpf4jnsgd1na2vs0mg"},{"bike_id":"9bc0588b-5197-499e-9451-08e19205c66d","system_id":"levelo_inurba_marseille","lat":43.29419,"lon":5.38622,"is_reserved":false,"is_disabled":false,"rental_uris":{"android":"levelo://app?vid=9bc0588b-5197-499e-9451-08e19205c66d","ios":"levelo://app?vid=9bc0588b-5197-499e-9451-08e19205c66d"},"vehicle_type_id":"4","last_reported":1713377375,"current_range_meters":16400,"station_id":"ce4bh2h2rcd13ifvqdh0","pricing_plan_id":"cebpf4jnsgd1na2vs0mg"},{"bike_id":"23ff9eb8-15c8-443b-b74d-247a9d383ea5","system_id":"levelo_inurba_marseille","lat":43.289468,"lon":5.363719,"is_reserved":false,"is_disabled":false,"rental_uris":{"android":"levelo://app?vid=23ff9eb8-15c8-443b-b74d-247a9d383ea5","ios":"levelo://app?vid=23ff9eb8-15c8-443b-b74d-247a9d383ea5"},"vehicle_type_id":"4","last_reported":1713377375,"current_range_meters":24800,"station_id":"ce4bhc92rcd13ifvqetg","pricing_plan_id":"cebpf4jnsgd1na2vs0mg"},{"bike_id":"ac70f8ec-69e4-45f0-8b17-9de2569d4b12","system_id":"levelo_inurba_marseille","lat":43.2942,"lon":5.38626,"is_reserved":false,"is_disabled":false,"rental_uris":{"android":"levelo://app?vid=ac70f8ec-69e4-45f0-8b17-9de2569d4b12","ios":"levelo://app?vid=ac70f8ec-69e4-45f0-8b17-9de2569d4b12"},"vehicle_type_id":"4","last_reported":1713377375,"current_range_meters":24800,"station_id":"ce4bh2h2rcd13ifvqdh0","pricing_plan_id":"cebpf4jnsgd1na2vs0mg"},{"bike_id":"38889527-036f-4c5b-a033-a370df808cb5","system_id":"levelo_inurba_marseille","lat":43.29416,"lon":5.38619,"is_reserved":false,"is_disabled":false,"rental_uris":{"android":"levelo://app?vid=38889527-036f-4c5b-a033-a370df808cb5","ios":"levelo://app?vid=38889527-036f-4c5b-a033-a370df808cb5"},"vehicle_type_id":"4","last_reported":1713377375,"current_range_meters":4400,"station_id":"ce4bh2h2rcd13ifvqdh0","pricing_plan_id":"cebpf4jnsgd1na2vs0mg"},{"bike_id":"3b839e43-4100-45cf-87fa-ff67274bc1fe","system_id":"levelo_inurba_marseille","lat":43.294162,"lon":5.386292,"is_reserved":false,"is_disabled":false,"rental_uris":{"android":"levelo://app?vid=3b839e43-4100-45cf-87fa-ff67274bc1fe","ios":"levelo://app?vid=3b839e43-4100-45cf-87fa-ff67274bc1fe"},"vehicle_type_id":"4","last_reported":1713377375,"current_range_meters":31200,"station_id":"ce4bh2h2rcd13ifvqdh0","pricing_plan_id":"cebpf4jnsgd1na2vs0mg"},{"bike_id":"c62b8121-3e89-4780-bca8-38c80eb3d48f","system_id":"levelo_inurba_marseille","lat":43.28946,"lon":5.36637,"is_reserved":false,"is_disabled":false,"rental_uris":{"android":"levelo://app?vid=c62b8121-3e89-4780-bca8-38c80eb3d48f","ios":"levelo://app?vid=c62b8121-3e89-4780-bca8-38c80eb3d48f"},"vehicle_type_id":"4","last_reported":1713377375,"current_range_meters":20400,"station_id":"ce4bhap2rcd13ifvqek0","pricing_plan_id":"cebpf4jnsgd1na2vs0mg"},{"bike_id":"67e25b0e-a45d-4091-adb8-b234b4ca9c86","system_id":"levelo_inurba_marseille","lat":43.29419,"lon":5.38627,"is_reserved":false,"is_disabled":false,"rental_uris":{"android":"levelo://app?vid=67e25b0e-a45d-4091-adb8-b234b4ca9c86","ios":"levelo://app?vid=67e25b0e-a45d-4091-adb8-b234b4ca9c86"},"vehicle_type_id":"4","last_reported":1713377375,"current_range_meters":19600,"station_id":"ce4bh2h2rcd13ifvqdh0","pricing_plan_id":"cebpf4jnsgd1na2vs0mg"},{"bike_id":"994225e0-f9c5-42c4-b143-ce76dbf1a0d8","system_id":"levelo_inurba_marseille","lat":43.28945,"lon":5.36637,"is_reserved":false,"is_disabled":false,"rental_uris":{"android":"levelo://app?vid=994225e0-f9c5-42c4-b143-ce76dbf1a0d8","ios":"levelo://app?vid=994225e0-f9c5-42c4-b143-ce76dbf1a0d8"},"vehicle_type_id":"4","last_reported":1713377375,"current_range_meters":6800,"station_id":"ce4bhap2rcd13ifvqek0","pricing_plan_id":"cebpf4jnsgd1na2vs0mg"},{"bike_id":"ff465917-1769-4734-8432-ad627a2762c0","system_id":"levelo_inurba_marseille","lat":43.294162,"lon":5.386292,"is_reserved":false,"is_disabled":false,"rental_uris":{"android":"levelo://app?vid=ff465917-1769-4734-8432-ad627a2762c0","ios":"levelo://app?vid=ff465917-1769-4734-8432-ad627a2762c0"},"vehicle_type_id":"4","last_reported":1713377375,"current_range_meters":8400,"station_id":"ce4bh2h2rcd13ifvqdh0","pricing_plan_id":"cebpf4jnsgd1na2vs0mg"},{"bike_id":"a10910f9-ae89-4027-88c7-ea048873f7d4","system_id":"levelo_inurba_marseille","lat":43.29413,"lon":5.38623,"is_reserved":false,"is_disabled":false,"rental_uris":{"android":"levelo://app?vid=a10910f9-ae89-4027-88c7-ea048873f7d4","ios":"levelo://app?vid=a10910f9-ae89-4027-88c7-ea048873f7d4"},"vehicle_type_id":"4","last_reported":1713377375,"current_range_meters":10800,"station_id":"ce4bh2h2rcd13ifvqdh0","pricing_plan_id":"cebpf4jnsgd1na2vs0mg"},{"bike_id":"69874aee-bb2b-4581-8713-16d9c58590db","system_id":"levelo_inurba_marseille","lat":43.29414,"lon":5.38625,"is_reserved":false,"is_disabled":false,"rental_uris":{"android":"levelo://app?vid=69874aee-bb2b-4581-8713-16d9c58590db","ios":"levelo://app?vid=69874aee-bb2b-4581-8713-16d9c58590db"},"vehicle_type_id":"4","last_reported":1713377375,"current_range_meters":9600,"station_id":"ce4bh2h2rcd13ifvqdh0","pricing_plan_id":"cebpf4jnsgd1na2vs0mg"},{"bike_id":"6bfc8841-3306-4c40-b436-08646f1dca5c","system_id":"levelo_inurba_marseille","lat":43.294162,"lon":5.386292,"is_reserved":false,"is_disabled":false,"rental_uris":{"android":"levelo://app?vid=6bfc8841-3306-4c40-b436-08646f1dca5c","ios":"levelo://app?vid=6bfc8841-3306-4c40-b436-08646f1dca5c"},"vehicle_type_id":"4","last_reported":1713377375,"current_range_meters":9200,"station_id":"ce4bh2h2rcd13ifvqdh0","pricing_plan_id":"cebpf4jnsgd1na2vs0mg"},{"bike_id":"559b6df3-4100-4c86-b9be-bd15ddd08c5e","system_id":"levelo_inurba_marseille","lat":43.289468,"lon":5.363719,"is_reserved":false,"is_disabled":false,"rental_uris":{"android":"levelo://app?vid=559b6df3-4100-4c86-b9be-bd15ddd08c5e","ios":"levelo://app?vid=559b6df3-4100-4c86-b9be-bd15ddd08c5e"},"vehicle_type_id":"4","last_reported":1713377375,"current_range_meters":14800,"station_id":"ce4bhc92rcd13ifvqetg","pricing_plan_id":"cebpf4jnsgd1na2vs0mg"},{"bike_id":"7a3e1df8-f4fe-4241-9b91-c1ace5406398","system_id":"levelo_inurba_marseille","lat":43.29424,"lon":5.38645,"is_reserved":false,"is_disabled":false,"rental_uris":{"android":"levelo://app?vid=7a3e1df8-f4fe-4241-9b91-c1ace5406398","ios":"levelo://app?vid=7a3e1df8-f4fe-4241-9b91-c1ace5406398"},"vehicle_type_id":"4","last_reported":1713377375,"current_range_meters":27600,"station_id":"ce4bh2h2rcd13ifvqdh0","pricing_plan_id":"cebpf4jnsgd1na2vs0mg"},{"bike_id":"9fc91f19-e5a1-4d8b-b8e5-fd73df990fd3","system_id":"levelo_inurba_marseille","lat":43.28941,"lon":5.36641,"is_reserved":false,"is_disabled":false,"rental_uris":{"android":"levelo://app?vid=9fc91f19-e5a1-4d8b-b8e5-fd73df990fd3","ios":"levelo://app?vid=9fc91f19-e5a1-4d8b-b8e5-fd73df990fd3"},"vehicle_type_id":"4","last_reported":1713377375,"current_range_meters":2000,"station_id":"ce4bhap2rcd13ifvqek0","pricing_plan_id":"cebpf4jnsgd1na2vs0mg"},{"bike_id":"2b97d499-3f64-4fd6-acea-9633b82cc13b","system_id":"levelo_inurba_marseille","lat":43.28941,"lon":5.36633,"is_reserved":false,"is_disabled":false,"rental_uris":{"android":"levelo://app?vid=2b97d499-3f64-4fd6-acea-9633b82cc13b","ios":"levelo://app?vid=2b97d499-3f64-4fd6-acea-9633b82cc13b"},"vehicle_type_id":"4","last_reported":1713377375,"current_range_meters":6800,"station_id":"ce4bhap2rcd13ifvqek0","pricing_plan_id":"cebpf4jnsgd1na2vs0mg"},{"bike_id":"81a2b8de-b334-4545-ac04-924c49f718fb","system_id":"levelo_inurba_marseille","lat":43.289396,"lon":5.366355,"is_reserved":false,"is_disabled":false,"rental_uris":{"android":"levelo://app?vid=81a2b8de-b334-4545-ac04-924c49f718fb","ios":"levelo://app?vid=81a2b8de-b334-4545-ac04-924c49f718fb"},"vehicle_type_id":"4","last_reported":1713377375,"current_range_meters":4000,"station_id":"ce4bhap2rcd13ifvqek0","pricing_plan_id":"cebpf4jnsgd1na2vs0mg"},{"bike_id":"9bed4170-e232-40cc-998b-d36bc4690307","system_id":"levelo_inurba_marseille","lat":43.289468,"lon":5.363719,"is_reserved":false,"is_disabled":false,"rental_uris":{"android":"levelo://app?vid=9bed4170-e232-40cc-998b-d36bc4690307","ios":"levelo://app?vid=9bed4170-e232-40cc-998b-d36bc4690307"},"vehicle_type_id":"4","last_reported":1713377375,"current_range_meters":6400,"station_id":"ce4bhc92rcd13ifvqetg","pricing_plan_id":"cebpf4jnsgd1na2vs0mg"},{"bike_id":"9418439b-0c8d-4355-8ffa-cf52f4bcaadc","system_id":"levelo_inurba_marseille","lat":43.28936,"lon":5.36641,"is_reserved":false,"is_disabled":false,"rental_uris":{"android":"levelo://app?vid=9418439b-0c8d-4355-8ffa-cf52f4bcaadc","ios":"levelo://app?vid=9418439b-0c8d-4355-8ffa-cf52f4bcaadc"},"vehicle_type_id":"4","last_reported":1713377375,"current_range_meters":0,"station_id":"ce4bhap2rcd13ifvqek0","pricing_plan_id":"cebpf4jnsgd1na2vs0mg"},{"bike_id":"e3204f47-feac-4bcf-bf82-211ff343f1dd","system_id":"levelo_inurba_marseille","lat":43.285742,"lon":5.395004,"is_reserved":false,"is_disabled":false,"rental_uris":{"android":"levelo://app?vid=e3204f47-feac-4bcf-bf82-211ff343f1dd","ios":"levelo://app?vid=e3204f47-feac-4bcf-bf82-211ff343f1dd"},"vehicle_type_id":"4","last_reported":1713377375,"current_range_meters":5600,"station_id":"ce4bh292rcd13ifvqdg0","pricing_plan_id":"cebpf4jnsgd1na2vs0mg"},{"bike_id":"09ac2558-3618-433a-a899-1e8eada84244","system_id":"levelo_inurba_marseille","lat":43.28934,"lon":5.36632,"is_reserved":false,"is_disabled":false,"rental_uris":{"android":"levelo://app?vid=09ac2558-3618-433a-a899-1e8eada84244","ios":"levelo://app?vid=09ac2558-3618-433a-a899-1e8eada84244"},"vehicle_type_id":"4","last_reported":1713377375,"current_range_meters":9200,"station_id":"ce4bhap2rcd13ifvqek0","pricing_plan_id":"cebpf4jnsgd1na2vs0mg"},{"bike_id":"eac16bb9-5a30-454b-b98b-1efe2d1a8b62","system_id":"levelo_inurba_marseille","lat":43.294405,"lon":5.386928,"is_reserved":false,"is_disabled":false,"rental_uris":{"android":"levelo://app?vid=eac16bb9-5a30-454b-b98b-1efe2d1a8b62","ios":"levelo://app?vid=eac16bb9-5a30-454b-b98b-1efe2d1a8b62"},"vehicle_type_id":"4","last_reported":1713377375,"current_range_meters":31200,"station_id":"ce4bh2h2rcd13ifvqdh0","pricing_plan_id":"cebpf4jnsgd1na2vs0mg"},{"bike_id":"8c47fbb9-d49e-44e9-9d7b-49050d552574","system_id":"levelo_inurba_marseille","lat":43.293922,"lon":5.386088,"is_reserved":false,"is_disabled":false,"rental_uris":{"android":"levelo://app?vid=8c47fbb9-d49e-44e9-9d7b-49050d552574","ios":"levelo://app?vid=8c47fbb9-d49e-44e9-9d7b-49050d552574"},"vehicle_type_id":"4","last_reported":1713377375,"current_range_meters":10000,"station_id":"ce4bh2h2rcd13ifvqdh0","pricing_plan_id":"cebpf4jnsgd1na2vs0mg"},{"bike_id":"a25bb197-ecfc-4bb0-9f3a-ab5554841a38","system_id":"levelo_inurba_marseille","lat":43.29334,"lon":5.385212,"is_reserved":false,"is_disabled":false,"rental_uris":{"android":"levelo://app?vid=a25bb197-ecfc-4bb0-9f3a-ab5554841a38","ios":"levelo://app?vid=a25bb197-ecfc-4bb0-9f3a-ab5554841a38"},"vehicle_type_id":"4","last_reported":1713377375,"current_range_meters":18400,"station_id":"ce4bh692rcd13ifvqea0","pricing_plan_id":"cebpf4jnsgd1na2vs0mg"},{"bike_id":"04372019-82d9-4db2-a0e8-cbf0e19a4cdb","system_id":"levelo_inurba_marseille","lat":43.289274,"lon":5.36392,"is_reserved":false,"is_disabled":false,"rental_uris":{"android":"levelo://app?vid=04372019-82d9-4db2-a0e8-cbf0e19a4cdb","ios":"levelo://app?vid=04372019-82d9-4db2-a0e8-cbf0e19a4cdb"},"vehicle_type_id":"4","last_reported":1713377375,"current_range_meters":400,"station_id":"ce4bhc92rcd13ifvqetg","pricing_plan_id":"cebpf4jnsgd1na2vs0mg"},{"bike_id":"f47afd1e-ba65-4e99-9861-e3d87b00e5b5","system_id":"levelo_inurba_marseille","lat":43.289468,"lon":5.363719,"is_reserved":false,"is_disabled":false,"rental_uris":{"android":"levelo://app?vid=f47afd1e-ba65-4e99-9861-e3d87b00e5b5","ios":"levelo://app?vid=f47afd1e-ba65-4e99-9861-e3d87b00e5b5"},"vehicle_type_id":"4","last_reported":1713377375,"current_range_meters":26000,"station_id":"ce4bhc92rcd13ifvqetg","pricing_plan_id":"cebpf4jnsgd1na2vs0mg"},{"bike_id":"e130b02e-3c4d-460e-b9c4-20980ae89568","system_id":"levelo_inurba_marseille","lat":43.293528,"lon":5.385894,"is_reserved":false,"is_disabled":false,"rental_uris":{"android":"levelo://app?vid=e130b02e-3c4d-460e-b9c4-20980ae89568","ios":"levelo://app?vid=e130b02e-3c4d-460e-b9c4-20980ae89568"},"vehicle_type_id":"4","last_reported":1713377375,"current_range_meters":0,"station_id":"ce4bgg92rcd13ifvqb30","pricing_plan_id":"cebpf4jnsgd1na2vs0mg"},{"bike_id":"95ffa579-88c5-4395-a2dc-fc1cd417692c","system_id":"levelo_inurba_marseille","lat":43.289468,"lon":5.363719,"is_reserved":false,"is_disabled":false,"rental_uris":{"android":"levelo://app?vid=95ffa579-88c5-4395-a2dc-fc1cd417692c","ios":"levelo://app?vid=95ffa579-88c5-4395-a2dc-fc1cd417692c"},"vehicle_type_id":"4","last_reported":1713377375,"current_range_meters":6400,"station_id":"ce4bhc92rcd13ifvqetg","pricing_plan_id":"cebpf4jnsgd1na2vs0mg"},{"bike_id":"39dbce54-fe83-401b-97ac-747b00fc4eb0","system_id":"levelo_inurba_marseille","lat":43.29278,"lon":5.38444,"is_reserved":false,"is_disabled":false,"rental_uris":{"android":"levelo://app?vid=39dbce54-fe83-401b-97ac-747b00fc4eb0","ios":"levelo://app?vid=39dbce54-fe83-401b-97ac-747b00fc4eb0"},"vehicle_type_id":"4","last_reported":1713377375,"current_range_meters":11200,"station_id":"ce4bh692rcd13ifvqea0","pricing_plan_id":"cebpf4jnsgd1na2vs0mg"},{"bike_id":"d113c66c-4df3-4759-b450-6cc2f5dd9259","system_id":"levelo_inurba_marseille","lat":43.294104,"lon":5.387056,"is_reserved":false,"is_disabled":false,"rental_uris":{"android":"levelo://app?vid=d113c66c-4df3-4759-b450-6cc2f5dd9259","ios":"levelo://app?vid=d113c66c-4df3-4759-b450-6cc2f5dd9259"},"vehicle_type_id":"4","last_reported":1713377375,"current_range_meters":6800,"station_id":"ce4bh3h2rcd13ifvqdo0","pricing_plan_id":"cebpf4jnsgd1na2vs0mg"},{"bike_id":"4eaa0dee-336c-49da-9ee5-553f4f01cd5c","system_id":"levelo_inurba_marseille","lat":43.292546,"lon":5.384004,"is_reserved":false,"is_disabled":false,"rental_uris":{"android":"levelo://app?vid=4eaa0dee-336c-49da-9ee5-553f4f01cd5c","ios":"levelo://app?vid=4eaa0dee-336c-49da-9ee5-553f4f01cd5c"},"vehicle_type_id":"4","last_reported":1713377375,"current_range_meters":16000,"station_id":"ce4bh692rcd13ifvqea0","pricing_plan_id":"cebpf4jnsgd1na2vs0mg"},{"bike_id":"b996beeb-5824-4d7e-b2f3-4b697ffa36a7","system_id":"levelo_inurba_marseille","lat":43.29272,"lon":5.38441,"is_reserved":false,"is_disabled":false,"rental_uris":{"android":"levelo://app?vid=b996beeb-5824-4d7e-b2f3-4b697ffa36a7","ios":"levelo://app?vid=b996beeb-5824-4d7e-b2f3-4b697ffa36a7"},"vehicle_type_id":"4","last_reported":1713377375,"current_range_meters":4000,"station_id":"ce4bh692rcd13ifvqea0","pricing_plan_id":"cebpf4jnsgd1na2vs0mg"},{"bike_id":"5212267f-49b7-41cc-84c1-bac005d02823","system_id":"levelo_inurba_marseille","lat":43.292688,"lon":5.38443,"is_reserved":false,"is_disabled":false,"rental_uris":{"android":"levelo://app?vid=5212267f-49b7-41cc-84c1-bac005d02823","ios":"levelo://app?vid=5212267f-49b7-41cc-84c1-bac005d02823"},"vehicle_type_id":"4","last_reported":1713377375,"current_range_meters":14800,"station_id":"ce4bh692rcd13ifvqea0","pricing_plan_id":"cebpf4jnsgd1na2vs0mg"},{"bike_id":"40721743-e4ac-45df-9ac7-8d2e47d8e76a","system_id":"levelo_inurba_marseille","lat":43.292644,"lon":5.384257,"is_reserved":false,"is_disabled":false,"rental_uris":{"android":"levelo://app?vid=40721743-e4ac-45df-9ac7-8d2e47d8e76a","ios":"levelo://app?vid=40721743-e4ac-45df-9ac7-8d2e47d8e76a"},"vehicle_type_id":"4","last_reported":1713377375,"current_range_meters":0,"station_id":"ce4bh692rcd13ifvqea0","pricing_plan_id":"cebpf4jnsgd1na2vs0mg"},{"bike_id":"02733c52-7559-4ea7-bea5-29f82710ed73","system_id":"levelo_inurba_marseille","lat":43.2927,"lon":5.384467,"is_reserved":false,"is_disabled":false,"rental_uris":{"android":"levelo://app?vid=02733c52-7559-4ea7-bea5-29f82710ed73","ios":"levelo://app?vid=02733c52-7559-4ea7-bea5-29f82710ed73"},"vehicle_type_id":"4","last_reported":1713377375,"current_range_meters":0,"station_id":"ce4bh692rcd13ifvqea0","pricing_plan_id":"cebpf4jnsgd1na2vs0mg"},{"bike_id":"94ba9f28-afc3-49aa-890f-00cc8a9e4217","system_id":"levelo_inurba_marseille","lat":43.292644,"lon":5.384257,"is_reserved":false,"is_disabled":false,"rental_uris":{"android":"levelo://app?vid=94ba9f28-afc3-49aa-890f-00cc8a9e4217","ios":"levelo://app?vid=94ba9f28-afc3-49aa-890f-00cc8a9e4217"},"vehicle_type_id":"4","last_reported":1713377375,"current_range_meters":25200,"station_id":"ce4bh692rcd13ifvqea0","pricing_plan_id":"cebpf4jnsgd1na2vs0mg"},{"bike_id":"2d157adf-81e2-4e7c-8c6a-75cabf1c8e2f","system_id":"levelo_inurba_marseille","lat":43.292642,"lon":5.384254,"is_reserved":false,"is_disabled":false,"rental_uris":{"android":"levelo://app?vid=2d157adf-81e2-4e7c-8c6a-75cabf1c8e2f","ios":"levelo://app?vid=2d157adf-81e2-4e7c-8c6a-75cabf1c8e2f"},"vehicle_type_id":"4","last_reported":1713377375,"current_range_meters":18000,"station_id":"ce4bh692rcd13ifvqea0","pricing_plan_id":"cebpf4jnsgd1na2vs0mg"},{"bike_id":"23ff640a-c236-483a-af13-a73d2e7ebb41","system_id":"levelo_inurba_marseille","lat":43.292644,"lon":5.384257,"is_reserved":false,"is_disabled":false,"rental_uris":{"android":"levelo://app?vid=23ff640a-c236-483a-af13-a73d2e7ebb41","ios":"levelo://app?vid=23ff640a-c236-483a-af13-a73d2e7ebb41"},"vehicle_type_id":"4","last_reported":1713377375,"current_range_meters":24000,"station_id":"ce4bh692rcd13ifvqea0","pricing_plan_id":"cebpf4jnsgd1na2vs0mg"},{"bike_id":"d4318754-5642-4282-9aef-38ef159615a7","system_id":"levelo_inurba_marseille","lat":43.292644,"lon":5.384257,"is_reserved":false,"is_disabled":false,"rental_uris":{"android":"levelo://app?vid=d4318754-5642-4282-9aef-38ef159615a7","ios":"levelo://app?vid=d4318754-5642-4282-9aef-38ef159615a7"},"vehicle_type_id":"4","last_reported":1713377375,"current_range_meters":10400,"station_id":"ce4bh692rcd13ifvqea0","pricing_plan_id":"cebpf4jnsgd1na2vs0mg"},{"bike_id":"3fa97fbc-8b06-4afb-b819-6d461adca3da","system_id":"levelo_inurba_marseille","lat":43.29263,"lon":5.38444,"is_reserved":false,"is_disabled":false,"rental_uris":{"android":"levelo://app?vid=3fa97fbc-8b06-4afb-b819-6d461adca3da","ios":"levelo://app?vid=3fa97fbc-8b06-4afb-b819-6d461adca3da"},"vehicle_type_id":"4","last_reported":1713377375,"current_range_meters":23200,"station_id":"ce4bh692rcd13ifvqea0","pricing_plan_id":"cebpf4jnsgd1na2vs0mg"},{"bike_id":"a54f0515-e0d1-4aba-b5e9-b0ca67577e9a","system_id":"levelo_inurba_marseille","lat":43.29262,"lon":5.38442,"is_reserved":false,"is_disabled":false,"rental_uris":{"android":"levelo://app?vid=a54f0515-e0d1-4aba-b5e9-b0ca67577e9a","ios":"levelo://app?vid=a54f0515-e0d1-4aba-b5e9-b0ca67577e9a"},"vehicle_type_id":"4","last_reported":1713377375,"current_range_meters":14400,"station_id":"ce4bh692rcd13ifvqea0","pricing_plan_id":"cebpf4jnsgd1na2vs0mg"},{"bike_id":"e1a18b28-f2ce-49e3-988b-0da4d34b66b6","system_id":"levelo_inurba_marseille","lat":43.292644,"lon":5.384257,"is_reserved":false,"is_disabled":false,"rental_uris":{"android":"levelo://app?vid=e1a18b28-f2ce-49e3-988b-0da4d34b66b6","ios":"levelo://app?vid=e1a18b28-f2ce-49e3-988b-0da4d34b66b6"},"vehicle_type_id":"4","last_reported":1713377375,"current_range_meters":24400,"station_id":"ce4bh692rcd13ifvqea0","pricing_plan_id":"cebpf4jnsgd1na2vs0mg"},{"bike_id":"41bfcf98-22dc-4095-8bf0-8231be4d792b","system_id":"levelo_inurba_marseille","lat":43.295169,"lon":5.390426,"is_reserved":false,"is_disabled":false,"rental_uris":{"android":"levelo://app?vid=41bfcf98-22dc-4095-8bf0-8231be4d792b","ios":"levelo://app?vid=41bfcf98-22dc-4095-8bf0-8231be4d792b"},"vehicle_type_id":"4","last_reported":1713377375,"current_range_meters":4400,"station_id":"ce4bh3p2rcd13ifvqdp0","pricing_plan_id":"cebpf4jnsgd1na2vs0mg"},{"bike_id":"cd79a716-f2f2-4163-9774-92902ce48ebc","system_id":"levelo_inurba_marseille","lat":43.292644,"lon":5.384257,"is_reserved":false,"is_disabled":false,"rental_uris":{"android":"levelo://app?vid=cd79a716-f2f2-4163-9774-92902ce48ebc","ios":"levelo://app?vid=cd79a716-f2f2-4163-9774-92902ce48ebc"},"vehicle_type_id":"4","last_reported":1713377375,"current_range_meters":21600,"station_id":"ce4bh692rcd13ifvqea0","pricing_plan_id":"cebpf4jnsgd1na2vs0mg"},{"bike_id":"ae7cd513-ce64-4d81-aebb-c59c165682f5","system_id":"levelo_inurba_marseille","lat":43.290103,"lon":5.356114,"is_reserved":false,"is_disabled":false,"rental_uris":{"android":"levelo://app?vid=ae7cd513-ce64-4d81-aebb-c59c165682f5","ios":"levelo://app?vid=ae7cd513-ce64-4d81-aebb-c59c165682f5"},"vehicle_type_id":"4","last_reported":1713377375,"current_range_meters":2400,"station_id":"ce4bhb92rcd13ifvqen0","pricing_plan_id":"cebpf4jnsgd1na2vs0mg"},{"bike_id":"8672a033-b6f9-4867-8887-7e65ce7c0259","system_id":"levelo_inurba_marseille","lat":43.290103,"lon":5.356114,"is_reserved":false,"is_disabled":false,"rental_uris":{"android":"levelo://app?vid=8672a033-b6f9-4867-8887-7e65ce7c0259","ios":"levelo://app?vid=8672a033-b6f9-4867-8887-7e65ce7c0259"},"vehicle_type_id":"4","last_reported":1713377375,"current_range_meters":24800,"station_id":"ce4bhb92rcd13ifvqen0","pricing_plan_id":"cebpf4jnsgd1na2vs0mg"},{"bike_id":"8fb2704a-d506-4153-aae0-027830280702","system_id":"levelo_inurba_marseille","lat":43.290103,"lon":5.356114,"is_reserved":false,"is_disabled":false,"rental_uris":{"android":"levelo://app?vid=8fb2704a-d506-4153-aae0-027830280702","ios":"levelo://app?vid=8fb2704a-d506-4153-aae0-027830280702"},"vehicle_type_id":"4","last_reported":1713377375,"current_range_meters":5200,"station_id":"ce4bhb92rcd13ifvqen0","pricing_plan_id":"cebpf4jnsgd1na2vs0mg"},{"bike_id":"1701bdce-c035-417f-984e-54c424694e78","system_id":"levelo_inurba_marseille","lat":43.290103,"lon":5.356114,"is_reserved":false,"is_disabled":false,"rental_uris":{"android":"levelo://app?vid=1701bdce-c035-417f-984e-54c424694e78","ios":"levelo://app?vid=1701bdce-c035-417f-984e-54c424694e78"},"vehicle_type_id":"4","last_reported":1713377375,"current_range_meters":31600,"station_id":"ce4bhb92rcd13ifvqen0","pricing_plan_id":"cebpf4jnsgd1na2vs0mg"},{"bike_id":"e15e559d-dcc5-458d-9726-91e1ee1bcdc9","system_id":"levelo_inurba_marseille","lat":43.290103,"lon":5.356114,"is_reserved":false,"is_disabled":false,"rental_uris":{"android":"levelo://app?vid=e15e559d-dcc5-458d-9726-91e1ee1bcdc9","ios":"levelo://app?vid=e15e559d-dcc5-458d-9726-91e1ee1bcdc9"},"vehicle_type_id":"4","last_reported":1713377375,"current_range_meters":15200,"station_id":"ce4bhb92rcd13ifvqen0","pricing_plan_id":"cebpf4jnsgd1na2vs0mg"},{"bike_id":"d49c98d7-b6a0-4146-aefc-1d21f94cd07f","system_id":"levelo_inurba_marseille","lat":43.29006,"lon":5.35609,"is_reserved":false,"is_disabled":false,"rental_uris":{"android":"levelo://app?vid=d49c98d7-b6a0-4146-aefc-1d21f94cd07f","ios":"levelo://app?vid=d49c98d7-b6a0-4146-aefc-1d21f94cd07f"},"vehicle_type_id":"4","last_reported":1713377375,"current_range_meters":7600,"station_id":"ce4bhb92rcd13ifvqen0","pricing_plan_id":"cebpf4jnsgd1na2vs0mg"},{"bike_id":"e0d84076-f8d0-4447-bf19-47aa7d76a5d7","system_id":"levelo_inurba_marseille","lat":43.290104,"lon":5.356111,"is_reserved":false,"is_disabled":false,"rental_uris":{"android":"levelo://app?vid=e0d84076-f8d0-4447-bf19-47aa7d76a5d7","ios":"levelo://app?vid=e0d84076-f8d0-4447-bf19-47aa7d76a5d7"},"vehicle_type_id":"4","last_reported":1713377375,"current_range_meters":16000,"station_id":"ce4bhb92rcd13ifvqen0","pricing_plan_id":"cebpf4jnsgd1na2vs0mg"},{"bike_id":"5beb70c0-e15f-4147-b5b2-5d72d7f4fe38","system_id":"levelo_inurba_marseille","lat":43.290104,"lon":5.356111,"is_reserved":false,"is_disabled":false,"rental_uris":{"android":"levelo://app?vid=5beb70c0-e15f-4147-b5b2-5d72d7f4fe38","ios":"levelo://app?vid=5beb70c0-e15f-4147-b5b2-5d72d7f4fe38"},"vehicle_type_id":"4","last_reported":1713377375,"current_range_meters":31600,"station_id":"ce4bhb92rcd13ifvqen0","pricing_plan_id":"cebpf4jnsgd1na2vs0mg"},{"bike_id":"1fa8d499-4601-467c-ab8b-b27fda3aa3a4","system_id":"levelo_inurba_marseille","lat":43.290995,"lon":5.381361,"is_reserved":false,"is_disabled":false,"rental_uris":{"android":"levelo://app?vid=1fa8d499-4601-467c-ab8b-b27fda3aa3a4","ios":"levelo://app?vid=1fa8d499-4601-467c-ab8b-b27fda3aa3a4"},"vehicle_type_id":"4","last_reported":1713377375,"current_range_meters":12800,"station_id":"ce4bh512rcd13ifvqe2g","pricing_plan_id":"cebpf4jnsgd1na2vs0mg"},{"bike_id":"b806ced9-50fa-40ea-be80-512dc40e0536","system_id":"levelo_inurba_marseille","lat":43.295169,"lon":5.390426,"is_reserved":false,"is_disabled":false,"rental_uris":{"android":"levelo://app?vid=b806ced9-50fa-40ea-be80-512dc40e0536","ios":"levelo://app?vid=b806ced9-50fa-40ea-be80-512dc40e0536"},"vehicle_type_id":"4","last_reported":1713377375,"current_range_meters":29600,"station_id":"ce4bh3p2rcd13ifvqdp0","pricing_plan_id":"cebpf4jnsgd1na2vs0mg"},{"bike_id":"0bb4b6d8-17f3-43f8-9222-bf94b8c4a5fc","system_id":"levelo_inurba_marseille","lat":43.29801,"lon":5.39338,"is_reserved":false,"is_disabled":false,"rental_uris":{"android":"levelo://app?vid=0bb4b6d8-17f3-43f8-9222-bf94b8c4a5fc","ios":"levelo://app?vid=0bb4b6d8-17f3-43f8-9222-bf94b8c4a5fc"},"vehicle_type_id":"4","last_reported":1713377375,"current_range_meters":26400,"station_id":"chh1huq6cuj3fo74tm60","pricing_plan_id":"cebpf4jnsgd1na2vs0mg"},{"bike_id":"0dd3657d-4f3f-469c-911a-65090346f1f8","system_id":"levelo_inurba_marseille","lat":43.28907,"lon":5.35964,"is_reserved":false,"is_disabled":false,"rental_uris":{"android":"levelo://app?vid=0dd3657d-4f3f-469c-911a-65090346f1f8","ios":"levelo://app?vid=0dd3657d-4f3f-469c-911a-65090346f1f8"},"vehicle_type_id":"4","last_reported":1713377375,"current_range_meters":19600,"station_id":"ce4bhb12rcd13ifvqem0","pricing_plan_id":"cebpf4jnsgd1na2vs0mg"},{"bike_id":"b0d100d0-cad4-46e7-9838-791bc94ba03a","system_id":"levelo_inurba_marseille","lat":43.295169,"lon":5.390426,"is_reserved":false,"is_disabled":false,"rental_uris":{"android":"levelo://app?vid=b0d100d0-cad4-46e7-9838-791bc94ba03a","ios":"levelo://app?vid=b0d100d0-cad4-46e7-9838-791bc94ba03a"},"vehicle_type_id":"4","last_reported":1713377375,"current_range_meters":0,"station_id":"ce4bh3p2rcd13ifvqdp0","pricing_plan_id":"cebpf4jnsgd1na2vs0mg"},{"bike_id":"c8d390d8-97e0-473e-9311-cf9ef746f33c","system_id":"levelo_inurba_marseille","lat":43.297815,"lon":5.393548,"is_reserved":false,"is_disabled":false,"rental_uris":{"android":"levelo://app?vid=c8d390d8-97e0-473e-9311-cf9ef746f33c","ios":"levelo://app?vid=c8d390d8-97e0-473e-9311-cf9ef746f33c"},"vehicle_type_id":"4","last_reported":1713377375,"current_range_meters":10000,"station_id":"chh1huq6cuj3fo74tm60","pricing_plan_id":"cebpf4jnsgd1na2vs0mg"},{"bike_id":"086224ba-3579-4bdc-9d5d-4af2ea752ace","system_id":"levelo_inurba_marseille","lat":43.295361,"lon":5.390377,"is_reserved":false,"is_disabled":false,"rental_uris":{"android":"levelo://app?vid=086224ba-3579-4bdc-9d5d-4af2ea752ace","ios":"levelo://app?vid=086224ba-3579-4bdc-9d5d-4af2ea752ace"},"vehicle_type_id":"4","last_reported":1713377375,"current_range_meters":28400,"station_id":"ce4bh3p2rcd13ifvqdp0","pricing_plan_id":"cebpf4jnsgd1na2vs0mg"},{"bike_id":"58d75986-a79c-42c9-8e16-cb202ce7c0dd","system_id":"levelo_inurba_marseille","lat":43.297815,"lon":5.393548,"is_reserved":false,"is_disabled":false,"rental_uris":{"android":"levelo://app?vid=58d75986-a79c-42c9-8e16-cb202ce7c0dd","ios":"levelo://app?vid=58d75986-a79c-42c9-8e16-cb202ce7c0dd"},"vehicle_type_id":"4","last_reported":1713377375,"current_range_meters":0,"station_id":"chh1huq6cuj3fo74tm60","pricing_plan_id":"cebpf4jnsgd1na2vs0mg"},{"bike_id":"d6980503-39cf-412f-90b5-cac10e2532a8","system_id":"levelo_inurba_marseille","lat":43.295169,"lon":5.390426,"is_reserved":false,"is_disabled":false,"rental_uris":{"android":"levelo://app?vid=d6980503-39cf-412f-90b5-cac10e2532a8","ios":"levelo://app?vid=d6980503-39cf-412f-90b5-cac10e2532a8"},"vehicle_type_id":"4","last_reported":1713377375,"current_range_meters":18400,"station_id":"ce4bh3p2rcd13ifvqdp0","pricing_plan_id":"cebpf4jnsgd1na2vs0mg"},{"bike_id":"8f5494c7-0f08-4d71-849f-6271d8d64f6b","system_id":"levelo_inurba_marseille","lat":43.29525,"lon":5.39035,"is_reserved":false,"is_disabled":false,"rental_uris":{"android":"levelo://app?vid=8f5494c7-0f08-4d71-849f-6271d8d64f6b","ios":"levelo://app?vid=8f5494c7-0f08-4d71-849f-6271d8d64f6b"},"vehicle_type_id":"4","last_reported":1713377375,"current_range_meters":400,"station_id":"ce4bh3p2rcd13ifvqdp0","pricing_plan_id":"cebpf4jnsgd1na2vs0mg"},{"bike_id":"45f329c3-2c52-46a2-8b59-7ea553c23d9f","system_id":"levelo_inurba_marseille","lat":43.295511,"lon":5.422926,"is_reserved":false,"is_disabled":false,"rental_uris":{"android":"levelo://app?vid=45f329c3-2c52-46a2-8b59-7ea553c23d9f","ios":"levelo://app?vid=45f329c3-2c52-46a2-8b59-7ea553c23d9f"},"vehicle_type_id":"4","last_reported":1713377375,"current_range_meters":10400,"station_id":"ce4bhph2rcd13ifvqhdg","pricing_plan_id":"cebpf4jnsgd1na2vs0mg"},{"bike_id":"c3ddaefa-153e-4222-b950-75ff9c266b0c","system_id":"levelo_inurba_marseille","lat":43.289743,"lon":5.378304,"is_reserved":false,"is_disabled":false,"rental_uris":{"android":"levelo://app?vid=c3ddaefa-153e-4222-b950-75ff9c266b0c","ios":"levelo://app?vid=c3ddaefa-153e-4222-b950-75ff9c266b0c"},"vehicle_type_id":"4","last_reported":1713377375,"current_range_meters":4800,"station_id":"ce4bh9p2rcd13ifvqed0","pricing_plan_id":"cebpf4jnsgd1na2vs0mg"},{"bike_id":"339775ea-1e65-43fb-bfa7-3fdc2c3b5c97","system_id":"levelo_inurba_marseille","lat":43.330442,"lon":5.389148,"is_reserved":false,"is_disabled":false,"rental_uris":{"android":"levelo://app?vid=339775ea-1e65-43fb-bfa7-3fdc2c3b5c97","ios":"levelo://app?vid=339775ea-1e65-43fb-bfa7-3fdc2c3b5c97"},"vehicle_type_id":"4","last_reported":1713377375,"current_range_meters":7200,"station_id":"ce4bhr92rcd13ifvqhrg","pricing_plan_id":"cebpf4jnsgd1na2vs0mg"},{"bike_id":"4b73d012-af28-4309-981a-10fd5d75fda9","system_id":"levelo_inurba_marseille","lat":43.289743,"lon":5.378304,"is_reserved":false,"is_disabled":false,"rental_uris":{"android":"levelo://app?vid=4b73d012-af28-4309-981a-10fd5d75fda9","ios":"levelo://app?vid=4b73d012-af28-4309-981a-10fd5d75fda9"},"vehicle_type_id":"4","last_reported":1713377375,"current_range_meters":24400,"station_id":"ce4bh9p2rcd13ifvqed0","pricing_plan_id":"cebpf4jnsgd1na2vs0mg"},{"bike_id":"1e6210b7-529a-47f5-8faf-a0ce468c4ae3","system_id":"levelo_inurba_marseille","lat":43.330442,"lon":5.389148,"is_reserved":false,"is_disabled":false,"rental_uris":{"android":"levelo://app?vid=1e6210b7-529a-47f5-8faf-a0ce468c4ae3","ios":"levelo://app?vid=1e6210b7-529a-47f5-8faf-a0ce468c4ae3"},"vehicle_type_id":"4","last_reported":1713377375,"current_range_meters":31200,"station_id":"ce4bhr92rcd13ifvqhrg","pricing_plan_id":"cebpf4jnsgd1na2vs0mg"},{"bike_id":"2ab2a752-ce38-463a-b278-4c00c599df6b","system_id":"levelo_inurba_marseille","lat":43.330442,"lon":5.389148,"is_reserved":false,"is_disabled":false,"rental_uris":{"android":"levelo://app?vid=2ab2a752-ce38-463a-b278-4c00c599df6b","ios":"levelo://app?vid=2ab2a752-ce38-463a-b278-4c00c599df6b"},"vehicle_type_id":"4","last_reported":1713377375,"current_range_meters":25200,"station_id":"ce4bhr92rcd13ifvqhrg","pricing_plan_id":"cebpf4jnsgd1na2vs0mg"},{"bike_id":"22cbf198-4ac5-4b78-af9c-f8eb618cd3c3","system_id":"levelo_inurba_marseille","lat":43.330442,"lon":5.389148,"is_reserved":false,"is_disabled":false,"rental_uris":{"android":"levelo://app?vid=22cbf198-4ac5-4b78-af9c-f8eb618cd3c3","ios":"levelo://app?vid=22cbf198-4ac5-4b78-af9c-f8eb618cd3c3"},"vehicle_type_id":"4","last_reported":1713377375,"current_range_meters":31600,"station_id":"ce4bhr92rcd13ifvqhrg","pricing_plan_id":"cebpf4jnsgd1na2vs0mg"},{"bike_id":"086976ff-7dae-4647-9a6c-afb024a7db88","system_id":"levelo_inurba_marseille","lat":43.330442,"lon":5.389148,"is_reserved":false,"is_disabled":false,"rental_uris":{"android":"levelo://app?vid=086976ff-7dae-4647-9a6c-afb024a7db88","ios":"levelo://app?vid=086976ff-7dae-4647-9a6c-afb024a7db88"},"vehicle_type_id":"4","last_reported":1713377375,"current_range_meters":4400,"station_id":"ce4bhr92rcd13ifvqhrg","pricing_plan_id":"cebpf4jnsgd1na2vs0mg"},{"bike_id":"da24bee5-1fb3-43e5-984e-15260fdc0cc8","system_id":"levelo_inurba_marseille","lat":43.295169,"lon":5.390426,"is_reserved":false,"is_disabled":false,"rental_uris":{"android":"levelo://app?vid=da24bee5-1fb3-43e5-984e-15260fdc0cc8","ios":"levelo://app?vid=da24bee5-1fb3-43e5-984e-15260fdc0cc8"},"vehicle_type_id":"4","last_reported":1713377375,"current_range_meters":17600,"station_id":"ce4bh3p2rcd13ifvqdp0","pricing_plan_id":"cebpf4jnsgd1na2vs0mg"},{"bike_id":"537200da-e636-485a-963f-8f5d9f949019","system_id":"levelo_inurba_marseille","lat":43.330265,"lon":5.39042,"is_reserved":false,"is_disabled":false,"rental_uris":{"android":"levelo://app?vid=537200da-e636-485a-963f-8f5d9f949019","ios":"levelo://app?vid=537200da-e636-485a-963f-8f5d9f949019"},"vehicle_type_id":"4","last_reported":1713377375,"current_range_meters":13200,"station_id":"ce4bhr92rcd13ifvqhrg","pricing_plan_id":"cebpf4jnsgd1na2vs0mg"},{"bike_id":"7b5af33b-212c-46b6-b5cf-d30eb4f6561e","system_id":"levelo_inurba_marseille","lat":43.295169,"lon":5.390426,"is_reserved":false,"is_disabled":false,"rental_uris":{"android":"levelo://app?vid=7b5af33b-212c-46b6-b5cf-d30eb4f6561e","ios":"levelo://app?vid=7b5af33b-212c-46b6-b5cf-d30eb4f6561e"},"vehicle_type_id":"4","last_reported":1713377375,"current_range_meters":22800,"station_id":"ce4bh3p2rcd13ifvqdp0","pricing_plan_id":"cebpf4jnsgd1na2vs0mg"},{"bike_id":"9f3be195-f1ef-4ae4-bc5b-2d572c24bf0e","system_id":"levelo_inurba_marseille","lat":43.295169,"lon":5.390426,"is_reserved":false,"is_disabled":false,"rental_uris":{"android":"levelo://app?vid=9f3be195-f1ef-4ae4-bc5b-2d572c24bf0e","ios":"levelo://app?vid=9f3be195-f1ef-4ae4-bc5b-2d572c24bf0e"},"vehicle_type_id":"4","last_reported":1713377375,"current_range_meters":16000,"station_id":"ce4bh3p2rcd13ifvqdp0","pricing_plan_id":"cebpf4jnsgd1na2vs0mg"},{"bike_id":"d0940def-0f05-43df-adab-d3bdd698f14f","system_id":"levelo_inurba_marseille","lat":43.330442,"lon":5.389148,"is_reserved":false,"is_disabled":false,"rental_uris":{"android":"levelo://app?vid=d0940def-0f05-43df-adab-d3bdd698f14f","ios":"levelo://app?vid=d0940def-0f05-43df-adab-d3bdd698f14f"},"vehicle_type_id":"4","last_reported":1713377375,"current_range_meters":1200,"station_id":"ce4bhr92rcd13ifvqhrg","pricing_plan_id":"cebpf4jnsgd1na2vs0mg"},{"bike_id":"0238e745-4706-4800-9c89-b6c765d92816","system_id":"levelo_inurba_marseille","lat":43.330305,"lon":5.39057,"is_reserved":false,"is_disabled":false,"rental_uris":{"android":"levelo://app?vid=0238e745-4706-4800-9c89-b6c765d92816","ios":"levelo://app?vid=0238e745-4706-4800-9c89-b6c765d92816"},"vehicle_type_id":"4","last_reported":1713377375,"current_range_meters":0,"station_id":"ce4bhr92rcd13ifvqhrg","pricing_plan_id":"cebpf4jnsgd1na2vs0mg"},{"bike_id":"ec3aa3be-78a3-4dc4-ba8c-854620d9d780","system_id":"levelo_inurba_marseille","lat":43.291265,"lon":5.383396,"is_reserved":false,"is_disabled":false,"rental_uris":{"android":"levelo://app?vid=ec3aa3be-78a3-4dc4-ba8c-854620d9d780","ios":"levelo://app?vid=ec3aa3be-78a3-4dc4-ba8c-854620d9d780"},"vehicle_type_id":"4","last_reported":1713377375,"current_range_meters":800,"station_id":"","pricing_plan_id":"cebpf4jnsgd1na2vs0mg"},{"bike_id":"72191d04-44af-4150-bdc2-b4a494176bf4","system_id":"levelo_inurba_marseille","lat":43.28856,"lon":5.358371,"is_reserved":false,"is_disabled":false,"rental_uris":{"android":"levelo://app?vid=72191d04-44af-4150-bdc2-b4a494176bf4","ios":"levelo://app?vid=72191d04-44af-4150-bdc2-b4a494176bf4"},"vehicle_type_id":"4","last_reported":1713377375,"current_range_meters":27600,"station_id":"ce4bhb12rcd13ifvqem0","pricing_plan_id":"cebpf4jnsgd1na2vs0mg"},{"bike_id":"dff2eba1-86b3-48bb-bd3b-581a97d42c97","system_id":"levelo_inurba_marseille","lat":43.28868,"lon":5.35873,"is_reserved":false,"is_disabled":false,"rental_uris":{"android":"levelo://app?vid=dff2eba1-86b3-48bb-bd3b-581a97d42c97","ios":"levelo://app?vid=dff2eba1-86b3-48bb-bd3b-581a97d42c97"},